{"data": {"bikes": [{"lon": -76.92910866666666, "is_disabled": 0, "lat": 38.898523833333336, "fusion_lat": 0.0, "is_reserved": 0, "rental_uris": {"ios": "https://dc.lft.to/lastmile_qr_scan", "android": "https://dc.lft.to/lastmile_qr_scan"}, "fusion_lon": 0.0, "type": "electric_scooter", "bike_id": "02d7b5c1b45d77c18f046d376f31c13f", "name": "02d7b5c1b45d77c18f046d376f31c13f"}, {"lon": -77.04836666666667, "is_disabled": 0, "lat": 38.8984135, "fusion_lat": 0.0, "is_reserved": 0, "rental_uris": {"ios": "https://dc.lft.to/lastmile_qr_scan", "android": "https://dc.lft.to/lastmile_qr_scan"}, "fusion_lon": 0.0, "type": "electric_scooter", "bike_id": "b009591650ac03826d9203aa7a095dfd", "name": "b009591650ac03826d9203aa7a095dfd"}, {"lon": -77.01046833333334, "is_disabled": 0, "lat": 38.877631666666666, "fusion_lat": 0.0, "is_reserved": 0, "rental_uris": {"ios": "https://dc.lft.to/lastmile_qr_scan", "android": "https://dc.lft.to/lastmile_qr_scan"}, "fusion_lon": 0.0, "type": "electric_bike", "bike_id": "c59fae7d00a6f587abfac45e3926c39c", "name": "c59fae7d00a6f587abfac45e3926c39c"}, {"lon": -77.04299983333334, "is_disabled": 0, "lat": 38.931869166666665, "fusion_lat": 0.0, "is_reserved": 0, "rental_uris": {"ios": "https://dc.lft.to/lastmile_qr_scan", "android": "https://dc.lft.to/lastmile_qr_scan"}, "fusion_lon": 0.0, "type": "electric_scooter", "bike_id": "0376a68e1583246a645478b4a446d943", "name": "0376a68e1583246a645478b4a446d943"}, {"lon": -77.00224666666666, "is_disabled": 0, "lat": 38.92511233333333, "fusion_lat": 0.0, "is_reserved": 0, "rental_uris": {"ios": "https://dc.lft.to/lastmile_qr_scan", "android": "https://dc.lft.to/lastmile_qr_scan"}, "fusion_lon": 0.0, "type": "electric_scooter", "bike_id": "a92e625089b0bb554df866c0f6f11fad", "name": "a92e625089b0bb554df866c0f6f11fad"}, {"lon": -77.0297715, "is_disabled": 0, "lat": 38.91992483333333, "fusion_lat": 0.0, "is_reserved": 0, "rental_uris": {"ios": "https://dc.lft.to/lastmile_qr_scan", "android": "https://dc.lft.to/lastmile_qr_scan"}, "fusion_lon": 0.0, "type": "electric_scooter", "bike_id": "c1b310142788f022409f88fc570aa8ef", "name": "c1b310142788f022409f88fc570aa8ef"}, {"lon": -77.04928233333334, "is_disabled": 0, "lat": 38.918294833333334, "fusion_lat": 0.0, "is_reserved": 0, "rental_uris": {"ios": "https://dc.lft.to/lastmile_qr_scan", "android": "https://dc.lft.to/lastmile_qr_scan"}, "fusion_lon": 0.0, "type": "electric_scooter", "bike_id": "609b99977d23a070d7f2dea851406478", "name": "609b99977d23a070d7f2dea851406478"}, {"lon": -77.02813616666667, "is_disabled": 0, "lat": 38.91134916666667, "fusion_lat": 0.0, "is_reserved": 0, "rental_uris": {"ios": "https://dc.lft.to/lastmile_qr_scan", "android": "https://dc.lft.to/lastmile_qr_scan"}, "fusion_lon": 0.0, "type": "electric_scooter", "bike_id": "a208662e3f77894d28324009bf551b66", "name": "a208662e3f77894d28324009bf551b66"}, {"lon": -77.052618, "is_disabled": 0, "lat": 38.927764333333336, "fusion_lat": 0.0, "is_reserved": 0, "rental_uris": {"ios": "https://dc.lft.to/lastmile_qr_scan", "android": "https://dc.lft.to/lastmile_qr_scan"}, "fusion_lon": 0.0, "type": "electric_scooter", "bike_id": "366a7a1b87e1348425861aebebf75fe2", "name": "366a7a1b87e1348425861aebebf75fe2"}, {"lon": -77.03226166666667, "is_disabled": 0, "lat": 38.908674166666664, "fusion_lat": 0.0, "is_reserved": 0, "rental_uris": {"ios": "https://dc.lft.to/lastmile_qr_scan", "android": "https://dc.lft.to/lastmile_qr_scan"}, "fusion_lon": 0.0, "type": "electric_scooter", "bike_id": "ef777cc7ef864ce15e4e792f5aac04ba", "name": "ef777cc7ef864ce15e4e792f5aac04ba"}, {"lon": -77.02057766666667, "is_disabled": 0, "lat": 38.928479333333335, "fusion_lat": 0.0, "is_reserved": 0, "rental_uris": {"ios": "https://dc.lft.to/lastmile_qr_scan", "android": "https://dc.lft.to/lastmile_qr_scan"}, "fusion_lon": 0.0, "type": "electric_bike", "bike_id": "142036ab00cd890bc180df81ade7add1", "name": "142036ab00cd890bc180df81ade7add1"}, {"lon": -77.03869333333333, "is_disabled": 0, "lat": 38.921529166666666, "fusion_lat": 0.0, "is_reserved": 0, "rental_uris": {"ios": "https://dc.lft.to/lastmile_qr_scan", "android": "https://dc.lft.to/lastmile_qr_scan"}, "fusion_lon": 0.0, "type": "electric_scooter", "bike_id": "601fe1156779f1ef9afba6e2658aa1f1", "name": "601fe1156779f1ef9afba6e2658aa1f1"}, {"lon": -77.03872966666667, "is_disabled": 0, "lat": 38.921534333333334, "fusion_lat": 0.0, "is_reserved": 0, "rental_uris": {"ios": "https://dc.lft.to/lastmile_qr_scan", "android": "https://dc.lft.to/lastmile_qr_scan"}, "fusion_lon": 0.0, "type": "electric_scooter", "bike_id": "090aec537224f5d5ffdf952393a591a2", "name": "090aec537224f5d5ffdf952393a591a2"}, {"lon": -76.9895915, "is_disabled": 0, "lat": 38.858833833333335, "fusion_lat": 0.0, "is_reserved": 0, "rental_uris": {"ios": "https://dc.lft.to/lastmile_qr_scan", "android": "https://dc.lft.to/lastmile_qr_scan"}, "fusion_lon": 0.0, "type": "electric_scooter", "bike_id": "0219cd2128f27c57d07302c7bd3d78cb", "name": "0219cd2128f27c57d07302c7bd3d78cb"}, {"lon": -77.03105133333334, "is_disabled": 0, "lat": 38.88322616666667, "fusion_lat": 0.0, "is_reserved": 0, "rental_uris": {"ios": "https://dc.lft.to/lastmile_qr_scan", "android": "https://dc.lft.to/lastmile_qr_scan"}, "fusion_lon": 0.0, "type": "electric_scooter", "bike_id": "ad02f92f312e3f4ce2c2b7432490275f", "name": "ad02f92f312e3f4ce2c2b7432490275f"}, {"lon": -77.0365785, "is_disabled": 0, "lat": 38.91246366666667, "fusion_lat": 0.0, "is_reserved": 0, "rental_uris": {"ios": "https://dc.lft.to/lastmile_qr_scan", "android": "https://dc.lft.to/lastmile_qr_scan"}, "fusion_lon": 0.0, "type": "electric_scooter", "bike_id": "38c9a6eda215c380c127fe219bba72ff", "name": "38c9a6eda215c380c127fe219bba72ff"}, {"lon": -76.9883955, "is_disabled": 0, "lat": 38.896673166666666, "fusion_lat": 0.0, "is_reserved": 0, "rental_uris": {"ios": "https://dc.lft.to/lastmile_qr_scan", "android": "https://dc.lft.to/lastmile_qr_scan"}, "fusion_lon": 0.0, "type": "electric_scooter", "bike_id": "1ca3a387cb7b7afad4418e486a281056", "name": "1ca3a387cb7b7afad4418e486a281056"}, {"lon": -76.99630233333333, "is_disabled": 0, "lat": 38.88724166666667, "fusion_lat": 0.0, "is_reserved": 0, "rental_uris": {"ios": "https://dc.lft.to/lastmile_qr_scan", "android": "https://dc.lft.to/lastmile_qr_scan"}, "fusion_lon": 0.0, "type": "electric_scooter", "bike_id": "8300a57077666ed31096465fc0f2784a", "name": "8300a57077666ed31096465fc0f2784a"}, {"lon": -77.0254435, "is_disabled": 0, "lat": 38.92406033333334, "fusion_lat": 0.0, "is_reserved": 0, "rental_uris": {"ios": "https://dc.lft.to/lastmile_qr_scan", "android": "https://dc.lft.to/lastmile_qr_scan"}, "fusion_lon": 0.0, "type": "electric_scooter", "bike_id": "bc253ebde624d383063129eb8e336203", "name": "bc253ebde624d383063129eb8e336203"}, {"lon": -77.0217255, "is_disabled": 0, "lat": 38.9429225, "fusion_lat": 0.0, "is_reserved": 0, "rental_uris": {"ios": "https://dc.lft.to/lastmile_qr_scan", "android": "https://dc.lft.to/lastmile_qr_scan"}, "fusion_lon": 0.0, "type": "electric_scooter", "bike_id": "88aaffdda169e9a22d15b8c3bd5dc3d8", "name": "88aaffdda169e9a22d15b8c3bd5dc3d8"}, {"lon": -77.003394, "is_disabled": 0, "lat": 38.89522783333334, "fusion_lat": 0.0, "is_reserved": 0, "rental_uris": {"ios": "https://dc.lft.to/lastmile_qr_scan", "android": "https://dc.lft.to/lastmile_qr_scan"}, "fusion_lon": 0.0, "type": "electric_scooter", "bike_id": "0443c03e8112a7160639c1b58ddecce5", "name": "0443c03e8112a7160639c1b58ddecce5"}, {"lon": -77.04231533333333, "is_disabled": 0, "lat": 38.92627133333333, "fusion_lat": 0.0, "is_reserved": 0, "rental_uris": {"ios": "https://dc.lft.to/lastmile_qr_scan", "android": "https://dc.lft.to/lastmile_qr_scan"}, "fusion_lon": 0.0, "type": "electric_scooter", "bike_id": "52256832780adab4da513a98a22c70fa", "name": "52256832780adab4da513a98a22c70fa"}, {"lon": -77.05222683333334, "is_disabled": 0, "lat": 38.925032, "fusion_lat": 0.0, "is_reserved": 0, "rental_uris": {"ios": "https://dc.lft.to/lastmile_qr_scan", "android": "https://dc.lft.to/lastmile_qr_scan"}, "fusion_lon": 0.0, "type": "electric_scooter", "bike_id": "954ac3bba76868884478815a00b43c35", "name": "954ac3bba76868884478815a00b43c35"}, {"lon": -76.992115, "is_disabled": 0, "lat": 38.9402155, "fusion_lat": 0.0, "is_reserved": 0, "rental_uris": {"ios": "https://dc.lft.to/lastmile_qr_scan", "android": "https://dc.lft.to/lastmile_qr_scan"}, "fusion_lon": 0.0, "type": "electric_bike", "bike_id": "6a56861c3d953e3c41a44fb1f9831970", "name": "6a56861c3d953e3c41a44fb1f9831970"}, {"lon": -77.00027066666667, "is_disabled": 0, "lat": 38.87402866666667, "fusion_lat": 0.0, "is_reserved": 0, "rental_uris": {"ios": "https://dc.lft.to/lastmile_qr_scan", "android": "https://dc.lft.to/lastmile_qr_scan"}, "fusion_lon": 0.0, "type": "electric_scooter", "bike_id": "b8704d733278db97771b18a265ec23cc", "name": "b8704d733278db97771b18a265ec23cc"}, {"lon": -77.02377466666667, "is_disabled": 0, "lat": 38.9140655, "fusion_lat": 0.0, "is_reserved": 0, "rental_uris": {"ios": "https://dc.lft.to/lastmile_qr_scan", "android": "https://dc.lft.to/lastmile_qr_scan"}, "fusion_lon": 0.0, "type": "electric_scooter", "bike_id": "91edf3aab4a3a998f286f790c9e48db3", "name": "91edf3aab4a3a998f286f790c9e48db3"}, {"lon": -77.08571716666667, "is_disabled": 0, "lat": 38.8742495, "fusion_lat": 0.0, "is_reserved": 0, "rental_uris": {"ios": "https://dc.lft.to/lastmile_qr_scan", "android": "https://dc.lft.to/lastmile_qr_scan"}, "fusion_lon": 0.0, "type": "electric_bike", "bike_id": "a42dc1dbd723d2705b51179529681379", "name": "a42dc1dbd723d2705b51179529681379"}, {"lon": -77.0544045, "is_disabled": 0, "lat": 38.92843466666667, "fusion_lat": 0.0, "is_reserved": 0, "rental_uris": {"ios": "https://dc.lft.to/lastmile_qr_scan", "android": "https://dc.lft.to/lastmile_qr_scan"}, "fusion_lon": 0.0, "type": "electric_scooter", "bike_id": "c90778382c7378c920a0fc44fc9eb939", "name": "c90778382c7378c920a0fc44fc9eb939"}, {"lon": -77.04461733333333, "is_disabled": 0, "lat": 38.923113, "fusion_lat": 0.0, "is_reserved": 0, "rental_uris": {"ios": "https://dc.lft.to/lastmile_qr_scan", "android": "https://dc.lft.to/lastmile_qr_scan"}, "fusion_lon": 0.0, "type": "electric_scooter", "bike_id": "d6bb5fcfc248fd3eec7b4c6fbbaa74c4", "name": "d6bb5fcfc248fd3eec7b4c6fbbaa74c4"}, {"lon": -77.0344275, "is_disabled": 0, "lat": 38.90684666666667, "fusion_lat": 0.0, "is_reserved": 0, "rental_uris": {"ios": "https://dc.lft.to/lastmile_qr_scan", "android": "https://dc.lft.to/lastmile_qr_scan"}, "fusion_lon": 0.0, "type": "electric_scooter", "bike_id": "d5ead3d43c972c86418597401b63143b", "name": "d5ead3d43c972c86418597401b63143b"}, {"lon": -77.02642016666667, "is_disabled": 0, "lat": 38.89624933333333, "fusion_lat": 0.0, "is_reserved": 0, "rental_uris": {"ios": "https://dc.lft.to/lastmile_qr_scan", "android": "https://dc.lft.to/lastmile_qr_scan"}, "fusion_lon": 0.0, "type": "electric_scooter", "bike_id": "3662a50f598bf78b4782f11a99317dab", "name": "3662a50f598bf78b4782f11a99317dab"}, {"lon": -77.04450283333334, "is_disabled": 0, "lat": 38.89840733333333, "fusion_lat": 0.0, "is_reserved": 0, "rental_uris": {"ios": "https://dc.lft.to/lastmile_qr_scan", "android": "https://dc.lft.to/lastmile_qr_scan"}, "fusion_lon": 0.0, "type": "electric_scooter", "bike_id": "7026ee1e73e70ab03b97978d6cfe3fd7", "name": "7026ee1e73e70ab03b97978d6cfe3fd7"}, {"lon": -77.036402, "is_disabled": 0, "lat": 38.91792083333333, "fusion_lat": 0.0, "is_reserved": 0, "rental_uris": {"ios": "https://dc.lft.to/lastmile_qr_scan", "android": "https://dc.lft.to/lastmile_qr_scan"}, "fusion_lon": 0.0, "type": "electric_scooter", "bike_id": "3b08c4fd41f42d59536947ed6070cb8f", "name": "3b08c4fd41f42d59536947ed6070cb8f"}, {"lon": -76.97054766666666, "is_disabled": 0, "lat": 38.98460933333333, "fusion_lat": 0.0, "is_reserved": 0, "rental_uris": {"ios": "https://dc.lft.to/lastmile_qr_scan", "android": "https://dc.lft.to/lastmile_qr_scan"}, "fusion_lon": 0.0, "type": "electric_bike", "bike_id": "ce46b8d0350047a63ca2251d4e2f7745", "name": "ce46b8d0350047a63ca2251d4e2f7745"}, {"lon": -77.08533433333334, "is_disabled": 0, "lat": 38.91604566666667, "fusion_lat": 0.0, "is_reserved": 0, "rental_uris": {"ios": "https://dc.lft.to/lastmile_qr_scan", "android": "https://dc.lft.to/lastmile_qr_scan"}, "fusion_lon": 0.0, "type": "electric_scooter", "bike_id": "645ae4954064b10443d69f46ac192992", "name": "645ae4954064b10443d69f46ac192992"}, {"lon": -77.038277, "is_disabled": 0, "lat": 38.902772166666665, "fusion_lat": 0.0, "is_reserved": 0, "rental_uris": {"ios": "https://dc.lft.to/lastmile_qr_scan", "android": "https://dc.lft.to/lastmile_qr_scan"}, "fusion_lon": 0.0, "type": "electric_scooter", "bike_id": "6b7120ef0b63080475170d078bdf742b", "name": "6b7120ef0b63080475170d078bdf742b"}, {"lon": -76.98813466666667, "is_disabled": 0, "lat": 38.8665015, "fusion_lat": 0.0, "is_reserved": 0, "rental_uris": {"ios": "https://dc.lft.to/lastmile_qr_scan", "android": "https://dc.lft.to/lastmile_qr_scan"}, "fusion_lon": 0.0, "type": "electric_scooter", "bike_id": "5875906a3dbe023ca40ceb30cbdffbcb", "name": "5875906a3dbe023ca40ceb30cbdffbcb"}, {"lon": -77.0196285, "is_disabled": 0, "lat": 38.95256233333333, "fusion_lat": 0.0, "is_reserved": 0, "rental_uris": {"ios": "https://dc.lft.to/lastmile_qr_scan", "android": "https://dc.lft.to/lastmile_qr_scan"}, "fusion_lon": 0.0, "type": "electric_scooter", "bike_id": "517e892c165310cf993637487a39913a", "name": "517e892c165310cf993637487a39913a"}, {"lon": -77.04122333333333, "is_disabled": 0, "lat": 38.925243333333334, "fusion_lat": 0.0, "is_reserved": 0, "rental_uris": {"ios": "https://dc.lft.to/lastmile_qr_scan", "android": "https://dc.lft.to/lastmile_qr_scan"}, "fusion_lon": 0.0, "type": "electric_scooter", "bike_id": "79b13f194882d88ee8d82c1fef3db1a6", "name": "79b13f194882d88ee8d82c1fef3db1a6"}, {"lon": -76.98575716666667, "is_disabled": 0, "lat": 38.866844666666665, "fusion_lat": 0.0, "is_reserved": 0, "rental_uris": {"ios": "https://dc.lft.to/lastmile_qr_scan", "android": "https://dc.lft.to/lastmile_qr_scan"}, "fusion_lon": 0.0, "type": "electric_scooter", "bike_id": "a6e2dd1e46d6d5075dc7aacccdcd650b", "name": "a6e2dd1e46d6d5075dc7aacccdcd650b"}, {"lon": -77.01984683333333, "is_disabled": 0, "lat": 38.89748633333333, "fusion_lat": 0.0, "is_reserved": 0, "rental_uris": {"ios": "https://dc.lft.to/lastmile_qr_scan", "android": "https://dc.lft.to/lastmile_qr_scan"}, "fusion_lon": 0.0, "type": "electric_scooter", "bike_id": "a40ef7efb29c8a69c7e2dd0bdf1f8188", "name": "a40ef7efb29c8a69c7e2dd0bdf1f8188"}, {"lon": -77.02034433333333, "is_disabled": 0, "lat": 38.91554683333333, "fusion_lat": 0.0, "is_reserved": 0, "rental_uris": {"ios": "https://dc.lft.to/lastmile_qr_scan", "android": "https://dc.lft.to/lastmile_qr_scan"}, "fusion_lon": 0.0, "type": "electric_scooter", "bike_id": "fe3e6ee40e77257268bffaa72dc1fa56", "name": "fe3e6ee40e77257268bffaa72dc1fa56"}, {"lon": -77.0202155, "is_disabled": 0, "lat": 38.92463633333333, "fusion_lat": 0.0, "is_reserved": 0, "rental_uris": {"ios": "https://dc.lft.to/lastmile_qr_scan", "android": "https://dc.lft.to/lastmile_qr_scan"}, "fusion_lon": 0.0, "type": "electric_scooter", "bike_id": "a444c30e0d369c62538e971824e8ceb6", "name": "a444c30e0d369c62538e971824e8ceb6"}, {"lon": -77.03197066666667, "is_disabled": 0, "lat": 38.892316666666666, "fusion_lat": 0.0, "is_reserved": 0, "rental_uris": {"ios": "https://dc.lft.to/lastmile_qr_scan", "android": "https://dc.lft.to/lastmile_qr_scan"}, "fusion_lon": 0.0, "type": "electric_scooter", "bike_id": "9500a11f13a2715657a12ffc33d9df67", "name": "9500a11f13a2715657a12ffc33d9df67"}, {"lon": -76.9397855, "is_disabled": 0, "lat": 38.8931195, "fusion_lat": 0.0, "is_reserved": 0, "rental_uris": {"ios": "https://dc.lft.to/lastmile_qr_scan", "android": "https://dc.lft.to/lastmile_qr_scan"}, "fusion_lon": 0.0, "type": "electric_scooter", "bike_id": "1ed70294122077dce28e94395d6b6947", "name": "1ed70294122077dce28e94395d6b6947"}, {"lon": -76.98854416666667, "is_disabled": 0, "lat": 38.84436183333333, "fusion_lat": 0.0, "is_reserved": 0, "rental_uris": {"ios": "https://dc.lft.to/lastmile_qr_scan", "android": "https://dc.lft.to/lastmile_qr_scan"}, "fusion_lon": 0.0, "type": "electric_scooter", "bike_id": "bc361e46a469a1083cc3a1e5e597db44", "name": "bc361e46a469a1083cc3a1e5e597db44"}, {"lon": -77.02655666666666, "is_disabled": 0, "lat": 38.917068666666665, "fusion_lat": 0.0, "is_reserved": 0, "rental_uris": {"ios": "https://dc.lft.to/lastmile_qr_scan", "android": "https://dc.lft.to/lastmile_qr_scan"}, "fusion_lon": 0.0, "type": "electric_scooter", "bike_id": "bb687999bb7a2341a58cd5702c18a69c", "name": "bb687999bb7a2341a58cd5702c18a69c"}, {"lon": -77.0418505, "is_disabled": 0, "lat": 38.926245333333334, "fusion_lat": 0.0, "is_reserved": 0, "rental_uris": {"ios": "https://dc.lft.to/lastmile_qr_scan", "android": "https://dc.lft.to/lastmile_qr_scan"}, "fusion_lon": 0.0, "type": "electric_scooter", "bike_id": "41b694c4759d92fe674b2ea31014b9ee", "name": "41b694c4759d92fe674b2ea31014b9ee"}, {"lon": -76.9949295, "is_disabled": 0, "lat": 38.862443666666664, "fusion_lat": 0.0, "is_reserved": 0, "rental_uris": {"ios": "https://dc.lft.to/lastmile_qr_scan", "android": "https://dc.lft.to/lastmile_qr_scan"}, "fusion_lon": 0.0, "type": "electric_scooter", "bike_id": "84d23ce218ca61385989db22f097ceb1", "name": "84d23ce218ca61385989db22f097ceb1"}, {"lon": -77.04370383333334, "is_disabled": 0, "lat": 38.89225033333334, "fusion_lat": 0.0, "is_reserved": 0, "rental_uris": {"ios": "https://dc.lft.to/lastmile_qr_scan", "android": "https://dc.lft.to/lastmile_qr_scan"}, "fusion_lon": 0.0, "type": "electric_scooter", "bike_id": "cbaec63794e7bbfcc926ad9d1e58e4fe", "name": "cbaec63794e7bbfcc926ad9d1e58e4fe"}, {"lon": -77.02448016666666, "is_disabled": 0, "lat": 38.918339833333334, "fusion_lat": 0.0, "is_reserved": 0, "rental_uris": {"ios": "https://dc.lft.to/lastmile_qr_scan", "android": "https://dc.lft.to/lastmile_qr_scan"}, "fusion_lon": 0.0, "type": "electric_scooter", "bike_id": "eaba82793d53e34351dcc1625f504bbf", "name": "eaba82793d53e34351dcc1625f504bbf"}, {"lon": -77.03973016666667, "is_disabled": 0, "lat": 38.90348783333334, "fusion_lat": 0.0, "is_reserved": 0, "rental_uris": {"ios": "https://dc.lft.to/lastmile_qr_scan", "android": "https://dc.lft.to/lastmile_qr_scan"}, "fusion_lon": 0.0, "type": "electric_scooter", "bike_id": "583ec3c8f5a06696202a7bce0ac03317", "name": "583ec3c8f5a06696202a7bce0ac03317"}, {"lon": -77.04460766666666, "is_disabled": 0, "lat": 38.92539516666667, "fusion_lat": 0.0, "is_reserved": 0, "rental_uris": {"ios": "https://dc.lft.to/lastmile_qr_scan", "android": "https://dc.lft.to/lastmile_qr_scan"}, "fusion_lon": 0.0, "type": "electric_scooter", "bike_id": "eca6830f15f9596f7e02c4daf13f666d", "name": "eca6830f15f9596f7e02c4daf13f666d"}, {"lon": -77.029466, "is_disabled": 0, "lat": 38.916821666666664, "fusion_lat": 0.0, "is_reserved": 0, "rental_uris": {"ios": "https://dc.lft.to/lastmile_qr_scan", "android": "https://dc.lft.to/lastmile_qr_scan"}, "fusion_lon": 0.0, "type": "electric_scooter", "bike_id": "3c8b70c497f270d806b59987af0776a8", "name": "3c8b70c497f270d806b59987af0776a8"}, {"lon": -77.0619415, "is_disabled": 0, "lat": 38.93352433333333, "fusion_lat": 0.0, "is_reserved": 0, "rental_uris": {"ios": "https://dc.lft.to/lastmile_qr_scan", "android": "https://dc.lft.to/lastmile_qr_scan"}, "fusion_lon": 0.0, "type": "electric_scooter", "bike_id": "07d0342afcfde6434371248c77d26023", "name": "07d0342afcfde6434371248c77d26023"}, {"lon": -77.0475255, "is_disabled": 0, "lat": 38.9049065, "fusion_lat": 0.0, "is_reserved": 0, "rental_uris": {"ios": "https://dc.lft.to/lastmile_qr_scan", "android": "https://dc.lft.to/lastmile_qr_scan"}, "fusion_lon": 0.0, "type": "electric_scooter", "bike_id": "7e865b9723d4050602089792e3122ddd", "name": "7e865b9723d4050602089792e3122ddd"}, {"lon": -77.034964, "is_disabled": 0, "lat": 38.9346135, "fusion_lat": 0.0, "is_reserved": 0, "rental_uris": {"ios": "https://dc.lft.to/lastmile_qr_scan", "android": "https://dc.lft.to/lastmile_qr_scan"}, "fusion_lon": 0.0, "type": "electric_scooter", "bike_id": "44108a153387d72d9ee97d7612011f0e", "name": "44108a153387d72d9ee97d7612011f0e"}, {"lon": -77.03178066666666, "is_disabled": 0, "lat": 38.918516333333336, "fusion_lat": 0.0, "is_reserved": 0, "rental_uris": {"ios": "https://dc.lft.to/lastmile_qr_scan", "android": "https://dc.lft.to/lastmile_qr_scan"}, "fusion_lon": 0.0, "type": "electric_scooter", "bike_id": "b5bf866e0099153fdbbb4bb68f327744", "name": "b5bf866e0099153fdbbb4bb68f327744"}, {"lon": -76.98715866666667, "is_disabled": 0, "lat": 38.866990333333334, "fusion_lat": 0.0, "is_reserved": 0, "rental_uris": {"ios": "https://dc.lft.to/lastmile_qr_scan", "android": "https://dc.lft.to/lastmile_qr_scan"}, "fusion_lon": 0.0, "type": "electric_scooter", "bike_id": "1b22d0e811bb64fd207f5fb964ddbc92", "name": "1b22d0e811bb64fd207f5fb964ddbc92"}, {"lon": -76.99308766666667, "is_disabled": 0, "lat": 38.85759483333333, "fusion_lat": 0.0, "is_reserved": 0, "rental_uris": {"ios": "https://dc.lft.to/lastmile_qr_scan", "android": "https://dc.lft.to/lastmile_qr_scan"}, "fusion_lon": 0.0, "type": "electric_scooter", "bike_id": "5a12c0f863e124f86c874d4f35e5d7d7", "name": "5a12c0f863e124f86c874d4f35e5d7d7"}, {"lon": -76.99851233333334, "is_disabled": 0, "lat": 38.8962475, "fusion_lat": 0.0, "is_reserved": 0, "rental_uris": {"ios": "https://dc.lft.to/lastmile_qr_scan", "android": "https://dc.lft.to/lastmile_qr_scan"}, "fusion_lon": 0.0, "type": "electric_scooter", "bike_id": "de64927d4638dd6e0b817e996b18c9d2", "name": "de64927d4638dd6e0b817e996b18c9d2"}, {"lon": -77.0430175, "is_disabled": 0, "lat": 38.905496, "fusion_lat": 0.0, "is_reserved": 0, "rental_uris": {"ios": "https://dc.lft.to/lastmile_qr_scan", "android": "https://dc.lft.to/lastmile_qr_scan"}, "fusion_lon": 0.0, "type": "electric_scooter", "bike_id": "f1bedd73199702c3ed3e0e00592cc1c1", "name": "f1bedd73199702c3ed3e0e00592cc1c1"}, {"lon": -77.02276516666667, "is_disabled": 0, "lat": 38.894779, "fusion_lat": 0.0, "is_reserved": 0, "rental_uris": {"ios": "https://dc.lft.to/lastmile_qr_scan", "android": "https://dc.lft.to/lastmile_qr_scan"}, "fusion_lon": 0.0, "type": "electric_scooter", "bike_id": "c575b6a74443aa47fa0dc5e62a8982e4", "name": "c575b6a74443aa47fa0dc5e62a8982e4"}, {"lon": -77.04378733333333, "is_disabled": 0, "lat": 38.925695, "fusion_lat": 0.0, "is_reserved": 0, "rental_uris": {"ios": "https://dc.lft.to/lastmile_qr_scan", "android": "https://dc.lft.to/lastmile_qr_scan"}, "fusion_lon": 0.0, "type": "electric_scooter", "bike_id": "0c16cc7d4c68a59f285fc711236bc38f", "name": "0c16cc7d4c68a59f285fc711236bc38f"}, {"lon": -77.02635966666666, "is_disabled": 0, "lat": 38.984697833333335, "fusion_lat": 0.0, "is_reserved": 0, "rental_uris": {"ios": "https://dc.lft.to/lastmile_qr_scan", "android": "https://dc.lft.to/lastmile_qr_scan"}, "fusion_lon": 0.0, "type": "electric_scooter", "bike_id": "a48a454ae6906b60f8b10dbe07377961", "name": "a48a454ae6906b60f8b10dbe07377961"}, {"lon": -77.03862616666666, "is_disabled": 0, "lat": 38.908051666666665, "fusion_lat": 0.0, "is_reserved": 0, "rental_uris": {"ios": "https://dc.lft.to/lastmile_qr_scan", "android": "https://dc.lft.to/lastmile_qr_scan"}, "fusion_lon": 0.0, "type": "electric_scooter", "bike_id": "2d7596fa6726eb11db7da6a5c491745e", "name": "2d7596fa6726eb11db7da6a5c491745e"}, {"lon": -77.07355683333333, "is_disabled": 0, "lat": 38.933594166666666, "fusion_lat": 0.0, "is_reserved": 0, "rental_uris": {"ios": "https://dc.lft.to/lastmile_qr_scan", "android": "https://dc.lft.to/lastmile_qr_scan"}, "fusion_lon": 0.0, "type": "electric_scooter", "bike_id": "0c5cc63ac2bb58e292235c955c304158", "name": "0c5cc63ac2bb58e292235c955c304158"}, {"lon": -77.04133766666666, "is_disabled": 0, "lat": 38.92496966666667, "fusion_lat": 0.0, "is_reserved": 0, "rental_uris": {"ios": "https://dc.lft.to/lastmile_qr_scan", "android": "https://dc.lft.to/lastmile_qr_scan"}, "fusion_lon": 0.0, "type": "electric_scooter", "bike_id": "f7d84336037caeb019f2555589fa07a3", "name": "f7d84336037caeb019f2555589fa07a3"}, {"lon": -77.0250465, "is_disabled": 0, "lat": 38.942698, "fusion_lat": 0.0, "is_reserved": 0, "rental_uris": {"ios": "https://dc.lft.to/lastmile_qr_scan", "android": "https://dc.lft.to/lastmile_qr_scan"}, "fusion_lon": 0.0, "type": "electric_scooter", "bike_id": "10b15a38493d8bbc8c3f2479275a005a", "name": "10b15a38493d8bbc8c3f2479275a005a"}, {"lon": -77.02370933333333, "is_disabled": 0, "lat": 38.916626, "fusion_lat": 0.0, "is_reserved": 0, "rental_uris": {"ios": "https://dc.lft.to/lastmile_qr_scan", "android": "https://dc.lft.to/lastmile_qr_scan"}, "fusion_lon": 0.0, "type": "electric_scooter", "bike_id": "433eb829c0ef15b0987768727d9c45fe", "name": "433eb829c0ef15b0987768727d9c45fe"}, {"lon": -77.01224316666666, "is_disabled": 0, "lat": 38.924014666666665, "fusion_lat": 0.0, "is_reserved": 0, "rental_uris": {"ios": "https://dc.lft.to/lastmile_qr_scan", "android": "https://dc.lft.to/lastmile_qr_scan"}, "fusion_lon": 0.0, "type": "electric_scooter", "bike_id": "02e788646c117cee74ea33b769035b84", "name": "02e788646c117cee74ea33b769035b84"}, {"lon": -77.03330983333333, "is_disabled": 0, "lat": 38.921664, "fusion_lat": 0.0, "is_reserved": 0, "rental_uris": {"ios": "https://dc.lft.to/lastmile_qr_scan", "android": "https://dc.lft.to/lastmile_qr_scan"}, "fusion_lon": 0.0, "type": "electric_scooter", "bike_id": "22a1a9119b4fd6c010292bdf9e0ac021", "name": "22a1a9119b4fd6c010292bdf9e0ac021"}, {"lon": -77.02089633333334, "is_disabled": 0, "lat": 38.92697833333333, "fusion_lat": 0.0, "is_reserved": 0, "rental_uris": {"ios": "https://dc.lft.to/lastmile_qr_scan", "android": "https://dc.lft.to/lastmile_qr_scan"}, "fusion_lon": 0.0, "type": "electric_scooter", "bike_id": "e7b52317ff8b4a7e68edbac663d917db", "name": "e7b52317ff8b4a7e68edbac663d917db"}, {"lon": -77.03513433333333, "is_disabled": 0, "lat": 38.9223805, "fusion_lat": 0.0, "is_reserved": 0, "rental_uris": {"ios": "https://dc.lft.to/lastmile_qr_scan", "android": "https://dc.lft.to/lastmile_qr_scan"}, "fusion_lon": 0.0, "type": "electric_scooter", "bike_id": "96ad4dcac03b1dd0e60c7f547dd31af0", "name": "96ad4dcac03b1dd0e60c7f547dd31af0"}, {"lon": -77.02210466666666, "is_disabled": 0, "lat": 38.91571316666667, "fusion_lat": 0.0, "is_reserved": 0, "rental_uris": {"ios": "https://dc.lft.to/lastmile_qr_scan", "android": "https://dc.lft.to/lastmile_qr_scan"}, "fusion_lon": 0.0, "type": "electric_scooter", "bike_id": "1c11dc58611433e1bd5f55010e38edd4", "name": "1c11dc58611433e1bd5f55010e38edd4"}, {"lon": -77.0344495, "is_disabled": 0, "lat": 38.905931333333335, "fusion_lat": 0.0, "is_reserved": 0, "rental_uris": {"ios": "https://dc.lft.to/lastmile_qr_scan", "android": "https://dc.lft.to/lastmile_qr_scan"}, "fusion_lon": 0.0, "type": "electric_scooter", "bike_id": "80d8a5fced7f64ecb648c11c61ab89df", "name": "80d8a5fced7f64ecb648c11c61ab89df"}, {"lon": -77.04177333333334, "is_disabled": 0, "lat": 38.91128116666667, "fusion_lat": 0.0, "is_reserved": 0, "rental_uris": {"ios": "https://dc.lft.to/lastmile_qr_scan", "android": "https://dc.lft.to/lastmile_qr_scan"}, "fusion_lon": 0.0, "type": "electric_scooter", "bike_id": "0e0dd39a7cf9aaca482f2a7042810d5e", "name": "0e0dd39a7cf9aaca482f2a7042810d5e"}, {"lon": -76.97863033333333, "is_disabled": 0, "lat": 38.867449666666666, "fusion_lat": 0.0, "is_reserved": 0, "rental_uris": {"ios": "https://dc.lft.to/lastmile_qr_scan", "android": "https://dc.lft.to/lastmile_qr_scan"}, "fusion_lon": 0.0, "type": "electric_scooter", "bike_id": "2eececcc0bdbd094386f41d1e7298323", "name": "2eececcc0bdbd094386f41d1e7298323"}, {"lon": -77.039428, "is_disabled": 0, "lat": 38.91412833333333, "fusion_lat": 0.0, "is_reserved": 0, "rental_uris": {"ios": "https://dc.lft.to/lastmile_qr_scan", "android": "https://dc.lft.to/lastmile_qr_scan"}, "fusion_lon": 0.0, "type": "electric_scooter", "bike_id": "3d11482bf0389fd4f1a15e61e19e1a0b", "name": "3d11482bf0389fd4f1a15e61e19e1a0b"}, {"lon": -77.03626633333333, "is_disabled": 0, "lat": 38.9187555, "fusion_lat": 0.0, "is_reserved": 0, "rental_uris": {"ios": "https://dc.lft.to/lastmile_qr_scan", "android": "https://dc.lft.to/lastmile_qr_scan"}, "fusion_lon": 0.0, "type": "electric_scooter", "bike_id": "df8f227b1836bb4e1dd29d5c91c10e07", "name": "df8f227b1836bb4e1dd29d5c91c10e07"}, {"lon": -76.980828, "is_disabled": 0, "lat": 38.926323833333335, "fusion_lat": 0.0, "is_reserved": 0, "rental_uris": {"ios": "https://dc.lft.to/lastmile_qr_scan", "android": "https://dc.lft.to/lastmile_qr_scan"}, "fusion_lon": 0.0, "type": "electric_scooter", "bike_id": "26b626dc937831878f88d435341c78ad", "name": "26b626dc937831878f88d435341c78ad"}, {"lon": -77.00114116666667, "is_disabled": 0, "lat": 38.873688, "fusion_lat": 0.0, "is_reserved": 0, "rental_uris": {"ios": "https://dc.lft.to/lastmile_qr_scan", "android": "https://dc.lft.to/lastmile_qr_scan"}, "fusion_lon": 0.0, "type": "electric_scooter", "bike_id": "0825fee604cba54dfcdaedabe3d93fb3", "name": "0825fee604cba54dfcdaedabe3d93fb3"}, {"lon": -77.03262033333333, "is_disabled": 0, "lat": 38.927950833333334, "fusion_lat": 0.0, "is_reserved": 0, "rental_uris": {"ios": "https://dc.lft.to/lastmile_qr_scan", "android": "https://dc.lft.to/lastmile_qr_scan"}, "fusion_lon": 0.0, "type": "electric_scooter", "bike_id": "11be9835f5110f14ed1cb1bf59d6d64d", "name": "11be9835f5110f14ed1cb1bf59d6d64d"}, {"lon": -77.02935, "is_disabled": 0, "lat": 38.903807666666665, "fusion_lat": 0.0, "is_reserved": 0, "rental_uris": {"ios": "https://dc.lft.to/lastmile_qr_scan", "android": "https://dc.lft.to/lastmile_qr_scan"}, "fusion_lon": 0.0, "type": "electric_scooter", "bike_id": "c97ec755b4f6d92c9e34a359e8205add", "name": "c97ec755b4f6d92c9e34a359e8205add"}, {"lon": -77.02534383333334, "is_disabled": 0, "lat": 38.94623983333334, "fusion_lat": 0.0, "is_reserved": 0, "rental_uris": {"ios": "https://dc.lft.to/lastmile_qr_scan", "android": "https://dc.lft.to/lastmile_qr_scan"}, "fusion_lon": 0.0, "type": "electric_scooter", "bike_id": "ddbbc44e4d11b0c32151af5a018323cc", "name": "ddbbc44e4d11b0c32151af5a018323cc"}, {"lon": -76.9904255, "is_disabled": 0, "lat": 38.888861, "fusion_lat": 0.0, "is_reserved": 0, "rental_uris": {"ios": "https://dc.lft.to/lastmile_qr_scan", "android": "https://dc.lft.to/lastmile_qr_scan"}, "fusion_lon": 0.0, "type": "electric_scooter", "bike_id": "522dc3f677ae2955b56177023ca12301", "name": "522dc3f677ae2955b56177023ca12301"}, {"lon": -77.02198483333333, "is_disabled": 0, "lat": 38.896269833333335, "fusion_lat": 0.0, "is_reserved": 0, "rental_uris": {"ios": "https://dc.lft.to/lastmile_qr_scan", "android": "https://dc.lft.to/lastmile_qr_scan"}, "fusion_lon": 0.0, "type": "electric_scooter", "bike_id": "73c4e8f4d9090ad02f8b827580a2f0a4", "name": "73c4e8f4d9090ad02f8b827580a2f0a4"}, {"lon": -77.032148, "is_disabled": 0, "lat": 38.917644333333335, "fusion_lat": 0.0, "is_reserved": 0, "rental_uris": {"ios": "https://dc.lft.to/lastmile_qr_scan", "android": "https://dc.lft.to/lastmile_qr_scan"}, "fusion_lon": 0.0, "type": "electric_scooter", "bike_id": "85d0dfeee4102c23666222e149907539", "name": "85d0dfeee4102c23666222e149907539"}, {"lon": -77.079226, "is_disabled": 0, "lat": 38.929609, "fusion_lat": 0.0, "is_reserved": 0, "rental_uris": {"ios": "https://dc.lft.to/lastmile_qr_scan", "android": "https://dc.lft.to/lastmile_qr_scan"}, "fusion_lon": 0.0, "type": "electric_scooter", "bike_id": "fffa483f5d0449b84925999a6089be74", "name": "fffa483f5d0449b84925999a6089be74"}, {"lon": -76.99157333333333, "is_disabled": 0, "lat": 38.8596865, "fusion_lat": 0.0, "is_reserved": 0, "rental_uris": {"ios": "https://dc.lft.to/lastmile_qr_scan", "android": "https://dc.lft.to/lastmile_qr_scan"}, "fusion_lon": 0.0, "type": "electric_scooter", "bike_id": "63aaaaa89390a5a0b0400d69e956ba17", "name": "63aaaaa89390a5a0b0400d69e956ba17"}, {"lon": -77.0329035, "is_disabled": 0, "lat": 38.919891166666666, "fusion_lat": 0.0, "is_reserved": 0, "rental_uris": {"ios": "https://dc.lft.to/lastmile_qr_scan", "android": "https://dc.lft.to/lastmile_qr_scan"}, "fusion_lon": 0.0, "type": "electric_scooter", "bike_id": "7f4cb6bf907546f4f75812f2bf4ecbd4", "name": "7f4cb6bf907546f4f75812f2bf4ecbd4"}, {"lon": -77.02488666666666, "is_disabled": 0, "lat": 38.9418255, "fusion_lat": 0.0, "is_reserved": 0, "rental_uris": {"ios": "https://dc.lft.to/lastmile_qr_scan", "android": "https://dc.lft.to/lastmile_qr_scan"}, "fusion_lon": 0.0, "type": "electric_scooter", "bike_id": "ce4b05c27478bf6984f0c0a3d8708d93", "name": "ce4b05c27478bf6984f0c0a3d8708d93"}, {"lon": -77.01968383333333, "is_disabled": 0, "lat": 38.95656566666667, "fusion_lat": 0.0, "is_reserved": 0, "rental_uris": {"ios": "https://dc.lft.to/lastmile_qr_scan", "android": "https://dc.lft.to/lastmile_qr_scan"}, "fusion_lon": 0.0, "type": "electric_scooter", "bike_id": "9749aef25c1ba62ec6e633e458f54ca4", "name": "9749aef25c1ba62ec6e633e458f54ca4"}, {"lon": -76.94097066666667, "is_disabled": 0, "lat": 38.892394333333336, "fusion_lat": 0.0, "is_reserved": 0, "rental_uris": {"ios": "https://dc.lft.to/lastmile_qr_scan", "android": "https://dc.lft.to/lastmile_qr_scan"}, "fusion_lon": 0.0, "type": "electric_scooter", "bike_id": "a0463f2cbf0fde9963672b1c19011cd2", "name": "a0463f2cbf0fde9963672b1c19011cd2"}, {"lon": -77.02474133333334, "is_disabled": 0, "lat": 38.89793816666667, "fusion_lat": 0.0, "is_reserved": 0, "rental_uris": {"ios": "https://dc.lft.to/lastmile_qr_scan", "android": "https://dc.lft.to/lastmile_qr_scan"}, "fusion_lon": 0.0, "type": "electric_scooter", "bike_id": "c98a4331af5827ad6c825d705e1148f8", "name": "c98a4331af5827ad6c825d705e1148f8"}, {"lon": -77.09713883333333, "is_disabled": 0, "lat": 38.951001833333336, "fusion_lat": 0.0, "is_reserved": 0, "rental_uris": {"ios": "https://dc.lft.to/lastmile_qr_scan", "android": "https://dc.lft.to/lastmile_qr_scan"}, "fusion_lon": 0.0, "type": "electric_scooter", "bike_id": "ca003c8ff9ce5b1432c3a2269f39dfce", "name": "ca003c8ff9ce5b1432c3a2269f39dfce"}, {"lon": -77.01781916666667, "is_disabled": 0, "lat": 38.877130333333334, "fusion_lat": 0.0, "is_reserved": 0, "rental_uris": {"ios": "https://dc.lft.to/lastmile_qr_scan", "android": "https://dc.lft.to/lastmile_qr_scan"}, "fusion_lon": 0.0, "type": "electric_scooter", "bike_id": "8372fd8a1dac3052297da40ae16ef02f", "name": "8372fd8a1dac3052297da40ae16ef02f"}, {"lon": -76.9869665, "is_disabled": 0, "lat": 38.900146666666664, "fusion_lat": 0.0, "is_reserved": 0, "rental_uris": {"ios": "https://dc.lft.to/lastmile_qr_scan", "android": "https://dc.lft.to/lastmile_qr_scan"}, "fusion_lon": 0.0, "type": "electric_scooter", "bike_id": "cb1cf11868a1dc0ca132b81187d60c83", "name": "cb1cf11868a1dc0ca132b81187d60c83"}, {"lon": -77.02289583333334, "is_disabled": 0, "lat": 38.91609016666666, "fusion_lat": 0.0, "is_reserved": 0, "rental_uris": {"ios": "https://dc.lft.to/lastmile_qr_scan", "android": "https://dc.lft.to/lastmile_qr_scan"}, "fusion_lon": 0.0, "type": "electric_scooter", "bike_id": "9615b94adba8a566b4640addbb77af1e", "name": "9615b94adba8a566b4640addbb77af1e"}, {"lon": -76.993704, "is_disabled": 0, "lat": 38.990986666666664, "fusion_lat": 0.0, "is_reserved": 0, "rental_uris": {"ios": "https://dc.lft.to/lastmile_qr_scan", "android": "https://dc.lft.to/lastmile_qr_scan"}, "fusion_lon": 0.0, "type": "electric_bike", "bike_id": "2bc51cf5e4775807234451bd47ae15e0", "name": "2bc51cf5e4775807234451bd47ae15e0"}, {"lon": -77.044966, "is_disabled": 0, "lat": 38.892399, "fusion_lat": 0.0, "is_reserved": 0, "rental_uris": {"ios": "https://dc.lft.to/lastmile_qr_scan", "android": "https://dc.lft.to/lastmile_qr_scan"}, "fusion_lon": 0.0, "type": "electric_scooter", "bike_id": "d5deed5973d9f25837e78eaa747cd559", "name": "d5deed5973d9f25837e78eaa747cd559"}, {"lon": -76.98172866666667, "is_disabled": 0, "lat": 38.91673816666667, "fusion_lat": 0.0, "is_reserved": 0, "rental_uris": {"ios": "https://dc.lft.to/lastmile_qr_scan", "android": "https://dc.lft.to/lastmile_qr_scan"}, "fusion_lon": 0.0, "type": "electric_scooter", "bike_id": "5aa99a6e9ded7665c460b9cda5bdddfd", "name": "5aa99a6e9ded7665c460b9cda5bdddfd"}, {"lon": -77.01766216666667, "is_disabled": 0, "lat": 38.90348733333333, "fusion_lat": 0.0, "is_reserved": 0, "rental_uris": {"ios": "https://dc.lft.to/lastmile_qr_scan", "android": "https://dc.lft.to/lastmile_qr_scan"}, "fusion_lon": 0.0, "type": "electric_scooter", "bike_id": "a7fb69a41869f56f4cebea8e05b2f987", "name": "a7fb69a41869f56f4cebea8e05b2f987"}, {"lon": -76.97171083333333, "is_disabled": 0, "lat": 38.878144166666665, "fusion_lat": 0.0, "is_reserved": 0, "rental_uris": {"ios": "https://dc.lft.to/lastmile_qr_scan", "android": "https://dc.lft.to/lastmile_qr_scan"}, "fusion_lon": 0.0, "type": "electric_scooter", "bike_id": "7950e04285023fb295b49133451c2458", "name": "7950e04285023fb295b49133451c2458"}, {"lon": -77.0299015, "is_disabled": 0, "lat": 38.90738266666666, "fusion_lat": 0.0, "is_reserved": 0, "rental_uris": {"ios": "https://dc.lft.to/lastmile_qr_scan", "android": "https://dc.lft.to/lastmile_qr_scan"}, "fusion_lon": 0.0, "type": "electric_scooter", "bike_id": "243fcea144324dc57b3c3c5885a51699", "name": "243fcea144324dc57b3c3c5885a51699"}, {"lon": -77.03790316666667, "is_disabled": 0, "lat": 38.92634116666667, "fusion_lat": 0.0, "is_reserved": 0, "rental_uris": {"ios": "https://dc.lft.to/lastmile_qr_scan", "android": "https://dc.lft.to/lastmile_qr_scan"}, "fusion_lon": 0.0, "type": "electric_scooter", "bike_id": "9539b2e4d5e1059874c95225565b8f3a", "name": "9539b2e4d5e1059874c95225565b8f3a"}, {"lon": -77.02481433333334, "is_disabled": 0, "lat": 38.91908933333333, "fusion_lat": 0.0, "is_reserved": 0, "rental_uris": {"ios": "https://dc.lft.to/lastmile_qr_scan", "android": "https://dc.lft.to/lastmile_qr_scan"}, "fusion_lon": 0.0, "type": "electric_scooter", "bike_id": "b52221e5511dd1382b595ab38fde1ed8", "name": "b52221e5511dd1382b595ab38fde1ed8"}, {"lon": -77.03332583333334, "is_disabled": 0, "lat": 38.8983855, "fusion_lat": 0.0, "is_reserved": 0, "rental_uris": {"ios": "https://dc.lft.to/lastmile_qr_scan", "android": "https://dc.lft.to/lastmile_qr_scan"}, "fusion_lon": 0.0, "type": "electric_scooter", "bike_id": "244cfe5c47c7849dc4bfd7dd14daaa03", "name": "244cfe5c47c7849dc4bfd7dd14daaa03"}, {"lon": -77.0072885, "is_disabled": 0, "lat": 38.884970333333335, "fusion_lat": 0.0, "is_reserved": 0, "rental_uris": {"ios": "https://dc.lft.to/lastmile_qr_scan", "android": "https://dc.lft.to/lastmile_qr_scan"}, "fusion_lon": 0.0, "type": "electric_scooter", "bike_id": "9e61d3186a531dbd4269b12d15a22bf7", "name": "9e61d3186a531dbd4269b12d15a22bf7"}, {"lon": -76.99783516666666, "is_disabled": 0, "lat": 38.908707166666666, "fusion_lat": 0.0, "is_reserved": 0, "rental_uris": {"ios": "https://dc.lft.to/lastmile_qr_scan", "android": "https://dc.lft.to/lastmile_qr_scan"}, "fusion_lon": 0.0, "type": "electric_scooter", "bike_id": "ac7e634a4e867df0c99df62d20ee4f75", "name": "ac7e634a4e867df0c99df62d20ee4f75"}, {"lon": -77.02374483333334, "is_disabled": 0, "lat": 38.9073925, "fusion_lat": 0.0, "is_reserved": 0, "rental_uris": {"ios": "https://dc.lft.to/lastmile_qr_scan", "android": "https://dc.lft.to/lastmile_qr_scan"}, "fusion_lon": 0.0, "type": "electric_scooter", "bike_id": "896c4935352bb830cf3d285f43a03902", "name": "896c4935352bb830cf3d285f43a03902"}, {"lon": -77.031797, "is_disabled": 0, "lat": 38.909796, "fusion_lat": 0.0, "is_reserved": 0, "rental_uris": {"ios": "https://dc.lft.to/lastmile_qr_scan", "android": "https://dc.lft.to/lastmile_qr_scan"}, "fusion_lon": 0.0, "type": "electric_scooter", "bike_id": "bb0f1296a002468c13dba23b7b657c19", "name": "bb0f1296a002468c13dba23b7b657c19"}, {"lon": -77.02154783333333, "is_disabled": 0, "lat": 38.87931833333333, "fusion_lat": 0.0, "is_reserved": 0, "rental_uris": {"ios": "https://dc.lft.to/lastmile_qr_scan", "android": "https://dc.lft.to/lastmile_qr_scan"}, "fusion_lon": 0.0, "type": "electric_scooter", "bike_id": "5f0c315135a6bd7b71e2764212c03cc3", "name": "5f0c315135a6bd7b71e2764212c03cc3"}, {"lon": -76.980593, "is_disabled": 0, "lat": 38.9011705, "fusion_lat": 0.0, "is_reserved": 0, "rental_uris": {"ios": "https://dc.lft.to/lastmile_qr_scan", "android": "https://dc.lft.to/lastmile_qr_scan"}, "fusion_lon": 0.0, "type": "electric_bike", "bike_id": "f41fe523360121ce50e5b63c540e6d65", "name": "f41fe523360121ce50e5b63c540e6d65"}, {"lon": -77.06187983333334, "is_disabled": 0, "lat": 38.903398, "fusion_lat": 0.0, "is_reserved": 0, "rental_uris": {"ios": "https://dc.lft.to/lastmile_qr_scan", "android": "https://dc.lft.to/lastmile_qr_scan"}, "fusion_lon": 0.0, "type": "electric_scooter", "bike_id": "a6e6bf68078da0aca8a58c3920016d8f", "name": "a6e6bf68078da0aca8a58c3920016d8f"}, {"lon": -77.03269166666666, "is_disabled": 0, "lat": 38.909694, "fusion_lat": 0.0, "is_reserved": 0, "rental_uris": {"ios": "https://dc.lft.to/lastmile_qr_scan", "android": "https://dc.lft.to/lastmile_qr_scan"}, "fusion_lon": 0.0, "type": "electric_scooter", "bike_id": "ca3d802fdf2c9e390b6f7ff1f6cf8cfc", "name": "ca3d802fdf2c9e390b6f7ff1f6cf8cfc"}, {"lon": -77.00346366666666, "is_disabled": 0, "lat": 38.8820665, "fusion_lat": 0.0, "is_reserved": 0, "rental_uris": {"ios": "https://dc.lft.to/lastmile_qr_scan", "android": "https://dc.lft.to/lastmile_qr_scan"}, "fusion_lon": 0.0, "type": "electric_scooter", "bike_id": "bb93ba57a0b2256b7e0f1e90d7d777bc", "name": "bb93ba57a0b2256b7e0f1e90d7d777bc"}, {"lon": -77.05859416666667, "is_disabled": 0, "lat": 38.93045733333334, "fusion_lat": 0.0, "is_reserved": 0, "rental_uris": {"ios": "https://dc.lft.to/lastmile_qr_scan", "android": "https://dc.lft.to/lastmile_qr_scan"}, "fusion_lon": 0.0, "type": "electric_scooter", "bike_id": "63819533bd7017038fb757ee025fcac1", "name": "63819533bd7017038fb757ee025fcac1"}, {"lon": -77.05325316666666, "is_disabled": 0, "lat": 38.9043555, "fusion_lat": 0.0, "is_reserved": 0, "rental_uris": {"ios": "https://dc.lft.to/lastmile_qr_scan", "android": "https://dc.lft.to/lastmile_qr_scan"}, "fusion_lon": 0.0, "type": "electric_scooter", "bike_id": "0cc49745185d4e0abac9b67cf7cbd5c5", "name": "0cc49745185d4e0abac9b67cf7cbd5c5"}, {"lon": -77.02948683333334, "is_disabled": 0, "lat": 38.901580333333335, "fusion_lat": 0.0, "is_reserved": 0, "rental_uris": {"ios": "https://dc.lft.to/lastmile_qr_scan", "android": "https://dc.lft.to/lastmile_qr_scan"}, "fusion_lon": 0.0, "type": "electric_scooter", "bike_id": "4bcd894b487f9c6188b2812082187f14", "name": "4bcd894b487f9c6188b2812082187f14"}, {"lon": -77.0366615, "is_disabled": 0, "lat": 38.922600333333335, "fusion_lat": 0.0, "is_reserved": 0, "rental_uris": {"ios": "https://dc.lft.to/lastmile_qr_scan", "android": "https://dc.lft.to/lastmile_qr_scan"}, "fusion_lon": 0.0, "type": "electric_scooter", "bike_id": "8351a59eeba1071a6b4e52785eef28d4", "name": "8351a59eeba1071a6b4e52785eef28d4"}, {"lon": -77.03329516666666, "is_disabled": 0, "lat": 38.938941666666665, "fusion_lat": 0.0, "is_reserved": 0, "rental_uris": {"ios": "https://dc.lft.to/lastmile_qr_scan", "android": "https://dc.lft.to/lastmile_qr_scan"}, "fusion_lon": 0.0, "type": "electric_scooter", "bike_id": "8ce1c6050f2d4f90f7bac2543ccdb2db", "name": "8ce1c6050f2d4f90f7bac2543ccdb2db"}, {"lon": -76.95414966666667, "is_disabled": 0, "lat": 38.884241, "fusion_lat": 0.0, "is_reserved": 0, "rental_uris": {"ios": "https://dc.lft.to/lastmile_qr_scan", "android": "https://dc.lft.to/lastmile_qr_scan"}, "fusion_lon": 0.0, "type": "electric_bike", "bike_id": "bd2bde1a38b0281dbe4f56049ef3e44e", "name": "bd2bde1a38b0281dbe4f56049ef3e44e"}, {"lon": -76.98587183333333, "is_disabled": 0, "lat": 38.8586805, "fusion_lat": 0.0, "is_reserved": 0, "rental_uris": {"ios": "https://dc.lft.to/lastmile_qr_scan", "android": "https://dc.lft.to/lastmile_qr_scan"}, "fusion_lon": 0.0, "type": "electric_scooter", "bike_id": "ba67f2f502ac394b4bd31602020735ea", "name": "ba67f2f502ac394b4bd31602020735ea"}, {"lon": -76.98574066666667, "is_disabled": 0, "lat": 38.866839, "fusion_lat": 0.0, "is_reserved": 0, "rental_uris": {"ios": "https://dc.lft.to/lastmile_qr_scan", "android": "https://dc.lft.to/lastmile_qr_scan"}, "fusion_lon": 0.0, "type": "electric_scooter", "bike_id": "b5d01237f0d7abfc4ac94e6d0931d65a", "name": "b5d01237f0d7abfc4ac94e6d0931d65a"}, {"lon": -77.0275865, "is_disabled": 0, "lat": 38.91701066666667, "fusion_lat": 0.0, "is_reserved": 0, "rental_uris": {"ios": "https://dc.lft.to/lastmile_qr_scan", "android": "https://dc.lft.to/lastmile_qr_scan"}, "fusion_lon": 0.0, "type": "electric_scooter", "bike_id": "1751a45958127c7a315701ba238f3b56", "name": "1751a45958127c7a315701ba238f3b56"}, {"lon": -77.03637233333333, "is_disabled": 0, "lat": 38.93173216666667, "fusion_lat": 0.0, "is_reserved": 0, "rental_uris": {"ios": "https://dc.lft.to/lastmile_qr_scan", "android": "https://dc.lft.to/lastmile_qr_scan"}, "fusion_lon": 0.0, "type": "electric_scooter", "bike_id": "c1e708d36661d458f73de048b7b2964b", "name": "c1e708d36661d458f73de048b7b2964b"}, {"lon": -77.0262895, "is_disabled": 0, "lat": 38.92991583333333, "fusion_lat": 0.0, "is_reserved": 0, "rental_uris": {"ios": "https://dc.lft.to/lastmile_qr_scan", "android": "https://dc.lft.to/lastmile_qr_scan"}, "fusion_lon": 0.0, "type": "electric_scooter", "bike_id": "e27290fed6f577987b909dab959a20a6", "name": "e27290fed6f577987b909dab959a20a6"}, {"lon": -77.02386966666667, "is_disabled": 0, "lat": 38.916701333333336, "fusion_lat": 0.0, "is_reserved": 0, "rental_uris": {"ios": "https://dc.lft.to/lastmile_qr_scan", "android": "https://dc.lft.to/lastmile_qr_scan"}, "fusion_lon": 0.0, "type": "electric_scooter", "bike_id": "8a323216ddc681a86b08ce32151c0b28", "name": "8a323216ddc681a86b08ce32151c0b28"}, {"lon": -77.000704, "is_disabled": 0, "lat": 38.900300333333334, "fusion_lat": 0.0, "is_reserved": 0, "rental_uris": {"ios": "https://dc.lft.to/lastmile_qr_scan", "android": "https://dc.lft.to/lastmile_qr_scan"}, "fusion_lon": 0.0, "type": "electric_scooter", "bike_id": "92f8026da57347ae34e21984e27e9e9b", "name": "92f8026da57347ae34e21984e27e9e9b"}, {"lon": -77.02572866666667, "is_disabled": 0, "lat": 38.89821416666667, "fusion_lat": 0.0, "is_reserved": 0, "rental_uris": {"ios": "https://dc.lft.to/lastmile_qr_scan", "android": "https://dc.lft.to/lastmile_qr_scan"}, "fusion_lon": 0.0, "type": "electric_scooter", "bike_id": "d615c35ccfbfd536b45a9880fc20262d", "name": "d615c35ccfbfd536b45a9880fc20262d"}, {"lon": -77.03863916666667, "is_disabled": 0, "lat": 38.934471, "fusion_lat": 0.0, "is_reserved": 0, "rental_uris": {"ios": "https://dc.lft.to/lastmile_qr_scan", "android": "https://dc.lft.to/lastmile_qr_scan"}, "fusion_lon": 0.0, "type": "electric_scooter", "bike_id": "db05b1a9b9a9b387bb6dee18decfc87a", "name": "db05b1a9b9a9b387bb6dee18decfc87a"}, {"lon": -77.04112283333333, "is_disabled": 0, "lat": 38.933575, "fusion_lat": 0.0, "is_reserved": 0, "rental_uris": {"ios": "https://dc.lft.to/lastmile_qr_scan", "android": "https://dc.lft.to/lastmile_qr_scan"}, "fusion_lon": 0.0, "type": "electric_scooter", "bike_id": "c3bd8aaeb1d69f1d9e44398f157754c9", "name": "c3bd8aaeb1d69f1d9e44398f157754c9"}, {"lon": -77.038582, "is_disabled": 0, "lat": 38.91356483333333, "fusion_lat": 0.0, "is_reserved": 0, "rental_uris": {"ios": "https://dc.lft.to/lastmile_qr_scan", "android": "https://dc.lft.to/lastmile_qr_scan"}, "fusion_lon": 0.0, "type": "electric_scooter", "bike_id": "1413877f721f035647b1d4256c713ec6", "name": "1413877f721f035647b1d4256c713ec6"}, {"lon": -77.0386245, "is_disabled": 0, "lat": 38.90807933333333, "fusion_lat": 0.0, "is_reserved": 0, "rental_uris": {"ios": "https://dc.lft.to/lastmile_qr_scan", "android": "https://dc.lft.to/lastmile_qr_scan"}, "fusion_lon": 0.0, "type": "electric_scooter", "bike_id": "e502f5873bb782a22c4785b5508f377c", "name": "e502f5873bb782a22c4785b5508f377c"}, {"lon": -77.01839166666667, "is_disabled": 0, "lat": 38.92879533333333, "fusion_lat": 0.0, "is_reserved": 0, "rental_uris": {"ios": "https://dc.lft.to/lastmile_qr_scan", "android": "https://dc.lft.to/lastmile_qr_scan"}, "fusion_lon": 0.0, "type": "electric_scooter", "bike_id": "c2535b2fd0a11e39f5f7012cee056c62", "name": "c2535b2fd0a11e39f5f7012cee056c62"}, {"lon": -77.0945365, "is_disabled": 0, "lat": 38.807532, "fusion_lat": 0.0, "is_reserved": 0, "rental_uris": {"ios": "https://dc.lft.to/lastmile_qr_scan", "android": "https://dc.lft.to/lastmile_qr_scan"}, "fusion_lon": 0.0, "type": "electric_bike", "bike_id": "bfba9566a318a2ebf661133f5efacafe", "name": "bfba9566a318a2ebf661133f5efacafe"}, {"lon": -77.0442355, "is_disabled": 0, "lat": 38.90956033333333, "fusion_lat": 0.0, "is_reserved": 0, "rental_uris": {"ios": "https://dc.lft.to/lastmile_qr_scan", "android": "https://dc.lft.to/lastmile_qr_scan"}, "fusion_lon": 0.0, "type": "electric_scooter", "bike_id": "fe48077312ca1ba8ad272b79232c159a", "name": "fe48077312ca1ba8ad272b79232c159a"}, {"lon": -77.00196116666666, "is_disabled": 0, "lat": 38.90238166666666, "fusion_lat": 0.0, "is_reserved": 0, "rental_uris": {"ios": "https://dc.lft.to/lastmile_qr_scan", "android": "https://dc.lft.to/lastmile_qr_scan"}, "fusion_lon": 0.0, "type": "electric_scooter", "bike_id": "45e5caf88ed57b04dfc91568de620219", "name": "45e5caf88ed57b04dfc91568de620219"}, {"lon": -77.04774333333333, "is_disabled": 0, "lat": 38.917583666666665, "fusion_lat": 0.0, "is_reserved": 0, "rental_uris": {"ios": "https://dc.lft.to/lastmile_qr_scan", "android": "https://dc.lft.to/lastmile_qr_scan"}, "fusion_lon": 0.0, "type": "electric_scooter", "bike_id": "0ea7331422f3b1cd608ee9af47750018", "name": "0ea7331422f3b1cd608ee9af47750018"}, {"lon": -77.0344485, "is_disabled": 0, "lat": 38.908248, "fusion_lat": 0.0, "is_reserved": 0, "rental_uris": {"ios": "https://dc.lft.to/lastmile_qr_scan", "android": "https://dc.lft.to/lastmile_qr_scan"}, "fusion_lon": 0.0, "type": "electric_scooter", "bike_id": "eaae8922f3b7cb7ddac3c27e9e17598d", "name": "eaae8922f3b7cb7ddac3c27e9e17598d"}, {"lon": -77.031748, "is_disabled": 0, "lat": 38.908811166666666, "fusion_lat": 0.0, "is_reserved": 0, "rental_uris": {"ios": "https://dc.lft.to/lastmile_qr_scan", "android": "https://dc.lft.to/lastmile_qr_scan"}, "fusion_lon": 0.0, "type": "electric_scooter", "bike_id": "52c36bf8f80716a520339d69f7e28a6d", "name": "52c36bf8f80716a520339d69f7e28a6d"}, {"lon": -77.03834266666667, "is_disabled": 0, "lat": 38.9077875, "fusion_lat": 0.0, "is_reserved": 0, "rental_uris": {"ios": "https://dc.lft.to/lastmile_qr_scan", "android": "https://dc.lft.to/lastmile_qr_scan"}, "fusion_lon": 0.0, "type": "electric_scooter", "bike_id": "e67104167cf11407f1415b2acd0fb2e8", "name": "e67104167cf11407f1415b2acd0fb2e8"}, {"lon": -76.99868066666667, "is_disabled": 0, "lat": 38.844392166666665, "fusion_lat": 0.0, "is_reserved": 0, "rental_uris": {"ios": "https://dc.lft.to/lastmile_qr_scan", "android": "https://dc.lft.to/lastmile_qr_scan"}, "fusion_lon": 0.0, "type": "electric_scooter", "bike_id": "2746781861f7db17e75feca5b17d987c", "name": "2746781861f7db17e75feca5b17d987c"}, {"lon": -77.01096516666667, "is_disabled": 0, "lat": 38.87304833333334, "fusion_lat": 0.0, "is_reserved": 0, "rental_uris": {"ios": "https://dc.lft.to/lastmile_qr_scan", "android": "https://dc.lft.to/lastmile_qr_scan"}, "fusion_lon": 0.0, "type": "electric_bike", "bike_id": "fa6fb7364bd7c462d133e17a9468325b", "name": "fa6fb7364bd7c462d133e17a9468325b"}, {"lon": -77.03181383333333, "is_disabled": 0, "lat": 38.91323716666667, "fusion_lat": 0.0, "is_reserved": 0, "rental_uris": {"ios": "https://dc.lft.to/lastmile_qr_scan", "android": "https://dc.lft.to/lastmile_qr_scan"}, "fusion_lon": 0.0, "type": "electric_scooter", "bike_id": "3ef69925ae562324e79b6893ee8b3617", "name": "3ef69925ae562324e79b6893ee8b3617"}, {"lon": -77.00199983333333, "is_disabled": 0, "lat": 38.9650755, "fusion_lat": 0.0, "is_reserved": 0, "rental_uris": {"ios": "https://dc.lft.to/lastmile_qr_scan", "android": "https://dc.lft.to/lastmile_qr_scan"}, "fusion_lon": 0.0, "type": "electric_scooter", "bike_id": "50b319193b3fab5724f74cd034fa3a9a", "name": "50b319193b3fab5724f74cd034fa3a9a"}, {"lon": -77.019816, "is_disabled": 0, "lat": 38.8767655, "fusion_lat": 0.0, "is_reserved": 0, "rental_uris": {"ios": "https://dc.lft.to/lastmile_qr_scan", "android": "https://dc.lft.to/lastmile_qr_scan"}, "fusion_lon": 0.0, "type": "electric_scooter", "bike_id": "6bf7fc1963b3f57a199bac5984702ecc", "name": "6bf7fc1963b3f57a199bac5984702ecc"}, {"lon": -77.03259833333334, "is_disabled": 0, "lat": 38.92168483333333, "fusion_lat": 0.0, "is_reserved": 0, "rental_uris": {"ios": "https://dc.lft.to/lastmile_qr_scan", "android": "https://dc.lft.to/lastmile_qr_scan"}, "fusion_lon": 0.0, "type": "electric_scooter", "bike_id": "22a278edc2d06837dc201717ddfe1567", "name": "22a278edc2d06837dc201717ddfe1567"}, {"lon": -77.0298265, "is_disabled": 0, "lat": 38.9869765, "fusion_lat": 0.0, "is_reserved": 0, "rental_uris": {"ios": "https://dc.lft.to/lastmile_qr_scan", "android": "https://dc.lft.to/lastmile_qr_scan"}, "fusion_lon": 0.0, "type": "electric_scooter", "bike_id": "15b1822cdd48bc862001470409283166", "name": "15b1822cdd48bc862001470409283166"}, {"lon": -77.02506783333334, "is_disabled": 0, "lat": 38.94166333333333, "fusion_lat": 0.0, "is_reserved": 0, "rental_uris": {"ios": "https://dc.lft.to/lastmile_qr_scan", "android": "https://dc.lft.to/lastmile_qr_scan"}, "fusion_lon": 0.0, "type": "electric_bike", "bike_id": "a3a0bd54c2cc7c3bc218aa4a384e0d82", "name": "a3a0bd54c2cc7c3bc218aa4a384e0d82"}, {"lon": -77.0060855, "is_disabled": 0, "lat": 38.8717955, "fusion_lat": 0.0, "is_reserved": 0, "rental_uris": {"ios": "https://dc.lft.to/lastmile_qr_scan", "android": "https://dc.lft.to/lastmile_qr_scan"}, "fusion_lon": 0.0, "type": "electric_scooter", "bike_id": "4ba7c216ef9325ffd835b677ab94c0a5", "name": "4ba7c216ef9325ffd835b677ab94c0a5"}, {"lon": -77.00581283333334, "is_disabled": 0, "lat": 38.90267883333333, "fusion_lat": 0.0, "is_reserved": 0, "rental_uris": {"ios": "https://dc.lft.to/lastmile_qr_scan", "android": "https://dc.lft.to/lastmile_qr_scan"}, "fusion_lon": 0.0, "type": "electric_scooter", "bike_id": "c4c1e652edf6c4ab1c016d76b9c97e20", "name": "c4c1e652edf6c4ab1c016d76b9c97e20"}, {"lon": -77.00815683333333, "is_disabled": 0, "lat": 38.87687866666667, "fusion_lat": 0.0, "is_reserved": 0, "rental_uris": {"ios": "https://dc.lft.to/lastmile_qr_scan", "android": "https://dc.lft.to/lastmile_qr_scan"}, "fusion_lon": 0.0, "type": "electric_scooter", "bike_id": "2170df56fee712d8d6b26f0da9d53c8e", "name": "2170df56fee712d8d6b26f0da9d53c8e"}, {"lon": -77.09960916666667, "is_disabled": 0, "lat": 38.857922333333335, "fusion_lat": 0.0, "is_reserved": 0, "rental_uris": {"ios": "https://dc.lft.to/lastmile_qr_scan", "android": "https://dc.lft.to/lastmile_qr_scan"}, "fusion_lon": 0.0, "type": "electric_bike", "bike_id": "eb7a0bf548de0c7a5bd7ecb6889c65b1", "name": "eb7a0bf548de0c7a5bd7ecb6889c65b1"}, {"lon": -77.02847816666667, "is_disabled": 0, "lat": 38.89355033333333, "fusion_lat": 0.0, "is_reserved": 0, "rental_uris": {"ios": "https://dc.lft.to/lastmile_qr_scan", "android": "https://dc.lft.to/lastmile_qr_scan"}, "fusion_lon": 0.0, "type": "electric_scooter", "bike_id": "3061199ffd9cde52cab04babc405890d", "name": "3061199ffd9cde52cab04babc405890d"}, {"lon": -76.952457, "is_disabled": 0, "lat": 38.906957166666665, "fusion_lat": 0.0, "is_reserved": 0, "rental_uris": {"ios": "https://dc.lft.to/lastmile_qr_scan", "android": "https://dc.lft.to/lastmile_qr_scan"}, "fusion_lon": 0.0, "type": "electric_bike", "bike_id": "ae0f0779c75ff1927e26987d07b5b5af", "name": "ae0f0779c75ff1927e26987d07b5b5af"}, {"lon": -77.11788733333333, "is_disabled": 0, "lat": 39.054948333333336, "fusion_lat": 0.0, "is_reserved": 0, "rental_uris": {"ios": "https://dc.lft.to/lastmile_qr_scan", "android": "https://dc.lft.to/lastmile_qr_scan"}, "fusion_lon": 0.0, "type": "electric_bike", "bike_id": "d4c19a9b3514affcea5c522e922baaa8", "name": "d4c19a9b3514affcea5c522e922baaa8"}, {"lon": -77.02378216666666, "is_disabled": 0, "lat": 38.909616, "fusion_lat": 0.0, "is_reserved": 0, "rental_uris": {"ios": "https://dc.lft.to/lastmile_qr_scan", "android": "https://dc.lft.to/lastmile_qr_scan"}, "fusion_lon": 0.0, "type": "electric_scooter", "bike_id": "f5d7c6b13ad9e7d85e5834fc81dcf005", "name": "f5d7c6b13ad9e7d85e5834fc81dcf005"}, {"lon": -76.97028816666666, "is_disabled": 0, "lat": 38.87362916666667, "fusion_lat": 0.0, "is_reserved": 0, "rental_uris": {"ios": "https://dc.lft.to/lastmile_qr_scan", "android": "https://dc.lft.to/lastmile_qr_scan"}, "fusion_lon": 0.0, "type": "electric_scooter", "bike_id": "072a3e4ecec6b9e68031a9c8e6ac06ed", "name": "072a3e4ecec6b9e68031a9c8e6ac06ed"}, {"lon": -77.02591, "is_disabled": 0, "lat": 38.90433733333333, "fusion_lat": 0.0, "is_reserved": 0, "rental_uris": {"ios": "https://dc.lft.to/lastmile_qr_scan", "android": "https://dc.lft.to/lastmile_qr_scan"}, "fusion_lon": 0.0, "type": "electric_scooter", "bike_id": "14242877f6d559f81c9596b303714a1a", "name": "14242877f6d559f81c9596b303714a1a"}, {"lon": -77.04403416666666, "is_disabled": 0, "lat": 38.911183, "fusion_lat": 0.0, "is_reserved": 0, "rental_uris": {"ios": "https://dc.lft.to/lastmile_qr_scan", "android": "https://dc.lft.to/lastmile_qr_scan"}, "fusion_lon": 0.0, "type": "electric_scooter", "bike_id": "b539508bd79d065e668ce0bb5a15f219", "name": "b539508bd79d065e668ce0bb5a15f219"}, {"lon": -77.04492183333333, "is_disabled": 0, "lat": 38.89625783333334, "fusion_lat": 0.0, "is_reserved": 0, "rental_uris": {"ios": "https://dc.lft.to/lastmile_qr_scan", "android": "https://dc.lft.to/lastmile_qr_scan"}, "fusion_lon": 0.0, "type": "electric_scooter", "bike_id": "59a14ec2387f702cc19b52c36cb8ba5d", "name": "59a14ec2387f702cc19b52c36cb8ba5d"}, {"lon": -77.01225883333333, "is_disabled": 0, "lat": 38.915427333333334, "fusion_lat": 0.0, "is_reserved": 0, "rental_uris": {"ios": "https://dc.lft.to/lastmile_qr_scan", "android": "https://dc.lft.to/lastmile_qr_scan"}, "fusion_lon": 0.0, "type": "electric_scooter", "bike_id": "d13ee6125e3871552e74d501c697973f", "name": "d13ee6125e3871552e74d501c697973f"}, {"lon": -77.061735, "is_disabled": 0, "lat": 38.8070735, "fusion_lat": 0.0, "is_reserved": 0, "rental_uris": {"ios": "https://dc.lft.to/lastmile_qr_scan", "android": "https://dc.lft.to/lastmile_qr_scan"}, "fusion_lon": 0.0, "type": "electric_bike", "bike_id": "c99fe1c0b89758695afd0fa042fbe279", "name": "c99fe1c0b89758695afd0fa042fbe279"}, {"lon": -77.0459, "is_disabled": 0, "lat": 38.91473233333333, "fusion_lat": 0.0, "is_reserved": 0, "rental_uris": {"ios": "https://dc.lft.to/lastmile_qr_scan", "android": "https://dc.lft.to/lastmile_qr_scan"}, "fusion_lon": 0.0, "type": "electric_scooter", "bike_id": "a3a21e77430cf53412995f81e071ecae", "name": "a3a21e77430cf53412995f81e071ecae"}, {"lon": -77.02231566666667, "is_disabled": 0, "lat": 38.880290333333335, "fusion_lat": 0.0, "is_reserved": 0, "rental_uris": {"ios": "https://dc.lft.to/lastmile_qr_scan", "android": "https://dc.lft.to/lastmile_qr_scan"}, "fusion_lon": 0.0, "type": "electric_scooter", "bike_id": "d243ef205187069796ab3a632f6cd220", "name": "d243ef205187069796ab3a632f6cd220"}, {"lon": -76.97629833333333, "is_disabled": 0, "lat": 38.9015765, "fusion_lat": 0.0, "is_reserved": 0, "rental_uris": {"ios": "https://dc.lft.to/lastmile_qr_scan", "android": "https://dc.lft.to/lastmile_qr_scan"}, "fusion_lon": 0.0, "type": "electric_scooter", "bike_id": "29d5147d773b41ff79bacb4d54eafe16", "name": "29d5147d773b41ff79bacb4d54eafe16"}, {"lon": -76.97975733333334, "is_disabled": 0, "lat": 38.95373, "fusion_lat": 0.0, "is_reserved": 0, "rental_uris": {"ios": "https://dc.lft.to/lastmile_qr_scan", "android": "https://dc.lft.to/lastmile_qr_scan"}, "fusion_lon": 0.0, "type": "electric_bike", "bike_id": "d1f43808ba6a45eb3556ad5ea2972901", "name": "d1f43808ba6a45eb3556ad5ea2972901"}, {"lon": -77.03296066666667, "is_disabled": 0, "lat": 38.90962833333333, "fusion_lat": 0.0, "is_reserved": 0, "rental_uris": {"ios": "https://dc.lft.to/lastmile_qr_scan", "android": "https://dc.lft.to/lastmile_qr_scan"}, "fusion_lon": 0.0, "type": "electric_scooter", "bike_id": "ba52a48ee3942f89f7cb6f449c96fdc9", "name": "ba52a48ee3942f89f7cb6f449c96fdc9"}, {"lon": -77.02482066666667, "is_disabled": 0, "lat": 38.93882466666667, "fusion_lat": 0.0, "is_reserved": 0, "rental_uris": {"ios": "https://dc.lft.to/lastmile_qr_scan", "android": "https://dc.lft.to/lastmile_qr_scan"}, "fusion_lon": 0.0, "type": "electric_scooter", "bike_id": "79cd0c0dfc18ae499e7e8ae1a5347780", "name": "79cd0c0dfc18ae499e7e8ae1a5347780"}, {"lon": -77.03162566666667, "is_disabled": 0, "lat": 38.887452833333334, "fusion_lat": 0.0, "is_reserved": 0, "rental_uris": {"ios": "https://dc.lft.to/lastmile_qr_scan", "android": "https://dc.lft.to/lastmile_qr_scan"}, "fusion_lon": 0.0, "type": "electric_scooter", "bike_id": "05540a79e2a3d91db0cbad9e93508fee", "name": "05540a79e2a3d91db0cbad9e93508fee"}, {"lon": -77.04082216666667, "is_disabled": 0, "lat": 38.90873166666667, "fusion_lat": 0.0, "is_reserved": 0, "rental_uris": {"ios": "https://dc.lft.to/lastmile_qr_scan", "android": "https://dc.lft.to/lastmile_qr_scan"}, "fusion_lon": 0.0, "type": "electric_scooter", "bike_id": "41f18ba8fe466b7f551efba1eb6137ba", "name": "41f18ba8fe466b7f551efba1eb6137ba"}, {"lon": -77.04773516666667, "is_disabled": 0, "lat": 38.897656833333336, "fusion_lat": 0.0, "is_reserved": 0, "rental_uris": {"ios": "https://dc.lft.to/lastmile_qr_scan", "android": "https://dc.lft.to/lastmile_qr_scan"}, "fusion_lon": 0.0, "type": "electric_scooter", "bike_id": "6203fc5049f90df9afc71e2b699fdbe9", "name": "6203fc5049f90df9afc71e2b699fdbe9"}, {"lon": -77.01749083333333, "is_disabled": 0, "lat": 38.87713216666667, "fusion_lat": 0.0, "is_reserved": 0, "rental_uris": {"ios": "https://dc.lft.to/lastmile_qr_scan", "android": "https://dc.lft.to/lastmile_qr_scan"}, "fusion_lon": 0.0, "type": "electric_scooter", "bike_id": "e9d6745ac297c9d273e7ed8f9425faac", "name": "e9d6745ac297c9d273e7ed8f9425faac"}, {"lon": -77.04860333333333, "is_disabled": 0, "lat": 38.906495, "fusion_lat": 0.0, "is_reserved": 0, "rental_uris": {"ios": "https://dc.lft.to/lastmile_qr_scan", "android": "https://dc.lft.to/lastmile_qr_scan"}, "fusion_lon": 0.0, "type": "electric_scooter", "bike_id": "9961929ab2e2e18e42a39a4b0ee574f9", "name": "9961929ab2e2e18e42a39a4b0ee574f9"}, {"lon": -77.02276366666666, "is_disabled": 0, "lat": 38.89500666666667, "fusion_lat": 0.0, "is_reserved": 0, "rental_uris": {"ios": "https://dc.lft.to/lastmile_qr_scan", "android": "https://dc.lft.to/lastmile_qr_scan"}, "fusion_lon": 0.0, "type": "electric_scooter", "bike_id": "709e9879a57fbf79822df2a17192c7a4", "name": "709e9879a57fbf79822df2a17192c7a4"}, {"lon": -77.02213666666667, "is_disabled": 0, "lat": 38.905579333333336, "fusion_lat": 0.0, "is_reserved": 0, "rental_uris": {"ios": "https://dc.lft.to/lastmile_qr_scan", "android": "https://dc.lft.to/lastmile_qr_scan"}, "fusion_lon": 0.0, "type": "electric_scooter", "bike_id": "6de6f963278c076830875df33bd74132", "name": "6de6f963278c076830875df33bd74132"}, {"lon": -77.0072805, "is_disabled": 0, "lat": 38.884956, "fusion_lat": 0.0, "is_reserved": 0, "rental_uris": {"ios": "https://dc.lft.to/lastmile_qr_scan", "android": "https://dc.lft.to/lastmile_qr_scan"}, "fusion_lon": 0.0, "type": "electric_scooter", "bike_id": "dbcc520ca68b4cbf5b2d5d0f855ac964", "name": "dbcc520ca68b4cbf5b2d5d0f855ac964"}, {"lon": -77.06156216666666, "is_disabled": 0, "lat": 38.905281333333335, "fusion_lat": 0.0, "is_reserved": 0, "rental_uris": {"ios": "https://dc.lft.to/lastmile_qr_scan", "android": "https://dc.lft.to/lastmile_qr_scan"}, "fusion_lon": 0.0, "type": "electric_scooter", "bike_id": "51badeb5af784ac3935001817fe68f81", "name": "51badeb5af784ac3935001817fe68f81"}, {"lon": -77.03197316666666, "is_disabled": 0, "lat": 38.92017, "fusion_lat": 0.0, "is_reserved": 0, "rental_uris": {"ios": "https://dc.lft.to/lastmile_qr_scan", "android": "https://dc.lft.to/lastmile_qr_scan"}, "fusion_lon": 0.0, "type": "electric_scooter", "bike_id": "464699b5663e1963d9b57f272480d7f6", "name": "464699b5663e1963d9b57f272480d7f6"}, {"lon": -77.0055785, "is_disabled": 0, "lat": 38.90582066666666, "fusion_lat": 0.0, "is_reserved": 0, "rental_uris": {"ios": "https://dc.lft.to/lastmile_qr_scan", "android": "https://dc.lft.to/lastmile_qr_scan"}, "fusion_lon": 0.0, "type": "electric_scooter", "bike_id": "fb640cd62303b224a21ef3d6be223bb7", "name": "fb640cd62303b224a21ef3d6be223bb7"}, {"lon": -77.02684216666667, "is_disabled": 0, "lat": 38.897252, "fusion_lat": 0.0, "is_reserved": 0, "rental_uris": {"ios": "https://dc.lft.to/lastmile_qr_scan", "android": "https://dc.lft.to/lastmile_qr_scan"}, "fusion_lon": 0.0, "type": "electric_scooter", "bike_id": "34dc1f11eedff50bcc8e212bd8a338eb", "name": "34dc1f11eedff50bcc8e212bd8a338eb"}, {"lon": -77.02271116666667, "is_disabled": 0, "lat": 38.9141225, "fusion_lat": 0.0, "is_reserved": 0, "rental_uris": {"ios": "https://dc.lft.to/lastmile_qr_scan", "android": "https://dc.lft.to/lastmile_qr_scan"}, "fusion_lon": 0.0, "type": "electric_scooter", "bike_id": "e6527d94e3f7ec3d820f624f85382712", "name": "e6527d94e3f7ec3d820f624f85382712"}, {"lon": -77.02832433333333, "is_disabled": 0, "lat": 38.887350166666664, "fusion_lat": 0.0, "is_reserved": 0, "rental_uris": {"ios": "https://dc.lft.to/lastmile_qr_scan", "android": "https://dc.lft.to/lastmile_qr_scan"}, "fusion_lon": 0.0, "type": "electric_scooter", "bike_id": "c9865e43f9cea14b5f680cb9a64e3d43", "name": "c9865e43f9cea14b5f680cb9a64e3d43"}, {"lon": -77.03181766666667, "is_disabled": 0, "lat": 38.91351516666667, "fusion_lat": 0.0, "is_reserved": 0, "rental_uris": {"ios": "https://dc.lft.to/lastmile_qr_scan", "android": "https://dc.lft.to/lastmile_qr_scan"}, "fusion_lon": 0.0, "type": "electric_scooter", "bike_id": "abc32adf838b34eeacd0e3106e2f812a", "name": "abc32adf838b34eeacd0e3106e2f812a"}, {"lon": -77.031782, "is_disabled": 0, "lat": 38.91943283333333, "fusion_lat": 0.0, "is_reserved": 0, "rental_uris": {"ios": "https://dc.lft.to/lastmile_qr_scan", "android": "https://dc.lft.to/lastmile_qr_scan"}, "fusion_lon": 0.0, "type": "electric_scooter", "bike_id": "37064d7a39fbd84f704f8d1f467de566", "name": "37064d7a39fbd84f704f8d1f467de566"}, {"lon": -77.05885, "is_disabled": 0, "lat": 38.936339333333336, "fusion_lat": 0.0, "is_reserved": 0, "rental_uris": {"ios": "https://dc.lft.to/lastmile_qr_scan", "android": "https://dc.lft.to/lastmile_qr_scan"}, "fusion_lon": 0.0, "type": "electric_scooter", "bike_id": "77ac8e9d012f1ea661cf856c0ec6f06d", "name": "77ac8e9d012f1ea661cf856c0ec6f06d"}, {"lon": -77.0013705, "is_disabled": 0, "lat": 38.8356755, "fusion_lat": 0.0, "is_reserved": 0, "rental_uris": {"ios": "https://dc.lft.to/lastmile_qr_scan", "android": "https://dc.lft.to/lastmile_qr_scan"}, "fusion_lon": 0.0, "type": "electric_scooter", "bike_id": "e8bec8c7771be143951a94aade2df723", "name": "e8bec8c7771be143951a94aade2df723"}, {"lon": -77.03841633333333, "is_disabled": 0, "lat": 38.9115065, "fusion_lat": 0.0, "is_reserved": 0, "rental_uris": {"ios": "https://dc.lft.to/lastmile_qr_scan", "android": "https://dc.lft.to/lastmile_qr_scan"}, "fusion_lon": 0.0, "type": "electric_scooter", "bike_id": "9e517c95eb7e8384739f61f010809b22", "name": "9e517c95eb7e8384739f61f010809b22"}, {"lon": -77.02371816666667, "is_disabled": 0, "lat": 38.920630333333335, "fusion_lat": 0.0, "is_reserved": 0, "rental_uris": {"ios": "https://dc.lft.to/lastmile_qr_scan", "android": "https://dc.lft.to/lastmile_qr_scan"}, "fusion_lon": 0.0, "type": "electric_scooter", "bike_id": "1aaa45834aef4c6368066885c4e06361", "name": "1aaa45834aef4c6368066885c4e06361"}, {"lon": -77.003454, "is_disabled": 0, "lat": 38.894634, "fusion_lat": 0.0, "is_reserved": 0, "rental_uris": {"ios": "https://dc.lft.to/lastmile_qr_scan", "android": "https://dc.lft.to/lastmile_qr_scan"}, "fusion_lon": 0.0, "type": "electric_scooter", "bike_id": "71dd37104176a9d8d216799f4df41afa", "name": "71dd37104176a9d8d216799f4df41afa"}, {"lon": -77.0343745, "is_disabled": 0, "lat": 38.90977266666667, "fusion_lat": 0.0, "is_reserved": 0, "rental_uris": {"ios": "https://dc.lft.to/lastmile_qr_scan", "android": "https://dc.lft.to/lastmile_qr_scan"}, "fusion_lon": 0.0, "type": "electric_scooter", "bike_id": "03920f3ac04a4b923feb625ea3a30a8e", "name": "03920f3ac04a4b923feb625ea3a30a8e"}, {"lon": -76.99795333333333, "is_disabled": 0, "lat": 38.9087525, "fusion_lat": 0.0, "is_reserved": 0, "rental_uris": {"ios": "https://dc.lft.to/lastmile_qr_scan", "android": "https://dc.lft.to/lastmile_qr_scan"}, "fusion_lon": 0.0, "type": "electric_scooter", "bike_id": "34b1041e527e795ba28e4f2e429a6b40", "name": "34b1041e527e795ba28e4f2e429a6b40"}, {"lon": -77.041441, "is_disabled": 0, "lat": 38.90042783333333, "fusion_lat": 0.0, "is_reserved": 0, "rental_uris": {"ios": "https://dc.lft.to/lastmile_qr_scan", "android": "https://dc.lft.to/lastmile_qr_scan"}, "fusion_lon": 0.0, "type": "electric_scooter", "bike_id": "14fdf9c909bf238b3b7bb61e8ec87008", "name": "14fdf9c909bf238b3b7bb61e8ec87008"}, {"lon": -76.98505733333333, "is_disabled": 0, "lat": 38.90344966666667, "fusion_lat": 0.0, "is_reserved": 0, "rental_uris": {"ios": "https://dc.lft.to/lastmile_qr_scan", "android": "https://dc.lft.to/lastmile_qr_scan"}, "fusion_lon": 0.0, "type": "electric_scooter", "bike_id": "214b3564f77dc6f0c10d0a5b774a1161", "name": "214b3564f77dc6f0c10d0a5b774a1161"}, {"lon": -77.04287133333334, "is_disabled": 0, "lat": 38.915654333333336, "fusion_lat": 0.0, "is_reserved": 0, "rental_uris": {"ios": "https://dc.lft.to/lastmile_qr_scan", "android": "https://dc.lft.to/lastmile_qr_scan"}, "fusion_lon": 0.0, "type": "electric_scooter", "bike_id": "02a01d9061eacdc8403b0a15f9366155", "name": "02a01d9061eacdc8403b0a15f9366155"}, {"lon": -77.03320616666667, "is_disabled": 0, "lat": 38.921700666666666, "fusion_lat": 0.0, "is_reserved": 0, "rental_uris": {"ios": "https://dc.lft.to/lastmile_qr_scan", "android": "https://dc.lft.to/lastmile_qr_scan"}, "fusion_lon": 0.0, "type": "electric_scooter", "bike_id": "a5462ca4b6c8d26203850fef568c3bc6", "name": "a5462ca4b6c8d26203850fef568c3bc6"}, {"lon": -77.021957, "is_disabled": 0, "lat": 38.9020275, "fusion_lat": 0.0, "is_reserved": 0, "rental_uris": {"ios": "https://dc.lft.to/lastmile_qr_scan", "android": "https://dc.lft.to/lastmile_qr_scan"}, "fusion_lon": 0.0, "type": "electric_scooter", "bike_id": "fb3c3ffa54c30530910df1c95067ded3", "name": "fb3c3ffa54c30530910df1c95067ded3"}, {"lon": -77.01634633333333, "is_disabled": 0, "lat": 38.881196, "fusion_lat": 0.0, "is_reserved": 0, "rental_uris": {"ios": "https://dc.lft.to/lastmile_qr_scan", "android": "https://dc.lft.to/lastmile_qr_scan"}, "fusion_lon": 0.0, "type": "electric_scooter", "bike_id": "98a36d19b7005329c49b427b6b6109cd", "name": "98a36d19b7005329c49b427b6b6109cd"}, {"lon": -77.043349, "is_disabled": 0, "lat": 38.922187666666666, "fusion_lat": 0.0, "is_reserved": 0, "rental_uris": {"ios": "https://dc.lft.to/lastmile_qr_scan", "android": "https://dc.lft.to/lastmile_qr_scan"}, "fusion_lon": 0.0, "type": "electric_scooter", "bike_id": "0d309cb63a4a784f1fc4c81fe9f71428", "name": "0d309cb63a4a784f1fc4c81fe9f71428"}, {"lon": -77.04157133333334, "is_disabled": 0, "lat": 38.9142325, "fusion_lat": 0.0, "is_reserved": 0, "rental_uris": {"ios": "https://dc.lft.to/lastmile_qr_scan", "android": "https://dc.lft.to/lastmile_qr_scan"}, "fusion_lon": 0.0, "type": "electric_scooter", "bike_id": "31d0a8ef514111101414dd33b9d76af6", "name": "31d0a8ef514111101414dd33b9d76af6"}, {"lon": -77.03787383333334, "is_disabled": 0, "lat": 38.92573216666667, "fusion_lat": 0.0, "is_reserved": 0, "rental_uris": {"ios": "https://dc.lft.to/lastmile_qr_scan", "android": "https://dc.lft.to/lastmile_qr_scan"}, "fusion_lon": 0.0, "type": "electric_scooter", "bike_id": "196a04a551155d23272ac721df9081b9", "name": "196a04a551155d23272ac721df9081b9"}, {"lon": -77.04486716666666, "is_disabled": 0, "lat": 38.89909883333333, "fusion_lat": 0.0, "is_reserved": 0, "rental_uris": {"ios": "https://dc.lft.to/lastmile_qr_scan", "android": "https://dc.lft.to/lastmile_qr_scan"}, "fusion_lon": 0.0, "type": "electric_scooter", "bike_id": "f35080a665a65a1a70a021c13e7a1b35", "name": "f35080a665a65a1a70a021c13e7a1b35"}, {"lon": -77.00532266666667, "is_disabled": 0, "lat": 38.88008516666667, "fusion_lat": 0.0, "is_reserved": 0, "rental_uris": {"ios": "https://dc.lft.to/lastmile_qr_scan", "android": "https://dc.lft.to/lastmile_qr_scan"}, "fusion_lon": 0.0, "type": "electric_scooter", "bike_id": "dfca3574b06d1fb22db70bd03fca2417", "name": "dfca3574b06d1fb22db70bd03fca2417"}, {"lon": -77.0204495, "is_disabled": 0, "lat": 38.9210885, "fusion_lat": 0.0, "is_reserved": 0, "rental_uris": {"ios": "https://dc.lft.to/lastmile_qr_scan", "android": "https://dc.lft.to/lastmile_qr_scan"}, "fusion_lon": 0.0, "type": "electric_scooter", "bike_id": "7fd91d457afc53e0e170fe68b2b9dc49", "name": "7fd91d457afc53e0e170fe68b2b9dc49"}, {"lon": -77.0178415, "is_disabled": 0, "lat": 38.877101, "fusion_lat": 0.0, "is_reserved": 0, "rental_uris": {"ios": "https://dc.lft.to/lastmile_qr_scan", "android": "https://dc.lft.to/lastmile_qr_scan"}, "fusion_lon": 0.0, "type": "electric_scooter", "bike_id": "89e73cb15c2c41a8afe8c0c2c1ef0cd9", "name": "89e73cb15c2c41a8afe8c0c2c1ef0cd9"}, {"lon": -77.03728083333333, "is_disabled": 0, "lat": 38.92659116666667, "fusion_lat": 0.0, "is_reserved": 0, "rental_uris": {"ios": "https://dc.lft.to/lastmile_qr_scan", "android": "https://dc.lft.to/lastmile_qr_scan"}, "fusion_lon": 0.0, "type": "electric_scooter", "bike_id": "25113987ef3b9105a43848418474838c", "name": "25113987ef3b9105a43848418474838c"}, {"lon": -77.02968333333334, "is_disabled": 0, "lat": 38.9017175, "fusion_lat": 0.0, "is_reserved": 0, "rental_uris": {"ios": "https://dc.lft.to/lastmile_qr_scan", "android": "https://dc.lft.to/lastmile_qr_scan"}, "fusion_lon": 0.0, "type": "electric_scooter", "bike_id": "76b8aa60f47215983dfc68ded5084c02", "name": "76b8aa60f47215983dfc68ded5084c02"}, {"lon": -77.03289, "is_disabled": 0, "lat": 38.93441966666666, "fusion_lat": 0.0, "is_reserved": 0, "rental_uris": {"ios": "https://dc.lft.to/lastmile_qr_scan", "android": "https://dc.lft.to/lastmile_qr_scan"}, "fusion_lon": 0.0, "type": "electric_scooter", "bike_id": "8713ce2081188318ccf5f2883a810ffe", "name": "8713ce2081188318ccf5f2883a810ffe"}, {"lon": -77.05341183333333, "is_disabled": 0, "lat": 39.040858666666665, "fusion_lat": 0.0, "is_reserved": 0, "rental_uris": {"ios": "https://dc.lft.to/lastmile_qr_scan", "android": "https://dc.lft.to/lastmile_qr_scan"}, "fusion_lon": 0.0, "type": "electric_bike", "bike_id": "d27388623d8a8d4474cba50fd3d8a126", "name": "d27388623d8a8d4474cba50fd3d8a126"}, {"lon": -77.02445983333334, "is_disabled": 0, "lat": 38.938541666666666, "fusion_lat": 0.0, "is_reserved": 0, "rental_uris": {"ios": "https://dc.lft.to/lastmile_qr_scan", "android": "https://dc.lft.to/lastmile_qr_scan"}, "fusion_lon": 0.0, "type": "electric_scooter", "bike_id": "714bda7f0e5d68912bdbdb9ec7a46e59", "name": "714bda7f0e5d68912bdbdb9ec7a46e59"}, {"lon": -77.05175216666666, "is_disabled": 0, "lat": 38.90556733333333, "fusion_lat": 0.0, "is_reserved": 0, "rental_uris": {"ios": "https://dc.lft.to/lastmile_qr_scan", "android": "https://dc.lft.to/lastmile_qr_scan"}, "fusion_lon": 0.0, "type": "electric_scooter", "bike_id": "74bafd861018586fa30556ed9ef94ec7", "name": "74bafd861018586fa30556ed9ef94ec7"}, {"lon": -77.00074333333333, "is_disabled": 0, "lat": 38.873893833333334, "fusion_lat": 0.0, "is_reserved": 0, "rental_uris": {"ios": "https://dc.lft.to/lastmile_qr_scan", "android": "https://dc.lft.to/lastmile_qr_scan"}, "fusion_lon": 0.0, "type": "electric_scooter", "bike_id": "4310d712293ec44c1650ca31729f585c", "name": "4310d712293ec44c1650ca31729f585c"}, {"lon": -77.02646866666667, "is_disabled": 0, "lat": 38.90265266666667, "fusion_lat": 0.0, "is_reserved": 0, "rental_uris": {"ios": "https://dc.lft.to/lastmile_qr_scan", "android": "https://dc.lft.to/lastmile_qr_scan"}, "fusion_lon": 0.0, "type": "electric_scooter", "bike_id": "e188c2189484662089b75bfb1fe122ae", "name": "e188c2189484662089b75bfb1fe122ae"}, {"lon": -77.0148905, "is_disabled": 0, "lat": 38.892229, "fusion_lat": 0.0, "is_reserved": 0, "rental_uris": {"ios": "https://dc.lft.to/lastmile_qr_scan", "android": "https://dc.lft.to/lastmile_qr_scan"}, "fusion_lon": 0.0, "type": "electric_scooter", "bike_id": "b12e4ec9b317f123f7c336c8fee5f8bc", "name": "b12e4ec9b317f123f7c336c8fee5f8bc"}, {"lon": -77.02504016666667, "is_disabled": 0, "lat": 38.9192355, "fusion_lat": 0.0, "is_reserved": 0, "rental_uris": {"ios": "https://dc.lft.to/lastmile_qr_scan", "android": "https://dc.lft.to/lastmile_qr_scan"}, "fusion_lon": 0.0, "type": "electric_scooter", "bike_id": "ef63355002f70c5d8aaee7ec4f960e43", "name": "ef63355002f70c5d8aaee7ec4f960e43"}, {"lon": -77.03287733333333, "is_disabled": 0, "lat": 38.93510933333334, "fusion_lat": 0.0, "is_reserved": 0, "rental_uris": {"ios": "https://dc.lft.to/lastmile_qr_scan", "android": "https://dc.lft.to/lastmile_qr_scan"}, "fusion_lon": 0.0, "type": "electric_scooter", "bike_id": "bc47d1e225ff033f0d5fc191bd24511c", "name": "bc47d1e225ff033f0d5fc191bd24511c"}, {"lon": -77.02886266666667, "is_disabled": 0, "lat": 38.9043765, "fusion_lat": 0.0, "is_reserved": 0, "rental_uris": {"ios": "https://dc.lft.to/lastmile_qr_scan", "android": "https://dc.lft.to/lastmile_qr_scan"}, "fusion_lon": 0.0, "type": "electric_scooter", "bike_id": "81a3b02844ef8dd70a29e70c553b9a5b", "name": "81a3b02844ef8dd70a29e70c553b9a5b"}, {"lon": -76.950932, "is_disabled": 0, "lat": 38.884511, "fusion_lat": 0.0, "is_reserved": 0, "rental_uris": {"ios": "https://dc.lft.to/lastmile_qr_scan", "android": "https://dc.lft.to/lastmile_qr_scan"}, "fusion_lon": 0.0, "type": "electric_scooter", "bike_id": "97e116472d385008144a935a5a240760", "name": "97e116472d385008144a935a5a240760"}, {"lon": -77.041674, "is_disabled": 0, "lat": 38.917686, "fusion_lat": 0.0, "is_reserved": 0, "rental_uris": {"ios": "https://dc.lft.to/lastmile_qr_scan", "android": "https://dc.lft.to/lastmile_qr_scan"}, "fusion_lon": 0.0, "type": "electric_scooter", "bike_id": "2d5b9e4ec9fff09cf918420a46a857ae", "name": "2d5b9e4ec9fff09cf918420a46a857ae"}, {"lon": -77.04369616666666, "is_disabled": 0, "lat": 38.921353833333335, "fusion_lat": 0.0, "is_reserved": 0, "rental_uris": {"ios": "https://dc.lft.to/lastmile_qr_scan", "android": "https://dc.lft.to/lastmile_qr_scan"}, "fusion_lon": 0.0, "type": "electric_scooter", "bike_id": "b160aa2bd4a08e2cb2bfcdb5bcd024b3", "name": "b160aa2bd4a08e2cb2bfcdb5bcd024b3"}, {"lon": -77.0331005, "is_disabled": 0, "lat": 38.928846166666666, "fusion_lat": 0.0, "is_reserved": 0, "rental_uris": {"ios": "https://dc.lft.to/lastmile_qr_scan", "android": "https://dc.lft.to/lastmile_qr_scan"}, "fusion_lon": 0.0, "type": "electric_scooter", "bike_id": "f9de4b9906b38a7ae5ef741d105e0c8b", "name": "f9de4b9906b38a7ae5ef741d105e0c8b"}, {"lon": -77.04100533333333, "is_disabled": 0, "lat": 38.9179025, "fusion_lat": 0.0, "is_reserved": 0, "rental_uris": {"ios": "https://dc.lft.to/lastmile_qr_scan", "android": "https://dc.lft.to/lastmile_qr_scan"}, "fusion_lon": 0.0, "type": "electric_scooter", "bike_id": "18f9bde98fb4a19c2c3e3aabb1ee00cd", "name": "18f9bde98fb4a19c2c3e3aabb1ee00cd"}, {"lon": -77.03859916666667, "is_disabled": 0, "lat": 38.916911666666664, "fusion_lat": 0.0, "is_reserved": 0, "rental_uris": {"ios": "https://dc.lft.to/lastmile_qr_scan", "android": "https://dc.lft.to/lastmile_qr_scan"}, "fusion_lon": 0.0, "type": "electric_scooter", "bike_id": "20d4c39aada242e6b1e8df71ce485117", "name": "20d4c39aada242e6b1e8df71ce485117"}, {"lon": -77.01479116666667, "is_disabled": 0, "lat": 38.9187395, "fusion_lat": 0.0, "is_reserved": 0, "rental_uris": {"ios": "https://dc.lft.to/lastmile_qr_scan", "android": "https://dc.lft.to/lastmile_qr_scan"}, "fusion_lon": 0.0, "type": "electric_scooter", "bike_id": "78a81842f110c82d9b373a4ba4f60cdc", "name": "78a81842f110c82d9b373a4ba4f60cdc"}, {"lon": -77.029461, "is_disabled": 0, "lat": 38.899708, "fusion_lat": 0.0, "is_reserved": 0, "rental_uris": {"ios": "https://dc.lft.to/lastmile_qr_scan", "android": "https://dc.lft.to/lastmile_qr_scan"}, "fusion_lon": 0.0, "type": "electric_scooter", "bike_id": "f324788f2c05b420f1e742dd5d41a66b", "name": "f324788f2c05b420f1e742dd5d41a66b"}, {"lon": -77.02985516666666, "is_disabled": 0, "lat": 38.907321833333334, "fusion_lat": 0.0, "is_reserved": 0, "rental_uris": {"ios": "https://dc.lft.to/lastmile_qr_scan", "android": "https://dc.lft.to/lastmile_qr_scan"}, "fusion_lon": 0.0, "type": "electric_scooter", "bike_id": "ed0e706250bb0ba89e95775f7b610fed", "name": "ed0e706250bb0ba89e95775f7b610fed"}, {"lon": -77.02308433333333, "is_disabled": 0, "lat": 38.928926833333335, "fusion_lat": 0.0, "is_reserved": 0, "rental_uris": {"ios": "https://dc.lft.to/lastmile_qr_scan", "android": "https://dc.lft.to/lastmile_qr_scan"}, "fusion_lon": 0.0, "type": "electric_scooter", "bike_id": "13c5269cd815584f75c3b6e1718bd74d", "name": "13c5269cd815584f75c3b6e1718bd74d"}, {"lon": -77.02836716666667, "is_disabled": 0, "lat": 38.886268333333334, "fusion_lat": 0.0, "is_reserved": 0, "rental_uris": {"ios": "https://dc.lft.to/lastmile_qr_scan", "android": "https://dc.lft.to/lastmile_qr_scan"}, "fusion_lon": 0.0, "type": "electric_scooter", "bike_id": "b4894d1428fc397b8437f95cdeaea8d3", "name": "b4894d1428fc397b8437f95cdeaea8d3"}, {"lon": -76.99973033333333, "is_disabled": 0, "lat": 38.9083675, "fusion_lat": 0.0, "is_reserved": 0, "rental_uris": {"ios": "https://dc.lft.to/lastmile_qr_scan", "android": "https://dc.lft.to/lastmile_qr_scan"}, "fusion_lon": 0.0, "type": "electric_scooter", "bike_id": "8d3aeb4c76916332b25d94819b90a71e", "name": "8d3aeb4c76916332b25d94819b90a71e"}, {"lon": -77.06393666666666, "is_disabled": 0, "lat": 38.944236333333336, "fusion_lat": 0.0, "is_reserved": 0, "rental_uris": {"ios": "https://dc.lft.to/lastmile_qr_scan", "android": "https://dc.lft.to/lastmile_qr_scan"}, "fusion_lon": 0.0, "type": "electric_scooter", "bike_id": "be657e493287618058950cd3e5429c95", "name": "be657e493287618058950cd3e5429c95"}, {"lon": -76.94726016666667, "is_disabled": 0, "lat": 38.89738583333333, "fusion_lat": 0.0, "is_reserved": 0, "rental_uris": {"ios": "https://dc.lft.to/lastmile_qr_scan", "android": "https://dc.lft.to/lastmile_qr_scan"}, "fusion_lon": 0.0, "type": "electric_scooter", "bike_id": "3171631b66efe495165cce90ee911f73", "name": "3171631b66efe495165cce90ee911f73"}, {"lon": -77.02578366666667, "is_disabled": 0, "lat": 38.93089483333333, "fusion_lat": 0.0, "is_reserved": 0, "rental_uris": {"ios": "https://dc.lft.to/lastmile_qr_scan", "android": "https://dc.lft.to/lastmile_qr_scan"}, "fusion_lon": 0.0, "type": "electric_scooter", "bike_id": "1adffe71f29b9208c4e2c3c38ea4d43b", "name": "1adffe71f29b9208c4e2c3c38ea4d43b"}, {"lon": -76.969074, "is_disabled": 0, "lat": 38.87419916666666, "fusion_lat": 0.0, "is_reserved": 0, "rental_uris": {"ios": "https://dc.lft.to/lastmile_qr_scan", "android": "https://dc.lft.to/lastmile_qr_scan"}, "fusion_lon": 0.0, "type": "electric_scooter", "bike_id": "ec10d4301dc8cc9498d7daa04bddcc32", "name": "ec10d4301dc8cc9498d7daa04bddcc32"}, {"lon": -77.015311, "is_disabled": 0, "lat": 38.950356166666666, "fusion_lat": 0.0, "is_reserved": 0, "rental_uris": {"ios": "https://dc.lft.to/lastmile_qr_scan", "android": "https://dc.lft.to/lastmile_qr_scan"}, "fusion_lon": 0.0, "type": "electric_bike", "bike_id": "74287eeaf9e5610324552dd93900ecc1", "name": "74287eeaf9e5610324552dd93900ecc1"}, {"lon": -77.0376, "is_disabled": 0, "lat": 38.912677333333335, "fusion_lat": 0.0, "is_reserved": 0, "rental_uris": {"ios": "https://dc.lft.to/lastmile_qr_scan", "android": "https://dc.lft.to/lastmile_qr_scan"}, "fusion_lon": 0.0, "type": "electric_scooter", "bike_id": "de41531329f3b716b8f984efe4e7db8d", "name": "de41531329f3b716b8f984efe4e7db8d"}, {"lon": -77.035143, "is_disabled": 0, "lat": 38.90684066666667, "fusion_lat": 0.0, "is_reserved": 0, "rental_uris": {"ios": "https://dc.lft.to/lastmile_qr_scan", "android": "https://dc.lft.to/lastmile_qr_scan"}, "fusion_lon": 0.0, "type": "electric_scooter", "bike_id": "f87bee5e20e26fd28c76545b1eabc10a", "name": "f87bee5e20e26fd28c76545b1eabc10a"}, {"lon": -76.9425375, "is_disabled": 0, "lat": 38.89845866666667, "fusion_lat": 0.0, "is_reserved": 0, "rental_uris": {"ios": "https://dc.lft.to/lastmile_qr_scan", "android": "https://dc.lft.to/lastmile_qr_scan"}, "fusion_lon": 0.0, "type": "electric_scooter", "bike_id": "1637545a3e712ccee36dda118609da7e", "name": "1637545a3e712ccee36dda118609da7e"}, {"lon": -76.92679583333333, "is_disabled": 0, "lat": 38.888491, "fusion_lat": 0.0, "is_reserved": 0, "rental_uris": {"ios": "https://dc.lft.to/lastmile_qr_scan", "android": "https://dc.lft.to/lastmile_qr_scan"}, "fusion_lon": 0.0, "type": "electric_scooter", "bike_id": "5c32ec8fbaaddd169eba168d7a9ccb05", "name": "5c32ec8fbaaddd169eba168d7a9ccb05"}, {"lon": -76.9955605, "is_disabled": 0, "lat": 38.9399115, "fusion_lat": 0.0, "is_reserved": 0, "rental_uris": {"ios": "https://dc.lft.to/lastmile_qr_scan", "android": "https://dc.lft.to/lastmile_qr_scan"}, "fusion_lon": 0.0, "type": "electric_bike", "bike_id": "364ba1d3407b36122f83a4ac66832853", "name": "364ba1d3407b36122f83a4ac66832853"}, {"lon": -77.019519, "is_disabled": 0, "lat": 38.88369616666667, "fusion_lat": 0.0, "is_reserved": 0, "rental_uris": {"ios": "https://dc.lft.to/lastmile_qr_scan", "android": "https://dc.lft.to/lastmile_qr_scan"}, "fusion_lon": 0.0, "type": "electric_scooter", "bike_id": "efdb98f8efd15801da299f2c72e8fed0", "name": "efdb98f8efd15801da299f2c72e8fed0"}, {"lon": -76.9841045, "is_disabled": 0, "lat": 38.913843, "fusion_lat": 0.0, "is_reserved": 0, "rental_uris": {"ios": "https://dc.lft.to/lastmile_qr_scan", "android": "https://dc.lft.to/lastmile_qr_scan"}, "fusion_lon": 0.0, "type": "electric_scooter", "bike_id": "0c9ca36525536c99fecd0d4eab173afa", "name": "0c9ca36525536c99fecd0d4eab173afa"}, {"lon": -77.01811016666667, "is_disabled": 0, "lat": 38.904345166666666, "fusion_lat": 0.0, "is_reserved": 0, "rental_uris": {"ios": "https://dc.lft.to/lastmile_qr_scan", "android": "https://dc.lft.to/lastmile_qr_scan"}, "fusion_lon": 0.0, "type": "electric_scooter", "bike_id": "01445ef781226308c52575fd5a07abb3", "name": "01445ef781226308c52575fd5a07abb3"}, {"lon": -77.02453866666667, "is_disabled": 0, "lat": 38.918618, "fusion_lat": 0.0, "is_reserved": 0, "rental_uris": {"ios": "https://dc.lft.to/lastmile_qr_scan", "android": "https://dc.lft.to/lastmile_qr_scan"}, "fusion_lon": 0.0, "type": "electric_scooter", "bike_id": "fc47fe5106693ba49fca6c6f82ea27cc", "name": "fc47fe5106693ba49fca6c6f82ea27cc"}, {"lon": -77.00601283333333, "is_disabled": 0, "lat": 38.87573866666666, "fusion_lat": 0.0, "is_reserved": 0, "rental_uris": {"ios": "https://dc.lft.to/lastmile_qr_scan", "android": "https://dc.lft.to/lastmile_qr_scan"}, "fusion_lon": 0.0, "type": "electric_scooter", "bike_id": "c844642608ae6b34ec8cd50749abfd3d", "name": "c844642608ae6b34ec8cd50749abfd3d"}, {"lon": -77.05680783333334, "is_disabled": 0, "lat": 38.92333816666667, "fusion_lat": 0.0, "is_reserved": 0, "rental_uris": {"ios": "https://dc.lft.to/lastmile_qr_scan", "android": "https://dc.lft.to/lastmile_qr_scan"}, "fusion_lon": 0.0, "type": "electric_scooter", "bike_id": "7db021268f6c8ce4139bf0ee066c6325", "name": "7db021268f6c8ce4139bf0ee066c6325"}, {"lon": -76.9856855, "is_disabled": 0, "lat": 38.86687833333333, "fusion_lat": 0.0, "is_reserved": 0, "rental_uris": {"ios": "https://dc.lft.to/lastmile_qr_scan", "android": "https://dc.lft.to/lastmile_qr_scan"}, "fusion_lon": 0.0, "type": "electric_scooter", "bike_id": "04aafbc5934d1462e94c312742d5a849", "name": "04aafbc5934d1462e94c312742d5a849"}, {"lon": -76.96981916666667, "is_disabled": 0, "lat": 38.878704, "fusion_lat": 0.0, "is_reserved": 0, "rental_uris": {"ios": "https://dc.lft.to/lastmile_qr_scan", "android": "https://dc.lft.to/lastmile_qr_scan"}, "fusion_lon": 0.0, "type": "electric_scooter", "bike_id": "3354023c834e53f942c2a64af84311d9", "name": "3354023c834e53f942c2a64af84311d9"}, {"lon": -77.0032215, "is_disabled": 0, "lat": 38.919563833333335, "fusion_lat": 0.0, "is_reserved": 0, "rental_uris": {"ios": "https://dc.lft.to/lastmile_qr_scan", "android": "https://dc.lft.to/lastmile_qr_scan"}, "fusion_lon": 0.0, "type": "electric_scooter", "bike_id": "ec9e9e9431757cc623ecfb864164a169", "name": "ec9e9e9431757cc623ecfb864164a169"}, {"lon": -77.05325566666667, "is_disabled": 0, "lat": 38.90439533333333, "fusion_lat": 0.0, "is_reserved": 0, "rental_uris": {"ios": "https://dc.lft.to/lastmile_qr_scan", "android": "https://dc.lft.to/lastmile_qr_scan"}, "fusion_lon": 0.0, "type": "electric_scooter", "bike_id": "e3be541c72b4e44ecbeca645a73ca8bc", "name": "e3be541c72b4e44ecbeca645a73ca8bc"}, {"lon": -76.98014583333334, "is_disabled": 0, "lat": 38.85315, "fusion_lat": 0.0, "is_reserved": 0, "rental_uris": {"ios": "https://dc.lft.to/lastmile_qr_scan", "android": "https://dc.lft.to/lastmile_qr_scan"}, "fusion_lon": 0.0, "type": "electric_scooter", "bike_id": "840168389f51e0ffbde81612e43d3ecd", "name": "840168389f51e0ffbde81612e43d3ecd"}, {"lon": -77.126444, "is_disabled": 0, "lat": 38.8150785, "fusion_lat": 0.0, "is_reserved": 0, "rental_uris": {"ios": "https://dc.lft.to/lastmile_qr_scan", "android": "https://dc.lft.to/lastmile_qr_scan"}, "fusion_lon": 0.0, "type": "electric_bike", "bike_id": "5910a76d1757f45dd0f96732a65052b4", "name": "5910a76d1757f45dd0f96732a65052b4"}, {"lon": -77.03226483333333, "is_disabled": 0, "lat": 38.90868916666667, "fusion_lat": 0.0, "is_reserved": 0, "rental_uris": {"ios": "https://dc.lft.to/lastmile_qr_scan", "android": "https://dc.lft.to/lastmile_qr_scan"}, "fusion_lon": 0.0, "type": "electric_scooter", "bike_id": "1589ca3a608aa7403b7f148722d9fcea", "name": "1589ca3a608aa7403b7f148722d9fcea"}, {"lon": -77.0319205, "is_disabled": 0, "lat": 38.89226816666667, "fusion_lat": 0.0, "is_reserved": 0, "rental_uris": {"ios": "https://dc.lft.to/lastmile_qr_scan", "android": "https://dc.lft.to/lastmile_qr_scan"}, "fusion_lon": 0.0, "type": "electric_scooter", "bike_id": "0ebd18e40d64d5da2201ccddeb405b24", "name": "0ebd18e40d64d5da2201ccddeb405b24"}, {"lon": -77.0249755, "is_disabled": 0, "lat": 38.918078, "fusion_lat": 0.0, "is_reserved": 0, "rental_uris": {"ios": "https://dc.lft.to/lastmile_qr_scan", "android": "https://dc.lft.to/lastmile_qr_scan"}, "fusion_lon": 0.0, "type": "electric_scooter", "bike_id": "dfc998bf9d4b6aed55bb49414b0b8af9", "name": "dfc998bf9d4b6aed55bb49414b0b8af9"}, {"lon": -76.94640533333333, "is_disabled": 0, "lat": 38.89865366666667, "fusion_lat": 0.0, "is_reserved": 0, "rental_uris": {"ios": "https://dc.lft.to/lastmile_qr_scan", "android": "https://dc.lft.to/lastmile_qr_scan"}, "fusion_lon": 0.0, "type": "electric_scooter", "bike_id": "4f1d723ea193f7a4d3a414a46aae9eec", "name": "4f1d723ea193f7a4d3a414a46aae9eec"}, {"lon": -76.9924255, "is_disabled": 0, "lat": 38.79470166666667, "fusion_lat": 0.0, "is_reserved": 0, "rental_uris": {"ios": "https://dc.lft.to/lastmile_qr_scan", "android": "https://dc.lft.to/lastmile_qr_scan"}, "fusion_lon": 0.0, "type": "electric_bike", "bike_id": "3a41ee9377c2dc4d829ec6eda7ceac1e", "name": "3a41ee9377c2dc4d829ec6eda7ceac1e"}, {"lon": -76.98184066666667, "is_disabled": 0, "lat": 38.89584466666667, "fusion_lat": 0.0, "is_reserved": 0, "rental_uris": {"ios": "https://dc.lft.to/lastmile_qr_scan", "android": "https://dc.lft.to/lastmile_qr_scan"}, "fusion_lon": 0.0, "type": "electric_scooter", "bike_id": "27ab8455e1e70c3c3b36ef452a463cb5", "name": "27ab8455e1e70c3c3b36ef452a463cb5"}, {"lon": -77.03663483333334, "is_disabled": 0, "lat": 38.92167033333333, "fusion_lat": 0.0, "is_reserved": 0, "rental_uris": {"ios": "https://dc.lft.to/lastmile_qr_scan", "android": "https://dc.lft.to/lastmile_qr_scan"}, "fusion_lon": 0.0, "type": "electric_scooter", "bike_id": "6e82ed0ea0b85faf9ec0076569f08a70", "name": "6e82ed0ea0b85faf9ec0076569f08a70"}, {"lon": -77.021918, "is_disabled": 0, "lat": 38.908170166666665, "fusion_lat": 0.0, "is_reserved": 0, "rental_uris": {"ios": "https://dc.lft.to/lastmile_qr_scan", "android": "https://dc.lft.to/lastmile_qr_scan"}, "fusion_lon": 0.0, "type": "electric_scooter", "bike_id": "4f67f8567a6b9774f8dbc55d457930b5", "name": "4f67f8567a6b9774f8dbc55d457930b5"}, {"lon": -77.00154333333333, "is_disabled": 0, "lat": 38.873893333333335, "fusion_lat": 0.0, "is_reserved": 0, "rental_uris": {"ios": "https://dc.lft.to/lastmile_qr_scan", "android": "https://dc.lft.to/lastmile_qr_scan"}, "fusion_lon": 0.0, "type": "electric_scooter", "bike_id": "a3981721e98701a31da1833f262bd955", "name": "a3981721e98701a31da1833f262bd955"}, {"lon": -77.05071316666667, "is_disabled": 0, "lat": 38.9254115, "fusion_lat": 0.0, "is_reserved": 0, "rental_uris": {"ios": "https://dc.lft.to/lastmile_qr_scan", "android": "https://dc.lft.to/lastmile_qr_scan"}, "fusion_lon": 0.0, "type": "electric_scooter", "bike_id": "9745d756166be97e4fee115694741438", "name": "9745d756166be97e4fee115694741438"}, {"lon": -77.01301533333333, "is_disabled": 0, "lat": 38.90141966666667, "fusion_lat": 0.0, "is_reserved": 0, "rental_uris": {"ios": "https://dc.lft.to/lastmile_qr_scan", "android": "https://dc.lft.to/lastmile_qr_scan"}, "fusion_lon": 0.0, "type": "electric_scooter", "bike_id": "e30c6d2eb9721f941521defa67008aac", "name": "e30c6d2eb9721f941521defa67008aac"}, {"lon": -76.98570483333333, "is_disabled": 0, "lat": 38.86685766666667, "fusion_lat": 0.0, "is_reserved": 0, "rental_uris": {"ios": "https://dc.lft.to/lastmile_qr_scan", "android": "https://dc.lft.to/lastmile_qr_scan"}, "fusion_lon": 0.0, "type": "electric_scooter", "bike_id": "2aef105c5ae73fd92847a4ec9821b2c6", "name": "2aef105c5ae73fd92847a4ec9821b2c6"}, {"lon": -77.02385183333334, "is_disabled": 0, "lat": 38.989704, "fusion_lat": 0.0, "is_reserved": 0, "rental_uris": {"ios": "https://dc.lft.to/lastmile_qr_scan", "android": "https://dc.lft.to/lastmile_qr_scan"}, "fusion_lon": 0.0, "type": "electric_bike", "bike_id": "97e1cb91c963f3705945f1af3892ded5", "name": "97e1cb91c963f3705945f1af3892ded5"}, {"lon": -76.98601066666667, "is_disabled": 0, "lat": 38.903741, "fusion_lat": 0.0, "is_reserved": 0, "rental_uris": {"ios": "https://dc.lft.to/lastmile_qr_scan", "android": "https://dc.lft.to/lastmile_qr_scan"}, "fusion_lon": 0.0, "type": "electric_scooter", "bike_id": "fc23458273725fed39532c27dd750a62", "name": "fc23458273725fed39532c27dd750a62"}, {"lon": -77.03202733333333, "is_disabled": 0, "lat": 38.90700233333333, "fusion_lat": 0.0, "is_reserved": 0, "rental_uris": {"ios": "https://dc.lft.to/lastmile_qr_scan", "android": "https://dc.lft.to/lastmile_qr_scan"}, "fusion_lon": 0.0, "type": "electric_scooter", "bike_id": "bda0f9c838556397c53d98008b09c672", "name": "bda0f9c838556397c53d98008b09c672"}, {"lon": -76.9797615, "is_disabled": 0, "lat": 38.8974515, "fusion_lat": 0.0, "is_reserved": 0, "rental_uris": {"ios": "https://dc.lft.to/lastmile_qr_scan", "android": "https://dc.lft.to/lastmile_qr_scan"}, "fusion_lon": 0.0, "type": "electric_scooter", "bike_id": "032d64e310cc5a7b2825b01016ec6e44", "name": "032d64e310cc5a7b2825b01016ec6e44"}, {"lon": -77.03398633333333, "is_disabled": 0, "lat": 38.92645, "fusion_lat": 0.0, "is_reserved": 0, "rental_uris": {"ios": "https://dc.lft.to/lastmile_qr_scan", "android": "https://dc.lft.to/lastmile_qr_scan"}, "fusion_lon": 0.0, "type": "electric_scooter", "bike_id": "c709a5207c55a25a84635703dd5fc4a3", "name": "c709a5207c55a25a84635703dd5fc4a3"}, {"lon": -77.02691166666666, "is_disabled": 0, "lat": 38.908724, "fusion_lat": 0.0, "is_reserved": 0, "rental_uris": {"ios": "https://dc.lft.to/lastmile_qr_scan", "android": "https://dc.lft.to/lastmile_qr_scan"}, "fusion_lon": 0.0, "type": "electric_scooter", "bike_id": "9f90db8b2c4f01326cbc71ccde652070", "name": "9f90db8b2c4f01326cbc71ccde652070"}, {"lon": -77.02169016666667, "is_disabled": 0, "lat": 38.89906466666667, "fusion_lat": 0.0, "is_reserved": 0, "rental_uris": {"ios": "https://dc.lft.to/lastmile_qr_scan", "android": "https://dc.lft.to/lastmile_qr_scan"}, "fusion_lon": 0.0, "type": "electric_scooter", "bike_id": "487fbb936c20c4cc66d764e7aa33d7d6", "name": "487fbb936c20c4cc66d764e7aa33d7d6"}, {"lon": -77.0270035, "is_disabled": 0, "lat": 38.904654666666666, "fusion_lat": 0.0, "is_reserved": 0, "rental_uris": {"ios": "https://dc.lft.to/lastmile_qr_scan", "android": "https://dc.lft.to/lastmile_qr_scan"}, "fusion_lon": 0.0, "type": "electric_scooter", "bike_id": "a8ed75f19b4cc9278cdfcfc211a444d6", "name": "a8ed75f19b4cc9278cdfcfc211a444d6"}, {"lon": -77.048124, "is_disabled": 0, "lat": 38.91643783333333, "fusion_lat": 0.0, "is_reserved": 0, "rental_uris": {"ios": "https://dc.lft.to/lastmile_qr_scan", "android": "https://dc.lft.to/lastmile_qr_scan"}, "fusion_lon": 0.0, "type": "electric_scooter", "bike_id": "6dba4cfaf1c6822264a759d950ea120e", "name": "6dba4cfaf1c6822264a759d950ea120e"}, {"lon": -77.134689, "is_disabled": 0, "lat": 38.85350866666667, "fusion_lat": 0.0, "is_reserved": 0, "rental_uris": {"ios": "https://dc.lft.to/lastmile_qr_scan", "android": "https://dc.lft.to/lastmile_qr_scan"}, "fusion_lon": 0.0, "type": "electric_bike", "bike_id": "2c41ae1921bc63c84c5c469526d40013", "name": "2c41ae1921bc63c84c5c469526d40013"}, {"lon": -77.02985166666667, "is_disabled": 0, "lat": 38.9073375, "fusion_lat": 0.0, "is_reserved": 0, "rental_uris": {"ios": "https://dc.lft.to/lastmile_qr_scan", "android": "https://dc.lft.to/lastmile_qr_scan"}, "fusion_lon": 0.0, "type": "electric_scooter", "bike_id": "cd39c4b40603ac08212840d3e1344177", "name": "cd39c4b40603ac08212840d3e1344177"}, {"lon": -77.03521816666667, "is_disabled": 0, "lat": 38.936065666666664, "fusion_lat": 0.0, "is_reserved": 0, "rental_uris": {"ios": "https://dc.lft.to/lastmile_qr_scan", "android": "https://dc.lft.to/lastmile_qr_scan"}, "fusion_lon": 0.0, "type": "electric_scooter", "bike_id": "c64183a97882285e3da1eb8dbb4cc4f7", "name": "c64183a97882285e3da1eb8dbb4cc4f7"}, {"lon": -77.021315, "is_disabled": 0, "lat": 38.91558033333333, "fusion_lat": 0.0, "is_reserved": 0, "rental_uris": {"ios": "https://dc.lft.to/lastmile_qr_scan", "android": "https://dc.lft.to/lastmile_qr_scan"}, "fusion_lon": 0.0, "type": "electric_scooter", "bike_id": "8ff4b3a926d2af026559250de1904a77", "name": "8ff4b3a926d2af026559250de1904a77"}, {"lon": -76.97961116666667, "is_disabled": 0, "lat": 38.90617783333333, "fusion_lat": 0.0, "is_reserved": 0, "rental_uris": {"ios": "https://dc.lft.to/lastmile_qr_scan", "android": "https://dc.lft.to/lastmile_qr_scan"}, "fusion_lon": 0.0, "type": "electric_scooter", "bike_id": "362c2f4dc028cedce4fb471b99175e7c", "name": "362c2f4dc028cedce4fb471b99175e7c"}, {"lon": -77.04517916666667, "is_disabled": 0, "lat": 38.91644183333333, "fusion_lat": 0.0, "is_reserved": 0, "rental_uris": {"ios": "https://dc.lft.to/lastmile_qr_scan", "android": "https://dc.lft.to/lastmile_qr_scan"}, "fusion_lon": 0.0, "type": "electric_scooter", "bike_id": "63aad9a6142ae8233d0b821ed10409fa", "name": "63aad9a6142ae8233d0b821ed10409fa"}, {"lon": -77.000928, "is_disabled": 0, "lat": 38.92558116666667, "fusion_lat": 0.0, "is_reserved": 0, "rental_uris": {"ios": "https://dc.lft.to/lastmile_qr_scan", "android": "https://dc.lft.to/lastmile_qr_scan"}, "fusion_lon": 0.0, "type": "electric_scooter", "bike_id": "8960a7e05c68ba118d7e079166c0bcb1", "name": "8960a7e05c68ba118d7e079166c0bcb1"}, {"lon": -77.03851583333334, "is_disabled": 0, "lat": 38.91467333333333, "fusion_lat": 0.0, "is_reserved": 0, "rental_uris": {"ios": "https://dc.lft.to/lastmile_qr_scan", "android": "https://dc.lft.to/lastmile_qr_scan"}, "fusion_lon": 0.0, "type": "electric_scooter", "bike_id": "71367fee978e57fca3fbbfe22ff7b937", "name": "71367fee978e57fca3fbbfe22ff7b937"},