{"data": {"bikes": [{"rental_uris": {"android": "https://dc.lft.to/lastmile_qr_scan", "ios": "https://dc.lft.to/lastmile_qr_scan"}, "lat": 38.92387766666667, "fusion_lon": 0.0, "fusion_lat": 0.0, "type": "electric_scooter", "bike_id": "6ef78f8b60770804eeab2fe45847d2f9", "lon": -77.02640583333333, "is_reserved": 0, "is_disabled": 0, "name": "6ef78f8b60770804eeab2fe45847d2f9"}, {"rental_uris": {"android": "https://dc.lft.to/lastmile_qr_scan", "ios": "https://dc.lft.to/lastmile_qr_scan"}, "lat": 38.9207285, "fusion_lon": 0.0, "fusion_lat": 0.0, "type": "electric_scooter", "bike_id": "53dca7288450c632cecd12fc97865e6e", "lon": -77.02309133333333, "is_reserved": 0, "is_disabled": 0, "name": "53dca7288450c632cecd12fc97865e6e"}, {"rental_uris": {"android": "https://dc.lft.to/lastmile_qr_scan", "ios": "https://dc.lft.to/lastmile_qr_scan"}, "lat": 38.8988345, "fusion_lon": 0.0, "fusion_lat": 0.0, "type": "electric_scooter", "bike_id": "0ed6986bd580eeb7dc555dcdb6c06598", "lon": -77.03273783333333, "is_reserved": 0, "is_disabled": 0, "name": "0ed6986bd580eeb7dc555dcdb6c06598"}, {"rental_uris": {"android": "https://dc.lft.to/lastmile_qr_scan", "ios": "https://dc.lft.to/lastmile_qr_scan"}, "lat": 38.892061166666664, "fusion_lon": 0.0, "fusion_lat": 0.0, "type": "electric_scooter", "bike_id": "a5bbce29ba04f684ee6a33aa26451acc", "lon": -76.96099633333333, "is_reserved": 0, "is_disabled": 0, "name": "a5bbce29ba04f684ee6a33aa26451acc"}, {"rental_uris": {"android": "https://dc.lft.to/lastmile_qr_scan", "ios": "https://dc.lft.to/lastmile_qr_scan"}, "lat": 38.906491, "fusion_lon": 0.0, "fusion_lat": 0.0, "type": "electric_scooter", "bike_id": "0bbb8c7608a775d54d8160f1e32aadd6", "lon": -76.98374916666667, "is_reserved": 0, "is_disabled": 0, "name": "0bbb8c7608a775d54d8160f1e32aadd6"}, {"rental_uris": {"android": "https://dc.lft.to/lastmile_qr_scan", "ios": "https://dc.lft.to/lastmile_qr_scan"}, "lat": 38.927833666666665, "fusion_lon": 0.0, "fusion_lat": 0.0, "type": "electric_scooter", "bike_id": "72edd0fd7cbb1ede927f6c9a1d830bb7", "lon": -77.02107733333334, "is_reserved": 0, "is_disabled": 0, "name": "72edd0fd7cbb1ede927f6c9a1d830bb7"}, {"rental_uris": {"android": "https://dc.lft.to/lastmile_qr_scan", "ios": "https://dc.lft.to/lastmile_qr_scan"}, "lat": 38.86372216666667, "fusion_lon": 0.0, "fusion_lat": 0.0, "type": "electric_scooter", "bike_id": "a742e5ef375805bb9d24619ce006b433", "lon": -76.990566, "is_reserved": 0, "is_disabled": 0, "name": "a742e5ef375805bb9d24619ce006b433"}, {"rental_uris": {"android": "https://dc.lft.to/lastmile_qr_scan", "ios": "https://dc.lft.to/lastmile_qr_scan"}, "lat": 38.906551, "fusion_lon": 0.0, "fusion_lat": 0.0, "type": "electric_scooter", "bike_id": "c167dc92aba50d1fccf6aec8fcd590af", "lon": -76.9859965, "is_reserved": 0, "is_disabled": 0, "name": "c167dc92aba50d1fccf6aec8fcd590af"}, {"rental_uris": {"android": "https://dc.lft.to/lastmile_qr_scan", "ios": "https://dc.lft.to/lastmile_qr_scan"}, "lat": 38.99806316666667, "fusion_lon": 0.0, "fusion_lat": 0.0, "type": "electric_bike", "bike_id": "712caf137289355990a9e1456aea0cfc", "lon": -76.99777933333333, "is_reserved": 0, "is_disabled": 0, "name": "712caf137289355990a9e1456aea0cfc"}, {"rental_uris": {"android": "https://dc.lft.to/lastmile_qr_scan", "ios": "https://dc.lft.to/lastmile_qr_scan"}, "lat": 38.899477, "fusion_lon": 0.0, "fusion_lat": 0.0, "type": "electric_scooter", "bike_id": "dda941983010d4282f517fbb1a3c3def", "lon": -77.02164116666667, "is_reserved": 0, "is_disabled": 0, "name": "dda941983010d4282f517fbb1a3c3def"}, {"rental_uris": {"android": "https://dc.lft.to/lastmile_qr_scan", "ios": "https://dc.lft.to/lastmile_qr_scan"}, "lat": 38.920759833333335, "fusion_lon": 0.0, "fusion_lat": 0.0, "type": "electric_scooter", "bike_id": "1b333fac507a59644b330860137a527e", "lon": -77.01820283333333, "is_reserved": 0, "is_disabled": 0, "name": "1b333fac507a59644b330860137a527e"}, {"rental_uris": {"android": "https://dc.lft.to/lastmile_qr_scan", "ios": "https://dc.lft.to/lastmile_qr_scan"}, "lat": 38.9181225, "fusion_lon": 0.0, "fusion_lat": 0.0, "type": "electric_scooter", "bike_id": "f7f256a9ab5a018670fcc75757e69434", "lon": -77.0329205, "is_reserved": 0, "is_disabled": 0, "name": "f7f256a9ab5a018670fcc75757e69434"}, {"rental_uris": {"android": "https://dc.lft.to/lastmile_qr_scan", "ios": "https://dc.lft.to/lastmile_qr_scan"}, "lat": 38.871705, "fusion_lon": 0.0, "fusion_lat": 0.0, "type": "electric_bike", "bike_id": "9c43502d6245e33f70497428c090ccb0", "lon": -77.23388249999999, "is_reserved": 0, "is_disabled": 0, "name": "9c43502d6245e33f70497428c090ccb0"}, {"rental_uris": {"android": "https://dc.lft.to/lastmile_qr_scan", "ios": "https://dc.lft.to/lastmile_qr_scan"}, "lat": 38.91262716666667, "fusion_lon": 0.0, "fusion_lat": 0.0, "type": "electric_scooter", "bike_id": "b170a14f1d796e9322e10af7339ac6f9", "lon": -77.032282, "is_reserved": 0, "is_disabled": 0, "name": "b170a14f1d796e9322e10af7339ac6f9"}, {"rental_uris": {"android": "https://dc.lft.to/lastmile_qr_scan", "ios": "https://dc.lft.to/lastmile_qr_scan"}, "lat": 38.90601383333333, "fusion_lon": 0.0, "fusion_lat": 0.0, "type": "electric_scooter", "bike_id": "d1f42c7170fed5e1af849dcab3bf880a", "lon": -77.0059595, "is_reserved": 0, "is_disabled": 0, "name": "d1f42c7170fed5e1af849dcab3bf880a"}, {"rental_uris": {"android": "https://dc.lft.to/lastmile_qr_scan", "ios": "https://dc.lft.to/lastmile_qr_scan"}, "lat": 38.92488066666667, "fusion_lon": 0.0, "fusion_lat": 0.0, "type": "electric_scooter", "bike_id": "9b17e0d739a3b02099b96347ef44d2b7", "lon": -77.02136733333333, "is_reserved": 0, "is_disabled": 0, "name": "9b17e0d739a3b02099b96347ef44d2b7"}, {"rental_uris": {"android": "https://dc.lft.to/lastmile_qr_scan", "ios": "https://dc.lft.to/lastmile_qr_scan"}, "lat": 38.80737333333333, "fusion_lon": 0.0, "fusion_lat": 0.0, "type": "electric_bike", "bike_id": "474dbf527bafcf989f1255c6a8730cbc", "lon": -77.0968645, "is_reserved": 0, "is_disabled": 0, "name": "474dbf527bafcf989f1255c6a8730cbc"}, {"rental_uris": {"android": "https://dc.lft.to/lastmile_qr_scan", "ios": "https://dc.lft.to/lastmile_qr_scan"}, "lat": 38.87277066666667, "fusion_lon": 0.0, "fusion_lat": 0.0, "type": "electric_scooter", "bike_id": "a0e88c19fb7ab9a71a37f0773e8529e5", "lon": -77.01513, "is_reserved": 0, "is_disabled": 0, "name": "a0e88c19fb7ab9a71a37f0773e8529e5"}, {"rental_uris": {"android": "https://dc.lft.to/lastmile_qr_scan", "ios": "https://dc.lft.to/lastmile_qr_scan"}, "lat": 38.921260333333336, "fusion_lon": 0.0, "fusion_lat": 0.0, "type": "electric_scooter", "bike_id": "fe5235be796ac9435f37c288254a9e9f", "lon": -77.0211465, "is_reserved": 0, "is_disabled": 0, "name": "fe5235be796ac9435f37c288254a9e9f"}, {"rental_uris": {"android": "https://dc.lft.to/lastmile_qr_scan", "ios": "https://dc.lft.to/lastmile_qr_scan"}, "lat": 38.917006, "fusion_lon": 0.0, "fusion_lat": 0.0, "type": "electric_scooter", "bike_id": "04e21382e02c94626a31f7cec82f580e", "lon": -77.02310216666666, "is_reserved": 0, "is_disabled": 0, "name": "04e21382e02c94626a31f7cec82f580e"}, {"rental_uris": {"android": "https://dc.lft.to/lastmile_qr_scan", "ios": "https://dc.lft.to/lastmile_qr_scan"}, "lat": 38.902086833333335, "fusion_lon": 0.0, "fusion_lat": 0.0, "type": "electric_scooter", "bike_id": "78299db64473e4ef9fe1b61e7828c23e", "lon": -76.99233783333334, "is_reserved": 0, "is_disabled": 0, "name": "78299db64473e4ef9fe1b61e7828c23e"}, {"rental_uris": {"android": "https://dc.lft.to/lastmile_qr_scan", "ios": "https://dc.lft.to/lastmile_qr_scan"}, "lat": 38.92056783333334, "fusion_lon": 0.0, "fusion_lat": 0.0, "type": "electric_scooter", "bike_id": "8e144138b1048843e544f7eb88649fba", "lon": -77.04243316666667, "is_reserved": 0, "is_disabled": 0, "name": "8e144138b1048843e544f7eb88649fba"}, {"rental_uris": {"android": "https://dc.lft.to/lastmile_qr_scan", "ios": "https://dc.lft.to/lastmile_qr_scan"}, "lat": 38.963957, "fusion_lon": 0.0, "fusion_lat": 0.0, "type": "electric_scooter", "bike_id": "95e6bbf0f4b1071a2bc383d763429318", "lon": -77.02588066666667, "is_reserved": 0, "is_disabled": 0, "name": "95e6bbf0f4b1071a2bc383d763429318"}, {"rental_uris": {"android": "https://dc.lft.to/lastmile_qr_scan", "ios": "https://dc.lft.to/lastmile_qr_scan"}, "lat": 38.898021, "fusion_lon": 0.0, "fusion_lat": 0.0, "type": "electric_scooter", "bike_id": "6296aa056cdef54e4742a0ae5477eeaf", "lon": -77.04614116666667, "is_reserved": 0, "is_disabled": 0, "name": "6296aa056cdef54e4742a0ae5477eeaf"}, {"rental_uris": {"android": "https://dc.lft.to/lastmile_qr_scan", "ios": "https://dc.lft.to/lastmile_qr_scan"}, "lat": 38.94448883333333, "fusion_lon": 0.0, "fusion_lat": 0.0, "type": "electric_scooter", "bike_id": "f3c634b139f3ff839fcfcf71748e3763", "lon": -77.0634965, "is_reserved": 0, "is_disabled": 0, "name": "f3c634b139f3ff839fcfcf71748e3763"}, {"rental_uris": {"android": "https://dc.lft.to/lastmile_qr_scan", "ios": "https://dc.lft.to/lastmile_qr_scan"}, "lat": 38.8974235, "fusion_lon": 0.0, "fusion_lat": 0.0, "type": "electric_scooter", "bike_id": "305a7e138545ed0763c0f9f4efe59bcb", "lon": -77.00864133333333, "is_reserved": 0, "is_disabled": 0, "name": "305a7e138545ed0763c0f9f4efe59bcb"}, {"rental_uris": {"android": "https://dc.lft.to/lastmile_qr_scan", "ios": "https://dc.lft.to/lastmile_qr_scan"}, "lat": 38.912711333333334, "fusion_lon": 0.0, "fusion_lat": 0.0, "type": "electric_scooter", "bike_id": "b2f9e0bca28ddfa55e9fe27c81ce2b5d", "lon": -77.02219416666667, "is_reserved": 0, "is_disabled": 0, "name": "b2f9e0bca28ddfa55e9fe27c81ce2b5d"}, {"rental_uris": {"android": "https://dc.lft.to/lastmile_qr_scan", "ios": "https://dc.lft.to/lastmile_qr_scan"}, "lat": 38.908686833333334, "fusion_lon": 0.0, "fusion_lat": 0.0, "type": "electric_scooter", "bike_id": "c6d01b066fa93cf2362d4bf1ea1703c8", "lon": -77.071546, "is_reserved": 0, "is_disabled": 0, "name": "c6d01b066fa93cf2362d4bf1ea1703c8"}, {"rental_uris": {"android": "https://dc.lft.to/lastmile_qr_scan", "ios": "https://dc.lft.to/lastmile_qr_scan"}, "lat": 38.895072, "fusion_lon": 0.0, "fusion_lat": 0.0, "type": "electric_scooter", "bike_id": "89e676921e3f121f6ae0b368957de8b5", "lon": -76.94885266666667, "is_reserved": 0, "is_disabled": 0, "name": "89e676921e3f121f6ae0b368957de8b5"}, {"rental_uris": {"android": "https://dc.lft.to/lastmile_qr_scan", "ios": "https://dc.lft.to/lastmile_qr_scan"}, "lat": 38.92108916666667, "fusion_lon": 0.0, "fusion_lat": 0.0, "type": "electric_scooter", "bike_id": "a29a72584315e79e701459919e25b78d", "lon": -77.03253133333334, "is_reserved": 0, "is_disabled": 0, "name": "a29a72584315e79e701459919e25b78d"}, {"rental_uris": {"android": "https://dc.lft.to/lastmile_qr_scan", "ios": "https://dc.lft.to/lastmile_qr_scan"}, "lat": 38.9031385, "fusion_lon": 0.0, "fusion_lat": 0.0, "type": "electric_scooter", "bike_id": "0ee7c58b40b89f994fe3123e726fc84d", "lon": -76.99282183333334, "is_reserved": 0, "is_disabled": 0, "name": "0ee7c58b40b89f994fe3123e726fc84d"}, {"rental_uris": {"android": "https://dc.lft.to/lastmile_qr_scan", "ios": "https://dc.lft.to/lastmile_qr_scan"}, "lat": 38.92893266666667, "fusion_lon": 0.0, "fusion_lat": 0.0, "type": "electric_bike", "bike_id": "104556b36141a20c0d6a2bec3ea6e610", "lon": -77.23176866666667, "is_reserved": 0, "is_disabled": 0, "name": "104556b36141a20c0d6a2bec3ea6e610"}, {"rental_uris": {"android": "https://dc.lft.to/lastmile_qr_scan", "ios": "https://dc.lft.to/lastmile_qr_scan"}, "lat": 38.9110905, "fusion_lon": 0.0, "fusion_lat": 0.0, "type": "electric_scooter", "bike_id": "9068a746bb82126d87d5da131c543893", "lon": -77.04399416666666, "is_reserved": 0, "is_disabled": 0, "name": "9068a746bb82126d87d5da131c543893"}, {"rental_uris": {"android": "https://dc.lft.to/lastmile_qr_scan", "ios": "https://dc.lft.to/lastmile_qr_scan"}, "lat": 38.89892016666667, "fusion_lon": 0.0, "fusion_lat": 0.0, "type": "electric_scooter", "bike_id": "2478048a96d329194b43f3308a23197d", "lon": -77.039434, "is_reserved": 0, "is_disabled": 0, "name": "2478048a96d329194b43f3308a23197d"}, {"rental_uris": {"android": "https://dc.lft.to/lastmile_qr_scan", "ios": "https://dc.lft.to/lastmile_qr_scan"}, "lat": 38.93268666666667, "fusion_lon": 0.0, "fusion_lat": 0.0, "type": "electric_scooter", "bike_id": "ae532f9d2174582ef9e32e0e1d875c37", "lon": -77.02091666666666, "is_reserved": 0, "is_disabled": 0, "name": "ae532f9d2174582ef9e32e0e1d875c37"}, {"rental_uris": {"android": "https://dc.lft.to/lastmile_qr_scan", "ios": "https://dc.lft.to/lastmile_qr_scan"}, "lat": 38.92060216666667, "fusion_lon": 0.0, "fusion_lat": 0.0, "type": "electric_scooter", "bike_id": "484a32dc8b40253f806af74a0090eb6b", "lon": -77.02350533333333, "is_reserved": 0, "is_disabled": 0, "name": "484a32dc8b40253f806af74a0090eb6b"}, {"rental_uris": {"android": "https://dc.lft.to/lastmile_qr_scan", "ios": "https://dc.lft.to/lastmile_qr_scan"}, "lat": 38.924166166666666, "fusion_lon": 0.0, "fusion_lat": 0.0, "type": "electric_scooter", "bike_id": "9ad9c74073b4d438b130e37b9037f23e", "lon": -77.01944433333334, "is_reserved": 0, "is_disabled": 0, "name": "9ad9c74073b4d438b130e37b9037f23e"}, {"rental_uris": {"android": "https://dc.lft.to/lastmile_qr_scan", "ios": "https://dc.lft.to/lastmile_qr_scan"}, "lat": 38.89225016666666, "fusion_lon": 0.0, "fusion_lat": 0.0, "type": "electric_scooter", "bike_id": "696f0e709630e48f6a7b0b2bf8de95ee", "lon": -77.03171066666667, "is_reserved": 0, "is_disabled": 0, "name": "696f0e709630e48f6a7b0b2bf8de95ee"}, {"rental_uris": {"android": "https://dc.lft.to/lastmile_qr_scan", "ios": "https://dc.lft.to/lastmile_qr_scan"}, "lat": 38.918135, "fusion_lon": 0.0, "fusion_lat": 0.0, "type": "electric_scooter", "bike_id": "36934b6f3e5c3386bab9fec4a2739906", "lon": -77.0271705, "is_reserved": 0, "is_disabled": 0, "name": "36934b6f3e5c3386bab9fec4a2739906"}, {"rental_uris": {"android": "https://dc.lft.to/lastmile_qr_scan", "ios": "https://dc.lft.to/lastmile_qr_scan"}, "lat": 38.9078395, "fusion_lon": 0.0, "fusion_lat": 0.0, "type": "electric_scooter", "bike_id": "352a1ac155a91cda495fc994758bc74b", "lon": -77.04508383333334, "is_reserved": 0, "is_disabled": 0, "name": "352a1ac155a91cda495fc994758bc74b"}, {"rental_uris": {"android": "https://dc.lft.to/lastmile_qr_scan", "ios": "https://dc.lft.to/lastmile_qr_scan"}, "lat": 38.831363333333336, "fusion_lon": 0.0, "fusion_lat": 0.0, "type": "electric_bike", "bike_id": "2bcaad13846ad8e84a6b97d66002baf6", "lon": -77.11319416666667, "is_reserved": 0, "is_disabled": 0, "name": "2bcaad13846ad8e84a6b97d66002baf6"}, {"rental_uris": {"android": "https://dc.lft.to/lastmile_qr_scan", "ios": "https://dc.lft.to/lastmile_qr_scan"}, "lat": 38.91582366666667, "fusion_lon": 0.0, "fusion_lat": 0.0, "type": "electric_scooter", "bike_id": "bd4ba1e9f3338173a4edc1916589c24c", "lon": -77.0452285, "is_reserved": 0, "is_disabled": 0, "name": "bd4ba1e9f3338173a4edc1916589c24c"}, {"rental_uris": {"android": "https://dc.lft.to/lastmile_qr_scan", "ios": "https://dc.lft.to/lastmile_qr_scan"}, "lat": 38.83827933333333, "fusion_lon": 0.0, "fusion_lat": 0.0, "type": "electric_bike", "bike_id": "f5fcc0dafc1ac6feb2ec2e56df76f129", "lon": -77.07919133333333, "is_reserved": 0, "is_disabled": 0, "name": "f5fcc0dafc1ac6feb2ec2e56df76f129"}, {"rental_uris": {"android": "https://dc.lft.to/lastmile_qr_scan", "ios": "https://dc.lft.to/lastmile_qr_scan"}, "lat": 38.909574166666665, "fusion_lon": 0.0, "fusion_lat": 0.0, "type": "electric_scooter", "bike_id": "fd3fa195d94d138924829bf3599bd811", "lon": -77.01438833333333, "is_reserved": 0, "is_disabled": 0, "name": "fd3fa195d94d138924829bf3599bd811"}, {"rental_uris": {"android": "https://dc.lft.to/lastmile_qr_scan", "ios": "https://dc.lft.to/lastmile_qr_scan"}, "lat": 38.927702, "fusion_lon": 0.0, "fusion_lat": 0.0, "type": "electric_scooter", "bike_id": "b56e5f671315c9978af2ac2d12596957", "lon": -77.02757933333334, "is_reserved": 0, "is_disabled": 0, "name": "b56e5f671315c9978af2ac2d12596957"}, {"rental_uris": {"android": "https://dc.lft.to/lastmile_qr_scan", "ios": "https://dc.lft.to/lastmile_qr_scan"}, "lat": 38.91096666666667, "fusion_lon": 0.0, "fusion_lat": 0.0, "type": "electric_scooter", "bike_id": "46d1aacf1b3ab677055116052c20971f", "lon": -77.00352833333334, "is_reserved": 0, "is_disabled": 0, "name": "46d1aacf1b3ab677055116052c20971f"}, {"rental_uris": {"android": "https://dc.lft.to/lastmile_qr_scan", "ios": "https://dc.lft.to/lastmile_qr_scan"}, "lat": 38.9581075, "fusion_lon": 0.0, "fusion_lat": 0.0, "type": "electric_scooter", "bike_id": "4695c2fbf2c5d9bb80e6f0ebd1c2e186", "lon": -77.01450433333333, "is_reserved": 0, "is_disabled": 0, "name": "4695c2fbf2c5d9bb80e6f0ebd1c2e186"}, {"rental_uris": {"android": "https://dc.lft.to/lastmile_qr_scan", "ios": "https://dc.lft.to/lastmile_qr_scan"}, "lat": 38.903428, "fusion_lon": 0.0, "fusion_lat": 0.0, "type": "electric_scooter", "bike_id": "60dab74a39ad581baea1775c16c9516f", "lon": -77.0590845, "is_reserved": 0, "is_disabled": 0, "name": "60dab74a39ad581baea1775c16c9516f"}, {"rental_uris": {"android": "https://dc.lft.to/lastmile_qr_scan", "ios": "https://dc.lft.to/lastmile_qr_scan"}, "lat": 38.911896666666664, "fusion_lon": 0.0, "fusion_lat": 0.0, "type": "electric_scooter", "bike_id": "9c83966a3fb8d835ee84f048b3d0ccef", "lon": -77.0457545, "is_reserved": 0, "is_disabled": 0, "name": "9c83966a3fb8d835ee84f048b3d0ccef"}, {"rental_uris": {"android": "https://dc.lft.to/lastmile_qr_scan", "ios": "https://dc.lft.to/lastmile_qr_scan"}, "lat": 38.901231833333334, "fusion_lon": 0.0, "fusion_lat": 0.0, "type": "electric_scooter", "bike_id": "8ec9f106604f7c1d80fd392f9409feee", "lon": -77.04335283333333, "is_reserved": 0, "is_disabled": 0, "name": "8ec9f106604f7c1d80fd392f9409feee"}, {"rental_uris": {"android": "https://dc.lft.to/lastmile_qr_scan", "ios": "https://dc.lft.to/lastmile_qr_scan"}, "lat": 38.92024383333333, "fusion_lon": 0.0, "fusion_lat": 0.0, "type": "electric_scooter", "bike_id": "8d7579c79c18275e0b239297e8a49fb5", "lon": -77.03119483333333, "is_reserved": 0, "is_disabled": 0, "name": "8d7579c79c18275e0b239297e8a49fb5"}, {"rental_uris": {"android": "https://dc.lft.to/lastmile_qr_scan", "ios": "https://dc.lft.to/lastmile_qr_scan"}, "lat": 38.92416766666667, "fusion_lon": 0.0, "fusion_lat": 0.0, "type": "electric_scooter", "bike_id": "a7ad0e04d914a40d0598b133b77d25c2", "lon": -77.01943616666667, "is_reserved": 0, "is_disabled": 0, "name": "a7ad0e04d914a40d0598b133b77d25c2"}, {"rental_uris": {"android": "https://dc.lft.to/lastmile_qr_scan", "ios": "https://dc.lft.to/lastmile_qr_scan"}, "lat": 38.94308133333333, "fusion_lon": 0.0, "fusion_lat": 0.0, "type": "electric_scooter", "bike_id": "fb117b9adbc43b734bb1b31580237b80", "lon": -77.02951066666667, "is_reserved": 0, "is_disabled": 0, "name": "fb117b9adbc43b734bb1b31580237b80"}, {"rental_uris": {"android": "https://dc.lft.to/lastmile_qr_scan", "ios": "https://dc.lft.to/lastmile_qr_scan"}, "lat": 38.929323833333335, "fusion_lon": 0.0, "fusion_lat": 0.0, "type": "electric_scooter", "bike_id": "f4a3bddb9b56e4ad8f7ff068718167f5", "lon": -77.0328165, "is_reserved": 0, "is_disabled": 0, "name": "f4a3bddb9b56e4ad8f7ff068718167f5"}, {"rental_uris": {"android": "https://dc.lft.to/lastmile_qr_scan", "ios": "https://dc.lft.to/lastmile_qr_scan"}, "lat": 38.916037, "fusion_lon": 0.0, "fusion_lat": 0.0, "type": "electric_scooter", "bike_id": "4b23728a4f347cbed8fc7bc5e6d7abfa", "lon": -77.01217233333334, "is_reserved": 0, "is_disabled": 0, "name": "4b23728a4f347cbed8fc7bc5e6d7abfa"}, {"rental_uris": {"android": "https://dc.lft.to/lastmile_qr_scan", "ios": "https://dc.lft.to/lastmile_qr_scan"}, "lat": 38.919739, "fusion_lon": 0.0, "fusion_lat": 0.0, "type": "electric_scooter", "bike_id": "4f57a9a0d908f80f8dec4fbbb87d8c60", "lon": -77.02178, "is_reserved": 0, "is_disabled": 0, "name": "4f57a9a0d908f80f8dec4fbbb87d8c60"}, {"rental_uris": {"android": "https://dc.lft.to/lastmile_qr_scan", "ios": "https://dc.lft.to/lastmile_qr_scan"}, "lat": 38.907773666666664, "fusion_lon": 0.0, "fusion_lat": 0.0, "type": "electric_scooter", "bike_id": "183348565f9d8368ae148fa7a37dac50", "lon": -77.06304533333333, "is_reserved": 0, "is_disabled": 0, "name": "183348565f9d8368ae148fa7a37dac50"}, {"rental_uris": {"android": "https://dc.lft.to/lastmile_qr_scan", "ios": "https://dc.lft.to/lastmile_qr_scan"}, "lat": 38.90591283333333, "fusion_lon": 0.0, "fusion_lat": 0.0, "type": "electric_scooter", "bike_id": "4ef3f0f7e334dc87b2ae1ef9f10c026e", "lon": -77.062763, "is_reserved": 0, "is_disabled": 0, "name": "4ef3f0f7e334dc87b2ae1ef9f10c026e"}, {"rental_uris": {"android": "https://dc.lft.to/lastmile_qr_scan", "ios": "https://dc.lft.to/lastmile_qr_scan"}, "lat": 38.934831333333335, "fusion_lon": 0.0, "fusion_lat": 0.0, "type": "electric_scooter", "bike_id": "265ca42d3822368076238835fe899bcb", "lon": -77.07329066666667, "is_reserved": 0, "is_disabled": 0, "name": "265ca42d3822368076238835fe899bcb"}, {"rental_uris": {"android": "https://dc.lft.to/lastmile_qr_scan", "ios": "https://dc.lft.to/lastmile_qr_scan"}, "lat": 38.895827, "fusion_lon": 0.0, "fusion_lat": 0.0, "type": "electric_scooter", "bike_id": "e076c127190f504526cc9c552953b78c", "lon": -77.02715116666667, "is_reserved": 0, "is_disabled": 0, "name": "e076c127190f504526cc9c552953b78c"}, {"rental_uris": {"android": "https://dc.lft.to/lastmile_qr_scan", "ios": "https://dc.lft.to/lastmile_qr_scan"}, "lat": 38.912617166666664, "fusion_lon": 0.0, "fusion_lat": 0.0, "type": "electric_scooter", "bike_id": "6beb689a9f9b63cab1e16cdb77f754cb", "lon": -77.03688083333333, "is_reserved": 0, "is_disabled": 0, "name": "6beb689a9f9b63cab1e16cdb77f754cb"}, {"rental_uris": {"android": "https://dc.lft.to/lastmile_qr_scan", "ios": "https://dc.lft.to/lastmile_qr_scan"}, "lat": 38.89887083333333, "fusion_lon": 0.0, "fusion_lat": 0.0, "type": "electric_scooter", "bike_id": "d5d337d70ba1e21479861a05deab1456", "lon": -77.04894033333333, "is_reserved": 0, "is_disabled": 0, "name": "d5d337d70ba1e21479861a05deab1456"}, {"rental_uris": {"android": "https://dc.lft.to/lastmile_qr_scan", "ios": "https://dc.lft.to/lastmile_qr_scan"}, "lat": 38.9034955, "fusion_lon": 0.0, "fusion_lat": 0.0, "type": "electric_scooter", "bike_id": "afa78fed208ff1fb93429f22e666abcb", "lon": -77.02493616666666, "is_reserved": 0, "is_disabled": 0, "name": "afa78fed208ff1fb93429f22e666abcb"}, {"rental_uris": {"android": "https://dc.lft.to/lastmile_qr_scan", "ios": "https://dc.lft.to/lastmile_qr_scan"}, "lat": 38.896356, "fusion_lon": 0.0, "fusion_lat": 0.0, "type": "electric_scooter", "bike_id": "9b2bb90a132fd30bbaedba9e03bef972", "lon": -77.03984416666667, "is_reserved": 0, "is_disabled": 0, "name": "9b2bb90a132fd30bbaedba9e03bef972"}, {"rental_uris": {"android": "https://dc.lft.to/lastmile_qr_scan", "ios": "https://dc.lft.to/lastmile_qr_scan"}, "lat": 38.893613333333334, "fusion_lon": 0.0, "fusion_lat": 0.0, "type": "electric_scooter", "bike_id": "9a657e0a03c4b553e900978f74bd9c36", "lon": -77.03164166666667, "is_reserved": 0, "is_disabled": 0, "name": "9a657e0a03c4b553e900978f74bd9c36"}, {"rental_uris": {"android": "https://dc.lft.to/lastmile_qr_scan", "ios": "https://dc.lft.to/lastmile_qr_scan"}, "lat": 38.900144, "fusion_lon": 0.0, "fusion_lat": 0.0, "type": "electric_scooter", "bike_id": "37dafaac59d0896efa59f5b4ff53a5a0", "lon": -77.03341733333333, "is_reserved": 0, "is_disabled": 0, "name": "37dafaac59d0896efa59f5b4ff53a5a0"}, {"rental_uris": {"android": "https://dc.lft.to/lastmile_qr_scan", "ios": "https://dc.lft.to/lastmile_qr_scan"}, "lat": 38.89017666666667, "fusion_lon": 0.0, "fusion_lat": 0.0, "type": "electric_scooter", "bike_id": "e2590bd0f6d242dbc5270d3f0e7beb5a", "lon": -76.93733766666666, "is_reserved": 0, "is_disabled": 0, "name": "e2590bd0f6d242dbc5270d3f0e7beb5a"}, {"rental_uris": {"android": "https://dc.lft.to/lastmile_qr_scan", "ios": "https://dc.lft.to/lastmile_qr_scan"}, "lat": 38.9089515, "fusion_lon": 0.0, "fusion_lat": 0.0, "type": "electric_scooter", "bike_id": "7dbce929791e5bf19f8add7a68cc15e4", "lon": -77.04399283333333, "is_reserved": 0, "is_disabled": 0, "name": "7dbce929791e5bf19f8add7a68cc15e4"}, {"rental_uris": {"android": "https://dc.lft.to/lastmile_qr_scan", "ios": "https://dc.lft.to/lastmile_qr_scan"}, "lat": 38.9134095, "fusion_lon": 0.0, "fusion_lat": 0.0, "type": "electric_scooter", "bike_id": "0ce9e04dc90ef3ee7530afceb1287342", "lon": -77.00225366666666, "is_reserved": 0, "is_disabled": 0, "name": "0ce9e04dc90ef3ee7530afceb1287342"}, {"rental_uris": {"android": "https://dc.lft.to/lastmile_qr_scan", "ios": "https://dc.lft.to/lastmile_qr_scan"}, "lat": 38.92418633333333, "fusion_lon": 0.0, "fusion_lat": 0.0, "type": "electric_scooter", "bike_id": "7316532509ace68ad8d16bfa0135865a", "lon": -77.0213155, "is_reserved": 0, "is_disabled": 0, "name": "7316532509ace68ad8d16bfa0135865a"}, {"rental_uris": {"android": "https://dc.lft.to/lastmile_qr_scan", "ios": "https://dc.lft.to/lastmile_qr_scan"}, "lat": 38.90348183333333, "fusion_lon": 0.0, "fusion_lat": 0.0, "type": "electric_scooter", "bike_id": "8e5822a6b63a2f7d13a023dce5bf005e", "lon": -76.986142, "is_reserved": 0, "is_disabled": 0, "name": "8e5822a6b63a2f7d13a023dce5bf005e"}, {"rental_uris": {"android": "https://dc.lft.to/lastmile_qr_scan", "ios": "https://dc.lft.to/lastmile_qr_scan"}, "lat": 38.88821466666667, "fusion_lon": 0.0, "fusion_lat": 0.0, "type": "electric_scooter", "bike_id": "4d1d25c169ccce6dd272f29ccc62a381", "lon": -76.9772015, "is_reserved": 0, "is_disabled": 0, "name": "4d1d25c169ccce6dd272f29ccc62a381"}, {"rental_uris": {"android": "https://dc.lft.to/lastmile_qr_scan", "ios": "https://dc.lft.to/lastmile_qr_scan"}, "lat": 38.9225925, "fusion_lon": 0.0, "fusion_lat": 0.0, "type": "electric_scooter", "bike_id": "57cf8f9ca26f33d0b4871a2c2e40d273", "lon": -77.01945633333334, "is_reserved": 0, "is_disabled": 0, "name": "57cf8f9ca26f33d0b4871a2c2e40d273"}, {"rental_uris": {"android": "https://dc.lft.to/lastmile_qr_scan", "ios": "https://dc.lft.to/lastmile_qr_scan"}, "lat": 38.92289383333333, "fusion_lon": 0.0, "fusion_lat": 0.0, "type": "electric_scooter", "bike_id": "abec151f2426e212084c773eef58080f", "lon": -77.02071766666667, "is_reserved": 0, "is_disabled": 0, "name": "abec151f2426e212084c773eef58080f"}, {"rental_uris": {"android": "https://dc.lft.to/lastmile_qr_scan", "ios": "https://dc.lft.to/lastmile_qr_scan"}, "lat": 38.89221666666667, "fusion_lon": 0.0, "fusion_lat": 0.0, "type": "electric_scooter", "bike_id": "eab85657f32f0d373bf9a4215651a45d", "lon": -77.0241725, "is_reserved": 0, "is_disabled": 0, "name": "eab85657f32f0d373bf9a4215651a45d"}, {"rental_uris": {"android": "https://dc.lft.to/lastmile_qr_scan", "ios": "https://dc.lft.to/lastmile_qr_scan"}, "lat": 38.862587833333336, "fusion_lon": 0.0, "fusion_lat": 0.0, "type": "electric_bike", "bike_id": "20d1d2f325b81aafe98ea9c2053bdfe4", "lon": -76.98354416666666, "is_reserved": 0, "is_disabled": 0, "name": "20d1d2f325b81aafe98ea9c2053bdfe4"}, {"rental_uris": {"android": "https://dc.lft.to/lastmile_qr_scan", "ios": "https://dc.lft.to/lastmile_qr_scan"}, "lat": 38.91804233333333, "fusion_lon": 0.0, "fusion_lat": 0.0, "type": "electric_scooter", "bike_id": "e1620449252f1f91fdf4beb3708230ff", "lon": -77.02430716666667, "is_reserved": 0, "is_disabled": 0, "name": "e1620449252f1f91fdf4beb3708230ff"}, {"rental_uris": {"android": "https://dc.lft.to/lastmile_qr_scan", "ios": "https://dc.lft.to/lastmile_qr_scan"}, "lat": 38.89965766666667, "fusion_lon": 0.0, "fusion_lat": 0.0, "type": "electric_scooter", "bike_id": "8edec545b5b5b1c07287353afd3a4cc9", "lon": -76.93970883333333, "is_reserved": 0, "is_disabled": 0, "name": "8edec545b5b5b1c07287353afd3a4cc9"}, {"rental_uris": {"android": "https://dc.lft.to/lastmile_qr_scan", "ios": "https://dc.lft.to/lastmile_qr_scan"}, "lat": 38.89230033333333, "fusion_lon": 0.0, "fusion_lat": 0.0, "type": "electric_scooter", "bike_id": "e9a2b8153f9eea694ff4165aceb6b674", "lon": -77.0499975, "is_reserved": 0, "is_disabled": 0, "name": "e9a2b8153f9eea694ff4165aceb6b674"}, {"rental_uris": {"android": "https://dc.lft.to/lastmile_qr_scan", "ios": "https://dc.lft.to/lastmile_qr_scan"}, "lat": 38.898704333333335, "fusion_lon": 0.0, "fusion_lat": 0.0, "type": "electric_scooter", "bike_id": "810df4ef4f066ec118a4ead3b2cf7318", "lon": -77.02005733333333, "is_reserved": 0, "is_disabled": 0, "name": "810df4ef4f066ec118a4ead3b2cf7318"}, {"rental_uris": {"android": "https://dc.lft.to/lastmile_qr_scan", "ios": "https://dc.lft.to/lastmile_qr_scan"}, "lat": 38.865765333333336, "fusion_lon": 0.0, "fusion_lat": 0.0, "type": "electric_bike", "bike_id": "8b633af3c017d1a7570fbbfdc05c5c1c", "lon": -77.129382, "is_reserved": 0, "is_disabled": 0, "name": "8b633af3c017d1a7570fbbfdc05c5c1c"}, {"rental_uris": {"android": "https://dc.lft.to/lastmile_qr_scan", "ios": "https://dc.lft.to/lastmile_qr_scan"}, "lat": 38.901877666666664, "fusion_lon": 0.0, "fusion_lat": 0.0, "type": "electric_scooter", "bike_id": "d3a2358b5eeb140abdb78c66e80b2c5b", "lon": -77.00212883333333, "is_reserved": 0, "is_disabled": 0, "name": "d3a2358b5eeb140abdb78c66e80b2c5b"}, {"rental_uris": {"android": "https://dc.lft.to/lastmile_qr_scan", "ios": "https://dc.lft.to/lastmile_qr_scan"}, "lat": 38.924717, "fusion_lon": 0.0, "fusion_lat": 0.0, "type": "electric_scooter", "bike_id": "e3d5a640a976e839d68e4d7be276c400", "lon": -77.022126, "is_reserved": 0, "is_disabled": 0, "name": "e3d5a640a976e839d68e4d7be276c400"}, {"rental_uris": {"android": "https://dc.lft.to/lastmile_qr_scan", "ios": "https://dc.lft.to/lastmile_qr_scan"}, "lat": 38.919861833333336, "fusion_lon": 0.0, "fusion_lat": 0.0, "type": "electric_scooter", "bike_id": "2cd94866f8f0c1765e7601e7718cd9be", "lon": -77.03791383333333, "is_reserved": 0, "is_disabled": 0, "name": "2cd94866f8f0c1765e7601e7718cd9be"}, {"rental_uris": {"android": "https://dc.lft.to/lastmile_qr_scan", "ios": "https://dc.lft.to/lastmile_qr_scan"}, "lat": 38.92239333333333, "fusion_lon": 0.0, "fusion_lat": 0.0, "type": "electric_scooter", "bike_id": "224d694226f7747d3074f9d155564863", "lon": -77.0281385, "is_reserved": 0, "is_disabled": 0, "name": "224d694226f7747d3074f9d155564863"}, {"rental_uris": {"android": "https://dc.lft.to/lastmile_qr_scan", "ios": "https://dc.lft.to/lastmile_qr_scan"}, "lat": 38.901390666666664, "fusion_lon": 0.0, "fusion_lat": 0.0, "type": "electric_scooter", "bike_id": "f0275ce7cc67916b7c7de4a21f73bf4e", "lon": -76.99603666666667, "is_reserved": 0, "is_disabled": 0, "name": "f0275ce7cc67916b7c7de4a21f73bf4e"}, {"rental_uris": {"android": "https://dc.lft.to/lastmile_qr_scan", "ios": "https://dc.lft.to/lastmile_qr_scan"}, "lat": 38.892231, "fusion_lon": 0.0, "fusion_lat": 0.0, "type": "electric_scooter", "bike_id": "f23883bad8decc6f039d90999f34ce12", "lon": -77.02535783333333, "is_reserved": 0, "is_disabled": 0, "name": "f23883bad8decc6f039d90999f34ce12"}, {"rental_uris": {"android": "https://dc.lft.to/lastmile_qr_scan", "ios": "https://dc.lft.to/lastmile_qr_scan"}, "lat": 38.898845666666666, "fusion_lon": 0.0, "fusion_lat": 0.0, "type": "electric_scooter", "bike_id": "c0a7108e43bbef7eb012a82c69738717", "lon": -77.04067333333333, "is_reserved": 0, "is_disabled": 0, "name": "c0a7108e43bbef7eb012a82c69738717"}, {"rental_uris": {"android": "https://dc.lft.to/lastmile_qr_scan", "ios": "https://dc.lft.to/lastmile_qr_scan"}, "lat": 38.944407, "fusion_lon": 0.0, "fusion_lat": 0.0, "type": "electric_scooter", "bike_id": "d42ea5b68e4af3384dec1edf5aa34914", "lon": -77.02919783333333, "is_reserved": 0, "is_disabled": 0, "name": "d42ea5b68e4af3384dec1edf5aa34914"}, {"rental_uris": {"android": "https://dc.lft.to/lastmile_qr_scan", "ios": "https://dc.lft.to/lastmile_qr_scan"}, "lat": 38.90517033333333, "fusion_lon": 0.0, "fusion_lat": 0.0, "type": "electric_scooter", "bike_id": "cc798d1da903feec1778dc32ad041ef4", "lon": -77.0687615, "is_reserved": 0, "is_disabled": 0, "name": "cc798d1da903feec1778dc32ad041ef4"}, {"rental_uris": {"android": "https://dc.lft.to/lastmile_qr_scan", "ios": "https://dc.lft.to/lastmile_qr_scan"}, "lat": 38.90189683333333, "fusion_lon": 0.0, "fusion_lat": 0.0, "type": "electric_scooter", "bike_id": "da8a4759aef5e2133b673415b55bc768", "lon": -77.05076633333333, "is_reserved": 0, "is_disabled": 0, "name": "da8a4759aef5e2133b673415b55bc768"}, {"rental_uris": {"android": "https://dc.lft.to/lastmile_qr_scan", "ios": "https://dc.lft.to/lastmile_qr_scan"}, "lat": 38.930407, "fusion_lon": 0.0, "fusion_lat": 0.0, "type": "electric_scooter", "bike_id": "27607ed78747358b63772175f23508a2", "lon": -77.03811216666666, "is_reserved": 0, "is_disabled": 0, "name": "27607ed78747358b63772175f23508a2"}, {"rental_uris": {"android": "https://dc.lft.to/lastmile_qr_scan", "ios": "https://dc.lft.to/lastmile_qr_scan"}, "lat": 38.920245333333334, "fusion_lon": 0.0, "fusion_lat": 0.0, "type": "electric_scooter", "bike_id": "c1d51c624936f6329f3859440d9f2091", "lon": -77.03121316666666, "is_reserved": 0, "is_disabled": 0, "name": "c1d51c624936f6329f3859440d9f2091"}, {"rental_uris": {"android": "https://dc.lft.to/lastmile_qr_scan", "ios": "https://dc.lft.to/lastmile_qr_scan"}, "lat": 38.955412333333335, "fusion_lon": 0.0, "fusion_lat": 0.0, "type": "electric_bike", "bike_id": "c0febf5f8968d5e8f44022fcc6e28f98", "lon": -76.96855233333334, "is_reserved": 0, "is_disabled": 0, "name": "c0febf5f8968d5e8f44022fcc6e28f98"}, {"rental_uris": {"android": "https://dc.lft.to/lastmile_qr_scan", "ios": "https://dc.lft.to/lastmile_qr_scan"}, "lat": 38.892462333333334, "fusion_lon": 0.0, "fusion_lat": 0.0, "type": "electric_scooter", "bike_id": "dadf02c5fa6b221223c43586f8a34c38", "lon": -77.0395795, "is_reserved": 0, "is_disabled": 0, "name": "dadf02c5fa6b221223c43586f8a34c38"}, {"rental_uris": {"android": "https://dc.lft.to/lastmile_qr_scan", "ios": "https://dc.lft.to/lastmile_qr_scan"}, "lat": 38.83864633333334, "fusion_lon": 0.0, "fusion_lat": 0.0, "type": "electric_bike", "bike_id": "92a2b9134b413702613cb021fc794936", "lon": -76.99705083333333, "is_reserved": 0, "is_disabled": 0, "name": "92a2b9134b413702613cb021fc794936"}, {"rental_uris": {"android": "https://dc.lft.to/lastmile_qr_scan", "ios": "https://dc.lft.to/lastmile_qr_scan"}, "lat": 38.924306333333334, "fusion_lon": 0.0, "fusion_lat": 0.0, "type": "electric_scooter", "bike_id": "67fa373b66e12e43b6441dfe7488164e", "lon": -77.02247183333333, "is_reserved": 0, "is_disabled": 0, "name": "67fa373b66e12e43b6441dfe7488164e"}, {"rental_uris": {"android": "https://dc.lft.to/lastmile_qr_scan", "ios": "https://dc.lft.to/lastmile_qr_scan"}, "lat": 38.91766833333333, "fusion_lon": 0.0, "fusion_lat": 0.0, "type": "electric_scooter", "bike_id": "8e42e6389c286eeb7a7703abe130803f", "lon": -77.04153966666667, "is_reserved": 0, "is_disabled": 0, "name": "8e42e6389c286eeb7a7703abe130803f"}, {"rental_uris": {"android": "https://dc.lft.to/lastmile_qr_scan", "ios": "https://dc.lft.to/lastmile_qr_scan"}, "lat": 38.902337333333335, "fusion_lon": 0.0, "fusion_lat": 0.0, "type": "electric_scooter", "bike_id": "d6ea5dc45db9da1b38c8c8fe0d14e2b7", "lon": -77.03959733333333, "is_reserved": 0, "is_disabled": 0, "name": "d6ea5dc45db9da1b38c8c8fe0d14e2b7"}, {"rental_uris": {"android": "https://dc.lft.to/lastmile_qr_scan", "ios": "https://dc.lft.to/lastmile_qr_scan"}, "lat": 38.8960655, "fusion_lon": 0.0, "fusion_lat": 0.0, "type": "electric_scooter", "bike_id": "fdc1d36550d062a9490445110eaa11a8", "lon": -76.9485315, "is_reserved": 0, "is_disabled": 0, "name": "fdc1d36550d062a9490445110eaa11a8"}, {"rental_uris": {"android": "https://dc.lft.to/lastmile_qr_scan", "ios": "https://dc.lft.to/lastmile_qr_scan"}, "lat": 38.919842, "fusion_lon": 0.0, "fusion_lat": 0.0, "type": "electric_scooter", "bike_id": "8550fbef149bfe0c2e29ccc956435ebf", "lon": -76.97307266666667, "is_reserved": 0, "is_disabled": 0, "name": "8550fbef149bfe0c2e29ccc956435ebf"}, {"rental_uris": {"android": "https://dc.lft.to/lastmile_qr_scan", "ios": "https://dc.lft.to/lastmile_qr_scan"}, "lat": 38.89741766666667, "fusion_lon": 0.0, "fusion_lat": 0.0, "type": "electric_scooter", "bike_id": "d8d270597e20b96e4d02ee4e6b9e3a8e", "lon": -77.00864933333334, "is_reserved": 0, "is_disabled": 0, "name": "d8d270597e20b96e4d02ee4e6b9e3a8e"}, {"rental_uris": {"android": "https://dc.lft.to/lastmile_qr_scan", "ios": "https://dc.lft.to/lastmile_qr_scan"}, "lat": 38.99497133333333, "fusion_lon": 0.0, "fusion_lat": 0.0, "type": "electric_bike", "bike_id": "fbd651ba9943a868cb8c38739ea0240a", "lon": -77.00136016666667, "is_reserved": 0, "is_disabled": 0, "name": "fbd651ba9943a868cb8c38739ea0240a"}, {"rental_uris": {"android": "https://dc.lft.to/lastmile_qr_scan", "ios": "https://dc.lft.to/lastmile_qr_scan"}, "lat": 38.876607166666666, "fusion_lon": 0.0, "fusion_lat": 0.0, "type": "electric_scooter", "bike_id": "06a3f0b3b750a0bea7c026ee3c765f2d", "lon": -77.0011095, "is_reserved": 0, "is_disabled": 0, "name": "06a3f0b3b750a0bea7c026ee3c765f2d"}, {"rental_uris": {"android": "https://dc.lft.to/lastmile_qr_scan", "ios": "https://dc.lft.to/lastmile_qr_scan"}, "lat": 38.94194816666667, "fusion_lon": 0.0, "fusion_lat": 0.0, "type": "electric_scooter", "bike_id": "2c6d14bfd1f6a2939db2fd9b1de161e8", "lon": -77.03141033333333, "is_reserved": 0, "is_disabled": 0, "name": "2c6d14bfd1f6a2939db2fd9b1de161e8"}, {"rental_uris": {"android": "https://dc.lft.to/lastmile_qr_scan", "ios": "https://dc.lft.to/lastmile_qr_scan"}, "lat": 38.90420433333333, "fusion_lon": 0.0, "fusion_lat": 0.0, "type": "electric_scooter", "bike_id": "fbc63ea693c8040d1c5e28ff6a28d124", "lon": -77.02719633333334, "is_reserved": 0, "is_disabled": 0, "name": "fbc63ea693c8040d1c5e28ff6a28d124"}, {"rental_uris": {"android": "https://dc.lft.to/lastmile_qr_scan", "ios": "https://dc.lft.to/lastmile_qr_scan"}, "lat": 38.908033, "fusion_lon": 0.0, "fusion_lat": 0.0, "type": "electric_scooter", "bike_id": "e855c8ada26d8050c7208bf387bd22f9", "lon": -77.000073, "is_reserved": 0, "is_disabled": 0, "name": "e855c8ada26d8050c7208bf387bd22f9"}, {"rental_uris": {"android": "https://dc.lft.to/lastmile_qr_scan", "ios": "https://dc.lft.to/lastmile_qr_scan"}, "lat": 38.920714333333336, "fusion_lon": 0.0, "fusion_lat": 0.0, "type": "electric_scooter", "bike_id": "761cb9f1e2ef0d4b2dfa658ebf6c54db", "lon": -77.02310633333333, "is_reserved": 0, "is_disabled": 0, "name": "761cb9f1e2ef0d4b2dfa658ebf6c54db"}, {"rental_uris": {"android": "https://dc.lft.to/lastmile_qr_scan", "ios": "https://dc.lft.to/lastmile_qr_scan"}, "lat": 38.883912333333335, "fusion_lon": 0.0, "fusion_lat": 0.0, "type": "electric_scooter", "bike_id": "2f39b487c8d202051173d0afe15789c5", "lon": -76.99507983333334, "is_reserved": 0, "is_disabled": 0, "name": "2f39b487c8d202051173d0afe15789c5"}, {"rental_uris": {"android": "https://dc.lft.to/lastmile_qr_scan", "ios": "https://dc.lft.to/lastmile_qr_scan"}, "lat": 38.903334666666666, "fusion_lon": 0.0, "fusion_lat": 0.0, "type": "electric_scooter", "bike_id": "d01078170dcd60b86a65a850c4807fc4", "lon": -77.033116, "is_reserved": 0, "is_disabled": 0, "name": "d01078170dcd60b86a65a850c4807fc4"}, {"rental_uris": {"android": "https://dc.lft.to/lastmile_qr_scan", "ios": "https://dc.lft.to/lastmile_qr_scan"}, "lat": 38.922499, "fusion_lon": 0.0, "fusion_lat": 0.0, "type": "electric_scooter", "bike_id": "1fcfa697ac843f918c53e3f31b3451b4", "lon": -77.0195, "is_reserved": 0, "is_disabled": 0, "name": "1fcfa697ac843f918c53e3f31b3451b4"}, {"rental_uris": {"android": "https://dc.lft.to/lastmile_qr_scan", "ios": "https://dc.lft.to/lastmile_qr_scan"}, "lat": 38.897140666666665, "fusion_lon": 0.0, "fusion_lat": 0.0, "type": "electric_scooter", "bike_id": "de9de2e0010a03178b58a04549f836fc", "lon": -77.00796933333334, "is_reserved": 0, "is_disabled": 0, "name": "de9de2e0010a03178b58a04549f836fc"}, {"rental_uris": {"android": "https://dc.lft.to/lastmile_qr_scan", "ios": "https://dc.lft.to/lastmile_qr_scan"}, "lat": 38.91660183333333, "fusion_lon": 0.0, "fusion_lat": 0.0, "type": "electric_scooter", "bike_id": "c6ab316e1b10ba368150065bb4ecfcf7", "lon": -77.02193683333333, "is_reserved": 0, "is_disabled": 0, "name": "c6ab316e1b10ba368150065bb4ecfcf7"}, {"rental_uris": {"android": "https://dc.lft.to/lastmile_qr_scan", "ios": "https://dc.lft.to/lastmile_qr_scan"}, "lat": 38.885025, "fusion_lon": 0.0, "fusion_lat": 0.0, "type": "electric_scooter", "bike_id": "2015d5f750f30287dcdc0087d862a6cb", "lon": -77.005653, "is_reserved": 0, "is_disabled": 0, "name": "2015d5f750f30287dcdc0087d862a6cb"}, {"rental_uris": {"android": "https://dc.lft.to/lastmile_qr_scan", "ios": "https://dc.lft.to/lastmile_qr_scan"}, "lat": 38.92468133333333, "fusion_lon": 0.0, "fusion_lat": 0.0, "type": "electric_scooter", "bike_id": "9a264ad2c728535ecd15f3a466f50381", "lon": -77.05231033333334, "is_reserved": 0, "is_disabled": 0, "name": "9a264ad2c728535ecd15f3a466f50381"}, {"rental_uris": {"android": "https://dc.lft.to/lastmile_qr_scan", "ios": "https://dc.lft.to/lastmile_qr_scan"}, "lat": 38.91049816666667, "fusion_lon": 0.0, "fusion_lat": 0.0, "type": "electric_scooter", "bike_id": "a870b3e0d2a5b4b10e659bed3b255bc6", "lon": -77.04352516666667, "is_reserved": 0, "is_disabled": 0, "name": "a870b3e0d2a5b4b10e659bed3b255bc6"}, {"rental_uris": {"android": "https://dc.lft.to/lastmile_qr_scan", "ios": "https://dc.lft.to/lastmile_qr_scan"}, "lat": 38.929395, "fusion_lon": 0.0, "fusion_lat": 0.0, "type": "electric_scooter", "bike_id": "12459aed74ecff7de84202317738470d", "lon": -77.01912783333333, "is_reserved": 0, "is_disabled": 0, "name": "12459aed74ecff7de84202317738470d"}, {"rental_uris": {"android": "https://dc.lft.to/lastmile_qr_scan", "ios": "https://dc.lft.to/lastmile_qr_scan"}, "lat": 38.92131166666667, "fusion_lon": 0.0, "fusion_lat": 0.0, "type": "electric_scooter", "bike_id": "e6d9afbd63e8c531be4ea0e6bc59c527", "lon": -77.04117233333334, "is_reserved": 0, "is_disabled": 0, "name": "e6d9afbd63e8c531be4ea0e6bc59c527"}, {"rental_uris": {"android": "https://dc.lft.to/lastmile_qr_scan", "ios": "https://dc.lft.to/lastmile_qr_scan"}, "lat": 38.919478166666664, "fusion_lon": 0.0, "fusion_lat": 0.0, "type": "electric_scooter", "bike_id": "ea8b658c36420b0ac1a04ca20ec46ad0", "lon": -77.04162416666667, "is_reserved": 0, "is_disabled": 0, "name": "ea8b658c36420b0ac1a04ca20ec46ad0"}, {"rental_uris": {"android": "https://dc.lft.to/lastmile_qr_scan", "ios": "https://dc.lft.to/lastmile_qr_scan"}, "lat": 38.89227366666667, "fusion_lon": 0.0, "fusion_lat": 0.0, "type": "electric_scooter", "bike_id": "551867eaf2033c76f77d3af8f61d2fe0", "lon": -77.02413266666667, "is_reserved": 0, "is_disabled": 0, "name": "551867eaf2033c76f77d3af8f61d2fe0"}, {"rental_uris": {"android": "https://dc.lft.to/lastmile_qr_scan", "ios": "https://dc.lft.to/lastmile_qr_scan"}, "lat": 38.94301566666667, "fusion_lon": 0.0, "fusion_lat": 0.0, "type": "electric_bike", "bike_id": "469b4405b31666bc6846293ba6e72471", "lon": -76.99890866666667, "is_reserved": 0, "is_disabled": 0, "name": "469b4405b31666bc6846293ba6e72471"}, {"rental_uris": {"android": "https://dc.lft.to/lastmile_qr_scan", "ios": "https://dc.lft.to/lastmile_qr_scan"}, "lat": 38.923955166666666, "fusion_lon": 0.0, "fusion_lat": 0.0, "type": "electric_scooter", "bike_id": "8924b362560d5f335210ef65c022dda5", "lon": -77.04091816666667, "is_reserved": 0, "is_disabled": 0, "name": "8924b362560d5f335210ef65c022dda5"}, {"rental_uris": {"android": "https://dc.lft.to/lastmile_qr_scan", "ios": "https://dc.lft.to/lastmile_qr_scan"}, "lat": 38.90135033333333, "fusion_lon": 0.0, "fusion_lat": 0.0, "type": "electric_scooter", "bike_id": "94d5a7875f9d8d77758044c8673f4a44", "lon": -77.05007866666666, "is_reserved": 0, "is_disabled": 0, "name": "94d5a7875f9d8d77758044c8673f4a44"}, {"rental_uris": {"android": "https://dc.lft.to/lastmile_qr_scan", "ios": "https://dc.lft.to/lastmile_qr_scan"}, "lat": 38.90119766666667, "fusion_lon": 0.0, "fusion_lat": 0.0, "type": "electric_scooter", "bike_id": "a8bb1350a80a128335e2960a773529e1", "lon": -77.03381966666667, "is_reserved": 0, "is_disabled": 0, "name": "a8bb1350a80a128335e2960a773529e1"}, {"rental_uris": {"android": "https://dc.lft.to/lastmile_qr_scan", "ios": "https://dc.lft.to/lastmile_qr_scan"}, "lat": 38.891951166666665, "fusion_lon": 0.0, "fusion_lat": 0.0, "type": "electric_scooter", "bike_id": "c2a1f1966a9986091fb124abaf984704", "lon": -77.023725, "is_reserved": 0, "is_disabled": 0, "name": "c2a1f1966a9986091fb124abaf984704"}, {"rental_uris": {"android": "https://dc.lft.to/lastmile_qr_scan", "ios": "https://dc.lft.to/lastmile_qr_scan"}, "lat": 38.9553345, "fusion_lon": 0.0, "fusion_lat": 0.0, "type": "electric_bike", "bike_id": "6559ba57e3e7604e62dfe9c18168c9e9", "lon": -76.95672183333333, "is_reserved": 0, "is_disabled": 0, "name": "6559ba57e3e7604e62dfe9c18168c9e9"}, {"rental_uris": {"android": "https://dc.lft.to/lastmile_qr_scan", "ios": "https://dc.lft.to/lastmile_qr_scan"}, "lat": 38.8992215, "fusion_lon": 0.0, "fusion_lat": 0.0, "type": "electric_scooter", "bike_id": "dd376b73bd72dfd5c2ca47b84aadfab8", "lon": -76.94575516666667, "is_reserved": 0, "is_disabled": 0, "name": "dd376b73bd72dfd5c2ca47b84aadfab8"}, {"rental_uris": {"android": "https://dc.lft.to/lastmile_qr_scan", "ios": "https://dc.lft.to/lastmile_qr_scan"}, "lat": 38.91534683333333, "fusion_lon": 0.0, "fusion_lat": 0.0, "type": "electric_scooter", "bike_id": "656b4427ffddf34fabf3beb5d36bfaff", "lon": -77.044705, "is_reserved": 0, "is_disabled": 0, "name": "656b4427ffddf34fabf3beb5d36bfaff"}, {"rental_uris": {"android": "https://dc.lft.to/lastmile_qr_scan", "ios": "https://dc.lft.to/lastmile_qr_scan"}, "lat": 38.88657083333333, "fusion_lon": 0.0, "fusion_lat": 0.0, "type": "electric_bike", "bike_id": "fdb173ef7111e79b64efd70be3ff345d", "lon": -77.162335, "is_reserved": 0, "is_disabled": 0, "name": "fdb173ef7111e79b64efd70be3ff345d"}, {"rental_uris": {"android": "https://dc.lft.to/lastmile_qr_scan", "ios": "https://dc.lft.to/lastmile_qr_scan"}, "lat": 39.026207166666666, "fusion_lon": 0.0, "fusion_lat": 0.0, "type": "electric_bike", "bike_id": "f055424971ae137fbcd718ac2290e32f", "lon": -77.03878466666667, "is_reserved": 0, "is_disabled": 0, "name": "f055424971ae137fbcd718ac2290e32f"}, {"rental_uris": {"android": "https://dc.lft.to/lastmile_qr_scan", "ios": "https://dc.lft.to/lastmile_qr_scan"}, "lat": 38.9172435, "fusion_lon": 0.0, "fusion_lat": 0.0, "type": "electric_scooter", "bike_id": "8ecf6831f7e12bd56a3d364ff60b6176", "lon": -77.04176833333334, "is_reserved": 0, "is_disabled": 0, "name": "8ecf6831f7e12bd56a3d364ff60b6176"}, {"rental_uris": {"android": "https://dc.lft.to/lastmile_qr_scan", "ios": "https://dc.lft.to/lastmile_qr_scan"}, "lat": 38.89617633333334, "fusion_lon": 0.0, "fusion_lat": 0.0, "type": "electric_scooter", "bike_id": "8c698039b9d20f03c234c138de84dbfc", "lon": -76.9856125, "is_reserved": 0, "is_disabled": 0, "name": "8c698039b9d20f03c234c138de84dbfc"}, {"rental_uris": {"android": "https://dc.lft.to/lastmile_qr_scan", "ios": "https://dc.lft.to/lastmile_qr_scan"}, "lat": 38.921906666666665, "fusion_lon": 0.0, "fusion_lat": 0.0, "type": "electric_scooter", "bike_id": "e6442faa01ad8ec4b85fdff0684e583f", "lon": -77.0413075, "is_reserved": 0, "is_disabled": 0, "name": "e6442faa01ad8ec4b85fdff0684e583f"}, {"rental_uris": {"android": "https://dc.lft.to/lastmile_qr_scan", "ios": "https://dc.lft.to/lastmile_qr_scan"}, "lat": 38.898560333333336, "fusion_lon": 0.0, "fusion_lat": 0.0, "type": "electric_scooter", "bike_id": "e66f770d0d1a912ceaa9b8987ef5e28e", "lon": -77.05401983333333, "is_reserved": 0, "is_disabled": 0, "name": "e66f770d0d1a912ceaa9b8987ef5e28e"}, {"rental_uris": {"android": "https://dc.lft.to/lastmile_qr_scan", "ios": "https://dc.lft.to/lastmile_qr_scan"}, "lat": 38.923729, "fusion_lon": 0.0, "fusion_lat": 0.0, "type": "electric_scooter", "bike_id": "719c9b2511053e0aa5ff8c6a074502dc", "lon": -77.05268516666666, "is_reserved": 0, "is_disabled": 0, "name": "719c9b2511053e0aa5ff8c6a074502dc"}, {"rental_uris": {"android": "https://dc.lft.to/lastmile_qr_scan", "ios": "https://dc.lft.to/lastmile_qr_scan"}, "lat": 38.914063166666665, "fusion_lon": 0.0, "fusion_lat": 0.0, "type": "electric_scooter", "bike_id": "6fa7f78a59c921af3d39ad4b02d71d18", "lon": -77.01013033333334, "is_reserved": 0, "is_disabled": 0, "name": "6fa7f78a59c921af3d39ad4b02d71d18"}, {"rental_uris": {"android": "https://dc.lft.to/lastmile_qr_scan", "ios": "https://dc.lft.to/lastmile_qr_scan"}, "lat": 38.9224135, "fusion_lon": 0.0, "fusion_lat": 0.0, "type": "electric_scooter", "bike_id": "104c8779dc1defae1560baef0f16532f", "lon": -77.03661633333333, "is_reserved": 0, "is_disabled": 0, "name": "104c8779dc1defae1560baef0f16532f"}, {"rental_uris": {"android": "https://dc.lft.to/lastmile_qr_scan", "ios": "https://dc.lft.to/lastmile_qr_scan"}, "lat": 38.8990885, "fusion_lon": 0.0, "fusion_lat": 0.0, "type": "electric_scooter", "bike_id": "c7fdb6588611006e8c09ac1d69a60cb6", "lon": -76.93386683333334, "is_reserved": 0, "is_disabled": 0, "name": "c7fdb6588611006e8c09ac1d69a60cb6"}, {"rental_uris": {"android": "https://dc.lft.to/lastmile_qr_scan", "ios": "https://dc.lft.to/lastmile_qr_scan"}, "lat": 38.908634166666666, "fusion_lon": 0.0, "fusion_lat": 0.0, "type": "electric_scooter", "bike_id": "5d550c537b21a49fcc6e05d43a7a619a", "lon": -77.07093833333333, "is_reserved": 0, "is_disabled": 0, "name": "5d550c537b21a49fcc6e05d43a7a619a"}, {"rental_uris": {"android": "https://dc.lft.to/lastmile_qr_scan", "ios": "https://dc.lft.to/lastmile_qr_scan"}, "lat": 38.88427083333333, "fusion_lon": 0.0, "fusion_lat": 0.0, "type": "electric_scooter", "bike_id": "e853d70f8b770264245860893ae6724e", "lon": -77.0304505, "is_reserved": 0, "is_disabled": 0, "name": "e853d70f8b770264245860893ae6724e"}, {"rental_uris": {"android": "https://dc.lft.to/lastmile_qr_scan", "ios": "https://dc.lft.to/lastmile_qr_scan"}, "lat": 38.898146, "fusion_lon": 0.0, "fusion_lat": 0.0, "type": "electric_scooter", "bike_id": "28e389665453c12de4e3b8e828a770f9", "lon": -77.02715133333334, "is_reserved": 0, "is_disabled": 0, "name": "28e389665453c12de4e3b8e828a770f9"}, {"rental_uris": {"android": "https://dc.lft.to/lastmile_qr_scan", "ios": "https://dc.lft.to/lastmile_qr_scan"}, "lat": 38.923345833333336, "fusion_lon": 0.0, "fusion_lat": 0.0, "type": "electric_scooter", "bike_id": "708394121761ec2233bfb37571750c97", "lon": -77.05681016666666, "is_reserved": 0, "is_disabled": 0, "name": "708394121761ec2233bfb37571750c97"}, {"rental_uris": {"android": "https://dc.lft.to/lastmile_qr_scan", "ios": "https://dc.lft.to/lastmile_qr_scan"}, "lat": 38.9104715, "fusion_lon": 0.0, "fusion_lat": 0.0, "type": "electric_scooter", "bike_id": "8b3f328c61345a310ff64dfcadeeedcb", "lon": -77.06462266666666, "is_reserved": 0, "is_disabled": 0, "name": "8b3f328c61345a310ff64dfcadeeedcb"}, {"rental_uris": {"android": "https://dc.lft.to/lastmile_qr_scan", "ios": "https://dc.lft.to/lastmile_qr_scan"}, "lat": 38.89849783333333, "fusion_lon": 0.0, "fusion_lat": 0.0, "type": "electric_scooter", "bike_id": "626e89f340e912ca73fa7909315c3c28", "lon": -77.04373333333334, "is_reserved": 0, "is_disabled": 0, "name": "626e89f340e912ca73fa7909315c3c28"}, {"rental_uris": {"android": "https://dc.lft.to/lastmile_qr_scan", "ios": "https://dc.lft.to/lastmile_qr_scan"}, "lat": 38.9234885, "fusion_lon": 0.0, "fusion_lat": 0.0, "type": "electric_scooter", "bike_id": "271b4144b89dc31e88e9f23d659f6538", "lon": -77.04151666666667, "is_reserved": 0, "is_disabled": 0, "name": "271b4144b89dc31e88e9f23d659f6538"}, {"rental_uris": {"android": "https://dc.lft.to/lastmile_qr_scan", "ios": "https://dc.lft.to/lastmile_qr_scan"}, "lat": 38.914920333333335, "fusion_lon": 0.0, "fusion_lat": 0.0, "type": "electric_scooter", "bike_id": "fe8cfb1174a5a995aadff91b7cb7bbdb", "lon": -77.045708, "is_reserved": 0, "is_disabled": 0, "name": "fe8cfb1174a5a995aadff91b7cb7bbdb"}, {"rental_uris": {"android": "https://dc.lft.to/lastmile_qr_scan", "ios": "https://dc.lft.to/lastmile_qr_scan"}, "lat": 38.895841, "fusion_lon": 0.0, "fusion_lat": 0.0, "type": "electric_scooter", "bike_id": "c84a5ffc946dcd1940999c461380db80", "lon": -77.02711183333334, "is_reserved": 0, "is_disabled": 0, "name": "c84a5ffc946dcd1940999c461380db80"}, {"rental_uris": {"android": "https://dc.lft.to/lastmile_qr_scan", "ios": "https://dc.lft.to/lastmile_qr_scan"}, "lat": 38.89194116666667, "fusion_lon": 0.0, "fusion_lat": 0.0, "type": "electric_scooter", "bike_id": "608a950cfe04e245f6dfd2089a9ac0ca", "lon": -77.002227, "is_reserved": 0, "is_disabled": 0, "name": "608a950cfe04e245f6dfd2089a9ac0ca"}, {"rental_uris": {"android": "https://dc.lft.to/lastmile_qr_scan", "ios": "https://dc.lft.to/lastmile_qr_scan"}, "lat": 38.918177666666665, "fusion_lon": 0.0, "fusion_lat": 0.0, "type": "electric_scooter", "bike_id": "2e783db02e826237c9964d674fa1acbb", "lon": -77.02720033333334, "is_reserved": 0, "is_disabled": 0, "name": "2e783db02e826237c9964d674fa1acbb"}, {"rental_uris": {"android": "https://dc.lft.to/lastmile_qr_scan", "ios": "https://dc.lft.to/lastmile_qr_scan"}, "lat": 38.9042875, "fusion_lon": 0.0, "fusion_lat": 0.0, "type": "electric_scooter", "bike_id": "1e488dfe7fcc28aac080e9515f92fb1d", "lon": -77.043598, "is_reserved": 0, "is_disabled": 0, "name": "1e488dfe7fcc28aac080e9515f92fb1d"}, {"rental_uris": {"android": "https://dc.lft.to/lastmile_qr_scan", "ios": "https://dc.lft.to/lastmile_qr_scan"}, "lat": 38.891144833333335, "fusion_lon": 0.0, "fusion_lat": 0.0, "type": "electric_bike", "bike_id": "ef17db77490b74320af4846a9c804eed", "lon": -76.95197016666667, "is_reserved": 0, "is_disabled": 0, "name": "ef17db77490b74320af4846a9c804eed"}, {"rental_uris": {"android": "https://dc.lft.to/lastmile_qr_scan", "ios": "https://dc.lft.to/lastmile_qr_scan"}, "lat": 38.95258183333333, "fusion_lon": 0.0, "fusion_lat": 0.0, "type": "electric_scooter", "bike_id": "3c792f60907bf4bd61d793ed139b479c", "lon": -77.02073716666666, "is_reserved": 0, "is_disabled": 0, "name": "3c792f60907bf4bd61d793ed139b479c"}, {"rental_uris": {"android": "https://dc.lft.to/lastmile_qr_scan", "ios": "https://dc.lft.to/lastmile_qr_scan"}, "lat": 38.932601166666664, "fusion_lon": 0.0, "fusion_lat": 0.0, "type": "electric_bike", "bike_id": "e27b8007962a14327ffa6828f36caac7", "lon": -77.065655, "is_reserved": 0, "is_disabled": 0, "name": "e27b8007962a14327ffa6828f36caac7"}, {"rental_uris": {"android": "https://dc.lft.to/lastmile_qr_scan", "ios": "https://dc.lft.to/lastmile_qr_scan"}, "lat": 38.90257183333333, "fusion_lon": 0.0, "fusion_lat": 0.0, "type": "electric_scooter", "bike_id": "55123fc40a144c34d4b17c3be06e901b", "lon": -76.99858666666667, "is_reserved": 0, "is_disabled": 0, "name": "55123fc40a144c34d4b17c3be06e901b"}, {"rental_uris": {"android": "https://dc.lft.to/lastmile_qr_scan", "ios": "https://dc.lft.to/lastmile_qr_scan"}, "lat": 38.916511666666665, "fusion_lon": 0.0, "fusion_lat": 0.0, "type": "electric_scooter", "bike_id": "7bfb38ad1a610f16f8ff81116ece1c96", "lon": -77.04161866666666, "is_reserved": 0, "is_disabled": 0, "name": "7bfb38ad1a610f16f8ff81116ece1c96"}, {"rental_uris": {"android": "https://dc.lft.to/lastmile_qr_scan", "ios": "https://dc.lft.to/lastmile_qr_scan"}, "lat": 38.89632533333333, "fusion_lon": 0.0, "fusion_lat": 0.0, "type": "electric_scooter", "bike_id": "3d0c74a8c00832f7d5236a37d077c893", "lon": -77.01173116666666, "is_reserved": 0, "is_disabled": 0, "name": "3d0c74a8c00832f7d5236a37d077c893"}, {"rental_uris": {"android": "https://dc.lft.to/lastmile_qr_scan", "ios": "https://dc.lft.to/lastmile_qr_scan"}, "lat": 38.919458666666664, "fusion_lon": 0.0, "fusion_lat": 0.0, "type": "electric_scooter", "bike_id": "505b19000f36cf15c86b7cace44c35c3", "lon": -77.034697, "is_reserved": 0, "is_disabled": 0, "name": "505b19000f36cf15c86b7cace44c35c3"}, {"rental_uris": {"android": "https://dc.lft.to/lastmile_qr_scan", "ios": "https://dc.lft.to/lastmile_qr_scan"}, "lat": 38.899630333333334, "fusion_lon": 0.0, "fusion_lat": 0.0, "type": "electric_scooter", "bike_id": "e785530302ef1ca45996e2c4704d1197", "lon": -77.046834, "is_reserved": 0, "is_disabled": 0, "name": "e785530302ef1ca45996e2c4704d1197"}, {"rental_uris": {"android": "https://dc.lft.to/lastmile_qr_scan", "ios": "https://dc.lft.to/lastmile_qr_scan"}, "lat": 38.89669683333334, "fusion_lon": 0.0, "fusion_lat": 0.0, "type": "electric_scooter", "bike_id": "962cd6b95641be031842635dab4c536e", "lon": -76.932096, "is_reserved": 0, "is_disabled": 0, "name": "962cd6b95641be031842635dab4c536e"}, {"rental_uris": {"android": "https://dc.lft.to/lastmile_qr_scan", "ios": "https://dc.lft.to/lastmile_qr_scan"}, "lat": 38.92418383333333, "fusion_lon": 0.0, "fusion_lat": 0.0, "type": "electric_scooter", "bike_id": "f00e0c0ebbe238d050b6c9739c3a4583", "lon": -77.019464, "is_reserved": 0, "is_disabled": 0, "name": "f00e0c0ebbe238d050b6c9739c3a4583"}, {"rental_uris": {"android": "https://dc.lft.to/lastmile_qr_scan", "ios": "https://dc.lft.to/lastmile_qr_scan"}, "lat": 38.90182, "fusion_lon": 0.0, "fusion_lat": 0.0, "type": "electric_scooter", "bike_id": "0b0acb9c7288c551386f5b8920dad586", "lon": -76.93466133333334, "is_reserved": 0, "is_disabled": 0, "name": "0b0acb9c7288c551386f5b8920dad586"}, {"rental_uris": {"android": "https://dc.lft.to/lastmile_qr_scan", "ios": "https://dc.lft.to/lastmile_qr_scan"}, "lat": 38.985322, "fusion_lon": 0.0, "fusion_lat": 0.0, "type": "electric_bike", "bike_id": "ff617ae1a94028ede749389699f06767", "lon": -77.00410266666667, "is_reserved": 0, "is_disabled": 0, "name": "ff617ae1a94028ede749389699f06767"}, {"rental_uris": {"android": "https://dc.lft.to/lastmile_qr_scan", "ios": "https://dc.lft.to/lastmile_qr_scan"}, "lat": 38.88658066666667, "fusion_lon": 0.0, "fusion_lat": 0.0, "type": "electric_bike", "bike_id": "4d4c64e991e6b65ecc1a7749eb471198", "lon": -76.99620633333333, "is_reserved": 0, "is_disabled": 0, "name": "4d4c64e991e6b65ecc1a7749eb471198"}, {"rental_uris": {"android": "https://dc.lft.to/lastmile_qr_scan", "ios": "https://dc.lft.to/lastmile_qr_scan"}, "lat": 38.900650166666665, "fusion_lon": 0.0, "fusion_lat": 0.0, "type": "electric_scooter", "bike_id": "94d066909e8027a483efba9405a470c4", "lon": -77.0485545, "is_reserved": 0, "is_disabled": 0, "name": "94d066909e8027a483efba9405a470c4"}, {"rental_uris": {"android": "https://dc.lft.to/lastmile_qr_scan", "ios": "https://dc.lft.to/lastmile_qr_scan"}, "lat": 38.921499, "fusion_lon": 0.0, "fusion_lat": 0.0, "type": "electric_scooter", "bike_id": "acadec2e70f3b41d480faa56cac39ca7", "lon": -77.02083316666666, "is_reserved": 0, "is_disabled": 0, "name": "acadec2e70f3b41d480faa56cac39ca7"}, {"rental_uris": {"android": "https://dc.lft.to/lastmile_qr_scan", "ios": "https://dc.lft.to/lastmile_qr_scan"}, "lat": 38.877728833333336, "fusion_lon": 0.0, "fusion_lat": 0.0, "type": "electric_scooter", "bike_id": "0241cd46a72fb4aedd947b5f16b72100", "lon": -76.99620533333334, "is_reserved": 0, "is_disabled": 0, "name": "0241cd46a72fb4aedd947b5f16b72100"}, {"rental_uris": {"android": "https://dc.lft.to/lastmile_qr_scan", "ios": "https://dc.lft.to/lastmile_qr_scan"}, "lat": 38.87376833333333, "fusion_lon": 0.0, "fusion_lat": 0.0, "type": "electric_scooter", "bike_id": "ac6c4102e923e24215302d956061f0cb", "lon": -77.001304, "is_reserved": 0, "is_disabled": 0, "name": "ac6c4102e923e24215302d956061f0cb"}, {"rental_uris": {"android": "https://dc.lft.to/lastmile_qr_scan", "ios": "https://dc.lft.to/lastmile_qr_scan"}, "lat": 38.905533166666665, "fusion_lon": 0.0, "fusion_lat": 0.0, "type": "electric_scooter", "bike_id": "edf6fd58576fc45a386524047a97b572", "lon": -77.0419015, "is_reserved": 0, "is_disabled": 0, "name": "edf6fd58576fc45a386524047a97b572"}, {"rental_uris": {"android": "https://dc.lft.to/lastmile_qr_scan", "ios": "https://dc.lft.to/lastmile_qr_scan"}, "lat": 38.918867166666665, "fusion_lon": 0.0, "fusion_lat": 0.0, "type": "electric_scooter", "bike_id": "42c2e492825ccc1c20f5f4c5648b93a0", "lon": -77.03831783333334, "is_reserved": 0, "is_disabled": 0, "name": "42c2e492825ccc1c20f5f4c5648b93a0"}, {"rental_uris": {"android": "https://dc.lft.to/lastmile_qr_scan", "ios": "https://dc.lft.to/lastmile_qr_scan"}, "lat": 38.91182416666667, "fusion_lon": 0.0, "fusion_lat": 0.0, "type": "electric_scooter", "bike_id": "3232b8d27e55d3e046b0a76ad994eca9", "lon": -77.0385325, "is_reserved": 0, "is_disabled": 0, "name": "3232b8d27e55d3e046b0a76ad994eca9"}, {"rental_uris": {"android": "https://dc.lft.to/lastmile_qr_scan", "ios": "https://dc.lft.to/lastmile_qr_scan"}, "lat": 38.913292166666665, "fusion_lon": 0.0, "fusion_lat": 0.0, "type": "electric_scooter", "bike_id": "6d77af037165f574a460e76ccedc9703", "lon": -77.01359866666667, "is_reserved": 0, "is_disabled": 0, "name": "6d77af037165f574a460e76ccedc9703"}, {"rental_uris": {"android": "https://dc.lft.to/lastmile_qr_scan", "ios": "https://dc.lft.to/lastmile_qr_scan"}, "lat": 38.9435145, "fusion_lon": 0.0, "fusion_lat": 0.0, "type": "electric_scooter", "bike_id": "ba5a6df3da99d06a2469b3a1aea14ffe", "lon": -77.02975833333333, "is_reserved": 0, "is_disabled": 0, "name": "ba5a6df3da99d06a2469b3a1aea14ffe"}, {"rental_uris": {"android": "https://dc.lft.to/lastmile_qr_scan", "ios": "https://dc.lft.to/lastmile_qr_scan"}, "lat": 38.90576516666667, "fusion_lon": 0.0, "fusion_lat": 0.0, "type": "electric_scooter", "bike_id": "adece9e145e20e07d554337730c6ef0c", "lon": -77.0418215, "is_reserved": 0, "is_disabled": 0, "name": "adece9e145e20e07d554337730c6ef0c"}, {"rental_uris": {"android": "https://dc.lft.to/lastmile_qr_scan", "ios": "https://dc.lft.to/lastmile_qr_scan"}, "lat": 38.92537166666666, "fusion_lon": 0.0, "fusion_lat": 0.0, "type": "electric_scooter", "bike_id": "4211ebfde711e8f966fa4b57ffc03b05", "lon": -77.04155133333333, "is_reserved": 0, "is_disabled": 0, "name": "4211ebfde711e8f966fa4b57ffc03b05"}, {"rental_uris": {"android": "https://dc.lft.to/lastmile_qr_scan", "ios": "https://dc.lft.to/lastmile_qr_scan"}, "lat": 38.87930083333333, "fusion_lon": 0.0, "fusion_lat": 0.0, "type": "electric_scooter", "bike_id": "379cebf2ee0e392e7b72198a85133366", "lon": -77.00528416666667, "is_reserved": 0, "is_disabled": 0, "name": "379cebf2ee0e392e7b72198a85133366"}, {"rental_uris": {"android": "https://dc.lft.to/lastmile_qr_scan", "ios": "https://dc.lft.to/lastmile_qr_scan"}, "lat": 38.897437833333335, "fusion_lon": 0.0, "fusion_lat": 0.0, "type": "electric_scooter", "bike_id": "7076cf58fc5c936fb0b3de6844baad82", "lon": -77.01895933333333, "is_reserved": 0, "is_disabled": 0, "name": "7076cf58fc5c936fb0b3de6844baad82"}, {"rental_uris": {"android": "https://dc.lft.to/lastmile_qr_scan", "ios": "https://dc.lft.to/lastmile_qr_scan"}, "lat": 38.836045166666665, "fusion_lon": 0.0, "fusion_lat": 0.0, "type": "electric_bike", "bike_id": "34bc526aa20bd9f761b0460a0d4eb430", "lon": -77.00372416666667, "is_reserved": 0, "is_disabled": 0, "name": "34bc526aa20bd9f761b0460a0d4eb430"}, {"rental_uris": {"android": "https://dc.lft.to/lastmile_qr_scan", "ios": "https://dc.lft.to/lastmile_qr_scan"}, "lat": 38.89743566666667, "fusion_lon": 0.0, "fusion_lat": 0.0, "type": "electric_scooter", "bike_id": "4003346548b15ef519ddd3a887a92c7e", "lon": -77.0268785, "is_reserved": 0, "is_disabled": 0, "name": "4003346548b15ef519ddd3a887a92c7e"}, {"rental_uris": {"android": "https://dc.lft.to/lastmile_qr_scan", "ios": "https://dc.lft.to/lastmile_qr_scan"}, "lat": 38.89594233333333, "fusion_lon": 0.0, "fusion_lat": 0.0, "type": "electric_scooter", "bike_id": "f1052d1dcafd0b22dcc78fdedb8de440", "lon": -77.04417516666666, "is_reserved": 0, "is_disabled": 0, "name": "f1052d1dcafd0b22dcc78fdedb8de440"}, {"rental_uris": {"android": "https://dc.lft.to/lastmile_qr_scan", "ios": "https://dc.lft.to/lastmile_qr_scan"}, "lat": 38.94736233333333, "fusion_lon": 0.0, "fusion_lat": 0.0, "type": "electric_scooter", "bike_id": "0648e6ba6415fe79db7350d9386053a1", "lon": -77.02364316666667, "is_reserved": 0, "is_disabled": 0, "name": "0648e6ba6415fe79db7350d9386053a1"}, {"rental_uris": {"android": "https://dc.lft.to/lastmile_qr_scan", "ios": "https://dc.lft.to/lastmile_qr_scan"}, "lat": 38.92191866666667, "fusion_lon": 0.0, "fusion_lat": 0.0, "type": "electric_scooter", "bike_id": "ed1a116ba142d6eab8216014751aff18", "lon": -77.04009033333334, "is_reserved": 0, "is_disabled": 0, "name": "ed1a116ba142d6eab8216014751aff18"}, {"rental_uris": {"android": "https://dc.lft.to/lastmile_qr_scan", "ios": "https://dc.lft.to/lastmile_qr_scan"}, "lat": 38.91690666666667, "fusion_lon": 0.0, "fusion_lat": 0.0, "type": "electric_scooter", "bike_id": "4206cf8159a547ead217161e6c5e115d", "lon": -77.0382275, "is_reserved": 0, "is_disabled": 0, "name": "4206cf8159a547ead217161e6c5e115d"}, {"rental_uris": {"android": "https://dc.lft.to/lastmile_qr_scan", "ios": "https://dc.lft.to/lastmile_qr_scan"}, "lat": 38.9119815, "fusion_lon": 0.0, "fusion_lat": 0.0, "type": "electric_scooter", "bike_id": "b9c2a0157b59bf70cb69aa09856bc4ea", "lon": -77.07303, "is_reserved": 0, "is_disabled": 0, "name": "b9c2a0157b59bf70cb69aa09856bc4ea"}, {"rental_uris": {"android": "https://dc.lft.to/lastmile_qr_scan", "ios": "https://dc.lft.to/lastmile_qr_scan"}, "lat": 38.903630166666666, "fusion_lon": 0.0, "fusion_lat": 0.0, "type": "electric_scooter", "bike_id": "69297ed30fbcce9955c738153bd68ea3", "lon": -77.03177516666666, "is_reserved": 0, "is_disabled": 0, "name": "69297ed30fbcce9955c738153bd68ea3"}, {"rental_uris": {"android": "https://dc.lft.to/lastmile_qr_scan", "ios": "https://dc.lft.to/lastmile_qr_scan"}, "lat": 38.90949583333333, "fusion_lon": 0.0, "fusion_lat": 0.0, "type": "electric_scooter", "bike_id": "69514862a5e94864ae8e27ea2fd276cb", "lon": -77.00891816666666, "is_reserved": 0, "is_disabled": 0, "name": "69514862a5e94864ae8e27ea2fd276cb"}, {"rental_uris": {"android": "https://dc.lft.to/lastmile_qr_scan", "ios": "https://dc.lft.to/lastmile_qr_scan"}, "lat": 38.96648616666667, "fusion_lon": 0.0, "fusion_lat": 0.0, "type": "electric_scooter", "bike_id": "4dd963e7443bc9ab93e285c6988fbc6b", "lon": -77.0274545, "is_reserved": 0, "is_disabled": 0, "name": "4dd963e7443bc9ab93e285c6988fbc6b"}, {"rental_uris": {"android": "https://dc.lft.to/lastmile_qr_scan", "ios": "https://dc.lft.to/lastmile_qr_scan"}, "lat": 38.86517216666667, "fusion_lon": 0.0, "fusion_lat": 0.0, "type": "electric_scooter", "bike_id": "7339dc45470f8be222854bf9edf52589", "lon": -76.99018933333333, "is_reserved": 0, "is_disabled": 0, "name": "7339dc45470f8be222854bf9edf52589"}, {"rental_uris": {"android": "https://dc.lft.to/lastmile_qr_scan", "ios": "https://dc.lft.to/lastmile_qr_scan"}, "lat": 38.9174155, "fusion_lon": 0.0, "fusion_lat": 0.0, "type": "electric_scooter", "bike_id": "a3b435c51568017507861b95f549457f", "lon": -77.01702333333333, "is_reserved": 0, "is_disabled": 0, "name": "a3b435c51568017507861b95f549457f"}, {"rental_uris": {"android": "https://dc.lft.to/lastmile_qr_scan", "ios": "https://dc.lft.to/lastmile_qr_scan"}, "lat": 38.90062566666667, "fusion_lon": 0.0, "fusion_lat": 0.0, "type": "electric_scooter", "bike_id": "8fb6bc7ba1f794f1b7da0d2f6b1f842c", "lon": -77.04177666666666, "is_reserved": 0, "is_disabled": 0, "name": "8fb6bc7ba1f794f1b7da0d2f6b1f842c"}, {"rental_uris": {"android": "https://dc.lft.to/lastmile_qr_scan", "ios": "https://dc.lft.to/lastmile_qr_scan"}, "lat": 38.99225933333334, "fusion_lon": 0.0, "fusion_lat": 0.0, "type": "electric_bike", "bike_id": "83c8491f90c7bdfb140e9e9470c0c7cb", "lon": -77.03581566666666, "is_reserved": 0, "is_disabled": 0, "name": "83c8491f90c7bdfb140e9e9470c0c7cb"}, {"rental_uris": {"android": "https://dc.lft.to/lastmile_qr_scan", "ios": "https://dc.lft.to/lastmile_qr_scan"}, "lat": 38.9103135, "fusion_lon": 0.0, "fusion_lat": 0.0, "type": "electric_scooter", "bike_id": "b8099b053b6fe26d8f904ed77b67023f", "lon": -77.01374616666666, "is_reserved": 0, "is_disabled": 0, "name": "b8099b053b6fe26d8f904ed77b67023f"}, {"rental_uris": {"android": "https://dc.lft.to/lastmile_qr_scan", "ios": "https://dc.lft.to/lastmile_qr_scan"}, "lat": 38.89714716666667, "fusion_lon": 0.0, "fusion_lat": 0.0, "type": "electric_scooter", "bike_id": "2e0536e79e0024e7adc7e67a74dc8dc9", "lon": -77.00804333333333, "is_reserved": 0, "is_disabled": 0, "name": "2e0536e79e0024e7adc7e67a74dc8dc9"}, {"rental_uris": {"android": "https://dc.lft.to/lastmile_qr_scan", "ios": "https://dc.lft.to/lastmile_qr_scan"}, "lat": 38.90044616666667, "fusion_lon": 0.0, "fusion_lat": 0.0, "type": "electric_scooter", "bike_id": "136defec1d64d2e61b36af2867eb8135", "lon": -77.04467166666667, "is_reserved": 0, "is_disabled": 0, "name": "136defec1d64d2e61b36af2867eb8135"}, {"rental_uris": {"android": "https://dc.lft.to/lastmile_qr_scan", "ios": "https://dc.lft.to/lastmile_qr_scan"}, "lat": 38.9342505, "fusion_lon": 0.0, "fusion_lat": 0.0, "type": "electric_scooter", "bike_id": "7f465a34769e6e57b64a34e8ebe7d6ad", "lon": -77.04002433333333, "is_reserved": 0, "is_disabled": 0, "name": "7f465a34769e6e57b64a34e8ebe7d6ad"}, {"rental_uris": {"android": "https://dc.lft.to/lastmile_qr_scan", "ios": "https://dc.lft.to/lastmile_qr_scan"}, "lat": 38.87635183333333, "fusion_lon": 0.0, "fusion_lat": 0.0, "type": "electric_scooter", "bike_id": "7c803f45daf5589d9080159291bbd928", "lon": -77.0054825, "is_reserved": 0, "is_disabled": 0, "name": "7c803f45daf5589d9080159291bbd928"}, {"rental_uris": {"android": "https://dc.lft.to/lastmile_qr_scan", "ios": "https://dc.lft.to/lastmile_qr_scan"}, "lat": 38.926838833333335, "fusion_lon": 0.0, "fusion_lat": 0.0, "type": "electric_scooter", "bike_id": "988d548cad274f20b1f0b97aa79750e5", "lon": -77.03242616666667, "is_reserved": 0, "is_disabled": 0, "name": "988d548cad274f20b1f0b97aa79750e5"}, {"rental_uris": {"android": "https://dc.lft.to/lastmile_qr_scan", "ios": "https://dc.lft.to/lastmile_qr_scan"}, "lat": 38.95878233333333, "fusion_lon": 0.0, "fusion_lat": 0.0, "type": "electric_bike", "bike_id": "b6f997523109194cadcfc55706045aea", "lon": -77.01031983333333, "is_reserved": 0, "is_disabled": 0, "name": "b6f997523109194cadcfc55706045aea"}, {"rental_uris": {"android": "https://dc.lft.to/lastmile_qr_scan", "ios": "https://dc.lft.to/lastmile_qr_scan"}, "lat": 38.8983105, "fusion_lon": 0.0, "fusion_lat": 0.0, "type": "electric_scooter", "bike_id": "58cd281aa6e85a1b3c1a5f3c85b56ddb", "lon": -77.02699433333333, "is_reserved": 0, "is_disabled": 0, "name": "58cd281aa6e85a1b3c1a5f3c85b56ddb"}, {"rental_uris": {"android": "https://dc.lft.to/lastmile_qr_scan", "ios": "https://dc.lft.to/lastmile_qr_scan"}, "lat": 38.944923833333334, "fusion_lon": 0.0, "fusion_lat": 0.0, "type": "electric_scooter", "bike_id": "32042a1ea0ae136bca9ac0c469feeefb", "lon": -77.02846216666667, "is_reserved": 0, "is_disabled": 0, "name": "32042a1ea0ae136bca9ac0c469feeefb"}, {"rental_uris": {"android": "https://dc.lft.to/lastmile_qr_scan", "ios": "https://dc.lft.to/lastmile_qr_scan"}, "lat": 38.8982155, "fusion_lon": 0.0, "fusion_lat": 0.0, "type": "electric_scooter", "bike_id": "d41313766c498a9070d64c4fd20c51e6", "lon": -77.040135, "is_reserved": 0, "is_disabled": 0, "name": "d41313766c498a9070d64c4fd20c51e6"}, {"rental_uris": {"android": "https://dc.lft.to/lastmile_qr_scan", "ios": "https://dc.lft.to/lastmile_qr_scan"}, "lat": 38.907169333333336, "fusion_lon": 0.0, "fusion_lat": 0.0, "type": "electric_scooter", "bike_id": "d2998eb5a1956c3c4d534b103eea1a04", "lon": -77.04051566666666, "is_reserved": 0, "is_disabled": 0, "name": "d2998eb5a1956c3c4d534b103eea1a04"}, {"rental_uris": {"android": "https://dc.lft.to/lastmile_qr_scan", "ios": "https://dc.lft.to/lastmile_qr_scan"}, "lat": 38.92072833333334, "fusion_lon": 0.0, "fusion_lat": 0.0, "type": "electric_scooter", "bike_id": "5f370c1160ea491f984e608d760a3e64", "lon": -77.02404366666667, "is_reserved": 0, "is_disabled": 0, "name": "5f370c1160ea491f984e608d760a3e64"}, {"rental_uris": {"android": "https://dc.lft.to/lastmile_qr_scan", "ios": "https://dc.lft.to/lastmile_qr_scan"}, "lat": 38.939545833333334, "fusion_lon": 0.0, "fusion_lat": 0.0, "type": "electric_scooter", "bike_id": "811fece79943308c865f3e430d9ca165", "lon": -77.07241566666667, "is_reserved": 0, "is_disabled": 0, "name": "811fece79943308c865f3e430d9ca165"}, {"rental_uris": {"android": "https://dc.lft.to/lastmile_qr_scan", "ios": "https://dc.lft.to/lastmile_qr_scan"}, "lat": 38.89556783333333, "fusion_lon": 0.0, "fusion_lat": 0.0, "type": "electric_scooter", "bike_id": "9cbb668dd2f4956973038256a7528cf3", "lon": -77.00916466666666, "is_reserved": 0, "is_disabled": 0, "name": "9cbb668dd2f4956973038256a7528cf3"}, {"rental_uris": {"android": "https://dc.lft.to/lastmile_qr_scan", "ios": "https://dc.lft.to/lastmile_qr_scan"}, "lat": 38.9457075, "fusion_lon": 0.0, "fusion_lat": 0.0, "type": "electric_bike", "bike_id": "228845455d6c79b4345cb360376cd103", "lon": -76.98111183333333, "is_reserved": 0, "is_disabled": 0, "name": "228845455d6c79b4345cb360376cd103"}, {"rental_uris": {"android": "https://dc.lft.to/lastmile_qr_scan", "ios": "https://dc.lft.to/lastmile_qr_scan"}, "lat": 38.890169, "fusion_lon": 0.0, "fusion_lat": 0.0, "type": "electric_scooter", "bike_id": "fe7dd3ee22fd5b35edbb4a724028a297", "lon": -76.93733166666667, "is_reserved": 0, "is_disabled": 0, "name": "fe7dd3ee22fd5b35edbb4a724028a297"}, {"rental_uris": {"android": "https://dc.lft.to/lastmile_qr_scan", "ios": "https://dc.lft.to/lastmile_qr_scan"}, "lat": 38.90606066666667, "fusion_lon": 0.0, "fusion_lat": 0.0, "type": "electric_scooter", "bike_id": "c2979c6d16f9a87eb2a54c70bfaff08a", "lon": -77.06379566666666, "is_reserved": 0, "is_disabled": 0, "name": "c2979c6d16f9a87eb2a54c70bfaff08a"}, {"rental_uris": {"android": "https://dc.lft.to/lastmile_qr_scan", "ios": "https://dc.lft.to/lastmile_qr_scan"}, "lat": 38.90030616666667, "fusion_lon": 0.0, "fusion_lat": 0.0, "type": "electric_bike", "bike_id": "4f60cd356bb4418c1ed1c8c1f0127216", "lon": -76.972213, "is_reserved": 0, "is_disabled": 0, "name": "4f60cd356bb4418c1ed1c8c1f0127216"}, {"rental_uris": {"android": "https://dc.lft.to/lastmile_qr_scan", "ios": "https://dc.lft.to/lastmile_qr_scan"}, "lat": 38.926117833333336, "fusion_lon": 0.0, "fusion_lat": 0.0, "type": "electric_scooter", "bike_id": "66d3d73ea380889ff3052f5bad39ee8b", "lon": -77.02159633333333, "is_reserved": 0, "is_disabled": 0, "name": "66d3d73ea380889ff3052f5bad39ee8b"}, {"rental_uris": {"android": "https://dc.lft.to/lastmile_qr_scan", "ios": "https://dc.lft.to/lastmile_qr_scan"}, "lat": 38.9627375, "fusion_lon": 0.0, "fusion_lat": 0.0, "type": "electric_scooter", "bike_id": "73e05b44f31a8ee3960232cc67835f4b", "lon": -77.030256, "is_reserved": 0, "is_disabled": 0, "name": "73e05b44f31a8ee3960232cc67835f4b"}, {"rental_uris": {"android": "https://dc.lft.to/lastmile_qr_scan", "ios": "https://dc.lft.to/lastmile_qr_scan"}, "lat": 38.91909616666667, "fusion_lon": 0.0, "fusion_lat": 0.0, "type": "electric_scooter", "bike_id": "e8653d542ac038099c847fa135f193f3", "lon": -77.02076316666667, "is_reserved": 0, "is_disabled": 0, "name": "e8653d542ac038099c847fa135f193f3"}, {"rental_uris": {"android": "https://dc.lft.to/lastmile_qr_scan", "ios": "https://dc.lft.to/lastmile_qr_scan"}, "lat": 38.90825533333334, "fusion_lon": 0.0, "fusion_lat": 0.0, "type": "electric_scooter", "bike_id": "edf2732ea1d6d8f4a851d2cb1f0238f6", "lon": -76.99454083333333, "is_reserved": 0, "is_disabled": 0, "name": "edf2732ea1d6d8f4a851d2cb1f0238f6"}, {"rental_uris": {"android": "https://dc.lft.to/lastmile_qr_scan", "ios": "https://dc.lft.to/lastmile_qr_scan"}, "lat": 38.902419, "fusion_lon": 0.0, "fusion_lat": 0.0, "type": "electric_scooter", "bike_id": "244195329d9ccec857eb343acfaddb42", "lon": -77.0399815, "is_reserved": 0, "is_disabled": 0, "name": "244195329d9ccec857eb343acfaddb42"}, {"rental_uris": {"android": "https://dc.lft.to/lastmile_qr_scan", "ios": "https://dc.lft.to/lastmile_qr_scan"}, "lat": 38.90947966666667, "fusion_lon": 0.0, "fusion_lat": 0.0, "type": "electric_scooter", "bike_id": "e22402cea7fb5176eb5ce0cb8ff0e90c", "lon": -77.04418, "is_reserved": 0, "is_disabled": 0, "name": "e22402cea7fb5176eb5ce0cb8ff0e90c"}, {"rental_uris": {"android": "https://dc.lft.to/lastmile_qr_scan", "ios": "https://dc.lft.to/lastmile_qr_scan"}, "lat": 38.90627116666667, "fusion_lon": 0.0, "fusion_lat": 0.0, "type": "electric_scooter", "bike_id": "355ce7499855650d6f68b2836e5bfb20", "lon": -77.00610283333333, "is_reserved": 0, "is_disabled": 0, "name": "355ce7499855650d6f68b2836e5bfb20"}, {"rental_uris": {"android": "https://dc.lft.to/lastmile_qr_scan", "ios": "https://dc.lft.to/lastmile_qr_scan"}, "lat": 38.915319, "fusion_lon": 0.0, "fusion_lat": 0.0, "type": "electric_scooter", "bike_id": "29573207e5615bf5b4fdecf4e8558800", "lon": -77.04471, "is_reserved": 0, "is_disabled": 0, "name": "29573207e5615bf5b4fdecf4e8558800"}, {"rental_uris": {"android": "https://dc.lft.to/lastmile_qr_scan", "ios": "https://dc.lft.to/lastmile_qr_scan"}, "lat": 38.91925083333334, "fusion_lon": 0.0, "fusion_lat": 0.0, "type": "electric_scooter", "bike_id": "1d8735480e7684f86aa226ecbf358653", "lon": -77.034109, "is_reserved": 0, "is_disabled": 0, "name": "1d8735480e7684f86aa226ecbf358653"}, {"rental_uris": {"android": "https://dc.lft.to/lastmile_qr_scan", "ios": "https://dc.lft.to/lastmile_qr_scan"}, "lat": 38.90496066666667, "fusion_lon": 0.0, "fusion_lat": 0.0, "type": "electric_scooter", "bike_id": "b6d82b074ad81a24951ce406c6ca89d6", "lon": -76.98706716666666, "is_reserved": 0, "is_disabled": 0, "name": "b6d82b074ad81a24951ce406c6ca89d6"}, {"rental_uris": {"android": "https://dc.lft.to/lastmile_qr_scan", "ios": "https://dc.lft.to/lastmile_qr_scan"}, "lat": 38.91636966666667, "fusion_lon": 0.0, "fusion_lat": 0.0, "type": "electric_scooter", "bike_id": "08fd419c59f7ba426cf6b02b7ee3c114", "lon": -77.02882683333333, "is_reserved": 0, "is_disabled": 0, "name": "08fd419c59f7ba426cf6b02b7ee3c114"}, {"rental_uris": {"android": "https://dc.lft.to/lastmile_qr_scan", "ios": "https://dc.lft.to/lastmile_qr_scan"}, "lat": 38.92334833333334, "fusion_lon": 0.0, "fusion_lat": 0.0, "type": "electric_scooter", "bike_id": "8d7ed201105b297a13a432fa3bab0d96", "lon": -77.04187283333333, "is_reserved": 0, "is_disabled": 0, "name": "8d7ed201105b297a13a432fa3bab0d96"}, {"rental_uris": {"android": "https://dc.lft.to/lastmile_qr_scan", "ios": "https://dc.lft.to/lastmile_qr_scan"}, "lat": 38.920352666666666, "fusion_lon": 0.0, "fusion_lat": 0.0, "type": "electric_scooter", "bike_id": "4df3ef56d873513685bd12ca3b25aa33", "lon": -77.02587083333333, "is_reserved": 0, "is_disabled": 0, "name": "4df3ef56d873513685bd12ca3b25aa33"}, {"rental_uris": {"android": "https://dc.lft.to/lastmile_qr_scan", "ios": "https://dc.lft.to/lastmile_qr_scan"}, "lat": 38.89883866666667, "fusion_lon": 0.0, "fusion_lat": 0.0, "type": "electric_scooter", "bike_id": "961de19b9a07ea9e8c67e89ac20def0b", "lon": -77.027914, "is_reserved": 0, "is_disabled": 0, "name": "961de19b9a07ea9e8c67e89ac20def0b"}, {"rental_uris": {"android": "https://dc.lft.to/lastmile_qr_scan", "ios": "https://dc.lft.to/lastmile_qr_scan"}, "lat": 38.898500166666665, "fusion_lon": 0.0, "fusion_lat": 0.0, "type": "electric_scooter", "bike_id": "1290a6b5108e5fc270b4738a703436e1", "lon": -77.02855333333333, "is_reserved": 0, "is_disabled": 0, "name": "1290a6b5108e5fc270b4738a703436e1"}, {"rental_uris": {"android": "https://dc.lft.to/lastmile_qr_scan", "ios": "https://dc.lft.to/lastmile_qr_scan"}, "lat": 38.920324666666666, "fusion_lon": 0.0, "fusion_lat": 0.0, "type": "electric_scooter", "bike_id": "1d6b730a39d176fbb99f65d24d2132a1", "lon": -76.978023, "is_reserved": 0, "is_disabled": 0, "name": "1d6b730a39d176fbb99f65d24d2132a1"}, {"rental_uris": {"android": "https://dc.lft.to/lastmile_qr_scan", "ios": "https://dc.lft.to/lastmile_qr_scan"}, "lat": 38.921946, "fusion_lon": 0.0, "fusion_lat": 0.0, "type": "electric_scooter", "bike_id": "21d890b62449afd5275c8fe5de29cd24", "lon": -76.996754, "is_reserved": 0, "is_disabled": 0, "name": "21d890b62449afd5275c8fe5de29cd24"}, {"rental_uris": {"android": "https://dc.lft.to/lastmile_qr_scan", "ios": "https://dc.lft.to/lastmile_qr_scan"}, "lat": 38.90987033333333, "fusion_lon": 0.0, "fusion_lat": 0.0, "type": "electric_scooter", "bike_id": "a88835239114ec38a21d8461777d0061", "lon": -77.008899, "is_reserved": 0, "is_disabled": 0, "name": "a88835239114ec38a21d8461777d0061"}, {"rental_uris": {"android": "https://dc.lft.to/lastmile_qr_scan", "ios": "https://dc.lft.to/lastmile_qr_scan"}, "lat": 38.92332583333334, "fusion_lon": 0.0, "fusion_lat": 0.0, "type": "electric_scooter", "bike_id": "987eac5a50bf5131fd32931e5fe48f05", "lon": -77.03621233333334, "is_reserved": 0, "is_disabled": 0, "name": "987eac5a50bf5131fd32931e5fe48f05"}, {"rental_uris": {"android": "https://dc.lft.to/lastmile_qr_scan", "ios": "https://dc.lft.to/lastmile_qr_scan"}, "lat": 38.897401333333335, "fusion_lon": 0.0, "fusion_lat": 0.0, "type": "electric_scooter", "bike_id": "32c1bb5cff219b631b305a5fe2ba7d0f", "lon": -77.02572183333334, "is_reserved": 0, "is_disabled": 0, "name": "32c1bb5cff219b631b305a5fe2ba7d0f"}, {"rental_uris": {"android": "https://dc.lft.to/lastmile_qr_scan", "ios": "https://dc.lft.to/lastmile_qr_scan"}, "lat": 38.88601716666667, "fusion_lon": 0.0, "fusion_lat": 0.0, "type": "electric_scooter", "bike_id": "0430519060de5a4e8299cd80c8b83c11", "lon": -76.9249955, "is_reserved": 0, "is_disabled": 0, "name": "0430519060de5a4e8299cd80c8b83c11"}, {"rental_uris": {"android": "https://dc.lft.to/lastmile_qr_scan", "ios": "https://dc.lft.to/lastmile_qr_scan"}, "lat": 38.91188183333333, "fusion_lon": 0.0, "fusion_lat": 0.0, "type": "electric_scooter", "bike_id": "5b26d14766805efee8d831db3960c691", "lon": -77.04535283333334, "is_reserved": 0, "is_disabled": 0, "name": "5b26d14766805efee8d831db3960c691"}, {"rental_uris": {"android": "https://dc.lft.to/lastmile_qr_scan", "ios": "https://dc.lft.to/lastmile_qr_scan"}, "lat": 38.90025266666667, "fusion_lon": 0.0, "fusion_lat": 0.0, "type": "electric_scooter", "bike_id": "b030eedef944e6fa882c5df2ade0aa21", "lon": -76.988593, "is_reserved": 0, "is_disabled": 0, "name": "b030eedef944e6fa882c5df2ade0aa21"}, {"rental_uris": {"android": "https://dc.lft.to/lastmile_qr_scan", "ios": "https://dc.lft.to/lastmile_qr_scan"}, "lat": 38.90951033333333, "fusion_lon": 0.0, "fusion_lat": 0.0, "type": "electric_scooter", "bike_id": "4374632ecba9c417fc0c9ca9c75b6204", "lon": -77.0127515, "is_reserved": 0, "is_disabled": 0, "name": "4374632ecba9c417fc0c9ca9c75b6204"}, {"rental_uris": {"android": "https://dc.lft.to/lastmile_qr_scan", "ios": "https://dc.lft.to/lastmile_qr_scan"}, "lat": 38.893092, "fusion_lon": 0.0, "fusion_lat": 0.0, "type": "electric_scooter", "bike_id": "682491aec119ef4115b9c9a6df0cfb27", "lon": -77.04288933333333, "is_reserved": 0, "is_disabled": 0, "name": "682491aec119ef4115b9c9a6df0cfb27"}, {"rental_uris": {"android": "https://dc.lft.to/lastmile_qr_scan", "ios": "https://dc.lft.to/lastmile_qr_scan"}, "lat": 38.93056516666667, "fusion_lon": 0.0, "fusion_lat": 0.0, "type": "electric_scooter", "bike_id": "4bb9dc1c0a6c26b577b894c62a300306", "lon": -77.0187295, "is_reserved": 0, "is_disabled": 0, "name": "4bb9dc1c0a6c26b577b894c62a300306"}, {"rental_uris": {"android": "https://dc.lft.to/lastmile_qr_scan", "ios": "https://dc.lft.to/lastmile_qr_scan"}, "lat": 38.863726, "fusion_lon": 0.0, "fusion_lat": 0.0, "type": "electric_scooter", "bike_id": "9c87ebb5c038d9abcc4f556116bf1cad", "lon": -76.99058933333333, "is_reserved": 0, "is_disabled": 0, "name": "9c87ebb5c038d9abcc4f556116bf1cad"}, {"rental_uris": {"android": "https://dc.lft.to/lastmile_qr_scan", "ios": "https://dc.lft.to/lastmile_qr_scan"}, "lat": 38.9203555, "fusion_lon": 0.0, "fusion_lat": 0.0, "type": "electric_scooter", "bike_id": "d9c2deefbe885a33ba6d21b211acbc17", "lon": -77.02427116666667, "is_reserved": 0, "is_disabled": 0, "name": "d9c2deefbe885a33ba6d21b211acbc17"}, {"rental_uris": {"android": "https://dc.lft.to/lastmile_qr_scan", "ios": "https://dc.lft.to/lastmile_qr_scan"}, "lat": 38.90814833333334, "fusion_lon": 0.0, "fusion_lat": 0.0, "type": "electric_scooter", "bike_id": "9c281dea0d9953116783682214032ff6", "lon": -77.03451233333334, "is_reserved": 0, "is_disabled": 0, "name": "9c281dea0d9953116783682214032ff6"}, {"rental_uris": {"android": "https://dc.lft.to/lastmile_qr_scan", "ios": "https://dc.lft.to/lastmile_qr_scan"}, "lat": 38.92058866666667, "fusion_lon": 0.0, "fusion_lat": 0.0, "type": "electric_scooter", "bike_id": "5e6afb63512f6877c822e973ccfafec7", "lon": -77.02348983333333, "is_reserved": 0, "is_disabled": 0, "name": "5e6afb63512f6877c822e973ccfafec7"}, {"rental_uris": {"android": "https://dc.lft.to/lastmile_qr_scan", "ios": "https://dc.lft.to/lastmile_qr_scan"}, "lat": 38.876298, "fusion_lon": 0.0, "fusion_lat": 0.0, "type": "electric_scooter", "bike_id": "77d285db08ed64a7225a64669eb3ce0f", "lon": -77.0038445, "is_reserved": 0, "is_disabled": 0, "name": "77d285db08ed64a7225a64669eb3ce0f"}, {"rental_uris": {"android": "https://dc.lft.to/lastmile_qr_scan", "ios": "https://dc.lft.to/lastmile_qr_scan"}, "lat": 38.89607783333334, "fusion_lon": 0.0, "fusion_lat": 0.0, "type": "electric_scooter", "bike_id": "02893d94995205cdd430b642664cb625", "lon": -77.0446215, "is_reserved": 0, "is_disabled": 0, "name": "02893d94995205cdd430b642664cb625"}, {"rental_uris": {"android": "https://dc.lft.to/lastmile_qr_scan", "ios": "https://dc.lft.to/lastmile_qr_scan"}, "lat": 39.002966666666666, "fusion_lon": 0.0, "fusion_lat": 0.0, "type": "electric_bike", "bike_id": "8e35708fc03de7f331b7a1122f7abbd7", "lon": -76.9030265, "is_reserved": 0, "is_disabled": 0, "name": "8e35708fc03de7f331b7a1122f7abbd7"}, {"rental_uris": {"android": "https://dc.lft.to/lastmile_qr_scan", "ios": "https://dc.lft.to/lastmile_qr_scan"}, "lat": 38.88117, "fusion_lon": 0.0, "fusion_lat": 0.0, "type": "electric_scooter", "bike_id": "8c76d39b9b66e4fba4970856c9c0422c", "lon": -76.99344933333333, "is_reserved": 0, "is_disabled": 0, "name": "8c76d39b9b66e4fba4970856c9c0422c"}, {"rental_uris": {"android": "https://dc.lft.to/lastmile_qr_scan", "ios": "https://dc.lft.to/lastmile_qr_scan"}, "lat": 38.907879333333334, "fusion_lon": 0.0, "fusion_lat": 0.0, "type": "electric_scooter", "bike_id": "f19293b45ea16a1b1153c297a9d7fe9b", "lon": -77.0319725, "is_reserved": 0, "is_disabled": 0, "name": "f19293b45ea16a1b1153c297a9d7fe9b"}, {"rental_uris": {"android": "https://dc.lft.to/lastmile_qr_scan", "ios": "https://dc.lft.to/lastmile_qr_scan"}, "lat": 38.92642133333333, "fusion_lon": 0.0, "fusion_lat": 0.0, "type": "electric_scooter", "bike_id": "be1c2e29e1ce7416ec2e9c7bcf7e6371", "lon": -77.021599, "is_reserved": 0, "is_disabled": 0, "name": "be1c2e29e1ce7416ec2e9c7bcf7e6371"}, {"rental_uris": {"android": "https://dc.lft.to/lastmile_qr_scan", "ios": "https://dc.lft.to/lastmile_qr_scan"}, "lat": 38.88854933333333, "fusion_lon": 0.0, "fusion_lat": 0.0, "type": "electric_scooter", "bike_id": "1636d10e939999b061526a5a00ee1d48", "lon": -76.93711266666666, "is_reserved": 0, "is_disabled": 0, "name": "1636d10e939999b061526a5a00ee1d48"}, {"rental_uris": {"android": "https://dc.lft.to/lastmile_qr_scan", "ios": "https://dc.lft.to/lastmile_qr_scan"}, "lat": 38.897802666666664, "fusion_lon": 0.0, "fusion_lat": 0.0, "type": "electric_scooter", "bike_id": "f781053491ba419af471d7bf970ee9f1", "lon": -77.02711933333333, "is_reserved": 0, "is_disabled": 0, "name": "f781053491ba419af471d7bf970ee9f1"}, {"rental_uris": {"android": "https://dc.lft.to/lastmile_qr_scan", "ios": "https://dc.lft.to/lastmile_qr_scan"}, "lat": 38.903976, "fusion_lon": 0.0, "fusion_lat": 0.0, "type": "electric_scooter", "bike_id": "086abcf9335b55654335bce258f89eae", "lon": -77.06767733333334, "is_reserved": 0, "is_disabled": 0, "name": "086abcf9335b55654335bce258f89eae"}, {"rental_uris": {"android": "https://dc.lft.to/lastmile_qr_scan", "ios": "https://dc.lft.to/lastmile_qr_scan"}, "lat": 38.905015166666665, "fusion_lon": 0.0, "fusion_lat": 0.0, "type": "electric_scooter", "bike_id": "87818abc43296aa4ef33d20a61078bf8", "lon": -77.029451, "is_reserved": 0, "is_disabled": 0, "name": "87818abc43296aa4ef33d20a61078bf8"}, {"rental_uris": {"android": "https://dc.lft.to/lastmile_qr_scan", "ios": "https://dc.lft.to/lastmile_qr_scan"}, "lat": 38.89163816666667, "fusion_lon": 0.0, "fusion_lat": 0.0, "type": "electric_scooter", "bike_id": "5e5efb429ad9ccbe5f1dc7a38585b2b3", "lon": -77.01502066666667, "is_reserved": 0, "is_disabled": 0, "name": "5e5efb429ad9ccbe5f1dc7a38585b2b3"}, {"rental_uris": {"android": "https://dc.lft.to/lastmile_qr_scan", "ios": "https://dc.lft.to/lastmile_qr_scan"}, "lat": 38.8925475, "fusion_lon": 0.0, "fusion_lat": 0.0, "type": "electric_scooter", "bike_id": "d480c4e73afa691ca120fe4fdbd8fcff", "lon": -77.04653966666666, "is_reserved": 0, "is_disabled": 0, "name": "d480c4e73afa691ca120fe4fdbd8fcff"}, {"rental_uris": {"android": "https://dc.lft.to/lastmile_qr_scan", "ios": "https://dc.lft.to/lastmile_qr_scan"}, "lat": 38.8941205, "fusion_lon": 0.0, "fusion_lat": 0.0, "type": "electric_scooter", "bike_id": "a891964bd749ccbff3f60ac9bf15deba", "lon": -77.02172616666667, "is_reserved": 0, "is_disabled": 0, "name": "a891964bd749ccbff3f60ac9bf15deba"}, {"rental_uris": {"android": "https://dc.lft.to/lastmile_qr_scan", "ios": "https://dc.lft.to/lastmile_qr_scan"}, "lat": 38.8655715, "fusion_lon": 0.0, "fusion_lat": 0.0, "type": "electric_bike", "bike_id": "dc30cdea7a3e9b5f79203987ea165e81", "lon": -76.97353483333333, "is_reserved": 0, "is_disabled": 0, "name": "dc30cdea7a3e9b5f79203987ea165e81"}, {"rental_uris": {"android": "https://dc.lft.to/lastmile_qr_scan", "ios": "https://dc.lft.to/lastmile_qr_scan"}, "lat": 38.900308333333335, "fusion_lon": 0.0, "fusion_lat": 0.0, "type": "electric_scooter", "bike_id": "30a33b71d0ce40d77791d8398dcdf67c", "lon": -76.9885985, "is_reserved": 0, "is_disabled": 0, "name": "30a33b71d0ce40d77791d8398dcdf67c"}, {"rental_uris": {"android": "https://dc.lft.to/lastmile_qr_scan", "ios": "https://dc.lft.to/lastmile_qr_scan"}, "lat": 38.924048166666665, "fusion_lon": 0.0, "fusion_lat": 0.0, "type": "electric_scooter", "bike_id": "af733c60a4e66e2c1a3bfc9b87707c07", "lon": -77.02742966666666, "is_reserved": 0, "is_disabled": 0, "name": "af733c60a4e66e2c1a3bfc9b87707c07"}, {"rental_uris": {"android": "https://dc.lft.to/lastmile_qr_scan", "ios": "https://dc.lft.to/lastmile_qr_scan"}, "lat": 38.885948, "fusion_lon": 0.0, "fusion_lat": 0.0, "type": "electric_scooter", "bike_id": "d772e2e1370c6add70d9965cb97f270a", "lon": -77.01178516666667, "is_reserved": 0, "is_disabled": 0, "name": "d772e2e1370c6add70d9965cb97f270a"}, {"rental_uris": {"android": "https://dc.lft.to/lastmile_qr_scan", "ios": "https://dc.lft.to/lastmile_qr_scan"}, "lat": 38.92450133333333, "fusion_lon": 0.0, "fusion_lat": 0.0, "type": "electric_scooter", "bike_id": "0cdf6268845d6a81dfbb4a23d9d64b10", "lon": -77.02031716666667, "is_reserved": 0, "is_disabled": 0, "name": "0cdf6268845d6a81dfbb4a23d9d64b10"}, {"rental_uris": {"android": "https://dc.lft.to/lastmile_qr_scan", "ios": "https://dc.lft.to/lastmile_qr_scan"}, "lat": 38.892251333333334, "fusion_lon": 0.0, "fusion_lat": 0.0, "type": "electric_scooter", "bike_id": "c65d02c9cfcb3a69f1ca2e44864c4e0f", "lon": -77.03222566666666, "is_reserved": 0, "is_disabled": 0, "name": "c65d02c9cfcb3a69f1ca2e44864c4e0f"}, {"rental_uris": {"android": "https://dc.lft.to/lastmile_qr_scan", "ios": "https://dc.lft.to/lastmile_qr_scan"}, "lat": 38.928729833333335, "fusion_lon": 0.0, "fusion_lat": 0.0, "type": "electric_scooter", "bike_id": "c2c675abef2769371ef4cc6b10f94537", "lon": -77.01361366666667, "is_reserved": 0, "is_disabled": 0, "name": "c2c675abef2769371ef4cc6b10f94537"}, {"rental_uris": {"android": "https://dc.lft.to/lastmile_qr_scan", "ios": "https://dc.lft.to/lastmile_qr_scan"}, "lat": 38.915937666666665, "fusion_lon": 0.0, "fusion_lat": 0.0, "type": "electric_scooter", "bike_id": "d33ca52162465fd9661bcb260b2f3f36", "lon": -77.03284983333333, "is_reserved": 0, "is_disabled": 0, "name": "d33ca52162465fd9661bcb260b2f3f36"}, {"rental_uris": {"android": "https://dc.lft.to/lastmile_qr_scan", "ios": "https://dc.lft.to/lastmile_qr_scan"}, "lat": 38.924698, "fusion_lon": 0.0, "fusion_lat": 0.0, "type": "electric_scooter", "bike_id": "f71f16492fc75ae3df86b41ed2fedb4b", "lon": -77.0220095, "is_reserved": 0, "is_disabled": 0, "name": "f71f16492fc75ae3df86b41ed2fedb4b"}, {"rental_uris": {"android": "https://dc.lft.to/lastmile_qr_scan", "ios": "https://dc.lft.to/lastmile_qr_scan"}, "lat": 38.90783066666667, "fusion_lon": 0.0, "fusion_lat": 0.0, "type": "electric_scooter", "bike_id": "4f5a807ab46b663ca43cd738ca1e66f9", "lon": -77.04507216666667, "is_reserved": 0, "is_disabled": 0, "name": "4f5a807ab46b663ca43cd738ca1e66f9"}, {"rental_uris": {"android": "https://dc.lft.to/lastmile_qr_scan", "ios": "https://dc.lft.to/lastmile_qr_scan"}, "lat": 38.8988315, "fusion_lon": 0.0, "fusion_lat": 0.0, "type": "electric_scooter", "bike_id": "ea6196644bd9ac09a7c1156df8acaa28", "lon": -77.00148133333333, "is_reserved": 0, "is_disabled": 0, "name": "ea6196644bd9ac09a7c1156df8acaa28"}, {"rental_uris": {"android": "https://dc.lft.to/lastmile_qr_scan", "ios": "https://dc.lft.to/lastmile_qr_scan"}, "lat": 38.927073, "fusion_lon": 0.0, "fusion_lat": 0.0, "type": "electric_scooter", "bike_id": "aff84014674783cc474ad08bece7338f", "lon": -77.041073, "is_reserved": 0, "is_disabled": 0, "name": "aff84014674783cc474ad08bece7338f"}, {"rental_uris": {"android": "https://dc.lft.to/lastmile_qr_scan", "ios": "https://dc.lft.to/lastmile_qr_scan"}, "lat": 38.908876666666664, "fusion_lon": 0.0, "fusion_lat": 0.0, "type": "electric_scooter", "bike_id": "ab05041c459ae544146ba5722809e0eb", "lon": -76.9911685, "is_reserved": 0, "is_disabled": 0, "name": "ab05041c459ae544146ba5722809e0eb"}, {"rental_uris": {"android": "https://dc.lft.to/lastmile_qr_scan", "ios": "https://dc.lft.to/lastmile_qr_scan"}, "lat": 38.90432366666667, "fusion_lon": 0.0, "fusion_lat": 0.0, "type": "electric_scooter", "bike_id": "cb739261ad1b034963f5d8d1befc661a", "lon": -77.04172, "is_reserved": 0, "is_disabled": 0, "name": "cb739261ad1b034963f5d8d1befc661a"}, {"rental_uris": {"android": "https://dc.lft.to/lastmile_qr_scan", "ios": "https://dc.lft.to/lastmile_qr_scan"}, "lat": 38.920791333333334, "fusion_lon": 0.0, "fusion_lat": 0.0, "type": "electric_scooter", "bike_id": "faa0865410d4c1c8c333e0a89de08a25", "lon": -77.02528166666667, "is_reserved": 0, "is_disabled": 0, "name": "faa0865410d4c1c8c333e0a89de08a25"}, {"rental_uris": {"android": "https://dc.lft.to/lastmile_qr_scan", "ios": "https://dc.lft.to/lastmile_qr_scan"}, "lat": 38.9246825, "fusion_lon": 0.0, "fusion_lat": 0.0, "type": "electric_scooter", "bike_id": "1186b18768ebef2f029fd4fb314ed0ca", "lon": -77.02197266666667, "is_reserved": 0, "is_disabled": 0, "name": "1186b18768ebef2f029fd4fb314ed0ca"}, {"rental_uris": {"android": "https://dc.lft.to/lastmile_qr_scan", "ios": "https://dc.lft.to/lastmile_qr_scan"}, "lat": 38.907324, "fusion_lon": 0.0, "fusion_lat": 0.0, "type": "electric_scooter", "bike_id": "8eae0907d783ebdcf354c68afd122d0e", "lon": -77.0417035, "is_reserved": 0, "is_disabled": 0, "name": "8eae0907d783ebdcf354c68afd122d0e"}, {"rental_uris": {"android": "https://dc.lft.to/lastmile_qr_scan", "ios": "https://dc.lft.to/lastmile_qr_scan"}, "lat": 38.95529233333333, "fusion_lon": 0.0, "fusion_lat": 0.0, "type": "electric_bike", "bike_id": "ea551f54d8dd448e697cf7b8818c18d1", "lon": -76.96819316666667, "is_reserved": 0, "is_disabled": 0, "name": "ea551f54d8dd448e697cf7b8818c18d1"}, {"rental_uris": {"android": "https://dc.lft.to/lastmile_qr_scan", "ios": "https://dc.lft.to/lastmile_qr_scan"}, "lat": 38.832961166666664, "fusion_lon": 0.0, "fusion_lat": 0.0, "type": "electric_bike", "bike_id": "f024fd3718a23c8a91418630838e5a94", "lon": -77.08404466666667, "is_reserved": 0, "is_disabled": 0, "name": "f024fd3718a23c8a91418630838e5a94"}, {"rental_uris": {"android": "https://dc.lft.to/lastmile_qr_scan", "ios": "https://dc.lft.to/lastmile_qr_scan"}, "lat": 38.89996433333334, "fusion_lon": 0.0, "fusion_lat": 0.0, "type": "electric_scooter", "bike_id": "4cb94b56d7a31f3795c8e74c90110e7a", "lon": -77.03293716666667, "is_reserved": 0, "is_disabled": 0, "name": "4cb94b56d7a31f3795c8e74c90110e7a"}, {"rental_uris": {"android": "https://dc.lft.to/lastmile_qr_scan", "ios": "https://dc.lft.to/lastmile_qr_scan"}, "lat": 38.9247095, "fusion_lon": 0.0, "fusion_lat": 0.0, "type": "electric_scooter", "bike_id": "11a4504018554b57611c8c99296f1233", "lon": -77.05239283333333, "is_reserved": 0, "is_disabled": 0, "name": "11a4504018554b57611c8c99296f1233"}, {"rental_uris": {"android": "https://dc.lft.to/lastmile_qr_scan", "ios": "https://dc.lft.to/lastmile_qr_scan"}, "lat": 38.912691, "fusion_lon": 0.0, "fusion_lat": 0.0, "type": "electric_scooter", "bike_id": "c3920b7c44acf2845f6d2bf150dfa104", "lon": -76.98568583333333, "is_reserved": 0, "is_disabled": 0, "name": "c3920b7c44acf2845f6d2bf150dfa104"}, {"rental_uris": {"android": "https://dc.lft.to/lastmile_qr_scan", "ios": "https://dc.lft.to/lastmile_qr_scan"}, "lat": 38.89720783333333, "fusion_lon": 0.0, "fusion_lat": 0.0, "type": "electric_scooter", "bike_id": "fa4ee5fdc612a8874a3aff65ee42b30b", "lon": -77.03239033333334, "is_reserved": 0, "is_disabled": 0, "name": "fa4ee5fdc612a8874a3aff65ee42b30b"}, {"rental_uris": {"android": "https://dc.lft.to/lastmile_qr_scan", "ios": "https://dc.lft.to/lastmile_qr_scan"}, "lat": 38.9320715, "fusion_lon": 0.0, "fusion_lat": 0.0, "type": "electric_scooter", "bike_id": "65811e0a09a57214e59b950adcd9c945", "lon": -77.022966, "is_reserved": 0, "is_disabled": 0, "name": "65811e0a09a57214e59b950adcd9c945"}, {"rental_uris": {"android": "https://dc.lft.to/lastmile_qr_scan", "ios": "https://dc.lft.to/lastmile_qr_scan"}, "lat": 38.924133, "fusion_lon": 0.0, "fusion_lat": 0.0, "type": "electric_scooter", "bike_id": "018fabb300604e9362c81e73d2d80e42", "lon": -77.02002766666666, "is_reserved": 0, "is_disabled": 0, "name": "018fabb300604e9362c81e73d2d80e42"}, {"rental_uris": {"android": "https://dc.lft.to/lastmile_qr_scan", "ios": "https://dc.lft.to/lastmile_qr_scan"}, "lat": 38.9016205, "fusion_lon": 0.0, "fusion_lat": 0.0, "type": "electric_scooter", "bike_id": "d14cc0b8de8f36e7db42928ff2f038ec", "lon": -77.059103, "is_reserved": 0, "is_disabled": 0, "name": "d14cc0b8de8f36e7db42928ff2f038ec"}, {"rental_uris": {"android": "https://dc.lft.to/lastmile_qr_scan", "ios": "https://dc.lft.to/lastmile_qr_scan"}, "lat": 38.921313833333336, "fusion_lon": 0.0, "fusion_lat": 0.0, "type": "electric_scooter", "bike_id": "7c8c3b4c8b7ce00007edfbf187f126d5", "lon": -77.01854883333333, "is_reserved": 0, "is_disabled": 0, "name": "7c8c3b4c8b7ce00007edfbf187f126d5"}, {"rental_uris": {"android": "https://dc.lft.to/lastmile_qr_scan", "ios": "https://dc.lft.to/lastmile_qr_scan"}, "lat": 38.897102333333336, "fusion_lon": 0.0, "fusion_lat": 0.0, "type": "electric_scooter", "bike_id": "0ae950ad32b66eccac579b3368aec793", "lon": -77.02706516666667, "is_reserved": 0, "is_disabled": 0, "name": "0ae950ad32b66eccac579b3368aec793"}, {"rental_uris": {"android": "https://dc.lft.to/lastmile_qr_scan", "ios": "https://dc.lft.to/lastmile_qr_scan"}, "lat": 38.926436, "fusion_lon": 0.0, "fusion_lat": 0.0, "type": "electric_scooter", "bike_id": "5d823a83f5ef00087e38e934368624e5", "lon": -77.03848966666666, "is_reserved": 0, "is_disabled": 0, "name": "5d823a83f5ef00087e38e934368624e5"}, {"rental_uris": {"android": "https://dc.lft.to/lastmile_qr_scan", "ios": "https://dc.lft.to/lastmile_qr_scan"}, "lat": 38.919714166666665, "fusion_lon": 0.0, "fusion_lat": 0.0, "type": "electric_scooter", "bike_id": "be8f86bb3b3b702508e0f8b37ea7a2a0", "lon": -77.02174866666667, "is_reserved": 0, "is_disabled": 0, "name": "be8f86bb3b3b702508e0f8b37ea7a2a0"}, {"rental_uris": {"android": "https://dc.lft.to/lastmile_qr_scan", "ios": "https://dc.lft.to/lastmile_qr_scan"}, "lat": 38.9526915, "fusion_lon": 0.0, "fusion_lat": 0.0, "type": "electric_scooter", "bike_id": "095b0881167be1ca3c0d286e337914ae", "lon": -77.02376333333333, "is_reserved": 0, "is_disabled": 0, "name": "095b0881167be1ca3c0d286e337914ae"},