{"data": {"bikes": [{"fusion_lat": 0.0, "type": "electric_scooter", "name": "9044d338f1c7acface840a17eb56e3c9", "fusion_lon": 0.0, "bike_id": "9044d338f1c7acface840a17eb56e3c9", "is_reserved": 0, "rental_uris": {"android": "https://dc.lft.to/lastmile_qr_scan", "ios": "https://dc.lft.to/lastmile_qr_scan"}, "lat": 38.90717333333333, "is_disabled": 0, "lon": -77.02547966666667}, {"fusion_lat": 0.0, "type": "electric_scooter", "name": "5341cdf3e58ab5a3018ac5a6dc88b7cc", "fusion_lon": 0.0, "bike_id": "5341cdf3e58ab5a3018ac5a6dc88b7cc", "is_reserved": 0, "rental_uris": {"android": "https://dc.lft.to/lastmile_qr_scan", "ios": "https://dc.lft.to/lastmile_qr_scan"}, "lat": 38.946005, "is_disabled": 0, "lon": -77.0267285}, {"fusion_lat": 0.0, "type": "electric_bike", "name": "3ae96992c1edd13336ebc869d6e403ad", "fusion_lon": 0.0, "bike_id": "3ae96992c1edd13336ebc869d6e403ad", "is_reserved": 0, "rental_uris": {"android": "https://dc.lft.to/lastmile_qr_scan", "ios": "https://dc.lft.to/lastmile_qr_scan"}, "lat": 39.02433083333333, "is_disabled": 0, "lon": -77.13101033333334}, {"fusion_lat": 0.0, "type": "electric_scooter", "name": "8d320836e408a0a456aa007a566ce88c", "fusion_lon": 0.0, "bike_id": "8d320836e408a0a456aa007a566ce88c", "is_reserved": 0, "rental_uris": {"android": "https://dc.lft.to/lastmile_qr_scan", "ios": "https://dc.lft.to/lastmile_qr_scan"}, "lat": 38.857596, "is_disabled": 0, "lon": -76.99303033333334}, {"fusion_lat": 0.0, "type": "electric_scooter", "name": "dbc6283fb9cb6209d762e0b06f22a04f", "fusion_lon": 0.0, "bike_id": "dbc6283fb9cb6209d762e0b06f22a04f", "is_reserved": 0, "rental_uris": {"android": "https://dc.lft.to/lastmile_qr_scan", "ios": "https://dc.lft.to/lastmile_qr_scan"}, "lat": 38.9241535, "is_disabled": 0, "lon": -77.03541033333333}, {"fusion_lat": 0.0, "type": "electric_scooter", "name": "a5c6179a4ced112636e9f96a2a6d724a", "fusion_lon": 0.0, "bike_id": "a5c6179a4ced112636e9f96a2a6d724a", "is_reserved": 0, "rental_uris": {"android": "https://dc.lft.to/lastmile_qr_scan", "ios": "https://dc.lft.to/lastmile_qr_scan"}, "lat": 38.91746783333333, "is_disabled": 0, "lon": -77.01080733333333}, {"fusion_lat": 0.0, "type": "electric_bike", "name": "418c89f08973722857ec02c297b7d504", "fusion_lon": 0.0, "bike_id": "418c89f08973722857ec02c297b7d504", "is_reserved": 0, "rental_uris": {"android": "https://dc.lft.to/lastmile_qr_scan", "ios": "https://dc.lft.to/lastmile_qr_scan"}, "lat": 38.93967683333333, "is_disabled": 0, "lon": -76.98613766666666}, {"fusion_lat": 0.0, "type": "electric_scooter", "name": "c188124b36f4fe7eb1ec10c9b73c68fd", "fusion_lon": 0.0, "bike_id": "c188124b36f4fe7eb1ec10c9b73c68fd", "is_reserved": 0, "rental_uris": {"android": "https://dc.lft.to/lastmile_qr_scan", "ios": "https://dc.lft.to/lastmile_qr_scan"}, "lat": 38.88598833333333, "is_disabled": 0, "lon": -76.99148383333333}, {"fusion_lat": 0.0, "type": "electric_scooter", "name": "89d4a29b50f6a840c10bd02172223d50", "fusion_lon": 0.0, "bike_id": "89d4a29b50f6a840c10bd02172223d50", "is_reserved": 0, "rental_uris": {"android": "https://dc.lft.to/lastmile_qr_scan", "ios": "https://dc.lft.to/lastmile_qr_scan"}, "lat": 38.92469533333333, "is_disabled": 0, "lon": -77.02224166666667}, {"fusion_lat": 0.0, "type": "electric_scooter", "name": "1fa6c9c8487b972ed69d8a7f1a64180f", "fusion_lon": 0.0, "bike_id": "1fa6c9c8487b972ed69d8a7f1a64180f", "is_reserved": 0, "rental_uris": {"android": "https://dc.lft.to/lastmile_qr_scan", "ios": "https://dc.lft.to/lastmile_qr_scan"}, "lat": 38.921130166666664, "is_disabled": 0, "lon": -77.03243983333333}, {"fusion_lat": 0.0, "type": "electric_scooter", "name": "5a363654fad90ceaedd0b3b423364238", "fusion_lon": 0.0, "bike_id": "5a363654fad90ceaedd0b3b423364238", "is_reserved": 0, "rental_uris": {"android": "https://dc.lft.to/lastmile_qr_scan", "ios": "https://dc.lft.to/lastmile_qr_scan"}, "lat": 38.939913, "is_disabled": 0, "lon": -77.0289185}, {"fusion_lat": 0.0, "type": "electric_scooter", "name": "56f678fdb42c402a547e7be5a98803ac", "fusion_lon": 0.0, "bike_id": "56f678fdb42c402a547e7be5a98803ac", "is_reserved": 0, "rental_uris": {"android": "https://dc.lft.to/lastmile_qr_scan", "ios": "https://dc.lft.to/lastmile_qr_scan"}, "lat": 38.919306666666664, "is_disabled": 0, "lon": -77.04498616666666}, {"fusion_lat": 0.0, "type": "electric_scooter", "name": "42ecc4d19ca808bbf16f6065535d407c", "fusion_lon": 0.0, "bike_id": "42ecc4d19ca808bbf16f6065535d407c", "is_reserved": 0, "rental_uris": {"android": "https://dc.lft.to/lastmile_qr_scan", "ios": "https://dc.lft.to/lastmile_qr_scan"}, "lat": 38.90937983333333, "is_disabled": 0, "lon": -77.0443955}, {"fusion_lat": 0.0, "type": "electric_scooter", "name": "d9f1391b4d8661242a6050c12fd1041c", "fusion_lon": 0.0, "bike_id": "d9f1391b4d8661242a6050c12fd1041c", "is_reserved": 0, "rental_uris": {"android": "https://dc.lft.to/lastmile_qr_scan", "ios": "https://dc.lft.to/lastmile_qr_scan"}, "lat": 38.924596333333334, "is_disabled": 0, "lon": -77.07815516666666}, {"fusion_lat": 0.0, "type": "electric_scooter", "name": "58f7a481847b9bb356545b3b69cf3ceb", "fusion_lon": 0.0, "bike_id": "58f7a481847b9bb356545b3b69cf3ceb", "is_reserved": 0, "rental_uris": {"android": "https://dc.lft.to/lastmile_qr_scan", "ios": "https://dc.lft.to/lastmile_qr_scan"}, "lat": 38.9205735, "is_disabled": 0, "lon": -77.03345283333333}, {"fusion_lat": 0.0, "type": "electric_bike", "name": "50f02636aeddfcc828f9739c8c3c9312", "fusion_lon": 0.0, "bike_id": "50f02636aeddfcc828f9739c8c3c9312", "is_reserved": 0, "rental_uris": {"android": "https://dc.lft.to/lastmile_qr_scan", "ios": "https://dc.lft.to/lastmile_qr_scan"}, "lat": 38.89353766666667, "is_disabled": 0, "lon": -77.1874195}, {"fusion_lat": 0.0, "type": "electric_scooter", "name": "0a26de5a8b17c8ba99e0e0ce9706b64a", "fusion_lon": 0.0, "bike_id": "0a26de5a8b17c8ba99e0e0ce9706b64a", "is_reserved": 0, "rental_uris": {"android": "https://dc.lft.to/lastmile_qr_scan", "ios": "https://dc.lft.to/lastmile_qr_scan"}, "lat": 38.921681166666666, "is_disabled": 0, "lon": -77.0384125}, {"fusion_lat": 0.0, "type": "electric_scooter", "name": "aec52ff9620c22f05467651f7b9015ad", "fusion_lon": 0.0, "bike_id": "aec52ff9620c22f05467651f7b9015ad", "is_reserved": 0, "rental_uris": {"android": "https://dc.lft.to/lastmile_qr_scan", "ios": "https://dc.lft.to/lastmile_qr_scan"}, "lat": 38.899138, "is_disabled": 0, "lon": -76.93378233333334}, {"fusion_lat": 0.0, "type": "electric_scooter", "name": "5bee543a11071650374a254e57207b74", "fusion_lon": 0.0, "bike_id": "5bee543a11071650374a254e57207b74", "is_reserved": 0, "rental_uris": {"android": "https://dc.lft.to/lastmile_qr_scan", "ios": "https://dc.lft.to/lastmile_qr_scan"}, "lat": 38.9026185, "is_disabled": 0, "lon": -77.02654433333333}, {"fusion_lat": 0.0, "type": "electric_scooter", "name": "0e0634048e803afba73e25c8f2ee81e2", "fusion_lon": 0.0, "bike_id": "0e0634048e803afba73e25c8f2ee81e2", "is_reserved": 0, "rental_uris": {"android": "https://dc.lft.to/lastmile_qr_scan", "ios": "https://dc.lft.to/lastmile_qr_scan"}, "lat": 38.91181733333333, "is_disabled": 0, "lon": -77.0491525}, {"fusion_lat": 0.0, "type": "electric_scooter", "name": "b209eab76955c0b24767a113cd8a0318", "fusion_lon": 0.0, "bike_id": "b209eab76955c0b24767a113cd8a0318", "is_reserved": 0, "rental_uris": {"android": "https://dc.lft.to/lastmile_qr_scan", "ios": "https://dc.lft.to/lastmile_qr_scan"}, "lat": 38.912285833333335, "is_disabled": 0, "lon": -77.02274633333333}, {"fusion_lat": 0.0, "type": "electric_scooter", "name": "93aafa4a5767f0086da614ee71f8997d", "fusion_lon": 0.0, "bike_id": "93aafa4a5767f0086da614ee71f8997d", "is_reserved": 0, "rental_uris": {"android": "https://dc.lft.to/lastmile_qr_scan", "ios": "https://dc.lft.to/lastmile_qr_scan"}, "lat": 38.9236155, "is_disabled": 0, "lon": -77.05048216666667}, {"fusion_lat": 0.0, "type": "electric_scooter", "name": "a5275c3345c53dd08d43cbad70c266b3", "fusion_lon": 0.0, "bike_id": "a5275c3345c53dd08d43cbad70c266b3", "is_reserved": 0, "rental_uris": {"android": "https://dc.lft.to/lastmile_qr_scan", "ios": "https://dc.lft.to/lastmile_qr_scan"}, "lat": 38.89323983333333, "is_disabled": 0, "lon": -76.9438405}, {"fusion_lat": 0.0, "type": "electric_scooter", "name": "b948ea15cdaf05a6b1fdc8b9d9fd73b1", "fusion_lon": 0.0, "bike_id": "b948ea15cdaf05a6b1fdc8b9d9fd73b1", "is_reserved": 0, "rental_uris": {"android": "https://dc.lft.to/lastmile_qr_scan", "ios": "https://dc.lft.to/lastmile_qr_scan"}, "lat": 38.898818166666665, "is_disabled": 0, "lon": -76.93176733333334}, {"fusion_lat": 0.0, "type": "electric_scooter", "name": "28e642dd6a2d0114e2105818fd41a865", "fusion_lon": 0.0, "bike_id": "28e642dd6a2d0114e2105818fd41a865", "is_reserved": 0, "rental_uris": {"android": "https://dc.lft.to/lastmile_qr_scan", "ios": "https://dc.lft.to/lastmile_qr_scan"}, "lat": 38.9324415, "is_disabled": 0, "lon": -77.0341505}, {"fusion_lat": 0.0, "type": "electric_bike", "name": "dbab08758da315829a97a59163a373cd", "fusion_lon": 0.0, "bike_id": "dbab08758da315829a97a59163a373cd", "is_reserved": 0, "rental_uris": {"android": "https://dc.lft.to/lastmile_qr_scan", "ios": "https://dc.lft.to/lastmile_qr_scan"}, "lat": 38.8543335, "is_disabled": 0, "lon": -77.1207945}, {"fusion_lat": 0.0, "type": "electric_scooter", "name": "60d1fefe6dbf397267a0f1518b28d852", "fusion_lon": 0.0, "bike_id": "60d1fefe6dbf397267a0f1518b28d852", "is_reserved": 0, "rental_uris": {"android": "https://dc.lft.to/lastmile_qr_scan", "ios": "https://dc.lft.to/lastmile_qr_scan"}, "lat": 38.887541666666664, "is_disabled": 0, "lon": -77.00882133333333}, {"fusion_lat": 0.0, "type": "electric_scooter", "name": "d4d982249e64c98d35568ae455e5c4c7", "fusion_lon": 0.0, "bike_id": "d4d982249e64c98d35568ae455e5c4c7", "is_reserved": 0, "rental_uris": {"android": "https://dc.lft.to/lastmile_qr_scan", "ios": "https://dc.lft.to/lastmile_qr_scan"}, "lat": 38.905031666666666, "is_disabled": 0, "lon": -76.979272}, {"fusion_lat": 0.0, "type": "electric_scooter", "name": "950c892f193a3c75ef9054cd4bbaf6d2", "fusion_lon": 0.0, "bike_id": "950c892f193a3c75ef9054cd4bbaf6d2", "is_reserved": 0, "rental_uris": {"android": "https://dc.lft.to/lastmile_qr_scan", "ios": "https://dc.lft.to/lastmile_qr_scan"}, "lat": 38.905564166666665, "is_disabled": 0, "lon": -76.97390933333334}, {"fusion_lat": 0.0, "type": "electric_scooter", "name": "388bd179dfe717f45af191a517d60a8d", "fusion_lon": 0.0, "bike_id": "388bd179dfe717f45af191a517d60a8d", "is_reserved": 0, "rental_uris": {"android": "https://dc.lft.to/lastmile_qr_scan", "ios": "https://dc.lft.to/lastmile_qr_scan"}, "lat": 38.893051666666665, "is_disabled": 0, "lon": -77.02167333333334}, {"fusion_lat": 0.0, "type": "electric_scooter", "name": "90abe055203d92b8c95a90ef25a8a49b", "fusion_lon": 0.0, "bike_id": "90abe055203d92b8c95a90ef25a8a49b", "is_reserved": 0, "rental_uris": {"android": "https://dc.lft.to/lastmile_qr_scan", "ios": "https://dc.lft.to/lastmile_qr_scan"}, "lat": 38.919409, "is_disabled": 0, "lon": -77.04555666666667}, {"fusion_lat": 0.0, "type": "electric_scooter", "name": "d839d4254bfbdb46d995b4d38a38d2b9", "fusion_lon": 0.0, "bike_id": "d839d4254bfbdb46d995b4d38a38d2b9", "is_reserved": 0, "rental_uris": {"android": "https://dc.lft.to/lastmile_qr_scan", "ios": "https://dc.lft.to/lastmile_qr_scan"}, "lat": 38.904989, "is_disabled": 0, "lon": -77.06857716666667}, {"fusion_lat": 0.0, "type": "electric_scooter", "name": "e6a47bbf30d397a6ee45aa92233343bd", "fusion_lon": 0.0, "bike_id": "e6a47bbf30d397a6ee45aa92233343bd", "is_reserved": 0, "rental_uris": {"android": "https://dc.lft.to/lastmile_qr_scan", "ios": "https://dc.lft.to/lastmile_qr_scan"}, "lat": 38.89295216666667, "is_disabled": 0, "lon": -77.01238566666666}, {"fusion_lat": 0.0, "type": "electric_scooter", "name": "f2958e34c415a2efe1e6a13445014f2c", "fusion_lon": 0.0, "bike_id": "f2958e34c415a2efe1e6a13445014f2c", "is_reserved": 0, "rental_uris": {"android": "https://dc.lft.to/lastmile_qr_scan", "ios": "https://dc.lft.to/lastmile_qr_scan"}, "lat": 38.88615433333333, "is_disabled": 0, "lon": -77.00063166666666}, {"fusion_lat": 0.0, "type": "electric_scooter", "name": "ac4c7353e240bf4aa5e58d3f8a4fce84", "fusion_lon": 0.0, "bike_id": "ac4c7353e240bf4aa5e58d3f8a4fce84", "is_reserved": 0, "rental_uris": {"android": "https://dc.lft.to/lastmile_qr_scan", "ios": "https://dc.lft.to/lastmile_qr_scan"}, "lat": 38.974505666666666, "is_disabled": 0, "lon": -77.01796}, {"fusion_lat": 0.0, "type": "electric_bike", "name": "3da4e11bd9bdd78ec0c6e53eb65edf53", "fusion_lon": 0.0, "bike_id": "3da4e11bd9bdd78ec0c6e53eb65edf53", "is_reserved": 0, "rental_uris": {"android": "https://dc.lft.to/lastmile_qr_scan", "ios": "https://dc.lft.to/lastmile_qr_scan"}, "lat": 38.8392865, "is_disabled": 0, "lon": -77.07901883333334}, {"fusion_lat": 0.0, "type": "electric_scooter", "name": "a7494b6d4c17636af78bc39bf43c8ea3", "fusion_lon": 0.0, "bike_id": "a7494b6d4c17636af78bc39bf43c8ea3", "is_reserved": 0, "rental_uris": {"android": "https://dc.lft.to/lastmile_qr_scan", "ios": "https://dc.lft.to/lastmile_qr_scan"}, "lat": 38.87364633333333, "is_disabled": 0, "lon": -76.97011616666667}, {"fusion_lat": 0.0, "type": "electric_scooter", "name": "81213b00edeebd2a6febc461f2ec6e63", "fusion_lon": 0.0, "bike_id": "81213b00edeebd2a6febc461f2ec6e63", "is_reserved": 0, "rental_uris": {"android": "https://dc.lft.to/lastmile_qr_scan", "ios": "https://dc.lft.to/lastmile_qr_scan"}, "lat": 38.9093705, "is_disabled": 0, "lon": -77.02196533333333}, {"fusion_lat": 0.0, "type": "electric_scooter", "name": "efd04adcedbc864b324982462789bdf0", "fusion_lon": 0.0, "bike_id": "efd04adcedbc864b324982462789bdf0", "is_reserved": 0, "rental_uris": {"android": "https://dc.lft.to/lastmile_qr_scan", "ios": "https://dc.lft.to/lastmile_qr_scan"}, "lat": 38.90271716666667, "is_disabled": 0, "lon": -77.036476}, {"fusion_lat": 0.0, "type": "electric_scooter", "name": "964c114e2074bdf269c9f2bb7c27bbdb", "fusion_lon": 0.0, "bike_id": "964c114e2074bdf269c9f2bb7c27bbdb", "is_reserved": 0, "rental_uris": {"android": "https://dc.lft.to/lastmile_qr_scan", "ios": "https://dc.lft.to/lastmile_qr_scan"}, "lat": 38.89848816666667, "is_disabled": 0, "lon": -77.03290033333333}, {"fusion_lat": 0.0, "type": "electric_scooter", "name": "ba30413d561d11fef8f4d16915e521c7", "fusion_lon": 0.0, "bike_id": "ba30413d561d11fef8f4d16915e521c7", "is_reserved": 0, "rental_uris": {"android": "https://dc.lft.to/lastmile_qr_scan", "ios": "https://dc.lft.to/lastmile_qr_scan"}, "lat": 38.91419066666667, "is_disabled": 0, "lon": -77.02596466666667}, {"fusion_lat": 0.0, "type": "electric_scooter", "name": "a9f79e106e00ca1607ecaa43a3331a03", "fusion_lon": 0.0, "bike_id": "a9f79e106e00ca1607ecaa43a3331a03", "is_reserved": 0, "rental_uris": {"android": "https://dc.lft.to/lastmile_qr_scan", "ios": "https://dc.lft.to/lastmile_qr_scan"}, "lat": 38.9095865, "is_disabled": 0, "lon": -77.03632066666667}, {"fusion_lat": 0.0, "type": "electric_scooter", "name": "0e0db4bf228ffc7b3872112cd9571354", "fusion_lon": 0.0, "bike_id": "0e0db4bf228ffc7b3872112cd9571354", "is_reserved": 0, "rental_uris": {"android": "https://dc.lft.to/lastmile_qr_scan", "ios": "https://dc.lft.to/lastmile_qr_scan"}, "lat": 38.883114666666664, "is_disabled": 0, "lon": -77.01757183333334}, {"fusion_lat": 0.0, "type": "electric_scooter", "name": "559aa8c61c49357756ce0f855115df67", "fusion_lon": 0.0, "bike_id": "559aa8c61c49357756ce0f855115df67", "is_reserved": 0, "rental_uris": {"android": "https://dc.lft.to/lastmile_qr_scan", "ios": "https://dc.lft.to/lastmile_qr_scan"}, "lat": 38.924166666666665, "is_disabled": 0, "lon": -77.04472366666667}, {"fusion_lat": 0.0, "type": "electric_scooter", "name": "d5d7551df167c484a569e666a73abf7e", "fusion_lon": 0.0, "bike_id": "d5d7551df167c484a569e666a73abf7e", "is_reserved": 0, "rental_uris": {"android": "https://dc.lft.to/lastmile_qr_scan", "ios": "https://dc.lft.to/lastmile_qr_scan"}, "lat": 38.908143, "is_disabled": 0, "lon": -77.04346916666667}, {"fusion_lat": 0.0, "type": "electric_scooter", "name": "3e3badc61729925974d0777d0eb5c516", "fusion_lon": 0.0, "bike_id": "3e3badc61729925974d0777d0eb5c516", "is_reserved": 0, "rental_uris": {"android": "https://dc.lft.to/lastmile_qr_scan", "ios": "https://dc.lft.to/lastmile_qr_scan"}, "lat": 38.927502833333335, "is_disabled": 0, "lon": -77.03284483333333}, {"fusion_lat": 0.0, "type": "electric_scooter", "name": "ab55506d1fdf6e4f1bb4f6abc806458b", "fusion_lon": 0.0, "bike_id": "ab55506d1fdf6e4f1bb4f6abc806458b", "is_reserved": 0, "rental_uris": {"android": "https://dc.lft.to/lastmile_qr_scan", "ios": "https://dc.lft.to/lastmile_qr_scan"}, "lat": 38.92267066666667, "is_disabled": 0, "lon": -77.0367395}, {"fusion_lat": 0.0, "type": "electric_scooter", "name": "21fa5663cb28451bc44471a866118d6e", "fusion_lon": 0.0, "bike_id": "21fa5663cb28451bc44471a866118d6e", "is_reserved": 0, "rental_uris": {"android": "https://dc.lft.to/lastmile_qr_scan", "ios": "https://dc.lft.to/lastmile_qr_scan"}, "lat": 38.9207135, "is_disabled": 0, "lon": -77.02306666666667}, {"fusion_lat": 0.0, "type": "electric_scooter", "name": "5e5b840a60a8131fa51a806d270340bf", "fusion_lon": 0.0, "bike_id": "5e5b840a60a8131fa51a806d270340bf", "is_reserved": 0, "rental_uris": {"android": "https://dc.lft.to/lastmile_qr_scan", "ios": "https://dc.lft.to/lastmile_qr_scan"}, "lat": 38.918852333333334, "is_disabled": 0, "lon": -77.0482535}, {"fusion_lat": 0.0, "type": "electric_scooter", "name": "fcbfb19afc7f5b3803d51703d826da99", "fusion_lon": 0.0, "bike_id": "fcbfb19afc7f5b3803d51703d826da99", "is_reserved": 0, "rental_uris": {"android": "https://dc.lft.to/lastmile_qr_scan", "ios": "https://dc.lft.to/lastmile_qr_scan"}, "lat": 38.95791416666667, "is_disabled": 0, "lon": -77.02004183333334}, {"fusion_lat": 0.0, "type": "electric_scooter", "name": "09f97403204ae176f7e00fa19cbab81b", "fusion_lon": 0.0, "bike_id": "09f97403204ae176f7e00fa19cbab81b", "is_reserved": 0, "rental_uris": {"android": "https://dc.lft.to/lastmile_qr_scan", "ios": "https://dc.lft.to/lastmile_qr_scan"}, "lat": 38.92355633333333, "is_disabled": 0, "lon": -76.99365633333333}, {"fusion_lat": 0.0, "type": "electric_scooter", "name": "782464cc63589b2625d734343f3fdc69", "fusion_lon": 0.0, "bike_id": "782464cc63589b2625d734343f3fdc69", "is_reserved": 0, "rental_uris": {"android": "https://dc.lft.to/lastmile_qr_scan", "ios": "https://dc.lft.to/lastmile_qr_scan"}, "lat": 38.93188466666667, "is_disabled": 0, "lon": -77.04535783333333}, {"fusion_lat": 0.0, "type": "electric_scooter", "name": "85c3d1795f78283a163e330f4df091a8", "fusion_lon": 0.0, "bike_id": "85c3d1795f78283a163e330f4df091a8", "is_reserved": 0, "rental_uris": {"android": "https://dc.lft.to/lastmile_qr_scan", "ios": "https://dc.lft.to/lastmile_qr_scan"}, "lat": 38.9347395, "is_disabled": 0, "lon": -77.08664133333333}, {"fusion_lat": 0.0, "type": "electric_scooter", "name": "553da5a2f92a94d5d8e159396ecdba85", "fusion_lon": 0.0, "bike_id": "553da5a2f92a94d5d8e159396ecdba85", "is_reserved": 0, "rental_uris": {"android": "https://dc.lft.to/lastmile_qr_scan", "ios": "https://dc.lft.to/lastmile_qr_scan"}, "lat": 38.89249066666667, "is_disabled": 0, "lon": -77.046626}, {"fusion_lat": 0.0, "type": "electric_scooter", "name": "ecd7ceb7e29eae3ae16b3f72b38b39a6", "fusion_lon": 0.0, "bike_id": "ecd7ceb7e29eae3ae16b3f72b38b39a6", "is_reserved": 0, "rental_uris": {"android": "https://dc.lft.to/lastmile_qr_scan", "ios": "https://dc.lft.to/lastmile_qr_scan"}, "lat": 38.917067, "is_disabled": 0, "lon": -77.03866133333334}, {"fusion_lat": 0.0, "type": "electric_scooter", "name": "d300bfd0e1b557f7bd0cf0a5bf482d80", "fusion_lon": 0.0, "bike_id": "d300bfd0e1b557f7bd0cf0a5bf482d80", "is_reserved": 0, "rental_uris": {"android": "https://dc.lft.to/lastmile_qr_scan", "ios": "https://dc.lft.to/lastmile_qr_scan"}, "lat": 38.948994, "is_disabled": 0, "lon": -77.02072566666666}, {"fusion_lat": 0.0, "type": "electric_scooter", "name": "3d2e4cc4774a2c5cd4e24977ec5c4bf5", "fusion_lon": 0.0, "bike_id": "3d2e4cc4774a2c5cd4e24977ec5c4bf5", "is_reserved": 0, "rental_uris": {"android": "https://dc.lft.to/lastmile_qr_scan", "ios": "https://dc.lft.to/lastmile_qr_scan"}, "lat": 38.8718545, "is_disabled": 0, "lon": -77.00591816666666}, {"fusion_lat": 0.0, "type": "electric_scooter", "name": "fb98fc8540c4251c32494e911094cf50", "fusion_lon": 0.0, "bike_id": "fb98fc8540c4251c32494e911094cf50", "is_reserved": 0, "rental_uris": {"android": "https://dc.lft.to/lastmile_qr_scan", "ios": "https://dc.lft.to/lastmile_qr_scan"}, "lat": 38.892211, "is_disabled": 0, "lon": -77.043067}, {"fusion_lat": 0.0, "type": "electric_scooter", "name": "46d2e7eaf5e321de36119245769a5b5e", "fusion_lon": 0.0, "bike_id": "46d2e7eaf5e321de36119245769a5b5e", "is_reserved": 0, "rental_uris": {"android": "https://dc.lft.to/lastmile_qr_scan", "ios": "https://dc.lft.to/lastmile_qr_scan"}, "lat": 38.88109466666667, "is_disabled": 0, "lon": -77.016578}, {"fusion_lat": 0.0, "type": "electric_scooter", "name": "44d9df93fbf9f7819f867ae535d66c8a", "fusion_lon": 0.0, "bike_id": "44d9df93fbf9f7819f867ae535d66c8a", "is_reserved": 0, "rental_uris": {"android": "https://dc.lft.to/lastmile_qr_scan", "ios": "https://dc.lft.to/lastmile_qr_scan"}, "lat": 38.899820166666665, "is_disabled": 0, "lon": -77.0335215}, {"fusion_lat": 0.0, "type": "electric_scooter", "name": "d0772865707b245bd138c7e2151dc7c3", "fusion_lon": 0.0, "bike_id": "d0772865707b245bd138c7e2151dc7c3", "is_reserved": 0, "rental_uris": {"android": "https://dc.lft.to/lastmile_qr_scan", "ios": "https://dc.lft.to/lastmile_qr_scan"}, "lat": 38.91261816666667, "is_disabled": 0, "lon": -77.030703}, {"fusion_lat": 0.0, "type": "electric_scooter", "name": "858b1bbc05b8d692aa6f7c1b6cac473c", "fusion_lon": 0.0, "bike_id": "858b1bbc05b8d692aa6f7c1b6cac473c", "is_reserved": 0, "rental_uris": {"android": "https://dc.lft.to/lastmile_qr_scan", "ios": "https://dc.lft.to/lastmile_qr_scan"}, "lat": 38.907532833333335, "is_disabled": 0, "lon": -77.0025475}, {"fusion_lat": 0.0, "type": "electric_scooter", "name": "5a05a5a8d422de8ab6d036ee95fb9660", "fusion_lon": 0.0, "bike_id": "5a05a5a8d422de8ab6d036ee95fb9660", "is_reserved": 0, "rental_uris": {"android": "https://dc.lft.to/lastmile_qr_scan", "ios": "https://dc.lft.to/lastmile_qr_scan"}, "lat": 38.885503, "is_disabled": 0, "lon": -77.01999466666666}, {"fusion_lat": 0.0, "type": "electric_scooter", "name": "25593f9f56d244a41b5be211d2678e58", "fusion_lon": 0.0, "bike_id": "25593f9f56d244a41b5be211d2678e58", "is_reserved": 0, "rental_uris": {"android": "https://dc.lft.to/lastmile_qr_scan", "ios": "https://dc.lft.to/lastmile_qr_scan"}, "lat": 38.922225166666664, "is_disabled": 0, "lon": -77.0424285}, {"fusion_lat": 0.0, "type": "electric_scooter", "name": "77ca66f75eb094bf7d1c4ee7402731b3", "fusion_lon": 0.0, "bike_id": "77ca66f75eb094bf7d1c4ee7402731b3", "is_reserved": 0, "rental_uris": {"android": "https://dc.lft.to/lastmile_qr_scan", "ios": "https://dc.lft.to/lastmile_qr_scan"}, "lat": 38.892222833333335, "is_disabled": 0, "lon": -77.0310835}, {"fusion_lat": 0.0, "type": "electric_scooter", "name": "5f273e16af2a343ec82d106e0a9a311e", "fusion_lon": 0.0, "bike_id": "5f273e16af2a343ec82d106e0a9a311e", "is_reserved": 0, "rental_uris": {"android": "https://dc.lft.to/lastmile_qr_scan", "ios": "https://dc.lft.to/lastmile_qr_scan"}, "lat": 38.911057, "is_disabled": 0, "lon": -77.03145683333334}, {"fusion_lat": 0.0, "type": "electric_scooter", "name": "f7e0b41550a9841cd02a82f20e25e070", "fusion_lon": 0.0, "bike_id": "f7e0b41550a9841cd02a82f20e25e070", "is_reserved": 0, "rental_uris": {"android": "https://dc.lft.to/lastmile_qr_scan", "ios": "https://dc.lft.to/lastmile_qr_scan"}, "lat": 38.91400216666667, "is_disabled": 0, "lon": -77.03826033333333}, {"fusion_lat": 0.0, "type": "electric_bike", "name": "e6e9e589b4df9fc3ff797d740b1f241a", "fusion_lon": 0.0, "bike_id": "e6e9e589b4df9fc3ff797d740b1f241a", "is_reserved": 0, "rental_uris": {"android": "https://dc.lft.to/lastmile_qr_scan", "ios": "https://dc.lft.to/lastmile_qr_scan"}, "lat": 38.855160166666664, "is_disabled": 0, "lon": -76.98439666666667}, {"fusion_lat": 0.0, "type": "electric_scooter", "name": "043c76c845b0d7fae8007fc84d0544fd", "fusion_lon": 0.0, "bike_id": "043c76c845b0d7fae8007fc84d0544fd", "is_reserved": 0, "rental_uris": {"android": "https://dc.lft.to/lastmile_qr_scan", "ios": "https://dc.lft.to/lastmile_qr_scan"}, "lat": 38.9243865, "is_disabled": 0, "lon": -77.04035083333333}, {"fusion_lat": 0.0, "type": "electric_scooter", "name": "b982e390b04294359435b8a88b147b72", "fusion_lon": 0.0, "bike_id": "b982e390b04294359435b8a88b147b72", "is_reserved": 0, "rental_uris": {"android": "https://dc.lft.to/lastmile_qr_scan", "ios": "https://dc.lft.to/lastmile_qr_scan"}, "lat": 38.89879766666667, "is_disabled": 0, "lon": -77.0257905}, {"fusion_lat": 0.0, "type": "electric_scooter", "name": "46f34fc88cbe3a3ff64177ef8ffaab79", "fusion_lon": 0.0, "bike_id": "46f34fc88cbe3a3ff64177ef8ffaab79", "is_reserved": 0, "rental_uris": {"android": "https://dc.lft.to/lastmile_qr_scan", "ios": "https://dc.lft.to/lastmile_qr_scan"}, "lat": 38.9064235, "is_disabled": 0, "lon": -77.01134233333333}, {"fusion_lat": 0.0, "type": "electric_scooter", "name": "e8f941d70c4dfe7b14d9b7afc2ed7826", "fusion_lon": 0.0, "bike_id": "e8f941d70c4dfe7b14d9b7afc2ed7826", "is_reserved": 0, "rental_uris": {"android": "https://dc.lft.to/lastmile_qr_scan", "ios": "https://dc.lft.to/lastmile_qr_scan"}, "lat": 38.9026895, "is_disabled": 0, "lon": -77.00578583333333}, {"fusion_lat": 0.0, "type": "electric_scooter", "name": "eae0ad04a030dff7d54dc7dd5c8171da", "fusion_lon": 0.0, "bike_id": "eae0ad04a030dff7d54dc7dd5c8171da", "is_reserved": 0, "rental_uris": {"android": "https://dc.lft.to/lastmile_qr_scan", "ios": "https://dc.lft.to/lastmile_qr_scan"}, "lat": 38.9095335, "is_disabled": 0, "lon": -77.0271575}, {"fusion_lat": 0.0, "type": "electric_scooter", "name": "a6debed0ab0e17b3d6fa055347c6af09", "fusion_lon": 0.0, "bike_id": "a6debed0ab0e17b3d6fa055347c6af09", "is_reserved": 0, "rental_uris": {"android": "https://dc.lft.to/lastmile_qr_scan", "ios": "https://dc.lft.to/lastmile_qr_scan"}, "lat": 38.912087, "is_disabled": 0, "lon": -77.034656}, {"fusion_lat": 0.0, "type": "electric_scooter", "name": "67fefa3cdf147170e3ccdae5697efccb", "fusion_lon": 0.0, "bike_id": "67fefa3cdf147170e3ccdae5697efccb", "is_reserved": 0, "rental_uris": {"android": "https://dc.lft.to/lastmile_qr_scan", "ios": "https://dc.lft.to/lastmile_qr_scan"}, "lat": 38.911095833333334, "is_disabled": 0, "lon": -77.03827733333334}, {"fusion_lat": 0.0, "type": "electric_scooter", "name": "ce7d30181b521be50a8491a8669fd8e6", "fusion_lon": 0.0, "bike_id": "ce7d30181b521be50a8491a8669fd8e6", "is_reserved": 0, "rental_uris": {"android": "https://dc.lft.to/lastmile_qr_scan", "ios": "https://dc.lft.to/lastmile_qr_scan"}, "lat": 38.874678333333335, "is_disabled": 0, "lon": -77.00514583333333}, {"fusion_lat": 0.0, "type": "electric_scooter", "name": "38e9bc256b4ece88586fa8edace13252", "fusion_lon": 0.0, "bike_id": "38e9bc256b4ece88586fa8edace13252", "is_reserved": 0, "rental_uris": {"android": "https://dc.lft.to/lastmile_qr_scan", "ios": "https://dc.lft.to/lastmile_qr_scan"}, "lat": 38.92173666666667, "is_disabled": 0, "lon": -77.04223633333334}, {"fusion_lat": 0.0, "type": "electric_scooter", "name": "5e77e495f177e7ac81790e0ff754c3d6", "fusion_lon": 0.0, "bike_id": "5e77e495f177e7ac81790e0ff754c3d6", "is_reserved": 0, "rental_uris": {"android": "https://dc.lft.to/lastmile_qr_scan", "ios": "https://dc.lft.to/lastmile_qr_scan"}, "lat": 38.931059833333336, "is_disabled": 0, "lon": -77.03636533333334}, {"fusion_lat": 0.0, "type": "electric_scooter", "name": "fa157bff95a59510eed97ee26a8e337d", "fusion_lon": 0.0, "bike_id": "fa157bff95a59510eed97ee26a8e337d", "is_reserved": 0, "rental_uris": {"android": "https://dc.lft.to/lastmile_qr_scan", "ios": "https://dc.lft.to/lastmile_qr_scan"}, "lat": 38.86352183333333, "is_disabled": 0, "lon": -76.9906545}, {"fusion_lat": 0.0, "type": "electric_scooter", "name": "8bf57e384c9401f7c1ae9acc3287ef2f", "fusion_lon": 0.0, "bike_id": "8bf57e384c9401f7c1ae9acc3287ef2f", "is_reserved": 0, "rental_uris": {"android": "https://dc.lft.to/lastmile_qr_scan", "ios": "https://dc.lft.to/lastmile_qr_scan"}, "lat": 38.93757683333333, "is_disabled": 0, "lon": -77.02264166666667}, {"fusion_lat": 0.0, "type": "electric_scooter", "name": "b983b7e83dd26fa025553c43cc2de8a9", "fusion_lon": 0.0, "bike_id": "b983b7e83dd26fa025553c43cc2de8a9", "is_reserved": 0, "rental_uris": {"android": "https://dc.lft.to/lastmile_qr_scan", "ios": "https://dc.lft.to/lastmile_qr_scan"}, "lat": 38.912546166666665, "is_disabled": 0, "lon": -77.04468333333334}, {"fusion_lat": 0.0, "type": "electric_scooter", "name": "dd13279414ed7f52e7e0e145b675db0d", "fusion_lon": 0.0, "bike_id": "dd13279414ed7f52e7e0e145b675db0d", "is_reserved": 0, "rental_uris": {"android": "https://dc.lft.to/lastmile_qr_scan", "ios": "https://dc.lft.to/lastmile_qr_scan"}, "lat": 38.91883466666667, "is_disabled": 0, "lon": -77.03772933333333}, {"fusion_lat": 0.0, "type": "electric_scooter", "name": "5f451198f267874331d6e673ada4c687", "fusion_lon": 0.0, "bike_id": "5f451198f267874331d6e673ada4c687", "is_reserved": 0, "rental_uris": {"android": "https://dc.lft.to/lastmile_qr_scan", "ios": "https://dc.lft.to/lastmile_qr_scan"}, "lat": 38.88739066666667, "is_disabled": 0, "lon": -77.02735716666666}, {"fusion_lat": 0.0, "type": "electric_scooter", "name": "f7efee5592826459fbc9cf258ef0092d", "fusion_lon": 0.0, "bike_id": "f7efee5592826459fbc9cf258ef0092d", "is_reserved": 0, "rental_uris": {"android": "https://dc.lft.to/lastmile_qr_scan", "ios": "https://dc.lft.to/lastmile_qr_scan"}, "lat": 38.857253166666666, "is_disabled": 0, "lon": -76.98936}, {"fusion_lat": 0.0, "type": "electric_scooter", "name": "c6259d952f74774ccfec026ebaddd226", "fusion_lon": 0.0, "bike_id": "c6259d952f74774ccfec026ebaddd226", "is_reserved": 0, "rental_uris": {"android": "https://dc.lft.to/lastmile_qr_scan", "ios": "https://dc.lft.to/lastmile_qr_scan"}, "lat": 38.90765066666667, "is_disabled": 0, "lon": -76.99307133333333}, {"fusion_lat": 0.0, "type": "electric_scooter", "name": "b09586941fc3b17041d1fb95ef36c721", "fusion_lon": 0.0, "bike_id": "b09586941fc3b17041d1fb95ef36c721", "is_reserved": 0, "rental_uris": {"android": "https://dc.lft.to/lastmile_qr_scan", "ios": "https://dc.lft.to/lastmile_qr_scan"}, "lat": 38.8778275, "is_disabled": 0, "lon": -76.99357966666666}, {"fusion_lat": 0.0, "type": "electric_scooter", "name": "7b0c83948b6ef8f5fb9770487cfea6b1", "fusion_lon": 0.0, "bike_id": "7b0c83948b6ef8f5fb9770487cfea6b1", "is_reserved": 0, "rental_uris": {"android": "https://dc.lft.to/lastmile_qr_scan", "ios": "https://dc.lft.to/lastmile_qr_scan"}, "lat": 38.9227875, "is_disabled": 0, "lon": -77.03904133333333}, {"fusion_lat": 0.0, "type": "electric_scooter", "name": "d1426ed8984a78be3fa9e40797b0bb41", "fusion_lon": 0.0, "bike_id": "d1426ed8984a78be3fa9e40797b0bb41", "is_reserved": 0, "rental_uris": {"android": "https://dc.lft.to/lastmile_qr_scan", "ios": "https://dc.lft.to/lastmile_qr_scan"}, "lat": 38.87469433333333, "is_disabled": 0, "lon": -77.01131333333333}, {"fusion_lat": 0.0, "type": "electric_scooter", "name": "8aa9b82f3b1df460c8bab129932fb406", "fusion_lon": 0.0, "bike_id": "8aa9b82f3b1df460c8bab129932fb406", "is_reserved": 0, "rental_uris": {"android": "https://dc.lft.to/lastmile_qr_scan", "ios": "https://dc.lft.to/lastmile_qr_scan"}, "lat": 38.876559666666665, "is_disabled": 0, "lon": -76.99453883333334}, {"fusion_lat": 0.0, "type": "electric_scooter", "name": "c2a15e23715368e7f2aaa2ea0aa5ec1d", "fusion_lon": 0.0, "bike_id": "c2a15e23715368e7f2aaa2ea0aa5ec1d", "is_reserved": 0, "rental_uris": {"android": "https://dc.lft.to/lastmile_qr_scan", "ios": "https://dc.lft.to/lastmile_qr_scan"}, "lat": 38.9002205, "is_disabled": 0, "lon": -77.01848183333334}, {"fusion_lat": 0.0, "type": "electric_scooter", "name": "dfbc5eafdd49cb2e705bcbfb3c0e7640", "fusion_lon": 0.0, "bike_id": "dfbc5eafdd49cb2e705bcbfb3c0e7640", "is_reserved": 0, "rental_uris": {"android": "https://dc.lft.to/lastmile_qr_scan", "ios": "https://dc.lft.to/lastmile_qr_scan"}, "lat": 38.94901083333333, "is_disabled": 0, "lon": -77.00651033333334}, {"fusion_lat": 0.0, "type": "electric_scooter", "name": "c09357129811b8f9d41747099314b8af", "fusion_lon": 0.0, "bike_id": "c09357129811b8f9d41747099314b8af", "is_reserved": 0, "rental_uris": {"android": "https://dc.lft.to/lastmile_qr_scan", "ios": "https://dc.lft.to/lastmile_qr_scan"}, "lat": 38.91121166666667, "is_disabled": 0, "lon": -77.043702}, {"fusion_lat": 0.0, "type": "electric_scooter", "name": "a2ef1a612c8cec89ac5ab04312540ce7", "fusion_lon": 0.0, "bike_id": "a2ef1a612c8cec89ac5ab04312540ce7", "is_reserved": 0, "rental_uris": {"android": "https://dc.lft.to/lastmile_qr_scan", "ios": "https://dc.lft.to/lastmile_qr_scan"}, "lat": 38.89220483333333, "is_disabled": 0, "lon": -77.0234765}, {"fusion_lat": 0.0, "type": "electric_bike", "name": "6e96b6a6c58ea736e04dba999d81bf74", "fusion_lon": 0.0, "bike_id": "6e96b6a6c58ea736e04dba999d81bf74", "is_reserved": 0, "rental_uris": {"android": "https://dc.lft.to/lastmile_qr_scan", "ios": "https://dc.lft.to/lastmile_qr_scan"}, "lat": 38.922088, "is_disabled": 0, "lon": -77.081919}, {"fusion_lat": 0.0, "type": "electric_scooter", "name": "49b9b01465db6310aa640d91f526a1e2", "fusion_lon": 0.0, "bike_id": "49b9b01465db6310aa640d91f526a1e2", "is_reserved": 0, "rental_uris": {"android": "https://dc.lft.to/lastmile_qr_scan", "ios": "https://dc.lft.to/lastmile_qr_scan"}, "lat": 38.91785, "is_disabled": 0, "lon": -77.02325083333334}, {"fusion_lat": 0.0, "type": "electric_scooter", "name": "e1fcd44680e733fe82b71843af721447", "fusion_lon": 0.0, "bike_id": "e1fcd44680e733fe82b71843af721447", "is_reserved": 0, "rental_uris": {"android": "https://dc.lft.to/lastmile_qr_scan", "ios": "https://dc.lft.to/lastmile_qr_scan"}, "lat": 38.919849, "is_disabled": 0, "lon": -77.02396016666667}, {"fusion_lat": 0.0, "type": "electric_scooter", "name": "f84e81eca7bb2cf7691ce8e9e21def31", "fusion_lon": 0.0, "bike_id": "f84e81eca7bb2cf7691ce8e9e21def31", "is_reserved": 0, "rental_uris": {"android": "https://dc.lft.to/lastmile_qr_scan", "ios": "https://dc.lft.to/lastmile_qr_scan"}, "lat": 38.89832916666667, "is_disabled": 0, "lon": -77.03329766666667}, {"fusion_lat": 0.0, "type": "electric_bike", "name": "03f0fb0a5a641a1d66171f29818d1d40", "fusion_lon": 0.0, "bike_id": "03f0fb0a5a641a1d66171f29818d1d40", "is_reserved": 0, "rental_uris": {"android": "https://dc.lft.to/lastmile_qr_scan", "ios": "https://dc.lft.to/lastmile_qr_scan"}, "lat": 39.054955666666665, "is_disabled": 0, "lon": -77.04646216666667}, {"fusion_lat": 0.0, "type": "electric_scooter", "name": "c41e385d6bf8999df734c6c4721e1b62", "fusion_lon": 0.0, "bike_id": "c41e385d6bf8999df734c6c4721e1b62", "is_reserved": 0, "rental_uris": {"android": "https://dc.lft.to/lastmile_qr_scan", "ios": "https://dc.lft.to/lastmile_qr_scan"}, "lat": 38.949476, "is_disabled": 0, "lon": -77.02447883333333}, {"fusion_lat": 0.0, "type": "electric_scooter", "name": "7e6c7b21f91337ff130f6d14f124ab1a", "fusion_lon": 0.0, "bike_id": "7e6c7b21f91337ff130f6d14f124ab1a", "is_reserved": 0, "rental_uris": {"android": "https://dc.lft.to/lastmile_qr_scan", "ios": "https://dc.lft.to/lastmile_qr_scan"}, "lat": 38.913434333333335, "is_disabled": 0, "lon": -77.03184833333333}, {"fusion_lat": 0.0, "type": "electric_bike", "name": "6e3b864ca89a196e0da33e6fe9f19741", "fusion_lon": 0.0, "bike_id": "6e3b864ca89a196e0da33e6fe9f19741", "is_reserved": 0, "rental_uris": {"android": "https://dc.lft.to/lastmile_qr_scan", "ios": "https://dc.lft.to/lastmile_qr_scan"}, "lat": 38.929675833333334, "is_disabled": 0, "lon": -77.18566166666666}, {"fusion_lat": 0.0, "type": "electric_bike", "name": "6f81b22b8117a6cdde115a7c10514467", "fusion_lon": 0.0, "bike_id": "6f81b22b8117a6cdde115a7c10514467", "is_reserved": 0, "rental_uris": {"android": "https://dc.lft.to/lastmile_qr_scan", "ios": "https://dc.lft.to/lastmile_qr_scan"}, "lat": 38.95438016666667, "is_disabled": 0, "lon": -76.98911766666667}, {"fusion_lat": 0.0, "type": "electric_scooter", "name": "c98e6bada9329606ab467fd4685198e6", "fusion_lon": 0.0, "bike_id": "c98e6bada9329606ab467fd4685198e6", "is_reserved": 0, "rental_uris": {"android": "https://dc.lft.to/lastmile_qr_scan", "ios": "https://dc.lft.to/lastmile_qr_scan"}, "lat": 38.90243016666667, "is_disabled": 0, "lon": -77.03952616666666}, {"fusion_lat": 0.0, "type": "electric_bike", "name": "500f9c1e6644412a23b3142ed701132d", "fusion_lon": 0.0, "bike_id": "500f9c1e6644412a23b3142ed701132d", "is_reserved": 0, "rental_uris": {"android": "https://dc.lft.to/lastmile_qr_scan", "ios": "https://dc.lft.to/lastmile_qr_scan"}, "lat": 38.93164383333333, "is_disabled": 0, "lon": -76.88396783333333}, {"fusion_lat": 0.0, "type": "electric_scooter", "name": "bde26434750fde7e547272fe1773b417", "fusion_lon": 0.0, "bike_id": "bde26434750fde7e547272fe1773b417", "is_reserved": 0, "rental_uris": {"android": "https://dc.lft.to/lastmile_qr_scan", "ios": "https://dc.lft.to/lastmile_qr_scan"}, "lat": 38.96022216666667, "is_disabled": 0, "lon": -77.0005205}, {"fusion_lat": 0.0, "type": "electric_bike", "name": "720e9c999ed6e10ff6eb3faf4f732427", "fusion_lon": 0.0, "bike_id": "720e9c999ed6e10ff6eb3faf4f732427", "is_reserved": 0, "rental_uris": {"android": "https://dc.lft.to/lastmile_qr_scan", "ios": "https://dc.lft.to/lastmile_qr_scan"}, "lat": 38.864887333333336, "is_disabled": 0, "lon": -76.977489}, {"fusion_lat": 0.0, "type": "electric_bike", "name": "eb5e9b32a7a02c548fe44264da0a44d5", "fusion_lon": 0.0, "bike_id": "eb5e9b32a7a02c548fe44264da0a44d5", "is_reserved": 0, "rental_uris": {"android": "https://dc.lft.to/lastmile_qr_scan", "ios": "https://dc.lft.to/lastmile_qr_scan"}, "lat": 38.953265333333334, "is_disabled": 0, "lon": -76.98240233333334}, {"fusion_lat": 0.0, "type": "electric_scooter", "name": "cce24344117576e0b98519b288d4e2e1", "fusion_lon": 0.0, "bike_id": "cce24344117576e0b98519b288d4e2e1", "is_reserved": 0, "rental_uris": {"android": "https://dc.lft.to/lastmile_qr_scan", "ios": "https://dc.lft.to/lastmile_qr_scan"}, "lat": 38.932149, "is_disabled": 0, "lon": -77.02826916666666}, {"fusion_lat": 0.0, "type": "electric_scooter", "name": "915c6912c8ad899b0c61083faef93735", "fusion_lon": 0.0, "bike_id": "915c6912c8ad899b0c61083faef93735", "is_reserved": 0, "rental_uris": {"android": "https://dc.lft.to/lastmile_qr_scan", "ios": "https://dc.lft.to/lastmile_qr_scan"}, "lat": 38.98452316666667, "is_disabled": 0, "lon": -77.0264695}, {"fusion_lat": 0.0, "type": "electric_bike", "name": "1efc9b30031ceabe94ac39146520015e", "fusion_lon": 0.0, "bike_id": "1efc9b30031ceabe94ac39146520015e", "is_reserved": 0, "rental_uris": {"android": "https://dc.lft.to/lastmile_qr_scan", "ios": "https://dc.lft.to/lastmile_qr_scan"}, "lat": 38.93295283333333, "is_disabled": 0, "lon": -77.02291433333333}, {"fusion_lat": 0.0, "type": "electric_scooter", "name": "346a28d0dd084418a0be7203c5b6fff6", "fusion_lon": 0.0, "bike_id": "346a28d0dd084418a0be7203c5b6fff6", "is_reserved": 0, "rental_uris": {"android": "https://dc.lft.to/lastmile_qr_scan", "ios": "https://dc.lft.to/lastmile_qr_scan"}, "lat": 38.869917666666666, "is_disabled": 0, "lon": -76.97594466666666}, {"fusion_lat": 0.0, "type": "electric_scooter", "name": "8bfa14c400572f57bc1624c58fb6518e", "fusion_lon": 0.0, "bike_id": "8bfa14c400572f57bc1624c58fb6518e", "is_reserved": 0, "rental_uris": {"android": "https://dc.lft.to/lastmile_qr_scan", "ios": "https://dc.lft.to/lastmile_qr_scan"}, "lat": 38.92061133333333, "is_disabled": 0, "lon": -77.02363433333333}, {"fusion_lat": 0.0, "type": "electric_bike", "name": "cd0224b1f1ca1281e3cc0eb00b9fa4e2", "fusion_lon": 0.0, "bike_id": "cd0224b1f1ca1281e3cc0eb00b9fa4e2", "is_reserved": 0, "rental_uris": {"android": "https://dc.lft.to/lastmile_qr_scan", "ios": "https://dc.lft.to/lastmile_qr_scan"}, "lat": 39.052788666666665, "is_disabled": 0, "lon": -77.08069233333333}, {"fusion_lat": 0.0, "type": "electric_scooter", "name": "3e293dd01c563fdfbf935afcf7a03bef", "fusion_lon": 0.0, "bike_id": "3e293dd01c563fdfbf935afcf7a03bef", "is_reserved": 0, "rental_uris": {"android": "https://dc.lft.to/lastmile_qr_scan", "ios": "https://dc.lft.to/lastmile_qr_scan"}, "lat": 38.90852316666667, "is_disabled": 0, "lon": -77.045733}, {"fusion_lat": 0.0, "type": "electric_scooter", "name": "b429b9a7b7cec3cdd9582e3598640810", "fusion_lon": 0.0, "bike_id": "b429b9a7b7cec3cdd9582e3598640810", "is_reserved": 0, "rental_uris": {"android": "https://dc.lft.to/lastmile_qr_scan", "ios": "https://dc.lft.to/lastmile_qr_scan"}, "lat": 38.890807333333335, "is_disabled": 0, "lon": -77.04042266666667}, {"fusion_lat": 0.0, "type": "electric_scooter", "name": "959eb210d0799428b70e160498099f92", "fusion_lon": 0.0, "bike_id": "959eb210d0799428b70e160498099f92", "is_reserved": 0, "rental_uris": {"android": "https://dc.lft.to/lastmile_qr_scan", "ios": "https://dc.lft.to/lastmile_qr_scan"}, "lat": 38.902562833333334, "is_disabled": 0, "lon": -76.9955645}, {"fusion_lat": 0.0, "type": "electric_bike", "name": "81d1513e3ab12e9a400bfa780f9c06b2", "fusion_lon": 0.0, "bike_id": "81d1513e3ab12e9a400bfa780f9c06b2", "is_reserved": 0, "rental_uris": {"android": "https://dc.lft.to/lastmile_qr_scan", "ios": "https://dc.lft.to/lastmile_qr_scan"}, "lat": 38.96101383333333, "is_disabled": 0, "lon": -76.92812383333333}, {"fusion_lat": 0.0, "type": "electric_scooter", "name": "8a6120efa14a2ad70605c14a5aa8a3a5", "fusion_lon": 0.0, "bike_id": "8a6120efa14a2ad70605c14a5aa8a3a5", "is_reserved": 0, "rental_uris": {"android": "https://dc.lft.to/lastmile_qr_scan", "ios": "https://dc.lft.to/lastmile_qr_scan"}, "lat": 38.887259, "is_disabled": 0, "lon": -77.02824983333333}, {"fusion_lat": 0.0, "type": "electric_scooter", "name": "8dfe68828232c2c3ea92ddd28ae78da9", "fusion_lon": 0.0, "bike_id": "8dfe68828232c2c3ea92ddd28ae78da9", "is_reserved": 0, "rental_uris": {"android": "https://dc.lft.to/lastmile_qr_scan", "ios": "https://dc.lft.to/lastmile_qr_scan"}, "lat": 38.87195466666667, "is_disabled": 0, "lon": -77.01073433333333}, {"fusion_lat": 0.0, "type": "electric_scooter", "name": "0d8ca6e50896ae5d02df6b1b46fcc364", "fusion_lon": 0.0, "bike_id": "0d8ca6e50896ae5d02df6b1b46fcc364", "is_reserved": 0, "rental_uris": {"android": "https://dc.lft.to/lastmile_qr_scan", "ios": "https://dc.lft.to/lastmile_qr_scan"}, "lat": 38.895011833333335, "is_disabled": 0, "lon": -77.00331966666667}, {"fusion_lat": 0.0, "type": "electric_scooter", "name": "8e798b84adb853bf47b4712303cfb808", "fusion_lon": 0.0, "bike_id": "8e798b84adb853bf47b4712303cfb808", "is_reserved": 0, "rental_uris": {"android": "https://dc.lft.to/lastmile_qr_scan", "ios": "https://dc.lft.to/lastmile_qr_scan"}, "lat": 38.918187, "is_disabled": 0, "lon": -77.03726583333334}, {"fusion_lat": 0.0, "type": "electric_scooter", "name": "2b1e1e9acb36aa2c1859c3704b5f6f04", "fusion_lon": 0.0, "bike_id": "2b1e1e9acb36aa2c1859c3704b5f6f04", "is_reserved": 0, "rental_uris": {"android": "https://dc.lft.to/lastmile_qr_scan", "ios": "https://dc.lft.to/lastmile_qr_scan"}, "lat": 38.924242666666665, "is_disabled": 0, "lon": -77.01936633333334}, {"fusion_lat": 0.0, "type": "electric_bike", "name": "0b41226b4177aba5d5b2e079cb775efc", "fusion_lon": 0.0, "bike_id": "0b41226b4177aba5d5b2e079cb775efc", "is_reserved": 0, "rental_uris": {"android": "https://dc.lft.to/lastmile_qr_scan", "ios": "https://dc.lft.to/lastmile_qr_scan"}, "lat": 38.953285666666666, "is_disabled": 0, "lon": -76.954403}, {"fusion_lat": 0.0, "type": "electric_scooter", "name": "29dd0219ac6e1117e250971a8a22ebe6", "fusion_lon": 0.0, "bike_id": "29dd0219ac6e1117e250971a8a22ebe6", "is_reserved": 0, "rental_uris": {"android": "https://dc.lft.to/lastmile_qr_scan", "ios": "https://dc.lft.to/lastmile_qr_scan"}, "lat": 38.8989775, "is_disabled": 0, "lon": -76.99383266666666}, {"fusion_lat": 0.0, "type": "electric_scooter", "name": "28ff5d9b2a22ed288e2514c355d141c4", "fusion_lon": 0.0, "bike_id": "28ff5d9b2a22ed288e2514c355d141c4", "is_reserved": 0, "rental_uris": {"android": "https://dc.lft.to/lastmile_qr_scan", "ios": "https://dc.lft.to/lastmile_qr_scan"}, "lat": 38.91639933333333, "is_disabled": 0, "lon": -77.04802366666667}, {"fusion_lat": 0.0, "type": "electric_scooter", "name": "938c546bc9125a846df93041aee550a4", "fusion_lon": 0.0, "bike_id": "938c546bc9125a846df93041aee550a4", "is_reserved": 0, "rental_uris": {"android": "https://dc.lft.to/lastmile_qr_scan", "ios": "https://dc.lft.to/lastmile_qr_scan"}, "lat": 38.892269666666664, "is_disabled": 0, "lon": -77.0499945}, {"fusion_lat": 0.0, "type": "electric_scooter", "name": "2e0a64b7037678b2ea2cdabc7564cc5e", "fusion_lon": 0.0, "bike_id": "2e0a64b7037678b2ea2cdabc7564cc5e", "is_reserved": 0, "rental_uris": {"android": "https://dc.lft.to/lastmile_qr_scan", "ios": "https://dc.lft.to/lastmile_qr_scan"}, "lat": 38.9112655, "is_disabled": 0, "lon": -77.022035}, {"fusion_lat": 0.0, "type": "electric_scooter", "name": "a0271242ee1bca77dd95bc02644ee653", "fusion_lon": 0.0, "bike_id": "a0271242ee1bca77dd95bc02644ee653", "is_reserved": 0, "rental_uris": {"android": "https://dc.lft.to/lastmile_qr_scan", "ios": "https://dc.lft.to/lastmile_qr_scan"}, "lat": 38.95282366666667, "is_disabled": 0, "lon": -77.068617}, {"fusion_lat": 0.0, "type": "electric_scooter", "name": "2bb2b50046b0a861a97a3150c91a91f7", "fusion_lon": 0.0, "bike_id": "2bb2b50046b0a861a97a3150c91a91f7", "is_reserved": 0, "rental_uris": {"android": "https://dc.lft.to/lastmile_qr_scan", "ios": "https://dc.lft.to/lastmile_qr_scan"}, "lat": 38.9262415, "is_disabled": 0, "lon": -77.0432915}, {"fusion_lat": 0.0, "type": "electric_scooter", "name": "f08ff8d6fbaadeb97536cf1bc61b235c", "fusion_lon": 0.0, "bike_id": "f08ff8d6fbaadeb97536cf1bc61b235c", "is_reserved": 0, "rental_uris": {"android": "https://dc.lft.to/lastmile_qr_scan", "ios": "https://dc.lft.to/lastmile_qr_scan"}, "lat": 38.92473366666667, "is_disabled": 0, "lon": -77.02667366666667}, {"fusion_lat": 0.0, "type": "electric_scooter", "name": "c1bd913872b14e2ff8042e5599e81e43", "fusion_lon": 0.0, "bike_id": "c1bd913872b14e2ff8042e5599e81e43", "is_reserved": 0, "rental_uris": {"android": "https://dc.lft.to/lastmile_qr_scan", "ios": "https://dc.lft.to/lastmile_qr_scan"}, "lat": 38.89633933333333, "is_disabled": 0, "lon": -77.032044}, {"fusion_lat": 0.0, "type": "electric_scooter", "name": "c49ed81c3556ec0f3138065bd164b1ab", "fusion_lon": 0.0, "bike_id": "c49ed81c3556ec0f3138065bd164b1ab", "is_reserved": 0, "rental_uris": {"android": "https://dc.lft.to/lastmile_qr_scan", "ios": "https://dc.lft.to/lastmile_qr_scan"}, "lat": 38.92458283333333, "is_disabled": 0, "lon": -77.02981366666667}, {"fusion_lat": 0.0, "type": "electric_scooter", "name": "fd1dc5562e9e9db8a035a05bf4374d7d", "fusion_lon": 0.0, "bike_id": "fd1dc5562e9e9db8a035a05bf4374d7d", "is_reserved": 0, "rental_uris": {"android": "https://dc.lft.to/lastmile_qr_scan", "ios": "https://dc.lft.to/lastmile_qr_scan"}, "lat": 38.9518525, "is_disabled": 0, "lon": -77.0261955}, {"fusion_lat": 0.0, "type": "electric_scooter", "name": "0a5670a653ba3ec7d523f995e1924b1b", "fusion_lon": 0.0, "bike_id": "0a5670a653ba3ec7d523f995e1924b1b", "is_reserved": 0, "rental_uris": {"android": "https://dc.lft.to/lastmile_qr_scan", "ios": "https://dc.lft.to/lastmile_qr_scan"}, "lat": 38.9215755, "is_disabled": 0, "lon": -77.03379133333334}, {"fusion_lat": 0.0, "type": "electric_scooter", "name": "0dd7904277ebb2c472b196b6a8d2abb3", "fusion_lon": 0.0, "bike_id": "0dd7904277ebb2c472b196b6a8d2abb3", "is_reserved": 0, "rental_uris": {"android": "https://dc.lft.to/lastmile_qr_scan", "ios": "https://dc.lft.to/lastmile_qr_scan"}, "lat": 38.889139166666666, "is_disabled": 0, "lon": -77.04909733333334}, {"fusion_lat": 0.0, "type": "electric_scooter", "name": "aff465fe8a76c86dbcdd9e6922e9ca61", "fusion_lon": 0.0, "bike_id": "aff465fe8a76c86dbcdd9e6922e9ca61", "is_reserved": 0, "rental_uris": {"android": "https://dc.lft.to/lastmile_qr_scan", "ios": "https://dc.lft.to/lastmile_qr_scan"}, "lat": 38.909721, "is_disabled": 0, "lon": -77.03443666666666}, {"fusion_lat": 0.0, "type": "electric_bike", "name": "5e1d50073be26a183117994d36a39d31", "fusion_lon": 0.0, "bike_id": "5e1d50073be26a183117994d36a39d31", "is_reserved": 0, "rental_uris": {"android": "https://dc.lft.to/lastmile_qr_scan", "ios": "https://dc.lft.to/lastmile_qr_scan"}, "lat": 38.93226283333333, "is_disabled": 0, "lon": -77.18122316666667}, {"fusion_lat": 0.0, "type": "electric_scooter", "name": "4000c4beb8f0586024a3d6f9134cb1ce", "fusion_lon": 0.0, "bike_id": "4000c4beb8f0586024a3d6f9134cb1ce", "is_reserved": 0, "rental_uris": {"android": "https://dc.lft.to/lastmile_qr_scan", "ios": "https://dc.lft.to/lastmile_qr_scan"}, "lat": 38.90304716666667, "is_disabled": 0, "lon": -77.05050983333334}, {"fusion_lat": 0.0, "type": "electric_scooter", "name": "05b6896af19d2b72fa31c6efc70718d7", "fusion_lon": 0.0, "bike_id": "05b6896af19d2b72fa31c6efc70718d7", "is_reserved": 0, "rental_uris": {"android": "https://dc.lft.to/lastmile_qr_scan", "ios": "https://dc.lft.to/lastmile_qr_scan"}, "lat": 38.916784, "is_disabled": 0, "lon": -77.03692433333333}, {"fusion_lat": 0.0, "type": "electric_scooter", "name": "aa941e272d8b356ac4fc2ea70e26f34c", "fusion_lon": 0.0, "bike_id": "aa941e272d8b356ac4fc2ea70e26f34c", "is_reserved": 0, "rental_uris": {"android": "https://dc.lft.to/lastmile_qr_scan", "ios": "https://dc.lft.to/lastmile_qr_scan"}, "lat": 38.91840283333333, "is_disabled": 0, "lon": -77.05955016666667}, {"fusion_lat": 0.0, "type": "electric_scooter", "name": "db0b758f4e7060d5d2f4b58c3206c940", "fusion_lon": 0.0, "bike_id": "db0b758f4e7060d5d2f4b58c3206c940", "is_reserved": 0, "rental_uris": {"android": "https://dc.lft.to/lastmile_qr_scan", "ios": "https://dc.lft.to/lastmile_qr_scan"}, "lat": 38.913724333333334, "is_disabled": 0, "lon": -77.03138516666667}, {"fusion_lat": 0.0, "type": "electric_scooter", "name": "58bda9b31734c16af4c8d64a95fa21ea", "fusion_lon": 0.0, "bike_id": "58bda9b31734c16af4c8d64a95fa21ea", "is_reserved": 0, "rental_uris": {"android": "https://dc.lft.to/lastmile_qr_scan", "ios": "https://dc.lft.to/lastmile_qr_scan"}, "lat": 38.9159575, "is_disabled": 0, "lon": -77.03202866666666}, {"fusion_lat": 0.0, "type": "electric_scooter", "name": "495cfceafe23732ecba324e82d893e1c", "fusion_lon": 0.0, "bike_id": "495cfceafe23732ecba324e82d893e1c", "is_reserved": 0, "rental_uris": {"android": "https://dc.lft.to/lastmile_qr_scan", "ios": "https://dc.lft.to/lastmile_qr_scan"}, "lat": 38.9197775, "is_disabled": 0, "lon": -77.01207333333333}, {"fusion_lat": 0.0, "type": "electric_scooter", "name": "4408c01f8f7ed20ec59283d130b9de9a", "fusion_lon": 0.0, "bike_id": "4408c01f8f7ed20ec59283d130b9de9a", "is_reserved": 0, "rental_uris": {"android": "https://dc.lft.to/lastmile_qr_scan", "ios": "https://dc.lft.to/lastmile_qr_scan"}, "lat": 38.92822433333333, "is_disabled": 0, "lon": -77.02155666666667}, {"fusion_lat": 0.0, "type": "electric_scooter", "name": "4336bbfa1c2b17d13e597e2aad402b06", "fusion_lon": 0.0, "bike_id": "4336bbfa1c2b17d13e597e2aad402b06", "is_reserved": 0, "rental_uris": {"android": "https://dc.lft.to/lastmile_qr_scan", "ios": "https://dc.lft.to/lastmile_qr_scan"}, "lat": 38.8844925, "is_disabled": 0, "lon": -76.929483}, {"fusion_lat": 0.0, "type": "electric_scooter", "name": "9564186acf6abb7aef0b599dbb76adf0", "fusion_lon": 0.0, "bike_id": "9564186acf6abb7aef0b599dbb76adf0", "is_reserved": 0, "rental_uris": {"android": "https://dc.lft.to/lastmile_qr_scan", "ios": "https://dc.lft.to/lastmile_qr_scan"}, "lat": 38.996025833333334, "is_disabled": 0, "lon": -77.03211233333333}, {"fusion_lat": 0.0, "type": "electric_scooter", "name": "bc8d8f7966c87a90ec68c0bd7ba4b084", "fusion_lon": 0.0, "bike_id": "bc8d8f7966c87a90ec68c0bd7ba4b084", "is_reserved": 0, "rental_uris": {"android": "https://dc.lft.to/lastmile_qr_scan", "ios": "https://dc.lft.to/lastmile_qr_scan"}, "lat": 38.9394995, "is_disabled": 0, "lon": -77.0249285}, {"fusion_lat": 0.0, "type": "electric_scooter", "name": "107645a35cab64dca7ebf3f27e2110d2", "fusion_lon": 0.0, "bike_id": "107645a35cab64dca7ebf3f27e2110d2", "is_reserved": 0, "rental_uris": {"android": "https://dc.lft.to/lastmile_qr_scan", "ios": "https://dc.lft.to/lastmile_qr_scan"}, "lat": 38.905818833333335, "is_disabled": 0, "lon": -77.02588466666667}, {"fusion_lat": 0.0, "type": "electric_scooter", "name": "13d7f2b2844b6c98f3a4e5496d013e1a", "fusion_lon": 0.0, "bike_id": "13d7f2b2844b6c98f3a4e5496d013e1a", "is_reserved": 0, "rental_uris": {"android": "https://dc.lft.to/lastmile_qr_scan", "ios": "https://dc.lft.to/lastmile_qr_scan"}, "lat": 38.904692, "is_disabled": 0, "lon": -76.98060083333333}, {"fusion_lat": 0.0, "type": "electric_scooter", "name": "8a57405d09d75210835c8a5df9ae2999", "fusion_lon": 0.0, "bike_id": "8a57405d09d75210835c8a5df9ae2999", "is_reserved": 0, "rental_uris": {"android": "https://dc.lft.to/lastmile_qr_scan", "ios": "https://dc.lft.to/lastmile_qr_scan"}, "lat": 38.892318333333336, "is_disabled": 0, "lon": -77.02383466666667}, {"fusion_lat": 0.0, "type": "electric_scooter", "name": "8117c3e5fd8da39748611cce6f29743f", "fusion_lon": 0.0, "bike_id": "8117c3e5fd8da39748611cce6f29743f", "is_reserved": 0, "rental_uris": {"android": "https://dc.lft.to/lastmile_qr_scan", "ios": "https://dc.lft.to/lastmile_qr_scan"}, "lat": 38.872463333333336, "is_disabled": 0, "lon": -76.977259}, {"fusion_lat": 0.0, "type": "electric_scooter", "name": "899d36584dad0483df41d3984f9c9d90", "fusion_lon": 0.0, "bike_id": "899d36584dad0483df41d3984f9c9d90", "is_reserved": 0, "rental_uris": {"android": "https://dc.lft.to/lastmile_qr_scan", "ios": "https://dc.lft.to/lastmile_qr_scan"}, "lat": 38.89987633333333, "is_disabled": 0, "lon": -77.00121966666667}, {"fusion_lat": 0.0, "type": "electric_scooter", "name": "a62857cf2b7307bb67e0380b38cc7a98", "fusion_lon": 0.0, "bike_id": "a62857cf2b7307bb67e0380b38cc7a98", "is_reserved": 0, "rental_uris": {"android": "https://dc.lft.to/lastmile_qr_scan", "ios": "https://dc.lft.to/lastmile_qr_scan"}, "lat": 38.91093883333333, "is_disabled": 0, "lon": -77.0448165}, {"fusion_lat": 0.0, "type": "electric_scooter", "name": "5c4556b50459924b4bdb9269a976215f", "fusion_lon": 0.0, "bike_id": "5c4556b50459924b4bdb9269a976215f", "is_reserved": 0, "rental_uris": {"android": "https://dc.lft.to/lastmile_qr_scan", "ios": "https://dc.lft.to/lastmile_qr_scan"}, "lat": 38.89352266666667, "is_disabled": 0, "lon": -77.02225883333334}, {"fusion_lat": 0.0, "type": "electric_scooter", "name": "dffc29e9b7a968fee20db8f31e1c18f6", "fusion_lon": 0.0, "bike_id": "dffc29e9b7a968fee20db8f31e1c18f6", "is_reserved": 0, "rental_uris": {"android": "https://dc.lft.to/lastmile_qr_scan", "ios": "https://dc.lft.to/lastmile_qr_scan"}, "lat": 38.900234166666664, "is_disabled": 0, "lon": -77.043709}, {"fusion_lat": 0.0, "type": "electric_scooter", "name": "5ebb79c42806cdb85d8a99bd90ff24bb", "fusion_lon": 0.0, "bike_id": "5ebb79c42806cdb85d8a99bd90ff24bb", "is_reserved": 0, "rental_uris": {"android": "https://dc.lft.to/lastmile_qr_scan", "ios": "https://dc.lft.to/lastmile_qr_scan"}, "lat": 38.8932645, "is_disabled": 0, "lon": -77.04674633333333}, {"fusion_lat": 0.0, "type": "electric_scooter", "name": "6402d3e0688452476fd4e58f1e70cbb8", "fusion_lon": 0.0, "bike_id": "6402d3e0688452476fd4e58f1e70cbb8", "is_reserved": 0, "rental_uris": {"android": "https://dc.lft.to/lastmile_qr_scan", "ios": "https://dc.lft.to/lastmile_qr_scan"}, "lat": 38.915459, "is_disabled": 0, "lon": -77.0385415}, {"fusion_lat": 0.0, "type": "electric_bike", "name": "005dbc30f23f15fa09bde3054877773c", "fusion_lon": 0.0, "bike_id": "005dbc30f23f15fa09bde3054877773c", "is_reserved": 0, "rental_uris": {"android": "https://dc.lft.to/lastmile_qr_scan", "ios": "https://dc.lft.to/lastmile_qr_scan"}, "lat": 38.884037, "is_disabled": 0, "lon": -76.96058566666666}, {"fusion_lat": 0.0, "type": "electric_scooter", "name": "6420862cb1cc837a25d919ee492e820e", "fusion_lon": 0.0, "bike_id": "6420862cb1cc837a25d919ee492e820e", "is_reserved": 0, "rental_uris": {"android": "https://dc.lft.to/lastmile_qr_scan", "ios": "https://dc.lft.to/lastmile_qr_scan"}, "lat": 38.922000833333335, "is_disabled": 0, "lon": -77.0298905}, {"fusion_lat": 0.0, "type": "electric_scooter", "name": "9c64d9ff05e6725f1ef53ae74f0c70f6", "fusion_lon": 0.0, "bike_id": "9c64d9ff05e6725f1ef53ae74f0c70f6", "is_reserved": 0, "rental_uris": {"android": "https://dc.lft.to/lastmile_qr_scan", "ios": "https://dc.lft.to/lastmile_qr_scan"}, "lat": 38.927016, "is_disabled": 0, "lon": -77.020747}, {"fusion_lat": 0.0, "type": "electric_scooter", "name": "db00e607aa8b2901d81f89fc0a628785", "fusion_lon": 0.0, "bike_id": "db00e607aa8b2901d81f89fc0a628785", "is_reserved": 0, "rental_uris": {"android": "https://dc.lft.to/lastmile_qr_scan", "ios": "https://dc.lft.to/lastmile_qr_scan"}, "lat": 38.892259833333334, "is_disabled": 0, "lon": -77.00218933333333}, {"fusion_lat": 0.0, "type": "electric_scooter", "name": "ca41874992c556d1982feab319f53218", "fusion_lon": 0.0, "bike_id": "ca41874992c556d1982feab319f53218", "is_reserved": 0, "rental_uris": {"android": "https://dc.lft.to/lastmile_qr_scan", "ios": "https://dc.lft.to/lastmile_qr_scan"}, "lat": 38.917943, "is_disabled": 0, "lon": -77.0404055}, {"fusion_lat": 0.0, "type": "electric_scooter", "name": "6d7c139e94d36fa49d79f05fed380537", "fusion_lon": 0.0, "bike_id": "6d7c139e94d36fa49d79f05fed380537", "is_reserved": 0, "rental_uris": {"android": "https://dc.lft.to/lastmile_qr_scan", "ios": "https://dc.lft.to/lastmile_qr_scan"}, "lat": 38.91714433333333, "is_disabled": 0, "lon": -77.02403183333334}, {"fusion_lat": 0.0, "type": "electric_scooter", "name": "8657d402c5cd86b3fd8586eed6092bfb", "fusion_lon": 0.0, "bike_id": "8657d402c5cd86b3fd8586eed6092bfb", "is_reserved": 0, "rental_uris": {"android": "https://dc.lft.to/lastmile_qr_scan", "ios": "https://dc.lft.to/lastmile_qr_scan"}, "lat": 38.9118165, "is_disabled": 0, "lon": -77.04464416666667}, {"fusion_lat": 0.0, "type": "electric_scooter", "name": "6dbdea2ffd68c03ce4e1855e663e8d8e", "fusion_lon": 0.0, "bike_id": "6dbdea2ffd68c03ce4e1855e663e8d8e", "is_reserved": 0, "rental_uris": {"android": "https://dc.lft.to/lastmile_qr_scan", "ios": "https://dc.lft.to/lastmile_qr_scan"}, "lat": 38.916836, "is_disabled": 0, "lon": -77.03209166666667}, {"fusion_lat": 0.0, "type": "electric_scooter", "name": "4a6ec66b4ce487b234fa518d30689bba", "fusion_lon": 0.0, "bike_id": "4a6ec66b4ce487b234fa518d30689bba", "is_reserved": 0, "rental_uris": {"android": "https://dc.lft.to/lastmile_qr_scan", "ios": "https://dc.lft.to/lastmile_qr_scan"}, "lat": 38.928517, "is_disabled": 0, "lon": -77.02006133333333}, {"fusion_lat": 0.0, "type": "electric_scooter", "name": "19719e868495567ba9e1ccda97de6043", "fusion_lon": 0.0, "bike_id": "19719e868495567ba9e1ccda97de6043", "is_reserved": 0, "rental_uris": {"android": "https://dc.lft.to/lastmile_qr_scan", "ios": "https://dc.lft.to/lastmile_qr_scan"}, "lat": 38.908106, "is_disabled": 0, "lon": -77.034319}, {"fusion_lat": 0.0, "type": "electric_scooter", "name": "23947233a49ce6b704e7720cf546bce7", "fusion_lon": 0.0, "bike_id": "23947233a49ce6b704e7720cf546bce7", "is_reserved": 0, "rental_uris": {"android": "https://dc.lft.to/lastmile_qr_scan", "ios": "https://dc.lft.to/lastmile_qr_scan"}, "lat": 38.90545866666667, "is_disabled": 0, "lon": -77.05012283333333}, {"fusion_lat": 0.0, "type": "electric_scooter", "name": "1544a9222c92415bfadac1e1825c4ea1", "fusion_lon": 0.0, "bike_id": "1544a9222c92415bfadac1e1825c4ea1", "is_reserved": 0, "rental_uris": {"android": "https://dc.lft.to/lastmile_qr_scan", "ios": "https://dc.lft.to/lastmile_qr_scan"}, "lat": 38.923712, "is_disabled": 0, "lon": -77.05053133333334}, {"fusion_lat": 0.0, "type": "electric_bike", "name": "0cf5019dc73c5d6b11a3d66bea9a5792", "fusion_lon": 0.0, "bike_id": "0cf5019dc73c5d6b11a3d66bea9a5792", "is_reserved": 0, "rental_uris": {"android": "https://dc.lft.to/lastmile_qr_scan", "ios": "https://dc.lft.to/lastmile_qr_scan"}, "lat": 38.880441833333336, "is_disabled": 0, "lon": -77.0112665}, {"fusion_lat": 0.0, "type": "electric_scooter", "name": "b4b5e935a7ceb8461d2e8b9d4162e8f0", "fusion_lon": 0.0, "bike_id": "b4b5e935a7ceb8461d2e8b9d4162e8f0", "is_reserved": 0, "rental_uris": {"android": "https://dc.lft.to/lastmile_qr_scan", "ios": "https://dc.lft.to/lastmile_qr_scan"}, "lat": 38.9167955, "is_disabled": 0, "lon": -77.029445}, {"fusion_lat": 0.0, "type": "electric_scooter", "name": "eba54e731316c7ed13a8f43d4596dc5c", "fusion_lon": 0.0, "bike_id": "eba54e731316c7ed13a8f43d4596dc5c", "is_reserved": 0, "rental_uris": {"android": "https://dc.lft.to/lastmile_qr_scan", "ios": "https://dc.lft.to/lastmile_qr_scan"}, "lat": 38.883448666666666, "is_disabled": 0, "lon": -76.98552866666667}, {"fusion_lat": 0.0, "type": "electric_scooter", "name": "d31bf70c25a20b12785324ea047229ee", "fusion_lon": 0.0, "bike_id": "d31bf70c25a20b12785324ea047229ee", "is_reserved": 0, "rental_uris": {"android": "https://dc.lft.to/lastmile_qr_scan", "ios": "https://dc.lft.to/lastmile_qr_scan"}, "lat": 38.931825, "is_disabled": 0, "lon": -77.038454}, {"fusion_lat": 0.0, "type": "electric_scooter", "name": "06b9649d0fc9f5ba047ade24ee939d08", "fusion_lon": 0.0, "bike_id": "06b9649d0fc9f5ba047ade24ee939d08", "is_reserved": 0, "rental_uris": {"android": "https://dc.lft.to/lastmile_qr_scan", "ios": "https://dc.lft.to/lastmile_qr_scan"}, "lat": 38.8669635, "is_disabled": 0, "lon": -76.98711766666666}, {"fusion_lat": 0.0, "type": "electric_scooter", "name": "2aa69a3d86777f5c3f14a532861b0d88", "fusion_lon": 0.0, "bike_id": "2aa69a3d86777f5c3f14a532861b0d88", "is_reserved": 0, "rental_uris": {"android": "https://dc.lft.to/lastmile_qr_scan", "ios": "https://dc.lft.to/lastmile_qr_scan"}, "lat": 38.925011833333336, "is_disabled": 0, "lon": -77.05756683333334}, {"fusion_lat": 0.0, "type": "electric_scooter", "name": "69dbb4bc01606a78fc5ec6c50407126b", "fusion_lon": 0.0, "bike_id": "69dbb4bc01606a78fc5ec6c50407126b", "is_reserved": 0, "rental_uris": {"android": "https://dc.lft.to/lastmile_qr_scan", "ios": "https://dc.lft.to/lastmile_qr_scan"}, "lat": 38.892249166666666, "is_disabled": 0, "lon": -77.0318235}, {"fusion_lat": 0.0, "type": "electric_scooter", "name": "83862a0c467868fb7f892850a1c8e8c2", "fusion_lon": 0.0, "bike_id": "83862a0c467868fb7f892850a1c8e8c2", "is_reserved": 0, "rental_uris": {"android": "https://dc.lft.to/lastmile_qr_scan", "ios": "https://dc.lft.to/lastmile_qr_scan"}, "lat": 38.90470783333333, "is_disabled": 0, "lon": -77.03914866666666}, {"fusion_lat": 0.0, "type": "electric_bike", "name": "6cd9d88294d93d2aab641f482c9a2423", "fusion_lon": 0.0, "bike_id": "6cd9d88294d93d2aab641f482c9a2423", "is_reserved": 0, "rental_uris": {"android": "https://dc.lft.to/lastmile_qr_scan", "ios": "https://dc.lft.to/lastmile_qr_scan"}, "lat": 38.992244666666664, "is_disabled": 0, "lon": -77.03217183333334}, {"fusion_lat": 0.0, "type": "electric_scooter", "name": "2dfcd7c8cab1515c6643994b06e7da29", "fusion_lon": 0.0, "bike_id": "2dfcd7c8cab1515c6643994b06e7da29", "is_reserved": 0, "rental_uris": {"android": "https://dc.lft.to/lastmile_qr_scan", "ios": "https://dc.lft.to/lastmile_qr_scan"}, "lat": 38.92198233333333, "is_disabled": 0, "lon": -77.029798}, {"fusion_lat": 0.0, "type": "electric_scooter", "name": "4d44c5681b3bca240c48136b51df29b8", "fusion_lon": 0.0, "bike_id": "4d44c5681b3bca240c48136b51df29b8", "is_reserved": 0, "rental_uris": {"android": "https://dc.lft.to/lastmile_qr_scan", "ios": "https://dc.lft.to/lastmile_qr_scan"}, "lat": 38.91340983333333, "is_disabled": 0, "lon": -77.00926166666666}, {"fusion_lat": 0.0, "type": "electric_scooter", "name": "8381380ad60f9657392170a7e5a3e712", "fusion_lon": 0.0, "bike_id": "8381380ad60f9657392170a7e5a3e712", "is_reserved": 0, "rental_uris": {"android": "https://dc.lft.to/lastmile_qr_scan", "ios": "https://dc.lft.to/lastmile_qr_scan"}, "lat": 38.901496333333334, "is_disabled": 0, "lon": -76.990219}, {"fusion_lat": 0.0, "type": "electric_scooter", "name": "35615601bf4068620d34fb4afabafb62", "fusion_lon": 0.0, "bike_id": "35615601bf4068620d34fb4afabafb62", "is_reserved": 0, "rental_uris": {"android": "https://dc.lft.to/lastmile_qr_scan", "ios": "https://dc.lft.to/lastmile_qr_scan"}, "lat": 38.909584333333335, "is_disabled": 0, "lon": -77.03208866666667}, {"fusion_lat": 0.0, "type": "electric_bike", "name": "d7e4fe0c92858fc46cca357a9b28c01f", "fusion_lon": 0.0, "bike_id": "d7e4fe0c92858fc46cca357a9b28c01f", "is_reserved": 0, "rental_uris": {"android": "https://dc.lft.to/lastmile_qr_scan", "ios": "https://dc.lft.to/lastmile_qr_scan"}, "lat": 38.96793683333333, "is_disabled": 0, "lon": -77.00038583333334}, {"fusion_lat": 0.0, "type": "electric_scooter", "name": "048530eea35726320f0c6a5ab83d0f60", "fusion_lon": 0.0, "bike_id": "048530eea35726320f0c6a5ab83d0f60", "is_reserved": 0, "rental_uris": {"android": "https://dc.lft.to/lastmile_qr_scan", "ios": "https://dc.lft.to/lastmile_qr_scan"}, "lat": 38.900282, "is_disabled": 0, "lon": -76.98437683333333}, {"fusion_lat": 0.0, "type": "electric_scooter", "name": "33ba3cd02970c8368746cb51d9647f1d", "fusion_lon": 0.0, "bike_id": "33ba3cd02970c8368746cb51d9647f1d", "is_reserved": 0, "rental_uris": {"android": "https://dc.lft.to/lastmile_qr_scan", "ios": "https://dc.lft.to/lastmile_qr_scan"}, "lat": 38.913221166666666, "is_disabled": 0, "lon": -77.0145825}, {"fusion_lat": 0.0, "type": "electric_scooter", "name": "d760d3a42b4c954476cbef526a42da11", "fusion_lon": 0.0, "bike_id": "d760d3a42b4c954476cbef526a42da11", "is_reserved": 0, "rental_uris": {"android": "https://dc.lft.to/lastmile_qr_scan", "ios": "https://dc.lft.to/lastmile_qr_scan"}, "lat": 38.903906666666664, "is_disabled": 0, "lon": -77.062689}, {"fusion_lat": 0.0, "type": "electric_scooter", "name": "36c69e9f34d1ff93787cc0d0b15a6308", "fusion_lon": 0.0, "bike_id": "36c69e9f34d1ff93787cc0d0b15a6308", "is_reserved": 0, "rental_uris": {"android": "https://dc.lft.to/lastmile_qr_scan", "ios": "https://dc.lft.to/lastmile_qr_scan"}, "lat": 38.9096835, "is_disabled": 0, "lon": -77.023945}, {"fusion_lat": 0.0, "type": "electric_scooter", "name": "6fa4941d3c60aafd06253782468ae54c", "fusion_lon": 0.0, "bike_id": "6fa4941d3c60aafd06253782468ae54c", "is_reserved": 0, "rental_uris": {"android": "https://dc.lft.to/lastmile_qr_scan", "ios": "https://dc.lft.to/lastmile_qr_scan"}, "lat": 38.91736016666667, "is_disabled": 0, "lon": -77.0318845}, {"fusion_lat": 0.0, "type": "electric_scooter", "name": "df270355aa298a11fef94ee100ad40da", "fusion_lon": 0.0, "bike_id": "df270355aa298a11fef94ee100ad40da", "is_reserved": 0, "rental_uris": {"android": "https://dc.lft.to/lastmile_qr_scan", "ios": "https://dc.lft.to/lastmile_qr_scan"}, "lat": 38.90243866666667, "is_disabled": 0, "lon": -77.01943866666667}, {"fusion_lat": 0.0, "type": "electric_scooter", "name": "d6cb6dbeada260d79f5c9e999afdcbf6", "fusion_lon": 0.0, "bike_id": "d6cb6dbeada260d79f5c9e999afdcbf6", "is_reserved": 0, "rental_uris": {"android": "https://dc.lft.to/lastmile_qr_scan", "ios": "https://dc.lft.to/lastmile_qr_scan"}, "lat": 38.90181833333333, "is_disabled": 0, "lon": -76.980565}, {"fusion_lat": 0.0, "type": "electric_scooter", "name": "77af38e4639b332444b3fee6136286ee", "fusion_lon": 0.0, "bike_id": "77af38e4639b332444b3fee6136286ee", "is_reserved": 0, "rental_uris": {"android": "https://dc.lft.to/lastmile_qr_scan", "ios": "https://dc.lft.to/lastmile_qr_scan"}, "lat": 38.910792666666666, "is_disabled": 0, "lon": -77.037189}, {"fusion_lat": 0.0, "type": "electric_scooter", "name": "e61b36f68768298f54df620d35f89719", "fusion_lon": 0.0, "bike_id": "e61b36f68768298f54df620d35f89719", "is_reserved": 0, "rental_uris": {"android": "https://dc.lft.to/lastmile_qr_scan", "ios": "https://dc.lft.to/lastmile_qr_scan"}, "lat": 38.89234183333333, "is_disabled": 0, "lon": -77.03212566666667}, {"fusion_lat": 0.0, "type": "electric_scooter", "name": "9e23efe9f2a18449c13e0ff77477a0e1", "fusion_lon": 0.0, "bike_id": "9e23efe9f2a18449c13e0ff77477a0e1", "is_reserved": 0, "rental_uris": {"android": "https://dc.lft.to/lastmile_qr_scan", "ios": "https://dc.lft.to/lastmile_qr_scan"}, "lat": 38.892242, "is_disabled": 0, "lon": -77.03182716666667}, {"fusion_lat": 0.0, "type": "electric_scooter", "name": "a80e86a0682675001cf0ff667b83fe2a", "fusion_lon": 0.0, "bike_id": "a80e86a0682675001cf0ff667b83fe2a", "is_reserved": 0, "rental_uris": {"android": "https://dc.lft.to/lastmile_qr_scan", "ios": "https://dc.lft.to/lastmile_qr_scan"}, "lat": 38.88731466666667, "is_disabled": 0, "lon": -77.02580216666667}, {"fusion_lat": 0.0, "type": "electric_scooter", "name": "7eeb1868cde48c3b86d380b1b6406112", "fusion_lon": 0.0, "bike_id": "7eeb1868cde48c3b86d380b1b6406112", "is_reserved": 0, "rental_uris": {"android": "https://dc.lft.to/lastmile_qr_scan", "ios": "https://dc.lft.to/lastmile_qr_scan"}, "lat": 38.9091955, "is_disabled": 0, "lon": -77.03851833333333}, {"fusion_lat": 0.0, "type": "electric_scooter", "name": "200b4914e6da824bd73b7e4e58830f46", "fusion_lon": 0.0, "bike_id": "200b4914e6da824bd73b7e4e58830f46", "is_reserved": 0, "rental_uris": {"android": "https://dc.lft.to/lastmile_qr_scan", "ios": "https://dc.lft.to/lastmile_qr_scan"}, "lat": 38.9225505, "is_disabled": 0, "lon": -77.02960483333334}, {"fusion_lat": 0.0, "type": "electric_scooter", "name": "9e6c7335f77da5eaf37bc07095b86698", "fusion_lon": 0.0, "bike_id": "9e6c7335f77da5eaf37bc07095b86698", "is_reserved": 0, "rental_uris": {"android": "https://dc.lft.to/lastmile_qr_scan", "ios": "https://dc.lft.to/lastmile_qr_scan"}, "lat": 38.9076715, "is_disabled": 0, "lon": -77.0349765}, {"fusion_lat": 0.0, "type": "electric_scooter", "name": "7a4f3646a73dfabd0e82f84c2fdc689e", "fusion_lon": 0.0, "bike_id": "7a4f3646a73dfabd0e82f84c2fdc689e", "is_reserved": 0, "rental_uris": {"android": "https://dc.lft.to/lastmile_qr_scan", "ios": "https://dc.lft.to/lastmile_qr_scan"}, "lat": 38.89145, "is_disabled": 0, "lon": -76.98385666666667}, {"fusion_lat": 0.0, "type": "electric_scooter", "name": "76796f334d8677eaa7ff4f787aa9ac1f", "fusion_lon": 0.0, "bike_id": "76796f334d8677eaa7ff4f787aa9ac1f", "is_reserved": 0, "rental_uris": {"android": "https://dc.lft.to/lastmile_qr_scan", "ios": "https://dc.lft.to/lastmile_qr_scan"}, "lat": 38.9165315, "is_disabled": 0, "lon": -77.03712616666667}, {"fusion_lat": 0.0, "type": "electric_scooter", "name": "23a5551d27827e787f9e3cafebf5ffd5", "fusion_lon": 0.0, "bike_id": "23a5551d27827e787f9e3cafebf5ffd5", "is_reserved": 0, "rental_uris": {"android": "https://dc.lft.to/lastmile_qr_scan", "ios": "https://dc.lft.to/lastmile_qr_scan"}, "lat": 38.934958333333334, "is_disabled": 0, "lon": -77.04526783333333}, {"fusion_lat": 0.0, "type": "electric_scooter", "name": "765296fd27ec442ce165addee1752f61", "fusion_lon": 0.0, "bike_id": "765296fd27ec442ce165addee1752f61", "is_reserved": 0, "rental_uris": {"android": "https://dc.lft.to/lastmile_qr_scan", "ios": "https://dc.lft.to/lastmile_qr_scan"}, "lat": 38.923302166666666, "is_disabled": 0, "lon": -77.04457116666667}, {"fusion_lat": 0.0, "type": "electric_scooter", "name": "c082666bc5f8d4b816aa3ba6b2e2a3cd", "fusion_lon": 0.0, "bike_id": "c082666bc5f8d4b816aa3ba6b2e2a3cd", "is_reserved": 0, "rental_uris": {"android": "https://dc.lft.to/lastmile_qr_scan", "ios": "https://dc.lft.to/lastmile_qr_scan"}, "lat": 38.89167666666667, "is_disabled": 0, "lon": -76.91187983333333}, {"fusion_lat": 0.0, "type": "electric_scooter", "name": "3bdcf567571073e9bd0d310499fc4fca", "fusion_lon": 0.0, "bike_id": "3bdcf567571073e9bd0d310499fc4fca", "is_reserved": 0, "rental_uris": {"android": "https://dc.lft.to/lastmile_qr_scan", "ios": "https://dc.lft.to/lastmile_qr_scan"}, "lat": 38.864133, "is_disabled": 0, "lon": -76.97440766666666}, {"fusion_lat": 0.0, "type": "electric_scooter", "name": "194e3134354cab47c1ddce02dc968e0a", "fusion_lon": 0.0, "bike_id": "194e3134354cab47c1ddce02dc968e0a", "is_reserved": 0, "rental_uris": {"android": "https://dc.lft.to/lastmile_qr_scan", "ios": "https://dc.lft.to/lastmile_qr_scan"}, "lat": 38.91814166666666, "is_disabled": 0, "lon": -77.03204416666667}, {"fusion_lat": 0.0, "type": "electric_scooter", "name": "0a022847b8c8672689590cc41c2c3100", "fusion_lon": 0.0, "bike_id": "0a022847b8c8672689590cc41c2c3100", "is_reserved": 0, "rental_uris": {"android": "https://dc.lft.to/lastmile_qr_scan", "ios": "https://dc.lft.to/lastmile_qr_scan"}, "lat": 38.899921166666665, "is_disabled": 0, "lon": -77.00668183333333}, {"fusion_lat": 0.0, "type": "electric_scooter", "name": "f75541cb9f8b6787956bf1e3e95b73f2", "fusion_lon": 0.0, "bike_id": "f75541cb9f8b6787956bf1e3e95b73f2", "is_reserved": 0, "rental_uris": {"android": "https://dc.lft.to/lastmile_qr_scan", "ios": "https://dc.lft.to/lastmile_qr_scan"}, "lat": 38.89219816666667, "is_disabled": 0, "lon": -77.03216716666667}, {"fusion_lat": 0.0, "type": "electric_scooter", "name": "cd947dce98bb686f4cfd3cc46539a6c5", "fusion_lon": 0.0, "bike_id": "cd947dce98bb686f4cfd3cc46539a6c5", "is_reserved": 0, "rental_uris": {"android": "https://dc.lft.to/lastmile_qr_scan", "ios": "https://dc.lft.to/lastmile_qr_scan"}, "lat": 38.9235275, "is_disabled": 0, "lon": -77.0353455}, {"fusion_lat": 0.0, "type": "electric_bike", "name": "9a7e7b2091aa18cd29dbb9a998956cd8", "fusion_lon": 0.0, "bike_id": "9a7e7b2091aa18cd29dbb9a998956cd8", "is_reserved": 0, "rental_uris": {"android": "https://dc.lft.to/lastmile_qr_scan", "ios": "https://dc.lft.to/lastmile_qr_scan"}, "lat": 38.945488, "is_disabled": 0, "lon": -76.8953355}, {"fusion_lat": 0.0, "type": "electric_scooter", "name": "43da82b12c43ecc33911a91d943d49f9", "fusion_lon": 0.0, "bike_id": "43da82b12c43ecc33911a91d943d49f9", "is_reserved": 0, "rental_uris": {"android": "https://dc.lft.to/lastmile_qr_scan", "ios": "https://dc.lft.to/lastmile_qr_scan"}, "lat": 38.94265266666667, "is_disabled": 0, "lon": -77.02843883333334}, {"fusion_lat": 0.0, "type": "electric_scooter", "name": "223f7dec1076348588054bfbb9a84ec8", "fusion_lon": 0.0, "bike_id": "223f7dec1076348588054bfbb9a84ec8", "is_reserved": 0, "rental_uris": {"android": "https://dc.lft.to/lastmile_qr_scan", "ios": "https://dc.lft.to/lastmile_qr_scan"}, "lat": 38.90717516666667, "is_disabled": 0, "lon": -76.9981985}, {"fusion_lat": 0.0, "type": "electric_scooter", "name": "8e80ff7e892ae421954f52a478f8189b", "fusion_lon": 0.0, "bike_id": "8e80ff7e892ae421954f52a478f8189b", "is_reserved": 0, "rental_uris": {"android": "https://dc.lft.to/lastmile_qr_scan", "ios": "https://dc.lft.to/lastmile_qr_scan"}, "lat": 38.898015666666666, "is_disabled": 0, "lon": -77.04009966666666}, {"fusion_lat": 0.0, "type": "electric_scooter", "name": "4a5a98d8b030f565b7eb531d3f77025e", "fusion_lon": 0.0, "bike_id": "4a5a98d8b030f565b7eb531d3f77025e", "is_reserved": 0, "rental_uris": {"android": "https://dc.lft.to/lastmile_qr_scan", "ios": "https://dc.lft.to/lastmile_qr_scan"}, "lat": 38.9023005, "is_disabled": 0, "lon": -77.053442}, {"fusion_lat": 0.0, "type": "electric_scooter", "name": "6be94c0e83e8ee4847ab2597d5c9721d", "fusion_lon": 0.0, "bike_id": "6be94c0e83e8ee4847ab2597d5c9721d", "is_reserved": 0, "rental_uris": {"android": "https://dc.lft.to/lastmile_qr_scan", "ios": "https://dc.lft.to/lastmile_qr_scan"}, "lat": 38.919966333333335, "is_disabled": 0, "lon": -77.02376133333334}, {"fusion_lat": 0.0, "type": "electric_scooter", "name": "ffe2956bb9c0dacb762a36877ff3812f", "fusion_lon": 0.0, "bike_id": "ffe2956bb9c0dacb762a36877ff3812f", "is_reserved": 0, "rental_uris": {"android": "https://dc.lft.to/lastmile_qr_scan", "ios": "https://dc.lft.to/lastmile_qr_scan"}, "lat": 38.90947633333333, "is_disabled": 0, "lon": -77.03211266666666}, {"fusion_lat": 0.0, "type": "electric_bike", "name": "308a27f47c2ff7b313cda366f1d1283f", "fusion_lon": 0.0, "bike_id": "308a27f47c2ff7b313cda366f1d1283f", "is_reserved": 0, "rental_uris": {"android": "https://dc.lft.to/lastmile_qr_scan", "ios": "https://dc.lft.to/lastmile_qr_scan"}, "lat": 38.94970083333333, "is_disabled": 0, "lon": -77.0738345}, {"fusion_lat": 0.0, "type": "electric_scooter", "name": "c316d6c50df8c940b619ae39e80d26df", "fusion_lon": 0.0, "bike_id": "c316d6c50df8c940b619ae39e80d26df", "is_reserved": 0, "rental_uris": {"android": "https://dc.lft.to/lastmile_qr_scan", "ios": "https://dc.lft.to/lastmile_qr_scan"}, "lat": 38.917096, "is_disabled": 0, "lon": -77.03415466666667}, {"fusion_lat": 0.0, "type": "electric_bike", "name": "57215683bd791abc6f7113acd64d396f", "fusion_lon": 0.0, "bike_id": "57215683bd791abc6f7113acd64d396f", "is_reserved": 0, "rental_uris": {"android": "https://dc.lft.to/lastmile_qr_scan", "ios": "https://dc.lft.to/lastmile_qr_scan"}, "lat": 38.94509516666667, "is_disabled": 0, "lon": -77.006741}, {"fusion_lat": 0.0, "type": "electric_scooter", "name": "56369d7f61c17a73b5cf9abad2e62b56", "fusion_lon": 0.0, "bike_id": "56369d7f61c17a73b5cf9abad2e62b56", "is_reserved": 0, "rental_uris": {"android": "https://dc.lft.to/lastmile_qr_scan", "ios": "https://dc.lft.to/lastmile_qr_scan"}, "lat": 38.87755816666667, "is_disabled": 0, "lon": -77.01784466666666}, {"fusion_lat": 0.0, "type": "electric_scooter", "name": "f8e93b45eeace379d3c5a91498105164", "fusion_lon": 0.0, "bike_id": "f8e93b45eeace379d3c5a91498105164", "is_reserved": 0, "rental_uris": {"android": "https://dc.lft.to/lastmile_qr_scan", "ios": "https://dc.lft.to/lastmile_qr_scan"}, "lat": 38.92138283333333, "is_disabled": 0, "lon": -77.02066483333333}, {"fusion_lat": 0.0, "type": "electric_scooter", "name": "b0020f489c0f4f632fd3a3da5c2decf9", "fusion_lon": 0.0, "bike_id": "b0020f489c0f4f632fd3a3da5c2decf9", "is_reserved": 0, "rental_uris": {"android": "https://dc.lft.to/lastmile_qr_scan", "ios": "https://dc.lft.to/lastmile_qr_scan"}, "lat": 38.92086033333333, "is_disabled": 0, "lon": -77.01199433333333}, {"fusion_lat": 0.0, "type": "electric_scooter", "name": "652c0f9121e2b107d1c93fa2ed92908d", "fusion_lon": 0.0, "bike_id": "652c0f9121e2b107d1c93fa2ed92908d", "is_reserved": 0, "rental_uris": {"android": "https://dc.lft.to/lastmile_qr_scan", "ios": "https://dc.lft.to/lastmile_qr_scan"}, "lat": 38.92968666666667, "is_disabled": 0, "lon": -77.05501533333333}, {"fusion_lat": 0.0, "type": "electric_scooter", "name": "2570b6d012ada67f830f764508e04ceb", "fusion_lon": 0.0, "bike_id": "2570b6d012ada67f830f764508e04ceb", "is_reserved": 0, "rental_uris": {"android": "https://dc.lft.to/lastmile_qr_scan", "ios": "https://dc.lft.to/lastmile_qr_scan"}, "lat": 38.929297, "is_disabled": 0, "lon": -77.03759383333333}, {"fusion_lat": 0.0, "type": "electric_scooter", "name": "438b396b9d874916aafd23ea6bc7788e", "fusion_lon": 0.0, "bike_id": "438b396b9d874916aafd23ea6bc7788e", "is_reserved": 0, "rental_uris": {"android": "https://dc.lft.to/lastmile_qr_scan", "ios": "https://dc.lft.to/lastmile_qr_scan"}, "lat": 38.91490733333333, "is_disabled": 0, "lon": -77.02580983333333}, {"fusion_lat": 0.0, "type": "electric_scooter", "name": "9662fe508ad62ed9ecf5c1750c59cc22", "fusion_lon": 0.0, "bike_id": "9662fe508ad62ed9ecf5c1750c59cc22", "is_reserved": 0, "rental_uris": {"android": "https://dc.lft.to/lastmile_qr_scan", "ios": "https://dc.lft.to/lastmile_qr_scan"}, "lat": 38.9065505, "is_disabled": 0, "lon": -77.03156366666667}, {"fusion_lat": 0.0, "type": "electric_scooter", "name": "1d43decec777c7d06841d61c21bd6a03", "fusion_lon": 0.0, "bike_id": "1d43decec777c7d06841d61c21bd6a03", "is_reserved": 0, "rental_uris": {"android": "https://dc.lft.to/lastmile_qr_scan", "ios": "https://dc.lft.to/lastmile_qr_scan"}, "lat": 38.90973483333333, "is_disabled": 0, "lon": -77.0386335}, {"fusion_lat": 0.0, "type": "electric_scooter", "name": "ed30cdbe1a89274a7d5bce972fd460c2", "fusion_lon": 0.0, "bike_id": "ed30cdbe1a89274a7d5bce972fd460c2", "is_reserved": 0, "rental_uris": {"android": "https://dc.lft.to/lastmile_qr_scan", "ios": "https://dc.lft.to/lastmile_qr_scan"}, "lat": 38.899814166666665, "is_disabled": 0, "lon": -77.01576633333333}, {"fusion_lat": 0.0, "type": "electric_bike", "name": "7ac332a9abc975382bb7bbbe354fe1dd", "fusion_lon": 0.0, "bike_id": "7ac332a9abc975382bb7bbbe354fe1dd", "is_reserved": 0, "rental_uris": {"android": "https://dc.lft.to/lastmile_qr_scan", "ios": "https://dc.lft.to/lastmile_qr_scan"}, "lat": 38.81305566666666, "is_disabled": 0, "lon": -77.10967933333333}, {"fusion_lat": 0.0, "type": "electric_scooter", "name": "39e750cc45f5845912a6e4e5943a28bb", "fusion_lon": 0.0, "bike_id": "39e750cc45f5845912a6e4e5943a28bb", "is_reserved": 0, "rental_uris": {"android": "https://dc.lft.to/lastmile_qr_scan", "ios": "https://dc.lft.to/lastmile_qr_scan"}, "lat": 38.91702983333333, "is_disabled": 0, "lon": -77.04261816666667}, {"fusion_lat": 0.0, "type": "electric_scooter", "name": "0245189726d4f5e0dceddcaaf2334ec9", "fusion_lon": 0.0, "bike_id": "0245189726d4f5e0dceddcaaf2334ec9", "is_reserved": 0, "rental_uris": {"android": "https://dc.lft.to/lastmile_qr_scan", "ios": "https://dc.lft.to/lastmile_qr_scan"}, "lat": 38.916799833333336, "is_disabled": 0, "lon": -77.02944266666667}, {"fusion_lat": 0.0, "type": "electric_scooter", "name": "348b065d496609f46c4d7456e8d03dd6", "fusion_lon": 0.0, "bike_id": "348b065d496609f46c4d7456e8d03dd6", "is_reserved": 0, "rental_uris": {"android": "https://dc.lft.to/lastmile_qr_scan", "ios": "https://dc.lft.to/lastmile_qr_scan"}, "lat": 38.89221233333333, "is_disabled": 0, "lon": -77.031661}, {"fusion_lat": 0.0, "type": "electric_scooter", "name": "cc8829b04c182c4fc88b0e2c62bf3b7d", "fusion_lon": 0.0, "bike_id": "cc8829b04c182c4fc88b0e2c62bf3b7d", "is_reserved": 0, "rental_uris": {"android": "https://dc.lft.to/lastmile_qr_scan", "ios": "https://dc.lft.to/lastmile_qr_scan"}, "lat": 38.928780833333334, "is_disabled": 0, "lon": -77.03284833333333}, {"fusion_lat": 0.0, "type": "electric_scooter", "name": "955a2db5f93a4e19b6431b76830fefbb", "fusion_lon": 0.0, "bike_id": "955a2db5f93a4e19b6431b76830fefbb", "is_reserved": 0, "rental_uris": {"android": "https://dc.lft.to/lastmile_qr_scan", "ios": "https://dc.lft.to/lastmile_qr_scan"}, "lat": 38.93773133333333, "is_disabled": 0, "lon": -77.03262283333333}, {"fusion_lat": 0.0, "type": "electric_scooter", "name": "c39a5ab3c92d0164bdccf9b14afa45eb", "fusion_lon": 0.0, "bike_id": "c39a5ab3c92d0164bdccf9b14afa45eb", "is_reserved": 0, "rental_uris": {"android": "https://dc.lft.to/lastmile_qr_scan", "ios": "https://dc.lft.to/lastmile_qr_scan"}, "lat": 38.924169, "is_disabled": 0, "lon": -77.02305033333333}, {"fusion_lat": 0.0, "type": "electric_scooter", "name": "1673babd9cdaf937d8e625fcf9e957d2", "fusion_lon": 0.0, "bike_id": "1673babd9cdaf937d8e625fcf9e957d2", "is_reserved": 0, "rental_uris": {"android": "https://dc.lft.to/lastmile_qr_scan", "ios": "https://dc.lft.to/lastmile_qr_scan"}, "lat": 38.8873085, "is_disabled": 0, "lon": -77.02582633333333}, {"fusion_lat": 0.0, "type": "electric_scooter", "name": "626622b4c7f4103a068020ea5bc7733f", "fusion_lon": 0.0, "bike_id": "626622b4c7f4103a068020ea5bc7733f", "is_reserved": 0, "rental_uris": {"android": "https://dc.lft.to/lastmile_qr_scan", "ios": "https://dc.lft.to/lastmile_qr_scan"}, "lat": 38.864173666666666, "is_disabled": 0, "lon": -76.99137083333333}, {"fusion_lat": 0.0, "type": "electric_scooter", "name": "bc069ce4e285f5a7ff73d45da496099d", "fusion_lon": 0.0, "bike_id": "bc069ce4e285f5a7ff73d45da496099d", "is_reserved": 0, "rental_uris": {"android": "https://dc.lft.to/lastmile_qr_scan", "ios": "https://dc.lft.to/lastmile_qr_scan"}, "lat": 38.921595333333336, "is_disabled": 0, "lon": -77.03507483333334}, {"fusion_lat": 0.0, "type": "electric_bike", "name": "2b41438a1f4d7af4c804ef0da974d51b", "fusion_lon": 0.0, "bike_id": "2b41438a1f4d7af4c804ef0da974d51b", "is_reserved": 0, "rental_uris": {"android": "https://dc.lft.to/lastmile_qr_scan", "ios": "https://dc.lft.to/lastmile_qr_scan"}, "lat": 38.96505066666667, "is_disabled": 0, "lon": -77.0282905}, {"fusion_lat": 0.0, "type": "electric_scooter", "name": "8199383577a81e668230d86d89078859", "fusion_lon": 0.0, "bike_id": "8199383577a81e668230d86d89078859", "is_reserved": 0, "rental_uris": {"android": "https://dc.lft.to/lastmile_qr_scan", "ios": "https://dc.lft.to/lastmile_qr_scan"}, "lat": 38.95195783333333, "is_disabled": 0, "lon": -77.02739066666666}, {"fusion_lat": 0.0, "type": "electric_scooter", "name": "abea107f419c17be5103ad94f8ea9e43", "fusion_lon": 0.0, "bike_id": "abea107f419c17be5103ad94f8ea9e43", "is_reserved": 0, "rental_uris": {"android": "https://dc.lft.to/lastmile_qr_scan", "ios": "https://dc.lft.to/lastmile_qr_scan"}, "lat": 38.91070283333333, "is_disabled": 0, "lon": -77.0539435}, {"fusion_lat": 0.0, "type": "electric_scooter", "name": "31abfcb8e2a7652a279c2835223ace87", "fusion_lon": 0.0, "bike_id": "31abfcb8e2a7652a279c2835223ace87", "is_reserved": 0, "rental_uris": {"android": "https://dc.lft.to/lastmile_qr_scan", "ios": "https://dc.lft.to/lastmile_qr_scan"}, "lat": 38.920657166666665, "is_disabled": 0, "lon": -77.02249283333333}, {"fusion_lat": 0.0, "type": "electric_scooter", "name": "fec2d6f17cfcff1be535ff1a1e4c0af1", "fusion_lon": 0.0, "bike_id": "fec2d6f17cfcff1be535ff1a1e4c0af1", "is_reserved": 0, "rental_uris": {"android": "https://dc.lft.to/lastmile_qr_scan", "ios": "https://dc.lft.to/lastmile_qr_scan"}, "lat": 38.9187645, "is_disabled": 0, "lon": -77.02605216666667}, {"fusion_lat": 0.0, "type": "electric_scooter", "name": "f79ea3fee512562090ae3c43087b4768", "fusion_lon": 0.0, "bike_id": "f79ea3fee512562090ae3c43087b4768", "is_reserved": 0, "rental_uris": {"android": "https://dc.lft.to/lastmile_qr_scan", "ios": "https://dc.lft.to/lastmile_qr_scan"}, "lat": 38.929465666666665, "is_disabled": 0, "lon": -77.03257966666666}, {"fusion_lat": 0.0, "type": "electric_scooter", "name": "631aec7a84cc0ea98526df09845ce95b", "fusion_lon": 0.0, "bike_id": "631aec7a84cc0ea98526df09845ce95b", "is_reserved": 0, "rental_uris": {"android": "https://dc.lft.to/lastmile_qr_scan", "ios": "https://dc.lft.to/lastmile_qr_scan"}, "lat": 38.89221, "is_disabled": 0, "lon": -77.04506466666666}, {"fusion_lat": 0.0, "type": "electric_scooter", "name": "24d737f4e391ed36b0c89b828ee0381a", "fusion_lon": 0.0, "bike_id": "24d737f4e391ed36b0c89b828ee0381a", "is_reserved": 0, "rental_uris": {"android": "https://dc.lft.to/lastmile_qr_scan", "ios": "https://dc.lft.to/lastmile_qr_scan"}, "lat": 38.91744683333334, "is_disabled": 0, "lon": -77.03179866666666}, {"fusion_lat": 0.0, "type": "electric_scooter", "name": "d063867ceb87c14c3256c18ad3b22595", "fusion_lon": 0.0, "bike_id": "d063867ceb87c14c3256c18ad3b22595", "is_reserved": 0, "rental_uris": {"android": "https://dc.lft.to/lastmile_qr_scan", "ios": "https://dc.lft.to/lastmile_qr_scan"}, "lat": 38.907208, "is_disabled": 0, "lon": -77.01098133333333}, {"fusion_lat": 0.0, "type": "electric_bike", "name": "c1e5cef173b2b734fa6c1c484420419a", "fusion_lon": 0.0, "bike_id": "c1e5cef173b2b734fa6c1c484420419a", "is_reserved": 0, "rental_uris": {"android": "https://dc.lft.to/lastmile_qr_scan", "ios": "https://dc.lft.to/lastmile_qr_scan"}, "lat": 38.807059333333335, "is_disabled": 0, "lon": -77.06175}, {"fusion_lat": 0.0, "type": "electric_scooter", "name": "5ae8a94e1eeae321dec17c6b543d6b2b", "fusion_lon": 0.0, "bike_id": "5ae8a94e1eeae321dec17c6b543d6b2b", "is_reserved": 0, "rental_uris": {"android": "https://dc.lft.to/lastmile_qr_scan", "ios": "https://dc.lft.to/lastmile_qr_scan"}, "lat": 38.920318333333334, "is_disabled": 0, "lon": -77.0418075}, {"fusion_lat": 0.0, "type": "electric_scooter", "name": "883549369c613008838c6d7263b868c2", "fusion_lon": 0.0, "bike_id": "883549369c613008838c6d7263b868c2", "is_reserved": 0, "rental_uris": {"android": "https://dc.lft.to/lastmile_qr_scan", "ios": "https://dc.lft.to/lastmile_qr_scan"}, "lat": 38.91916, "is_disabled": 0, "lon": -77.02617116666667}, {"fusion_lat": 0.0, "type": "electric_scooter", "name": "326c1fae8b0bb900403a2d25060c9ab8", "fusion_lon": 0.0, "bike_id": "326c1fae8b0bb900403a2d25060c9ab8", "is_reserved": 0, "rental_uris": {"android": "https://dc.lft.to/lastmile_qr_scan", "ios": "https://dc.lft.to/lastmile_qr_scan"}, "lat": 38.93174333333333, "is_disabled": 0, "lon": -77.03413}, {"fusion_lat": 0.0, "type": "electric_scooter", "name": "00483c4698a4f3b1b4dbadbb8fe8ed21", "fusion_lon": 0.0, "bike_id": "00483c4698a4f3b1b4dbadbb8fe8ed21", "is_reserved": 0, "rental_uris": {"android": "https://dc.lft.to/lastmile_qr_scan", "ios": "https://dc.lft.to/lastmile_qr_scan"}, "lat": 38.92337066666666, "is_disabled": 0, "lon": -77.04428733333333}, {"fusion_lat": 0.0, "type": "electric_bike", "name": "b4541cbfb9a5fb34b2e659c21f1a47b3", "fusion_lon": 0.0, "bike_id": "b4541cbfb9a5fb34b2e659c21f1a47b3", "is_reserved": 0, "rental_uris": {"android": "https://dc.lft.to/lastmile_qr_scan", "ios": "https://dc.lft.to/lastmile_qr_scan"}, "lat": 38.999423, "is_disabled": 0, "lon": -77.07432283333333}, {"fusion_lat": 0.0, "type": "electric_scooter", "name": "1a7c2e2e1cc8d3ea6d6f004f97f846b8", "fusion_lon": 0.0, "bike_id": "1a7c2e2e1cc8d3ea6d6f004f97f846b8", "is_reserved": 0, "rental_uris": {"android": "https://dc.lft.to/lastmile_qr_scan", "ios": "https://dc.lft.to/lastmile_qr_scan"}, "lat": 38.893533166666664, "is_disabled": 0, "lon": -76.949276}, {"fusion_lat": 0.0, "type": "electric_scooter", "name": "a4d300527650a470ffc376251c905a4a", "fusion_lon": 0.0, "bike_id": "a4d300527650a470ffc376251c905a4a", "is_reserved": 0, "rental_uris": {"android": "https://dc.lft.to/lastmile_qr_scan", "ios": "https://dc.lft.to/lastmile_qr_scan"}, "lat": 38.9021135, "is_disabled": 0, "lon": -77.04676866666667}, {"fusion_lat": 0.0, "type": "electric_scooter", "name": "d057f9bff0044e9bfd164670745ec035", "fusion_lon": 0.0, "bike_id": "d057f9bff0044e9bfd164670745ec035", "is_reserved": 0, "rental_uris": {"android": "https://dc.lft.to/lastmile_qr_scan", "ios": "https://dc.lft.to/lastmile_qr_scan"}, "lat": 38.945054166666665, "is_disabled": 0, "lon": -77.0332555}, {"fusion_lat": 0.0, "type": "electric_bike", "name": "4285f90c4cb317e70bb1e67307c3ec40", "fusion_lon": 0.0, "bike_id": "4285f90c4cb317e70bb1e67307c3ec40", "is_reserved": 0, "rental_uris": {"android": "https://dc.lft.to/lastmile_qr_scan", "ios": "https://dc.lft.to/lastmile_qr_scan"}, "lat": 38.854909166666665, "is_disabled": 0, "lon": -77.11610416666667}, {"fusion_lat": 0.0, "type": "electric_scooter", "name": "3e9aa892ec5ec8f99fd15ac0acae2ad2", "fusion_lon": 0.0, "bike_id": "3e9aa892ec5ec8f99fd15ac0acae2ad2", "is_reserved": 0, "rental_uris": {"android": "https://dc.lft.to/lastmile_qr_scan", "ios": "https://dc.lft.to/lastmile_qr_scan"}, "lat": 38.91679466666667, "is_disabled": 0, "lon": -77.02950966666667}, {"fusion_lat": 0.0, "type": "electric_scooter", "name": "849249fd4b1376fd63a75260f0ff547c", "fusion_lon": 0.0, "bike_id": "849249fd4b1376fd63a75260f0ff547c", "is_reserved": 0, "rental_uris": {"android": "https://dc.lft.to/lastmile_qr_scan", "ios": "https://dc.lft.to/lastmile_qr_scan"}, "lat": 38.923275833333335, "is_disabled": 0, "lon": -77.0361865}, {"fusion_lat": 0.0, "type": "electric_scooter", "name": "764a9844cb9050203f6da5f0568eee27", "fusion_lon": 0.0, "bike_id": "764a9844cb9050203f6da5f0568eee27", "is_reserved": 0, "rental_uris": {"android": "https://dc.lft.to/lastmile_qr_scan", "ios": "https://dc.lft.to/lastmile_qr_scan"}, "lat": 38.902612833333336, "is_disabled": 0, "lon": -77.00577733333333}, {"fusion_lat": 0.0, "type": "electric_scooter", "name": "6798beb5fe2d2478cfd6382aa2d2db0d", "fusion_lon": 0.0, "bike_id": "6798beb5fe2d2478cfd6382aa2d2db0d", "is_reserved": 0, "rental_uris": {"android": "https://dc.lft.to/lastmile_qr_scan", "ios": "https://dc.lft.to/lastmile_qr_scan"}, "lat": 38.904039166666664, "is_disabled": 0, "lon": -76.98085233333333}, {"fusion_lat": 0.0, "type": "electric_scooter", "name": "6f3236e2cdfb54afdf3d12dd565fab1d", "fusion_lon": 0.0, "bike_id": "6f3236e2cdfb54afdf3d12dd565fab1d", "is_reserved": 0, "rental_uris": {"android": "https://dc.lft.to/lastmile_qr_scan", "ios": "https://dc.lft.to/lastmile_qr_scan"}, "lat": 38.925628333333336, "is_disabled": 0, "lon": -77.022844}, {"fusion_lat": 0.0, "type": "electric_scooter", "name": "b97f2433c25de27c8fd7b9dff37f1e93", "fusion_lon": 0.0, "bike_id": "b97f2433c25de27c8fd7b9dff37f1e93", "is_reserved": 0, "rental_uris": {"android": "https://dc.lft.to/lastmile_qr_scan", "ios": "https://dc.lft.to/lastmile_qr_scan"}, "lat": 38.90566033333333, "is_disabled": 0, "lon": -77.005953}, {"fusion_lat": 0.0, "type": "electric_scooter", "name": "89793414260eff3e4042bc1130c37db4", "fusion_lon": 0.0, "bike_id": "89793414260eff3e4042bc1130c37db4", "is_reserved": 0, "rental_uris": {"android": "https://dc.lft.to/lastmile_qr_scan", "ios": "https://dc.lft.to/lastmile_qr_scan"}, "lat": 38.91115283333333, "is_disabled": 0, "lon": -77.0315725}, {"fusion_lat": 0.0, "type": "electric_scooter", "name": "d610876cc51304117394e1c7e6afff50", "fusion_lon": 0.0, "bike_id": "d610876cc51304117394e1c7e6afff50", "is_reserved": 0, "rental_uris": {"android": "https://dc.lft.to/lastmile_qr_scan", "ios": "https://dc.lft.to/lastmile_qr_scan"}, "lat": 38.9233565, "is_disabled": 0, "lon": -77.03617783333333}, {"fusion_lat": 0.0, "type": "electric_scooter", "name": "1ba7d782fa6b6335c0db4ab0cfe31837", "fusion_lon": 0.0, "bike_id": "1ba7d782fa6b6335c0db4ab0cfe31837", "is_reserved": 0, "rental_uris": {"android": "https://dc.lft.to/lastmile_qr_scan", "ios": "https://dc.lft.to/lastmile_qr_scan"}, "lat": 38.923544666666665, "is_disabled": 0, "lon": -77.07301166666667}, {"fusion_lat": 0.0, "type": "electric_scooter", "name": "aecf1989955aa142fa8c3ce741716417", "fusion_lon": 0.0, "bike_id": "aecf1989955aa142fa8c3ce741716417", "is_reserved": 0, "rental_uris": {"android": "https://dc.lft.to/lastmile_qr_scan", "ios": "https://dc.lft.to/lastmile_qr_scan"}, "lat": 38.92272233333333, "is_disabled": 0, "lon": -77.03410033333333}, {"fusion_lat": 0.0, "type": "electric_scooter", "name": "a9e08e3761910b55466ab462efcb41b0", "fusion_lon": 0.0, "bike_id": "a9e08e3761910b55466ab462efcb41b0", "is_reserved": 0, "rental_uris": {"android": "https://dc.lft.to/lastmile_qr_scan", "ios": "https://dc.lft.to/lastmile_qr_scan"}, "lat": 38.9312855, "is_disabled": 0, "lon": -77.02351066666667}, {"fusion_lat": 0.0, "type": "electric_bike", "name": "a617a6c67991486bae0c254c9d52adab", "fusion_lon": 0.0, "bike_id": "a617a6c67991486bae0c254c9d52adab", "is_reserved": 0, "rental_uris": {"android": "https://dc.lft.to/lastmile_qr_scan", "ios": "https://dc.lft.to/lastmile_qr_scan"}, "lat": 38.807566, "is_disabled": 0, "lon": -77.094684}, {"fusion_lat": 0.0, "type": "electric_scooter", "name": "a7f176511bf1ed716900f5c702a29324", "fusion_lon": 0.0, "bike_id": "a7f176511bf1ed716900f5c702a29324", "is_reserved": 0, "rental_uris": {"android": "https://dc.lft.to/lastmile_qr_scan", "ios": "https://dc.lft.to/lastmile_qr_scan"}, "lat": 38.86411566666666, "is_disabled": 0, "lon": -76.97429916666667}, {"fusion_lat": 0.0, "type": "electric_scooter", "name": "5b36043dbbd681f3615a2162af15966b", "fusion_lon": 0.0, "bike_id": "5b36043dbbd681f3615a2162af15966b", "is_reserved": 0, "rental_uris": {"android": "https://dc.lft.to/lastmile_qr_scan", "ios": "https://dc.lft.to/lastmile_qr_scan"}, "lat": 38.957294166666664, "is_disabled": 0, "lon": -77.02403066666666}, {"fusion_lat": 0.0, "type": "electric_scooter", "name": "4d205301a9b5f5a8129274c2f174ae91", "fusion_lon": 0.0, "bike_id": "4d205301a9b5f5a8129274c2f174ae91", "is_reserved": 0, "rental_uris": {"android": "https://dc.lft.to/lastmile_qr_scan", "ios": "https://dc.lft.to/lastmile_qr_scan"}, "lat": 38.929468166666666, "is_disabled": 0, "lon": -77.0164335}, {"fusion_lat": 0.0, "type": "electric_scooter", "name": "622f0438134aa779ce7826b7ec921317", "fusion_lon": 0.0, "bike_id": "622f0438134aa779ce7826b7ec921317", "is_reserved": 0, "rental_uris": {"android": "https://dc.lft.to/lastmile_qr_scan", "ios": "https://dc.lft.to/lastmile_qr_scan"}, "lat": 38.935488, "is_disabled": 0, "lon": -77.0222455}, {"fusion_lat": 0.0, "type": "electric_scooter", "name": "488783b8d02beaabac22dbf34759ea56", "fusion_lon": 0.0, "bike_id": "488783b8d02beaabac22dbf34759ea56", "is_reserved": 0, "rental_uris": {"android": "https://dc.lft.to/lastmile_qr_scan", "ios": "https://dc.lft.to/lastmile_qr_scan"}, "lat": 38.906753, "is_disabled": 0, "lon": -77.000439}, {"fusion_lat": 0.0, "type": "electric_scooter", "name": "52d0d891acf02a56f7e25cc843340f3e", "fusion_lon": 0.0, "bike_id": "52d0d891acf02a56f7e25cc843340f3e", "is_reserved": 0, "rental_uris": {"android": "https://dc.lft.to/lastmile_qr_scan", "ios": "https://dc.lft.to/lastmile_qr_scan"}, "lat": 38.910716, "is_disabled": 0, "lon": -77.0346415}, {"fusion_lat": 0.0, "type": "electric_scooter", "name": "e9b5da4b6c8f2be5cede926103b6eb94", "fusion_lon": 0.0, "bike_id": "e9b5da4b6c8f2be5cede926103b6eb94", "is_reserved": 0, "rental_uris": {"android": "https://dc.lft.to/lastmile_qr_scan", "ios": "https://dc.lft.to/lastmile_qr_scan"}, "lat": 38.91785133333333, "is_disabled": 0, "lon": -77.02308383333333}, {"fusion_lat": 0.0, "type": "electric_scooter", "name": "7736863c25a6ef795e39af5124e0aa4c", "fusion_lon": 0.0, "bike_id": "7736863c25a6ef795e39af5124e0aa4c", "is_reserved": 0, "rental_uris": {"android": "https://dc.lft.to/lastmile_qr_scan", "ios": "https://dc.lft.to/lastmile_qr_scan"}, "lat": 38.909771166666665, "is_disabled": 0, "lon": -77.03867566666666}, {"fusion_lat": 0.0, "type": "electric_scooter", "name": "bf3ed02829b5e9b9cfc2405940262f17", "fusion_lon": 0.0, "bike_id": "bf3ed02829b5e9b9cfc2405940262f17", "is_reserved": 0, "rental_uris": {"android": "https://dc.lft.to/lastmile_qr_scan", "ios": "https://dc.lft.to/lastmile_qr_scan"}, "lat": 38.90733916666667, "is_disabled": 0, "lon": -77.02694533333333}, {"fusion_lat": 0.0, "type": "electric_scooter", "name": "610f25b9db06cb09eccb4babe3e60af4", "fusion_lon": 0.0, "bike_id": "610f25b9db06cb09eccb4babe3e60af4", "is_reserved": 0, "rental_uris": {"android": "https://dc.lft.to/lastmile_qr_scan", "ios": "https://dc.lft.to/lastmile_qr_scan"}, "lat": 38.89734133333333, "is_disabled": 0, "lon": -77.02718666666667}, {"fusion_lat": 0.0, "type": "electric_scooter", "name": "d373cb23fd067c9422a4f21c0e7347d2", "fusion_lon": 0.0, "bike_id": "d373cb23fd067c9422a4f21c0e7347d2", "is_reserved": 0, "rental_uris": {"android": "https://dc.lft.to/lastmile_qr_scan", "ios": "https://dc.lft.to/lastmile_qr_scan"}, "lat": 38.908671, "is_disabled": 0, "lon": -77.03467633333334}, {"fusion_lat": 0.0, "type": "electric_scooter", "name": "22a69d7c6103f3b61bc374b23a6c26b1", "fusion_lon": 0.0, "bike_id": "22a69d7c6103f3b61bc374b23a6c26b1", "is_reserved": 0, "rental_uris": {"android": "https://dc.lft.to/lastmile_qr_scan", "ios": "https://dc.lft.to/lastmile_qr_scan"}, "lat": 38.918085166666664, "is_disabled": 0, "lon": -77.03438366666667}, {"fusion_lat": 0.0, "type": "electric_scooter", "name": "b399d228abcddbc77ceeffc6d60ca87c", "fusion_lon": 0.0, "bike_id": "b399d228abcddbc77ceeffc6d60ca87c", "is_reserved": 0, "rental_uris": {"android": "https://dc.lft.to/lastmile_qr_scan", "ios": "https://dc.lft.to/lastmile_qr_scan"}, "lat": 38.89232466666667, "is_disabled": 0, "lon": -77.0500165}, {"fusion_lat": 0.0, "type": "electric_scooter", "name": "836997a2b8f4be30722692ca285a41ac", "fusion_lon": 0.0, "bike_id": "836997a2b8f4be30722692ca285a41ac", "is_reserved": 0, "rental_uris": {"android": "https://dc.lft.to/lastmile_qr_scan", "ios": "https://dc.lft.to/lastmile_qr_scan"}, "lat": 38.892370666666665, "is_disabled": 0, "lon": -77.04162483333333}, {"fusion_lat": 0.0, "type": "electric_scooter", "name": "59109c0a9bfcd492854cca721d492896", "fusion_lon": 0.0, "bike_id": "59109c0a9bfcd492854cca721d492896", "is_reserved": 0, "rental_uris": {"android": "https://dc.lft.to/lastmile_qr_scan", "ios": "https://dc.lft.to/lastmile_qr_scan"}, "lat": 38.919344, "is_disabled": 0, "lon": -77.03157183333333},