{"data": {"bikes": [{"lon": -77.10434983333333, "is_disabled": 0, "lat": 38.89672733333333, "fusion_lat": 0.0, "is_reserved": 0, "rental_uris": {"ios": "https://dc.lft.to/lastmile_qr_scan", "android": "https://dc.lft.to/lastmile_qr_scan"}, "fusion_lon": 0.0, "type": "electric_bike", "bike_id": "d96411f9ce452d1bd335722d6afd9a57", "name": "d96411f9ce452d1bd335722d6afd9a57"}, {"lon": -77.04161166666667, "is_disabled": 0, "lat": 38.9065895, "fusion_lat": 0.0, "is_reserved": 0, "rental_uris": {"ios": "https://dc.lft.to/lastmile_qr_scan", "android": "https://dc.lft.to/lastmile_qr_scan"}, "fusion_lon": 0.0, "type": "electric_scooter", "bike_id": "804943e0f5d1d2923ea86801f1274be4", "name": "804943e0f5d1d2923ea86801f1274be4"}, {"lon": -77.02885416666666, "is_disabled": 0, "lat": 38.90129983333333, "fusion_lat": 0.0, "is_reserved": 0, "rental_uris": {"ios": "https://dc.lft.to/lastmile_qr_scan", "android": "https://dc.lft.to/lastmile_qr_scan"}, "fusion_lon": 0.0, "type": "electric_scooter", "bike_id": "18180b6734c01c78a1ceef948716638d", "name": "18180b6734c01c78a1ceef948716638d"}, {"lon": -77.02294683333334, "is_disabled": 0, "lat": 38.897009833333335, "fusion_lat": 0.0, "is_reserved": 0, "rental_uris": {"ios": "https://dc.lft.to/lastmile_qr_scan", "android": "https://dc.lft.to/lastmile_qr_scan"}, "fusion_lon": 0.0, "type": "electric_scooter", "bike_id": "739fb47f87fde1d82d62dd7df0c7d80b", "name": "739fb47f87fde1d82d62dd7df0c7d80b"}, {"lon": -77.047644, "is_disabled": 0, "lat": 38.917612166666665, "fusion_lat": 0.0, "is_reserved": 0, "rental_uris": {"ios": "https://dc.lft.to/lastmile_qr_scan", "android": "https://dc.lft.to/lastmile_qr_scan"}, "fusion_lon": 0.0, "type": "electric_scooter", "bike_id": "861c83706683cd8695e3b88618aca831", "name": "861c83706683cd8695e3b88618aca831"}, {"lon": -77.00296033333333, "is_disabled": 0, "lat": 38.9059885, "fusion_lat": 0.0, "is_reserved": 0, "rental_uris": {"ios": "https://dc.lft.to/lastmile_qr_scan", "android": "https://dc.lft.to/lastmile_qr_scan"}, "fusion_lon": 0.0, "type": "electric_scooter", "bike_id": "c96ed46edf5d379a29be3566bd57846f", "name": "c96ed46edf5d379a29be3566bd57846f"}, {"lon": -77.013693, "is_disabled": 0, "lat": 38.886426166666666, "fusion_lat": 0.0, "is_reserved": 0, "rental_uris": {"ios": "https://dc.lft.to/lastmile_qr_scan", "android": "https://dc.lft.to/lastmile_qr_scan"}, "fusion_lon": 0.0, "type": "electric_scooter", "bike_id": "68094f193ffc92d2c37f7e632c290493", "name": "68094f193ffc92d2c37f7e632c290493"}, {"lon": -77.02373466666667, "is_disabled": 0, "lat": 38.902105166666665, "fusion_lat": 0.0, "is_reserved": 0, "rental_uris": {"ios": "https://dc.lft.to/lastmile_qr_scan", "android": "https://dc.lft.to/lastmile_qr_scan"}, "fusion_lon": 0.0, "type": "electric_scooter", "bike_id": "db35bcb48f2645ef992d029a87123152", "name": "db35bcb48f2645ef992d029a87123152"}, {"lon": -77.04589083333333, "is_disabled": 0, "lat": 38.909444, "fusion_lat": 0.0, "is_reserved": 0, "rental_uris": {"ios": "https://dc.lft.to/lastmile_qr_scan", "android": "https://dc.lft.to/lastmile_qr_scan"}, "fusion_lon": 0.0, "type": "electric_scooter", "bike_id": "b856a2473a9915870c7e53c5d9385f72", "name": "b856a2473a9915870c7e53c5d9385f72"}, {"lon": -77.03218933333333, "is_disabled": 0, "lat": 38.90002666666667, "fusion_lat": 0.0, "is_reserved": 0, "rental_uris": {"ios": "https://dc.lft.to/lastmile_qr_scan", "android": "https://dc.lft.to/lastmile_qr_scan"}, "fusion_lon": 0.0, "type": "electric_scooter", "bike_id": "9ea742e2c9c80b2c89e5fb32a975239b", "name": "9ea742e2c9c80b2c89e5fb32a975239b"}, {"lon": -76.98577983333334, "is_disabled": 0, "lat": 38.866881166666666, "fusion_lat": 0.0, "is_reserved": 0, "rental_uris": {"ios": "https://dc.lft.to/lastmile_qr_scan", "android": "https://dc.lft.to/lastmile_qr_scan"}, "fusion_lon": 0.0, "type": "electric_scooter", "bike_id": "cacded670b8597c992351df37d3eaae1", "name": "cacded670b8597c992351df37d3eaae1"}, {"lon": -77.00649933333334, "is_disabled": 0, "lat": 38.90002466666667, "fusion_lat": 0.0, "is_reserved": 0, "rental_uris": {"ios": "https://dc.lft.to/lastmile_qr_scan", "android": "https://dc.lft.to/lastmile_qr_scan"}, "fusion_lon": 0.0, "type": "electric_scooter", "bike_id": "91ed8a85fc52bcc1dc79468027c251e8", "name": "91ed8a85fc52bcc1dc79468027c251e8"}, {"lon": -76.98716366666666, "is_disabled": 0, "lat": 38.86633483333333, "fusion_lat": 0.0, "is_reserved": 0, "rental_uris": {"ios": "https://dc.lft.to/lastmile_qr_scan", "android": "https://dc.lft.to/lastmile_qr_scan"}, "fusion_lon": 0.0, "type": "electric_scooter", "bike_id": "68ac573d91ada9122908c03ebda5a81d", "name": "68ac573d91ada9122908c03ebda5a81d"}, {"lon": -77.01490066666666, "is_disabled": 0, "lat": 38.892276, "fusion_lat": 0.0, "is_reserved": 0, "rental_uris": {"ios": "https://dc.lft.to/lastmile_qr_scan", "android": "https://dc.lft.to/lastmile_qr_scan"}, "fusion_lon": 0.0, "type": "electric_scooter", "bike_id": "ea10b0939528ad5799a343e08babc7c2", "name": "ea10b0939528ad5799a343e08babc7c2"}, {"lon": -77.032224, "is_disabled": 0, "lat": 38.89798783333333, "fusion_lat": 0.0, "is_reserved": 0, "rental_uris": {"ios": "https://dc.lft.to/lastmile_qr_scan", "android": "https://dc.lft.to/lastmile_qr_scan"}, "fusion_lon": 0.0, "type": "electric_scooter", "bike_id": "3dd016bbfe185e9def971d94f7c4fd08", "name": "3dd016bbfe185e9def971d94f7c4fd08"}, {"lon": -76.98035816666666, "is_disabled": 0, "lat": 38.90793583333333, "fusion_lat": 0.0, "is_reserved": 0, "rental_uris": {"ios": "https://dc.lft.to/lastmile_qr_scan", "android": "https://dc.lft.to/lastmile_qr_scan"}, "fusion_lon": 0.0, "type": "electric_scooter", "bike_id": "4bca5a9f11613b8dd29b94c6b09a52c2", "name": "4bca5a9f11613b8dd29b94c6b09a52c2"}, {"lon": -77.02715866666666, "is_disabled": 0, "lat": 38.907185166666665, "fusion_lat": 0.0, "is_reserved": 0, "rental_uris": {"ios": "https://dc.lft.to/lastmile_qr_scan", "android": "https://dc.lft.to/lastmile_qr_scan"}, "fusion_lon": 0.0, "type": "electric_scooter", "bike_id": "9c0a686899e0ce329087f463b8c23c6f", "name": "9c0a686899e0ce329087f463b8c23c6f"}, {"lon": -77.03732283333333, "is_disabled": 0, "lat": 38.917066, "fusion_lat": 0.0, "is_reserved": 0, "rental_uris": {"ios": "https://dc.lft.to/lastmile_qr_scan", "android": "https://dc.lft.to/lastmile_qr_scan"}, "fusion_lon": 0.0, "type": "electric_scooter", "bike_id": "2b2a464b48c1bca97e3c12abe51736ad", "name": "2b2a464b48c1bca97e3c12abe51736ad"}, {"lon": -77.01890166666666, "is_disabled": 0, "lat": 38.939925, "fusion_lat": 0.0, "is_reserved": 0, "rental_uris": {"ios": "https://dc.lft.to/lastmile_qr_scan", "android": "https://dc.lft.to/lastmile_qr_scan"}, "fusion_lon": 0.0, "type": "electric_scooter", "bike_id": "fd4ddf5bfb46dad92e289b4d6ba09542", "name": "fd4ddf5bfb46dad92e289b4d6ba09542"}, {"lon": -77.04456483333334, "is_disabled": 0, "lat": 38.897292666666665, "fusion_lat": 0.0, "is_reserved": 0, "rental_uris": {"ios": "https://dc.lft.to/lastmile_qr_scan", "android": "https://dc.lft.to/lastmile_qr_scan"}, "fusion_lon": 0.0, "type": "electric_scooter", "bike_id": "f1ae55ae66b91d83754930216f869641", "name": "f1ae55ae66b91d83754930216f869641"}, {"lon": -77.03459433333333, "is_disabled": 0, "lat": 38.90428933333333, "fusion_lat": 0.0, "is_reserved": 0, "rental_uris": {"ios": "https://dc.lft.to/lastmile_qr_scan", "android": "https://dc.lft.to/lastmile_qr_scan"}, "fusion_lon": 0.0, "type": "electric_scooter", "bike_id": "20a56748b1248a900e2b3cfbba97d5a9", "name": "20a56748b1248a900e2b3cfbba97d5a9"}, {"lon": -77.04141433333334, "is_disabled": 0, "lat": 38.91684683333333, "fusion_lat": 0.0, "is_reserved": 0, "rental_uris": {"ios": "https://dc.lft.to/lastmile_qr_scan", "android": "https://dc.lft.to/lastmile_qr_scan"}, "fusion_lon": 0.0, "type": "electric_scooter", "bike_id": "2770b9e7d5c829310a4e019e2960a6c5", "name": "2770b9e7d5c829310a4e019e2960a6c5"}, {"lon": -77.003346, "is_disabled": 0, "lat": 38.89355533333333, "fusion_lat": 0.0, "is_reserved": 0, "rental_uris": {"ios": "https://dc.lft.to/lastmile_qr_scan", "android": "https://dc.lft.to/lastmile_qr_scan"}, "fusion_lon": 0.0, "type": "electric_scooter", "bike_id": "9f0db80e6434c2498c918012a2a64219", "name": "9f0db80e6434c2498c918012a2a64219"}, {"lon": -77.024023, "is_disabled": 0, "lat": 38.91149333333333, "fusion_lat": 0.0, "is_reserved": 0, "rental_uris": {"ios": "https://dc.lft.to/lastmile_qr_scan", "android": "https://dc.lft.to/lastmile_qr_scan"}, "fusion_lon": 0.0, "type": "electric_scooter", "bike_id": "2d2b991e3ed4155064507d4e080ec972", "name": "2d2b991e3ed4155064507d4e080ec972"}, {"lon": -77.023886, "is_disabled": 0, "lat": 38.89869566666667, "fusion_lat": 0.0, "is_reserved": 0, "rental_uris": {"ios": "https://dc.lft.to/lastmile_qr_scan", "android": "https://dc.lft.to/lastmile_qr_scan"}, "fusion_lon": 0.0, "type": "electric_scooter", "bike_id": "35cf58fa2edb2f870dce6617789daa1a", "name": "35cf58fa2edb2f870dce6617789daa1a"}, {"lon": -76.98237033333334, "is_disabled": 0, "lat": 38.908938, "fusion_lat": 0.0, "is_reserved": 0, "rental_uris": {"ios": "https://dc.lft.to/lastmile_qr_scan", "android": "https://dc.lft.to/lastmile_qr_scan"}, "fusion_lon": 0.0, "type": "electric_scooter", "bike_id": "86b5995fadb07bd8813a07632f937585", "name": "86b5995fadb07bd8813a07632f937585"}, {"lon": -77.072745, "is_disabled": 0, "lat": 38.93482483333333, "fusion_lat": 0.0, "is_reserved": 0, "rental_uris": {"ios": "https://dc.lft.to/lastmile_qr_scan", "android": "https://dc.lft.to/lastmile_qr_scan"}, "fusion_lon": 0.0, "type": "electric_scooter", "bike_id": "357de589abfa009bfed9864067d832a7", "name": "357de589abfa009bfed9864067d832a7"}, {"lon": -77.0338055, "is_disabled": 0, "lat": 38.9236515, "fusion_lat": 0.0, "is_reserved": 0, "rental_uris": {"ios": "https://dc.lft.to/lastmile_qr_scan", "android": "https://dc.lft.to/lastmile_qr_scan"}, "fusion_lon": 0.0, "type": "electric_scooter", "bike_id": "dd0f11147b1b86dbd5c556ba1099d041", "name": "dd0f11147b1b86dbd5c556ba1099d041"}, {"lon": -77.03841633333333, "is_disabled": 0, "lat": 38.9111835, "fusion_lat": 0.0, "is_reserved": 0, "rental_uris": {"ios": "https://dc.lft.to/lastmile_qr_scan", "android": "https://dc.lft.to/lastmile_qr_scan"}, "fusion_lon": 0.0, "type": "electric_scooter", "bike_id": "6c722c833a0c03596f512ff1d59a2609", "name": "6c722c833a0c03596f512ff1d59a2609"}, {"lon": -77.00717633333333, "is_disabled": 0, "lat": 38.884928333333335, "fusion_lat": 0.0, "is_reserved": 0, "rental_uris": {"ios": "https://dc.lft.to/lastmile_qr_scan", "android": "https://dc.lft.to/lastmile_qr_scan"}, "fusion_lon": 0.0, "type": "electric_scooter", "bike_id": "9c83d38a826ed955716b5fda3000f95c", "name": "9c83d38a826ed955716b5fda3000f95c"}, {"lon": -77.02765483333333, "is_disabled": 0, "lat": 38.9169995, "fusion_lat": 0.0, "is_reserved": 0, "rental_uris": {"ios": "https://dc.lft.to/lastmile_qr_scan", "android": "https://dc.lft.to/lastmile_qr_scan"}, "fusion_lon": 0.0, "type": "electric_scooter", "bike_id": "f593623487f2f7f9660ab30bbfb60589", "name": "f593623487f2f7f9660ab30bbfb60589"}, {"lon": -77.02405116666667, "is_disabled": 0, "lat": 38.9140695, "fusion_lat": 0.0, "is_reserved": 0, "rental_uris": {"ios": "https://dc.lft.to/lastmile_qr_scan", "android": "https://dc.lft.to/lastmile_qr_scan"}, "fusion_lon": 0.0, "type": "electric_scooter", "bike_id": "c13e7b975dc58b4d41def4eb2c90fc09", "name": "c13e7b975dc58b4d41def4eb2c90fc09"}, {"lon": -77.006278, "is_disabled": 0, "lat": 38.87181666666667, "fusion_lat": 0.0, "is_reserved": 0, "rental_uris": {"ios": "https://dc.lft.to/lastmile_qr_scan", "android": "https://dc.lft.to/lastmile_qr_scan"}, "fusion_lon": 0.0, "type": "electric_scooter", "bike_id": "ba23ba84d3f98c5611aac85456e448e6", "name": "ba23ba84d3f98c5611aac85456e448e6"}, {"lon": -77.039606, "is_disabled": 0, "lat": 38.90204683333333, "fusion_lat": 0.0, "is_reserved": 0, "rental_uris": {"ios": "https://dc.lft.to/lastmile_qr_scan", "android": "https://dc.lft.to/lastmile_qr_scan"}, "fusion_lon": 0.0, "type": "electric_bike", "bike_id": "c7dc9e8242cfb31b5478a2ef565b3283", "name": "c7dc9e8242cfb31b5478a2ef565b3283"}, {"lon": -77.0509115, "is_disabled": 0, "lat": 38.92342283333333, "fusion_lat": 0.0, "is_reserved": 0, "rental_uris": {"ios": "https://dc.lft.to/lastmile_qr_scan", "android": "https://dc.lft.to/lastmile_qr_scan"}, "fusion_lon": 0.0, "type": "electric_scooter", "bike_id": "66a40e7bf3642d8a51ebf55e23fc7955", "name": "66a40e7bf3642d8a51ebf55e23fc7955"}, {"lon": -77.031707, "is_disabled": 0, "lat": 38.91424816666667, "fusion_lat": 0.0, "is_reserved": 0, "rental_uris": {"ios": "https://dc.lft.to/lastmile_qr_scan", "android": "https://dc.lft.to/lastmile_qr_scan"}, "fusion_lon": 0.0, "type": "electric_scooter", "bike_id": "a056951632798747749c8ea375f1ff62", "name": "a056951632798747749c8ea375f1ff62"}, {"lon": -76.95190966666667, "is_disabled": 0, "lat": 38.89138666666667, "fusion_lat": 0.0, "is_reserved": 0, "rental_uris": {"ios": "https://dc.lft.to/lastmile_qr_scan", "android": "https://dc.lft.to/lastmile_qr_scan"}, "fusion_lon": 0.0, "type": "electric_scooter", "bike_id": "5afd9e8b8b3e6f52b832a5fe6bb2f57a", "name": "5afd9e8b8b3e6f52b832a5fe6bb2f57a"}, {"lon": -77.00908416666667, "is_disabled": 0, "lat": 38.8964645, "fusion_lat": 0.0, "is_reserved": 0, "rental_uris": {"ios": "https://dc.lft.to/lastmile_qr_scan", "android": "https://dc.lft.to/lastmile_qr_scan"}, "fusion_lon": 0.0, "type": "electric_scooter", "bike_id": "f2da2225e0bcf157a0f32a55eca203e7", "name": "f2da2225e0bcf157a0f32a55eca203e7"}, {"lon": -77.0295925, "is_disabled": 0, "lat": 38.922629, "fusion_lat": 0.0, "is_reserved": 0, "rental_uris": {"ios": "https://dc.lft.to/lastmile_qr_scan", "android": "https://dc.lft.to/lastmile_qr_scan"}, "fusion_lon": 0.0, "type": "electric_scooter", "bike_id": "18aebefabd07336277c6ceb09211e1ac", "name": "18aebefabd07336277c6ceb09211e1ac"}, {"lon": -77.04294583333333, "is_disabled": 0, "lat": 38.9066555, "fusion_lat": 0.0, "is_reserved": 0, "rental_uris": {"ios": "https://dc.lft.to/lastmile_qr_scan", "android": "https://dc.lft.to/lastmile_qr_scan"}, "fusion_lon": 0.0, "type": "electric_scooter", "bike_id": "072a4051b29df4e2f7d8d74b1d9079ed", "name": "072a4051b29df4e2f7d8d74b1d9079ed"}, {"lon": -77.000636, "is_disabled": 0, "lat": 38.8769315, "fusion_lat": 0.0, "is_reserved": 0, "rental_uris": {"ios": "https://dc.lft.to/lastmile_qr_scan", "android": "https://dc.lft.to/lastmile_qr_scan"}, "fusion_lon": 0.0, "type": "electric_scooter", "bike_id": "1ee65ce1b46ca6bc8d1cb8cfc4098322", "name": "1ee65ce1b46ca6bc8d1cb8cfc4098322"}, {"lon": -77.0337595, "is_disabled": 0, "lat": 38.92144483333333, "fusion_lat": 0.0, "is_reserved": 0, "rental_uris": {"ios": "https://dc.lft.to/lastmile_qr_scan", "android": "https://dc.lft.to/lastmile_qr_scan"}, "fusion_lon": 0.0, "type": "electric_scooter", "bike_id": "72b6722fd40b765af480d537c85dc699", "name": "72b6722fd40b765af480d537c85dc699"}, {"lon": -77.07166866666667, "is_disabled": 0, "lat": 38.9087665, "fusion_lat": 0.0, "is_reserved": 0, "rental_uris": {"ios": "https://dc.lft.to/lastmile_qr_scan", "android": "https://dc.lft.to/lastmile_qr_scan"}, "fusion_lon": 0.0, "type": "electric_scooter", "bike_id": "a0196168653b45a4958f7ffa7bd813d1", "name": "a0196168653b45a4958f7ffa7bd813d1"}, {"lon": -76.98543733333334, "is_disabled": 0, "lat": 38.8669055, "fusion_lat": 0.0, "is_reserved": 0, "rental_uris": {"ios": "https://dc.lft.to/lastmile_qr_scan", "android": "https://dc.lft.to/lastmile_qr_scan"}, "fusion_lon": 0.0, "type": "electric_scooter", "bike_id": "128b931a9ab032b3cd80a245ff1d5346", "name": "128b931a9ab032b3cd80a245ff1d5346"}, {"lon": -76.99754683333333, "is_disabled": 0, "lat": 38.877510666666666, "fusion_lat": 0.0, "is_reserved": 0, "rental_uris": {"ios": "https://dc.lft.to/lastmile_qr_scan", "android": "https://dc.lft.to/lastmile_qr_scan"}, "fusion_lon": 0.0, "type": "electric_scooter", "bike_id": "9767edac2d61f47eae9ab5e84f8480ef", "name": "9767edac2d61f47eae9ab5e84f8480ef"}, {"lon": -76.9912905, "is_disabled": 0, "lat": 38.84642383333333, "fusion_lat": 0.0, "is_reserved": 0, "rental_uris": {"ios": "https://dc.lft.to/lastmile_qr_scan", "android": "https://dc.lft.to/lastmile_qr_scan"}, "fusion_lon": 0.0, "type": "electric_scooter", "bike_id": "ff49cb09c20caffe451ac6469060df7c", "name": "ff49cb09c20caffe451ac6469060df7c"}, {"lon": -77.01742666666667, "is_disabled": 0, "lat": 38.9027055, "fusion_lat": 0.0, "is_reserved": 0, "rental_uris": {"ios": "https://dc.lft.to/lastmile_qr_scan", "android": "https://dc.lft.to/lastmile_qr_scan"}, "fusion_lon": 0.0, "type": "electric_scooter", "bike_id": "d43901efc9e610bafe3a617e83d5a75a", "name": "d43901efc9e610bafe3a617e83d5a75a"}, {"lon": -76.94932483333334, "is_disabled": 0, "lat": 38.893597166666666, "fusion_lat": 0.0, "is_reserved": 0, "rental_uris": {"ios": "https://dc.lft.to/lastmile_qr_scan", "android": "https://dc.lft.to/lastmile_qr_scan"}, "fusion_lon": 0.0, "type": "electric_scooter", "bike_id": "8fcc4930acd7cd71becfa1ebd938c59c", "name": "8fcc4930acd7cd71becfa1ebd938c59c"}, {"lon": -77.00055566666667, "is_disabled": 0, "lat": 38.923292000000004, "fusion_lat": 0.0, "is_reserved": 0, "rental_uris": {"ios": "https://dc.lft.to/lastmile_qr_scan", "android": "https://dc.lft.to/lastmile_qr_scan"}, "fusion_lon": 0.0, "type": "electric_scooter", "bike_id": "746895027b33d96fa1daf026d26d17ea", "name": "746895027b33d96fa1daf026d26d17ea"}, {"lon": -76.94637316666666, "is_disabled": 0, "lat": 38.89838683333333, "fusion_lat": 0.0, "is_reserved": 0, "rental_uris": {"ios": "https://dc.lft.to/lastmile_qr_scan", "android": "https://dc.lft.to/lastmile_qr_scan"}, "fusion_lon": 0.0, "type": "electric_scooter", "bike_id": "a58ed816fc22e4ee1d47ae0f978b2003", "name": "a58ed816fc22e4ee1d47ae0f978b2003"}, {"lon": -77.042517, "is_disabled": 0, "lat": 38.92364033333333, "fusion_lat": 0.0, "is_reserved": 0, "rental_uris": {"ios": "https://dc.lft.to/lastmile_qr_scan", "android": "https://dc.lft.to/lastmile_qr_scan"}, "fusion_lon": 0.0, "type": "electric_scooter", "bike_id": "ca3bf21285f067fd16acb88f5c2c4d56", "name": "ca3bf21285f067fd16acb88f5c2c4d56"}, {"lon": -77.01776383333333, "is_disabled": 0, "lat": 38.9150415, "fusion_lat": 0.0, "is_reserved": 0, "rental_uris": {"ios": "https://dc.lft.to/lastmile_qr_scan", "android": "https://dc.lft.to/lastmile_qr_scan"}, "fusion_lon": 0.0, "type": "electric_scooter", "bike_id": "bbc1d1f7023621456d809f0813ccaeb2", "name": "bbc1d1f7023621456d809f0813ccaeb2"}, {"lon": -77.032572, "is_disabled": 0, "lat": 38.93968683333333, "fusion_lat": 0.0, "is_reserved": 0, "rental_uris": {"ios": "https://dc.lft.to/lastmile_qr_scan", "android": "https://dc.lft.to/lastmile_qr_scan"}, "fusion_lon": 0.0, "type": "electric_scooter", "bike_id": "92db1e25e34cdc1c5ca209f5296b432c", "name": "92db1e25e34cdc1c5ca209f5296b432c"}, {"lon": -77.03961866666667, "is_disabled": 0, "lat": 38.89866216666667, "fusion_lat": 0.0, "is_reserved": 0, "rental_uris": {"ios": "https://dc.lft.to/lastmile_qr_scan", "android": "https://dc.lft.to/lastmile_qr_scan"}, "fusion_lon": 0.0, "type": "electric_scooter", "bike_id": "5cbf028a8700aad7435d3b51bbac4ede", "name": "5cbf028a8700aad7435d3b51bbac4ede"}, {"lon": -77.04183083333334, "is_disabled": 0, "lat": 38.90125416666667, "fusion_lat": 0.0, "is_reserved": 0, "rental_uris": {"ios": "https://dc.lft.to/lastmile_qr_scan", "android": "https://dc.lft.to/lastmile_qr_scan"}, "fusion_lon": 0.0, "type": "electric_scooter", "bike_id": "13503c849426834bcf1a69bd7cc7f39e", "name": "13503c849426834bcf1a69bd7cc7f39e"}, {"lon": -76.99771166666666, "is_disabled": 0, "lat": 38.908941, "fusion_lat": 0.0, "is_reserved": 0, "rental_uris": {"ios": "https://dc.lft.to/lastmile_qr_scan", "android": "https://dc.lft.to/lastmile_qr_scan"}, "fusion_lon": 0.0, "type": "electric_scooter", "bike_id": "e71007613f4d747728f9326b12476d29", "name": "e71007613f4d747728f9326b12476d29"}, {"lon": -77.1086185, "is_disabled": 0, "lat": 38.84602133333333, "fusion_lat": 0.0, "is_reserved": 0, "rental_uris": {"ios": "https://dc.lft.to/lastmile_qr_scan", "android": "https://dc.lft.to/lastmile_qr_scan"}, "fusion_lon": 0.0, "type": "electric_bike", "bike_id": "20d657d98cf8fcb6500623026b275044", "name": "20d657d98cf8fcb6500623026b275044"}, {"lon": -77.02358666666667, "is_disabled": 0, "lat": 38.900031, "fusion_lat": 0.0, "is_reserved": 0, "rental_uris": {"ios": "https://dc.lft.to/lastmile_qr_scan", "android": "https://dc.lft.to/lastmile_qr_scan"}, "fusion_lon": 0.0, "type": "electric_scooter", "bike_id": "2e886110abd064826cb8d570064fef32", "name": "2e886110abd064826cb8d570064fef32"}, {"lon": -77.0068005, "is_disabled": 0, "lat": 38.87173683333333, "fusion_lat": 0.0, "is_reserved": 0, "rental_uris": {"ios": "https://dc.lft.to/lastmile_qr_scan", "android": "https://dc.lft.to/lastmile_qr_scan"}, "fusion_lon": 0.0, "type": "electric_scooter", "bike_id": "719b2538c89a8e3ceb6c338c54b21fe1", "name": "719b2538c89a8e3ceb6c338c54b21fe1"}, {"lon": -77.0208855, "is_disabled": 0, "lat": 38.924083, "fusion_lat": 0.0, "is_reserved": 0, "rental_uris": {"ios": "https://dc.lft.to/lastmile_qr_scan", "android": "https://dc.lft.to/lastmile_qr_scan"}, "fusion_lon": 0.0, "type": "electric_scooter", "bike_id": "0dd6aee190da333abc79ab7d57f52a4b", "name": "0dd6aee190da333abc79ab7d57f52a4b"}, {"lon": -77.02119966666666, "is_disabled": 0, "lat": 38.91416383333333, "fusion_lat": 0.0, "is_reserved": 0, "rental_uris": {"ios": "https://dc.lft.to/lastmile_qr_scan", "android": "https://dc.lft.to/lastmile_qr_scan"}, "fusion_lon": 0.0, "type": "electric_scooter", "bike_id": "83ba2a3bd6250d3a69af77833b46bf42", "name": "83ba2a3bd6250d3a69af77833b46bf42"}, {"lon": -77.0325675, "is_disabled": 0, "lat": 38.9397075, "fusion_lat": 0.0, "is_reserved": 0, "rental_uris": {"ios": "https://dc.lft.to/lastmile_qr_scan", "android": "https://dc.lft.to/lastmile_qr_scan"}, "fusion_lon": 0.0, "type": "electric_scooter", "bike_id": "eb3b244134822b1ac07665e8300fd20f", "name": "eb3b244134822b1ac07665e8300fd20f"}, {"lon": -77.050456, "is_disabled": 0, "lat": 38.92342283333333, "fusion_lat": 0.0, "is_reserved": 0, "rental_uris": {"ios": "https://dc.lft.to/lastmile_qr_scan", "android": "https://dc.lft.to/lastmile_qr_scan"}, "fusion_lon": 0.0, "type": "electric_scooter", "bike_id": "bda2a3099f64342687074b2b041654d8", "name": "bda2a3099f64342687074b2b041654d8"}, {"lon": -77.01535983333333, "is_disabled": 0, "lat": 38.884899833333336, "fusion_lat": 0.0, "is_reserved": 0, "rental_uris": {"ios": "https://dc.lft.to/lastmile_qr_scan", "android": "https://dc.lft.to/lastmile_qr_scan"}, "fusion_lon": 0.0, "type": "electric_scooter", "bike_id": "b8884bd22fc475d93051555d0c092f70", "name": "b8884bd22fc475d93051555d0c092f70"}, {"lon": -77.01941066666667, "is_disabled": 0, "lat": 38.924144166666665, "fusion_lat": 0.0, "is_reserved": 0, "rental_uris": {"ios": "https://dc.lft.to/lastmile_qr_scan", "android": "https://dc.lft.to/lastmile_qr_scan"}, "fusion_lon": 0.0, "type": "electric_scooter", "bike_id": "5557e25c941ab4b34e7147958d84b9d8", "name": "5557e25c941ab4b34e7147958d84b9d8"}, {"lon": -76.995084, "is_disabled": 0, "lat": 38.8217965, "fusion_lat": 0.0, "is_reserved": 0, "rental_uris": {"ios": "https://dc.lft.to/lastmile_qr_scan", "android": "https://dc.lft.to/lastmile_qr_scan"}, "fusion_lon": 0.0, "type": "electric_bike", "bike_id": "c55471cee7921296bd18058d2df38f5f", "name": "c55471cee7921296bd18058d2df38f5f"}, {"lon": -77.05743316666667, "is_disabled": 0, "lat": 38.9338965, "fusion_lat": 0.0, "is_reserved": 0, "rental_uris": {"ios": "https://dc.lft.to/lastmile_qr_scan", "android": "https://dc.lft.to/lastmile_qr_scan"}, "fusion_lon": 0.0, "type": "electric_scooter", "bike_id": "4de691e371661f153d0faf7ec4e04753", "name": "4de691e371661f153d0faf7ec4e04753"}, {"lon": -77.03194, "is_disabled": 0, "lat": 38.90986916666667, "fusion_lat": 0.0, "is_reserved": 0, "rental_uris": {"ios": "https://dc.lft.to/lastmile_qr_scan", "android": "https://dc.lft.to/lastmile_qr_scan"}, "fusion_lon": 0.0, "type": "electric_scooter", "bike_id": "5f7986c048ca56f3cfe75b84382fa4b6", "name": "5f7986c048ca56f3cfe75b84382fa4b6"}, {"lon": -77.04498066666666, "is_disabled": 0, "lat": 38.91189833333333, "fusion_lat": 0.0, "is_reserved": 0, "rental_uris": {"ios": "https://dc.lft.to/lastmile_qr_scan", "android": "https://dc.lft.to/lastmile_qr_scan"}, "fusion_lon": 0.0, "type": "electric_scooter", "bike_id": "5ad32d49f346947e97cc39205176efde", "name": "5ad32d49f346947e97cc39205176efde"}, {"lon": -77.02403533333333, "is_disabled": 0, "lat": 38.9175435, "fusion_lat": 0.0, "is_reserved": 0, "rental_uris": {"ios": "https://dc.lft.to/lastmile_qr_scan", "android": "https://dc.lft.to/lastmile_qr_scan"}, "fusion_lon": 0.0, "type": "electric_scooter", "bike_id": "9f00a197a6b9c223fb5fe2c939026205", "name": "9f00a197a6b9c223fb5fe2c939026205"}, {"lon": -77.20138433333334, "is_disabled": 0, "lat": 38.922222833333336, "fusion_lat": 0.0, "is_reserved": 0, "rental_uris": {"ios": "https://dc.lft.to/lastmile_qr_scan", "android": "https://dc.lft.to/lastmile_qr_scan"}, "fusion_lon": 0.0, "type": "electric_bike", "bike_id": "c951b4a00f36d44f7633795add349a0a", "name": "c951b4a00f36d44f7633795add349a0a"}, {"lon": -76.94640716666666, "is_disabled": 0, "lat": 38.898705, "fusion_lat": 0.0, "is_reserved": 0, "rental_uris": {"ios": "https://dc.lft.to/lastmile_qr_scan", "android": "https://dc.lft.to/lastmile_qr_scan"}, "fusion_lon": 0.0, "type": "electric_scooter", "bike_id": "122db8ce68296c4b9d103b331c90f701", "name": "122db8ce68296c4b9d103b331c90f701"}, {"lon": -77.02233583333333, "is_disabled": 0, "lat": 38.93476783333333, "fusion_lat": 0.0, "is_reserved": 0, "rental_uris": {"ios": "https://dc.lft.to/lastmile_qr_scan", "android": "https://dc.lft.to/lastmile_qr_scan"}, "fusion_lon": 0.0, "type": "electric_scooter", "bike_id": "c222651ea1f148b893fff42eae5999b0", "name": "c222651ea1f148b893fff42eae5999b0"}, {"lon": -77.03760866666667, "is_disabled": 0, "lat": 38.916953, "fusion_lat": 0.0, "is_reserved": 0, "rental_uris": {"ios": "https://dc.lft.to/lastmile_qr_scan", "android": "https://dc.lft.to/lastmile_qr_scan"}, "fusion_lon": 0.0, "type": "electric_scooter", "bike_id": "eace2e6a7a62618bbc139cf805d177ba", "name": "eace2e6a7a62618bbc139cf805d177ba"}, {"lon": -77.032872, "is_disabled": 0, "lat": 38.92273316666667, "fusion_lat": 0.0, "is_reserved": 0, "rental_uris": {"ios": "https://dc.lft.to/lastmile_qr_scan", "android": "https://dc.lft.to/lastmile_qr_scan"}, "fusion_lon": 0.0, "type": "electric_scooter", "bike_id": "f18a7ed512cabb08afdd2865f7ed5bd1", "name": "f18a7ed512cabb08afdd2865f7ed5bd1"}, {"lon": -76.97094666666666, "is_disabled": 0, "lat": 38.87066733333333, "fusion_lat": 0.0, "is_reserved": 0, "rental_uris": {"ios": "https://dc.lft.to/lastmile_qr_scan", "android": "https://dc.lft.to/lastmile_qr_scan"}, "fusion_lon": 0.0, "type": "electric_scooter", "bike_id": "b33aca5d4e8196ac45ae890a95472034", "name": "b33aca5d4e8196ac45ae890a95472034"}, {"lon": -77.03157583333333, "is_disabled": 0, "lat": 38.96445116666666, "fusion_lat": 0.0, "is_reserved": 0, "rental_uris": {"ios": "https://dc.lft.to/lastmile_qr_scan", "android": "https://dc.lft.to/lastmile_qr_scan"}, "fusion_lon": 0.0, "type": "electric_bike", "bike_id": "313d4ff60580f9a7c33085e68dbb1ac4", "name": "313d4ff60580f9a7c33085e68dbb1ac4"}, {"lon": -76.97104966666667, "is_disabled": 0, "lat": 38.9244855, "fusion_lat": 0.0, "is_reserved": 0, "rental_uris": {"ios": "https://dc.lft.to/lastmile_qr_scan", "android": "https://dc.lft.to/lastmile_qr_scan"}, "fusion_lon": 0.0, "type": "electric_bike", "bike_id": "89a23f3fdfe8a5a87a245816ee68a68e", "name": "89a23f3fdfe8a5a87a245816ee68a68e"}, {"lon": -77.04678266666667, "is_disabled": 0, "lat": 38.8933155, "fusion_lat": 0.0, "is_reserved": 0, "rental_uris": {"ios": "https://dc.lft.to/lastmile_qr_scan", "android": "https://dc.lft.to/lastmile_qr_scan"}, "fusion_lon": 0.0, "type": "electric_scooter", "bike_id": "0ca995cdf944b4823761b6dc36b2cb23", "name": "0ca995cdf944b4823761b6dc36b2cb23"}, {"lon": -77.03306083333334, "is_disabled": 0, "lat": 38.9245625, "fusion_lat": 0.0, "is_reserved": 0, "rental_uris": {"ios": "https://dc.lft.to/lastmile_qr_scan", "android": "https://dc.lft.to/lastmile_qr_scan"}, "fusion_lon": 0.0, "type": "electric_scooter", "bike_id": "23177c318ea47438280a3128aaf150b8", "name": "23177c318ea47438280a3128aaf150b8"}, {"lon": -77.0862955, "is_disabled": 0, "lat": 38.809783333333336, "fusion_lat": 0.0, "is_reserved": 0, "rental_uris": {"ios": "https://dc.lft.to/lastmile_qr_scan", "android": "https://dc.lft.to/lastmile_qr_scan"}, "fusion_lon": 0.0, "type": "electric_bike", "bike_id": "5ebf2cec3fdfcc73fe573d2427e78910", "name": "5ebf2cec3fdfcc73fe573d2427e78910"}, {"lon": -77.036722, "is_disabled": 0, "lat": 38.931705, "fusion_lat": 0.0, "is_reserved": 0, "rental_uris": {"ios": "https://dc.lft.to/lastmile_qr_scan", "android": "https://dc.lft.to/lastmile_qr_scan"}, "fusion_lon": 0.0, "type": "electric_scooter", "bike_id": "f6e2f36eb6fb475efb9be06fc632bf4e", "name": "f6e2f36eb6fb475efb9be06fc632bf4e"}, {"lon": -77.02222216666667, "is_disabled": 0, "lat": 38.89220816666667, "fusion_lat": 0.0, "is_reserved": 0, "rental_uris": {"ios": "https://dc.lft.to/lastmile_qr_scan", "android": "https://dc.lft.to/lastmile_qr_scan"}, "fusion_lon": 0.0, "type": "electric_scooter", "bike_id": "f8b26634fa05726cb41ac6694e1ba55d", "name": "f8b26634fa05726cb41ac6694e1ba55d"}, {"lon": -77.05001816666666, "is_disabled": 0, "lat": 38.89233466666667, "fusion_lat": 0.0, "is_reserved": 0, "rental_uris": {"ios": "https://dc.lft.to/lastmile_qr_scan", "android": "https://dc.lft.to/lastmile_qr_scan"}, "fusion_lon": 0.0, "type": "electric_scooter", "bike_id": "a9f7e93c14c45b826efc2e9f61151a8c", "name": "a9f7e93c14c45b826efc2e9f61151a8c"}, {"lon": -77.009275, "is_disabled": 0, "lat": 38.91806916666667, "fusion_lat": 0.0, "is_reserved": 0, "rental_uris": {"ios": "https://dc.lft.to/lastmile_qr_scan", "android": "https://dc.lft.to/lastmile_qr_scan"}, "fusion_lon": 0.0, "type": "electric_scooter", "bike_id": "76aca6959dd2c0246972b89256c4b8ae", "name": "76aca6959dd2c0246972b89256c4b8ae"}, {"lon": -77.028227, "is_disabled": 0, "lat": 38.8866055, "fusion_lat": 0.0, "is_reserved": 0, "rental_uris": {"ios": "https://dc.lft.to/lastmile_qr_scan", "android": "https://dc.lft.to/lastmile_qr_scan"}, "fusion_lon": 0.0, "type": "electric_scooter", "bike_id": "6190e38c91b22520d2c8fad9f13ddd28", "name": "6190e38c91b22520d2c8fad9f13ddd28"}, {"lon": -77.00335883333334, "is_disabled": 0, "lat": 38.8935415, "fusion_lat": 0.0, "is_reserved": 0, "rental_uris": {"ios": "https://dc.lft.to/lastmile_qr_scan", "android": "https://dc.lft.to/lastmile_qr_scan"}, "fusion_lon": 0.0, "type": "electric_scooter", "bike_id": "5ee39192e67e1181431973ddde2984f1", "name": "5ee39192e67e1181431973ddde2984f1"}, {"lon": -77.01265483333333, "is_disabled": 0, "lat": 38.89922583333333, "fusion_lat": 0.0, "is_reserved": 0, "rental_uris": {"ios": "https://dc.lft.to/lastmile_qr_scan", "android": "https://dc.lft.to/lastmile_qr_scan"}, "fusion_lon": 0.0, "type": "electric_scooter", "bike_id": "ffbfd42322d6cf7db6004fc1206506c6", "name": "ffbfd42322d6cf7db6004fc1206506c6"}, {"lon": -76.9851445, "is_disabled": 0, "lat": 38.860598333333336, "fusion_lat": 0.0, "is_reserved": 0, "rental_uris": {"ios": "https://dc.lft.to/lastmile_qr_scan", "android": "https://dc.lft.to/lastmile_qr_scan"}, "fusion_lon": 0.0, "type": "electric_scooter", "bike_id": "82f686b5fdae319e632ad7c9032e483f", "name": "82f686b5fdae319e632ad7c9032e483f"}, {"lon": -77.04762783333334, "is_disabled": 0, "lat": 38.91758183333334, "fusion_lat": 0.0, "is_reserved": 0, "rental_uris": {"ios": "https://dc.lft.to/lastmile_qr_scan", "android": "https://dc.lft.to/lastmile_qr_scan"}, "fusion_lon": 0.0, "type": "electric_scooter", "bike_id": "d24484caf3dd399db65694b33b62410d", "name": "d24484caf3dd399db65694b33b62410d"}, {"lon": -77.03430183333333, "is_disabled": 0, "lat": 38.91922683333333, "fusion_lat": 0.0, "is_reserved": 0, "rental_uris": {"ios": "https://dc.lft.to/lastmile_qr_scan", "android": "https://dc.lft.to/lastmile_qr_scan"}, "fusion_lon": 0.0, "type": "electric_scooter", "bike_id": "4b1f9fcfebdde1e3cc24b8febaad6a2d", "name": "4b1f9fcfebdde1e3cc24b8febaad6a2d"}, {"lon": -77.04400216666667, "is_disabled": 0, "lat": 38.911033833333335, "fusion_lat": 0.0, "is_reserved": 0, "rental_uris": {"ios": "https://dc.lft.to/lastmile_qr_scan", "android": "https://dc.lft.to/lastmile_qr_scan"}, "fusion_lon": 0.0, "type": "electric_scooter", "bike_id": "862640fa9166f33409209c3c9c5b394d", "name": "862640fa9166f33409209c3c9c5b394d"}, {"lon": -77.03444583333334, "is_disabled": 0, "lat": 38.90947583333333, "fusion_lat": 0.0, "is_reserved": 0, "rental_uris": {"ios": "https://dc.lft.to/lastmile_qr_scan", "android": "https://dc.lft.to/lastmile_qr_scan"}, "fusion_lon": 0.0, "type": "electric_scooter", "bike_id": "2427032d9c658e75e0f97eadabc4a555", "name": "2427032d9c658e75e0f97eadabc4a555"}, {"lon": -77.03184883333333, "is_disabled": 0, "lat": 38.899872333333334, "fusion_lat": 0.0, "is_reserved": 0, "rental_uris": {"ios": "https://dc.lft.to/lastmile_qr_scan", "android": "https://dc.lft.to/lastmile_qr_scan"}, "fusion_lon": 0.0, "type": "electric_scooter", "bike_id": "8febfe8268947db6db1c5fc62f1dae38", "name": "8febfe8268947db6db1c5fc62f1dae38"}, {"lon": -77.02363733333334, "is_disabled": 0, "lat": 38.92515816666667, "fusion_lat": 0.0, "is_reserved": 0, "rental_uris": {"ios": "https://dc.lft.to/lastmile_qr_scan", "android": "https://dc.lft.to/lastmile_qr_scan"}, "fusion_lon": 0.0, "type": "electric_scooter", "bike_id": "1de101b3ef01c0af87f94af8a2d8751d", "name": "1de101b3ef01c0af87f94af8a2d8751d"}, {"lon": -77.02868933333333, "is_disabled": 0, "lat": 38.99897083333333, "fusion_lat": 0.0, "is_reserved": 0, "rental_uris": {"ios": "https://dc.lft.to/lastmile_qr_scan", "android": "https://dc.lft.to/lastmile_qr_scan"}, "fusion_lon": 0.0, "type": "electric_bike", "bike_id": "7505c4eb3c9aa799d453a5698f882712", "name": "7505c4eb3c9aa799d453a5698f882712"}, {"lon": -77.0316595, "is_disabled": 0, "lat": 38.920935666666665, "fusion_lat": 0.0, "is_reserved": 0, "rental_uris": {"ios": "https://dc.lft.to/lastmile_qr_scan", "android": "https://dc.lft.to/lastmile_qr_scan"}, "fusion_lon": 0.0, "type": "electric_scooter", "bike_id": "52cbdc99f26ed896dc41fe0cf68f16e1", "name": "52cbdc99f26ed896dc41fe0cf68f16e1"}, {"lon": -77.020975, "is_disabled": 0, "lat": 38.92710316666667, "fusion_lat": 0.0, "is_reserved": 0, "rental_uris": {"ios": "https://dc.lft.to/lastmile_qr_scan", "android": "https://dc.lft.to/lastmile_qr_scan"}, "fusion_lon": 0.0, "type": "electric_scooter", "bike_id": "49ab44ba198a61fae50d560c3c87b1b0", "name": "49ab44ba198a61fae50d560c3c87b1b0"}, {"lon": -77.02284833333333, "is_disabled": 0, "lat": 38.915688833333334, "fusion_lat": 0.0, "is_reserved": 0, "rental_uris": {"ios": "https://dc.lft.to/lastmile_qr_scan", "android": "https://dc.lft.to/lastmile_qr_scan"}, "fusion_lon": 0.0, "type": "electric_scooter", "bike_id": "625e3e6e8bf499995ad36865fb37b11c", "name": "625e3e6e8bf499995ad36865fb37b11c"}, {"lon": -77.05129216666667, "is_disabled": 0, "lat": 38.90632083333333, "fusion_lat": 0.0, "is_reserved": 0, "rental_uris": {"ios": "https://dc.lft.to/lastmile_qr_scan", "android": "https://dc.lft.to/lastmile_qr_scan"}, "fusion_lon": 0.0, "type": "electric_scooter", "bike_id": "26a7c84879f5cb1f95865f286143fc4e", "name": "26a7c84879f5cb1f95865f286143fc4e"}, {"lon": -77.05544533333334, "is_disabled": 0, "lat": 38.930052833333335, "fusion_lat": 0.0, "is_reserved": 0, "rental_uris": {"ios": "https://dc.lft.to/lastmile_qr_scan", "android": "https://dc.lft.to/lastmile_qr_scan"}, "fusion_lon": 0.0, "type": "electric_scooter", "bike_id": "6b5d3d5f18cb94cb18700aa20567a961", "name": "6b5d3d5f18cb94cb18700aa20567a961"}, {"lon": -77.03433533333333, "is_disabled": 0, "lat": 38.919218666666666, "fusion_lat": 0.0, "is_reserved": 0, "rental_uris": {"ios": "https://dc.lft.to/lastmile_qr_scan", "android": "https://dc.lft.to/lastmile_qr_scan"}, "fusion_lon": 0.0, "type": "electric_scooter", "bike_id": "a8ca90b3d96bab97c9300031c050140c", "name": "a8ca90b3d96bab97c9300031c050140c"}, {"lon": -77.0328445, "is_disabled": 0, "lat": 38.898970166666665, "fusion_lat": 0.0, "is_reserved": 0, "rental_uris": {"ios": "https://dc.lft.to/lastmile_qr_scan", "android": "https://dc.lft.to/lastmile_qr_scan"}, "fusion_lon": 0.0, "type": "electric_scooter", "bike_id": "19d47015e9c427fea448a1210cf68812", "name": "19d47015e9c427fea448a1210cf68812"}, {"lon": -77.03735583333334, "is_disabled": 0, "lat": 38.926556833333336, "fusion_lat": 0.0, "is_reserved": 0, "rental_uris": {"ios": "https://dc.lft.to/lastmile_qr_scan", "android": "https://dc.lft.to/lastmile_qr_scan"}, "fusion_lon": 0.0, "type": "electric_scooter", "bike_id": "da0b071c322ab5d1ccf4824b2fa2741f", "name": "da0b071c322ab5d1ccf4824b2fa2741f"}, {"lon": -77.021325, "is_disabled": 0, "lat": 38.923648166666666, "fusion_lat": 0.0, "is_reserved": 0, "rental_uris": {"ios": "https://dc.lft.to/lastmile_qr_scan", "android": "https://dc.lft.to/lastmile_qr_scan"}, "fusion_lon": 0.0, "type": "electric_scooter", "bike_id": "11219590a8aeb0f830331dfad341c4dc", "name": "11219590a8aeb0f830331dfad341c4dc"}, {"lon": -77.00899266666667, "is_disabled": 0, "lat": 38.875152666666665, "fusion_lat": 0.0, "is_reserved": 0, "rental_uris": {"ios": "https://dc.lft.to/lastmile_qr_scan", "android": "https://dc.lft.to/lastmile_qr_scan"}, "fusion_lon": 0.0, "type": "electric_bike", "bike_id": "601b62121b917c51948e6983e0c131cc", "name": "601b62121b917c51948e6983e0c131cc"}, {"lon": -77.04562633333333, "is_disabled": 0, "lat": 38.914828166666666, "fusion_lat": 0.0, "is_reserved": 0, "rental_uris": {"ios": "https://dc.lft.to/lastmile_qr_scan", "android": "https://dc.lft.to/lastmile_qr_scan"}, "fusion_lon": 0.0, "type": "electric_scooter", "bike_id": "177c79e47c91c17ab7b1dadd2bbf434f", "name": "177c79e47c91c17ab7b1dadd2bbf434f"}, {"lon": -77.02490416666667, "is_disabled": 0, "lat": 38.95777966666667, "fusion_lat": 0.0, "is_reserved": 0, "rental_uris": {"ios": "https://dc.lft.to/lastmile_qr_scan", "android": "https://dc.lft.to/lastmile_qr_scan"}, "fusion_lon": 0.0, "type": "electric_scooter", "bike_id": "7f016f03de6ba4bd8aced97e43ab32be", "name": "7f016f03de6ba4bd8aced97e43ab32be"}, {"lon": -77.041564, "is_disabled": 0, "lat": 38.90024716666667, "fusion_lat": 0.0, "is_reserved": 0, "rental_uris": {"ios": "https://dc.lft.to/lastmile_qr_scan", "android": "https://dc.lft.to/lastmile_qr_scan"}, "fusion_lon": 0.0, "type": "electric_scooter", "bike_id": "2972b48d84609975533a1f348aa6ea46", "name": "2972b48d84609975533a1f348aa6ea46"}, {"lon": -76.94638716666667, "is_disabled": 0, "lat": 38.89875716666667, "fusion_lat": 0.0, "is_reserved": 0, "rental_uris": {"ios": "https://dc.lft.to/lastmile_qr_scan", "android": "https://dc.lft.to/lastmile_qr_scan"}, "fusion_lon": 0.0, "type": "electric_scooter", "bike_id": "3c4a226f7df1f2683da5961b2d3fce6e", "name": "3c4a226f7df1f2683da5961b2d3fce6e"}, {"lon": -77.05496316666667, "is_disabled": 0, "lat": 39.014828333333334, "fusion_lat": 0.0, "is_reserved": 0, "rental_uris": {"ios": "https://dc.lft.to/lastmile_qr_scan", "android": "https://dc.lft.to/lastmile_qr_scan"}, "fusion_lon": 0.0, "type": "electric_bike", "bike_id": "727779544424f8a6e2d51026c273bb8e", "name": "727779544424f8a6e2d51026c273bb8e"}, {"lon": -77.03578716666667, "is_disabled": 0, "lat": 38.91122716666667, "fusion_lat": 0.0, "is_reserved": 0, "rental_uris": {"ios": "https://dc.lft.to/lastmile_qr_scan", "android": "https://dc.lft.to/lastmile_qr_scan"}, "fusion_lon": 0.0, "type": "electric_scooter", "bike_id": "015646d78d4de4330d090281ec04c1cc", "name": "015646d78d4de4330d090281ec04c1cc"}, {"lon": -77.025711, "is_disabled": 0, "lat": 38.88748116666667, "fusion_lat": 0.0, "is_reserved": 0, "rental_uris": {"ios": "https://dc.lft.to/lastmile_qr_scan", "android": "https://dc.lft.to/lastmile_qr_scan"}, "fusion_lon": 0.0, "type": "electric_scooter", "bike_id": "be34559345dd15ee0346e3bff00c6ea1", "name": "be34559345dd15ee0346e3bff00c6ea1"}, {"lon": -77.03282883333334, "is_disabled": 0, "lat": 38.90978483333333, "fusion_lat": 0.0, "is_reserved": 0, "rental_uris": {"ios": "https://dc.lft.to/lastmile_qr_scan", "android": "https://dc.lft.to/lastmile_qr_scan"}, "fusion_lon": 0.0, "type": "electric_scooter", "bike_id": "544ad5b99f9708dfb1d76db775453f34", "name": "544ad5b99f9708dfb1d76db775453f34"}, {"lon": -77.044701, "is_disabled": 0, "lat": 38.909429, "fusion_lat": 0.0, "is_reserved": 0, "rental_uris": {"ios": "https://dc.lft.to/lastmile_qr_scan", "android": "https://dc.lft.to/lastmile_qr_scan"}, "fusion_lon": 0.0, "type": "electric_scooter", "bike_id": "0fb05be4e1b53a109eff15beba4a2b9a", "name": "0fb05be4e1b53a109eff15beba4a2b9a"}, {"lon": -77.04338683333333, "is_disabled": 0, "lat": 38.90398916666667, "fusion_lat": 0.0, "is_reserved": 0, "rental_uris": {"ios": "https://dc.lft.to/lastmile_qr_scan", "android": "https://dc.lft.to/lastmile_qr_scan"}, "fusion_lon": 0.0, "type": "electric_scooter", "bike_id": "d5f9ca659d9eeb943a2e4fe2aefda8ae", "name": "d5f9ca659d9eeb943a2e4fe2aefda8ae"}, {"lon": -77.03732533333333, "is_disabled": 0, "lat": 38.92028916666667, "fusion_lat": 0.0, "is_reserved": 0, "rental_uris": {"ios": "https://dc.lft.to/lastmile_qr_scan", "android": "https://dc.lft.to/lastmile_qr_scan"}, "fusion_lon": 0.0, "type": "electric_scooter", "bike_id": "adc9d2d813e2bc2cc3a81465ee29575c", "name": "adc9d2d813e2bc2cc3a81465ee29575c"}, {"lon": -77.036562, "is_disabled": 0, "lat": 38.9050915, "fusion_lat": 0.0, "is_reserved": 0, "rental_uris": {"ios": "https://dc.lft.to/lastmile_qr_scan", "android": "https://dc.lft.to/lastmile_qr_scan"}, "fusion_lon": 0.0, "type": "electric_scooter", "bike_id": "07ed1a526b52adf8b269b659ca221dc5", "name": "07ed1a526b52adf8b269b659ca221dc5"}, {"lon": -77.04686716666667, "is_disabled": 0, "lat": 38.89556616666667, "fusion_lat": 0.0, "is_reserved": 0, "rental_uris": {"ios": "https://dc.lft.to/lastmile_qr_scan", "android": "https://dc.lft.to/lastmile_qr_scan"}, "fusion_lon": 0.0, "type": "electric_scooter", "bike_id": "d79753f09ee7e596ea7d61d834a1b1e3", "name": "d79753f09ee7e596ea7d61d834a1b1e3"}, {"lon": -76.99993516666666, "is_disabled": 0, "lat": 38.964059166666665, "fusion_lat": 0.0, "is_reserved": 0, "rental_uris": {"ios": "https://dc.lft.to/lastmile_qr_scan", "android": "https://dc.lft.to/lastmile_qr_scan"}, "fusion_lon": 0.0, "type": "electric_bike", "bike_id": "e876e21fde1e4fc024e9d3fe7be3f08a", "name": "e876e21fde1e4fc024e9d3fe7be3f08a"}, {"lon": -77.0282565, "is_disabled": 0, "lat": 38.899169666666666, "fusion_lat": 0.0, "is_reserved": 0, "rental_uris": {"ios": "https://dc.lft.to/lastmile_qr_scan", "android": "https://dc.lft.to/lastmile_qr_scan"}, "fusion_lon": 0.0, "type": "electric_scooter", "bike_id": "3ed0325d1ded545b9c1cce4c0dc4129c", "name": "3ed0325d1ded545b9c1cce4c0dc4129c"}, {"lon": -77.038537, "is_disabled": 0, "lat": 38.914997, "fusion_lat": 0.0, "is_reserved": 0, "rental_uris": {"ios": "https://dc.lft.to/lastmile_qr_scan", "android": "https://dc.lft.to/lastmile_qr_scan"}, "fusion_lon": 0.0, "type": "electric_scooter", "bike_id": "7e660db8005e97ad907710eb32f3fff3", "name": "7e660db8005e97ad907710eb32f3fff3"}, {"lon": -77.04093666666667, "is_disabled": 0, "lat": 38.90404616666667, "fusion_lat": 0.0, "is_reserved": 0, "rental_uris": {"ios": "https://dc.lft.to/lastmile_qr_scan", "android": "https://dc.lft.to/lastmile_qr_scan"}, "fusion_lon": 0.0, "type": "electric_scooter", "bike_id": "af65ea13b8c969446ebb8d92ad928116", "name": "af65ea13b8c969446ebb8d92ad928116"}, {"lon": -77.0089145, "is_disabled": 0, "lat": 38.921546, "fusion_lat": 0.0, "is_reserved": 0, "rental_uris": {"ios": "https://dc.lft.to/lastmile_qr_scan", "android": "https://dc.lft.to/lastmile_qr_scan"}, "fusion_lon": 0.0, "type": "electric_bike", "bike_id": "43d55683c92da06804bcc113d6c79387", "name": "43d55683c92da06804bcc113d6c79387"}, {"lon": -77.04680266666666, "is_disabled": 0, "lat": 38.89511183333333, "fusion_lat": 0.0, "is_reserved": 0, "rental_uris": {"ios": "https://dc.lft.to/lastmile_qr_scan", "android": "https://dc.lft.to/lastmile_qr_scan"}, "fusion_lon": 0.0, "type": "electric_scooter", "bike_id": "7fb3ba068c3890dc22b01ea029030b5d", "name": "7fb3ba068c3890dc22b01ea029030b5d"}, {"lon": -76.9827345, "is_disabled": 0, "lat": 38.846222833333336, "fusion_lat": 0.0, "is_reserved": 0, "rental_uris": {"ios": "https://dc.lft.to/lastmile_qr_scan", "android": "https://dc.lft.to/lastmile_qr_scan"}, "fusion_lon": 0.0, "type": "electric_scooter", "bike_id": "87f435966306c4133c5a1db1a5701a1b", "name": "87f435966306c4133c5a1db1a5701a1b"}, {"lon": -77.0166935, "is_disabled": 0, "lat": 38.920453333333334, "fusion_lat": 0.0, "is_reserved": 0, "rental_uris": {"ios": "https://dc.lft.to/lastmile_qr_scan", "android": "https://dc.lft.to/lastmile_qr_scan"}, "fusion_lon": 0.0, "type": "electric_scooter", "bike_id": "27ee14666ace5b2f4a4627d8e33dc0fe", "name": "27ee14666ace5b2f4a4627d8e33dc0fe"}, {"lon": -77.01626716666667, "is_disabled": 0, "lat": 38.8992655, "fusion_lat": 0.0, "is_reserved": 0, "rental_uris": {"ios": "https://dc.lft.to/lastmile_qr_scan", "android": "https://dc.lft.to/lastmile_qr_scan"}, "fusion_lon": 0.0, "type": "electric_scooter", "bike_id": "a053a3ad87c730b784e47b731a642c7b", "name": "a053a3ad87c730b784e47b731a642c7b"}, {"lon": -77.039634, "is_disabled": 0, "lat": 38.90338083333333, "fusion_lat": 0.0, "is_reserved": 0, "rental_uris": {"ios": "https://dc.lft.to/lastmile_qr_scan", "android": "https://dc.lft.to/lastmile_qr_scan"}, "fusion_lon": 0.0, "type": "electric_scooter", "bike_id": "34470cca71b674c31f40e9fee58acd97", "name": "34470cca71b674c31f40e9fee58acd97"}, {"lon": -76.99493783333334, "is_disabled": 0, "lat": 38.86245433333333, "fusion_lat": 0.0, "is_reserved": 0, "rental_uris": {"ios": "https://dc.lft.to/lastmile_qr_scan", "android": "https://dc.lft.to/lastmile_qr_scan"}, "fusion_lon": 0.0, "type": "electric_scooter", "bike_id": "680df427101ee44febf1652cdab3ec60", "name": "680df427101ee44febf1652cdab3ec60"}, {"lon": -77.03206966666667, "is_disabled": 0, "lat": 38.892420333333334, "fusion_lat": 0.0, "is_reserved": 0, "rental_uris": {"ios": "https://dc.lft.to/lastmile_qr_scan", "android": "https://dc.lft.to/lastmile_qr_scan"}, "fusion_lon": 0.0, "type": "electric_scooter", "bike_id": "597fd9a99f22d43ece1459876887245f", "name": "597fd9a99f22d43ece1459876887245f"}, {"lon": -77.04194066666666, "is_disabled": 0, "lat": 38.9262015, "fusion_lat": 0.0, "is_reserved": 0, "rental_uris": {"ios": "https://dc.lft.to/lastmile_qr_scan", "android": "https://dc.lft.to/lastmile_qr_scan"}, "fusion_lon": 0.0, "type": "electric_scooter", "bike_id": "289669862ec39187375b94f674e2a1eb", "name": "289669862ec39187375b94f674e2a1eb"}, {"lon": -76.939765, "is_disabled": 0, "lat": 38.89314383333333, "fusion_lat": 0.0, "is_reserved": 0, "rental_uris": {"ios": "https://dc.lft.to/lastmile_qr_scan", "android": "https://dc.lft.to/lastmile_qr_scan"}, "fusion_lon": 0.0, "type": "electric_scooter", "bike_id": "3ba13030c56d3f56c0444d8e044a2467", "name": "3ba13030c56d3f56c0444d8e044a2467"}, {"lon": -77.04372683333334, "is_disabled": 0, "lat": 38.89225066666667, "fusion_lat": 0.0, "is_reserved": 0, "rental_uris": {"ios": "https://dc.lft.to/lastmile_qr_scan", "android": "https://dc.lft.to/lastmile_qr_scan"}, "fusion_lon": 0.0, "type": "electric_scooter", "bike_id": "a3e62d92bb9867b18300213572dbd9f6", "name": "a3e62d92bb9867b18300213572dbd9f6"}, {"lon": -76.98542916666666, "is_disabled": 0, "lat": 38.866937666666665, "fusion_lat": 0.0, "is_reserved": 0, "rental_uris": {"ios": "https://dc.lft.to/lastmile_qr_scan", "android": "https://dc.lft.to/lastmile_qr_scan"}, "fusion_lon": 0.0, "type": "electric_scooter", "bike_id": "887370cbea23783bf5e2dd026ab7b0e9", "name": "887370cbea23783bf5e2dd026ab7b0e9"}, {"lon": -77.12657833333333, "is_disabled": 0, "lat": 38.81513316666667, "fusion_lat": 0.0, "is_reserved": 0, "rental_uris": {"ios": "https://dc.lft.to/lastmile_qr_scan", "android": "https://dc.lft.to/lastmile_qr_scan"}, "fusion_lon": 0.0, "type": "electric_bike", "bike_id": "677c4f7170427991008879ffb5ff6a18", "name": "677c4f7170427991008879ffb5ff6a18"}, {"lon": -77.02191766666667, "is_disabled": 0, "lat": 38.90835933333334, "fusion_lat": 0.0, "is_reserved": 0, "rental_uris": {"ios": "https://dc.lft.to/lastmile_qr_scan", "android": "https://dc.lft.to/lastmile_qr_scan"}, "fusion_lon": 0.0, "type": "electric_scooter", "bike_id": "e9dc7de6f94a39306660ab3476131008", "name": "e9dc7de6f94a39306660ab3476131008"}, {"lon": -76.94637, "is_disabled": 0, "lat": 38.898642833333334, "fusion_lat": 0.0, "is_reserved": 0, "rental_uris": {"ios": "https://dc.lft.to/lastmile_qr_scan", "android": "https://dc.lft.to/lastmile_qr_scan"}, "fusion_lon": 0.0, "type": "electric_scooter", "bike_id": "e302544c28d2a92f5cfbdec012c7cd19", "name": "e302544c28d2a92f5cfbdec012c7cd19"}, {"lon": -77.0318505, "is_disabled": 0, "lat": 38.90300766666667, "fusion_lat": 0.0, "is_reserved": 0, "rental_uris": {"ios": "https://dc.lft.to/lastmile_qr_scan", "android": "https://dc.lft.to/lastmile_qr_scan"}, "fusion_lon": 0.0, "type": "electric_scooter", "bike_id": "7883f45a548bef3be2d7e93173eefabf", "name": "7883f45a548bef3be2d7e93173eefabf"}, {"lon": -77.0015, "is_disabled": 0, "lat": 38.87398866666667, "fusion_lat": 0.0, "is_reserved": 0, "rental_uris": {"ios": "https://dc.lft.to/lastmile_qr_scan", "android": "https://dc.lft.to/lastmile_qr_scan"}, "fusion_lon": 0.0, "type": "electric_scooter", "bike_id": "e8043f2435aa9a91f37df8bb47082564", "name": "e8043f2435aa9a91f37df8bb47082564"}, {"lon": -76.99245966666666, "is_disabled": 0, "lat": 38.79474583333333, "fusion_lat": 0.0, "is_reserved": 0, "rental_uris": {"ios": "https://dc.lft.to/lastmile_qr_scan", "android": "https://dc.lft.to/lastmile_qr_scan"}, "fusion_lon": 0.0, "type": "electric_bike", "bike_id": "6c1666e2885e6cba144ba53b721e3900", "name": "6c1666e2885e6cba144ba53b721e3900"}, {"lon": -77.0322545, "is_disabled": 0, "lat": 38.90872316666667, "fusion_lat": 0.0, "is_reserved": 0, "rental_uris": {"ios": "https://dc.lft.to/lastmile_qr_scan", "android": "https://dc.lft.to/lastmile_qr_scan"}, "fusion_lon": 0.0, "type": "electric_scooter", "bike_id": "d98f4336590aea8229a976116c459122", "name": "d98f4336590aea8229a976116c459122"}, {"lon": -77.03215833333333, "is_disabled": 0, "lat": 38.89248933333333, "fusion_lat": 0.0, "is_reserved": 0, "rental_uris": {"ios": "https://dc.lft.to/lastmile_qr_scan", "android": "https://dc.lft.to/lastmile_qr_scan"}, "fusion_lon": 0.0, "type": "electric_scooter", "bike_id": "f469cca0aef670f03547b25107db302f", "name": "f469cca0aef670f03547b25107db302f"}, {"lon": -77.02391633333333, "is_disabled": 0, "lat": 38.91717233333333, "fusion_lat": 0.0, "is_reserved": 0, "rental_uris": {"ios": "https://dc.lft.to/lastmile_qr_scan", "android": "https://dc.lft.to/lastmile_qr_scan"}, "fusion_lon": 0.0, "type": "electric_scooter", "bike_id": "ffb56f22dc529eb32a79ac112985fd0d", "name": "ffb56f22dc529eb32a79ac112985fd0d"}, {"lon": -77.01859933333333, "is_disabled": 0, "lat": 38.91501083333333, "fusion_lat": 0.0, "is_reserved": 0, "rental_uris": {"ios": "https://dc.lft.to/lastmile_qr_scan", "android": "https://dc.lft.to/lastmile_qr_scan"}, "fusion_lon": 0.0, "type": "electric_scooter", "bike_id": "d62ab91d88a6a5409109f930e794458b", "name": "d62ab91d88a6a5409109f930e794458b"}, {"lon": -77.044618, "is_disabled": 0, "lat": 38.909578333333336, "fusion_lat": 0.0, "is_reserved": 0, "rental_uris": {"ios": "https://dc.lft.to/lastmile_qr_scan", "android": "https://dc.lft.to/lastmile_qr_scan"}, "fusion_lon": 0.0, "type": "electric_scooter", "bike_id": "240b7256485ab257ee467ca3490fc829", "name": "240b7256485ab257ee467ca3490fc829"}, {"lon": -76.981848, "is_disabled": 0, "lat": 38.89587083333333, "fusion_lat": 0.0, "is_reserved": 0, "rental_uris": {"ios": "https://dc.lft.to/lastmile_qr_scan", "android": "https://dc.lft.to/lastmile_qr_scan"}, "fusion_lon": 0.0, "type": "electric_scooter", "bike_id": "31be581eaa312a2f8fd1eaa51780af5d", "name": "31be581eaa312a2f8fd1eaa51780af5d"}, {"lon": -77.04468666666666, "is_disabled": 0, "lat": 38.911082666666665, "fusion_lat": 0.0, "is_reserved": 0, "rental_uris": {"ios": "https://dc.lft.to/lastmile_qr_scan", "android": "https://dc.lft.to/lastmile_qr_scan"}, "fusion_lon": 0.0, "type": "electric_scooter", "bike_id": "741cf5855a976c7cc32ec4859ebde4af", "name": "741cf5855a976c7cc32ec4859ebde4af"}, {"lon": -77.04236583333333, "is_disabled": 0, "lat": 38.90971066666667, "fusion_lat": 0.0, "is_reserved": 0, "rental_uris": {"ios": "https://dc.lft.to/lastmile_qr_scan", "android": "https://dc.lft.to/lastmile_qr_scan"}, "fusion_lon": 0.0, "type": "electric_scooter", "bike_id": "e11f17d64b8abccb85789bc17e084b99", "name": "e11f17d64b8abccb85789bc17e084b99"}, {"lon": -77.03316133333334, "is_disabled": 0, "lat": 38.921628, "fusion_lat": 0.0, "is_reserved": 0, "rental_uris": {"ios": "https://dc.lft.to/lastmile_qr_scan", "android": "https://dc.lft.to/lastmile_qr_scan"}, "fusion_lon": 0.0, "type": "electric_scooter", "bike_id": "909bdddf276dc419d9eeb8f99f4d4dd7", "name": "909bdddf276dc419d9eeb8f99f4d4dd7"}, {"lon": -77.02280816666666, "is_disabled": 0, "lat": 38.91419033333333, "fusion_lat": 0.0, "is_reserved": 0, "rental_uris": {"ios": "https://dc.lft.to/lastmile_qr_scan", "android": "https://dc.lft.to/lastmile_qr_scan"}, "fusion_lon": 0.0, "type": "electric_scooter", "bike_id": "4ebd544e8da2cb83585b83c62a6ea542", "name": "4ebd544e8da2cb83585b83c62a6ea542"}, {"lon": -77.01680333333333, "is_disabled": 0, "lat": 38.920467, "fusion_lat": 0.0, "is_reserved": 0, "rental_uris": {"ios": "https://dc.lft.to/lastmile_qr_scan", "android": "https://dc.lft.to/lastmile_qr_scan"}, "fusion_lon": 0.0, "type": "electric_scooter", "bike_id": "39618b2c5cdc7f5e6779f87acdc7df0d", "name": "39618b2c5cdc7f5e6779f87acdc7df0d"}, {"lon": -77.05884566666667, "is_disabled": 0, "lat": 38.93637916666667, "fusion_lat": 0.0, "is_reserved": 0, "rental_uris": {"ios": "https://dc.lft.to/lastmile_qr_scan", "android": "https://dc.lft.to/lastmile_qr_scan"}, "fusion_lon": 0.0, "type": "electric_scooter", "bike_id": "0117f601cf2a864b7525189956577b35", "name": "0117f601cf2a864b7525189956577b35"}, {"lon": -77.00141916666666, "is_disabled": 0, "lat": 38.83579183333333, "fusion_lat": 0.0, "is_reserved": 0, "rental_uris": {"ios": "https://dc.lft.to/lastmile_qr_scan", "android": "https://dc.lft.to/lastmile_qr_scan"}, "fusion_lon": 0.0, "type": "electric_scooter", "bike_id": "1dc3bc7da5b509d4eacb158413e7a0b6", "name": "1dc3bc7da5b509d4eacb158413e7a0b6"}, {"lon": -76.99794183333333, "is_disabled": 0, "lat": 38.9087125, "fusion_lat": 0.0, "is_reserved": 0, "rental_uris": {"ios": "https://dc.lft.to/lastmile_qr_scan", "android": "https://dc.lft.to/lastmile_qr_scan"}, "fusion_lon": 0.0, "type": "electric_scooter", "bike_id": "ac45ffc29e9170134d659c13cda6c874", "name": "ac45ffc29e9170134d659c13cda6c874"}, {"lon": -77.032143, "is_disabled": 0, "lat": 38.884769666666664, "fusion_lat": 0.0, "is_reserved": 0, "rental_uris": {"ios": "https://dc.lft.to/lastmile_qr_scan", "android": "https://dc.lft.to/lastmile_qr_scan"}, "fusion_lon": 0.0, "type": "electric_scooter", "bike_id": "66acb944aba850b763d33835a7bcfd4a", "name": "66acb944aba850b763d33835a7bcfd4a"}, {"lon": -77.04376633333334, "is_disabled": 0, "lat": 38.91125516666666, "fusion_lat": 0.0, "is_reserved": 0, "rental_uris": {"ios": "https://dc.lft.to/lastmile_qr_scan", "android": "https://dc.lft.to/lastmile_qr_scan"}, "fusion_lon": 0.0, "type": "electric_scooter", "bike_id": "27d354d4f6ff2be05bebbfe65379e84a", "name": "27d354d4f6ff2be05bebbfe65379e84a"}, {"lon": -77.03867566666666, "is_disabled": 0, "lat": 38.90359766666667, "fusion_lat": 0.0, "is_reserved": 0, "rental_uris": {"ios": "https://dc.lft.to/lastmile_qr_scan", "android": "https://dc.lft.to/lastmile_qr_scan"}, "fusion_lon": 0.0, "type": "electric_scooter", "bike_id": "2b1443a5e5da286ea9582c5c57e50ace", "name": "2b1443a5e5da286ea9582c5c57e50ace"}, {"lon": -77.0414065, "is_disabled": 0, "lat": 38.90027716666667, "fusion_lat": 0.0, "is_reserved": 0, "rental_uris": {"ios": "https://dc.lft.to/lastmile_qr_scan", "android": "https://dc.lft.to/lastmile_qr_scan"}, "fusion_lon": 0.0, "type": "electric_scooter", "bike_id": "96a516ff6a62d8c81f8a8dc80338a188", "name": "96a516ff6a62d8c81f8a8dc80338a188"}, {"lon": -77.0035435, "is_disabled": 0, "lat": 38.894686666666665, "fusion_lat": 0.0, "is_reserved": 0, "rental_uris": {"ios": "https://dc.lft.to/lastmile_qr_scan", "android": "https://dc.lft.to/lastmile_qr_scan"}, "fusion_lon": 0.0, "type": "electric_scooter", "bike_id": "6ea1d6ace1f15e34a76b869a8d3b2d9b", "name": "6ea1d6ace1f15e34a76b869a8d3b2d9b"}, {"lon": -77.025963, "is_disabled": 0, "lat": 38.916963333333335, "fusion_lat": 0.0, "is_reserved": 0, "rental_uris": {"ios": "https://dc.lft.to/lastmile_qr_scan", "android": "https://dc.lft.to/lastmile_qr_scan"}, "fusion_lon": 0.0, "type": "electric_scooter", "bike_id": "90c5cf8184da41df8abc24d84a0cee6d", "name": "90c5cf8184da41df8abc24d84a0cee6d"}, {"lon": -77.02696533333334, "is_disabled": 0, "lat": 38.89735916666667, "fusion_lat": 0.0, "is_reserved": 0, "rental_uris": {"ios": "https://dc.lft.to/lastmile_qr_scan", "android": "https://dc.lft.to/lastmile_qr_scan"}, "fusion_lon": 0.0, "type": "electric_scooter", "bike_id": "9425caeea689427019a352bf317324d5", "name": "9425caeea689427019a352bf317324d5"}, {"lon": -76.98509433333334, "is_disabled": 0, "lat": 38.90343583333333, "fusion_lat": 0.0, "is_reserved": 0, "rental_uris": {"ios": "https://dc.lft.to/lastmile_qr_scan", "android": "https://dc.lft.to/lastmile_qr_scan"}, "fusion_lon": 0.0, "type": "electric_scooter", "bike_id": "3e579bee2ac31e27e9ab21621d642b78", "name": "3e579bee2ac31e27e9ab21621d642b78"}, {"lon": -77.00728766666667, "is_disabled": 0, "lat": 38.885007, "fusion_lat": 0.0, "is_reserved": 0, "rental_uris": {"ios": "https://dc.lft.to/lastmile_qr_scan", "android": "https://dc.lft.to/lastmile_qr_scan"}, "fusion_lon": 0.0, "type": "electric_scooter", "bike_id": "6d9bba491bb6bb62c251855ab2ab6adb", "name": "6d9bba491bb6bb62c251855ab2ab6adb"}, {"lon": -77.03222183333334, "is_disabled": 0, "lat": 38.9185185, "fusion_lat": 0.0, "is_reserved": 0, "rental_uris": {"ios": "https://dc.lft.to/lastmile_qr_scan", "android": "https://dc.lft.to/lastmile_qr_scan"}, "fusion_lon": 0.0, "type": "electric_scooter", "bike_id": "2753ef9f83edff7340ec8be8fe30628e", "name": "2753ef9f83edff7340ec8be8fe30628e"}, {"lon": -76.97919883333333, "is_disabled": 0, "lat": 38.91652283333333, "fusion_lat": 0.0, "is_reserved": 0, "rental_uris": {"ios": "https://dc.lft.to/lastmile_qr_scan", "android": "https://dc.lft.to/lastmile_qr_scan"}, "fusion_lon": 0.0, "type": "electric_scooter", "bike_id": "c258386c22e3c1e5e7864af50804eda0", "name": "c258386c22e3c1e5e7864af50804eda0"}, {"lon": -77.032329, "is_disabled": 0, "lat": 38.91251666666667, "fusion_lat": 0.0, "is_reserved": 0, "rental_uris": {"ios": "https://dc.lft.to/lastmile_qr_scan", "android": "https://dc.lft.to/lastmile_qr_scan"}, "fusion_lon": 0.0, "type": "electric_scooter", "bike_id": "7645d5e9413f73cf3eadd45b3c8c30f6", "name": "7645d5e9413f73cf3eadd45b3c8c30f6"}, {"lon": -77.14057833333334, "is_disabled": 0, "lat": 38.987770166666664, "fusion_lat": 0.0, "is_reserved": 0, "rental_uris": {"ios": "https://dc.lft.to/lastmile_qr_scan", "android": "https://dc.lft.to/lastmile_qr_scan"}, "fusion_lon": 0.0, "type": "electric_bike", "bike_id": "88e7c4cba39498c7431257647720c1d7", "name": "88e7c4cba39498c7431257647720c1d7"}, {"lon": -76.98701583333333, "is_disabled": 0, "lat": 38.867287166666664, "fusion_lat": 0.0, "is_reserved": 0, "rental_uris": {"ios": "https://dc.lft.to/lastmile_qr_scan", "android": "https://dc.lft.to/lastmile_qr_scan"}, "fusion_lon": 0.0, "type": "electric_scooter", "bike_id": "35bcf43093aad9702993e5e68c827cdc", "name": "35bcf43093aad9702993e5e68c827cdc"}, {"lon": -77.0297085, "is_disabled": 0, "lat": 38.91301033333333, "fusion_lat": 0.0, "is_reserved": 0, "rental_uris": {"ios": "https://dc.lft.to/lastmile_qr_scan", "android": "https://dc.lft.to/lastmile_qr_scan"}, "fusion_lon": 0.0, "type": "electric_scooter", "bike_id": "187b0f0a07285f11cfb6300ade76fc68", "name": "187b0f0a07285f11cfb6300ade76fc68"}, {"lon": -77.00304666666666, "is_disabled": 0, "lat": 38.92033, "fusion_lat": 0.0, "is_reserved": 0, "rental_uris": {"ios": "https://dc.lft.to/lastmile_qr_scan", "android": "https://dc.lft.to/lastmile_qr_scan"}, "fusion_lon": 0.0, "type": "electric_scooter", "bike_id": "c5b200f254b1c83286df20c88b546380", "name": "c5b200f254b1c83286df20c88b546380"}, {"lon": -77.04495333333334, "is_disabled": 0, "lat": 38.903772333333336, "fusion_lat": 0.0, "is_reserved": 0, "rental_uris": {"ios": "https://dc.lft.to/lastmile_qr_scan", "android": "https://dc.lft.to/lastmile_qr_scan"}, "fusion_lon": 0.0, "type": "electric_scooter", "bike_id": "818f2b41dd524814313232183fe66f8a", "name": "818f2b41dd524814313232183fe66f8a"}, {"lon": -77.00885716666667, "is_disabled": 0, "lat": 38.923368833333335, "fusion_lat": 0.0, "is_reserved": 0, "rental_uris": {"ios": "https://dc.lft.to/lastmile_qr_scan", "android": "https://dc.lft.to/lastmile_qr_scan"}, "fusion_lon": 0.0, "type": "electric_scooter", "bike_id": "77dea5f3f37fbef52de2c108ee5aff88", "name": "77dea5f3f37fbef52de2c108ee5aff88"}, {"lon": -77.044869, "is_disabled": 0, "lat": 38.911833, "fusion_lat": 0.0, "is_reserved": 0, "rental_uris": {"ios": "https://dc.lft.to/lastmile_qr_scan", "android": "https://dc.lft.to/lastmile_qr_scan"}, "fusion_lon": 0.0, "type": "electric_scooter", "bike_id": "f38032865879318dac8091ba2efc3105", "name": "f38032865879318dac8091ba2efc3105"}, {"lon": -77.03019433333333, "is_disabled": 0, "lat": 38.934837, "fusion_lat": 0.0, "is_reserved": 0, "rental_uris": {"ios": "https://dc.lft.to/lastmile_qr_scan", "android": "https://dc.lft.to/lastmile_qr_scan"}, "fusion_lon": 0.0, "type": "electric_scooter", "bike_id": "d665483474e398832ad0441b82937857", "name": "d665483474e398832ad0441b82937857"}, {"lon": -76.99724833333333, "is_disabled": 0, "lat": 38.910254, "fusion_lat": 0.0, "is_reserved": 0, "rental_uris": {"ios": "https://dc.lft.to/lastmile_qr_scan", "android": "https://dc.lft.to/lastmile_qr_scan"}, "fusion_lon": 0.0, "type": "electric_scooter", "bike_id": "78ba893513c4d4bf33b6f56ca8579c37", "name": "78ba893513c4d4bf33b6f56ca8579c37"}, {"lon": -77.02433533333334, "is_disabled": 0, "lat": 38.92262133333333, "fusion_lat": 0.0, "is_reserved": 0, "rental_uris": {"ios": "https://dc.lft.to/lastmile_qr_scan", "android": "https://dc.lft.to/lastmile_qr_scan"}, "fusion_lon": 0.0, "type": "electric_scooter", "bike_id": "c4b8636c6c9e1d7c39cc51c3fc6d23c6", "name": "c4b8636c6c9e1d7c39cc51c3fc6d23c6"}, {"lon": -77.04229066666667, "is_disabled": 0, "lat": 38.920661833333334, "fusion_lat": 0.0, "is_reserved": 0, "rental_uris": {"ios": "https://dc.lft.to/lastmile_qr_scan", "android": "https://dc.lft.to/lastmile_qr_scan"}, "fusion_lon": 0.0, "type": "electric_scooter", "bike_id": "5fa1a116fd0310c39dbacacfa02dcbe1", "name": "5fa1a116fd0310c39dbacacfa02dcbe1"}, {"lon": -77.02770866666667, "is_disabled": 0, "lat": 38.900720666666665, "fusion_lat": 0.0, "is_reserved": 0, "rental_uris": {"ios": "https://dc.lft.to/lastmile_qr_scan", "android": "https://dc.lft.to/lastmile_qr_scan"}, "fusion_lon": 0.0, "type": "electric_scooter", "bike_id": "ee0d479576022f19a93b3c024f136bae", "name": "ee0d479576022f19a93b3c024f136bae"}, {"lon": -77.06393666666666, "is_disabled": 0, "lat": 38.944234, "fusion_lat": 0.0, "is_reserved": 0, "rental_uris": {"ios": "https://dc.lft.to/lastmile_qr_scan", "android": "https://dc.lft.to/lastmile_qr_scan"}, "fusion_lon": 0.0, "type": "electric_scooter", "bike_id": "04f49f7011cd9edaba9d3d01f0833df5", "name": "04f49f7011cd9edaba9d3d01f0833df5"}, {"lon": -77.0228845, "is_disabled": 0, "lat": 38.895028833333335, "fusion_lat": 0.0, "is_reserved": 0, "rental_uris": {"ios": "https://dc.lft.to/lastmile_qr_scan", "android": "https://dc.lft.to/lastmile_qr_scan"}, "fusion_lon": 0.0, "type": "electric_scooter", "bike_id": "ff23760f3974391d37b90bc248d16ecb", "name": "ff23760f3974391d37b90bc248d16ecb"}, {"lon": -77.00388783333334, "is_disabled": 0, "lat": 38.895472166666664, "fusion_lat": 0.0, "is_reserved": 0, "rental_uris": {"ios": "https://dc.lft.to/lastmile_qr_scan", "android": "https://dc.lft.to/lastmile_qr_scan"}, "fusion_lon": 0.0, "type": "electric_scooter", "bike_id": "ada54ccdd9323579546cdfd7eab5b170", "name": "ada54ccdd9323579546cdfd7eab5b170"}, {"lon": -77.056232, "is_disabled": 0, "lat": 38.93179683333334, "fusion_lat": 0.0, "is_reserved": 0, "rental_uris": {"ios": "https://dc.lft.to/lastmile_qr_scan", "android": "https://dc.lft.to/lastmile_qr_scan"}, "fusion_lon": 0.0, "type": "electric_scooter", "bike_id": "4df71f49ef55411c96043912cb42bdd9", "name": "4df71f49ef55411c96043912cb42bdd9"}, {"lon": -77.02816566666667, "is_disabled": 0, "lat": 38.9089075, "fusion_lat": 0.0, "is_reserved": 0, "rental_uris": {"ios": "https://dc.lft.to/lastmile_qr_scan", "android": "https://dc.lft.to/lastmile_qr_scan"}, "fusion_lon": 0.0, "type": "electric_scooter", "bike_id": "b489bcdf5220fb2db7163ae54b49c16f", "name": "b489bcdf5220fb2db7163ae54b49c16f"}, {"lon": -76.9611415, "is_disabled": 0, "lat": 38.918595, "fusion_lat": 0.0, "is_reserved": 0, "rental_uris": {"ios": "https://dc.lft.to/lastmile_qr_scan", "android": "https://dc.lft.to/lastmile_qr_scan"}, "fusion_lon": 0.0, "type": "electric_scooter", "bike_id": "413f84debcd9e266148626a463a787ff", "name": "413f84debcd9e266148626a463a787ff"}, {"lon": -77.03322566666667, "is_disabled": 0, "lat": 38.898885666666665, "fusion_lat": 0.0, "is_reserved": 0, "rental_uris": {"ios": "https://dc.lft.to/lastmile_qr_scan", "android": "https://dc.lft.to/lastmile_qr_scan"}, "fusion_lon": 0.0, "type": "electric_scooter", "bike_id": "2d764d766b1639bc64c78d941ca491f8", "name": "2d764d766b1639bc64c78d941ca491f8"}, {"lon": -76.9652765, "is_disabled": 0, "lat": 38.87629916666667, "fusion_lat": 0.0, "is_reserved": 0, "rental_uris": {"ios": "https://dc.lft.to/lastmile_qr_scan", "android": "https://dc.lft.to/lastmile_qr_scan"}, "fusion_lon": 0.0, "type": "electric_scooter", "bike_id": "cb99ac7384d550ddfc7baa3903f1df72", "name": "cb99ac7384d550ddfc7baa3903f1df72"}, {"lon": -77.01575766666667, "is_disabled": 0, "lat": 38.876704833333335, "fusion_lat": 0.0, "is_reserved": 0, "rental_uris": {"ios": "https://dc.lft.to/lastmile_qr_scan", "android": "https://dc.lft.to/lastmile_qr_scan"}, "fusion_lon": 0.0, "type": "electric_scooter", "bike_id": "bc95784aab7235cc51b09c4553332205", "name": "bc95784aab7235cc51b09c4553332205"}, {"lon": -76.94641333333334, "is_disabled": 0, "lat": 38.898676333333334, "fusion_lat": 0.0, "is_reserved": 0, "rental_uris": {"ios": "https://dc.lft.to/lastmile_qr_scan", "android": "https://dc.lft.to/lastmile_qr_scan"}, "fusion_lon": 0.0, "type": "electric_scooter", "bike_id": "4da3be6cea645c45924e85d8faba14fd", "name": "4da3be6cea645c45924e85d8faba14fd"}, {"lon": -77.00795933333333, "is_disabled": 0, "lat": 38.94918416666667, "fusion_lat": 0.0, "is_reserved": 0, "rental_uris": {"ios": "https://dc.lft.to/lastmile_qr_scan", "android": "https://dc.lft.to/lastmile_qr_scan"}, "fusion_lon": 0.0, "type": "electric_bike", "bike_id": "09a2ebf64ac8efb1044afa5f05b9f0c1", "name": "09a2ebf64ac8efb1044afa5f05b9f0c1"}, {"lon": -77.0400835, "is_disabled": 0, "lat": 38.9100385, "fusion_lat": 0.0, "is_reserved": 0, "rental_uris": {"ios": "https://dc.lft.to/lastmile_qr_scan", "android": "https://dc.lft.to/lastmile_qr_scan"}, "fusion_lon": 0.0, "type": "electric_scooter", "bike_id": "20a36980d20a57ecec211f57e3f92be6", "name": "20a36980d20a57ecec211f57e3f92be6"}, {"lon": -77.02092316666666, "is_disabled": 0, "lat": 38.881894333333335, "fusion_lat": 0.0, "is_reserved": 0, "rental_uris": {"ios": "https://dc.lft.to/lastmile_qr_scan", "android": "https://dc.lft.to/lastmile_qr_scan"}, "fusion_lon": 0.0, "type": "electric_scooter", "bike_id": "ae6445003db1657f230724e10d413430", "name": "ae6445003db1657f230724e10d413430"}, {"lon": -76.98819166666667, "is_disabled": 0, "lat": 38.900695, "fusion_lat": 0.0, "is_reserved": 0, "rental_uris": {"ios": "https://dc.lft.to/lastmile_qr_scan", "android": "https://dc.lft.to/lastmile_qr_scan"}, "fusion_lon": 0.0, "type": "electric_scooter", "bike_id": "8b01d50c685254eb8252348e73750d32", "name": "8b01d50c685254eb8252348e73750d32"}, {"lon": -77.04509966666667, "is_disabled": 0, "lat": 38.90397866666667, "fusion_lat": 0.0, "is_reserved": 0, "rental_uris": {"ios": "https://dc.lft.to/lastmile_qr_scan", "android": "https://dc.lft.to/lastmile_qr_scan"}, "fusion_lon": 0.0, "type": "electric_scooter", "bike_id": "50aa3d3bed2515292ba43cb8253a1b4f", "name": "50aa3d3bed2515292ba43cb8253a1b4f"}, {"lon": -76.98599983333334, "is_disabled": 0, "lat": 38.900215833333334, "fusion_lat": 0.0, "is_reserved": 0, "rental_uris": {"ios": "https://dc.lft.to/lastmile_qr_scan", "android": "https://dc.lft.to/lastmile_qr_scan"}, "fusion_lon": 0.0, "type": "electric_scooter", "bike_id": "71ec080194b6b7a26b134c7aef108f02", "name": "71ec080194b6b7a26b134c7aef108f02"}, {"lon": -77.0487285, "is_disabled": 0, "lat": 38.909762666666666, "fusion_lat": 0.0, "is_reserved": 0, "rental_uris": {"ios": "https://dc.lft.to/lastmile_qr_scan", "android": "https://dc.lft.to/lastmile_qr_scan"}, "fusion_lon": 0.0, "type": "electric_scooter", "bike_id": "1bf49f984f4054cd98b409665e452cef", "name": "1bf49f984f4054cd98b409665e452cef"}, {"lon": -76.9948515, "is_disabled": 0, "lat": 38.88346716666667, "fusion_lat": 0.0, "is_reserved": 0, "rental_uris": {"ios": "https://dc.lft.to/lastmile_qr_scan", "android": "https://dc.lft.to/lastmile_qr_scan"}, "fusion_lon": 0.0, "type": "electric_scooter", "bike_id": "44ae7432fd96c6534e02776885a5ade2", "name": "44ae7432fd96c6534e02776885a5ade2"}, {"lon": -77.02238983333334, "is_disabled": 0, "lat": 38.92242816666667, "fusion_lat": 0.0, "is_reserved": 0, "rental_uris": {"ios": "https://dc.lft.to/lastmile_qr_scan", "android": "https://dc.lft.to/lastmile_qr_scan"}, "fusion_lon": 0.0, "type": "electric_scooter", "bike_id": "69c250a0fb661c30ded68f7d6d5ae44c", "name": "69c250a0fb661c30ded68f7d6d5ae44c"}, {"lon": -77.038543, "is_disabled": 0, "lat": 38.905165333333336, "fusion_lat": 0.0, "is_reserved": 0, "rental_uris": {"ios": "https://dc.lft.to/lastmile_qr_scan", "android": "https://dc.lft.to/lastmile_qr_scan"}, "fusion_lon": 0.0, "type": "electric_scooter", "bike_id": "ad500010e91a1c80f5c14fff85210438", "name": "ad500010e91a1c80f5c14fff85210438"}, {"lon": -77.04596866666667, "is_disabled": 0, "lat": 38.905765333333335, "fusion_lat": 0.0, "is_reserved": 0, "rental_uris": {"ios": "https://dc.lft.to/lastmile_qr_scan", "android": "https://dc.lft.to/lastmile_qr_scan"}, "fusion_lon": 0.0, "type": "electric_scooter", "bike_id": "fb292d62ad2fcf8f0515908d67969c8a", "name": "fb292d62ad2fcf8f0515908d67969c8a"}, {"lon": -77.04351566666666, "is_disabled": 0, "lat": 38.90538883333333, "fusion_lat": 0.0, "is_reserved": 0, "rental_uris": {"ios": "https://dc.lft.to/lastmile_qr_scan", "android": "https://dc.lft.to/lastmile_qr_scan"}, "fusion_lon": 0.0, "type": "electric_scooter", "bike_id": "b9eff730a05e55959076d80fed3959d1", "name": "b9eff730a05e55959076d80fed3959d1"}, {"lon": -76.98696833333334, "is_disabled": 0, "lat": 38.86724533333334, "fusion_lat": 0.0, "is_reserved": 0, "rental_uris": {"ios": "https://dc.lft.to/lastmile_qr_scan", "android": "https://dc.lft.to/lastmile_qr_scan"}, "fusion_lon": 0.0, "type": "electric_scooter", "bike_id": "500f78a2f433d804d407aab932490086", "name": "500f78a2f433d804d407aab932490086"}, {"lon": -77.02343483333334, "is_disabled": 0, "lat": 38.89596, "fusion_lat": 0.0, "is_reserved": 0, "rental_uris": {"ios": "https://dc.lft.to/lastmile_qr_scan", "android": "https://dc.lft.to/lastmile_qr_scan"}, "fusion_lon": 0.0, "type": "electric_scooter", "bike_id": "3bc2f26634de2cdc5358bd13a5639048", "name": "3bc2f26634de2cdc5358bd13a5639048"}, {"lon": -77.0249745, "is_disabled": 0, "lat": 38.941856666666666, "fusion_lat": 0.0, "is_reserved": 0, "rental_uris": {"ios": "https://dc.lft.to/lastmile_qr_scan", "android": "https://dc.lft.to/lastmile_qr_scan"}, "fusion_lon": 0.0, "type": "electric_scooter", "bike_id": "2a393a9b5813a896452bfd092be6abfa", "name": "2a393a9b5813a896452bfd092be6abfa"}, {"lon": -77.02007333333333, "is_disabled": 0, "lat": 38.9140695, "fusion_lat": 0.0, "is_reserved": 0, "rental_uris": {"ios": "https://dc.lft.to/lastmile_qr_scan", "android": "https://dc.lft.to/lastmile_qr_scan"}, "fusion_lon": 0.0, "type": "electric_scooter", "bike_id": "04eb4d71670716fabb6199df9c96f2a9", "name": "04eb4d71670716fabb6199df9c96f2a9"}, {"lon": -77.04688616666667, "is_disabled": 0, "lat": 38.90391266666666, "fusion_lat": 0.0, "is_reserved": 0, "rental_uris": {"ios": "https://dc.lft.to/lastmile_qr_scan", "android": "https://dc.lft.to/lastmile_qr_scan"}, "fusion_lon": 0.0, "type": "electric_scooter", "bike_id": "a9f22c89d667e3d091fdf75a6caf0975", "name": "a9f22c89d667e3d091fdf75a6caf0975"}, {"lon": -77.0420065, "is_disabled": 0, "lat": 38.909236, "fusion_lat": 0.0, "is_reserved": 0, "rental_uris": {"ios": "https://dc.lft.to/lastmile_qr_scan", "android": "https://dc.lft.to/lastmile_qr_scan"}, "fusion_lon": 0.0, "type": "electric_scooter", "bike_id": "18bc63857724627c7c1cc1dd02c0c001", "name": "18bc63857724627c7c1cc1dd02c0c001"}, {"lon": -77.00912283333334, "is_disabled": 0, "lat": 38.895422833333335, "fusion_lat": 0.0, "is_reserved": 0, "rental_uris": {"ios": "https://dc.lft.to/lastmile_qr_scan", "android": "https://dc.lft.to/lastmile_qr_scan"}, "fusion_lon": 0.0, "type": "electric_scooter", "bike_id": "54368f790cb21f6e8ffdbd9c3ea28593", "name": "54368f790cb21f6e8ffdbd9c3ea28593"}, {"lon": -77.00355716666667, "is_disabled": 0, "lat": 38.8773095, "fusion_lat": 0.0, "is_reserved": 0, "rental_uris": {"ios": "https://dc.lft.to/lastmile_qr_scan", "android": "https://dc.lft.to/lastmile_qr_scan"}, "fusion_lon": 0.0, "type": "electric_scooter", "bike_id": "4f5912330c61e09b6463c3aba90350be", "name": "4f5912330c61e09b6463c3aba90350be"}, {"lon": -77.0237575, "is_disabled": 0, "lat": 38.896178666666664, "fusion_lat": 0.0, "is_reserved": 0, "rental_uris": {"ios": "https://dc.lft.to/lastmile_qr_scan", "android": "https://dc.lft.to/lastmile_qr_scan"}, "fusion_lon": 0.0, "type": "electric_scooter", "bike_id": "823adbac6bf024d199e911e71f097a50", "name": "823adbac6bf024d199e911e71f097a50"}, {"lon": -77.0344855, "is_disabled": 0, "lat": 38.91824616666667, "fusion_lat": 0.0, "is_reserved": 0, "rental_uris": {"ios": "https://dc.lft.to/lastmile_qr_scan", "android": "https://dc.lft.to/lastmile_qr_scan"}, "fusion_lon": 0.0, "type": "electric_scooter", "bike_id": "81e94ff7434ee163a79562ee9646ee47", "name": "81e94ff7434ee163a79562ee9646ee47"}, {"lon": -77.0382045, "is_disabled": 0, "lat": 38.90270783333333, "fusion_lat": 0.0, "is_reserved": 0, "rental_uris": {"ios": "https://dc.lft.to/lastmile_qr_scan", "android": "https://dc.lft.to/lastmile_qr_scan"}, "fusion_lon": 0.0, "type": "electric_scooter", "bike_id": "37ed8d573942cff63cdb8b30b4d7b227", "name": "37ed8d573942cff63cdb8b30b4d7b227"}, {"lon": -77.026975, "is_disabled": 0, "lat": 38.9087465, "fusion_lat": 0.0, "is_reserved": 0, "rental_uris": {"ios": "https://dc.lft.to/lastmile_qr_scan", "android": "https://dc.lft.to/lastmile_qr_scan"}, "fusion_lon": 0.0, "type": "electric_scooter", "bike_id": "fd2a32a23e9ef37a5550371950d5f846", "name": "fd2a32a23e9ef37a5550371950d5f846"}, {"lon": -77.13466366666667, "is_disabled": 0, "lat": 38.853578, "fusion_lat": 0.0, "is_reserved": 0, "rental_uris": {"ios": "https://dc.lft.to/lastmile_qr_scan", "android": "https://dc.lft.to/lastmile_qr_scan"}, "fusion_lon": 0.0, "type": "electric_bike", "bike_id": "3427d73353cbfabcb87308e07fec202b", "name": "3427d73353cbfabcb87308e07fec202b"}, {"lon": -77.02138416666666, "is_disabled": 0, "lat": 38.91554516666667, "fusion_lat": 0.0, "is_reserved": 0, "rental_uris": {"ios": "https://dc.lft.to/lastmile_qr_scan", "android": "https://dc.lft.to/lastmile_qr_scan"}, "fusion_lon": 0.0, "type": "electric_scooter", "bike_id": "d9d6a88fb164e59e1dba1b7f83b80ccd", "name": "d9d6a88fb164e59e1dba1b7f83b80ccd"}, {"lon": -76.98603666666666, "is_disabled": 0, "lat": 38.9037325, "fusion_lat": 0.0, "is_reserved": 0, "rental_uris": {"ios": "https://dc.lft.to/lastmile_qr_scan", "android": "https://dc.lft.to/lastmile_qr_scan"}, "fusion_lon": 0.0, "type": "electric_scooter", "bike_id": "e12076be9a902cc041dd439ac8d119db", "name": "e12076be9a902cc041dd439ac8d119db"}, {"lon": -77.05067116666666, "is_disabled": 0, "lat": 38.92532466666667, "fusion_lat": 0.0, "is_reserved": 0, "rental_uris": {"ios": "https://dc.lft.to/lastmile_qr_scan", "android": "https://dc.lft.to/lastmile_qr_scan"}, "fusion_lon": 0.0, "type": "electric_scooter", "bike_id": "6e0135ca109858b88ba304aaed6db63f", "name": "6e0135ca109858b88ba304aaed6db63f"}, {"lon": -77.04310216666667, "is_disabled": 0, "lat": 38.9058255, "fusion_lat": 0.0, "is_reserved": 0, "rental_uris": {"ios": "https://dc.lft.to/lastmile_qr_scan", "android": "https://dc.lft.to/lastmile_qr_scan"}, "fusion_lon": 0.0, "type": "electric_scooter", "bike_id": "092fbb2c962b3a8cccb01cccfd32d504", "name": "092fbb2c962b3a8cccb01cccfd32d504"}, {"lon": -76.98573166666667, "is_disabled": 0, "lat": 38.8668925, "fusion_lat": 0.0, "is_reserved": 0, "rental_uris": {"ios": "https://dc.lft.to/lastmile_qr_scan", "android": "https://dc.lft.to/lastmile_qr_scan"}, "fusion_lon": 0.0, "type": "electric_scooter", "bike_id": "2f732fd40106e74fa1b5264581fda1fe", "name": "2f732fd40106e74fa1b5264581fda1fe"}, {"lon": -77.02476183333333, "is_disabled": 0, "lat": 38.937538833333335, "fusion_lat": 0.0, "is_reserved": 0, "rental_uris": {"ios": "https://dc.lft.to/lastmile_qr_scan", "android": "https://dc.lft.to/lastmile_qr_scan"}, "fusion_lon": 0.0, "type": "electric_scooter", "bike_id": "a6bcb85a1d26adb650031d50fef815d9", "name": "a6bcb85a1d26adb650031d50fef815d9"}, {"lon": -77.01313, "is_disabled": 0, "lat": 38.90140666666667, "fusion_lat": 0.0, "is_reserved": 0, "rental_uris": {"ios": "https://dc.lft.to/lastmile_qr_scan", "android": "https://dc.lft.to/lastmile_qr_scan"}, "fusion_lon": 0.0, "type": "electric_scooter", "bike_id": "1a09856db7a93dfa969bb970b991c0d7", "name": "1a09856db7a93dfa969bb970b991c0d7"}, {"lon": -76.9798345, "is_disabled": 0, "lat": 38.8974885, "fusion_lat": 0.0, "is_reserved": 0, "rental_uris": {"ios": "https://dc.lft.to/lastmile_qr_scan", "android": "https://dc.lft.to/lastmile_qr_scan"}, "fusion_lon": 0.0, "type": "electric_scooter", "bike_id": "82e2b0066d07814aa321848f15aa8615", "name": "82e2b0066d07814aa321848f15aa8615"}, {"lon": -77.02383716666667, "is_disabled": 0, "lat": 38.989743, "fusion_lat": 0.0, "is_reserved": 0, "rental_uris": {"ios": "https://dc.lft.to/lastmile_qr_scan", "android": "https://dc.lft.to/lastmile_qr_scan"}, "fusion_lon": 0.0, "type": "electric_bike", "bike_id": "084fb18421137194b8c902b0452af2eb", "name": "084fb18421137194b8c902b0452af2eb"}, {"lon": -77.02176716666666, "is_disabled": 0, "lat": 38.89899466666667, "fusion_lat": 0.0, "is_reserved": 0, "rental_uris": {"ios": "https://dc.lft.to/lastmile_qr_scan", "android": "https://dc.lft.to/lastmile_qr_scan"}, "fusion_lon": 0.0, "type": "electric_scooter", "bike_id": "60d65eda58b52d6217afe343e41154f5", "name": "60d65eda58b52d6217afe343e41154f5"}, {"lon": -77.04182266666666, "is_disabled": 0, "lat": 38.905303333333336, "fusion_lat": 0.0, "is_reserved": 0, "rental_uris": {"ios": "https://dc.lft.to/lastmile_qr_scan", "android": "https://dc.lft.to/lastmile_qr_scan"}, "fusion_lon": 0.0, "type": "electric_scooter", "bike_id": "f30f3761d23588bc9429155fe74626da", "name": "f30f3761d23588bc9429155fe74626da"}, {"lon": -77.04550466666667, "is_disabled": 0, "lat": 38.902286, "fusion_lat": 0.0, "is_reserved": 0, "rental_uris": {"ios": "https://dc.lft.to/lastmile_qr_scan", "android": "https://dc.lft.to/lastmile_qr_scan"}, "fusion_lon": 0.0, "type": "electric_scooter", "bike_id": "2f8d221ce80accf0f4186ebd7cd456b0", "name": "2f8d221ce80accf0f4186ebd7cd456b0"}, {"lon": -77.072731, "is_disabled": 0, "lat": 38.93486733333334, "fusion_lat": 0.0, "is_reserved": 0, "rental_uris": {"ios": "https://dc.lft.to/lastmile_qr_scan", "android": "https://dc.lft.to/lastmile_qr_scan"}, "fusion_lon": 0.0, "type": "electric_scooter", "bike_id": "7aca10fff6d5157cb8bb3aadbd1d9b2e", "name": "7aca10fff6d5157cb8bb3aadbd1d9b2e"}, {"lon": -77.05027966666667, "is_disabled": 0, "lat": 38.89245666666667, "fusion_lat": 0.0, "is_reserved": 0, "rental_uris": {"ios": "https://dc.lft.to/lastmile_qr_scan", "android": "https://dc.lft.to/lastmile_qr_scan"}, "fusion_lon": 0.0, "type": "electric_scooter", "bike_id": "45b9a2f5c27419c7bcb6a79040abc61a", "name": "45b9a2f5c27419c7bcb6a79040abc61a"}, {"lon": -77.03984733333333, "is_disabled": 0, "lat": 38.8922645, "fusion_lat": 0.0, "is_reserved": 0, "rental_uris": {"ios": "https://dc.lft.to/lastmile_qr_scan", "android": "https://dc.lft.to/lastmile_qr_scan"}, "fusion_lon": 0.0, "type": "electric_scooter", "bike_id": "62f0f0e44af39285b3ad3e64261f4d87", "name": "62f0f0e44af39285b3ad3e64261f4d87"}, {"lon": -77.00341416666667, "is_disabled": 0, "lat": 38.8935815, "fusion_lat": 0.0, "is_reserved": 0, "rental_uris": {"ios": "https://dc.lft.to/lastmile_qr_scan", "android": "https://dc.lft.to/lastmile_qr_scan"}, "fusion_lon": 0.0, "type": "electric_scooter", "bike_id": "0149916fe0550ff67b2130f4a1f1c276", "name": "0149916fe0550ff67b2130f4a1f1c276"}, {"lon": -77.02400583333333, "is_disabled": 0, "lat": 38.907048, "fusion_lat": 0.0, "is_reserved": 0, "rental_uris": {"ios": "https://dc.lft.to/lastmile_qr_scan", "android": "https://dc.lft.to/lastmile_qr_scan"}, "fusion_lon": 0.0, "type": "electric_scooter", "bike_id": "6ed7e4acb053c3ef8767ab8d8e195429", "name": "6ed7e4acb053c3ef8767ab8d8e195429"}, {"lon": -77.04004616666667, "is_disabled": 0, "lat": 38.934278, "fusion_lat": 0.0, "is_reserved": 0, "rental_uris": {"ios": "https://dc.lft.to/lastmile_qr_scan", "android": "https://dc.lft.to/lastmile_qr_scan"}, "fusion_lon": 0.0, "type": "electric_scooter", "bike_id": "a4127f92282fc00e6221dd96744ef20a", "name": "a4127f92282fc00e6221dd96744ef20a"}, {"lon": -77.02200166666667, "is_disabled": 0, "lat": 38.95009016666667, "fusion_lat": 0.0, "is_reserved": 0, "rental_uris": {"ios": "https://dc.lft.to/lastmile_qr_scan", "android": "https://dc.lft.to/lastmile_qr_scan"}, "fusion_lon": 0.0, "type": "electric_scooter", "bike_id": "eddd38c894a73224d92e01062f7daf81", "name": "eddd38c894a73224d92e01062f7daf81"}, {"lon": -77.04366116666667, "is_disabled": 0, "lat": 38.89224183333333, "fusion_lat": 0.0, "is_reserved": 0, "rental_uris": {"ios": "https://dc.lft.to/lastmile_qr_scan", "android": "https://dc.lft.to/lastmile_qr_scan"}, "fusion_lon": 0.0, "type": "electric_scooter", "bike_id": "4b133e77aa86c281c0a808e0bb686232", "name": "4b133e77aa86c281c0a808e0bb686232"}, {"lon": -77.020999, "is_disabled": 0, "lat": 38.921847666666665, "fusion_lat": 0.0, "is_reserved": 0, "rental_uris": {"ios": "https://dc.lft.to/lastmile_qr_scan", "android": "https://dc.lft.to/lastmile_qr_scan"}, "fusion_lon": 0.0, "type": "electric_scooter", "bike_id": "d9ced5322d2e152ad182a2e457575cf1", "name": "d9ced5322d2e152ad182a2e457575cf1"}, {"lon": -76.97906783333333, "is_disabled": 0, "lat": 38.904318333333336, "fusion_lat": 0.0, "is_reserved": 0, "rental_uris": {"ios": "https://dc.lft.to/lastmile_qr_scan", "android": "https://dc.lft.to/lastmile_qr_scan"}, "fusion_lon": 0.0, "type": "electric_scooter", "bike_id": "50b143ac06ea36c44b728949d061befc", "name": "50b143ac06ea36c44b728949d061befc"}, {"lon": -76.94642066666667, "is_disabled": 0, "lat": 38.89870283333333, "fusion_lat": 0.0, "is_reserved": 0, "rental_uris": {"ios": "https://dc.lft.to/lastmile_qr_scan", "android": "https://dc.lft.to/lastmile_qr_scan"}, "fusion_lon": 0.0, "type": "electric_scooter", "bike_id": "20b53aa98e309d4ffe5f7cd7d456e779", "name": "20b53aa98e309d4ffe5f7cd7d456e779"}, {"lon": -77.07059933333333, "is_disabled": 0, "lat": 38.90107883333334, "fusion_lat": 0.0, "is_reserved": 0, "rental_uris": {"ios": "https://dc.lft.to/lastmile_qr_scan", "android": "https://dc.lft.to/lastmile_qr_scan"}, "fusion_lon": 0.0, "type": "electric_scooter", "bike_id": "afc7810e280f7ff0592c239dbe967179", "name": "afc7810e280f7ff0592c239dbe967179"}, {"lon": -77.03365716666667, "is_disabled": 0, "lat": 38.902766166666666, "fusion_lat": 0.0, "is_reserved": 0, "rental_uris": {"ios": "https://dc.lft.to/lastmile_qr_scan", "android": "https://dc.lft.to/lastmile_qr_scan"}, "fusion_lon": 0.0, "type": "electric_scooter", "bike_id": "7241152baa946d62d54b00e4f112a888", "name": "7241152baa946d62d54b00e4f112a888"}, {"lon": -77.03520533333334, "is_disabled": 0, "lat": 38.921738, "fusion_lat": 0.0, "is_reserved": 0, "rental_uris": {"ios": "https://dc.lft.to/lastmile_qr_scan", "android": "https://dc.lft.to/lastmile_qr_scan"}, "fusion_lon": 0.0, "type": "electric_scooter", "bike_id": "32e4834d1fd8f60afbc8fda135e9a252", "name": "32e4834d1fd8f60afbc8fda135e9a252"}, {"lon": -77.04484, "is_disabled": 0, "lat": 38.89526016666667, "fusion_lat": 0.0, "is_reserved": 0, "rental_uris": {"ios": "https://dc.lft.to/lastmile_qr_scan", "android": "https://dc.lft.to/lastmile_qr_scan"}, "fusion_lon": 0.0, "type": "electric_scooter", "bike_id": "fc8f0853e8e026e5d2616d925c2efeea", "name": "fc8f0853e8e026e5d2616d925c2efeea"}, {"lon": -77.02002733333333, "is_disabled": 0, "lat": 38.895409666666666, "fusion_lat": 0.0, "is_reserved": 0, "rental_uris": {"ios": "https://dc.lft.to/lastmile_qr_scan", "android": "https://dc.lft.to/lastmile_qr_scan"}, "fusion_lon": 0.0, "type": "electric_scooter", "bike_id": "0c1f8966a13f40d6fd1b205a2b86ad67", "name": "0c1f8966a13f40d6fd1b205a2b86ad67"}, {"lon": -77.03958716666666, "is_disabled": 0, "lat": 38.8958845, "fusion_lat": 0.0, "is_reserved": 0, "rental_uris": {"ios": "https://dc.lft.to/lastmile_qr_scan", "android": "https://dc.lft.to/lastmile_qr_scan"}, "fusion_lon": 0.0, "type": "electric_scooter", "bike_id": "a1e3735b455d77675d2ca7bf1ef79ca4", "name": "a1e3735b455d77675d2ca7bf1ef79ca4"}, {"lon": -77.02720716666667, "is_disabled": 0, "lat": 38.901156666666665, "fusion_lat": 0.0, "is_reserved": 0, "rental_uris": {"ios": "https://dc.lft.to/lastmile_qr_scan", "android": "https://dc.lft.to/lastmile_qr_scan"}, "fusion_lon": 0.0, "type": "electric_scooter", "bike_id": "a41768e57334a2985f688aaa479958e1", "name": "a41768e57334a2985f688aaa479958e1"}, {"lon": -76.90734783333333, "is_disabled": 0, "lat": 38.896105666666664, "fusion_lat": 0.0, "is_reserved": 0, "rental_uris": {"ios": "https://dc.lft.to/lastmile_qr_scan", "android": "https://dc.lft.to/lastmile_qr_scan"}, "fusion_lon": 0.0, "type": "electric_bike", "bike_id": "47258fa3ed4c57e0751c37fa790ad2b6", "name": "47258fa3ed4c57e0751c37fa790ad2b6"}, {"lon": -77.02187666666667, "is_disabled": 0, "lat": 38.914857166666664, "fusion_lat": 0.0, "is_reserved": 0, "rental_uris": {"ios": "https://dc.lft.to/lastmile_qr_scan", "android": "https://dc.lft.to/lastmile_qr_scan"}, "fusion_lon": 0.0, "type": "electric_scooter", "bike_id": "7649c13c7176ea85c9fbf4f7bd03375f", "name": "7649c13c7176ea85c9fbf4f7bd03375f"}, {"lon": -77.01622716666667, "is_disabled": 0, "lat": 38.89928316666666, "fusion_lat": 0.0, "is_reserved": 0, "rental_uris": {"ios": "https://dc.lft.to/lastmile_qr_scan", "android": "https://dc.lft.to/lastmile_qr_scan"}, "fusion_lon": 0.0, "type": "electric_scooter", "bike_id": "3662bb2664d9b12e36e3741f5cded77d", "name": "3662bb2664d9b12e36e3741f5cded77d"}, {"lon": -77.0308375, "is_disabled": 0, "lat": 38.933097333333336, "fusion_lat": 0.0, "is_reserved": 0, "rental_uris": {"ios": "https://dc.lft.to/lastmile_qr_scan", "android": "https://dc.lft.to/lastmile_qr_scan"}, "fusion_lon": 0.0, "type": "electric_scooter", "bike_id": "c36c12999848501075e9b2be6bc55b7b", "name": "c36c12999848501075e9b2be6bc55b7b"}, {"lon": -77.04365766666666, "is_disabled": 0, "lat": 38.9014465, "fusion_lat": 0.0, "is_reserved": 0, "rental_uris": {"ios": "https://dc.lft.to/lastmile_qr_scan", "android": "https://dc.lft.to/lastmile_qr_scan"}, "fusion_lon": 0.0, "type": "electric_scooter", "bike_id": "8e75b952532c0130d6e61625e59f9d23", "name": "8e75b952532c0130d6e61625e59f9d23"}, {"lon": -77.0343055, "is_disabled": 0, "lat": 38.906199, "fusion_lat": 0.0, "is_reserved": 0, "rental_uris": {"ios": "https://dc.lft.to/lastmile_qr_scan", "android": "https://dc.lft.to/lastmile_qr_scan"}, "fusion_lon": 0.0, "type": "electric_scooter", "bike_id": "bbd91cc000d5c15e951a2bf92ad9747a", "name": "bbd91cc000d5c15e951a2bf92ad9747a"}, {"lon": -77.03286966666667, "is_disabled": 0, "lat": 38.928821166666665, "fusion_lat": 0.0, "is_reserved": 0, "rental_uris": {"ios": "https://dc.lft.to/lastmile_qr_scan", "android": "https://dc.lft.to/lastmile_qr_scan"}, "fusion_lon": 0.0, "type": "electric_scooter", "bike_id": "2ef9dfef5ecc3eb2859ec20acea74ad0", "name": "2ef9dfef5ecc3eb2859ec20acea74ad0"}, {"lon": -77.04651616666666, "is_disabled": 0, "lat": 38.90574433333333, "fusion_lat": 0.0, "is_reserved": 0, "rental_uris": {"ios": "https://dc.lft.to/lastmile_qr_scan", "android": "https://dc.lft.to/lastmile_qr_scan"}, "fusion_lon": 0.0, "type": "electric_scooter", "bike_id": "03478f7ecc4cbc2a77e2066e78317c4c", "name": "03478f7ecc4cbc2a77e2066e78317c4c"}, {"lon": -77.02385866666667, "is_disabled": 0, "lat": 38.88124166666667, "fusion_lat": 0.0, "is_reserved": 0, "rental_uris": {"ios": "https://dc.lft.to/lastmile_qr_scan", "android": "https://dc.lft.to/lastmile_qr_scan"}, "fusion_lon": 0.0, "type": "electric_scooter", "bike_id": "19c5fadff794a9caf0f910762e723fe8", "name": "19c5fadff794a9caf0f910762e723fe8"}, {"lon": -77.03363183333333, "is_disabled": 0, "lat": 38.92864483333334, "fusion_lat": 0.0, "is_reserved": 0, "rental_uris": {"ios": "https://dc.lft.to/lastmile_qr_scan", "android": "https://dc.lft.to/lastmile_qr_scan"}, "fusion_lon": 0.0, "type": "electric_scooter", "bike_id": "11b652b90f111c390d457c95d524c7b6", "name": "11b652b90f111c390d457c95d524c7b6"}, {"lon": -77.02588233333333, "is_disabled": 0, "lat": 38.914154833333335, "fusion_lat": 0.0, "is_reserved": 0, "rental_uris": {"ios": "https://dc.lft.to/lastmile_qr_scan", "android": "https://dc.lft.to/lastmile_qr_scan"}, "fusion_lon": 0.0, "type": "electric_scooter", "bike_id": "51a86b62109eeb382cc8690d44e768f4", "name": "51a86b62109eeb382cc8690d44e768f4"}, {"lon": -77.04226633333333, "is_disabled": 0, "lat": 38.913479833333334, "fusion_lat": 0.0, "is_reserved": 0, "rental_uris": {"ios": "https://dc.lft.to/lastmile_qr_scan", "android": "https://dc.lft.to/lastmile_qr_scan"}, "fusion_lon": 0.0, "type": "electric_scooter", "bike_id": "33b4962f454a961627a4667568dcd50e", "name": "33b4962f454a961627a4667568dcd50e"}, {"lon": -77.04652833333333, "is_disabled": 0, "lat": 38.892234, "fusion_lat": 0.0, "is_reserved": 0, "rental_uris": {"ios": "https://dc.lft.to/lastmile_qr_scan", "android": "https://dc.lft.to/lastmile_qr_scan"}, "fusion_lon": 0.0, "type": "electric_scooter", "bike_id": "2ad46a495a2fd9a98760f29c71b2266c", "name": "2ad46a495a2fd9a98760f29c71b2266c"}, {"lon": -77.07356683333333, "is_disabled": 0, "lat": 38.93356566666667, "fusion_lat": 0.0, "is_reserved": 0, "rental_uris": {"ios": "https://dc.lft.to/lastmile_qr_scan", "android": "https://dc.lft.to/lastmile_qr_scan"}, "fusion_lon": 0.0, "type": "electric_scooter", "bike_id": "4cbac7d793d552d66a5e85a21ad4b4d3", "name": "4cbac7d793d552d66a5e85a21ad4b4d3"}, {"lon": -77.02507733333333, "is_disabled": 0, "lat": 38.942761833333336, "fusion_lat": 0.0, "is_reserved": 0, "rental_uris": {"ios": "https://dc.lft.to/lastmile_qr_scan", "android": "https://dc.lft.to/lastmile_qr_scan"}, "fusion_lon": 0.0, "type": "electric_scooter", "bike_id": "a7ba80691024e76eca8c60290a2a4f30", "name": "a7ba80691024e76eca8c60290a2a4f30"}, {"lon": -77.02371966666666, "is_disabled": 0, "lat": 38.91660233333333, "fusion_lat": 0.0, "is_reserved": 0, "rental_uris": {"ios": "https://dc.lft.to/lastmile_qr_scan", "android": "https://dc.lft.to/lastmile_qr_scan"}, "fusion_lon": 0.0, "type": "electric_scooter", "bike_id": "9b7f41589a1aba70f26389e87c30e66b", "name": "9b7f41589a1aba70f26389e87c30e66b"}, {"lon": -77.03279683333334, "is_disabled": 0, "lat": 38.92876166666667, "fusion_lat": 0.0, "is_reserved": 0, "rental_uris": {"ios": "https://dc.lft.to/lastmile_qr_scan", "android": "https://dc.lft.to/lastmile_qr_scan"}, "fusion_lon": 0.0, "type": "electric_scooter", "bike_id": "e65525fd5f5ddb3b939b613648064fec", "name": "e65525fd5f5ddb3b939b613648064fec"}, {"lon": -77.03441016666666, "is_disabled": 0, "lat": 38.909460833333334, "fusion_lat": 0.0, "is_reserved": 0, "rental_uris": {"ios": "https://dc.lft.to/lastmile_qr_scan", "android": "https://dc.lft.to/lastmile_qr_scan"}, "fusion_lon": 0.0, "type": "electric_scooter", "bike_id": "0c92228e92d7b04cc010681e96c96891", "name": "0c92228e92d7b04cc010681e96c96891"}, {"lon": -77.046491, "is_disabled": 0, "lat": 38.90962583333334, "fusion_lat": 0.0, "is_reserved": 0, "rental_uris": {"ios": "https://dc.lft.to/lastmile_qr_scan", "android": "https://dc.lft.to/lastmile_qr_scan"}, "fusion_lon": 0.0, "type": "electric_scooter", "bike_id": "282e48aa8dab035372302fca0127344e", "name": "282e48aa8dab035372302fca0127344e"}, {"lon": -77.04770433333333, "is_disabled": 0, "lat": 38.905135333333334, "fusion_lat": 0.0, "is_reserved": 0, "rental_uris": {"ios": "https://dc.lft.to/lastmile_qr_scan", "android": "https://dc.lft.to/lastmile_qr_scan"}, "fusion_lon": 0.0, "type": "electric_scooter", "bike_id": "b6d599935fce60a0e75adf7264caed03", "name": "b6d599935fce60a0e75adf7264caed03"}, {"lon": -77.02970033333334, "is_disabled": 0, "lat": 38.916943, "fusion_lat": 0.0, "is_reserved": 0, "rental_uris": {"ios": "https://dc.lft.to/lastmile_qr_scan", "android": "https://dc.lft.to/lastmile_qr_scan"}, "fusion_lon": 0.0, "type": "electric_scooter", "bike_id": "2b3d45291b99376e9885020262bd04c4", "name": "2b3d45291b99376e9885020262bd04c4"}, {"lon": -76.9930325, "is_disabled": 0, "lat": 38.85758116666667, "fusion_lat": 0.0, "is_reserved": 0, "rental_uris": {"ios": "https://dc.lft.to/lastmile_qr_scan", "android": "https://dc.lft.to/lastmile_qr_scan"}, "fusion_lon": 0.0, "type": "electric_scooter", "bike_id": "0c32e5a8afc4dd7d8af7085b3484006b", "name": "0c32e5a8afc4dd7d8af7085b3484006b"}, {"lon": -77.041371, "is_disabled": 0, "lat": 38.9249765, "fusion_lat": 0.0, "is_reserved": 0, "rental_uris": {"ios": "https://dc.lft.to/lastmile_qr_scan", "android": "https://dc.lft.to/lastmile_qr_scan"}, "fusion_lon": 0.0, "type": "electric_scooter", "bike_id": "e981316cbf9ccd2a0762a63d40a8cf5d", "name": "e981316cbf9ccd2a0762a63d40a8cf5d"}, {"lon": -77.04379133333333, "is_disabled": 0, "lat": 38.9256295, "fusion_lat": 0.0, "is_reserved": 0, "rental_uris": {"ios": "https://dc.lft.to/lastmile_qr_scan", "android": "https://dc.lft.to/lastmile_qr_scan"}, "fusion_lon": 0.0, "type": "electric_scooter", "bike_id": "537ce23b71c419c3bf24415cce0de180", "name": "537ce23b71c419c3bf24415cce0de180"}, {"lon": -77.0319825, "is_disabled": 0, "lat": 38.9184725, "fusion_lat": 0.0, "is_reserved": 0, "rental_uris": {"ios": "https://dc.lft.to/lastmile_qr_scan", "android": "https://dc.lft.to/lastmile_qr_scan"}, "fusion_lon": 0.0, "type": "electric_scooter", "bike_id": "2bcbabd6c1badcee93440910e9231ea8", "name": "2bcbabd6c1badcee93440910e9231ea8"}, {"lon": -77.0430035, "is_disabled": 0, "lat": 38.9059075, "fusion_lat": 0.0, "is_reserved": 0, "rental_uris": {"ios": "https://dc.lft.to/lastmile_qr_scan", "android": "https://dc.lft.to/lastmile_qr_scan"}, "fusion_lon": 0.0, "type": "electric_scooter", "bike_id": "6e2440948b54df7b31133f60cef32a9e", "name": "6e2440948b54df7b31133f60cef32a9e"}, {"lon": -77.0384765, "is_disabled": 0, "lat": 38.90670716666666, "fusion_lat": 0.0, "is_reserved": 0, "rental_uris": {"ios": "https://dc.lft.to/lastmile_qr_scan", "android": "https://dc.lft.to/lastmile_qr_scan"}, "fusion_lon": 0.0, "type": "electric_scooter", "bike_id": "323ca5914e1e7fd899de44476b4c4cf1", "name": "323ca5914e1e7fd899de44476b4c4cf1"}, {"lon": -77.0228155, "is_disabled": 0, "lat": 38.89504733333333, "fusion_lat": 0.0, "is_reserved": 0, "rental_uris": {"ios": "https://dc.lft.to/lastmile_qr_scan", "android": "https://dc.lft.to/lastmile_qr_scan"}, "fusion_lon": 0.0, "type": "electric_scooter", "bike_id": "dd2560ddbd132419ff95971246b0e40d", "name": "dd2560ddbd132419ff95971246b0e40d"}, {"lon": -77.026363, "is_disabled": 0, "lat": 38.98476866666667, "fusion_lat": 0.0, "is_reserved": 0, "rental_uris": {"ios": "https://dc.lft.to/lastmile_qr_scan", "android": "https://dc.lft.to/lastmile_qr_scan"}, "fusion_lon": 0.0, "type": "electric_scooter", "bike_id": "9623fea4a6716ad947e6befb4315de2e", "name": "9623fea4a6716ad947e6befb4315de2e"}, {"lon": -77.04365716666666, "is_disabled": 0, "lat": 38.900131333333334, "fusion_lat": 0.0, "is_reserved": 0, "rental_uris": {"ios": "https://dc.lft.to/lastmile_qr_scan", "android": "https://dc.lft.to/lastmile_qr_scan"}, "fusion_lon": 0.0, "type": "electric_scooter", "bike_id": "7055e23d01d05da8abcc7e2702ecb15c", "name": "7055e23d01d05da8abcc7e2702ecb15c"}, {"lon": -77.04384283333333, "is_disabled": 0, "lat": 38.910535, "fusion_lat": 0.0, "is_reserved": 0, "rental_uris": {"ios": "https://dc.lft.to/lastmile_qr_scan", "android": "https://dc.lft.to/lastmile_qr_scan"}, "fusion_lon": 0.0, "type": "electric_scooter", "bike_id": "1ca849720fad3ac2cf32c57062cf9c69", "name": "1ca849720fad3ac2cf32c57062cf9c69"}, {"lon": -76.98880866666667, "is_disabled": 0, "lat": 38.86657266666667, "fusion_lat": 0.0, "is_reserved": 0, "rental_uris": {"ios": "https://dc.lft.to/lastmile_qr_scan", "android": "https://dc.lft.to/lastmile_qr_scan"}, "fusion_lon": 0.0, "type": "electric_scooter", "bike_id": "9d7b1985831af8f94e9b87717ec31d06", "name": "9d7b1985831af8f94e9b87717ec31d06"}, {"lon": -77.01502583333334, "is_disabled": 0, "lat": 38.91761566666667, "fusion_lat": 0.0, "is_reserved": 0, "rental_uris": {"ios": "https://dc.lft.to/lastmile_qr_scan", "android": "https://dc.lft.to/lastmile_qr_scan"}, "fusion_lon": 0.0, "type": "electric_scooter", "bike_id": "57c5b57ff17a8e692e870848a6ef19cb", "name": "57c5b57ff17a8e692e870848a6ef19cb"}, {"lon": -77.03327666666667, "is_disabled": 0, "lat": 38.8984195, "fusion_lat": 0.0, "is_reserved": 0, "rental_uris": {"ios": "https://dc.lft.to/lastmile_qr_scan", "android": "https://dc.lft.to/lastmile_qr_scan"}, "fusion_lon": 0.0, "type": "electric_scooter", "bike_id": "adbece03e3eddc34da12d725360daa20", "name": "adbece03e3eddc34da12d725360daa20"}, {"lon": -76.9817615, "is_disabled": 0, "lat": 38.8696905, "fusion_lat": 0.0, "is_reserved": 0, "rental_uris": {"ios": "https://dc.lft.to/lastmile_qr_scan", "android": "https://dc.lft.to/lastmile_qr_scan"}, "fusion_lon": 0.0, "type": "electric_scooter", "bike_id": "633188f7fc3dba27de5284c762062697", "name": "633188f7fc3dba27de5284c762062697"}, {"lon": -77.2289495, "is_disabled": 0, "lat": 38.909604, "fusion_lat": 0.0, "is_reserved": 0, "rental_uris": {"ios": "https://dc.lft.to/lastmile_qr_scan", "android": "https://dc.lft.to/lastmile_qr_scan"}, "fusion_lon": 0.0, "type": "electric_bike", "bike_id": "66766765aa4ab87b783a54afd415edbf", "name": "66766765aa4ab87b783a54afd415edbf"}, {"lon": -77.04174066666667, "is_disabled": 0, "lat": 38.91400983333333, "fusion_lat": 0.0, "is_reserved": 0, "rental_uris": {"ios": "https://dc.lft.to/lastmile_qr_scan", "android": "https://dc.lft.to/lastmile_qr_scan"}, "fusion_lon": 0.0, "type": "electric_scooter", "bike_id": "ab1b1060ef277dc74b7792f55aaf91ec", "name": "ab1b1060ef277dc74b7792f55aaf91ec"}, {"lon": -77.04113566666666, "is_disabled": 0, "lat": 38.910468, "fusion_lat": 0.0, "is_reserved": 0, "rental_uris": {"ios": "https://dc.lft.to/lastmile_qr_scan", "android": "https://dc.lft.to/lastmile_qr_scan"}, "fusion_lon": 0.0, "type": "electric_scooter", "bike_id": "839a276f5783d6f9fae05e8a350ef928", "name": "839a276f5783d6f9fae05e8a350ef928"},