{"data": {"bikes": [{"fusion_lon": 0.0, "name": "164806ca5ad2347de7c1572bd9a5cdc5", "rental_uris": {"android": "https://dc.lft.to/lastmile_qr_scan", "ios": "https://dc.lft.to/lastmile_qr_scan"}, "lat": 38.839338166666664, "bike_id": "164806ca5ad2347de7c1572bd9a5cdc5", "is_disabled": 0, "lon": -77.07906683333333, "is_reserved": 0, "fusion_lat": 0.0, "type": "electric_bike"}, {"fusion_lon": 0.0, "name": "a5293223b67391236193cb546d94c873", "rental_uris": {"android": "https://dc.lft.to/lastmile_qr_scan", "ios": "https://dc.lft.to/lastmile_qr_scan"}, "lat": 38.903075333333334, "bike_id": "a5293223b67391236193cb546d94c873", "is_disabled": 0, "lon": -77.02462916666667, "is_reserved": 0, "fusion_lat": 0.0, "type": "electric_scooter"}, {"fusion_lon": 0.0, "name": "0791da183d3ecc6417fc4f9fbe5477cc", "rental_uris": {"android": "https://dc.lft.to/lastmile_qr_scan", "ios": "https://dc.lft.to/lastmile_qr_scan"}, "lat": 38.905234, "bike_id": "0791da183d3ecc6417fc4f9fbe5477cc", "is_disabled": 0, "lon": -77.06580566666666, "is_reserved": 0, "fusion_lat": 0.0, "type": "electric_scooter"}, {"fusion_lon": 0.0, "name": "37a8d17c5f1a923c9c8ca31d1bac69b3", "rental_uris": {"android": "https://dc.lft.to/lastmile_qr_scan", "ios": "https://dc.lft.to/lastmile_qr_scan"}, "lat": 38.9161745, "bike_id": "37a8d17c5f1a923c9c8ca31d1bac69b3", "is_disabled": 0, "lon": -77.04579133333333, "is_reserved": 0, "fusion_lat": 0.0, "type": "electric_scooter"}, {"fusion_lon": 0.0, "name": "a41debf239d1b49a7ecdd784072eed72", "rental_uris": {"android": "https://dc.lft.to/lastmile_qr_scan", "ios": "https://dc.lft.to/lastmile_qr_scan"}, "lat": 38.92240916666667, "bike_id": "a41debf239d1b49a7ecdd784072eed72", "is_disabled": 0, "lon": -77.0195035, "is_reserved": 0, "fusion_lat": 0.0, "type": "electric_scooter"}, {"fusion_lon": 0.0, "name": "f03e4eeffcaf190ed3ea0f9498ef06da", "rental_uris": {"android": "https://dc.lft.to/lastmile_qr_scan", "ios": "https://dc.lft.to/lastmile_qr_scan"}, "lat": 38.918920666666665, "bike_id": "f03e4eeffcaf190ed3ea0f9498ef06da", "is_disabled": 0, "lon": -77.10176866666667, "is_reserved": 0, "fusion_lat": 0.0, "type": "electric_bike"}, {"fusion_lon": 0.0, "name": "ed637b58a82485fa63fb9d5f282acc74", "rental_uris": {"android": "https://dc.lft.to/lastmile_qr_scan", "ios": "https://dc.lft.to/lastmile_qr_scan"}, "lat": 38.96400333333333, "bike_id": "ed637b58a82485fa63fb9d5f282acc74", "is_disabled": 0, "lon": -77.0258625, "is_reserved": 0, "fusion_lat": 0.0, "type": "electric_scooter"}, {"fusion_lon": 0.0, "name": "34965f11e3fb4d121491c4c34ec30335", "rental_uris": {"android": "https://dc.lft.to/lastmile_qr_scan", "ios": "https://dc.lft.to/lastmile_qr_scan"}, "lat": 38.90336516666667, "bike_id": "34965f11e3fb4d121491c4c34ec30335", "is_disabled": 0, "lon": -76.97613383333334, "is_reserved": 0, "fusion_lat": 0.0, "type": "electric_scooter"}, {"fusion_lon": 0.0, "name": "3ccf3276e842ec2b345eb70bc6234e78", "rental_uris": {"android": "https://dc.lft.to/lastmile_qr_scan", "ios": "https://dc.lft.to/lastmile_qr_scan"}, "lat": 38.92346333333333, "bike_id": "3ccf3276e842ec2b345eb70bc6234e78", "is_disabled": 0, "lon": -77.0508965, "is_reserved": 0, "fusion_lat": 0.0, "type": "electric_scooter"}, {"fusion_lon": 0.0, "name": "9bf0a9ec70ef5be13c169cd6583f6d2b", "rental_uris": {"android": "https://dc.lft.to/lastmile_qr_scan", "ios": "https://dc.lft.to/lastmile_qr_scan"}, "lat": 38.921531, "bike_id": "9bf0a9ec70ef5be13c169cd6583f6d2b", "is_disabled": 0, "lon": -77.03533166666666, "is_reserved": 0, "fusion_lat": 0.0, "type": "electric_scooter"}, {"fusion_lon": 0.0, "name": "9545828c034023e94eb89ca1ed92cf49", "rental_uris": {"android": "https://dc.lft.to/lastmile_qr_scan", "ios": "https://dc.lft.to/lastmile_qr_scan"}, "lat": 38.89227366666667, "bike_id": "9545828c034023e94eb89ca1ed92cf49", "is_disabled": 0, "lon": -77.00329683333334, "is_reserved": 0, "fusion_lat": 0.0, "type": "electric_scooter"}, {"fusion_lon": 0.0, "name": "c1c83a2689fd98cfa7ef0c2ad9048e41", "rental_uris": {"android": "https://dc.lft.to/lastmile_qr_scan", "ios": "https://dc.lft.to/lastmile_qr_scan"}, "lat": 38.89097816666666, "bike_id": "c1c83a2689fd98cfa7ef0c2ad9048e41", "is_disabled": 0, "lon": -77.002098, "is_reserved": 0, "fusion_lat": 0.0, "type": "electric_scooter"}, {"fusion_lon": 0.0, "name": "bdaadbfa1699b47ea70b2931b116ffef", "rental_uris": {"android": "https://dc.lft.to/lastmile_qr_scan", "ios": "https://dc.lft.to/lastmile_qr_scan"}, "lat": 38.90101116666666, "bike_id": "bdaadbfa1699b47ea70b2931b116ffef", "is_disabled": 0, "lon": -77.01819466666667, "is_reserved": 0, "fusion_lat": 0.0, "type": "electric_scooter"}, {"fusion_lon": 0.0, "name": "820bb93a7a90ef189cfb393a4bedcc62", "rental_uris": {"android": "https://dc.lft.to/lastmile_qr_scan", "ios": "https://dc.lft.to/lastmile_qr_scan"}, "lat": 38.926913, "bike_id": "820bb93a7a90ef189cfb393a4bedcc62", "is_disabled": 0, "lon": -77.02274516666667, "is_reserved": 0, "fusion_lat": 0.0, "type": "electric_scooter"}, {"fusion_lon": 0.0, "name": "3e8b8641d66df224bdff2a9d966a832b", "rental_uris": {"android": "https://dc.lft.to/lastmile_qr_scan", "ios": "https://dc.lft.to/lastmile_qr_scan"}, "lat": 38.93881183333333, "bike_id": "3e8b8641d66df224bdff2a9d966a832b", "is_disabled": 0, "lon": -77.03226066666667, "is_reserved": 0, "fusion_lat": 0.0, "type": "electric_scooter"}, {"fusion_lon": 0.0, "name": "cba151478328b472098b4e53025bc323", "rental_uris": {"android": "https://dc.lft.to/lastmile_qr_scan", "ios": "https://dc.lft.to/lastmile_qr_scan"}, "lat": 38.93884116666667, "bike_id": "cba151478328b472098b4e53025bc323", "is_disabled": 0, "lon": -77.024823, "is_reserved": 0, "fusion_lat": 0.0, "type": "electric_scooter"}, {"fusion_lon": 0.0, "name": "df9442d477f8b14b4cdd956d47079f1d", "rental_uris": {"android": "https://dc.lft.to/lastmile_qr_scan", "ios": "https://dc.lft.to/lastmile_qr_scan"}, "lat": 38.914787, "bike_id": "df9442d477f8b14b4cdd956d47079f1d", "is_disabled": 0, "lon": -77.04128533333333, "is_reserved": 0, "fusion_lat": 0.0, "type": "electric_scooter"}, {"fusion_lon": 0.0, "name": "7ee1d509cdeaa30fb8be33f3f60b287f", "rental_uris": {"android": "https://dc.lft.to/lastmile_qr_scan", "ios": "https://dc.lft.to/lastmile_qr_scan"}, "lat": 38.924736333333335, "bike_id": "7ee1d509cdeaa30fb8be33f3f60b287f", "is_disabled": 0, "lon": -77.02189066666666, "is_reserved": 0, "fusion_lat": 0.0, "type": "electric_scooter"}, {"fusion_lon": 0.0, "name": "16b689eb8d84d4246eb2ad5e639d1a12", "rental_uris": {"android": "https://dc.lft.to/lastmile_qr_scan", "ios": "https://dc.lft.to/lastmile_qr_scan"}, "lat": 38.903706166666666, "bike_id": "16b689eb8d84d4246eb2ad5e639d1a12", "is_disabled": 0, "lon": -76.98485866666667, "is_reserved": 0, "fusion_lat": 0.0, "type": "electric_scooter"}, {"fusion_lon": 0.0, "name": "460070556b980599abf58dff20a79bf6", "rental_uris": {"android": "https://dc.lft.to/lastmile_qr_scan", "ios": "https://dc.lft.to/lastmile_qr_scan"}, "lat": 38.9126745, "bike_id": "460070556b980599abf58dff20a79bf6", "is_disabled": 0, "lon": -77.03858483333333, "is_reserved": 0, "fusion_lat": 0.0, "type": "electric_scooter"}, {"fusion_lon": 0.0, "name": "8e2513f19ade2622fa1b204e3f5396af", "rental_uris": {"android": "https://dc.lft.to/lastmile_qr_scan", "ios": "https://dc.lft.to/lastmile_qr_scan"}, "lat": 38.902417166666666, "bike_id": "8e2513f19ade2622fa1b204e3f5396af", "is_disabled": 0, "lon": -77.03952916666667, "is_reserved": 0, "fusion_lat": 0.0, "type": "electric_scooter"}, {"fusion_lon": 0.0, "name": "2b2bd58fbe757019b31505cd0179c56d", "rental_uris": {"android": "https://dc.lft.to/lastmile_qr_scan", "ios": "https://dc.lft.to/lastmile_qr_scan"}, "lat": 38.9265585, "bike_id": "2b2bd58fbe757019b31505cd0179c56d", "is_disabled": 0, "lon": -77.02415433333333, "is_reserved": 0, "fusion_lat": 0.0, "type": "electric_scooter"}, {"fusion_lon": 0.0, "name": "98c35cd56f2fe7bfca8c8f6891c17044", "rental_uris": {"android": "https://dc.lft.to/lastmile_qr_scan", "ios": "https://dc.lft.to/lastmile_qr_scan"}, "lat": 38.90302033333333, "bike_id": "98c35cd56f2fe7bfca8c8f6891c17044", "is_disabled": 0, "lon": -77.02457, "is_reserved": 0, "fusion_lat": 0.0, "type": "electric_scooter"}, {"fusion_lon": 0.0, "name": "49ddcdf52ed8df05e8340879406d4999", "rental_uris": {"android": "https://dc.lft.to/lastmile_qr_scan", "ios": "https://dc.lft.to/lastmile_qr_scan"}, "lat": 38.89218733333333, "bike_id": "49ddcdf52ed8df05e8340879406d4999", "is_disabled": 0, "lon": -77.02162033333333, "is_reserved": 0, "fusion_lat": 0.0, "type": "electric_scooter"}, {"fusion_lon": 0.0, "name": "5c73605836d78794e863e373a213f9f0", "rental_uris": {"android": "https://dc.lft.to/lastmile_qr_scan", "ios": "https://dc.lft.to/lastmile_qr_scan"}, "lat": 38.912652333333334, "bike_id": "5c73605836d78794e863e373a213f9f0", "is_disabled": 0, "lon": -77.073201, "is_reserved": 0, "fusion_lat": 0.0, "type": "electric_scooter"}, {"fusion_lon": 0.0, "name": "5bf34e31474c3e1a0b2d9f95a0f92b17", "rental_uris": {"android": "https://dc.lft.to/lastmile_qr_scan", "ios": "https://dc.lft.to/lastmile_qr_scan"}, "lat": 38.925096333333336, "bike_id": "5bf34e31474c3e1a0b2d9f95a0f92b17", "is_disabled": 0, "lon": -77.0228685, "is_reserved": 0, "fusion_lat": 0.0, "type": "electric_scooter"}, {"fusion_lon": 0.0, "name": "b934fae3ad072fb575cb66b444399c59", "rental_uris": {"android": "https://dc.lft.to/lastmile_qr_scan", "ios": "https://dc.lft.to/lastmile_qr_scan"}, "lat": 38.904987166666665, "bike_id": "b934fae3ad072fb575cb66b444399c59", "is_disabled": 0, "lon": -77.0295255, "is_reserved": 0, "fusion_lat": 0.0, "type": "electric_scooter"}, {"fusion_lon": 0.0, "name": "d06a26b92b01a607e1b35dabc29e5a1b", "rental_uris": {"android": "https://dc.lft.to/lastmile_qr_scan", "ios": "https://dc.lft.to/lastmile_qr_scan"}, "lat": 39.007190333333334, "bike_id": "d06a26b92b01a607e1b35dabc29e5a1b", "is_disabled": 0, "lon": -76.98147133333333, "is_reserved": 0, "fusion_lat": 0.0, "type": "electric_bike"}, {"fusion_lon": 0.0, "name": "dabbe04e159111255d326669d8da4332", "rental_uris": {"android": "https://dc.lft.to/lastmile_qr_scan", "ios": "https://dc.lft.to/lastmile_qr_scan"}, "lat": 38.902815833333335, "bike_id": "dabbe04e159111255d326669d8da4332", "is_disabled": 0, "lon": -77.04703916666666, "is_reserved": 0, "fusion_lat": 0.0, "type": "electric_scooter"}, {"fusion_lon": 0.0, "name": "6feb9a485d3577d680b8c0a062f13e11", "rental_uris": {"android": "https://dc.lft.to/lastmile_qr_scan", "ios": "https://dc.lft.to/lastmile_qr_scan"}, "lat": 38.92289266666667, "bike_id": "6feb9a485d3577d680b8c0a062f13e11", "is_disabled": 0, "lon": -77.01950383333333, "is_reserved": 0, "fusion_lat": 0.0, "type": "electric_scooter"}, {"fusion_lon": 0.0, "name": "aad88ef0e32c476a7553b20b157d45d0", "rental_uris": {"android": "https://dc.lft.to/lastmile_qr_scan", "ios": "https://dc.lft.to/lastmile_qr_scan"}, "lat": 38.9140425, "bike_id": "aad88ef0e32c476a7553b20b157d45d0", "is_disabled": 0, "lon": -77.03901566666667, "is_reserved": 0, "fusion_lat": 0.0, "type": "electric_scooter"}, {"fusion_lon": 0.0, "name": "8cf32d2962c952a76f5ef4bd6534a33c", "rental_uris": {"android": "https://dc.lft.to/lastmile_qr_scan", "ios": "https://dc.lft.to/lastmile_qr_scan"}, "lat": 38.908917833333334, "bike_id": "8cf32d2962c952a76f5ef4bd6534a33c", "is_disabled": 0, "lon": -77.03209683333333, "is_reserved": 0, "fusion_lat": 0.0, "type": "electric_scooter"}, {"fusion_lon": 0.0, "name": "feec93356a8b6aa46aa4dd7b7cc458bc", "rental_uris": {"android": "https://dc.lft.to/lastmile_qr_scan", "ios": "https://dc.lft.to/lastmile_qr_scan"}, "lat": 38.8489045, "bike_id": "feec93356a8b6aa46aa4dd7b7cc458bc", "is_disabled": 0, "lon": -77.07787383333333, "is_reserved": 0, "fusion_lat": 0.0, "type": "electric_bike"}, {"fusion_lon": 0.0, "name": "476adca9989ad956a9e535dbc1918cd3", "rental_uris": {"android": "https://dc.lft.to/lastmile_qr_scan", "ios": "https://dc.lft.to/lastmile_qr_scan"}, "lat": 38.90038766666667, "bike_id": "476adca9989ad956a9e535dbc1918cd3", "is_disabled": 0, "lon": -77.01779133333334, "is_reserved": 0, "fusion_lat": 0.0, "type": "electric_scooter"}, {"fusion_lon": 0.0, "name": "152d394a44d1c0cad27fd073e5c2a6d2", "rental_uris": {"android": "https://dc.lft.to/lastmile_qr_scan", "ios": "https://dc.lft.to/lastmile_qr_scan"}, "lat": 38.92467333333333, "bike_id": "152d394a44d1c0cad27fd073e5c2a6d2", "is_disabled": 0, "lon": -77.0354915, "is_reserved": 0, "fusion_lat": 0.0, "type": "electric_scooter"}, {"fusion_lon": 0.0, "name": "f21c268c411bc39af8d2ac07f37cb932", "rental_uris": {"android": "https://dc.lft.to/lastmile_qr_scan", "ios": "https://dc.lft.to/lastmile_qr_scan"}, "lat": 38.90845916666667, "bike_id": "f21c268c411bc39af8d2ac07f37cb932", "is_disabled": 0, "lon": -77.04539516666667, "is_reserved": 0, "fusion_lat": 0.0, "type": "electric_scooter"}, {"fusion_lon": 0.0, "name": "b8d76b98695e4378815daff9fdfae055", "rental_uris": {"android": "https://dc.lft.to/lastmile_qr_scan", "ios": "https://dc.lft.to/lastmile_qr_scan"}, "lat": 38.91554983333333, "bike_id": "b8d76b98695e4378815daff9fdfae055", "is_disabled": 0, "lon": -77.00698866666667, "is_reserved": 0, "fusion_lat": 0.0, "type": "electric_scooter"}, {"fusion_lon": 0.0, "name": "c61568f3975b6b811868ecebe71585df", "rental_uris": {"android": "https://dc.lft.to/lastmile_qr_scan", "ios": "https://dc.lft.to/lastmile_qr_scan"}, "lat": 38.90594766666667, "bike_id": "c61568f3975b6b811868ecebe71585df", "is_disabled": 0, "lon": -77.01314983333333, "is_reserved": 0, "fusion_lat": 0.0, "type": "electric_scooter"}, {"fusion_lon": 0.0, "name": "d9ebcc4c9166b74ad34c2d16a934adff", "rental_uris": {"android": "https://dc.lft.to/lastmile_qr_scan", "ios": "https://dc.lft.to/lastmile_qr_scan"}, "lat": 38.90192833333333, "bike_id": "d9ebcc4c9166b74ad34c2d16a934adff", "is_disabled": 0, "lon": -77.06119883333334, "is_reserved": 0, "fusion_lat": 0.0, "type": "electric_scooter"}, {"fusion_lon": 0.0, "name": "42326e21ab4e4f2955af835709ac77d7", "rental_uris": {"android": "https://dc.lft.to/lastmile_qr_scan", "ios": "https://dc.lft.to/lastmile_qr_scan"}, "lat": 38.931241, "bike_id": "42326e21ab4e4f2955af835709ac77d7", "is_disabled": 0, "lon": -77.03875766666667, "is_reserved": 0, "fusion_lat": 0.0, "type": "electric_scooter"}, {"fusion_lon": 0.0, "name": "6369e2838d39dc34d607f7e4854fdd59", "rental_uris": {"android": "https://dc.lft.to/lastmile_qr_scan", "ios": "https://dc.lft.to/lastmile_qr_scan"}, "lat": 38.900607, "bike_id": "6369e2838d39dc34d607f7e4854fdd59", "is_disabled": 0, "lon": -77.04848816666667, "is_reserved": 0, "fusion_lat": 0.0, "type": "electric_scooter"}, {"fusion_lon": 0.0, "name": "cf562e58d385f9e835fa447ced4bb5d0", "rental_uris": {"android": "https://dc.lft.to/lastmile_qr_scan", "ios": "https://dc.lft.to/lastmile_qr_scan"}, "lat": 38.964157166666666, "bike_id": "cf562e58d385f9e835fa447ced4bb5d0", "is_disabled": 0, "lon": -77.0325625, "is_reserved": 0, "fusion_lat": 0.0, "type": "electric_scooter"}, {"fusion_lon": 0.0, "name": "21eac402f3972688dcabe5156dac322c", "rental_uris": {"android": "https://dc.lft.to/lastmile_qr_scan", "ios": "https://dc.lft.to/lastmile_qr_scan"}, "lat": 38.911960666666666, "bike_id": "21eac402f3972688dcabe5156dac322c", "is_disabled": 0, "lon": -77.03135, "is_reserved": 0, "fusion_lat": 0.0, "type": "electric_scooter"}, {"fusion_lon": 0.0, "name": "935c02d108e0bd581633a049199cde86", "rental_uris": {"android": "https://dc.lft.to/lastmile_qr_scan", "ios": "https://dc.lft.to/lastmile_qr_scan"}, "lat": 38.916865333333334, "bike_id": "935c02d108e0bd581633a049199cde86", "is_disabled": 0, "lon": -77.0377335, "is_reserved": 0, "fusion_lat": 0.0, "type": "electric_scooter"}, {"fusion_lon": 0.0, "name": "d41c5d2498c12657cfa042a637f2eace", "rental_uris": {"android": "https://dc.lft.to/lastmile_qr_scan", "ios": "https://dc.lft.to/lastmile_qr_scan"}, "lat": 38.924415333333336, "bike_id": "d41c5d2498c12657cfa042a637f2eace", "is_disabled": 0, "lon": -77.04025283333333, "is_reserved": 0, "fusion_lat": 0.0, "type": "electric_scooter"}, {"fusion_lon": 0.0, "name": "a99f86760e82dc6e8e905c453a275712", "rental_uris": {"android": "https://dc.lft.to/lastmile_qr_scan", "ios": "https://dc.lft.to/lastmile_qr_scan"}, "lat": 38.92636316666667, "bike_id": "a99f86760e82dc6e8e905c453a275712", "is_disabled": 0, "lon": -77.025057, "is_reserved": 0, "fusion_lat": 0.0, "type": "electric_scooter"}, {"fusion_lon": 0.0, "name": "b4954c0af0714c02a451ac38da2787f0", "rental_uris": {"android": "https://dc.lft.to/lastmile_qr_scan", "ios": "https://dc.lft.to/lastmile_qr_scan"}, "lat": 38.901221, "bike_id": "b4954c0af0714c02a451ac38da2787f0", "is_disabled": 0, "lon": -77.01225616666666, "is_reserved": 0, "fusion_lat": 0.0, "type": "electric_scooter"}, {"fusion_lon": 0.0, "name": "6765654eb44287b3f2f72183f1a35e5b", "rental_uris": {"android": "https://dc.lft.to/lastmile_qr_scan", "ios": "https://dc.lft.to/lastmile_qr_scan"}, "lat": 38.91817066666667, "bike_id": "6765654eb44287b3f2f72183f1a35e5b", "is_disabled": 0, "lon": -77.03181116666667, "is_reserved": 0, "fusion_lat": 0.0, "type": "electric_scooter"}, {"fusion_lon": 0.0, "name": "b8bede2d7ac1560b37cd6124786cc3a2", "rental_uris": {"android": "https://dc.lft.to/lastmile_qr_scan", "ios": "https://dc.lft.to/lastmile_qr_scan"}, "lat": 38.877080166666666, "bike_id": "b8bede2d7ac1560b37cd6124786cc3a2", "is_disabled": 0, "lon": -77.01651116666666, "is_reserved": 0, "fusion_lat": 0.0, "type": "electric_scooter"}, {"fusion_lon": 0.0, "name": "8434b97e7f75ab5d3efa217de3cd0bbb", "rental_uris": {"android": "https://dc.lft.to/lastmile_qr_scan", "ios": "https://dc.lft.to/lastmile_qr_scan"}, "lat": 38.89716466666667, "bike_id": "8434b97e7f75ab5d3efa217de3cd0bbb", "is_disabled": 0, "lon": -77.03119383333333, "is_reserved": 0, "fusion_lat": 0.0, "type": "electric_scooter"}, {"fusion_lon": 0.0, "name": "c53122d1bef6018e5994b1f3f7988875", "rental_uris": {"android": "https://dc.lft.to/lastmile_qr_scan", "ios": "https://dc.lft.to/lastmile_qr_scan"}, "lat": 38.91688416666667, "bike_id": "c53122d1bef6018e5994b1f3f7988875", "is_disabled": 0, "lon": -77.03749283333333, "is_reserved": 0, "fusion_lat": 0.0, "type": "electric_scooter"}, {"fusion_lon": 0.0, "name": "273396b130d69753c18329d04d3c5bfb", "rental_uris": {"android": "https://dc.lft.to/lastmile_qr_scan", "ios": "https://dc.lft.to/lastmile_qr_scan"}, "lat": 38.9013355, "bike_id": "273396b130d69753c18329d04d3c5bfb", "is_disabled": 0, "lon": -76.98967166666667, "is_reserved": 0, "fusion_lat": 0.0, "type": "electric_scooter"}, {"fusion_lon": 0.0, "name": "210b3984759cec894171a4a66ab8f1c3", "rental_uris": {"android": "https://dc.lft.to/lastmile_qr_scan", "ios": "https://dc.lft.to/lastmile_qr_scan"}, "lat": 38.9296455, "bike_id": "210b3984759cec894171a4a66ab8f1c3", "is_disabled": 0, "lon": -77.04190966666667, "is_reserved": 0, "fusion_lat": 0.0, "type": "electric_scooter"}, {"fusion_lon": 0.0, "name": "c5e3978bb1c5e9ddb7444920b4061abb", "rental_uris": {"android": "https://dc.lft.to/lastmile_qr_scan", "ios": "https://dc.lft.to/lastmile_qr_scan"}, "lat": 38.930310666666664, "bike_id": "c5e3978bb1c5e9ddb7444920b4061abb", "is_disabled": 0, "lon": -77.02963433333333, "is_reserved": 0, "fusion_lat": 0.0, "type": "electric_scooter"}, {"fusion_lon": 0.0, "name": "a1b7ad284fb7cb48bd8a6bb2bd9e1b6e", "rental_uris": {"android": "https://dc.lft.to/lastmile_qr_scan", "ios": "https://dc.lft.to/lastmile_qr_scan"}, "lat": 38.944123, "bike_id": "a1b7ad284fb7cb48bd8a6bb2bd9e1b6e", "is_disabled": 0, "lon": -77.06380516666667, "is_reserved": 0, "fusion_lat": 0.0, "type": "electric_scooter"}, {"fusion_lon": 0.0, "name": "e06f8bf2c1b93ad5528f548727722b69", "rental_uris": {"android": "https://dc.lft.to/lastmile_qr_scan", "ios": "https://dc.lft.to/lastmile_qr_scan"}, "lat": 38.893829, "bike_id": "e06f8bf2c1b93ad5528f548727722b69", "is_disabled": 0, "lon": -77.00339166666667, "is_reserved": 0, "fusion_lat": 0.0, "type": "electric_scooter"}, {"fusion_lon": 0.0, "name": "592e4164671528cb39c8c1bd9d6e6a47", "rental_uris": {"android": "https://dc.lft.to/lastmile_qr_scan", "ios": "https://dc.lft.to/lastmile_qr_scan"}, "lat": 38.92088916666667, "bike_id": "592e4164671528cb39c8c1bd9d6e6a47", "is_disabled": 0, "lon": -77.02419183333333, "is_reserved": 0, "fusion_lat": 0.0, "type": "electric_scooter"}, {"fusion_lon": 0.0, "name": "fe4a7a3f9a513181e175ac5a692fc881", "rental_uris": {"android": "https://dc.lft.to/lastmile_qr_scan", "ios": "https://dc.lft.to/lastmile_qr_scan"}, "lat": 38.908797, "bike_id": "fe4a7a3f9a513181e175ac5a692fc881", "is_disabled": 0, "lon": -77.04322483333333, "is_reserved": 0, "fusion_lat": 0.0, "type": "electric_scooter"}, {"fusion_lon": 0.0, "name": "e191a9ff4656dc993ab5117c0ec48eea", "rental_uris": {"android": "https://dc.lft.to/lastmile_qr_scan", "ios": "https://dc.lft.to/lastmile_qr_scan"}, "lat": 38.90020833333333, "bike_id": "e191a9ff4656dc993ab5117c0ec48eea", "is_disabled": 0, "lon": -77.040884, "is_reserved": 0, "fusion_lat": 0.0, "type": "electric_scooter"}, {"fusion_lon": 0.0, "name": "82ae4d847bbc4db5207628b771a2bdde", "rental_uris": {"android": "https://dc.lft.to/lastmile_qr_scan", "ios": "https://dc.lft.to/lastmile_qr_scan"}, "lat": 38.922347333333335, "bike_id": "82ae4d847bbc4db5207628b771a2bdde", "is_disabled": 0, "lon": -77.02848433333334, "is_reserved": 0, "fusion_lat": 0.0, "type": "electric_scooter"}, {"fusion_lon": 0.0, "name": "775f2c8c2631fabe66209f81198a12da", "rental_uris": {"android": "https://dc.lft.to/lastmile_qr_scan", "ios": "https://dc.lft.to/lastmile_qr_scan"}, "lat": 38.89229533333334, "bike_id": "775f2c8c2631fabe66209f81198a12da", "is_disabled": 0, "lon": -77.05003433333333, "is_reserved": 0, "fusion_lat": 0.0, "type": "electric_scooter"}, {"fusion_lon": 0.0, "name": "cd62504b84940a9aa8595e497aacd2f4", "rental_uris": {"android": "https://dc.lft.to/lastmile_qr_scan", "ios": "https://dc.lft.to/lastmile_qr_scan"}, "lat": 38.891272666666666, "bike_id": "cd62504b84940a9aa8595e497aacd2f4", "is_disabled": 0, "lon": -76.940556, "is_reserved": 0, "fusion_lat": 0.0, "type": "electric_bike"}, {"fusion_lon": 0.0, "name": "a0ef811192f96e9bf549d3a69d9f49ca", "rental_uris": {"android": "https://dc.lft.to/lastmile_qr_scan", "ios": "https://dc.lft.to/lastmile_qr_scan"}, "lat": 38.896104333333334, "bike_id": "a0ef811192f96e9bf549d3a69d9f49ca", "is_disabled": 0, "lon": -76.99886916666667, "is_reserved": 0, "fusion_lat": 0.0, "type": "electric_scooter"}, {"fusion_lon": 0.0, "name": "aaec18706137ae669878d70f0dec163b", "rental_uris": {"android": "https://dc.lft.to/lastmile_qr_scan", "ios": "https://dc.lft.to/lastmile_qr_scan"}, "lat": 38.905516166666665, "bike_id": "aaec18706137ae669878d70f0dec163b", "is_disabled": 0, "lon": -77.02199066666667, "is_reserved": 0, "fusion_lat": 0.0, "type": "electric_scooter"}, {"fusion_lon": 0.0, "name": "553958d58c540577d356e341c3bd90ff", "rental_uris": {"android": "https://dc.lft.to/lastmile_qr_scan", "ios": "https://dc.lft.to/lastmile_qr_scan"}, "lat": 38.91563083333333, "bike_id": "553958d58c540577d356e341c3bd90ff", "is_disabled": 0, "lon": -77.01577833333333, "is_reserved": 0, "fusion_lat": 0.0, "type": "electric_scooter"}, {"fusion_lon": 0.0, "name": "6d97f50341f047de1e25639893f9829a", "rental_uris": {"android": "https://dc.lft.to/lastmile_qr_scan", "ios": "https://dc.lft.to/lastmile_qr_scan"}, "lat": 38.91613566666667, "bike_id": "6d97f50341f047de1e25639893f9829a", "is_disabled": 0, "lon": -77.04862083333333, "is_reserved": 0, "fusion_lat": 0.0, "type": "electric_scooter"}, {"fusion_lon": 0.0, "name": "c18867d3e977a42daa97739f99262b53", "rental_uris": {"android": "https://dc.lft.to/lastmile_qr_scan", "ios": "https://dc.lft.to/lastmile_qr_scan"}, "lat": 38.924700333333334, "bike_id": "c18867d3e977a42daa97739f99262b53", "is_disabled": 0, "lon": -77.03822733333334, "is_reserved": 0, "fusion_lat": 0.0, "type": "electric_scooter"}, {"fusion_lon": 0.0, "name": "90720c198d475f4c072658a89ccd5568", "rental_uris": {"android": "https://dc.lft.to/lastmile_qr_scan", "ios": "https://dc.lft.to/lastmile_qr_scan"}, "lat": 38.881054166666665, "bike_id": "90720c198d475f4c072658a89ccd5568", "is_disabled": 0, "lon": -77.02610083333333, "is_reserved": 0, "fusion_lat": 0.0, "type": "electric_scooter"}, {"fusion_lon": 0.0, "name": "74b6d0213a6bfe286197703e971fdfac", "rental_uris": {"android": "https://dc.lft.to/lastmile_qr_scan", "ios": "https://dc.lft.to/lastmile_qr_scan"}, "lat": 38.923259, "bike_id": "74b6d0213a6bfe286197703e971fdfac", "is_disabled": 0, "lon": -77.05675366666667, "is_reserved": 0, "fusion_lat": 0.0, "type": "electric_scooter"}, {"fusion_lon": 0.0, "name": "6d76150c9ba68bbd5156b126fe624cbe", "rental_uris": {"android": "https://dc.lft.to/lastmile_qr_scan", "ios": "https://dc.lft.to/lastmile_qr_scan"}, "lat": 38.913534166666665, "bike_id": "6d76150c9ba68bbd5156b126fe624cbe", "is_disabled": 0, "lon": -77.03346433333333, "is_reserved": 0, "fusion_lat": 0.0, "type": "electric_scooter"}, {"fusion_lon": 0.0, "name": "0b4ec7df298b8f57ce30f2d8811f3104", "rental_uris": {"android": "https://dc.lft.to/lastmile_qr_scan", "ios": "https://dc.lft.to/lastmile_qr_scan"}, "lat": 38.929143833333335, "bike_id": "0b4ec7df298b8f57ce30f2d8811f3104", "is_disabled": 0, "lon": -77.0327255, "is_reserved": 0, "fusion_lat": 0.0, "type": "electric_scooter"}, {"fusion_lon": 0.0, "name": "012b14b58a1dfa451216afee341841ab", "rental_uris": {"android": "https://dc.lft.to/lastmile_qr_scan", "ios": "https://dc.lft.to/lastmile_qr_scan"}, "lat": 38.93858766666666, "bike_id": "012b14b58a1dfa451216afee341841ab", "is_disabled": 0, "lon": -76.99430883333333, "is_reserved": 0, "fusion_lat": 0.0, "type": "electric_scooter"}, {"fusion_lon": 0.0, "name": "530c5e762ca5680b477a5246b93bfa59", "rental_uris": {"android": "https://dc.lft.to/lastmile_qr_scan", "ios": "https://dc.lft.to/lastmile_qr_scan"}, "lat": 38.891956, "bike_id": "530c5e762ca5680b477a5246b93bfa59", "is_disabled": 0, "lon": -76.95811016666667, "is_reserved": 0, "fusion_lat": 0.0, "type": "electric_scooter"}, {"fusion_lon": 0.0, "name": "d30dd9500cc86ff793e02fea8a82b0a4", "rental_uris": {"android": "https://dc.lft.to/lastmile_qr_scan", "ios": "https://dc.lft.to/lastmile_qr_scan"}, "lat": 38.909496833333336, "bike_id": "d30dd9500cc86ff793e02fea8a82b0a4", "is_disabled": 0, "lon": -77.03181866666667, "is_reserved": 0, "fusion_lat": 0.0, "type": "electric_scooter"}, {"fusion_lon": 0.0, "name": "889410aabaf7fe822ae7a066f9651bb6", "rental_uris": {"android": "https://dc.lft.to/lastmile_qr_scan", "ios": "https://dc.lft.to/lastmile_qr_scan"}, "lat": 38.923593, "bike_id": "889410aabaf7fe822ae7a066f9651bb6", "is_disabled": 0, "lon": -77.02809533333334, "is_reserved": 0, "fusion_lat": 0.0, "type": "electric_scooter"}, {"fusion_lon": 0.0, "name": "c4b556de592b651e0fded3028d1fdd55", "rental_uris": {"android": "https://dc.lft.to/lastmile_qr_scan", "ios": "https://dc.lft.to/lastmile_qr_scan"}, "lat": 38.9236235, "bike_id": "c4b556de592b651e0fded3028d1fdd55", "is_disabled": 0, "lon": -77.02049666666667, "is_reserved": 0, "fusion_lat": 0.0, "type": "electric_scooter"}, {"fusion_lon": 0.0, "name": "c0bd2f11c8e88030120756bb2b2f454d", "rental_uris": {"android": "https://dc.lft.to/lastmile_qr_scan", "ios": "https://dc.lft.to/lastmile_qr_scan"}, "lat": 38.90027383333333, "bike_id": "c0bd2f11c8e88030120756bb2b2f454d", "is_disabled": 0, "lon": -77.04350283333333, "is_reserved": 0, "fusion_lat": 0.0, "type": "electric_scooter"}, {"fusion_lon": 0.0, "name": "7947de50a328a9f7f6820bdbacb19bae", "rental_uris": {"android": "https://dc.lft.to/lastmile_qr_scan", "ios": "https://dc.lft.to/lastmile_qr_scan"}, "lat": 38.929341666666666, "bike_id": "7947de50a328a9f7f6820bdbacb19bae", "is_disabled": 0, "lon": -77.03764433333333, "is_reserved": 0, "fusion_lat": 0.0, "type": "electric_scooter"}, {"fusion_lon": 0.0, "name": "3b954a88762fee885dfe45df2e74e093", "rental_uris": {"android": "https://dc.lft.to/lastmile_qr_scan", "ios": "https://dc.lft.to/lastmile_qr_scan"}, "lat": 38.893811, "bike_id": "3b954a88762fee885dfe45df2e74e093", "is_disabled": 0, "lon": -77.02975866666667, "is_reserved": 0, "fusion_lat": 0.0, "type": "electric_scooter"}, {"fusion_lon": 0.0, "name": "63911685c45f226acc1fc5188665f516", "rental_uris": {"android": "https://dc.lft.to/lastmile_qr_scan", "ios": "https://dc.lft.to/lastmile_qr_scan"}, "lat": 38.908349, "bike_id": "63911685c45f226acc1fc5188665f516", "is_disabled": 0, "lon": -77.073035, "is_reserved": 0, "fusion_lat": 0.0, "type": "electric_scooter"}, {"fusion_lon": 0.0, "name": "0d6baeee739170dae677bf3ad6bb2e25", "rental_uris": {"android": "https://dc.lft.to/lastmile_qr_scan", "ios": "https://dc.lft.to/lastmile_qr_scan"}, "lat": 38.919756166666666, "bike_id": "0d6baeee739170dae677bf3ad6bb2e25", "is_disabled": 0, "lon": -77.03274233333333, "is_reserved": 0, "fusion_lat": 0.0, "type": "electric_scooter"}, {"fusion_lon": 0.0, "name": "7410c607448390061ab926e6708966de", "rental_uris": {"android": "https://dc.lft.to/lastmile_qr_scan", "ios": "https://dc.lft.to/lastmile_qr_scan"}, "lat": 38.900092666666666, "bike_id": "7410c607448390061ab926e6708966de", "is_disabled": 0, "lon": -76.97832416666667, "is_reserved": 0, "fusion_lat": 0.0, "type": "electric_scooter"}, {"fusion_lon": 0.0, "name": "2cd824cf5fc1ae205b30cc0eacebd321", "rental_uris": {"android": "https://dc.lft.to/lastmile_qr_scan", "ios": "https://dc.lft.to/lastmile_qr_scan"}, "lat": 38.88955983333334, "bike_id": "2cd824cf5fc1ae205b30cc0eacebd321", "is_disabled": 0, "lon": -76.98817116666666, "is_reserved": 0, "fusion_lat": 0.0, "type": "electric_scooter"}, {"fusion_lon": 0.0, "name": "9e16a795b2e084524aa1963fb3889d54", "rental_uris": {"android": "https://dc.lft.to/lastmile_qr_scan", "ios": "https://dc.lft.to/lastmile_qr_scan"}, "lat": 38.91756, "bike_id": "9e16a795b2e084524aa1963fb3889d54", "is_disabled": 0, "lon": -77.02399783333334, "is_reserved": 0, "fusion_lat": 0.0, "type": "electric_scooter"}, {"fusion_lon": 0.0, "name": "801dee07b3b88f42dfc408b408fd519b", "rental_uris": {"android": "https://dc.lft.to/lastmile_qr_scan", "ios": "https://dc.lft.to/lastmile_qr_scan"}, "lat": 38.911222333333335, "bike_id": "801dee07b3b88f42dfc408b408fd519b", "is_disabled": 0, "lon": -77.04514216666666, "is_reserved": 0, "fusion_lat": 0.0, "type": "electric_scooter"}, {"fusion_lon": 0.0, "name": "812818bd77fb949d3b8f04d87556c53b", "rental_uris": {"android": "https://dc.lft.to/lastmile_qr_scan", "ios": "https://dc.lft.to/lastmile_qr_scan"}, "lat": 38.89220233333333, "bike_id": "812818bd77fb949d3b8f04d87556c53b", "is_disabled": 0, "lon": -77.04869266666667, "is_reserved": 0, "fusion_lat": 0.0, "type": "electric_scooter"}, {"fusion_lon": 0.0, "name": "2b5cef05d4b3627a0eed21524ad9b3a2", "rental_uris": {"android": "https://dc.lft.to/lastmile_qr_scan", "ios": "https://dc.lft.to/lastmile_qr_scan"}, "lat": 38.9250495, "bike_id": "2b5cef05d4b3627a0eed21524ad9b3a2", "is_disabled": 0, "lon": -77.07324783333334, "is_reserved": 0, "fusion_lat": 0.0, "type": "electric_scooter"}, {"fusion_lon": 0.0, "name": "6c0a0f2bbc8915c490b2356024f06337", "rental_uris": {"android": "https://dc.lft.to/lastmile_qr_scan", "ios": "https://dc.lft.to/lastmile_qr_scan"}, "lat": 38.91302483333333, "bike_id": "6c0a0f2bbc8915c490b2356024f06337", "is_disabled": 0, "lon": -77.04040833333333, "is_reserved": 0, "fusion_lat": 0.0, "type": "electric_scooter"}, {"fusion_lon": 0.0, "name": "a02ddcc30159fb92de98583974f9d4a6", "rental_uris": {"android": "https://dc.lft.to/lastmile_qr_scan", "ios": "https://dc.lft.to/lastmile_qr_scan"}, "lat": 38.852156666666666, "bike_id": "a02ddcc30159fb92de98583974f9d4a6", "is_disabled": 0, "lon": -76.99375066666667, "is_reserved": 0, "fusion_lat": 0.0, "type": "electric_scooter"}, {"fusion_lon": 0.0, "name": "8f92177df21a50f8366030ff8937cc35", "rental_uris": {"android": "https://dc.lft.to/lastmile_qr_scan", "ios": "https://dc.lft.to/lastmile_qr_scan"}, "lat": 38.88786266666666, "bike_id": "8f92177df21a50f8366030ff8937cc35", "is_disabled": 0, "lon": -77.01600533333334, "is_reserved": 0, "fusion_lat": 0.0, "type": "electric_scooter"}, {"fusion_lon": 0.0, "name": "3389fcc4efd28e77d677266af1f991ef", "rental_uris": {"android": "https://dc.lft.to/lastmile_qr_scan", "ios": "https://dc.lft.to/lastmile_qr_scan"}, "lat": 38.9053375, "bike_id": "3389fcc4efd28e77d677266af1f991ef", "is_disabled": 0, "lon": -77.05473533333333, "is_reserved": 0, "fusion_lat": 0.0, "type": "electric_scooter"}, {"fusion_lon": 0.0, "name": "dbb087405318f477f92ea818a983ce15", "rental_uris": {"android": "https://dc.lft.to/lastmile_qr_scan", "ios": "https://dc.lft.to/lastmile_qr_scan"}, "lat": 38.90809016666667, "bike_id": "dbb087405318f477f92ea818a983ce15", "is_disabled": 0, "lon": -77.03210016666667, "is_reserved": 0, "fusion_lat": 0.0, "type": "electric_scooter"}, {"fusion_lon": 0.0, "name": "13f8d572e7c9cdf55841248148983069", "rental_uris": {"android": "https://dc.lft.to/lastmile_qr_scan", "ios": "https://dc.lft.to/lastmile_qr_scan"}, "lat": 38.9243435, "bike_id": "13f8d572e7c9cdf55841248148983069", "is_disabled": 0, "lon": -77.0195335, "is_reserved": 0, "fusion_lat": 0.0, "type": "electric_scooter"}, {"fusion_lon": 0.0, "name": "4b97445f0e6f3119de1070207ba8d16b", "rental_uris": {"android": "https://dc.lft.to/lastmile_qr_scan", "ios": "https://dc.lft.to/lastmile_qr_scan"}, "lat": 38.91977466666667, "bike_id": "4b97445f0e6f3119de1070207ba8d16b", "is_disabled": 0, "lon": -77.02444266666667, "is_reserved": 0, "fusion_lat": 0.0, "type": "electric_scooter"}, {"fusion_lon": 0.0, "name": "60f90d71449d027d21c0daad5e049bbe", "rental_uris": {"android": "https://dc.lft.to/lastmile_qr_scan", "ios": "https://dc.lft.to/lastmile_qr_scan"}, "lat": 38.842179333333334, "bike_id": "60f90d71449d027d21c0daad5e049bbe", "is_disabled": 0, "lon": -76.94896116666666, "is_reserved": 0, "fusion_lat": 0.0, "type": "electric_bike"}, {"fusion_lon": 0.0, "name": "93e013f3bf7023b88b7f4f0b92c67ead", "rental_uris": {"android": "https://dc.lft.to/lastmile_qr_scan", "ios": "https://dc.lft.to/lastmile_qr_scan"}, "lat": 38.912961333333335, "bike_id": "93e013f3bf7023b88b7f4f0b92c67ead", "is_disabled": 0, "lon": -77.03202833333333, "is_reserved": 0, "fusion_lat": 0.0, "type": "electric_scooter"}, {"fusion_lon": 0.0, "name": "7775e6f3a54b1e9ed855c5711b83d3b9", "rental_uris": {"android": "https://dc.lft.to/lastmile_qr_scan", "ios": "https://dc.lft.to/lastmile_qr_scan"}, "lat": 38.9096215, "bike_id": "7775e6f3a54b1e9ed855c5711b83d3b9", "is_disabled": 0, "lon": -77.03275366666666, "is_reserved": 0, "fusion_lat": 0.0, "type": "electric_scooter"}, {"fusion_lon": 0.0, "name": "48ed0fbfe0622acfc231d079c8cd8f18", "rental_uris": {"android": "https://dc.lft.to/lastmile_qr_scan", "ios": "https://dc.lft.to/lastmile_qr_scan"}, "lat": 38.9217115, "bike_id": "48ed0fbfe0622acfc231d079c8cd8f18", "is_disabled": 0, "lon": -77.04242966666666, "is_reserved": 0, "fusion_lat": 0.0, "type": "electric_scooter"}, {"fusion_lon": 0.0, "name": "e27ed9d77ccb597e02fb18b812ed0558", "rental_uris": {"android": "https://dc.lft.to/lastmile_qr_scan", "ios": "https://dc.lft.to/lastmile_qr_scan"}, "lat": 38.9246435, "bike_id": "e27ed9d77ccb597e02fb18b812ed0558", "is_disabled": 0, "lon": -77.02208283333333, "is_reserved": 0, "fusion_lat": 0.0, "type": "electric_scooter"}, {"fusion_lon": 0.0, "name": "b0d7c749e8e183d116bf8721320d09b4", "rental_uris": {"android": "https://dc.lft.to/lastmile_qr_scan", "ios": "https://dc.lft.to/lastmile_qr_scan"}, "lat": 38.969163, "bike_id": "b0d7c749e8e183d116bf8721320d09b4", "is_disabled": 0, "lon": -76.99492316666667, "is_reserved": 0, "fusion_lat": 0.0, "type": "electric_bike"}, {"fusion_lon": 0.0, "name": "b02fc588016155a0700496a103217f7f", "rental_uris": {"android": "https://dc.lft.to/lastmile_qr_scan", "ios": "https://dc.lft.to/lastmile_qr_scan"}, "lat": 38.87185916666667, "bike_id": "b02fc588016155a0700496a103217f7f", "is_disabled": 0, "lon": -77.00640733333333, "is_reserved": 0, "fusion_lat": 0.0, "type": "electric_scooter"}, {"fusion_lon": 0.0, "name": "4c013811c1ea8a18cfa99bfdcb34ee21", "rental_uris": {"android": "https://dc.lft.to/lastmile_qr_scan", "ios": "https://dc.lft.to/lastmile_qr_scan"}, "lat": 38.91012416666667, "bike_id": "4c013811c1ea8a18cfa99bfdcb34ee21", "is_disabled": 0, "lon": -77.04450266666667, "is_reserved": 0, "fusion_lat": 0.0, "type": "electric_scooter"}, {"fusion_lon": 0.0, "name": "c1bed86c0ba6d638a5b75691887eb2a1", "rental_uris": {"android": "https://dc.lft.to/lastmile_qr_scan", "ios": "https://dc.lft.to/lastmile_qr_scan"}, "lat": 38.9215395, "bike_id": "c1bed86c0ba6d638a5b75691887eb2a1", "is_disabled": 0, "lon": -77.04227066666667, "is_reserved": 0, "fusion_lat": 0.0, "type": "electric_scooter"}, {"fusion_lon": 0.0, "name": "718b0e42313376bfdb4548c573b659ee", "rental_uris": {"android": "https://dc.lft.to/lastmile_qr_scan", "ios": "https://dc.lft.to/lastmile_qr_scan"}, "lat": 38.92616966666667, "bike_id": "718b0e42313376bfdb4548c573b659ee", "is_disabled": 0, "lon": -77.02226283333333, "is_reserved": 0, "fusion_lat": 0.0, "type": "electric_scooter"}, {"fusion_lon": 0.0, "name": "6e8a9393df21d43ad4ccdb2d6b670eec", "rental_uris": {"android": "https://dc.lft.to/lastmile_qr_scan", "ios": "https://dc.lft.to/lastmile_qr_scan"}, "lat": 38.888063, "bike_id": "6e8a9393df21d43ad4ccdb2d6b670eec", "is_disabled": 0, "lon": -76.9397025, "is_reserved": 0, "fusion_lat": 0.0, "type": "electric_scooter"}, {"fusion_lon": 0.0, "name": "7809bdd0a28d04c9ac3ec3a55e57ceb6", "rental_uris": {"android": "https://dc.lft.to/lastmile_qr_scan", "ios": "https://dc.lft.to/lastmile_qr_scan"}, "lat": 38.90591, "bike_id": "7809bdd0a28d04c9ac3ec3a55e57ceb6", "is_disabled": 0, "lon": -77.04338516666667, "is_reserved": 0, "fusion_lat": 0.0, "type": "electric_scooter"}, {"fusion_lon": 0.0, "name": "027e085d72559f70ea61f35f2888dee6", "rental_uris": {"android": "https://dc.lft.to/lastmile_qr_scan", "ios": "https://dc.lft.to/lastmile_qr_scan"}, "lat": 38.89996, "bike_id": "027e085d72559f70ea61f35f2888dee6", "is_disabled": 0, "lon": -77.04369983333333, "is_reserved": 0, "fusion_lat": 0.0, "type": "electric_scooter"}, {"fusion_lon": 0.0, "name": "bc9b1e9b8097d5d57f79c152f052ffa9", "rental_uris": {"android": "https://dc.lft.to/lastmile_qr_scan", "ios": "https://dc.lft.to/lastmile_qr_scan"}, "lat": 38.913621666666664, "bike_id": "bc9b1e9b8097d5d57f79c152f052ffa9", "is_disabled": 0, "lon": -77.02002566666667, "is_reserved": 0, "fusion_lat": 0.0, "type": "electric_scooter"}, {"fusion_lon": 0.0, "name": "fd5d2b063bbc2681bcfcd3096f4b7d9f", "rental_uris": {"android": "https://dc.lft.to/lastmile_qr_scan", "ios": "https://dc.lft.to/lastmile_qr_scan"}, "lat": 38.89369716666667, "bike_id": "fd5d2b063bbc2681bcfcd3096f4b7d9f", "is_disabled": 0, "lon": -77.00346583333334, "is_reserved": 0, "fusion_lat": 0.0, "type": "electric_scooter"}, {"fusion_lon": 0.0, "name": "d51949dafce0405a96e23490f839bdfc", "rental_uris": {"android": "https://dc.lft.to/lastmile_qr_scan", "ios": "https://dc.lft.to/lastmile_qr_scan"}, "lat": 38.91319216666667, "bike_id": "d51949dafce0405a96e23490f839bdfc", "is_disabled": 0, "lon": -77.01622, "is_reserved": 0, "fusion_lat": 0.0, "type": "electric_scooter"}, {"fusion_lon": 0.0, "name": "abf21c68d9be6cb4722a9d8ba26ec0d0", "rental_uris": {"android": "https://dc.lft.to/lastmile_qr_scan", "ios": "https://dc.lft.to/lastmile_qr_scan"}, "lat": 38.91287583333333, "bike_id": "abf21c68d9be6cb4722a9d8ba26ec0d0", "is_disabled": 0, "lon": -76.98540366666667, "is_reserved": 0, "fusion_lat": 0.0, "type": "electric_scooter"}, {"fusion_lon": 0.0, "name": "daf84563aa69ec56a2b0341e66ff1a39", "rental_uris": {"android": "https://dc.lft.to/lastmile_qr_scan", "ios": "https://dc.lft.to/lastmile_qr_scan"}, "lat": 38.9247205, "bike_id": "daf84563aa69ec56a2b0341e66ff1a39", "is_disabled": 0, "lon": -77.02216883333334, "is_reserved": 0, "fusion_lat": 0.0, "type": "electric_scooter"}, {"fusion_lon": 0.0, "name": "59c7e85b867cede108ad5ccffe9c66da", "rental_uris": {"android": "https://dc.lft.to/lastmile_qr_scan", "ios": "https://dc.lft.to/lastmile_qr_scan"}, "lat": 38.9546315, "bike_id": "59c7e85b867cede108ad5ccffe9c66da", "is_disabled": 0, "lon": -77.07007183333333, "is_reserved": 0, "fusion_lat": 0.0, "type": "electric_scooter"}, {"fusion_lon": 0.0, "name": "672562736c1ff227a4e9f5cdc9c6dbcc", "rental_uris": {"android": "https://dc.lft.to/lastmile_qr_scan", "ios": "https://dc.lft.to/lastmile_qr_scan"}, "lat": 38.89222183333333, "bike_id": "672562736c1ff227a4e9f5cdc9c6dbcc", "is_disabled": 0, "lon": -77.0399165, "is_reserved": 0, "fusion_lat": 0.0, "type": "electric_scooter"}, {"fusion_lon": 0.0, "name": "e14ae771f7026f213cd4839ebb228052", "rental_uris": {"android": "https://dc.lft.to/lastmile_qr_scan", "ios": "https://dc.lft.to/lastmile_qr_scan"}, "lat": 38.925524833333334, "bike_id": "e14ae771f7026f213cd4839ebb228052", "is_disabled": 0, "lon": -77.02145833333333, "is_reserved": 0, "fusion_lat": 0.0, "type": "electric_scooter"}, {"fusion_lon": 0.0, "name": "ed067986c9922aa0406a5ea23eff7d8a", "rental_uris": {"android": "https://dc.lft.to/lastmile_qr_scan", "ios": "https://dc.lft.to/lastmile_qr_scan"}, "lat": 38.955734166666666, "bike_id": "ed067986c9922aa0406a5ea23eff7d8a", "is_disabled": 0, "lon": -77.07010083333333, "is_reserved": 0, "fusion_lat": 0.0, "type": "electric_scooter"}, {"fusion_lon": 0.0, "name": "09751e314f4119d7f415f80a2c5d949f", "rental_uris": {"android": "https://dc.lft.to/lastmile_qr_scan", "ios": "https://dc.lft.to/lastmile_qr_scan"}, "lat": 38.93470133333334, "bike_id": "09751e314f4119d7f415f80a2c5d949f", "is_disabled": 0, "lon": -77.08667233333334, "is_reserved": 0, "fusion_lat": 0.0, "type": "electric_scooter"}, {"fusion_lon": 0.0, "name": "584844ad55b44b01a6520dfd04196264", "rental_uris": {"android": "https://dc.lft.to/lastmile_qr_scan", "ios": "https://dc.lft.to/lastmile_qr_scan"}, "lat": 38.83581983333333, "bike_id": "584844ad55b44b01a6520dfd04196264", "is_disabled": 0, "lon": -76.99022433333333, "is_reserved": 0, "fusion_lat": 0.0, "type": "electric_bike"}, {"fusion_lon": 0.0, "name": "64157ab66be1e73f321ac808f36abbcd", "rental_uris": {"android": "https://dc.lft.to/lastmile_qr_scan", "ios": "https://dc.lft.to/lastmile_qr_scan"}, "lat": 38.88286, "bike_id": "64157ab66be1e73f321ac808f36abbcd", "is_disabled": 0, "lon": -76.93424083333333, "is_reserved": 0, "fusion_lat": 0.0, "type": "electric_scooter"}, {"fusion_lon": 0.0, "name": "c6d28840b1f9499d64d9cf646e3915dd", "rental_uris": {"android": "https://dc.lft.to/lastmile_qr_scan", "ios": "https://dc.lft.to/lastmile_qr_scan"}, "lat": 38.863790333333334, "bike_id": "c6d28840b1f9499d64d9cf646e3915dd", "is_disabled": 0, "lon": -76.98813216666667, "is_reserved": 0, "fusion_lat": 0.0, "type": "electric_scooter"}, {"fusion_lon": 0.0, "name": "a0f41e79f2759a77121d7ccab5c19101", "rental_uris": {"android": "https://dc.lft.to/lastmile_qr_scan", "ios": "https://dc.lft.to/lastmile_qr_scan"}, "lat": 38.86349416666667, "bike_id": "a0f41e79f2759a77121d7ccab5c19101", "is_disabled": 0, "lon": -76.9869355, "is_reserved": 0, "fusion_lat": 0.0, "type": "electric_scooter"}, {"fusion_lon": 0.0, "name": "4c5132ce5453841949b58df2c0e85b20", "rental_uris": {"android": "https://dc.lft.to/lastmile_qr_scan", "ios": "https://dc.lft.to/lastmile_qr_scan"}, "lat": 38.898275166666664, "bike_id": "4c5132ce5453841949b58df2c0e85b20", "is_disabled": 0, "lon": -76.93007466666667, "is_reserved": 0, "fusion_lat": 0.0, "type": "electric_scooter"}, {"fusion_lon": 0.0, "name": "c6c6e74d9e43408836c062ad536a47f4", "rental_uris": {"android": "https://dc.lft.to/lastmile_qr_scan", "ios": "https://dc.lft.to/lastmile_qr_scan"}, "lat": 38.892180333333336, "bike_id": "c6c6e74d9e43408836c062ad536a47f4", "is_disabled": 0, "lon": -77.013979, "is_reserved": 0, "fusion_lat": 0.0, "type": "electric_scooter"}, {"fusion_lon": 0.0, "name": "afbe68699f963ec4f8454625a19ff125", "rental_uris": {"android": "https://dc.lft.to/lastmile_qr_scan", "ios": "https://dc.lft.to/lastmile_qr_scan"}, "lat": 38.899680333333336, "bike_id": "afbe68699f963ec4f8454625a19ff125", "is_disabled": 0, "lon": -77.01599533333334, "is_reserved": 0, "fusion_lat": 0.0, "type": "electric_scooter"}, {"fusion_lon": 0.0, "name": "f875c549f52aaaf7655c25731fb8e16d", "rental_uris": {"android": "https://dc.lft.to/lastmile_qr_scan", "ios": "https://dc.lft.to/lastmile_qr_scan"}, "lat": 38.879365666666665, "bike_id": "f875c549f52aaaf7655c25731fb8e16d", "is_disabled": 0, "lon": -77.01716466666667, "is_reserved": 0, "fusion_lat": 0.0, "type": "electric_scooter"}, {"fusion_lon": 0.0, "name": "6c01ce0261e4dcb7932da3ba85a27658", "rental_uris": {"android": "https://dc.lft.to/lastmile_qr_scan", "ios": "https://dc.lft.to/lastmile_qr_scan"}, "lat": 38.90043383333333, "bike_id": "6c01ce0261e4dcb7932da3ba85a27658", "is_disabled": 0, "lon": -77.02954566666666, "is_reserved": 0, "fusion_lat": 0.0, "type": "electric_scooter"}, {"fusion_lon": 0.0, "name": "aa06b73b8d67c48b42779f5ffaccf9cf", "rental_uris": {"android": "https://dc.lft.to/lastmile_qr_scan", "ios": "https://dc.lft.to/lastmile_qr_scan"}, "lat": 38.989169, "bike_id": "aa06b73b8d67c48b42779f5ffaccf9cf", "is_disabled": 0, "lon": -77.097839, "is_reserved": 0, "fusion_lat": 0.0, "type": "electric_bike"}, {"fusion_lon": 0.0, "name": "ec8d56d2ebd960cab7088b9534c8922d", "rental_uris": {"android": "https://dc.lft.to/lastmile_qr_scan", "ios": "https://dc.lft.to/lastmile_qr_scan"}, "lat": 38.923636333333334, "bike_id": "ec8d56d2ebd960cab7088b9534c8922d", "is_disabled": 0, "lon": -77.01908033333333, "is_reserved": 0, "fusion_lat": 0.0, "type": "electric_scooter"}, {"fusion_lon": 0.0, "name": "9269bcbfd1ed4e28e6fd20bd18902f3f", "rental_uris": {"android": "https://dc.lft.to/lastmile_qr_scan", "ios": "https://dc.lft.to/lastmile_qr_scan"}, "lat": 38.900504, "bike_id": "9269bcbfd1ed4e28e6fd20bd18902f3f", "is_disabled": 0, "lon": -77.0448025, "is_reserved": 0, "fusion_lat": 0.0, "type": "electric_scooter"}, {"fusion_lon": 0.0, "name": "d1d8bb364b9631cd46455a38012c7a74", "rental_uris": {"android": "https://dc.lft.to/lastmile_qr_scan", "ios": "https://dc.lft.to/lastmile_qr_scan"}, "lat": 38.90763233333333, "bike_id": "d1d8bb364b9631cd46455a38012c7a74", "is_disabled": 0, "lon": -77.03723383333333, "is_reserved": 0, "fusion_lat": 0.0, "type": "electric_scooter"}, {"fusion_lon": 0.0, "name": "4f0eefd4041b607b5c46b8834416d313", "rental_uris": {"android": "https://dc.lft.to/lastmile_qr_scan", "ios": "https://dc.lft.to/lastmile_qr_scan"}, "lat": 38.914747, "bike_id": "4f0eefd4041b607b5c46b8834416d313", "is_disabled": 0, "lon": -77.01832766666666, "is_reserved": 0, "fusion_lat": 0.0, "type": "electric_scooter"}, {"fusion_lon": 0.0, "name": "d9bf1e4d05e6e636be88153f74270f28", "rental_uris": {"android": "https://dc.lft.to/lastmile_qr_scan", "ios": "https://dc.lft.to/lastmile_qr_scan"}, "lat": 38.897273166666665, "bike_id": "d9bf1e4d05e6e636be88153f74270f28", "is_disabled": 0, "lon": -77.04593533333333, "is_reserved": 0, "fusion_lat": 0.0, "type": "electric_scooter"}, {"fusion_lon": 0.0, "name": "73dfef2864581e158d2a9346f53dc9e9", "rental_uris": {"android": "https://dc.lft.to/lastmile_qr_scan", "ios": "https://dc.lft.to/lastmile_qr_scan"}, "lat": 38.936327666666664, "bike_id": "73dfef2864581e158d2a9346f53dc9e9", "is_disabled": 0, "lon": -77.06424983333334, "is_reserved": 0, "fusion_lat": 0.0, "type": "electric_scooter"}, {"fusion_lon": 0.0, "name": "e2358a4bbfc9f25d6d68c568a4a1d461", "rental_uris": {"android": "https://dc.lft.to/lastmile_qr_scan", "ios": "https://dc.lft.to/lastmile_qr_scan"}, "lat": 38.914117166666664, "bike_id": "e2358a4bbfc9f25d6d68c568a4a1d461", "is_disabled": 0, "lon": -77.01844566666666, "is_reserved": 0, "fusion_lat": 0.0, "type": "electric_scooter"}, {"fusion_lon": 0.0, "name": "b5f4b54f3c94e7855f7c6f88d0f03820", "rental_uris": {"android": "https://dc.lft.to/lastmile_qr_scan", "ios": "https://dc.lft.to/lastmile_qr_scan"}, "lat": 38.9432725, "bike_id": "b5f4b54f3c94e7855f7c6f88d0f03820", "is_disabled": 0, "lon": -77.0131105, "is_reserved": 0, "fusion_lat": 0.0, "type": "electric_scooter"}, {"fusion_lon": 0.0, "name": "886064ae2c4ceeab7b84324c23430468", "rental_uris": {"android": "https://dc.lft.to/lastmile_qr_scan", "ios": "https://dc.lft.to/lastmile_qr_scan"}, "lat": 38.899711333333336, "bike_id": "886064ae2c4ceeab7b84324c23430468", "is_disabled": 0, "lon": -77.0451295, "is_reserved": 0, "fusion_lat": 0.0, "type": "electric_scooter"}, {"fusion_lon": 0.0, "name": "60cfaa32d6e8026f4ae9e49d0ee1211f", "rental_uris": {"android": "https://dc.lft.to/lastmile_qr_scan", "ios": "https://dc.lft.to/lastmile_qr_scan"}, "lat": 38.87939183333334, "bike_id": "60cfaa32d6e8026f4ae9e49d0ee1211f", "is_disabled": 0, "lon": -76.983828, "is_reserved": 0, "fusion_lat": 0.0, "type": "electric_scooter"}, {"fusion_lon": 0.0, "name": "74dae4106fb712a5461ed85e9a7a80cf", "rental_uris": {"android": "https://dc.lft.to/lastmile_qr_scan", "ios": "https://dc.lft.to/lastmile_qr_scan"}, "lat": 38.89459083333333, "bike_id": "74dae4106fb712a5461ed85e9a7a80cf", "is_disabled": 0, "lon": -77.03378016666667, "is_reserved": 0, "fusion_lat": 0.0, "type": "electric_scooter"}, {"fusion_lon": 0.0, "name": "ff3f925671e0d91e2cedc126685a7808", "rental_uris": {"android": "https://dc.lft.to/lastmile_qr_scan", "ios": "https://dc.lft.to/lastmile_qr_scan"}, "lat": 38.876639, "bike_id": "ff3f925671e0d91e2cedc126685a7808", "is_disabled": 0, "lon": -77.00446566666666, "is_reserved": 0, "fusion_lat": 0.0, "type": "electric_scooter"}, {"fusion_lon": 0.0, "name": "8c4eb86e2eeb56e5e512106e30001b17", "rental_uris": {"android": "https://dc.lft.to/lastmile_qr_scan", "ios": "https://dc.lft.to/lastmile_qr_scan"}, "lat": 38.91599983333333, "bike_id": "8c4eb86e2eeb56e5e512106e30001b17", "is_disabled": 0, "lon": -77.024085, "is_reserved": 0, "fusion_lat": 0.0, "type": "electric_scooter"}, {"fusion_lon": 0.0, "name": "6ed9e4f3636da5dbbcb1927deedc403e", "rental_uris": {"android": "https://dc.lft.to/lastmile_qr_scan", "ios": "https://dc.lft.to/lastmile_qr_scan"}, "lat": 38.90337616666667, "bike_id": "6ed9e4f3636da5dbbcb1927deedc403e", "is_disabled": 0, "lon": -76.97575433333333, "is_reserved": 0, "fusion_lat": 0.0, "type": "electric_scooter"}, {"fusion_lon": 0.0, "name": "b31f343ac0342125353cecb577c7e369", "rental_uris": {"android": "https://dc.lft.to/lastmile_qr_scan", "ios": "https://dc.lft.to/lastmile_qr_scan"}, "lat": 38.89488466666667, "bike_id": "b31f343ac0342125353cecb577c7e369", "is_disabled": 0, "lon": -76.94891083333333, "is_reserved": 0, "fusion_lat": 0.0, "type": "electric_scooter"}, {"fusion_lon": 0.0, "name": "754e1433dd219ac9a250f6e9e8a38235", "rental_uris": {"android": "https://dc.lft.to/lastmile_qr_scan", "ios": "https://dc.lft.to/lastmile_qr_scan"}, "lat": 38.88375216666667, "bike_id": "754e1433dd219ac9a250f6e9e8a38235", "is_disabled": 0, "lon": -76.99513633333333, "is_reserved": 0, "fusion_lat": 0.0, "type": "electric_scooter"}, {"fusion_lon": 0.0, "name": "6500c258b6bc26aa6914550bf9c6cb03", "rental_uris": {"android": "https://dc.lft.to/lastmile_qr_scan", "ios": "https://dc.lft.to/lastmile_qr_scan"}, "lat": 38.96381616666667, "bike_id": "6500c258b6bc26aa6914550bf9c6cb03", "is_disabled": 0, "lon": -76.93520316666667, "is_reserved": 0, "fusion_lat": 0.0, "type": "electric_bike"}, {"fusion_lon": 0.0, "name": "357fcd82a0b576bccb4d2a436e310039", "rental_uris": {"android": "https://dc.lft.to/lastmile_qr_scan", "ios": "https://dc.lft.to/lastmile_qr_scan"}, "lat": 38.89468266666667, "bike_id": "357fcd82a0b576bccb4d2a436e310039", "is_disabled": 0, "lon": -76.99715883333333, "is_reserved": 0, "fusion_lat": 0.0, "type": "electric_scooter"}, {"fusion_lon": 0.0, "name": "1ba3117e97ae706a2b08e56919265209", "rental_uris": {"android": "https://dc.lft.to/lastmile_qr_scan", "ios": "https://dc.lft.to/lastmile_qr_scan"}, "lat": 38.89652016666667, "bike_id": "1ba3117e97ae706a2b08e56919265209", "is_disabled": 0, "lon": -77.02307616666667, "is_reserved": 0, "fusion_lat": 0.0, "type": "electric_scooter"}, {"fusion_lon": 0.0, "name": "183dfedf3a5096deed5a574157f9edc4", "rental_uris": {"android": "https://dc.lft.to/lastmile_qr_scan", "ios": "https://dc.lft.to/lastmile_qr_scan"}, "lat": 38.895390166666665, "bike_id": "183dfedf3a5096deed5a574157f9edc4", "is_disabled": 0, "lon": -76.98334633333333, "is_reserved": 0, "fusion_lat": 0.0, "type": "electric_scooter"}, {"fusion_lon": 0.0, "name": "adb0c4a7efcc7bba8ea05ef1e2880492", "rental_uris": {"android": "https://dc.lft.to/lastmile_qr_scan", "ios": "https://dc.lft.to/lastmile_qr_scan"}, "lat": 38.91426083333333, "bike_id": "adb0c4a7efcc7bba8ea05ef1e2880492", "is_disabled": 0, "lon": -77.028091, "is_reserved": 0, "fusion_lat": 0.0, "type": "electric_scooter"}, {"fusion_lon": 0.0, "name": "a164dbc9515414a4a5fe899a3c63e8dd", "rental_uris": {"android": "https://dc.lft.to/lastmile_qr_scan", "ios": "https://dc.lft.to/lastmile_qr_scan"}, "lat": 39.0037155, "bike_id": "a164dbc9515414a4a5fe899a3c63e8dd", "is_disabled": 0, "lon": -77.01285866666667, "is_reserved": 0, "fusion_lat": 0.0, "type": "electric_bike"}, {"fusion_lon": 0.0, "name": "2abbfb60bd223000ef21944e1893f164", "rental_uris": {"android": "https://dc.lft.to/lastmile_qr_scan", "ios": "https://dc.lft.to/lastmile_qr_scan"}, "lat": 38.88455866666666, "bike_id": "2abbfb60bd223000ef21944e1893f164", "is_disabled": 0, "lon": -77.00045633333333, "is_reserved": 0, "fusion_lat": 0.0, "type": "electric_scooter"}, {"fusion_lon": 0.0, "name": "d64c3e1d7ae26d1b953e789522f1a2d1", "rental_uris": {"android": "https://dc.lft.to/lastmile_qr_scan", "ios": "https://dc.lft.to/lastmile_qr_scan"}, "lat": 38.924381833333335, "bike_id": "d64c3e1d7ae26d1b953e789522f1a2d1", "is_disabled": 0, "lon": -77.020323, "is_reserved": 0, "fusion_lat": 0.0, "type": "electric_scooter"}, {"fusion_lon": 0.0, "name": "e221a6057c1ad035762aa5baeb76b7f3", "rental_uris": {"android": "https://dc.lft.to/lastmile_qr_scan", "ios": "https://dc.lft.to/lastmile_qr_scan"}, "lat": 38.93607383333333, "bike_id": "e221a6057c1ad035762aa5baeb76b7f3", "is_disabled": 0, "lon": -77.03217033333334, "is_reserved": 0, "fusion_lat": 0.0, "type": "electric_scooter"}, {"fusion_lon": 0.0, "name": "7074622f03678998788a6ebb3b67927c", "rental_uris": {"android": "https://dc.lft.to/lastmile_qr_scan", "ios": "https://dc.lft.to/lastmile_qr_scan"}, "lat": 38.875529666666665, "bike_id": "7074622f03678998788a6ebb3b67927c", "is_disabled": 0, "lon": -77.005853, "is_reserved": 0, "fusion_lat": 0.0, "type": "electric_scooter"}, {"fusion_lon": 0.0, "name": "dda275f8ee14b27baad4b2f07de8e8ff", "rental_uris": {"android": "https://dc.lft.to/lastmile_qr_scan", "ios": "https://dc.lft.to/lastmile_qr_scan"}, "lat": 38.90115733333333, "bike_id": "dda275f8ee14b27baad4b2f07de8e8ff", "is_disabled": 0, "lon": -77.0299725, "is_reserved": 0, "fusion_lat": 0.0, "type": "electric_scooter"}, {"fusion_lon": 0.0, "name": "8d4be2c586f9776bbfc989cb4209fefe", "rental_uris": {"android": "https://dc.lft.to/lastmile_qr_scan", "ios": "https://dc.lft.to/lastmile_qr_scan"}, "lat": 38.85215483333333, "bike_id": "8d4be2c586f9776bbfc989cb4209fefe", "is_disabled": 0, "lon": -76.9942735, "is_reserved": 0, "fusion_lat": 0.0, "type": "electric_scooter"}, {"fusion_lon": 0.0, "name": "cd770c9af409809c64cc3e3f7538fd81", "rental_uris": {"android": "https://dc.lft.to/lastmile_qr_scan", "ios": "https://dc.lft.to/lastmile_qr_scan"}, "lat": 38.935430333333336, "bike_id": "cd770c9af409809c64cc3e3f7538fd81", "is_disabled": 0, "lon": -77.03416416666667, "is_reserved": 0, "fusion_lat": 0.0, "type": "electric_scooter"}, {"fusion_lon": 0.0, "name": "3602ed07b6f3883d53c0ba80ed0e5a4d", "rental_uris": {"android": "https://dc.lft.to/lastmile_qr_scan", "ios": "https://dc.lft.to/lastmile_qr_scan"}, "lat": 38.928499333333335, "bike_id": "3602ed07b6f3883d53c0ba80ed0e5a4d", "is_disabled": 0, "lon": -77.0542675, "is_reserved": 0, "fusion_lat": 0.0, "type": "electric_scooter"}, {"fusion_lon": 0.0, "name": "54b78fd6c3ceb28130b99821bb7c6b44", "rental_uris": {"android": "https://dc.lft.to/lastmile_qr_scan", "ios": "https://dc.lft.to/lastmile_qr_scan"}, "lat": 38.903634333333336, "bike_id": "54b78fd6c3ceb28130b99821bb7c6b44", "is_disabled": 0, "lon": -77.03212066666667, "is_reserved": 0, "fusion_lat": 0.0, "type": "electric_scooter"}, {"fusion_lon": 0.0, "name": "b39a199de4b9e12b95b26a21326bff79", "rental_uris": {"android": "https://dc.lft.to/lastmile_qr_scan", "ios": "https://dc.lft.to/lastmile_qr_scan"}, "lat": 38.8982585, "bike_id": "b39a199de4b9e12b95b26a21326bff79", "is_disabled": 0, "lon": -77.02928483333334, "is_reserved": 0, "fusion_lat": 0.0, "type": "electric_scooter"}, {"fusion_lon": 0.0, "name": "cac9ba091dd0144accce9e32f2d61c65", "rental_uris": {"android": "https://dc.lft.to/lastmile_qr_scan", "ios": "https://dc.lft.to/lastmile_qr_scan"}, "lat": 38.905272333333336, "bike_id": "cac9ba091dd0144accce9e32f2d61c65", "is_disabled": 0, "lon": -77.061707, "is_reserved": 0, "fusion_lat": 0.0, "type": "electric_scooter"}, {"fusion_lon": 0.0, "name": "de0683b1324af0f01b5c5bc9b346b579", "rental_uris": {"android": "https://dc.lft.to/lastmile_qr_scan", "ios": "https://dc.lft.to/lastmile_qr_scan"}, "lat": 38.9134565, "bike_id": "de0683b1324af0f01b5c5bc9b346b579", "is_disabled": 0, "lon": -76.9888915, "is_reserved": 0, "fusion_lat": 0.0, "type": "electric_scooter"}, {"fusion_lon": 0.0, "name": "6758fa08a7f15a96e61ccb9367e756e6", "rental_uris": {"android": "https://dc.lft.to/lastmile_qr_scan", "ios": "https://dc.lft.to/lastmile_qr_scan"}, "lat": 38.91400133333333, "bike_id": "6758fa08a7f15a96e61ccb9367e756e6", "is_disabled": 0, "lon": -77.04885366666667, "is_reserved": 0, "fusion_lat": 0.0, "type": "electric_scooter"}, {"fusion_lon": 0.0, "name": "dccc379b9a7c442894375c61fd1a40b5", "rental_uris": {"android": "https://dc.lft.to/lastmile_qr_scan", "ios": "https://dc.lft.to/lastmile_qr_scan"}, "lat": 38.858067166666665, "bike_id": "dccc379b9a7c442894375c61fd1a40b5", "is_disabled": 0, "lon": -76.98992533333333, "is_reserved": 0, "fusion_lat": 0.0, "type": "electric_scooter"}, {"fusion_lon": 0.0, "name": "2bab681284f8b6aa74381ee05a220f91", "rental_uris": {"android": "https://dc.lft.to/lastmile_qr_scan", "ios": "https://dc.lft.to/lastmile_qr_scan"}, "lat": 38.92438966666667, "bike_id": "2bab681284f8b6aa74381ee05a220f91", "is_disabled": 0, "lon": -77.01936583333334, "is_reserved": 0, "fusion_lat": 0.0, "type": "electric_scooter"}, {"fusion_lon": 0.0, "name": "015551dbfca903ba14317ef9b9f8e45f", "rental_uris": {"android": "https://dc.lft.to/lastmile_qr_scan", "ios": "https://dc.lft.to/lastmile_qr_scan"}, "lat": 38.935238, "bike_id": "015551dbfca903ba14317ef9b9f8e45f", "is_disabled": 0, "lon": -77.03488116666666, "is_reserved": 0, "fusion_lat": 0.0, "type": "electric_scooter"}, {"fusion_lon": 0.0, "name": "e70a01396038919d05cebacb756e1a4b", "rental_uris": {"android": "https://dc.lft.to/lastmile_qr_scan", "ios": "https://dc.lft.to/lastmile_qr_scan"}, "lat": 38.91756516666667, "bike_id": "e70a01396038919d05cebacb756e1a4b", "is_disabled": 0, "lon": -77.021052, "is_reserved": 0, "fusion_lat": 0.0, "type": "electric_scooter"}, {"fusion_lon": 0.0, "name": "0cd5474a944d363429abb692045a1ded", "rental_uris": {"android": "https://dc.lft.to/lastmile_qr_scan", "ios": "https://dc.lft.to/lastmile_qr_scan"}, "lat": 38.92565033333333, "bike_id": "0cd5474a944d363429abb692045a1ded", "is_disabled": 0, "lon": -76.99960216666666, "is_reserved": 0, "fusion_lat": 0.0, "type": "electric_scooter"}, {"fusion_lon": 0.0, "name": "5aafd5d93731bb76ff4dfd2b6b62579f", "rental_uris": {"android": "https://dc.lft.to/lastmile_qr_scan", "ios": "https://dc.lft.to/lastmile_qr_scan"}, "lat": 38.918835666666666, "bike_id": "5aafd5d93731bb76ff4dfd2b6b62579f", "is_disabled": 0, "lon": -77.041745, "is_reserved": 0, "fusion_lat": 0.0, "type": "electric_scooter"}, {"fusion_lon": 0.0, "name": "0786c64e89928ecaf875be12517cb9d7", "rental_uris": {"android": "https://dc.lft.to/lastmile_qr_scan", "ios": "https://dc.lft.to/lastmile_qr_scan"}, "lat": 38.881200166666666, "bike_id": "0786c64e89928ecaf875be12517cb9d7", "is_disabled": 0, "lon": -76.99282516666666, "is_reserved": 0, "fusion_lat": 0.0, "type": "electric_scooter"}, {"fusion_lon": 0.0, "name": "c2d2799e1169ff61d144201754357e04", "rental_uris": {"android": "https://dc.lft.to/lastmile_qr_scan", "ios": "https://dc.lft.to/lastmile_qr_scan"}, "lat": 38.909767, "bike_id": "c2d2799e1169ff61d144201754357e04", "is_disabled": 0, "lon": -77.03417766666666, "is_reserved": 0, "fusion_lat": 0.0, "type": "electric_scooter"}, {"fusion_lon": 0.0, "name": "00e2b4057490786307ee7895958a933f", "rental_uris": {"android": "https://dc.lft.to/lastmile_qr_scan", "ios": "https://dc.lft.to/lastmile_qr_scan"}, "lat": 38.92350416666667, "bike_id": "00e2b4057490786307ee7895958a933f", "is_disabled": 0, "lon": -77.041493, "is_reserved": 0, "fusion_lat": 0.0, "type": "electric_scooter"}, {"fusion_lon": 0.0, "name": "1a48805bd39de6a8d20d21da0371c1dc", "rental_uris": {"android": "https://dc.lft.to/lastmile_qr_scan", "ios": "https://dc.lft.to/lastmile_qr_scan"}, "lat": 38.857823, "bike_id": "1a48805bd39de6a8d20d21da0371c1dc", "is_disabled": 0, "lon": -76.987545, "is_reserved": 0, "fusion_lat": 0.0, "type": "electric_bike"}, {"fusion_lon": 0.0, "name": "5a85acdfb02c6f3919805f921635805c", "rental_uris": {"android": "https://dc.lft.to/lastmile_qr_scan", "ios": "https://dc.lft.to/lastmile_qr_scan"}, "lat": 38.992352833333335, "bike_id": "5a85acdfb02c6f3919805f921635805c", "is_disabled": 0, "lon": -77.02376, "is_reserved": 0, "fusion_lat": 0.0, "type": "electric_bike"}, {"fusion_lon": 0.0, "name": "6e67f82a08ef1a4c7cac2d2e4c30385b", "rental_uris": {"android": "https://dc.lft.to/lastmile_qr_scan", "ios": "https://dc.lft.to/lastmile_qr_scan"}, "lat": 38.90368433333333, "bike_id": "6e67f82a08ef1a4c7cac2d2e4c30385b", "is_disabled": 0, "lon": -76.98055116666667, "is_reserved": 0, "fusion_lat": 0.0, "type": "electric_scooter"}, {"fusion_lon": 0.0, "name": "9098b97ea22d1831c087573290041d0c", "rental_uris": {"android": "https://dc.lft.to/lastmile_qr_scan", "ios": "https://dc.lft.to/lastmile_qr_scan"}, "lat": 38.90442083333333, "bike_id": "9098b97ea22d1831c087573290041d0c", "is_disabled": 0, "lon": -77.05145833333333, "is_reserved": 0, "fusion_lat": 0.0, "type": "electric_scooter"}, {"fusion_lon": 0.0, "name": "1863571d80d8cbf3e73946616e15fa74", "rental_uris": {"android": "https://dc.lft.to/lastmile_qr_scan", "ios": "https://dc.lft.to/lastmile_qr_scan"}, "lat": 38.895444166666664, "bike_id": "1863571d80d8cbf3e73946616e15fa74", "is_disabled": 0, "lon": -77.0119615, "is_reserved": 0, "fusion_lat": 0.0, "type": "electric_scooter"}, {"fusion_lon": 0.0, "name": "696b4bc3bf69062b58d19453f64aa47d", "rental_uris": {"android": "https://dc.lft.to/lastmile_qr_scan", "ios": "https://dc.lft.to/lastmile_qr_scan"}, "lat": 38.89422183333333, "bike_id": "696b4bc3bf69062b58d19453f64aa47d", "is_disabled": 0, "lon": -76.99769033333334, "is_reserved": 0, "fusion_lat": 0.0, "type": "electric_scooter"}, {"fusion_lon": 0.0, "name": "ebf2a1dc2c023492a0dc73ee3c3f3f17", "rental_uris": {"android": "https://dc.lft.to/lastmile_qr_scan", "ios": "https://dc.lft.to/lastmile_qr_scan"}, "lat": 38.96026966666667, "bike_id": "ebf2a1dc2c023492a0dc73ee3c3f3f17", "is_disabled": 0, "lon": -77.03010883333333, "is_reserved": 0, "fusion_lat": 0.0, "type": "electric_scooter"}, {"fusion_lon": 0.0, "name": "ca62c3d0160d0feed0a92ee36103201d", "rental_uris": {"android": "https://dc.lft.to/lastmile_qr_scan", "ios": "https://dc.lft.to/lastmile_qr_scan"}, "lat": 38.830678, "bike_id": "ca62c3d0160d0feed0a92ee36103201d", "is_disabled": 0, "lon": -77.00193483333334, "is_reserved": 0, "fusion_lat": 0.0, "type": "electric_scooter"}, {"fusion_lon": 0.0, "name": "70ba725eb8c5df28d2bea35a96b1ee05", "rental_uris": {"android": "https://dc.lft.to/lastmile_qr_scan", "ios": "https://dc.lft.to/lastmile_qr_scan"}, "lat": 38.926855333333336, "bike_id": "70ba725eb8c5df28d2bea35a96b1ee05", "is_disabled": 0, "lon": -77.02964316666667, "is_reserved": 0, "fusion_lat": 0.0, "type": "electric_scooter"}, {"fusion_lon": 0.0, "name": "7f503376612460b3535b953b66de0cb1", "rental_uris": {"android": "https://dc.lft.to/lastmile_qr_scan", "ios": "https://dc.lft.to/lastmile_qr_scan"}, "lat": 38.8860955, "bike_id": "7f503376612460b3535b953b66de0cb1", "is_disabled": 0, "lon": -77.02167633333333, "is_reserved": 0, "fusion_lat": 0.0, "type": "electric_scooter"}, {"fusion_lon": 0.0, "name": "3f7905235bd297087953b60f0d95cabe", "rental_uris": {"android": "https://dc.lft.to/lastmile_qr_scan", "ios": "https://dc.lft.to/lastmile_qr_scan"}, "lat": 38.9155045, "bike_id": "3f7905235bd297087953b60f0d95cabe", "is_disabled": 0, "lon": -77.03796483333333, "is_reserved": 0, "fusion_lat": 0.0, "type": "electric_scooter"}, {"fusion_lon": 0.0, "name": "af0ca78ee6e565cacaa51d3ece8238b3", "rental_uris": {"android": "https://dc.lft.to/lastmile_qr_scan", "ios": "https://dc.lft.to/lastmile_qr_scan"}, "lat": 38.848102, "bike_id": "af0ca78ee6e565cacaa51d3ece8238b3", "is_disabled": 0, "lon": -76.9525455, "is_reserved": 0, "fusion_lat": 0.0, "type": "electric_bike"}, {"fusion_lon": 0.0, "name": "adb157e841190b7e1501f1624c40d7aa", "rental_uris": {"android": "https://dc.lft.to/lastmile_qr_scan", "ios": "https://dc.lft.to/lastmile_qr_scan"}, "lat": 38.91351983333333, "bike_id": "adb157e841190b7e1501f1624c40d7aa", "is_disabled": 0, "lon": -77.01993216666666, "is_reserved": 0, "fusion_lat": 0.0, "type": "electric_scooter"}, {"fusion_lon": 0.0, "name": "83499f42df5264df0864c2dba5a0339a", "rental_uris": {"android": "https://dc.lft.to/lastmile_qr_scan", "ios": "https://dc.lft.to/lastmile_qr_scan"}, "lat": 38.91948216666667, "bike_id": "83499f42df5264df0864c2dba5a0339a", "is_disabled": 0, "lon": -77.039481, "is_reserved": 0, "fusion_lat": 0.0, "type": "electric_scooter"}, {"fusion_lon": 0.0, "name": "87a182190f992e6714c2758059c21650", "rental_uris": {"android": "https://dc.lft.to/lastmile_qr_scan", "ios": "https://dc.lft.to/lastmile_qr_scan"}, "lat": 38.894805833333336, "bike_id": "87a182190f992e6714c2758059c21650", "is_disabled": 0, "lon": -76.995176, "is_reserved": 0, "fusion_lat": 0.0, "type": "electric_scooter"}, {"fusion_lon": 0.0, "name": "fb2980e4f878d389a153e0c0bed25374", "rental_uris": {"android": "https://dc.lft.to/lastmile_qr_scan", "ios": "https://dc.lft.to/lastmile_qr_scan"}, "lat": 38.88438433333334, "bike_id": "fb2980e4f878d389a153e0c0bed25374", "is_disabled": 0, "lon": -76.95763916666667, "is_reserved": 0, "fusion_lat": 0.0, "type": "electric_scooter"}, {"fusion_lon": 0.0, "name": "1dafc55a75a27142617fb4349764c131", "rental_uris": {"android": "https://dc.lft.to/lastmile_qr_scan", "ios": "https://dc.lft.to/lastmile_qr_scan"}, "lat": 38.919241166666666, "bike_id": "1dafc55a75a27142617fb4349764c131", "is_disabled": 0, "lon": -77.01776816666667, "is_reserved": 0, "fusion_lat": 0.0, "type": "electric_scooter"}, {"fusion_lon": 0.0, "name": "5989062a014bcae233484d3527fe8857", "rental_uris": {"android": "https://dc.lft.to/lastmile_qr_scan", "ios": "https://dc.lft.to/lastmile_qr_scan"}, "lat": 38.87478383333333, "bike_id": "5989062a014bcae233484d3527fe8857", "is_disabled": 0, "lon": -76.9652795, "is_reserved": 0, "fusion_lat": 0.0, "type": "electric_bike"}, {"fusion_lon": 0.0, "name": "c92217e7381ecf1638ef259cc58b441c", "rental_uris": {"android": "https://dc.lft.to/lastmile_qr_scan", "ios": "https://dc.lft.to/lastmile_qr_scan"}, "lat": 38.913859333333335, "bike_id": "c92217e7381ecf1638ef259cc58b441c", "is_disabled": 0, "lon": -77.0459945, "is_reserved": 0, "fusion_lat": 0.0, "type": "electric_scooter"}, {"fusion_lon": 0.0, "name": "e0f71a0aae21b086c5e273585c7f36f4", "rental_uris": {"android": "https://dc.lft.to/lastmile_qr_scan", "ios": "https://dc.lft.to/lastmile_qr_scan"}, "lat": 38.9061685, "bike_id": "e0f71a0aae21b086c5e273585c7f36f4", "is_disabled": 0, "lon": -77.02601016666667, "is_reserved": 0, "fusion_lat": 0.0, "type": "electric_scooter"}, {"fusion_lon": 0.0, "name": "3504b065c92db17c3cf94cd4c77e8d0c", "rental_uris": {"android": "https://dc.lft.to/lastmile_qr_scan", "ios": "https://dc.lft.to/lastmile_qr_scan"}, "lat": 38.902437166666665, "bike_id": "3504b065c92db17c3cf94cd4c77e8d0c", "is_disabled": 0, "lon": -77.01852533333333, "is_reserved": 0, "fusion_lat": 0.0, "type": "electric_scooter"}, {"fusion_lon": 0.0, "name": "9e1cba068605285a96364376b0900308", "rental_uris": {"android": "https://dc.lft.to/lastmile_qr_scan", "ios": "https://dc.lft.to/lastmile_qr_scan"}, "lat": 38.898961666666665, "bike_id": "9e1cba068605285a96364376b0900308", "is_disabled": 0, "lon": -77.024468, "is_reserved": 0, "fusion_lat": 0.0, "type": "electric_scooter"}, {"fusion_lon": 0.0, "name": "420f37a1d6a4a2f4fbdd0cb18fbd497f", "rental_uris": {"android": "https://dc.lft.to/lastmile_qr_scan", "ios": "https://dc.lft.to/lastmile_qr_scan"}, "lat": 38.87682566666667, "bike_id": "420f37a1d6a4a2f4fbdd0cb18fbd497f", "is_disabled": 0, "lon": -77.000711, "is_reserved": 0, "fusion_lat": 0.0, "type": "electric_scooter"}, {"fusion_lon": 0.0, "name": "4ede1964b3d11246ea649c14d9f5e2cb", "rental_uris": {"android": "https://dc.lft.to/lastmile_qr_scan", "ios": "https://dc.lft.to/lastmile_qr_scan"}, "lat": 38.90381033333333, "bike_id": "4ede1964b3d11246ea649c14d9f5e2cb", "is_disabled": 0, "lon": -77.00573366666667, "is_reserved": 0, "fusion_lat": 0.0, "type": "electric_scooter"}, {"fusion_lon": 0.0, "name": "074cad4f36dd90d0b60c208c64f2845a", "rental_uris": {"android": "https://dc.lft.to/lastmile_qr_scan", "ios": "https://dc.lft.to/lastmile_qr_scan"}, "lat": 38.87575316666667, "bike_id": "074cad4f36dd90d0b60c208c64f2845a", "is_disabled": 0, "lon": -77.00583316666666, "is_reserved": 0, "fusion_lat": 0.0, "type": "electric_scooter"}, {"fusion_lon": 0.0, "name": "10f7143523aaf60f5fbdf5c054e0c277", "rental_uris": {"android": "https://dc.lft.to/lastmile_qr_scan", "ios": "https://dc.lft.to/lastmile_qr_scan"}, "lat": 38.832937333333334, "bike_id": "10f7143523aaf60f5fbdf5c054e0c277", "is_disabled": 0, "lon": -77.08409633333333, "is_reserved": 0, "fusion_lat": 0.0, "type": "electric_bike"}, {"fusion_lon": 0.0, "name": "093ee8c6c1031bf83aebb29750b1c1fa", "rental_uris": {"android": "https://dc.lft.to/lastmile_qr_scan", "ios": "https://dc.lft.to/lastmile_qr_scan"}, "lat": 38.915407333333334, "bike_id": "093ee8c6c1031bf83aebb29750b1c1fa", "is_disabled": 0, "lon": -77.0122335, "is_reserved": 0, "fusion_lat": 0.0, "type": "electric_bike"}, {"fusion_lon": 0.0, "name": "67f58b9db36a3bed72330382eeb99342", "rental_uris": {"android": "https://dc.lft.to/lastmile_qr_scan", "ios": "https://dc.lft.to/lastmile_qr_scan"}, "lat": 38.88474566666667, "bike_id": "67f58b9db36a3bed72330382eeb99342", "is_disabled": 0, "lon": -77.019851, "is_reserved": 0, "fusion_lat": 0.0, "type": "electric_scooter"}, {"fusion_lon": 0.0, "name": "2e2d3d58120a3e4b5cf1586ba4278d8e", "rental_uris": {"android": "https://dc.lft.to/lastmile_qr_scan", "ios": "https://dc.lft.to/lastmile_qr_scan"}, "lat": 38.9071705, "bike_id": "2e2d3d58120a3e4b5cf1586ba4278d8e", "is_disabled": 0, "lon": -77.02434333333333, "is_reserved": 0, "fusion_lat": 0.0, "type": "electric_scooter"}, {"fusion_lon": 0.0, "name": "205e7dcc9fd946975f13acfea62ed2ce", "rental_uris": {"android": "https://dc.lft.to/lastmile_qr_scan", "ios": "https://dc.lft.to/lastmile_qr_scan"}, "lat": 38.912153, "bike_id": "205e7dcc9fd946975f13acfea62ed2ce", "is_disabled": 0, "lon": -77.07592633333333, "is_reserved": 0, "fusion_lat": 0.0, "type": "electric_scooter"}, {"fusion_lon": 0.0, "name": "24a68228ce1cf011783990d56f455732", "rental_uris": {"android": "https://dc.lft.to/lastmile_qr_scan", "ios": "https://dc.lft.to/lastmile_qr_scan"}, "lat": 38.9284785, "bike_id": "24a68228ce1cf011783990d56f455732", "is_disabled": 0, "lon": -77.054279, "is_reserved": 0, "fusion_lat": 0.0, "type": "electric_scooter"}, {"fusion_lon": 0.0, "name": "09441d4786b851ef2e9f599d6ec41029", "rental_uris": {"android": "https://dc.lft.to/lastmile_qr_scan", "ios": "https://dc.lft.to/lastmile_qr_scan"}, "lat": 38.944065, "bike_id": "09441d4786b851ef2e9f599d6ec41029", "is_disabled": 0, "lon": -77.06367383333334, "is_reserved": 0, "fusion_lat": 0.0, "type": "electric_scooter"}, {"fusion_lon": 0.0, "name": "44be2315362890a80ee4531510e34318", "rental_uris": {"android": "https://dc.lft.to/lastmile_qr_scan", "ios": "https://dc.lft.to/lastmile_qr_scan"}, "lat": 38.895034833333334, "bike_id": "44be2315362890a80ee4531510e34318", "is_disabled": 0, "lon": -77.00335016666666, "is_reserved": 0, "fusion_lat": 0.0, "type": "electric_scooter"}, {"fusion_lon": 0.0, "name": "c168c397c46ae1565ac85c0241164cfe", "rental_uris": {"android": "https://dc.lft.to/lastmile_qr_scan", "ios": "https://dc.lft.to/lastmile_qr_scan"}, "lat": 39.02927583333334, "bike_id": "c168c397c46ae1565ac85c0241164cfe", "is_disabled": 0, "lon": -77.01358116666667, "is_reserved": 0, "fusion_lat": 0.0, "type": "electric_bike"}, {"fusion_lon": 0.0, "name": "392424817d1327ec87919f6456a3800f", "rental_uris": {"android": "https://dc.lft.to/lastmile_qr_scan", "ios": "https://dc.lft.to/lastmile_qr_scan"}, "lat": 38.901628333333335, "bike_id": "392424817d1327ec87919f6456a3800f", "is_disabled": 0, "lon": -76.98078766666667, "is_reserved": 0, "fusion_lat": 0.0, "type": "electric_scooter"}, {"fusion_lon": 0.0, "name": "528fab23ca47f63cb5c4d154bd93ecac", "rental_uris": {"android": "https://dc.lft.to/lastmile_qr_scan", "ios": "https://dc.lft.to/lastmile_qr_scan"}, "lat": 38.924149166666666, "bike_id": "528fab23ca47f63cb5c4d154bd93ecac", "is_disabled": 0, "lon": -77.01947383333334, "is_reserved": 0, "fusion_lat": 0.0, "type": "electric_scooter"}, {"fusion_lon": 0.0, "name": "bf119c14c1e424ee82de154acb1dcad0", "rental_uris": {"android": "https://dc.lft.to/lastmile_qr_scan", "ios": "https://dc.lft.to/lastmile_qr_scan"}, "lat": 38.87858166666667, "bike_id": "bf119c14c1e424ee82de154acb1dcad0", "is_disabled": 0, "lon": -77.01766616666667, "is_reserved": 0, "fusion_lat": 0.0, "type": "electric_scooter"}, {"fusion_lon": 0.0, "name": "6ac43cb139190912d215d92e6af48baa", "rental_uris": {"android": "https://dc.lft.to/lastmile_qr_scan", "ios": "https://dc.lft.to/lastmile_qr_scan"}, "lat": 38.91682516666667, "bike_id": "6ac43cb139190912d215d92e6af48baa", "is_disabled": 0, "lon": -77.01580233333334, "is_reserved": 0, "fusion_lat": 0.0, "type": "electric_scooter"}, {"fusion_lon": 0.0, "name": "ef7f84c8a43e9117e42470e94ea66318", "rental_uris": {"android": "https://dc.lft.to/lastmile_qr_scan", "ios": "https://dc.lft.to/lastmile_qr_scan"}, "lat": 38.88817816666667, "bike_id": "ef7f84c8a43e9117e42470e94ea66318", "is_disabled": 0, "lon": -76.977008, "is_reserved": 0, "fusion_lat": 0.0, "type": "electric_scooter"}, {"fusion_lon": 0.0, "name": "bb0611ba6b88632dacf414cc4b381ebe", "rental_uris": {"android": "https://dc.lft.to/lastmile_qr_scan", "ios": "https://dc.lft.to/lastmile_qr_scan"}, "lat": 38.89623666666667, "bike_id": "bb0611ba6b88632dacf414cc4b381ebe", "is_disabled": 0, "lon": -77.04460016666667, "is_reserved": 0, "fusion_lat": 0.0, "type": "electric_scooter"}, {"fusion_lon": 0.0, "name": "34a66d0a002811ac59c730fe8a42df3c", "rental_uris": {"android": "https://dc.lft.to/lastmile_qr_scan", "ios": "https://dc.lft.to/lastmile_qr_scan"}, "lat": 38.90545433333333, "bike_id": "34a66d0a002811ac59c730fe8a42df3c", "is_disabled": 0, "lon": -77.0432965, "is_reserved": 0, "fusion_lat": 0.0, "type": "electric_scooter"}, {"fusion_lon": 0.0, "name": "0f96d3012bdc1bc0c7ac2e4bfc601686", "rental_uris": {"android": "https://dc.lft.to/lastmile_qr_scan", "ios": "https://dc.lft.to/lastmile_qr_scan"}, "lat": 38.92674066666667, "bike_id": "0f96d3012bdc1bc0c7ac2e4bfc601686", "is_disabled": 0, "lon": -77.0274745, "is_reserved": 0, "fusion_lat": 0.0, "type": "electric_scooter"}, {"fusion_lon": 0.0, "name": "d29b47d0e71b009f7b6a4b0c908e0897", "rental_uris": {"android": "https://dc.lft.to/lastmile_qr_scan", "ios": "https://dc.lft.to/lastmile_qr_scan"}, "lat": 38.9171935, "bike_id": "d29b47d0e71b009f7b6a4b0c908e0897", "is_disabled": 0, "lon": -77.03245333333334, "is_reserved": 0, "fusion_lat": 0.0, "type": "electric_scooter"}, {"fusion_lon": 0.0, "name": "532b2ff2587f605d04192edf95457691", "rental_uris": {"android": "https://dc.lft.to/lastmile_qr_scan", "ios": "https://dc.lft.to/lastmile_qr_scan"}, "lat": 38.90690083333333, "bike_id": "532b2ff2587f605d04192edf95457691", "is_disabled": 0, "lon": -77.009764, "is_reserved": 0, "fusion_lat": 0.0, "type": "electric_scooter"}, {"fusion_lon": 0.0, "name": "e558a62c1a3a8a05513f393f98db80f5", "rental_uris": {"android": "https://dc.lft.to/lastmile_qr_scan", "ios": "https://dc.lft.to/lastmile_qr_scan"}, "lat": 38.8924495, "bike_id": "e558a62c1a3a8a05513f393f98db80f5", "is_disabled": 0, "lon": -77.01252966666667, "is_reserved": 0, "fusion_lat": 0.0, "type": "electric_scooter"}, {"fusion_lon": 0.0, "name": "cb19f2e2f5e88b84306f9cde0ef382a3", "rental_uris": {"android": "https://dc.lft.to/lastmile_qr_scan", "ios": "https://dc.lft.to/lastmile_qr_scan"}, "lat": 38.90038066666666, "bike_id": "cb19f2e2f5e88b84306f9cde0ef382a3", "is_disabled": 0, "lon": -76.98815116666667, "is_reserved": 0, "fusion_lat": 0.0, "type": "electric_scooter"}, {"fusion_lon": 0.0, "name": "162876f4c757d4d3ad45c8c677dd2317", "rental_uris": {"android": "https://dc.lft.to/lastmile_qr_scan", "ios": "https://dc.lft.to/lastmile_qr_scan"}, "lat": 38.909283333333335, "bike_id": "162876f4c757d4d3ad45c8c677dd2317", "is_disabled": 0, "lon": -76.98970216666666, "is_reserved": 0, "fusion_lat": 0.0, "type": "electric_scooter"}, {"fusion_lon": 0.0, "name": "3cd44f8764fd56669876b8341ad1816a", "rental_uris": {"android": "https://dc.lft.to/lastmile_qr_scan", "ios": "https://dc.lft.to/lastmile_qr_scan"}, "lat": 38.9246845, "bike_id": "3cd44f8764fd56669876b8341ad1816a", "is_disabled": 0, "lon": -77.02266533333334, "is_reserved": 0, "fusion_lat": 0.0, "type": "electric_scooter"}, {"fusion_lon": 0.0, "name": "42834b888c1c8dc9db789f7babf43e80", "rental_uris": {"android": "https://dc.lft.to/lastmile_qr_scan", "ios": "https://dc.lft.to/lastmile_qr_scan"}, "lat": 38.998944333333334, "bike_id": "42834b888c1c8dc9db789f7babf43e80", "is_disabled": 0, "lon": -76.908645, "is_reserved": 0, "fusion_lat": 0.0, "type": "electric_bike"}, {"fusion_lon": 0.0, "name": "bc72fa2df5d83fc7785d681c288cc137", "rental_uris": {"android": "https://dc.lft.to/lastmile_qr_scan", "ios": "https://dc.lft.to/lastmile_qr_scan"}, "lat": 38.901787166666665, "bike_id": "bc72fa2df5d83fc7785d681c288cc137", "is_disabled": 0, "lon": -76.98083433333333, "is_reserved": 0, "fusion_lat": 0.0, "type": "electric_scooter"}, {"fusion_lon": 0.0, "name": "57325c627724007068ebb8cead860784", "rental_uris": {"android": "https://dc.lft.to/lastmile_qr_scan", "ios": "https://dc.lft.to/lastmile_qr_scan"}, "lat": 38.870304, "bike_id": "57325c627724007068ebb8cead860784", "is_disabled": 0, "lon": -77.22904833333334, "is_reserved": 0, "fusion_lat": 0.0, "type": "electric_bike"}, {"fusion_lon": 0.0, "name": "6fd4cbafdd11667aaa96347156b61ce2", "rental_uris": {"android": "https://dc.lft.to/lastmile_qr_scan", "ios": "https://dc.lft.to/lastmile_qr_scan"}, "lat": 38.897078666666665, "bike_id": "6fd4cbafdd11667aaa96347156b61ce2", "is_disabled": 0, "lon": -76.99114316666666, "is_reserved": 0, "fusion_lat": 0.0, "type": "electric_scooter"}, {"fusion_lon": 0.0, "name": "ec4d193cf55336a36d04500a8f7077f7", "rental_uris": {"android": "https://dc.lft.to/lastmile_qr_scan", "ios": "https://dc.lft.to/lastmile_qr_scan"}, "lat": 38.927802, "bike_id": "ec4d193cf55336a36d04500a8f7077f7", "is_disabled": 0, "lon": -76.99624366666667, "is_reserved": 0, "fusion_lat": 0.0, "type": "electric_scooter"}, {"fusion_lon": 0.0, "name": "3234c8cc0d6577e61924266185d6bae0", "rental_uris": {"android": "https://dc.lft.to/lastmile_qr_scan", "ios": "https://dc.lft.to/lastmile_qr_scan"}, "lat": 38.92755533333333, "bike_id": "3234c8cc0d6577e61924266185d6bae0", "is_disabled": 0, "lon": -77.03206366666667, "is_reserved": 0, "fusion_lat": 0.0, "type": "electric_scooter"}, {"fusion_lon": 0.0, "name": "6458f2cf8b7e5ec82dccf3c881384916", "rental_uris": {"android": "https://dc.lft.to/lastmile_qr_scan", "ios": "https://dc.lft.to/lastmile_qr_scan"}, "lat": 38.903958833333334, "bike_id": "6458f2cf8b7e5ec82dccf3c881384916", "is_disabled": 0, "lon": -77.00424016666666, "is_reserved": 0, "fusion_lat": 0.0, "type": "electric_scooter"}, {"fusion_lon": 0.0, "name": "51d8c3e08690ff2157e1b0507a48f8d6", "rental_uris": {"android": "https://dc.lft.to/lastmile_qr_scan", "ios": "https://dc.lft.to/lastmile_qr_scan"}, "lat": 38.92113916666667, "bike_id": "51d8c3e08690ff2157e1b0507a48f8d6", "is_disabled": 0, "lon": -77.03656766666667, "is_reserved": 0, "fusion_lat": 0.0, "type": "electric_scooter"}, {"fusion_lon": 0.0, "name": "8f54351362231771ee6f0044683a4417", "rental_uris": {"android": "https://dc.lft.to/lastmile_qr_scan", "ios": "https://dc.lft.to/lastmile_qr_scan"}, "lat": 38.92273466666666, "bike_id": "8f54351362231771ee6f0044683a4417", "is_disabled": 0, "lon": -77.02125, "is_reserved": 0, "fusion_lat": 0.0, "type": "electric_scooter"}, {"fusion_lon": 0.0, "name": "00219190b67b575350ac09b41815e5c1", "rental_uris": {"android": "https://dc.lft.to/lastmile_qr_scan", "ios": "https://dc.lft.to/lastmile_qr_scan"}, "lat": 38.932353166666665, "bike_id": "00219190b67b575350ac09b41815e5c1", "is_disabled": 0, "lon": -77.0327545, "is_reserved": 0, "fusion_lat": 0.0, "type": "electric_scooter"}, {"fusion_lon": 0.0, "name": "60f8d003a4093c0a6a7dbf003763ccf2", "rental_uris": {"android": "https://dc.lft.to/lastmile_qr_scan", "ios": "https://dc.lft.to/lastmile_qr_scan"}, "lat": 38.904363333333336, "bike_id": "60f8d003a4093c0a6a7dbf003763ccf2", "is_disabled": 0, "lon": -77.0365945, "is_reserved": 0, "fusion_lat": 0.0, "type": "electric_scooter"}, {"fusion_lon": 0.0, "name": "7e4368e0384493c87b349706961535c2", "rental_uris": {"android": "https://dc.lft.to/lastmile_qr_scan", "ios": "https://dc.lft.to/lastmile_qr_scan"}, "lat": 38.934631, "bike_id": "7e4368e0384493c87b349706961535c2", "is_disabled": 0, "lon": -77.0580575, "is_reserved": 0, "fusion_lat": 0.0, "type": "electric_scooter"}, {"fusion_lon": 0.0, "name": "157fc42c6300cd65b5381453da9c5553", "rental_uris": {"android": "https://dc.lft.to/lastmile_qr_scan", "ios": "https://dc.lft.to/lastmile_qr_scan"}, "lat": 38.937028166666664, "bike_id": "157fc42c6300cd65b5381453da9c5553", "is_disabled": 0, "lon": -77.05599716666667, "is_reserved": 0, "fusion_lat": 0.0, "type": "electric_scooter"}, {"fusion_lon": 0.0, "name": "7346cd8a52f011c6206ecd5e52b7ead0", "rental_uris": {"android": "https://dc.lft.to/lastmile_qr_scan", "ios": "https://dc.lft.to/lastmile_qr_scan"}, "lat": 38.90299516666666, "bike_id": "7346cd8a52f011c6206ecd5e52b7ead0", "is_disabled": 0, "lon": -77.02454533333334, "is_reserved": 0, "fusion_lat": 0.0, "type": "electric_scooter"}, {"fusion_lon": 0.0, "name": "909415d61198e347da10a422e3ad7eb7", "rental_uris": {"android": "https://dc.lft.to/lastmile_qr_scan", "ios": "https://dc.lft.to/lastmile_qr_scan"}, "lat": 38.93636016666667, "bike_id": "909415d61198e347da10a422e3ad7eb7", "is_disabled": 0, "lon": -76.95454066666667, "is_reserved": 0, "fusion_lat": 0.0, "type": "electric_bike"}, {"fusion_lon": 0.0, "name": "65e9c2c67e5027a9d89beafe103fe208", "rental_uris": {"android": "https://dc.lft.to/lastmile_qr_scan", "ios": "https://dc.lft.to/lastmile_qr_scan"}, "lat": 38.8625135, "bike_id": "65e9c2c67e5027a9d89beafe103fe208", "is_disabled": 0, "lon": -76.9955725, "is_reserved": 0, "fusion_lat": 0.0, "type": "electric_scooter"}, {"fusion_lon": 0.0, "name": "09f64961c210bf6535edba0a1bd3473f", "rental_uris": {"android": "https://dc.lft.to/lastmile_qr_scan", "ios": "https://dc.lft.to/lastmile_qr_scan"}, "lat": 38.906557166666666, "bike_id": "09f64961c210bf6535edba0a1bd3473f", "is_disabled": 0, "lon": -77.05312716666667, "is_reserved": 0, "fusion_lat": 0.0, "type": "electric_scooter"}, {"fusion_lon": 0.0, "name": "2d92e3478a7c103329bc53554f028d57", "rental_uris": {"android": "https://dc.lft.to/lastmile_qr_scan", "ios": "https://dc.lft.to/lastmile_qr_scan"}, "lat": 38.933999166666666, "bike_id": "2d92e3478a7c103329bc53554f028d57", "is_disabled": 0, "lon": -77.03832766666666, "is_reserved": 0, "fusion_lat": 0.0, "type": "electric_scooter"}, {"fusion_lon": 0.0, "name": "134cb110db25ed857a24180e31439421", "rental_uris": {"android": "https://dc.lft.to/lastmile_qr_scan", "ios": "https://dc.lft.to/lastmile_qr_scan"}, "lat": 38.90384733333333, "bike_id": "134cb110db25ed857a24180e31439421", "is_disabled": 0, "lon": -77.032231, "is_reserved": 0, "fusion_lat": 0.0, "type": "electric_scooter"}, {"fusion_lon": 0.0, "name": "9812e4c653829abfa7a07cd0979965ab", "rental_uris": {"android": "https://dc.lft.to/lastmile_qr_scan", "ios": "https://dc.lft.to/lastmile_qr_scan"}, "lat": 38.88731, "bike_id": "9812e4c653829abfa7a07cd0979965ab", "is_disabled": 0, "lon": -77.01386316666667, "is_reserved": 0, "fusion_lat": 0.0, "type": "electric_scooter"}, {"fusion_lon": 0.0, "name": "8874fd1cab298dd2930fd14dc191bd3b", "rental_uris": {"android": "https://dc.lft.to/lastmile_qr_scan", "ios": "https://dc.lft.to/lastmile_qr_scan"}, "lat": 38.924286, "bike_id": "8874fd1cab298dd2930fd14dc191bd3b", "is_disabled": 0, "lon": -77.02033416666667, "is_reserved": 0, "fusion_lat": 0.0, "type": "electric_scooter"}, {"fusion_lon": 0.0, "name": "6360b41b0148b7c201c860f9bf498f36", "rental_uris": {"android": "https://dc.lft.to/lastmile_qr_scan", "ios": "https://dc.lft.to/lastmile_qr_scan"}, "lat": 38.951146, "bike_id": "6360b41b0148b7c201c860f9bf498f36", "is_disabled": 0, "lon": -77.08867366666666, "is_reserved": 0, "fusion_lat": 0.0, "type": "electric_bike"}, {"fusion_lon": 0.0, "name": "19dda532396516b677d39cd2e43a904f", "rental_uris": {"android": "https://dc.lft.to/lastmile_qr_scan", "ios": "https://dc.lft.to/lastmile_qr_scan"}, "lat": 38.92411583333333, "bike_id": "19dda532396516b677d39cd2e43a904f", "is_disabled": 0, "lon": -77.02087433333334, "is_reserved": 0, "fusion_lat": 0.0, "type": "electric_scooter"}, {"fusion_lon": 0.0, "name": "1c9285da51f470d2a3acd1747be2095b", "rental_uris": {"android": "https://dc.lft.to/lastmile_qr_scan", "ios": "https://dc.lft.to/lastmile_qr_scan"}, "lat": 38.894903666666664, "bike_id": "1c9285da51f470d2a3acd1747be2095b", "is_disabled": 0, "lon": -76.94889333333333, "is_reserved": 0, "fusion_lat": 0.0, "type": "electric_scooter"}, {"fusion_lon": 0.0, "name": "b2af59b44733f7069894c91147cc55b0", "rental_uris": {"android": "https://dc.lft.to/lastmile_qr_scan", "ios": "https://dc.lft.to/lastmile_qr_scan"}, "lat": 38.905117833333335, "bike_id": "b2af59b44733f7069894c91147cc55b0", "is_disabled": 0, "lon": -76.98480433333333, "is_reserved": 0, "fusion_lat": 0.0, "type": "electric_scooter"}, {"fusion_lon": 0.0, "name": "8701adbb6225b8521a46e780d6a5e206", "rental_uris": {"android": "https://dc.lft.to/lastmile_qr_scan", "ios": "https://dc.lft.to/lastmile_qr_scan"}, "lat": 38.907013166666665, "bike_id": "8701adbb6225b8521a46e780d6a5e206", "is_disabled": 0, "lon": -76.98696883333334, "is_reserved": 0, "fusion_lat": 0.0, "type": "electric_scooter"}, {"fusion_lon": 0.0, "name": "920005511edd28443ba61b495a8ce04f", "rental_uris": {"android": "https://dc.lft.to/lastmile_qr_scan", "ios": "https://dc.lft.to/lastmile_qr_scan"}, "lat": 38.93485283333333, "bike_id": "920005511edd28443ba61b495a8ce04f", "is_disabled": 0, "lon": -77.072718, "is_reserved": 0, "fusion_lat": 0.0, "type": "electric_scooter"}, {"fusion_lon": 0.0, "name": "0dadbc6cf14944ab2ecba43b4e4a9b76", "rental_uris": {"android": "https://dc.lft.to/lastmile_qr_scan", "ios": "https://dc.lft.to/lastmile_qr_scan"}, "lat": 38.9244, "bike_id": "0dadbc6cf14944ab2ecba43b4e4a9b76", "is_disabled": 0, "lon": -77.02126866666667, "is_reserved": 0, "fusion_lat": 0.0, "type": "electric_scooter"}, {"fusion_lon": 0.0, "name": "3536b6deb99ee4821aa602cc2e5a4023", "rental_uris": {"android": "https://dc.lft.to/lastmile_qr_scan", "ios": "https://dc.lft.to/lastmile_qr_scan"}, "lat": 38.8648445, "bike_id": "3536b6deb99ee4821aa602cc2e5a4023", "is_disabled": 0, "lon": -76.97743233333334, "is_reserved": 0, "fusion_lat": 0.0, "type": "electric_bike"}, {"fusion_lon": 0.0, "name": "83d56fe2f4b6e695b45f536075212435", "rental_uris": {"android": "https://dc.lft.to/lastmile_qr_scan", "ios": "https://dc.lft.to/lastmile_qr_scan"}, "lat": 38.937613999999996, "bike_id": "83d56fe2f4b6e695b45f536075212435", "is_disabled": 0, "lon": -77.03243283333333, "is_reserved": 0, "fusion_lat": 0.0, "type": "electric_scooter"}, {"fusion_lon": 0.0, "name": "cb6fdf86abd71878b4d094b81add11de", "rental_uris": {"android": "https://dc.lft.to/lastmile_qr_scan", "ios": "https://dc.lft.to/lastmile_qr_scan"}, "lat": 38.90407183333333, "bike_id": "cb6fdf86abd71878b4d094b81add11de", "is_disabled": 0, "lon": -77.04362316666666, "is_reserved": 0, "fusion_lat": 0.0, "type": "electric_scooter"}, {"fusion_lon": 0.0, "name": "f8bc58aa4bc0b923f1f45b608b1ccee8", "rental_uris": {"android": "https://dc.lft.to/lastmile_qr_scan", "ios": "https://dc.lft.to/lastmile_qr_scan"}, "lat": 38.95189383333334, "bike_id": "f8bc58aa4bc0b923f1f45b608b1ccee8", "is_disabled": 0, "lon": -76.99173, "is_reserved": 0, "fusion_lat": 0.0, "type": "electric_scooter"}, {"fusion_lon": 0.0, "name": "dbc023a7be876d50b9179b7e22812c72", "rental_uris": {"android": "https://dc.lft.to/lastmile_qr_scan", "ios": "https://dc.lft.to/lastmile_qr_scan"}, "lat": 38.92054516666666, "bike_id": "dbc023a7be876d50b9179b7e22812c72", "is_disabled": 0, "lon": -77.02307133333333, "is_reserved": 0, "fusion_lat": 0.0, "type": "electric_scooter"}, {"fusion_lon": 0.0, "name": "3c8e523c6a4597b8e487a4f0bec6a75e", "rental_uris": {"android": "https://dc.lft.to/lastmile_qr_scan", "ios": "https://dc.lft.to/lastmile_qr_scan"}, "lat": 38.9164375, "bike_id": "3c8e523c6a4597b8e487a4f0bec6a75e", "is_disabled": 0, "lon": -77.0694845, "is_reserved": 0, "fusion_lat": 0.0, "type": "electric_scooter"}, {"fusion_lon": 0.0, "name": "6751b5634c41d974f1fe9e27a0ed1c8e", "rental_uris": {"android": "https://dc.lft.to/lastmile_qr_scan", "ios": "https://dc.lft.to/lastmile_qr_scan"}, "lat": 38.9155175, "bike_id": "6751b5634c41d974f1fe9e27a0ed1c8e", "is_disabled": 0, "lon": -77.0121565, "is_reserved": 0, "fusion_lat": 0.0, "type": "electric_scooter"}, {"fusion_lon": 0.0, "name": "62a4502dca26f9ffdd245fdee6815591", "rental_uris": {"android": "https://dc.lft.to/lastmile_qr_scan", "ios": "https://dc.lft.to/lastmile_qr_scan"}, "lat": 38.92146, "bike_id": "62a4502dca26f9ffdd245fdee6815591", "is_disabled": 0, "lon": -77.02085966666667, "is_reserved": 0, "fusion_lat": 0.0, "type": "electric_scooter"}, {"fusion_lon": 0.0, "name": "f6a1a2999c68ba5f99a80066f42cf186", "rental_uris": {"android": "https://dc.lft.to/lastmile_qr_scan", "ios": "https://dc.lft.to/lastmile_qr_scan"}, "lat": 38.92291566666667, "bike_id": "f6a1a2999c68ba5f99a80066f42cf186", "is_disabled": 0, "lon": -76.9977205, "is_reserved": 0, "fusion_lat": 0.0, "type": "electric_scooter"}, {"fusion_lon": 0.0, "name": "f79abacd8f3add961c4f95aa19ce7d09", "rental_uris": {"android": "https://dc.lft.to/lastmile_qr_scan", "ios": "https://dc.lft.to/lastmile_qr_scan"}, "lat": 38.943214166666664, "bike_id": "f79abacd8f3add961c4f95aa19ce7d09", "is_disabled": 0, "lon": -77.06133783333334, "is_reserved": 0, "fusion_lat": 0.0, "type": "electric_scooter"}, {"fusion_lon": 0.0, "name": "9947ba2a884233f2bd880a036e6e8d23", "rental_uris": {"android": "https://dc.lft.to/lastmile_qr_scan", "ios": "https://dc.lft.to/lastmile_qr_scan"}, "lat": 38.898878833333335, "bike_id": "9947ba2a884233f2bd880a036e6e8d23", "is_disabled": 0, "lon": -76.97998616666666, "is_reserved": 0, "fusion_lat": 0.0, "type": "electric_scooter"}, {"fusion_lon": 0.0, "name": "7c3595624348a47f5b83feef49733da4", "rental_uris": {"android": "https://dc.lft.to/lastmile_qr_scan", "ios": "https://dc.lft.to/lastmile_qr_scan"}, "lat": 38.926585333333335, "bike_id": "7c3595624348a47f5b83feef49733da4", "is_disabled": 0, "lon": -77.05447166666667, "is_reserved": 0, "fusion_lat": 0.0, "type": "electric_scooter"}, {"fusion_lon": 0.0, "name": "fdb9456d333617afea434a35ec34f584", "rental_uris": {"android": "https://dc.lft.to/lastmile_qr_scan", "ios": "https://dc.lft.to/lastmile_qr_scan"}, "lat": 38.898462333333335, "bike_id": "fdb9456d333617afea434a35ec34f584", "is_disabled": 0, "lon": -77.0280355, "is_reserved": 0, "fusion_lat": 0.0, "type": "electric_scooter"}, {"fusion_lon": 0.0, "name": "251db7165c3b2b19f95a5106559c2fb5", "rental_uris": {"android": "https://dc.lft.to/lastmile_qr_scan", "ios": "https://dc.lft.to/lastmile_qr_scan"}, "lat": 38.94165733333333, "bike_id": "251db7165c3b2b19f95a5106559c2fb5", "is_disabled": 0, "lon": -77.02557133333333, "is_reserved": 0, "fusion_lat": 0.0, "type": "electric_scooter"}, {"fusion_lon": 0.0, "name": "3c81ed533e356408860b0fc02eb2c90b", "rental_uris": {"android": "https://dc.lft.to/lastmile_qr_scan", "ios": "https://dc.lft.to/lastmile_qr_scan"}, "lat": 38.937195, "bike_id": "3c81ed533e356408860b0fc02eb2c90b", "is_disabled": 0, "lon": -77.03286666666666, "is_reserved": 0, "fusion_lat": 0.0, "type": "electric_scooter"}, {"fusion_lon": 0.0, "name": "65d9e31cb665ca5e8373bedfc5aa87e5", "rental_uris": {"android": "https://dc.lft.to/lastmile_qr_scan", "ios": "https://dc.lft.to/lastmile_qr_scan"}, "lat": 38.92064083333333, "bike_id": "65d9e31cb665ca5e8373bedfc5aa87e5", "is_disabled": 0, "lon": -77.03454016666667, "is_reserved": 0, "fusion_lat": 0.0, "type": "electric_scooter"}, {"fusion_lon": 0.0, "name": "6052636da32dd24f069a1d3fa2888792", "rental_uris": {"android": "https://dc.lft.to/lastmile_qr_scan", "ios": "https://dc.lft.to/lastmile_qr_scan"}, "lat": 38.92477483333333, "bike_id": "6052636da32dd24f069a1d3fa2888792", "is_disabled": 0, "lon": -77.02245633333334, "is_reserved": 0, "fusion_lat": 0.0, "type": "electric_scooter"}, {"fusion_lon": 0.0, "name": "1d5a277b3c1a2921ef6fa2bc63cae468", "rental_uris": {"android": "https://dc.lft.to/lastmile_qr_scan", "ios": "https://dc.lft.to/lastmile_qr_scan"}, "lat": 38.917127, "bike_id": "1d5a277b3c1a2921ef6fa2bc63cae468", "is_disabled": 0, "lon": -77.03825, "is_reserved": 0, "fusion_lat": 0.0, "type": "electric_scooter"}, {"fusion_lon": 0.0, "name": "7a0b827de6972ad4395db15ac4cec952", "rental_uris": {"android": "https://dc.lft.to/lastmile_qr_scan", "ios": "https://dc.lft.to/lastmile_qr_scan"}, "lat": 38.909123666666666, "bike_id": "7a0b827de6972ad4395db15ac4cec952", "is_disabled": 0, "lon": -77.072791, "is_reserved": 0, "fusion_lat": 0.0, "type": "electric_scooter"}, {"fusion_lon": 0.0, "name": "e38ae32f4105dd58dd56af46063b906b", "rental_uris": {"android": "https://dc.lft.to/lastmile_qr_scan", "ios": "https://dc.lft.to/lastmile_qr_scan"}, "lat": 38.905047, "bike_id": "e38ae32f4105dd58dd56af46063b906b", "is_disabled": 0, "lon": -77.04064966666667, "is_reserved": 0, "fusion_lat": 0.0, "type": "electric_scooter"}, {"fusion_lon": 0.0, "name": "9800bb40ee487ec39e9d1643cd95cc94", "rental_uris": {"android": "https://dc.lft.to/lastmile_qr_scan", "ios": "https://dc.lft.to/lastmile_qr_scan"}, "lat": 38.924692, "bike_id": "9800bb40ee487ec39e9d1643cd95cc94", "is_disabled": 0, "lon": -77.03936016666667, "is_reserved": 0, "fusion_lat": 0.0, "type": "electric_scooter"}, {"fusion_lon": 0.0, "name": "c76095cef4fad0b4411f2a9f030ef8f0", "rental_uris": {"android": "https://dc.lft.to/lastmile_qr_scan", "ios": "https://dc.lft.to/lastmile_qr_scan"}, "lat": 38.94494233333333, "bike_id": "c76095cef4fad0b4411f2a9f030ef8f0", "is_disabled": 0, "lon": -77.0637925, "is_reserved": 0, "fusion_lat": 0.0, "type": "electric_scooter"}, {"fusion_lon": 0.0, "name": "b1508a671a4b77ad37bb3541e8adbfde", "rental_uris": {"android": "https://dc.lft.to/lastmile_qr_scan", "ios": "https://dc.lft.to/lastmile_qr_scan"}, "lat": 38.921444666666666, "bike_id": "b1508a671a4b77ad37bb3541e8adbfde", "is_disabled": 0, "lon": -77.0436305, "is_reserved": 0, "fusion_lat": 0.0, "type": "electric_scooter"}, {"fusion_lon": 0.0, "name": "b6a23ccadc6d813509b9942c758861af", "rental_uris": {"android": "https://dc.lft.to/lastmile_qr_scan", "ios": "https://dc.lft.to/lastmile_qr_scan"}, "lat": 38.915531666666666, "bike_id": "b6a23ccadc6d813509b9942c758861af", "is_disabled": 0, "lon": -77.03175416666667, "is_reserved": 0, "fusion_lat": 0.0, "type": "electric_scooter"}, {"fusion_lon": 0.0, "name": "a2c961073ab6548840a049c62c9f7545", "rental_uris": {"android": "https://dc.lft.to/lastmile_qr_scan", "ios": "https://dc.lft.to/lastmile_qr_scan"}, "lat": 38.89719616666667, "bike_id": "a2c961073ab6548840a049c62c9f7545", "is_disabled": 0, "lon": -77.03228333333334, "is_reserved": 0, "fusion_lat": 0.0, "type": "electric_scooter"}, {"fusion_lon": 0.0, "name": "81a5e59e10f61fb0c8ea7fc6e88cb0bc", "rental_uris": {"android": "https://dc.lft.to/lastmile_qr_scan", "ios": "https://dc.lft.to/lastmile_qr_scan"}, "lat": 38.899548333333335, "bike_id": "81a5e59e10f61fb0c8ea7fc6e88cb0bc", "is_disabled": 0, "lon": -77.04177516666667, "is_reserved": 0, "fusion_lat": 0.0, "type": "electric_scooter"}, {"fusion_lon": 0.0, "name": "5f1cf289881d94d52f75d7ffae08aa35", "rental_uris": {"android": "https://dc.lft.to/lastmile_qr_scan", "ios": "https://dc.lft.to/lastmile_qr_scan"}, "lat": 38.973146166666666, "bike_id": "5f1cf289881d94d52f75d7ffae08aa35", "is_disabled": 0, "lon": -77.02701666666667, "is_reserved": 0, "fusion_lat": 0.0, "type": "electric_scooter"}, {"fusion_lon": 0.0, "name": "c70dcbe99246543abc297608f06802f1", "rental_uris": {"android": "https://dc.lft.to/lastmile_qr_scan", "ios": "https://dc.lft.to/lastmile_qr_scan"}, "lat": 38.904222833333336, "bike_id": "c70dcbe99246543abc297608f06802f1", "is_disabled": 0, "lon": -77.02598783333333, "is_reserved": 0, "fusion_lat": 0.0, "type": "electric_scooter"}, {"fusion_lon": 0.0, "name": "0c4ed3e8b5be0ae8783ab3ed41698acb", "rental_uris": {"android": "https://dc.lft.to/lastmile_qr_scan", "ios": "https://dc.lft.to/lastmile_qr_scan"}, "lat": 38.92672616666667, "bike_id": "0c4ed3e8b5be0ae8783ab3ed41698acb", "is_disabled": 0, "lon": -77.01512683333333, "is_reserved": 0, "fusion_lat": 0.0, "type": "electric_scooter"}, {"fusion_lon": 0.0, "name": "92e727dcdb6e158622526413028d12d4", "rental_uris": {"android": "https://dc.lft.to/lastmile_qr_scan", "ios": "https://dc.lft.to/lastmile_qr_scan"}, "lat": 38.937831, "bike_id": "92e727dcdb6e158622526413028d12d4", "is_disabled": 0, "lon": -77.03264283333333, "is_reserved": 0, "fusion_lat": 0.0, "type": "electric_scooter"}, {"fusion_lon": 0.0, "name": "bb250953a18ac9c2c7d8c408ac41ea30", "rental_uris": {"android": "https://dc.lft.to/lastmile_qr_scan", "ios": "https://dc.lft.to/lastmile_qr_scan"}, "lat": 38.90117866666667, "bike_id": "bb250953a18ac9c2c7d8c408ac41ea30", "is_disabled": 0, "lon": -77.02202016666666, "is_reserved": 0, "fusion_lat": 0.0, "type": "electric_scooter"}, {"fusion_lon": 0.0, "name": "653778ffbc348834ccd50681dfc257ca", "rental_uris": {"android": "https://dc.lft.to/lastmile_qr_scan", "ios": "https://dc.lft.to/lastmile_qr_scan"}, "lat": 38.924161, "bike_id": "653778ffbc348834ccd50681dfc257ca", "is_disabled": 0, "lon": -77.02010483333333, "is_reserved": 0, "fusion_lat": 0.0, "type": "electric_scooter"}, {"fusion_lon": 0.0, "name": "27cd19872076b34713cdb512c10aa104", "rental_uris": {"android": "https://dc.lft.to/lastmile_qr_scan", "ios": "https://dc.lft.to/lastmile_qr_scan"}, "lat": 38.91180416666667, "bike_id": "27cd19872076b34713cdb512c10aa104", "is_disabled": 0, "lon": -77.01060016666666, "is_reserved": 0, "fusion_lat": 0.0, "type": "electric_scooter"}, {"fusion_lon": 0.0, "name": "b8cee99f8c281f3ce9ec5088ff6d0255", "rental_uris": {"android": "https://dc.lft.to/lastmile_qr_scan", "ios": "https://dc.lft.to/lastmile_qr_scan"}, "lat": 38.941896, "bike_id": "b8cee99f8c281f3ce9ec5088ff6d0255", "is_disabled": 0, "lon": -77.02481083333333, "is_reserved": 0, "fusion_lat": 0.0, "type": "electric_scooter"}, {"fusion_lon": 0.0, "name": "834b4cffa0b7a6eb3fcbcdeb41a667c2", "rental_uris": {"android": "https://dc.lft.to/lastmile_qr_scan", "ios": "https://dc.lft.to/lastmile_qr_scan"},