{"data": {"bikes": [{"lon": -77.0087975, "bike_id": "cbbaa954767c308d5f9189b3d084e0c4", "lat": 38.9179085, "fusion_lon": 0.0, "fusion_lat": 0.0, "type": "electric_scooter", "name": "cbbaa954767c308d5f9189b3d084e0c4", "is_disabled": 0, "rental_uris": {"ios": "https://dc.lft.to/lastmile_qr_scan", "android": "https://dc.lft.to/lastmile_qr_scan"}, "is_reserved": 0}, {"lon": -76.93176516666666, "bike_id": "6f9806511382a32f5a2dbfc52dfccc72", "lat": 38.898858, "fusion_lon": 0.0, "fusion_lat": 0.0, "type": "electric_scooter", "name": "6f9806511382a32f5a2dbfc52dfccc72", "is_disabled": 0, "rental_uris": {"ios": "https://dc.lft.to/lastmile_qr_scan", "android": "https://dc.lft.to/lastmile_qr_scan"}, "is_reserved": 0}, {"lon": -77.00757883333333, "bike_id": "85388c29e5dae74952f9e8a830fa4cc1", "lat": 38.89769616666667, "fusion_lon": 0.0, "fusion_lat": 0.0, "type": "electric_bike", "name": "85388c29e5dae74952f9e8a830fa4cc1", "is_disabled": 0, "rental_uris": {"ios": "https://dc.lft.to/lastmile_qr_scan", "android": "https://dc.lft.to/lastmile_qr_scan"}, "is_reserved": 0}, {"lon": -77.03209216666667, "bike_id": "e806426367bbcb3d7b15e916ca2919c9", "lat": 38.93865783333333, "fusion_lon": 0.0, "fusion_lat": 0.0, "type": "electric_scooter", "name": "e806426367bbcb3d7b15e916ca2919c9", "is_disabled": 0, "rental_uris": {"ios": "https://dc.lft.to/lastmile_qr_scan", "android": "https://dc.lft.to/lastmile_qr_scan"}, "is_reserved": 0}, {"lon": -77.01396966666667, "bike_id": "90ed78735d044a5196e1a7fa0ea7f9ff", "lat": 38.92866633333333, "fusion_lon": 0.0, "fusion_lat": 0.0, "type": "electric_scooter", "name": "90ed78735d044a5196e1a7fa0ea7f9ff", "is_disabled": 0, "rental_uris": {"ios": "https://dc.lft.to/lastmile_qr_scan", "android": "https://dc.lft.to/lastmile_qr_scan"}, "is_reserved": 0}, {"lon": -76.9871605, "bike_id": "7a8ca78c2de5e6c3cca0a333ff73d35c", "lat": 38.86708733333333, "fusion_lon": 0.0, "fusion_lat": 0.0, "type": "electric_scooter", "name": "7a8ca78c2de5e6c3cca0a333ff73d35c", "is_disabled": 0, "rental_uris": {"ios": "https://dc.lft.to/lastmile_qr_scan", "android": "https://dc.lft.to/lastmile_qr_scan"}, "is_reserved": 0}, {"lon": -77.0308215, "bike_id": "ccb620925d12a936db793ffc55473566", "lat": 38.935297, "fusion_lon": 0.0, "fusion_lat": 0.0, "type": "electric_scooter", "name": "ccb620925d12a936db793ffc55473566", "is_disabled": 0, "rental_uris": {"ios": "https://dc.lft.to/lastmile_qr_scan", "android": "https://dc.lft.to/lastmile_qr_scan"}, "is_reserved": 0}, {"lon": -77.02200966666666, "bike_id": "c2d0894f9befd77df81a089610826511", "lat": 38.91041466666667, "fusion_lon": 0.0, "fusion_lat": 0.0, "type": "electric_bike", "name": "c2d0894f9befd77df81a089610826511", "is_disabled": 0, "rental_uris": {"ios": "https://dc.lft.to/lastmile_qr_scan", "android": "https://dc.lft.to/lastmile_qr_scan"}, "is_reserved": 0}, {"lon": -77.060222, "bike_id": "b7d2acbcc31e6c130a97e18fbdb09626", "lat": 38.90511266666667, "fusion_lon": 0.0, "fusion_lat": 0.0, "type": "electric_scooter", "name": "b7d2acbcc31e6c130a97e18fbdb09626", "is_disabled": 0, "rental_uris": {"ios": "https://dc.lft.to/lastmile_qr_scan", "android": "https://dc.lft.to/lastmile_qr_scan"}, "is_reserved": 0}, {"lon": -77.03181033333334, "bike_id": "0f3e2331827a4bca94100e96bd5093ef", "lat": 38.887346, "fusion_lon": 0.0, "fusion_lat": 0.0, "type": "electric_scooter", "name": "0f3e2331827a4bca94100e96bd5093ef", "is_disabled": 0, "rental_uris": {"ios": "https://dc.lft.to/lastmile_qr_scan", "android": "https://dc.lft.to/lastmile_qr_scan"}, "is_reserved": 0}, {"lon": -77.0547695, "bike_id": "8167d6f8ba63b7501852788800ca692b", "lat": 38.9355165, "fusion_lon": 0.0, "fusion_lat": 0.0, "type": "electric_scooter", "name": "8167d6f8ba63b7501852788800ca692b", "is_disabled": 0, "rental_uris": {"ios": "https://dc.lft.to/lastmile_qr_scan", "android": "https://dc.lft.to/lastmile_qr_scan"}, "is_reserved": 0}, {"lon": -77.00151983333333, "bike_id": "ccae120479f7be308e355f652c4a836a", "lat": 38.84281266666667, "fusion_lon": 0.0, "fusion_lat": 0.0, "type": "electric_scooter", "name": "ccae120479f7be308e355f652c4a836a", "is_disabled": 0, "rental_uris": {"ios": "https://dc.lft.to/lastmile_qr_scan", "android": "https://dc.lft.to/lastmile_qr_scan"}, "is_reserved": 0}, {"lon": -77.02145666666667, "bike_id": "4ad7364c04009e35267d18ff06d67088", "lat": 38.89493566666667, "fusion_lon": 0.0, "fusion_lat": 0.0, "type": "electric_scooter", "name": "4ad7364c04009e35267d18ff06d67088", "is_disabled": 0, "rental_uris": {"ios": "https://dc.lft.to/lastmile_qr_scan", "android": "https://dc.lft.to/lastmile_qr_scan"}, "is_reserved": 0}, {"lon": -77.0313345, "bike_id": "5cf85701678b3d4e7761c69c262fe0cf", "lat": 38.88423216666666, "fusion_lon": 0.0, "fusion_lat": 0.0, "type": "electric_scooter", "name": "5cf85701678b3d4e7761c69c262fe0cf", "is_disabled": 0, "rental_uris": {"ios": "https://dc.lft.to/lastmile_qr_scan", "android": "https://dc.lft.to/lastmile_qr_scan"}, "is_reserved": 0}, {"lon": -77.02696033333334, "bike_id": "d30f3856feedbe524d862a4daf8ebd45", "lat": 38.908502166666665, "fusion_lon": 0.0, "fusion_lat": 0.0, "type": "electric_scooter", "name": "d30f3856feedbe524d862a4daf8ebd45", "is_disabled": 0, "rental_uris": {"ios": "https://dc.lft.to/lastmile_qr_scan", "android": "https://dc.lft.to/lastmile_qr_scan"}, "is_reserved": 0}, {"lon": -76.99183133333334, "bike_id": "844ab8b981c19a8f0f187debf50ae44f", "lat": 38.90835783333333, "fusion_lon": 0.0, "fusion_lat": 0.0, "type": "electric_scooter", "name": "844ab8b981c19a8f0f187debf50ae44f", "is_disabled": 0, "rental_uris": {"ios": "https://dc.lft.to/lastmile_qr_scan", "android": "https://dc.lft.to/lastmile_qr_scan"}, "is_reserved": 0}, {"lon": -77.0198435, "bike_id": "fd02109725dd4174a08a50c25942add4", "lat": 38.960331833333335, "fusion_lon": 0.0, "fusion_lat": 0.0, "type": "electric_scooter", "name": "fd02109725dd4174a08a50c25942add4", "is_disabled": 0, "rental_uris": {"ios": "https://dc.lft.to/lastmile_qr_scan", "android": "https://dc.lft.to/lastmile_qr_scan"}, "is_reserved": 0}, {"lon": -76.98703216666667, "bike_id": "2637dd3e4965a087cd753f45d450bae5", "lat": 38.867065833333335, "fusion_lon": 0.0, "fusion_lat": 0.0, "type": "electric_scooter", "name": "2637dd3e4965a087cd753f45d450bae5", "is_disabled": 0, "rental_uris": {"ios": "https://dc.lft.to/lastmile_qr_scan", "android": "https://dc.lft.to/lastmile_qr_scan"}, "is_reserved": 0}, {"lon": -77.027955, "bike_id": "47551c41c2cbc363628473e6665694f5", "lat": 38.8952855, "fusion_lon": 0.0, "fusion_lat": 0.0, "type": "electric_scooter", "name": "47551c41c2cbc363628473e6665694f5", "is_disabled": 0, "rental_uris": {"ios": "https://dc.lft.to/lastmile_qr_scan", "android": "https://dc.lft.to/lastmile_qr_scan"}, "is_reserved": 0}, {"lon": -77.06013316666666, "bike_id": "3d057e656c56fd8c145d48d79fcb9c95", "lat": 38.90118483333333, "fusion_lon": 0.0, "fusion_lat": 0.0, "type": "electric_scooter", "name": "3d057e656c56fd8c145d48d79fcb9c95", "is_disabled": 0, "rental_uris": {"ios": "https://dc.lft.to/lastmile_qr_scan", "android": "https://dc.lft.to/lastmile_qr_scan"}, "is_reserved": 0}, {"lon": -76.99901183333333, "bike_id": "bf12f2c2ac44484c117d7bd9c6f0dad8", "lat": 38.909617833333336, "fusion_lon": 0.0, "fusion_lat": 0.0, "type": "electric_scooter", "name": "bf12f2c2ac44484c117d7bd9c6f0dad8", "is_disabled": 0, "rental_uris": {"ios": "https://dc.lft.to/lastmile_qr_scan", "android": "https://dc.lft.to/lastmile_qr_scan"}, "is_reserved": 0}, {"lon": -77.02955783333333, "bike_id": "fda180082fca65748e9520efe6fa9f8e", "lat": 38.90655683333333, "fusion_lon": 0.0, "fusion_lat": 0.0, "type": "electric_scooter", "name": "fda180082fca65748e9520efe6fa9f8e", "is_disabled": 0, "rental_uris": {"ios": "https://dc.lft.to/lastmile_qr_scan", "android": "https://dc.lft.to/lastmile_qr_scan"}, "is_reserved": 0}, {"lon": -77.04879533333333, "bike_id": "f14481a76c9ddee64c7233fc411a9a76", "lat": 38.892363333333336, "fusion_lon": 0.0, "fusion_lat": 0.0, "type": "electric_scooter", "name": "f14481a76c9ddee64c7233fc411a9a76", "is_disabled": 0, "rental_uris": {"ios": "https://dc.lft.to/lastmile_qr_scan", "android": "https://dc.lft.to/lastmile_qr_scan"}, "is_reserved": 0}, {"lon": -77.02949166666667, "bike_id": "8c0026c5b61d75ad422debc1269a0d84", "lat": 38.9171735, "fusion_lon": 0.0, "fusion_lat": 0.0, "type": "electric_scooter", "name": "8c0026c5b61d75ad422debc1269a0d84", "is_disabled": 0, "rental_uris": {"ios": "https://dc.lft.to/lastmile_qr_scan", "android": "https://dc.lft.to/lastmile_qr_scan"}, "is_reserved": 0}, {"lon": -77.025349, "bike_id": "20c6b78e6cdda037029b98d000265cbb", "lat": 38.90571283333333, "fusion_lon": 0.0, "fusion_lat": 0.0, "type": "electric_scooter", "name": "20c6b78e6cdda037029b98d000265cbb", "is_disabled": 0, "rental_uris": {"ios": "https://dc.lft.to/lastmile_qr_scan", "android": "https://dc.lft.to/lastmile_qr_scan"}, "is_reserved": 0}, {"lon": -77.02231083333334, "bike_id": "fcdd219410350d1373c4545a5fcc8f75", "lat": 38.96203766666667, "fusion_lon": 0.0, "fusion_lat": 0.0, "type": "electric_scooter", "name": "fcdd219410350d1373c4545a5fcc8f75", "is_disabled": 0, "rental_uris": {"ios": "https://dc.lft.to/lastmile_qr_scan", "android": "https://dc.lft.to/lastmile_qr_scan"}, "is_reserved": 0}, {"lon": -77.02198933333334, "bike_id": "1c037336d5cf8d970c0c17e58e885778", "lat": 38.90126633333333, "fusion_lon": 0.0, "fusion_lat": 0.0, "type": "electric_scooter", "name": "1c037336d5cf8d970c0c17e58e885778", "is_disabled": 0, "rental_uris": {"ios": "https://dc.lft.to/lastmile_qr_scan", "android": "https://dc.lft.to/lastmile_qr_scan"}, "is_reserved": 0}, {"lon": -77.02727266666666, "bike_id": "f1c2d36290fa51f22e8d748b8006cbf0", "lat": 38.8979035, "fusion_lon": 0.0, "fusion_lat": 0.0, "type": "electric_scooter", "name": "f1c2d36290fa51f22e8d748b8006cbf0", "is_disabled": 0, "rental_uris": {"ios": "https://dc.lft.to/lastmile_qr_scan", "android": "https://dc.lft.to/lastmile_qr_scan"}, "is_reserved": 0}, {"lon": -77.05030116666667, "bike_id": "c32b6519bd5319f773610dfb5df84f39", "lat": 38.90534266666667, "fusion_lon": 0.0, "fusion_lat": 0.0, "type": "electric_scooter", "name": "c32b6519bd5319f773610dfb5df84f39", "is_disabled": 0, "rental_uris": {"ios": "https://dc.lft.to/lastmile_qr_scan", "android": "https://dc.lft.to/lastmile_qr_scan"}, "is_reserved": 0}, {"lon": -76.98883733333334, "bike_id": "5988510df547f36281efb978e8f90214", "lat": 38.8666085, "fusion_lon": 0.0, "fusion_lat": 0.0, "type": "electric_scooter", "name": "5988510df547f36281efb978e8f90214", "is_disabled": 0, "rental_uris": {"ios": "https://dc.lft.to/lastmile_qr_scan", "android": "https://dc.lft.to/lastmile_qr_scan"}, "is_reserved": 0}, {"lon": -77.03207333333333, "bike_id": "99200bbf6ac5e1017935b3ceb653bb1c", "lat": 38.89237116666666, "fusion_lon": 0.0, "fusion_lat": 0.0, "type": "electric_scooter", "name": "99200bbf6ac5e1017935b3ceb653bb1c", "is_disabled": 0, "rental_uris": {"ios": "https://dc.lft.to/lastmile_qr_scan", "android": "https://dc.lft.to/lastmile_qr_scan"}, "is_reserved": 0}, {"lon": -77.030894, "bike_id": "9a1fa0da7c171dc1c116af8cba68adef", "lat": 38.897302, "fusion_lon": 0.0, "fusion_lat": 0.0, "type": "electric_scooter", "name": "9a1fa0da7c171dc1c116af8cba68adef", "is_disabled": 0, "rental_uris": {"ios": "https://dc.lft.to/lastmile_qr_scan", "android": "https://dc.lft.to/lastmile_qr_scan"}, "is_reserved": 0}, {"lon": -77.0327145, "bike_id": "69f14236631d2d3cafd1ebf00d5735e1", "lat": 38.9014415, "fusion_lon": 0.0, "fusion_lat": 0.0, "type": "electric_scooter", "name": "69f14236631d2d3cafd1ebf00d5735e1", "is_disabled": 0, "rental_uris": {"ios": "https://dc.lft.to/lastmile_qr_scan", "android": "https://dc.lft.to/lastmile_qr_scan"}, "is_reserved": 0}, {"lon": -77.02581283333333, "bike_id": "166221682ab00adc6a0e79a32d126d3f", "lat": 38.88382583333333, "fusion_lon": 0.0, "fusion_lat": 0.0, "type": "electric_scooter", "name": "166221682ab00adc6a0e79a32d126d3f", "is_disabled": 0, "rental_uris": {"ios": "https://dc.lft.to/lastmile_qr_scan", "android": "https://dc.lft.to/lastmile_qr_scan"}, "is_reserved": 0}, {"lon": -77.00520533333334, "bike_id": "236224ae7dec0c297100aa215c315efc", "lat": 38.91482233333333, "fusion_lon": 0.0, "fusion_lat": 0.0, "type": "electric_bike", "name": "236224ae7dec0c297100aa215c315efc", "is_disabled": 0, "rental_uris": {"ios": "https://dc.lft.to/lastmile_qr_scan", "android": "https://dc.lft.to/lastmile_qr_scan"}, "is_reserved": 0}, {"lon": -77.02153333333334, "bike_id": "29647b8af5de96b4679b651afac57a8b", "lat": 38.8972435, "fusion_lon": 0.0, "fusion_lat": 0.0, "type": "electric_scooter", "name": "29647b8af5de96b4679b651afac57a8b", "is_disabled": 0, "rental_uris": {"ios": "https://dc.lft.to/lastmile_qr_scan", "android": "https://dc.lft.to/lastmile_qr_scan"}, "is_reserved": 0}, {"lon": -77.02573983333333, "bike_id": "01a61360174876fa4fb8be0384537a7d", "lat": 38.8922305, "fusion_lon": 0.0, "fusion_lat": 0.0, "type": "electric_scooter", "name": "01a61360174876fa4fb8be0384537a7d", "is_disabled": 0, "rental_uris": {"ios": "https://dc.lft.to/lastmile_qr_scan", "android": "https://dc.lft.to/lastmile_qr_scan"}, "is_reserved": 0}, {"lon": -77.0325955, "bike_id": "5aee5d154bbd30d209f6ec7571679e2a", "lat": 38.939194666666666, "fusion_lon": 0.0, "fusion_lat": 0.0, "type": "electric_scooter", "name": "5aee5d154bbd30d209f6ec7571679e2a", "is_disabled": 0, "rental_uris": {"ios": "https://dc.lft.to/lastmile_qr_scan", "android": "https://dc.lft.to/lastmile_qr_scan"}, "is_reserved": 0}, {"lon": -77.000302, "bike_id": "d5fc091ce7067ce824cad15c4cff8d36", "lat": 38.908101333333335, "fusion_lon": 0.0, "fusion_lat": 0.0, "type": "electric_scooter", "name": "d5fc091ce7067ce824cad15c4cff8d36", "is_disabled": 0, "rental_uris": {"ios": "https://dc.lft.to/lastmile_qr_scan", "android": "https://dc.lft.to/lastmile_qr_scan"}, "is_reserved": 0}, {"lon": -77.03080433333334, "bike_id": "23ffbdfe82dc95cc17e7c2a950611606", "lat": 38.8803845, "fusion_lon": 0.0, "fusion_lat": 0.0, "type": "electric_scooter", "name": "23ffbdfe82dc95cc17e7c2a950611606", "is_disabled": 0, "rental_uris": {"ios": "https://dc.lft.to/lastmile_qr_scan", "android": "https://dc.lft.to/lastmile_qr_scan"}, "is_reserved": 0}, {"lon": -77.0427925, "bike_id": "3fea71be7cf8048b2f7e6d3643ae45fe", "lat": 38.93416933333334, "fusion_lon": 0.0, "fusion_lat": 0.0, "type": "electric_scooter", "name": "3fea71be7cf8048b2f7e6d3643ae45fe", "is_disabled": 0, "rental_uris": {"ios": "https://dc.lft.to/lastmile_qr_scan", "android": "https://dc.lft.to/lastmile_qr_scan"}, "is_reserved": 0}, {"lon": -77.03140883333333, "bike_id": "025a4be97666a1adcdab91a3a1e8dd2c", "lat": 38.92967633333333, "fusion_lon": 0.0, "fusion_lat": 0.0, "type": "electric_scooter", "name": "025a4be97666a1adcdab91a3a1e8dd2c", "is_disabled": 0, "rental_uris": {"ios": "https://dc.lft.to/lastmile_qr_scan", "android": "https://dc.lft.to/lastmile_qr_scan"}, "is_reserved": 0}, {"lon": -77.03776683333334, "bike_id": "95a3200b72e2d7fc8dee06895036692f", "lat": 38.9296505, "fusion_lon": 0.0, "fusion_lat": 0.0, "type": "electric_scooter", "name": "95a3200b72e2d7fc8dee06895036692f", "is_disabled": 0, "rental_uris": {"ios": "https://dc.lft.to/lastmile_qr_scan", "android": "https://dc.lft.to/lastmile_qr_scan"}, "is_reserved": 0}, {"lon": -76.9877555, "bike_id": "e0d4ebe915d6c9373a5af8879055c640", "lat": 38.86609266666667, "fusion_lon": 0.0, "fusion_lat": 0.0, "type": "electric_bike", "name": "e0d4ebe915d6c9373a5af8879055c640", "is_disabled": 0, "rental_uris": {"ios": "https://dc.lft.to/lastmile_qr_scan", "android": "https://dc.lft.to/lastmile_qr_scan"}, "is_reserved": 0}, {"lon": -76.98939083333333, "bike_id": "b429ce7485abc80d1e1545342952d6d1", "lat": 38.918353833333335, "fusion_lon": 0.0, "fusion_lat": 0.0, "type": "electric_scooter", "name": "b429ce7485abc80d1e1545342952d6d1", "is_disabled": 0, "rental_uris": {"ios": "https://dc.lft.to/lastmile_qr_scan", "android": "https://dc.lft.to/lastmile_qr_scan"}, "is_reserved": 0}, {"lon": -77.04247833333334, "bike_id": "07506c55c51cbb4a944250c6cf2fbe15", "lat": 38.909602666666665, "fusion_lon": 0.0, "fusion_lat": 0.0, "type": "electric_scooter", "name": "07506c55c51cbb4a944250c6cf2fbe15", "is_disabled": 0, "rental_uris": {"ios": "https://dc.lft.to/lastmile_qr_scan", "android": "https://dc.lft.to/lastmile_qr_scan"}, "is_reserved": 0}, {"lon": -77.02567483333333, "bike_id": "d7b434326b2e9363e864c871e59c5113", "lat": 38.913424666666664, "fusion_lon": 0.0, "fusion_lat": 0.0, "type": "electric_scooter", "name": "d7b434326b2e9363e864c871e59c5113", "is_disabled": 0, "rental_uris": {"ios": "https://dc.lft.to/lastmile_qr_scan", "android": "https://dc.lft.to/lastmile_qr_scan"}, "is_reserved": 0}, {"lon": -77.04155883333334, "bike_id": "27d9413d3370d9408da2730358fa4e65", "lat": 38.917976333333336, "fusion_lon": 0.0, "fusion_lat": 0.0, "type": "electric_scooter", "name": "27d9413d3370d9408da2730358fa4e65", "is_disabled": 0, "rental_uris": {"ios": "https://dc.lft.to/lastmile_qr_scan", "android": "https://dc.lft.to/lastmile_qr_scan"}, "is_reserved": 0}, {"lon": -76.9996455, "bike_id": "3eb6c5414681c45f0d0563d2035a45ed", "lat": 38.9085805, "fusion_lon": 0.0, "fusion_lat": 0.0, "type": "electric_scooter", "name": "3eb6c5414681c45f0d0563d2035a45ed", "is_disabled": 0, "rental_uris": {"ios": "https://dc.lft.to/lastmile_qr_scan", "android": "https://dc.lft.to/lastmile_qr_scan"}, "is_reserved": 0}, {"lon": -77.0503355, "bike_id": "6734f3b15e1f5e33c6a2a224f28473c3", "lat": 38.90540933333333, "fusion_lon": 0.0, "fusion_lat": 0.0, "type": "electric_scooter", "name": "6734f3b15e1f5e33c6a2a224f28473c3", "is_disabled": 0, "rental_uris": {"ios": "https://dc.lft.to/lastmile_qr_scan", "android": "https://dc.lft.to/lastmile_qr_scan"}, "is_reserved": 0}, {"lon": -77.045126, "bike_id": "5a749c131fd75cfc929228655da7ce18", "lat": 38.8860425, "fusion_lon": 0.0, "fusion_lat": 0.0, "type": "electric_scooter", "name": "5a749c131fd75cfc929228655da7ce18", "is_disabled": 0, "rental_uris": {"ios": "https://dc.lft.to/lastmile_qr_scan", "android": "https://dc.lft.to/lastmile_qr_scan"}, "is_reserved": 0}, {"lon": -77.0255, "bike_id": "f802fb3957596027ffa6e6cb062f7427", "lat": 38.941004166666666, "fusion_lon": 0.0, "fusion_lat": 0.0, "type": "electric_scooter", "name": "f802fb3957596027ffa6e6cb062f7427", "is_disabled": 0, "rental_uris": {"ios": "https://dc.lft.to/lastmile_qr_scan", "android": "https://dc.lft.to/lastmile_qr_scan"}, "is_reserved": 0}, {"lon": -76.98406683333333, "bike_id": "5f7a5805ed02b783c0bed2cc0ca7f27b", "lat": 38.9063155, "fusion_lon": 0.0, "fusion_lat": 0.0, "type": "electric_scooter", "name": "5f7a5805ed02b783c0bed2cc0ca7f27b", "is_disabled": 0, "rental_uris": {"ios": "https://dc.lft.to/lastmile_qr_scan", "android": "https://dc.lft.to/lastmile_qr_scan"}, "is_reserved": 0}, {"lon": -77.02624066666667, "bike_id": "1e4289b55a031d9839d56922d454479d", "lat": 38.933566166666665, "fusion_lon": 0.0, "fusion_lat": 0.0, "type": "electric_scooter", "name": "1e4289b55a031d9839d56922d454479d", "is_disabled": 0, "rental_uris": {"ios": "https://dc.lft.to/lastmile_qr_scan", "android": "https://dc.lft.to/lastmile_qr_scan"}, "is_reserved": 0}, {"lon": -77.04692933333334, "bike_id": "d4ebad07ea1d821f68eb8b27cfa3e617", "lat": 38.897437833333335, "fusion_lon": 0.0, "fusion_lat": 0.0, "type": "electric_scooter", "name": "d4ebad07ea1d821f68eb8b27cfa3e617", "is_disabled": 0, "rental_uris": {"ios": "https://dc.lft.to/lastmile_qr_scan", "android": "https://dc.lft.to/lastmile_qr_scan"}, "is_reserved": 0}, {"lon": -77.03173816666667, "bike_id": "df38c91e2737d438e2e947d6498b11d1", "lat": 38.89223916666667, "fusion_lon": 0.0, "fusion_lat": 0.0, "type": "electric_scooter", "name": "df38c91e2737d438e2e947d6498b11d1", "is_disabled": 0, "rental_uris": {"ios": "https://dc.lft.to/lastmile_qr_scan", "android": "https://dc.lft.to/lastmile_qr_scan"}, "is_reserved": 0}, {"lon": -76.99185883333334, "bike_id": "84bb2170c2325447278c68bc5b2f3f45", "lat": 38.889755666666666, "fusion_lon": 0.0, "fusion_lat": 0.0, "type": "electric_scooter", "name": "84bb2170c2325447278c68bc5b2f3f45", "is_disabled": 0, "rental_uris": {"ios": "https://dc.lft.to/lastmile_qr_scan", "android": "https://dc.lft.to/lastmile_qr_scan"}, "is_reserved": 0}, {"lon": -77.012364, "bike_id": "221ce47536bb389fd7e70a278f7a3c82", "lat": 38.89295633333333, "fusion_lon": 0.0, "fusion_lat": 0.0, "type": "electric_scooter", "name": "221ce47536bb389fd7e70a278f7a3c82", "is_disabled": 0, "rental_uris": {"ios": "https://dc.lft.to/lastmile_qr_scan", "android": "https://dc.lft.to/lastmile_qr_scan"}, "is_reserved": 0}, {"lon": -77.01625083333333, "bike_id": "6db5451fd58f516a9813ff5cae6a305f", "lat": 38.905697, "fusion_lon": 0.0, "fusion_lat": 0.0, "type": "electric_scooter", "name": "6db5451fd58f516a9813ff5cae6a305f", "is_disabled": 0, "rental_uris": {"ios": "https://dc.lft.to/lastmile_qr_scan", "android": "https://dc.lft.to/lastmile_qr_scan"}, "is_reserved": 0}, {"lon": -77.02697233333333, "bike_id": "77d9285e8c1a595f43525182caed8d99", "lat": 38.917844333333335, "fusion_lon": 0.0, "fusion_lat": 0.0, "type": "electric_scooter", "name": "77d9285e8c1a595f43525182caed8d99", "is_disabled": 0, "rental_uris": {"ios": "https://dc.lft.to/lastmile_qr_scan", "android": "https://dc.lft.to/lastmile_qr_scan"}, "is_reserved": 0}, {"lon": -77.03552383333333, "bike_id": "21b5615c89d687514869414af87635d0", "lat": 38.908443166666665, "fusion_lon": 0.0, "fusion_lat": 0.0, "type": "electric_scooter", "name": "21b5615c89d687514869414af87635d0", "is_disabled": 0, "rental_uris": {"ios": "https://dc.lft.to/lastmile_qr_scan", "android": "https://dc.lft.to/lastmile_qr_scan"}, "is_reserved": 0}, {"lon": -77.02184583333333, "bike_id": "73d63ed2dd3a13d54cc96d42b36d07be", "lat": 38.90209333333333, "fusion_lon": 0.0, "fusion_lat": 0.0, "type": "electric_scooter", "name": "73d63ed2dd3a13d54cc96d42b36d07be", "is_disabled": 0, "rental_uris": {"ios": "https://dc.lft.to/lastmile_qr_scan", "android": "https://dc.lft.to/lastmile_qr_scan"}, "is_reserved": 0}, {"lon": -77.06288033333334, "bike_id": "f9d1a4257f972d7cc168751c2a811230", "lat": 38.9053915, "fusion_lon": 0.0, "fusion_lat": 0.0, "type": "electric_scooter", "name": "f9d1a4257f972d7cc168751c2a811230", "is_disabled": 0, "rental_uris": {"ios": "https://dc.lft.to/lastmile_qr_scan", "android": "https://dc.lft.to/lastmile_qr_scan"}, "is_reserved": 0}, {"lon": -77.02796466666666, "bike_id": "fa30b358fa85cb1c999fbf056baf9157", "lat": 38.930226, "fusion_lon": 0.0, "fusion_lat": 0.0, "type": "electric_scooter", "name": "fa30b358fa85cb1c999fbf056baf9157", "is_disabled": 0, "rental_uris": {"ios": "https://dc.lft.to/lastmile_qr_scan", "android": "https://dc.lft.to/lastmile_qr_scan"}, "is_reserved": 0}, {"lon": -77.0775685, "bike_id": "61e3500475b8ecf2e894539c282d8d93", "lat": 38.925616833333336, "fusion_lon": 0.0, "fusion_lat": 0.0, "type": "electric_scooter", "name": "61e3500475b8ecf2e894539c282d8d93", "is_disabled": 0, "rental_uris": {"ios": "https://dc.lft.to/lastmile_qr_scan", "android": "https://dc.lft.to/lastmile_qr_scan"}, "is_reserved": 0}, {"lon": -77.0249845, "bike_id": "d1fae016ca6df6fd20bb4b581f3a775a", "lat": 38.9191625, "fusion_lon": 0.0, "fusion_lat": 0.0, "type": "electric_scooter", "name": "d1fae016ca6df6fd20bb4b581f3a775a", "is_disabled": 0, "rental_uris": {"ios": "https://dc.lft.to/lastmile_qr_scan", "android": "https://dc.lft.to/lastmile_qr_scan"}, "is_reserved": 0}, {"lon": -77.03193283333333, "bike_id": "edd249b19625983edfa7e8d0f27c9800", "lat": 38.908302, "fusion_lon": 0.0, "fusion_lat": 0.0, "type": "electric_scooter", "name": "edd249b19625983edfa7e8d0f27c9800", "is_disabled": 0, "rental_uris": {"ios": "https://dc.lft.to/lastmile_qr_scan", "android": "https://dc.lft.to/lastmile_qr_scan"}, "is_reserved": 0}, {"lon": -77.04167616666666, "bike_id": "7244a3b5440f578dd3c3b7d40ebe2bd6", "lat": 38.912554666666665, "fusion_lon": 0.0, "fusion_lat": 0.0, "type": "electric_scooter", "name": "7244a3b5440f578dd3c3b7d40ebe2bd6", "is_disabled": 0, "rental_uris": {"ios": "https://dc.lft.to/lastmile_qr_scan", "android": "https://dc.lft.to/lastmile_qr_scan"}, "is_reserved": 0}, {"lon": -77.03346633333334, "bike_id": "38d96188b0d89e1d03a61d6e558c175c", "lat": 38.89901533333333, "fusion_lon": 0.0, "fusion_lat": 0.0, "type": "electric_scooter", "name": "38d96188b0d89e1d03a61d6e558c175c", "is_disabled": 0, "rental_uris": {"ios": "https://dc.lft.to/lastmile_qr_scan", "android": "https://dc.lft.to/lastmile_qr_scan"}, "is_reserved": 0}, {"lon": -76.93735083333334, "bike_id": "01ff3c956328f2c0c365c57e9870ef95", "lat": 38.890183666666665, "fusion_lon": 0.0, "fusion_lat": 0.0, "type": "electric_scooter", "name": "01ff3c956328f2c0c365c57e9870ef95", "is_disabled": 0, "rental_uris": {"ios": "https://dc.lft.to/lastmile_qr_scan", "android": "https://dc.lft.to/lastmile_qr_scan"}, "is_reserved": 0}, {"lon": -77.02499883333333, "bike_id": "9a17ad0a1d764cfb2c2a4d71a89d6143", "lat": 38.930921, "fusion_lon": 0.0, "fusion_lat": 0.0, "type": "electric_scooter", "name": "9a17ad0a1d764cfb2c2a4d71a89d6143", "is_disabled": 0, "rental_uris": {"ios": "https://dc.lft.to/lastmile_qr_scan", "android": "https://dc.lft.to/lastmile_qr_scan"}, "is_reserved": 0}, {"lon": -77.05807716666666, "bike_id": "0c2eb2fa31cab75dd70e2c06f5f355e6", "lat": 38.93509066666667, "fusion_lon": 0.0, "fusion_lat": 0.0, "type": "electric_scooter", "name": "0c2eb2fa31cab75dd70e2c06f5f355e6", "is_disabled": 0, "rental_uris": {"ios": "https://dc.lft.to/lastmile_qr_scan", "android": "https://dc.lft.to/lastmile_qr_scan"}, "is_reserved": 0}, {"lon": -77.0438065, "bike_id": "b9bd5eae4c4a5831df34866ce25ed125", "lat": 38.92071766666667, "fusion_lon": 0.0, "fusion_lat": 0.0, "type": "electric_scooter", "name": "b9bd5eae4c4a5831df34866ce25ed125", "is_disabled": 0, "rental_uris": {"ios": "https://dc.lft.to/lastmile_qr_scan", "android": "https://dc.lft.to/lastmile_qr_scan"}, "is_reserved": 0}, {"lon": -77.04427433333333, "bike_id": "66a6091f35ece0b73b540cc7babf78e4", "lat": 38.92125166666667, "fusion_lon": 0.0, "fusion_lat": 0.0, "type": "electric_scooter", "name": "66a6091f35ece0b73b540cc7babf78e4", "is_disabled": 0, "rental_uris": {"ios": "https://dc.lft.to/lastmile_qr_scan", "android": "https://dc.lft.to/lastmile_qr_scan"}, "is_reserved": 0}, {"lon": -77.01632383333333, "bike_id": "04004077f1d35687b5ff901e34a10b1f", "lat": 38.928956666666664, "fusion_lon": 0.0, "fusion_lat": 0.0, "type": "electric_scooter", "name": "04004077f1d35687b5ff901e34a10b1f", "is_disabled": 0, "rental_uris": {"ios": "https://dc.lft.to/lastmile_qr_scan", "android": "https://dc.lft.to/lastmile_qr_scan"}, "is_reserved": 0}, {"lon": -77.03383666666667, "bike_id": "ee705f4cd0c920df2fbc23ef984d68d4", "lat": 38.9098295, "fusion_lon": 0.0, "fusion_lat": 0.0, "type": "electric_scooter", "name": "ee705f4cd0c920df2fbc23ef984d68d4", "is_disabled": 0, "rental_uris": {"ios": "https://dc.lft.to/lastmile_qr_scan", "android": "https://dc.lft.to/lastmile_qr_scan"}, "is_reserved": 0}, {"lon": -77.0385845, "bike_id": "57475fef9ceeb42e3a26d06d4e89a293", "lat": 38.911817666666664, "fusion_lon": 0.0, "fusion_lat": 0.0, "type": "electric_scooter", "name": "57475fef9ceeb42e3a26d06d4e89a293", "is_disabled": 0, "rental_uris": {"ios": "https://dc.lft.to/lastmile_qr_scan", "android": "https://dc.lft.to/lastmile_qr_scan"}, "is_reserved": 0}, {"lon": -77.02085633333333, "bike_id": "d6a3abe484e6551eed4352fafbdf3a20", "lat": 38.957458333333335, "fusion_lon": 0.0, "fusion_lat": 0.0, "type": "electric_scooter", "name": "d6a3abe484e6551eed4352fafbdf3a20", "is_disabled": 0, "rental_uris": {"ios": "https://dc.lft.to/lastmile_qr_scan", "android": "https://dc.lft.to/lastmile_qr_scan"}, "is_reserved": 0}, {"lon": -77.07116633333334, "bike_id": "2b0665fad3691c79a75fc02523217e07", "lat": 38.9197345, "fusion_lon": 0.0, "fusion_lat": 0.0, "type": "electric_scooter", "name": "2b0665fad3691c79a75fc02523217e07", "is_disabled": 0, "rental_uris": {"ios": "https://dc.lft.to/lastmile_qr_scan", "android": "https://dc.lft.to/lastmile_qr_scan"}, "is_reserved": 0}, {"lon": -76.99683133333333, "bike_id": "8c44a56291987e274e0d43d7c241d4d5", "lat": 38.86034083333333, "fusion_lon": 0.0, "fusion_lat": 0.0, "type": "electric_scooter", "name": "8c44a56291987e274e0d43d7c241d4d5", "is_disabled": 0, "rental_uris": {"ios": "https://dc.lft.to/lastmile_qr_scan", "android": "https://dc.lft.to/lastmile_qr_scan"}, "is_reserved": 0}, {"lon": -76.97520883333334, "bike_id": "c5f77c33a66d97280fcf13fa73fdb6de", "lat": 38.9669635, "fusion_lon": 0.0, "fusion_lat": 0.0, "type": "electric_bike", "name": "c5f77c33a66d97280fcf13fa73fdb6de", "is_disabled": 0, "rental_uris": {"ios": "https://dc.lft.to/lastmile_qr_scan", "android": "https://dc.lft.to/lastmile_qr_scan"}, "is_reserved": 0}, {"lon": -77.05317016666666, "bike_id": "7215612b6736da2dd1bc831a5bdc5841", "lat": 38.900803333333336, "fusion_lon": 0.0, "fusion_lat": 0.0, "type": "electric_scooter", "name": "7215612b6736da2dd1bc831a5bdc5841", "is_disabled": 0, "rental_uris": {"ios": "https://dc.lft.to/lastmile_qr_scan", "android": "https://dc.lft.to/lastmile_qr_scan"}, "is_reserved": 0}, {"lon": -77.02364016666667, "bike_id": "9fdaaaec325f195b6c1b4879a9c0d10a", "lat": 38.8922055, "fusion_lon": 0.0, "fusion_lat": 0.0, "type": "electric_scooter", "name": "9fdaaaec325f195b6c1b4879a9c0d10a", "is_disabled": 0, "rental_uris": {"ios": "https://dc.lft.to/lastmile_qr_scan", "android": "https://dc.lft.to/lastmile_qr_scan"}, "is_reserved": 0}, {"lon": -77.05058916666667, "bike_id": "d54349bc61cab81e773d6f6a73499bd1", "lat": 38.90712416666667, "fusion_lon": 0.0, "fusion_lat": 0.0, "type": "electric_scooter", "name": "d54349bc61cab81e773d6f6a73499bd1", "is_disabled": 0, "rental_uris": {"ios": "https://dc.lft.to/lastmile_qr_scan", "android": "https://dc.lft.to/lastmile_qr_scan"}, "is_reserved": 0}, {"lon": -77.04159316666667, "bike_id": "a2c50fcda1dbcc62dbc11ed5c1070e23", "lat": 38.91444216666667, "fusion_lon": 0.0, "fusion_lat": 0.0, "type": "electric_scooter", "name": "a2c50fcda1dbcc62dbc11ed5c1070e23", "is_disabled": 0, "rental_uris": {"ios": "https://dc.lft.to/lastmile_qr_scan", "android": "https://dc.lft.to/lastmile_qr_scan"}, "is_reserved": 0}, {"lon": -77.02927616666666, "bike_id": "4bf34fd4a4d666baf2f02bec0690902d", "lat": 38.90475716666667, "fusion_lon": 0.0, "fusion_lat": 0.0, "type": "electric_scooter", "name": "4bf34fd4a4d666baf2f02bec0690902d", "is_disabled": 0, "rental_uris": {"ios": "https://dc.lft.to/lastmile_qr_scan", "android": "https://dc.lft.to/lastmile_qr_scan"}, "is_reserved": 0}, {"lon": -77.01866716666666, "bike_id": "44307abd1e40b2b7c3f9cac5aa9dc9fd", "lat": 38.95153916666667, "fusion_lon": 0.0, "fusion_lat": 0.0, "type": "electric_scooter", "name": "44307abd1e40b2b7c3f9cac5aa9dc9fd", "is_disabled": 0, "rental_uris": {"ios": "https://dc.lft.to/lastmile_qr_scan", "android": "https://dc.lft.to/lastmile_qr_scan"}, "is_reserved": 0}, {"lon": -76.99779833333334, "bike_id": "37cf7a3cfe9ca7c5e685c33070a1e034", "lat": 38.84429316666667, "fusion_lon": 0.0, "fusion_lat": 0.0, "type": "electric_scooter", "name": "37cf7a3cfe9ca7c5e685c33070a1e034", "is_disabled": 0, "rental_uris": {"ios": "https://dc.lft.to/lastmile_qr_scan", "android": "https://dc.lft.to/lastmile_qr_scan"}, "is_reserved": 0}, {"lon": -76.99104133333333, "bike_id": "9b2e33974529b204ec26c5dc3be895bd", "lat": 38.9032255, "fusion_lon": 0.0, "fusion_lat": 0.0, "type": "electric_scooter", "name": "9b2e33974529b204ec26c5dc3be895bd", "is_disabled": 0, "rental_uris": {"ios": "https://dc.lft.to/lastmile_qr_scan", "android": "https://dc.lft.to/lastmile_qr_scan"}, "is_reserved": 0}, {"lon": -77.0443295, "bike_id": "f5e06498fd4c5a9e4cf3bc5ea66e797e", "lat": 38.90567183333334, "fusion_lon": 0.0, "fusion_lat": 0.0, "type": "electric_scooter", "name": "f5e06498fd4c5a9e4cf3bc5ea66e797e", "is_disabled": 0, "rental_uris": {"ios": "https://dc.lft.to/lastmile_qr_scan", "android": "https://dc.lft.to/lastmile_qr_scan"}, "is_reserved": 0}, {"lon": -76.95237583333333, "bike_id": "4e9fa9b5aa2915099188c8c2097cbcb5", "lat": 38.89100533333333, "fusion_lon": 0.0, "fusion_lat": 0.0, "type": "electric_scooter", "name": "4e9fa9b5aa2915099188c8c2097cbcb5", "is_disabled": 0, "rental_uris": {"ios": "https://dc.lft.to/lastmile_qr_scan", "android": "https://dc.lft.to/lastmile_qr_scan"}, "is_reserved": 0}, {"lon": -77.0881275, "bike_id": "fbf1f947f9bec331ceae82ad3d981bc8", "lat": 38.91176516666667, "fusion_lon": 0.0, "fusion_lat": 0.0, "type": "electric_bike", "name": "fbf1f947f9bec331ceae82ad3d981bc8", "is_disabled": 0, "rental_uris": {"ios": "https://dc.lft.to/lastmile_qr_scan", "android": "https://dc.lft.to/lastmile_qr_scan"}, "is_reserved": 0}, {"lon": -77.06276566666666, "bike_id": "9aeff877f4cc5dd9684826df419791f3", "lat": 38.905414666666665, "fusion_lon": 0.0, "fusion_lat": 0.0, "type": "electric_scooter", "name": "9aeff877f4cc5dd9684826df419791f3", "is_disabled": 0, "rental_uris": {"ios": "https://dc.lft.to/lastmile_qr_scan", "android": "https://dc.lft.to/lastmile_qr_scan"}, "is_reserved": 0}, {"lon": -77.016161, "bike_id": "cde5015a3853741a6868be504d856473", "lat": 38.9018805, "fusion_lon": 0.0, "fusion_lat": 0.0, "type": "electric_scooter", "name": "cde5015a3853741a6868be504d856473", "is_disabled": 0, "rental_uris": {"ios": "https://dc.lft.to/lastmile_qr_scan", "android": "https://dc.lft.to/lastmile_qr_scan"}, "is_reserved": 0}, {"lon": -76.97619666666667, "bike_id": "8c0e2e6a56decdc9418063e75ce52b90", "lat": 38.926535, "fusion_lon": 0.0, "fusion_lat": 0.0, "type": "electric_scooter", "name": "8c0e2e6a56decdc9418063e75ce52b90", "is_disabled": 0, "rental_uris": {"ios": "https://dc.lft.to/lastmile_qr_scan", "android": "https://dc.lft.to/lastmile_qr_scan"}, "is_reserved": 0}, {"lon": -77.03926683333333, "bike_id": "dbad670d938ef0b4378700c69416e7e4", "lat": 38.928013166666666, "fusion_lon": 0.0, "fusion_lat": 0.0, "type": "electric_scooter", "name": "dbad670d938ef0b4378700c69416e7e4", "is_disabled": 0, "rental_uris": {"ios": "https://dc.lft.to/lastmile_qr_scan", "android": "https://dc.lft.to/lastmile_qr_scan"}, "is_reserved": 0}, {"lon": -77.0434075, "bike_id": "f2967e9ea826534ba05c329dac5f30d9", "lat": 38.91112533333333, "fusion_lon": 0.0, "fusion_lat": 0.0, "type": "electric_scooter", "name": "f2967e9ea826534ba05c329dac5f30d9", "is_disabled": 0, "rental_uris": {"ios": "https://dc.lft.to/lastmile_qr_scan", "android": "https://dc.lft.to/lastmile_qr_scan"}, "is_reserved": 0}, {"lon": -77.10838266666667, "bike_id": "96723b32349304a06a5acf2585cbb01b", "lat": 38.812048, "fusion_lon": 0.0, "fusion_lat": 0.0, "type": "electric_bike", "name": "96723b32349304a06a5acf2585cbb01b", "is_disabled": 0, "rental_uris": {"ios": "https://dc.lft.to/lastmile_qr_scan", "android": "https://dc.lft.to/lastmile_qr_scan"}, "is_reserved": 0}, {"lon": -77.0052675, "bike_id": "06fc2b1985ffe8a4fc46b94f2b59cac8", "lat": 38.8755285, "fusion_lon": 0.0, "fusion_lat": 0.0, "type": "electric_scooter", "name": "06fc2b1985ffe8a4fc46b94f2b59cac8", "is_disabled": 0, "rental_uris": {"ios": "https://dc.lft.to/lastmile_qr_scan", "android": "https://dc.lft.to/lastmile_qr_scan"}, "is_reserved": 0}, {"lon": -76.99004816666667, "bike_id": "58bfc2472e412c15081e165bdbc266b8", "lat": 38.865072, "fusion_lon": 0.0, "fusion_lat": 0.0, "type": "electric_scooter", "name": "58bfc2472e412c15081e165bdbc266b8", "is_disabled": 0, "rental_uris": {"ios": "https://dc.lft.to/lastmile_qr_scan", "android": "https://dc.lft.to/lastmile_qr_scan"}, "is_reserved": 0}, {"lon": -77.02765316666667, "bike_id": "e65671335970d8ebd9558bf7ddbbfabd", "lat": 38.9301655, "fusion_lon": 0.0, "fusion_lat": 0.0, "type": "electric_scooter", "name": "e65671335970d8ebd9558bf7ddbbfabd", "is_disabled": 0, "rental_uris": {"ios": "https://dc.lft.to/lastmile_qr_scan", "android": "https://dc.lft.to/lastmile_qr_scan"}, "is_reserved": 0}, {"lon": -77.024058, "bike_id": "823331e5cb9383377467ee15fecd800c", "lat": 38.958324833333336, "fusion_lon": 0.0, "fusion_lat": 0.0, "type": "electric_scooter", "name": "823331e5cb9383377467ee15fecd800c", "is_disabled": 0, "rental_uris": {"ios": "https://dc.lft.to/lastmile_qr_scan", "android": "https://dc.lft.to/lastmile_qr_scan"}, "is_reserved": 0}, {"lon": -76.980847, "bike_id": "f9edbbf6da1c108b51a6b6590324185c", "lat": 38.9071055, "fusion_lon": 0.0, "fusion_lat": 0.0, "type": "electric_scooter", "name": "f9edbbf6da1c108b51a6b6590324185c", "is_disabled": 0, "rental_uris": {"ios": "https://dc.lft.to/lastmile_qr_scan", "android": "https://dc.lft.to/lastmile_qr_scan"}, "is_reserved": 0}, {"lon": -77.00332233333333, "bike_id": "d3bbbdf44a9558244ea2b154ca3de355", "lat": 38.897297, "fusion_lon": 0.0, "fusion_lat": 0.0, "type": "electric_scooter", "name": "d3bbbdf44a9558244ea2b154ca3de355", "is_disabled": 0, "rental_uris": {"ios": "https://dc.lft.to/lastmile_qr_scan", "android": "https://dc.lft.to/lastmile_qr_scan"}, "is_reserved": 0}, {"lon": -77.04312933333334, "bike_id": "0a3f5e62151416ae50481cde15411352", "lat": 38.8920135, "fusion_lon": 0.0, "fusion_lat": 0.0, "type": "electric_scooter", "name": "0a3f5e62151416ae50481cde15411352", "is_disabled": 0, "rental_uris": {"ios": "https://dc.lft.to/lastmile_qr_scan", "android": "https://dc.lft.to/lastmile_qr_scan"}, "is_reserved": 0}, {"lon": -77.03440166666667, "bike_id": "ba78bcfff79c2ef417396a7d984b6965", "lat": 38.91804, "fusion_lon": 0.0, "fusion_lat": 0.0, "type": "electric_scooter", "name": "ba78bcfff79c2ef417396a7d984b6965", "is_disabled": 0, "rental_uris": {"ios": "https://dc.lft.to/lastmile_qr_scan", "android": "https://dc.lft.to/lastmile_qr_scan"}, "is_reserved": 0}, {"lon": -77.02810983333333, "bike_id": "38ae33ca4cdfb66cfdc2b59bd4eb1272", "lat": 38.93084566666667, "fusion_lon": 0.0, "fusion_lat": 0.0, "type": "electric_scooter", "name": "38ae33ca4cdfb66cfdc2b59bd4eb1272", "is_disabled": 0, "rental_uris": {"ios": "https://dc.lft.to/lastmile_qr_scan", "android": "https://dc.lft.to/lastmile_qr_scan"}, "is_reserved": 0}, {"lon": -77.02531583333334, "bike_id": "cd634db3bdf75da0f3f930c7d77b5204", "lat": 38.90727733333333, "fusion_lon": 0.0, "fusion_lat": 0.0, "type": "electric_scooter", "name": "cd634db3bdf75da0f3f930c7d77b5204", "is_disabled": 0, "rental_uris": {"ios": "https://dc.lft.to/lastmile_qr_scan", "android": "https://dc.lft.to/lastmile_qr_scan"}, "is_reserved": 0}, {"lon": -77.052334, "bike_id": "9a7630406e5c71ccbb45246a4492bfe1", "lat": 38.92341016666666, "fusion_lon": 0.0, "fusion_lat": 0.0, "type": "electric_scooter", "name": "9a7630406e5c71ccbb45246a4492bfe1", "is_disabled": 0, "rental_uris": {"ios": "https://dc.lft.to/lastmile_qr_scan", "android": "https://dc.lft.to/lastmile_qr_scan"}, "is_reserved": 0}, {"lon": -77.04166316666667, "bike_id": "1ad478cc41331202bfae3128f83850e1", "lat": 38.91996433333333, "fusion_lon": 0.0, "fusion_lat": 0.0, "type": "electric_scooter", "name": "1ad478cc41331202bfae3128f83850e1", "is_disabled": 0, "rental_uris": {"ios": "https://dc.lft.to/lastmile_qr_scan", "android": "https://dc.lft.to/lastmile_qr_scan"}, "is_reserved": 0}, {"lon": -77.0329345, "bike_id": "82157bc02e74dda9cf4c676cea36dd5b", "lat": 38.9565185, "fusion_lon": 0.0, "fusion_lat": 0.0, "type": "electric_scooter", "name": "82157bc02e74dda9cf4c676cea36dd5b", "is_disabled": 0, "rental_uris": {"ios": "https://dc.lft.to/lastmile_qr_scan", "android": "https://dc.lft.to/lastmile_qr_scan"}, "is_reserved": 0}, {"lon": -77.01466833333333, "bike_id": "cf45933d315023e06d92b08c6356a08f", "lat": 38.91474066666667, "fusion_lon": 0.0, "fusion_lat": 0.0, "type": "electric_scooter", "name": "cf45933d315023e06d92b08c6356a08f", "is_disabled": 0, "rental_uris": {"ios": "https://dc.lft.to/lastmile_qr_scan", "android": "https://dc.lft.to/lastmile_qr_scan"}, "is_reserved": 0}, {"lon": -77.11782083333334, "bike_id": "13a005a9002fe2cdb0668df1808e10ff", "lat": 39.05492133333333, "fusion_lon": 0.0, "fusion_lat": 0.0, "type": "electric_bike", "name": "13a005a9002fe2cdb0668df1808e10ff", "is_disabled": 0, "rental_uris": {"ios": "https://dc.lft.to/lastmile_qr_scan", "android": "https://dc.lft.to/lastmile_qr_scan"}, "is_reserved": 0}, {"lon": -77.02293616666667, "bike_id": "39456d5a105b92add6a67c238b108b83", "lat": 38.9169135, "fusion_lon": 0.0, "fusion_lat": 0.0, "type": "electric_scooter", "name": "39456d5a105b92add6a67c238b108b83", "is_disabled": 0, "rental_uris": {"ios": "https://dc.lft.to/lastmile_qr_scan", "android": "https://dc.lft.to/lastmile_qr_scan"}, "is_reserved": 0}, {"lon": -77.03284066666667, "bike_id": "19a4ed6ebff60d207f47706120dfb3e9", "lat": 38.929395166666666, "fusion_lon": 0.0, "fusion_lat": 0.0, "type": "electric_scooter", "name": "19a4ed6ebff60d207f47706120dfb3e9", "is_disabled": 0, "rental_uris": {"ios": "https://dc.lft.to/lastmile_qr_scan", "android": "https://dc.lft.to/lastmile_qr_scan"}, "is_reserved": 0}, {"lon": -77.0410465, "bike_id": "dcae63da1002bfba6c83056a53e10db2", "lat": 38.908783666666665, "fusion_lon": 0.0, "fusion_lat": 0.0, "type": "electric_scooter", "name": "dcae63da1002bfba6c83056a53e10db2", "is_disabled": 0, "rental_uris": {"ios": "https://dc.lft.to/lastmile_qr_scan", "android": "https://dc.lft.to/lastmile_qr_scan"}, "is_reserved": 0}, {"lon": -76.9880505, "bike_id": "71e7ce8255b4401fe55124380da0a31c", "lat": 38.867242166666664, "fusion_lon": 0.0, "fusion_lat": 0.0, "type": "electric_scooter", "name": "71e7ce8255b4401fe55124380da0a31c", "is_disabled": 0, "rental_uris": {"ios": "https://dc.lft.to/lastmile_qr_scan", "android": "https://dc.lft.to/lastmile_qr_scan"}, "is_reserved": 0}, {"lon": -77.0709635, "bike_id": "668c3fdfafbd256c5dbe3d574ed9719c", "lat": 38.91990033333333, "fusion_lon": 0.0, "fusion_lat": 0.0, "type": "electric_scooter", "name": "668c3fdfafbd256c5dbe3d574ed9719c", "is_disabled": 0, "rental_uris": {"ios": "https://dc.lft.to/lastmile_qr_scan", "android": "https://dc.lft.to/lastmile_qr_scan"}, "is_reserved": 0}, {"lon": -76.9973955, "bike_id": "2c76658643acb6451779e8aea462e823", "lat": 38.90133483333334, "fusion_lon": 0.0, "fusion_lat": 0.0, "type": "electric_scooter", "name": "2c76658643acb6451779e8aea462e823", "is_disabled": 0, "rental_uris": {"ios": "https://dc.lft.to/lastmile_qr_scan", "android": "https://dc.lft.to/lastmile_qr_scan"}, "is_reserved": 0}, {"lon": -77.02414666666667, "bike_id": "d05dcb8b054d40aacbf00284a8d1f1a1", "lat": 38.892280166666666, "fusion_lon": 0.0, "fusion_lat": 0.0, "type": "electric_scooter", "name": "d05dcb8b054d40aacbf00284a8d1f1a1", "is_disabled": 0, "rental_uris": {"ios": "https://dc.lft.to/lastmile_qr_scan", "android": "https://dc.lft.to/lastmile_qr_scan"}, "is_reserved": 0}, {"lon": -77.03750233333334, "bike_id": "b1bfc4f08c6d57f2136990b839bd5cd3", "lat": 38.92208383333333, "fusion_lon": 0.0, "fusion_lat": 0.0, "type": "electric_scooter", "name": "b1bfc4f08c6d57f2136990b839bd5cd3", "is_disabled": 0, "rental_uris": {"ios": "https://dc.lft.to/lastmile_qr_scan", "android": "https://dc.lft.to/lastmile_qr_scan"}, "is_reserved": 0}, {"lon": -77.0311895, "bike_id": "95ed41b395ca6af437234dc13c19e616", "lat": 38.91563583333333, "fusion_lon": 0.0, "fusion_lat": 0.0, "type": "electric_scooter", "name": "95ed41b395ca6af437234dc13c19e616", "is_disabled": 0, "rental_uris": {"ios": "https://dc.lft.to/lastmile_qr_scan", "android": "https://dc.lft.to/lastmile_qr_scan"}, "is_reserved": 0}, {"lon": -77.05523416666666, "bike_id": "c37133902514d0f787ab16d809586a85", "lat": 38.89731316666666, "fusion_lon": 0.0, "fusion_lat": 0.0, "type": "electric_scooter", "name": "c37133902514d0f787ab16d809586a85", "is_disabled": 0, "rental_uris": {"ios": "https://dc.lft.to/lastmile_qr_scan", "android": "https://dc.lft.to/lastmile_qr_scan"}, "is_reserved": 0}, {"lon": -77.05511916666667, "bike_id": "63a2bef55866064e21042885740d883f", "lat": 38.929907166666666, "fusion_lon": 0.0, "fusion_lat": 0.0, "type": "electric_scooter", "name": "63a2bef55866064e21042885740d883f", "is_disabled": 0, "rental_uris": {"ios": "https://dc.lft.to/lastmile_qr_scan", "android": "https://dc.lft.to/lastmile_qr_scan"}, "is_reserved": 0}, {"lon": -77.0334555, "bike_id": "1600e9c2aa61281d43294507a99700b5", "lat": 38.923429, "fusion_lon": 0.0, "fusion_lat": 0.0, "type": "electric_scooter", "name": "1600e9c2aa61281d43294507a99700b5", "is_disabled": 0, "rental_uris": {"ios": "https://dc.lft.to/lastmile_qr_scan", "android": "https://dc.lft.to/lastmile_qr_scan"}, "is_reserved": 0}, {"lon": -77.04686216666667, "bike_id": "f525a271696dacae741f07cab4e081af", "lat": 38.89227283333334, "fusion_lon": 0.0, "fusion_lat": 0.0, "type": "electric_scooter", "name": "f525a271696dacae741f07cab4e081af", "is_disabled": 0, "rental_uris": {"ios": "https://dc.lft.to/lastmile_qr_scan", "android": "https://dc.lft.to/lastmile_qr_scan"}, "is_reserved": 0}, {"lon": -76.97669916666666, "bike_id": "905c8d4b1501ac99c0ea4b3e5def6c09", "lat": 38.95249616666667, "fusion_lon": 0.0, "fusion_lat": 0.0, "type": "electric_bike", "name": "905c8d4b1501ac99c0ea4b3e5def6c09", "is_disabled": 0, "rental_uris": {"ios": "https://dc.lft.to/lastmile_qr_scan", "android": "https://dc.lft.to/lastmile_qr_scan"}, "is_reserved": 0}, {"lon": -76.994611, "bike_id": "79318a1bbdc3f6f7def6c3e4f29be43f", "lat": 38.940674666666666, "fusion_lon": 0.0, "fusion_lat": 0.0, "type": "electric_scooter", "name": "79318a1bbdc3f6f7def6c3e4f29be43f", "is_disabled": 0, "rental_uris": {"ios": "https://dc.lft.to/lastmile_qr_scan", "android": "https://dc.lft.to/lastmile_qr_scan"}, "is_reserved": 0}, {"lon": -76.98136, "bike_id": "020e96c76c3c57c0579d49aeb1c174f4", "lat": 38.903195833333335, "fusion_lon": 0.0, "fusion_lat": 0.0, "type": "electric_scooter", "name": "020e96c76c3c57c0579d49aeb1c174f4", "is_disabled": 0, "rental_uris": {"ios": "https://dc.lft.to/lastmile_qr_scan", "android": "https://dc.lft.to/lastmile_qr_scan"}, "is_reserved": 0}, {"lon": -77.07921316666666, "bike_id": "e5772672427cbd0156b6bca9947b95ba", "lat": 38.93103033333333, "fusion_lon": 0.0, "fusion_lat": 0.0, "type": "electric_scooter", "name": "e5772672427cbd0156b6bca9947b95ba", "is_disabled": 0, "rental_uris": {"ios": "https://dc.lft.to/lastmile_qr_scan", "android": "https://dc.lft.to/lastmile_qr_scan"}, "is_reserved": 0}, {"lon": -77.03836333333334, "bike_id": "96241b5e53c1cf3024aa334162ed416c", "lat": 38.906810666666665, "fusion_lon": 0.0, "fusion_lat": 0.0, "type": "electric_scooter", "name": "96241b5e53c1cf3024aa334162ed416c", "is_disabled": 0, "rental_uris": {"ios": "https://dc.lft.to/lastmile_qr_scan", "android": "https://dc.lft.to/lastmile_qr_scan"}, "is_reserved": 0}, {"lon": -76.98859066666667, "bike_id": "5f540ad93a873f3e3a3863b873c83978", "lat": 38.8917385, "fusion_lon": 0.0, "fusion_lat": 0.0, "type": "electric_scooter", "name": "5f540ad93a873f3e3a3863b873c83978", "is_disabled": 0, "rental_uris": {"ios": "https://dc.lft.to/lastmile_qr_scan", "android": "https://dc.lft.to/lastmile_qr_scan"}, "is_reserved": 0}, {"lon": -77.02446, "bike_id": "4db7db74a428f8fd224d8e11aa667519", "lat": 38.924974, "fusion_lon": 0.0, "fusion_lat": 0.0, "type": "electric_scooter", "name": "4db7db74a428f8fd224d8e11aa667519", "is_disabled": 0, "rental_uris": {"ios": "https://dc.lft.to/lastmile_qr_scan", "android": "https://dc.lft.to/lastmile_qr_scan"}, "is_reserved": 0}, {"lon": -77.02346416666667, "bike_id": "2037c210dadd686a5f4ae3a2f95a7b3d", "lat": 38.92249833333333, "fusion_lon": 0.0, "fusion_lat": 0.0, "type": "electric_scooter", "name": "2037c210dadd686a5f4ae3a2f95a7b3d", "is_disabled": 0, "rental_uris": {"ios": "https://dc.lft.to/lastmile_qr_scan", "android": "https://dc.lft.to/lastmile_qr_scan"}, "is_reserved": 0}, {"lon": -76.98694166666667, "bike_id": "dfd84114f364ff0eba4abd512df6b0ce", "lat": 38.91221516666667, "fusion_lon": 0.0, "fusion_lat": 0.0, "type": "electric_scooter", "name": "dfd84114f364ff0eba4abd512df6b0ce", "is_disabled": 0, "rental_uris": {"ios": "https://dc.lft.to/lastmile_qr_scan", "android": "https://dc.lft.to/lastmile_qr_scan"}, "is_reserved": 0}, {"lon": -77.036615, "bike_id": "54e0f5de30e4276a31e0b2eb427ae921", "lat": 38.93208833333333, "fusion_lon": 0.0, "fusion_lat": 0.0, "type": "electric_scooter", "name": "54e0f5de30e4276a31e0b2eb427ae921", "is_disabled": 0, "rental_uris": {"ios": "https://dc.lft.to/lastmile_qr_scan", "android": "https://dc.lft.to/lastmile_qr_scan"}, "is_reserved": 0}, {"lon": -77.03701483333333, "bike_id": "b84b17b577c3a54b46415a3e55d64d66", "lat": 38.926452833333336, "fusion_lon": 0.0, "fusion_lat": 0.0, "type": "electric_scooter", "name": "b84b17b577c3a54b46415a3e55d64d66", "is_disabled": 0, "rental_uris": {"ios": "https://dc.lft.to/lastmile_qr_scan", "android": "https://dc.lft.to/lastmile_qr_scan"}, "is_reserved": 0}, {"lon": -77.00496316666667, "bike_id": "159d1f3a18199ab25f18dcce256e375e", "lat": 38.905562833333335, "fusion_lon": 0.0, "fusion_lat": 0.0, "type": "electric_scooter", "name": "159d1f3a18199ab25f18dcce256e375e", "is_disabled": 0, "rental_uris": {"ios": "https://dc.lft.to/lastmile_qr_scan", "android": "https://dc.lft.to/lastmile_qr_scan"}, "is_reserved": 0}, {"lon": -77.01516466666666, "bike_id": "c490c4828fc00145aa095a6fdee96a60", "lat": 38.90033, "fusion_lon": 0.0, "fusion_lat": 0.0, "type": "electric_scooter", "name": "c490c4828fc00145aa095a6fdee96a60", "is_disabled": 0, "rental_uris": {"ios": "https://dc.lft.to/lastmile_qr_scan", "android": "https://dc.lft.to/lastmile_qr_scan"}, "is_reserved": 0}, {"lon": -77.04101083333333, "bike_id": "9e82e67a21cdb645b779505edd97514f", "lat": 38.90878333333333, "fusion_lon": 0.0, "fusion_lat": 0.0, "type": "electric_scooter", "name": "9e82e67a21cdb645b779505edd97514f", "is_disabled": 0, "rental_uris": {"ios": "https://dc.lft.to/lastmile_qr_scan", "android": "https://dc.lft.to/lastmile_qr_scan"}, "is_reserved": 0}, {"lon": -76.99776533333333, "bike_id": "7008e58665dd812267ebacff85fda727", "lat": 38.844277, "fusion_lon": 0.0, "fusion_lat": 0.0, "type": "electric_scooter", "name": "7008e58665dd812267ebacff85fda727", "is_disabled": 0, "rental_uris": {"ios": "https://dc.lft.to/lastmile_qr_scan", "android": "https://dc.lft.to/lastmile_qr_scan"}, "is_reserved": 0}, {"lon": -77.03191983333333, "bike_id": "cc66443901121ca38dc0cc34b7931c86", "lat": 38.920739166666664, "fusion_lon": 0.0, "fusion_lat": 0.0, "type": "electric_scooter", "name": "cc66443901121ca38dc0cc34b7931c86", "is_disabled": 0, "rental_uris": {"ios": "https://dc.lft.to/lastmile_qr_scan", "android": "https://dc.lft.to/lastmile_qr_scan"}, "is_reserved": 0}, {"lon": -77.04477633333333, "bike_id": "fa56893546b4c99f7e25c0d9a56bbd9c", "lat": 38.90070516666667, "fusion_lon": 0.0, "fusion_lat": 0.0, "type": "electric_scooter", "name": "fa56893546b4c99f7e25c0d9a56bbd9c", "is_disabled": 0, "rental_uris": {"ios": "https://dc.lft.to/lastmile_qr_scan", "android": "https://dc.lft.to/lastmile_qr_scan"}, "is_reserved": 0}, {"lon": -76.98100916666667, "bike_id": "6e4a9f2c174b584f6b63661275f612ef", "lat": 38.904096833333334, "fusion_lon": 0.0, "fusion_lat": 0.0, "type": "electric_scooter", "name": "6e4a9f2c174b584f6b63661275f612ef", "is_disabled": 0, "rental_uris": {"ios": "https://dc.lft.to/lastmile_qr_scan", "android": "https://dc.lft.to/lastmile_qr_scan"}, "is_reserved": 0}, {"lon": -77.067556, "bike_id": "aef69a9962e54c8badb6a0c538b362e4", "lat": 38.9034235, "fusion_lon": 0.0, "fusion_lat": 0.0, "type": "electric_scooter", "name": "aef69a9962e54c8badb6a0c538b362e4", "is_disabled": 0, "rental_uris": {"ios": "https://dc.lft.to/lastmile_qr_scan", "android": "https://dc.lft.to/lastmile_qr_scan"}, "is_reserved": 0}, {"lon": -77.029796, "bike_id": "f46c797dae012cbff8cc2a4b88232226", "lat": 38.93286616666666, "fusion_lon": 0.0, "fusion_lat": 0.0, "type": "electric_scooter", "name": "f46c797dae012cbff8cc2a4b88232226", "is_disabled": 0, "rental_uris": {"ios": "https://dc.lft.to/lastmile_qr_scan", "android": "https://dc.lft.to/lastmile_qr_scan"}, "is_reserved": 0}, {"lon": -77.02858266666667, "bike_id": "10c769d2218a3f83d9c2f1fa370b7095", "lat": 38.904453833333335, "fusion_lon": 0.0, "fusion_lat": 0.0, "type": "electric_scooter", "name": "10c769d2218a3f83d9c2f1fa370b7095", "is_disabled": 0, "rental_uris": {"ios": "https://dc.lft.to/lastmile_qr_scan", "android": "https://dc.lft.to/lastmile_qr_scan"}, "is_reserved": 0}, {"lon": -77.03187883333334, "bike_id": "7a4b2a0edc53e57eeb646358bc85d5a9", "lat": 38.8874535, "fusion_lon": 0.0, "fusion_lat": 0.0, "type": "electric_scooter", "name": "7a4b2a0edc53e57eeb646358bc85d5a9", "is_disabled": 0, "rental_uris": {"ios": "https://dc.lft.to/lastmile_qr_scan", "android": "https://dc.lft.to/lastmile_qr_scan"}, "is_reserved": 0}, {"lon": -77.04243583333333, "bike_id": "8fa027d338d968fd12b83c7f88fc8cf5", "lat": 38.910289, "fusion_lon": 0.0, "fusion_lat": 0.0, "type": "electric_scooter", "name": "8fa027d338d968fd12b83c7f88fc8cf5", "is_disabled": 0, "rental_uris": {"ios": "https://dc.lft.to/lastmile_qr_scan", "android": "https://dc.lft.to/lastmile_qr_scan"}, "is_reserved": 0}, {"lon": -77.0269315, "bike_id": "0fa59befa9fee214c97098d3052c77bb", "lat": 38.906264166666666, "fusion_lon": 0.0, "fusion_lat": 0.0, "type": "electric_scooter", "name": "0fa59befa9fee214c97098d3052c77bb", "is_disabled": 0, "rental_uris": {"ios": "https://dc.lft.to/lastmile_qr_scan", "android": "https://dc.lft.to/lastmile_qr_scan"}, "is_reserved": 0}, {"lon": -77.03941183333333, "bike_id": "7b031895272db90fb09a09c877ea37c9", "lat": 38.93061333333333, "fusion_lon": 0.0, "fusion_lat": 0.0, "type": "electric_scooter", "name": "7b031895272db90fb09a09c877ea37c9", "is_disabled": 0, "rental_uris": {"ios": "https://dc.lft.to/lastmile_qr_scan", "android": "https://dc.lft.to/lastmile_qr_scan"}, "is_reserved": 0}, {"lon": -76.93361466666667, "bike_id": "8ce2c880f462906aabdb40e62f48633b", "lat": 38.89913416666667, "fusion_lon": 0.0, "fusion_lat": 0.0, "type": "electric_scooter", "name": "8ce2c880f462906aabdb40e62f48633b", "is_disabled": 0, "rental_uris": {"ios": "https://dc.lft.to/lastmile_qr_scan", "android": "https://dc.lft.to/lastmile_qr_scan"}, "is_reserved": 0}, {"lon": -77.03350066666667, "bike_id": "a30bcb123351c7a1547c23c5fac02a86", "lat": 38.892488, "fusion_lon": 0.0, "fusion_lat": 0.0, "type": "electric_scooter", "name": "a30bcb123351c7a1547c23c5fac02a86", "is_disabled": 0, "rental_uris": {"ios": "https://dc.lft.to/lastmile_qr_scan", "android": "https://dc.lft.to/lastmile_qr_scan"}, "is_reserved": 0}, {"lon": -77.0120975, "bike_id": "1079fb1e1f0cdba19e7ee7f8c985064f", "lat": 38.92124966666667, "fusion_lon": 0.0, "fusion_lat": 0.0, "type": "electric_scooter", "name": "1079fb1e1f0cdba19e7ee7f8c985064f", "is_disabled": 0, "rental_uris": {"ios": "https://dc.lft.to/lastmile_qr_scan", "android": "https://dc.lft.to/lastmile_qr_scan"}, "is_reserved": 0}, {"lon": -76.9300885, "bike_id": "f86b7a9d70d3ef0c23df6c45920654cd", "lat": 38.891955, "fusion_lon": 0.0, "fusion_lat": 0.0, "type": "electric_scooter", "name": "f86b7a9d70d3ef0c23df6c45920654cd", "is_disabled": 0, "rental_uris": {"ios": "https://dc.lft.to/lastmile_qr_scan", "android": "https://dc.lft.to/lastmile_qr_scan"}, "is_reserved": 0}, {"lon": -77.006257, "bike_id": "3395c20e3dd1ebfd179b1943a5f02214", "lat": 38.9125685, "fusion_lon": 0.0, "fusion_lat": 0.0, "type": "electric_scooter", "name": "3395c20e3dd1ebfd179b1943a5f02214", "is_disabled": 0, "rental_uris": {"ios": "https://dc.lft.to/lastmile_qr_scan", "android": "https://dc.lft.to/lastmile_qr_scan"}, "is_reserved": 0}, {"lon": -76.97537416666667, "bike_id": "9267f6a18be3412fce15d85849f03adf", "lat": 38.86425283333333, "fusion_lon": 0.0, "fusion_lat": 0.0, "type": "electric_scooter", "name": "9267f6a18be3412fce15d85849f03adf", "is_disabled": 0, "rental_uris": {"ios": "https://dc.lft.to/lastmile_qr_scan", "android": "https://dc.lft.to/lastmile_qr_scan"}, "is_reserved": 0}, {"lon": -77.056961, "bike_id": "2b468463e3e7c73255c0f004e377ef53", "lat": 38.93718583333333, "fusion_lon": 0.0, "fusion_lat": 0.0, "type": "electric_scooter", "name": "2b468463e3e7c73255c0f004e377ef53", "is_disabled": 0, "rental_uris": {"ios": "https://dc.lft.to/lastmile_qr_scan", "android": "https://dc.lft.to/lastmile_qr_scan"}, "is_reserved": 0}, {"lon": -76.995322, "bike_id": "20b6adaba63c7b3c6a4fc47660179999", "lat": 38.88374566666667, "fusion_lon": 0.0, "fusion_lat": 0.0, "type": "electric_scooter", "name": "20b6adaba63c7b3c6a4fc47660179999", "is_disabled": 0, "rental_uris": {"ios": "https://dc.lft.to/lastmile_qr_scan", "android": "https://dc.lft.to/lastmile_qr_scan"}, "is_reserved": 0}, {"lon": -77.05723333333333, "bike_id": "8b3dc918be994aeeb928b0c1828972b0", "lat": 38.9336825, "fusion_lon": 0.0, "fusion_lat": 0.0, "type": "electric_scooter", "name": "8b3dc918be994aeeb928b0c1828972b0", "is_disabled": 0, "rental_uris": {"ios": "https://dc.lft.to/lastmile_qr_scan", "android": "https://dc.lft.to/lastmile_qr_scan"}, "is_reserved": 0}, {"lon": -77.00071033333333, "bike_id": "9614dcf7c09d3b5e17030b0052fe04b2", "lat": 38.895048833333334, "fusion_lon": 0.0, "fusion_lat": 0.0, "type": "electric_scooter", "name": "9614dcf7c09d3b5e17030b0052fe04b2", "is_disabled": 0, "rental_uris": {"ios": "https://dc.lft.to/lastmile_qr_scan", "android": "https://dc.lft.to/lastmile_qr_scan"}, "is_reserved": 0}, {"lon": -77.01873116666667, "bike_id": "b7d034f424f9bb63c7f467a6eabe9741", "lat": 38.918290999999996, "fusion_lon": 0.0, "fusion_lat": 0.0, "type": "electric_scooter", "name": "b7d034f424f9bb63c7f467a6eabe9741", "is_disabled": 0, "rental_uris": {"ios": "https://dc.lft.to/lastmile_qr_scan", "android": "https://dc.lft.to/lastmile_qr_scan"}, "is_reserved": 0}, {"lon": -77.0433395, "bike_id": "7d609133167e79c2f646483bb91da16e", "lat": 38.922214333333336, "fusion_lon": 0.0, "fusion_lat": 0.0, "type": "electric_scooter", "name": "7d609133167e79c2f646483bb91da16e", "is_disabled": 0, "rental_uris": {"ios": "https://dc.lft.to/lastmile_qr_scan", "android": "https://dc.lft.to/lastmile_qr_scan"}, "is_reserved": 0}, {"lon": -76.98226233333334, "bike_id": "71c2b7ad8636e3c1297a4be669d8a19d", "lat": 38.886534833333336, "fusion_lon": 0.0, "fusion_lat": 0.0, "type": "electric_scooter", "name": "71c2b7ad8636e3c1297a4be669d8a19d", "is_disabled": 0, "rental_uris": {"ios": "https://dc.lft.to/lastmile_qr_scan", "android": "https://dc.lft.to/lastmile_qr_scan"}, "is_reserved": 0}, {"lon": -77.10489983333333, "bike_id": "2dd475ac722c755fd5fd6f6bd2788b6b", "lat": 38.8560695, "fusion_lon": 0.0, "fusion_lat": 0.0, "type": "electric_bike", "name": "2dd475ac722c755fd5fd6f6bd2788b6b", "is_disabled": 0, "rental_uris": {"ios": "https://dc.lft.to/lastmile_qr_scan", "android": "https://dc.lft.to/lastmile_qr_scan"}, "is_reserved": 0}, {"lon": -77.04410016666667, "bike_id": "4b204b468d5c1e487ffae7fd5a367026", "lat": 38.92115283333333, "fusion_lon": 0.0, "fusion_lat": 0.0, "type": "electric_scooter", "name": "4b204b468d5c1e487ffae7fd5a367026", "is_disabled": 0, "rental_uris": {"ios": "https://dc.lft.to/lastmile_qr_scan", "android": "https://dc.lft.to/lastmile_qr_scan"}, "is_reserved": 0}, {"lon": -77.04274983333333, "bike_id": "c41c3ee4f57bdefbd372b94f785c3e51", "lat": 38.90740183333333, "fusion_lon": 0.0, "fusion_lat": 0.0, "type": "electric_scooter", "name": "c41c3ee4f57bdefbd372b94f785c3e51", "is_disabled": 0, "rental_uris": {"ios": "https://dc.lft.to/lastmile_qr_scan", "android": "https://dc.lft.to/lastmile_qr_scan"}, "is_reserved": 0}, {"lon": -77.04160183333333, "bike_id": "1a9b78b7962529cbfab2b3db01685e3f", "lat": 38.91420683333333, "fusion_lon": 0.0, "fusion_lat": 0.0, "type": "electric_scooter", "name": "1a9b78b7962529cbfab2b3db01685e3f", "is_disabled": 0, "rental_uris": {"ios": "https://dc.lft.to/lastmile_qr_scan", "android": "https://dc.lft.to/lastmile_qr_scan"}, "is_reserved": 0}, {"lon": -77.03183116666666, "bike_id": "10c12bc3132a6c0f72159ad1b4add3a1", "lat": 38.93691833333333, "fusion_lon": 0.0, "fusion_lat": 0.0, "type": "electric_scooter", "name": "10c12bc3132a6c0f72159ad1b4add3a1", "is_disabled": 0, "rental_uris": {"ios": "https://dc.lft.to/lastmile_qr_scan", "android": "https://dc.lft.to/lastmile_qr_scan"}, "is_reserved": 0}, {"lon": -77.051611, "bike_id": "6e5e74f2458854470dc74133d931b044", "lat": 39.0430975, "fusion_lon": 0.0, "fusion_lat": 0.0, "type": "electric_bike", "name": "6e5e74f2458854470dc74133d931b044", "is_disabled": 0, "rental_uris": {"ios": "https://dc.lft.to/lastmile_qr_scan", "android": "https://dc.lft.to/lastmile_qr_scan"}, "is_reserved": 0}, {"lon": -77.03214133333333, "bike_id": "e10265c86241c9d6fbfdca50a51734f0", "lat": 38.892213166666664, "fusion_lon": 0.0, "fusion_lat": 0.0, "type": "electric_scooter", "name": "e10265c86241c9d6fbfdca50a51734f0", "is_disabled": 0, "rental_uris": {"ios": "https://dc.lft.to/lastmile_qr_scan", "android": "https://dc.lft.to/lastmile_qr_scan"}, "is_reserved": 0}, {"lon": -77.04416066666667, "bike_id": "669fa1e26f25ca1dcab583f51d4b626f", "lat": 38.9212365, "fusion_lon": 0.0, "fusion_lat": 0.0, "type": "electric_scooter", "name": "669fa1e26f25ca1dcab583f51d4b626f", "is_disabled": 0, "rental_uris": {"ios": "https://dc.lft.to/lastmile_qr_scan", "android": "https://dc.lft.to/lastmile_qr_scan"}, "is_reserved": 0}, {"lon": -76.895339, "bike_id": "cf0dee8f1d674062f047057a65a16d98", "lat": 38.94550666666667, "fusion_lon": 0.0, "fusion_lat": 0.0, "type": "electric_bike", "name": "cf0dee8f1d674062f047057a65a16d98", "is_disabled": 0, "rental_uris": {"ios": "https://dc.lft.to/lastmile_qr_scan", "android": "https://dc.lft.to/lastmile_qr_scan"}, "is_reserved": 0}, {"lon": -77.029744, "bike_id": "401d856586661cf342b0199055d7afdc", "lat": 38.89668666666667, "fusion_lon": 0.0, "fusion_lat": 0.0, "type": "electric_scooter", "name": "401d856586661cf342b0199055d7afdc", "is_disabled": 0, "rental_uris": {"ios": "https://dc.lft.to/lastmile_qr_scan", "android": "https://dc.lft.to/lastmile_qr_scan"}, "is_reserved": 0}, {"lon": -77.12980566666667, "bike_id": "bf210566570e7e342c1061b221d590dc", "lat": 38.7998635, "fusion_lon": 0.0, "fusion_lat": 0.0, "type": "electric_bike", "name": "bf210566570e7e342c1061b221d590dc", "is_disabled": 0, "rental_uris": {"ios": "https://dc.lft.to/lastmile_qr_scan", "android": "https://dc.lft.to/lastmile_qr_scan"}, "is_reserved": 0}, {"lon": -77.04009233333333, "bike_id": "4da0eaa35ff65f7b273e389e0417eea5", "lat": 38.91003933333333, "fusion_lon": 0.0, "fusion_lat": 0.0, "type": "electric_scooter", "name": "4da0eaa35ff65f7b273e389e0417eea5", "is_disabled": 0, "rental_uris": {"ios": "https://dc.lft.to/lastmile_qr_scan", "android": "https://dc.lft.to/lastmile_qr_scan"}, "is_reserved": 0}, {"lon": -77.07112216666667, "bike_id": "56ac37246159570aff7a165b0f86e2e7", "lat": 38.919727, "fusion_lon": 0.0, "fusion_lat": 0.0, "type": "electric_scooter", "name": "56ac37246159570aff7a165b0f86e2e7", "is_disabled": 0, "rental_uris": {"ios": "https://dc.lft.to/lastmile_qr_scan", "android": "https://dc.lft.to/lastmile_qr_scan"}, "is_reserved": 0}, {"lon": -77.03805816666667, "bike_id": "51fbec2bd5b9760c766246bac2828bf4", "lat": 38.930221333333336, "fusion_lon": 0.0, "fusion_lat": 0.0, "type": "electric_scooter", "name": "51fbec2bd5b9760c766246bac2828bf4", "is_disabled": 0, "rental_uris": {"ios": "https://dc.lft.to/lastmile_qr_scan", "android": "https://dc.lft.to/lastmile_qr_scan"}, "is_reserved": 0}, {"lon": -77.0358145, "bike_id": "e9d2191dd77ad2534ac9e9cef48bf854", "lat": 38.93477016666667, "fusion_lon": 0.0, "fusion_lat": 0.0, "type": "electric_scooter", "name": "e9d2191dd77ad2534ac9e9cef48bf854", "is_disabled": 0, "rental_uris": {"ios": "https://dc.lft.to/lastmile_qr_scan", "android": "https://dc.lft.to/lastmile_qr_scan"}, "is_reserved": 0}, {"lon": -77.034512, "bike_id": "39ccf317e5ca8118516559c0e25aee2b", "lat": 38.91807983333333, "fusion_lon": 0.0, "fusion_lat": 0.0, "type": "electric_scooter", "name": "39ccf317e5ca8118516559c0e25aee2b", "is_disabled": 0, "rental_uris": {"ios": "https://dc.lft.to/lastmile_qr_scan", "android": "https://dc.lft.to/lastmile_qr_scan"}, "is_reserved": 0}, {"lon": -76.99175033333333, "bike_id": "f90ea5989f6fa387910a6542ee3a2fff", "lat": 38.90506583333333, "fusion_lon": 0.0, "fusion_lat": 0.0, "type": "electric_scooter", "name": "f90ea5989f6fa387910a6542ee3a2fff", "is_disabled": 0, "rental_uris": {"ios": "https://dc.lft.to/lastmile_qr_scan", "android": "https://dc.lft.to/lastmile_qr_scan"}, "is_reserved": 0}, {"lon": -77.01538433333333, "bike_id": "752df07a3fe6dbb0174b672728601fe7", "lat": 38.888740166666665, "fusion_lon": 0.0, "fusion_lat": 0.0, "type": "electric_scooter", "name": "752df07a3fe6dbb0174b672728601fe7", "is_disabled": 0, "rental_uris": {"ios": "https://dc.lft.to/lastmile_qr_scan", "android": "https://dc.lft.to/lastmile_qr_scan"}, "is_reserved": 0}, {"lon": -77.02571533333334, "bike_id": "e650bb72c174a646c1149503b319eccb", "lat": 38.91486333333334, "fusion_lon": 0.0, "fusion_lat": 0.0, "type": "electric_scooter", "name": "e650bb72c174a646c1149503b319eccb", "is_disabled": 0, "rental_uris": {"ios": "https://dc.lft.to/lastmile_qr_scan", "android": "https://dc.lft.to/lastmile_qr_scan"}, "is_reserved": 0}, {"lon": -76.978129, "bike_id": "9b5fbdda26a85a37159f08b534f12eee", "lat": 38.906685833333334, "fusion_lon": 0.0, "fusion_lat": 0.0, "type": "electric_scooter", "name": "9b5fbdda26a85a37159f08b534f12eee", "is_disabled": 0, "rental_uris": {"ios": "https://dc.lft.to/lastmile_qr_scan", "android": "https://dc.lft.to/lastmile_qr_scan"}, "is_reserved": 0}, {"lon": -77.03512683333334, "bike_id": "6c9d1838f8c377837de66f01e250127a", "lat": 38.922037833333334, "fusion_lon": 0.0, "fusion_lat": 0.0, "type": "electric_scooter", "name": "6c9d1838f8c377837de66f01e250127a", "is_disabled": 0, "rental_uris": {"ios": "https://dc.lft.to/lastmile_qr_scan", "android": "https://dc.lft.to/lastmile_qr_scan"}, "is_reserved": 0}, {"lon": -77.07655016666666, "bike_id": "ea2c0d6906a6c426060727b508037b1c", "lat": 38.86267316666667, "fusion_lon": 0.0, "fusion_lat": 0.0, "type": "electric_bike", "name": "ea2c0d6906a6c426060727b508037b1c", "is_disabled": 0, "rental_uris": {"ios": "https://dc.lft.to/lastmile_qr_scan", "android": "https://dc.lft.to/lastmile_qr_scan"}, "is_reserved": 0}, {"lon": -77.051486, "bike_id": "2d73ad34060b438afa53f660230d2743", "lat": 38.89868533333333, "fusion_lon": 0.0, "fusion_lat": 0.0, "type": "electric_scooter", "name": "2d73ad34060b438afa53f660230d2743", "is_disabled": 0, "rental_uris": {"ios": "https://dc.lft.to/lastmile_qr_scan", "android": "https://dc.lft.to/lastmile_qr_scan"}, "is_reserved": 0}, {"lon": -76.99594, "bike_id": "80a11cbd0abf4dd5fe5c8609a3a0bc13", "lat": 38.8843375, "fusion_lon": 0.0, "fusion_lat": 0.0, "type": "electric_scooter", "name": "80a11cbd0abf4dd5fe5c8609a3a0bc13", "is_disabled": 0, "rental_uris": {"ios": "https://dc.lft.to/lastmile_qr_scan", "android": "https://dc.lft.to/lastmile_qr_scan"}, "is_reserved": 0}, {"lon": -76.9786495, "bike_id": "7e72e158d197d908d1945196b1b2927d", "lat": 38.883061, "fusion_lon": 0.0, "fusion_lat": 0.0, "type": "electric_scooter", "name": "7e72e158d197d908d1945196b1b2927d", "is_disabled": 0, "rental_uris": {"ios": "https://dc.lft.to/lastmile_qr_scan", "android": "https://dc.lft.to/lastmile_qr_scan"}, "is_reserved": 0}, {"lon": -77.04980666666667, "bike_id": "bfa2489d4050ce02ac000fb22e5985e9", "lat": 39.0629665, "fusion_lon": 0.0, "fusion_lat": 0.0, "type": "electric_bike", "name": "bfa2489d4050ce02ac000fb22e5985e9", "is_disabled": 0, "rental_uris": {"ios": "https://dc.lft.to/lastmile_qr_scan", "android": "https://dc.lft.to/lastmile_qr_scan"}, "is_reserved": 0}, {"lon": -76.99368416666667, "bike_id": "71cf46312ecd6da3e759407e8ee1544e", "lat": 38.94027666666667, "fusion_lon": 0.0, "fusion_lat": 0.0, "type": "electric_scooter", "name": "71cf46312ecd6da3e759407e8ee1544e", "is_disabled": 0, "rental_uris": {"ios": "https://dc.lft.to/lastmile_qr_scan", "android": "https://dc.lft.to/lastmile_qr_scan"}, "is_reserved": 0}, {"lon": -77.03815466666667, "bike_id": "7285b3f2bca299fd25eb6f1c9b99fbda", "lat": 38.909729166666665, "fusion_lon": 0.0, "fusion_lat": 0.0, "type": "electric_scooter", "name": "7285b3f2bca299fd25eb6f1c9b99fbda", "is_disabled": 0, "rental_uris": {"ios": "https://dc.lft.to/lastmile_qr_scan", "android": "https://dc.lft.to/lastmile_qr_scan"}, "is_reserved": 0}, {"lon": -77.02969883333333, "bike_id": "bf87bc2dd94486d832d7bfdd31d0b152", "lat": 38.9127695, "fusion_lon": 0.0, "fusion_lat": 0.0, "type": "electric_scooter", "name": "bf87bc2dd94486d832d7bfdd31d0b152", "is_disabled": 0, "rental_uris": {"ios": "https://dc.lft.to/lastmile_qr_scan", "android": "https://dc.lft.to/lastmile_qr_scan"}, "is_reserved": 0}, {"lon": -76.99015616666667, "bike_id": "d54fcbbea66d79ce32afbbf9311a796a", "lat": 38.94602233333333, "fusion_lon": 0.0, "fusion_lat": 0.0, "type": "electric_scooter", "name": "d54fcbbea66d79ce32afbbf9311a796a", "is_disabled": 0, "rental_uris": {"ios": "https://dc.lft.to/lastmile_qr_scan", "android": "https://dc.lft.to/lastmile_qr_scan"}, "is_reserved": 0}, {"lon": -77.04685683333334, "bike_id": "e639484bd99ab5bae2f258180524c35e", "lat": 38.897420333333336, "fusion_lon": 0.0, "fusion_lat": 0.0, "type": "electric_scooter", "name": "e639484bd99ab5bae2f258180524c35e", "is_disabled": 0, "rental_uris": {"ios": "https://dc.lft.to/lastmile_qr_scan", "android": "https://dc.lft.to/lastmile_qr_scan"}, "is_reserved": 0}, {"lon": -77.034233, "bike_id": "cd9e8a966e3392b2826e077fa77e60bf", "lat": 38.91801933333333, "fusion_lon": 0.0, "fusion_lat": 0.0, "type": "electric_scooter", "name": "cd9e8a966e3392b2826e077fa77e60bf", "is_disabled": 0, "rental_uris": {"ios": "https://dc.lft.to/lastmile_qr_scan", "android": "https://dc.lft.to/lastmile_qr_scan"}, "is_reserved": 0}, {"lon": -77.0215435, "bike_id": "9fbfd98dfb94b1da0c517561835ab315", "lat": 38.92604166666667, "fusion_lon": 0.0, "fusion_lat": 0.0, "type": "electric_scooter", "name": "9fbfd98dfb94b1da0c517561835ab315", "is_disabled": 0, "rental_uris": {"ios": "https://dc.lft.to/lastmile_qr_scan", "android": "https://dc.lft.to/lastmile_qr_scan"}, "is_reserved": 0}, {"lon": -77.00587866666666, "bike_id": "fe6a8982085e9052d22ed4bb1a7b6f42", "lat": 38.905735666666665, "fusion_lon": 0.0, "fusion_lat": 0.0, "type": "electric_scooter", "name": "fe6a8982085e9052d22ed4bb1a7b6f42", "is_disabled": 0, "rental_uris": {"ios": "https://dc.lft.to/lastmile_qr_scan", "android": "https://dc.lft.to/lastmile_qr_scan"}, "is_reserved": 0}, {"lon": -76.983774, "bike_id": "b5274c90a10b1ca0d4896ff9dd0467bd", "lat": 38.8914765, "fusion_lon": 0.0, "fusion_lat": 0.0, "type": "electric_scooter", "name": "b5274c90a10b1ca0d4896ff9dd0467bd", "is_disabled": 0, "rental_uris": {"ios": "https://dc.lft.to/lastmile_qr_scan", "android": "https://dc.lft.to/lastmile_qr_scan"}, "is_reserved": 0}, {"lon": -77.056101, "bike_id": "b2547d9794172b733ab9d6133264d1df", "lat": 38.931691, "fusion_lon": 0.0, "fusion_lat": 0.0, "type": "electric_scooter", "name": "b2547d9794172b733ab9d6133264d1df", "is_disabled": 0, "rental_uris": {"ios": "https://dc.lft.to/lastmile_qr_scan", "android": "https://dc.lft.to/lastmile_qr_scan"}, "is_reserved": 0}, {"lon": -76.98836433333334, "bike_id": "e0773c443cb9fff10cf3291d46b1650e", "lat": 38.90070983333333, "fusion_lon": 0.0, "fusion_lat": 0.0, "type": "electric_scooter", "name": "e0773c443cb9fff10cf3291d46b1650e", "is_disabled": 0, "rental_uris": {"ios": "https://dc.lft.to/lastmile_qr_scan", "android": "https://dc.lft.to/lastmile_qr_scan"}, "is_reserved": 0}, {"lon": -77.00375633333333, "bike_id": "12d1dca1d5c5716a4a6a91878e94e706", "lat": 38.895236, "fusion_lon": 0.0, "fusion_lat": 0.0, "type": "electric_scooter", "name": "12d1dca1d5c5716a4a6a91878e94e706", "is_disabled": 0, "rental_uris": {"ios": "https://dc.lft.to/lastmile_qr_scan", "android": "https://dc.lft.to/lastmile_qr_scan"}, "is_reserved": 0}, {"lon": -76.99478566666667, "bike_id": "4aa99158ecc3e9ace736b8ce063061f1", "lat": 38.8621735, "fusion_lon": 0.0, "fusion_lat": 0.0, "type": "electric_scooter", "name": "4aa99158ecc3e9ace736b8ce063061f1", "is_disabled": 0, "rental_uris": {"ios": "https://dc.lft.to/lastmile_qr_scan", "android": "https://dc.lft.to/lastmile_qr_scan"}, "is_reserved": 0}, {"lon": -77.024804, "bike_id": "6fb48d4c8b8f1feeecce46f7e9ed336d", "lat": 38.91666016666667, "fusion_lon": 0.0, "fusion_lat": 0.0, "type": "electric_scooter", "name": "6fb48d4c8b8f1feeecce46f7e9ed336d", "is_disabled": 0, "rental_uris": {"ios": "https://dc.lft.to/lastmile_qr_scan", "android": "https://dc.lft.to/lastmile_qr_scan"}, "is_reserved": 0}, {"lon": -77.06097716666666, "bike_id": "a2173f3662ffc6c5bea8fc90f6c2941f", "lat": 38.9436815, "fusion_lon": 0.0, "fusion_lat": 0.0, "type": "electric_scooter", "name": "a2173f3662ffc6c5bea8fc90f6c2941f", "is_disabled": 0, "rental_uris": {"ios": "https://dc.lft.to/lastmile_qr_scan", "android": "https://dc.lft.to/lastmile_qr_scan"}, "is_reserved": 0}, {"lon": -77.03341916666666, "bike_id": "2134ff85708578a9ea9c6f135f4763e9", "lat": 38.919248333333336, "fusion_lon": 0.0, "fusion_lat": 0.0, "type": "electric_scooter", "name": "2134ff85708578a9ea9c6f135f4763e9", "is_disabled": 0, "rental_uris": {"ios": "https://dc.lft.to/lastmile_qr_scan", "android": "https://dc.lft.to/lastmile_qr_scan"}, "is_reserved": 0}, {"lon": -77.031794, "bike_id": "835217025d70673949c11a4803da211f", "lat": 38.9360725, "fusion_lon": 0.0, "fusion_lat": 0.0, "type": "electric_scooter", "name": "835217025d70673949c11a4803da211f", "is_disabled": 0, "rental_uris": {"ios": "https://dc.lft.to/lastmile_qr_scan", "android": "https://dc.lft.to/lastmile_qr_scan"}, "is_reserved": 0}, {"lon": -77.042313, "bike_id": "f18e2acfd1c7999331a19f08e9b874c5", "lat": 38.91643066666666, "fusion_lon": 0.0, "fusion_lat": 0.0, "type": "electric_scooter", "name": "f18e2acfd1c7999331a19f08e9b874c5", "is_disabled": 0, "rental_uris": {"ios": "https://dc.lft.to/lastmile_qr_scan", "android": "https://dc.lft.to/lastmile_qr_scan"}, "is_reserved": 0}, {"lon": -77.02959266666667, "bike_id": "a7a00450b536194062b4b237a3ad595d", "lat": 38.9238995, "fusion_lon": 0.0, "fusion_lat": 0.0, "type": "electric_scooter", "name": "a7a00450b536194062b4b237a3ad595d", "is_disabled": 0, "rental_uris": {"ios": "https://dc.lft.to/lastmile_qr_scan", "android": "https://dc.lft.to/lastmile_qr_scan"}, "is_reserved": 0}, {"lon": -77.02114983333334, "bike_id": "4b99ae24de75514e4293ebcb1a8f369f", "lat": 38.9369975, "fusion_lon": 0.0, "fusion_lat": 0.0, "type": "electric_scooter", "name": "4b99ae24de75514e4293ebcb1a8f369f", "is_disabled": 0, "rental_uris": {"ios": "https://dc.lft.to/lastmile_qr_scan", "android": "https://dc.lft.to/lastmile_qr_scan"}, "is_reserved": 0}, {"lon": -77.04877816666666, "bike_id": "63272fab4edee897cd8a2d7eee250888", "lat": 38.898463166666666, "fusion_lon": 0.0, "fusion_lat": 0.0, "type": "electric_scooter", "name": "63272fab4edee897cd8a2d7eee250888", "is_disabled": 0, "rental_uris": {"ios": "https://dc.lft.to/lastmile_qr_scan", "android": "https://dc.lft.to/lastmile_qr_scan"}, "is_reserved": 0}, {"lon": -77.02446733333333, "bike_id": "6dd793a2e5a897a2596f030663bc4cc5", "lat": 38.914200666666666, "fusion_lon": 0.0, "fusion_lat": 0.0, "type": "electric_scooter", "name": "6dd793a2e5a897a2596f030663bc4cc5", "is_disabled": 0, "rental_uris": {"ios": "https://dc.lft.to/lastmile_qr_scan", "android": "https://dc.lft.to/lastmile_qr_scan"}, "is_reserved": 0}, {"lon": -77.046556, "bike_id": "9baeea4665444d6b7520b30d08dec00c", "lat": 38.915723166666666, "fusion_lon": 0.0, "fusion_lat": 0.0, "type": "electric_scooter", "name": "9baeea4665444d6b7520b30d08dec00c", "is_disabled": 0, "rental_uris": {"ios": "https://dc.lft.to/lastmile_qr_scan", "android": "https://dc.lft.to/lastmile_qr_scan"}, "is_reserved": 0}, {"lon": -77.02384766666667, "bike_id": "bb686c63487c304fee0ef0e536ff7929", "lat": 38.91994283333333, "fusion_lon": 0.0, "fusion_lat": 0.0, "type": "electric_scooter", "name": "bb686c63487c304fee0ef0e536ff7929", "is_disabled": 0, "rental_uris": {"ios": "https://dc.lft.to/lastmile_qr_scan", "android": "https://dc.lft.to/lastmile_qr_scan"}, "is_reserved": 0}, {"lon": -77.05212583333333, "bike_id": "300f657eb91c33c9dd7414b9472be9d3", "lat": 38.9007645, "fusion_lon": 0.0, "fusion_lat": 0.0, "type": "electric_scooter", "name": "300f657eb91c33c9dd7414b9472be9d3", "is_disabled": 0, "rental_uris": {"ios": "https://dc.lft.to/lastmile_qr_scan", "android": "https://dc.lft.to/lastmile_qr_scan"}, "is_reserved": 0}, {"lon": -77.01114916666667, "bike_id": "89f01971eb1aaf03d899d1530346545b", "lat": 38.8998165, "fusion_lon": 0.0, "fusion_lat": 0.0, "type": "electric_scooter", "name": "89f01971eb1aaf03d899d1530346545b", "is_disabled": 0, "rental_uris": {"ios": "https://dc.lft.to/lastmile_qr_scan", "android": "https://dc.lft.to/lastmile_qr_scan"}, "is_reserved": 0}, {"lon": -77.01616666666666, "bike_id": "19de9f575d923f449197790b7fdc1cf3", "lat": 38.901887333333335, "fusion_lon": 0.0, "fusion_lat": 0.0, "type": "electric_scooter", "name": "19de9f575d923f449197790b7fdc1cf3", "is_disabled": 0, "rental_uris": {"ios": "https://dc.lft.to/lastmile_qr_scan", "android": "https://dc.lft.to/lastmile_qr_scan"}, "is_reserved": 0}, {"lon": -77.01516133333334, "bike_id": "2724840cf07c90bc56111e52a917e05f", "lat": 38.91869783333333, "fusion_lon": 0.0, "fusion_lat": 0.0, "type": "electric_scooter", "name": "2724840cf07c90bc56111e52a917e05f", "is_disabled": 0, "rental_uris": {"ios": "https://dc.lft.to/lastmile_qr_scan", "android": "https://dc.lft.to/lastmile_qr_scan"}, "is_reserved": 0}, {"lon": -76.9995225, "bike_id": "4a23e51ab88380cbf88f9da4c845c3c5", "lat": 38.907430833333336, "fusion_lon": 0.0, "fusion_lat": 0.0, "type": "electric_scooter", "name": "4a23e51ab88380cbf88f9da4c845c3c5", "is_disabled": 0, "rental_uris": {"ios": "https://dc.lft.to/lastmile_qr_scan", "android": "https://dc.lft.to/lastmile_qr_scan"}, "is_reserved": 0}, {"lon": -76.99067866666667, "bike_id": "2809d7a17f52275cc32692d3c3b5f178", "lat": 38.898269, "fusion_lon": 0.0, "fusion_lat": 0.0, "type": "electric_bike", "name": "2809d7a17f52275cc32692d3c3b5f178", "is_disabled": 0, "rental_uris": {"ios": "https://dc.lft.to/lastmile_qr_scan", "android": "https://dc.lft.to/lastmile_qr_scan"}, "is_reserved": 0}, {"lon": -76.99169566666667, "bike_id": "562a879f805b052675471b90d2d57d3f", "lat": 38.889933, "fusion_lon": 0.0, "fusion_lat": 0.0, "type": "electric_scooter", "name": "562a879f805b052675471b90d2d57d3f", "is_disabled": 0, "rental_uris": {"ios": "https://dc.lft.to/lastmile_qr_scan", "android": "https://dc.lft.to/lastmile_qr_scan"}, "is_reserved": 0}, {"lon": -76.97244, "bike_id": "c4ec91522d6069ed0e7687631bcc821a", "lat": 38.903467166666665, "fusion_lon": 0.0, "fusion_lat": 0.0, "type": "electric_scooter", "name": "c4ec91522d6069ed0e7687631bcc821a", "is_disabled": 0, "rental_uris": {"ios": "https://dc.lft.to/lastmile_qr_scan", "android": "https://dc.lft.to/lastmile_qr_scan"}, "is_reserved": 0}, {"lon": -77.01714233333334, "bike_id": "f7de1c237274f6dcc5e9529f5d1d41c2", "lat": 38.904539, "fusion_lon": 0.0, "fusion_lat": 0.0, "type": "electric_scooter", "name": "f7de1c237274f6dcc5e9529f5d1d41c2", "is_disabled": 0, "rental_uris": {"ios": "https://dc.lft.to/lastmile_qr_scan", "android": "https://dc.lft.to/lastmile_qr_scan"}, "is_reserved": 0}, {"lon": -77.01842266666667, "bike_id": "b7166e05d83a354a56adb3034b92e964", "lat": 38.909626833333334, "fusion_lon": 0.0, "fusion_lat": 0.0, "type": "electric_scooter", "name": "b7166e05d83a354a56adb3034b92e964", "is_disabled": 0, "rental_uris": {"ios": "https://dc.lft.to/lastmile_qr_scan", "android": "https://dc.lft.to/lastmile_qr_scan"}, "is_reserved": 0}, {"lon": -77.0088865, "bike_id": "24f9f653918de22a2070982da338733e", "lat": 38.89730766666667, "fusion_lon": 0.0, "fusion_lat": 0.0, "type": "electric_scooter", "name": "24f9f653918de22a2070982da338733e", "is_disabled": 0, "rental_uris": {"ios": "https://dc.lft.to/lastmile_qr_scan", "android": "https://dc.lft.to/lastmile_qr_scan"}, "is_reserved": 0}, {"lon": -77.0198325, "bike_id": "295d58ce75928267853a2753597754a9", "lat": 38.885945166666666, "fusion_lon": 0.0, "fusion_lat": 0.0, "type": "electric_scooter", "name": "295d58ce75928267853a2753597754a9", "is_disabled": 0, "rental_uris": {"ios": "https://dc.lft.to/lastmile_qr_scan", "android": "https://dc.lft.to/lastmile_qr_scan"}, "is_reserved": 0}, {"lon": -77.01836633333333, "bike_id": "0e1ae78c1608853213c927fd098a786d", "lat": 38.90934683333333, "fusion_lon": 0.0, "fusion_lat": 0.0, "type": "electric_scooter", "name": "0e1ae78c1608853213c927fd098a786d", "is_disabled": 0, "rental_uris": {"ios": "https://dc.lft.to/lastmile_qr_scan", "android": "https://dc.lft.to/lastmile_qr_scan"}, "is_reserved": 0}, {"lon": -77.005441, "bike_id": "2adef624deab44a6a62fc96e3b9e0db3", "lat": 38.900350833333334, "fusion_lon": 0.0, "fusion_lat": 0.0, "type": "electric_scooter", "name": "2adef624deab44a6a62fc96e3b9e0db3", "is_disabled": 0, "rental_uris": {"ios": "https://dc.lft.to/lastmile_qr_scan", "android": "https://dc.lft.to/lastmile_qr_scan"}, "is_reserved": 0}, {"lon": -76.98902683333333, "bike_id": "2efe51b317fdf9f5bab2756a3d10c67e", "lat": 38.913492, "fusion_lon": 0.0, "fusion_lat": 0.0, "type": "electric_scooter", "name": "2efe51b317fdf9f5bab2756a3d10c67e", "is_disabled": 0, "rental_uris": {"ios": "https://dc.lft.to/lastmile_qr_scan", "android": "https://dc.lft.to/lastmile_qr_scan"}, "is_reserved": 0}, {"lon": -77.00843116666667, "bike_id": "667b336b0665652decf698440b9eb0fe", "lat": 38.916288333333334, "fusion_lon": 0.0, "fusion_lat": 0.0, "type": "electric_scooter", "name": "667b336b0665652decf698440b9eb0fe", "is_disabled": 0, "rental_uris": {"ios": "https://dc.lft.to/lastmile_qr_scan", "android": "https://dc.lft.to/lastmile_qr_scan"}, "is_reserved": 0}, {"lon": -77.034468, "bike_id": "bab4a1ce97b903e81e8798abc37448bb", "lat": 38.909771666666664, "fusion_lon": 0.0, "fusion_lat": 0.0, "type": "electric_scooter", "name": "bab4a1ce97b903e81e8798abc37448bb", "is_disabled": 0, "rental_uris": {"ios": "https://dc.lft.to/lastmile_qr_scan", "android": "https://dc.lft.to/lastmile_qr_scan"}, "is_reserved": 0}, {"lon": -77.03256883333333, "bike_id": "690ae4c782eec050c742f3c46f1a2cea", "lat": 38.9205205, "fusion_lon": 0.0, "fusion_lat": 0.0, "type": "electric_scooter", "name": "690ae4c782eec050c742f3c46f1a2cea", "is_disabled": 0, "rental_uris": {"ios": "https://dc.lft.to/lastmile_qr_scan", "android": "https://dc.lft.to/lastmile_qr_scan"}, "is_reserved": 0}, {"lon": -77.02209483333333, "bike_id": "b57c7eab09c61de39236155301241da0", "lat": 38.896220166666666, "fusion_lon": 0.0, "fusion_lat": 0.0, "type": "electric_scooter", "name": "b57c7eab09c61de39236155301241da0", "is_disabled": 0, "rental_uris": {"ios": "https://dc.lft.to/lastmile_qr_scan", "android": "https://dc.lft.to/lastmile_qr_scan"}, "is_reserved": 0}, {"lon": -77.0425005, "bike_id": "19ead7ed118db151628f6633cfa8a71c", "lat": 38.909410333333334, "fusion_lon": 0.0, "fusion_lat": 0.0, "type": "electric_scooter", "name": "19ead7ed118db151628f6633cfa8a71c", "is_disabled": 0, "rental_uris": {"ios": "https://dc.lft.to/lastmile_qr_scan", "android": "https://dc.lft.to/lastmile_qr_scan"}, "is_reserved": 0}, {"lon": -77.0344435, "bike_id": "49f210591f327f06367f65eb5befad5c", "lat": 38.914955666666664, "fusion_lon": 0.0, "fusion_lat": 0.0, "type": "electric_scooter", "name": "49f210591f327f06367f65eb5befad5c", "is_disabled": 0, "rental_uris": {"ios": "https://dc.lft.to/lastmile_qr_scan", "android": "https://dc.lft.to/lastmile_qr_scan"}, "is_reserved": 0}, {"lon": -77.03831316666667, "bike_id": "a9a0077205c23d112a94b7ce6f400a59", "lat": 38.9067585, "fusion_lon": 0.0, "fusion_lat": 0.0, "type": "electric_scooter", "name": "a9a0077205c23d112a94b7ce6f400a59", "is_disabled": 0, "rental_uris": {"ios": "https://dc.lft.to/lastmile_qr_scan", "android": "https://dc.lft.to/lastmile_qr_scan"}, "is_reserved": 0}, {"lon": -77.03294316666667, "bike_id": "a8c8c05c0ceaa76a986aa3853efdde52", "lat": 38.92863116666667, "fusion_lon": 0.0, "fusion_lat": 0.0, "type": "electric_scooter", "name": "a8c8c05c0ceaa76a986aa3853efdde52", "is_disabled": 0, "rental_uris": {"ios": "https://dc.lft.to/lastmile_qr_scan", "android": "https://dc.lft.to/lastmile_qr_scan"}, "is_reserved": 0}, {"lon": -77.046465, "bike_id": "430fd64c4c7786ab72955836993ba207", "lat": 38.90960366666667, "fusion_lon": 0.0, "fusion_lat": 0.0, "type": "electric_scooter", "name": "430fd64c4c7786ab72955836993ba207", "is_disabled": 0, "rental_uris": {"ios": "https://dc.lft.to/lastmile_qr_scan", "android": "https://dc.lft.to/lastmile_qr_scan"}, "is_reserved": 0}, {"lon": -77.03153166666667, "bike_id": "18f3ca7fd1710171cf464c84bcc6cdc8", "lat": 38.91702983333333, "fusion_lon": 0.0, "fusion_lat": 0.0, "type": "electric_scooter", "name": "18f3ca7fd1710171cf464c84bcc6cdc8", "is_disabled": 0, "rental_uris": {"ios": "https://dc.lft.to/lastmile_qr_scan", "android": "https://dc.lft.to/lastmile_qr_scan"}, "is_reserved": 0}, {"lon": -77.060105, "bike_id": "fa67aac7b9494f7c6a634a46b9cce1b5", "lat": 38.90114716666667, "fusion_lon": 0.0, "fusion_lat": 0.0, "type": "electric_scooter", "name": "fa67aac7b9494f7c6a634a46b9cce1b5", "is_disabled": 0, "rental_uris": {"ios": "https://dc.lft.to/lastmile_qr_scan", "android": "https://dc.lft.to/lastmile_qr_scan"}, "is_reserved": 0}, {"lon": -77.04007633333333, "bike_id": "7d366d70a2860e2332b3efce9c3e05af", "lat": 38.93432133333334, "fusion_lon": 0.0, "fusion_lat": 0.0, "type": "electric_scooter", "name": "7d366d70a2860e2332b3efce9c3e05af", "is_disabled": 0, "rental_uris": {"ios": "https://dc.lft.to/lastmile_qr_scan", "android": "https://dc.lft.to/lastmile_qr_scan"}, "is_reserved": 0}, {"lon": -77.03264766666666, "bike_id": "0af0ea9728b1a33cab62d574545d4875", "lat": 38.937790166666666, "fusion_lon": 0.0, "fusion_lat": 0.0, "type": "electric_scooter", "name": "0af0ea9728b1a33cab62d574545d4875", "is_disabled": 0, "rental_uris": {"ios": "https://dc.lft.to/lastmile_qr_scan", "android": "https://dc.lft.to/lastmile_qr_scan"}, "is_reserved": 0}, {"lon": -77.02474366666667, "bike_id": "feee31e824a7e349fdd2cdfbb5b77b38", "lat": 38.92093283333333, "fusion_lon": 0.0, "fusion_lat": 0.0, "type": "electric_scooter", "name": "feee31e824a7e349fdd2cdfbb5b77b38", "is_disabled": 0, "rental_uris": {"ios": "https://dc.lft.to/lastmile_qr_scan", "android": "https://dc.lft.to/lastmile_qr_scan"}, "is_reserved": 0}, {"lon": -77.05705083333334, "bike_id": "5488383e892860f7abb1b53471552ec8", "lat": 38.9055135, "fusion_lon": 0.0, "fusion_lat": 0.0, "type": "electric_scooter", "name": "5488383e892860f7abb1b53471552ec8", "is_disabled": 0, "rental_uris": {"ios": "https://dc.lft.to/lastmile_qr_scan", "android": "https://dc.lft.to/lastmile_qr_scan"}, "is_reserved": 0}, {"lon": -77.06020916666667, "bike_id": "793c78a496319c524b7d0fa14d26cae3", "lat": 38.90501716666667, "fusion_lon": 0.0, "fusion_lat": 0.0, "type": "electric_scooter", "name": "793c78a496319c524b7d0fa14d26cae3", "is_disabled": 0, "rental_uris": {"ios": "https://dc.lft.to/lastmile_qr_scan", "android": "https://dc.lft.to/lastmile_qr_scan"}, "is_reserved": 0}, {"lon": -77.044947, "bike_id": "fb4adb878b9262c07c973239c5c4cebb", "lat": 38.9136525, "fusion_lon": 0.0, "fusion_lat": 0.0, "type": "electric_scooter", "name": "fb4adb878b9262c07c973239c5c4cebb", "is_disabled": 0, "rental_uris": {"ios": "https://dc.lft.to/lastmile_qr_scan", "android": "https://dc.lft.to/lastmile_qr_scan"}, "is_reserved": 0}, {"lon": -77.03855283333333, "bike_id": "c32cee00866faa01d912c86c0a514383", "lat": 38.911985666666666, "fusion_lon": 0.0, "fusion_lat": 0.0, "type": "electric_scooter", "name": "c32cee00866faa01d912c86c0a514383", "is_disabled": 0, "rental_uris": {"ios": "https://dc.lft.to/lastmile_qr_scan", "android": "https://dc.lft.to/lastmile_qr_scan"}, "is_reserved": 0}, {"lon": -76.941047, "bike_id": "385cd77a3efd45b34de0b0efe176006c", "lat": 38.88647666666667, "fusion_lon": 0.0, "fusion_lat": 0.0, "type": "electric_scooter", "name": "385cd77a3efd45b34de0b0efe176006c", "is_disabled": 0, "rental_uris": {"ios": "https://dc.lft.to/lastmile_qr_scan", "android": "https://dc.lft.to/lastmile_qr_scan"}, "is_reserved": 0}, {"lon": -76.965268, "bike_id": "abc61b84997fe57abe6ca1c691a4c975", "lat": 38.87628933333333, "fusion_lon": 0.0, "fusion_lat": 0.0, "type": "electric_scooter", "name": "abc61b84997fe57abe6ca1c691a4c975", "is_disabled": 0, "rental_uris": {"ios": "https://dc.lft.to/lastmile_qr_scan", "android": "https://dc.lft.to/lastmile_qr_scan"}, "is_reserved": 0}, {"lon": -76.98499533333333, "bike_id": "d937b9ee1fed6ca670b028249bcd2489", "lat": 38.87838833333333, "fusion_lon": 0.0, "fusion_lat": 0.0, "type": "electric_scooter", "name": "d937b9ee1fed6ca670b028249bcd2489", "is_disabled": 0, "rental_uris": {"ios": "https://dc.lft.to/lastmile_qr_scan", "android": "https://dc.lft.to/lastmile_qr_scan"}, "is_reserved": 0}, {"lon": -76.93735983333333, "bike_id": "68ba92da3650be001ccf14bdd7925890", "lat": 38.890171333333335, "fusion_lon": 0.0, "fusion_lat": 0.0, "type": "electric_scooter", "name": "68ba92da3650be001ccf14bdd7925890", "is_disabled": 0, "rental_uris": {"ios": "https://dc.lft.to/lastmile_qr_scan", "android": "https://dc.lft.to/lastmile_qr_scan"}, "is_reserved": 0}, {"lon": -77.02156683333334, "bike_id": "51f0b74d1dcdd625dd2b05b573764bec", "lat": 38.89723133333333, "fusion_lon": 0.0, "fusion_lat": 0.0, "type": "electric_scooter", "name": "51f0b74d1dcdd625dd2b05b573764bec", "is_disabled": 0, "rental_uris": {"ios": "https://dc.lft.to/lastmile_qr_scan", "android": "https://dc.lft.to/lastmile_qr_scan"}, "is_reserved": 0}, {"lon": -77.03448083333333, "bike_id": "ab87a7702ce57c8334d69cf5603c9060", "lat": 38.9098055, "fusion_lon": 0.0, "fusion_lat": 0.0, "type": "electric_scooter", "name": "ab87a7702ce57c8334d69cf5603c9060", "is_disabled": 0, "rental_uris": {"ios": "https://dc.lft.to/lastmile_qr_scan", "android": "https://dc.lft.to/lastmile_qr_scan"}, "is_reserved": 0}, {"lon": -77.05686933333334, "bike_id": "be222ceacd2a845c7acc5930d129710c", "lat": 38.90516933333333, "fusion_lon": 0.0, "fusion_lat": 0.0, "type": "electric_bike", "name": "be222ceacd2a845c7acc5930d129710c", "is_disabled": 0, "rental_uris": {"ios": "https://dc.lft.to/lastmile_qr_scan", "android": "https://dc.lft.to/lastmile_qr_scan"}, "is_reserved": 0}, {"lon": -76.99001316666667, "bike_id": "2c9ce75737578f933a0469509217adbd", "lat": 38.86505783333333, "fusion_lon": 0.0, "fusion_lat": 0.0, "type": "electric_scooter", "name": "2c9ce75737578f933a0469509217adbd", "is_disabled": 0, "rental_uris": {"ios": "https://dc.lft.to/lastmile_qr_scan", "android": "https://dc.lft.to/lastmile_qr_scan"}, "is_reserved": 0}, {"lon": -77.04164216666666, "bike_id": "35bd25df6911bc99f44cdce41253d18c", "lat": 38.9125725, "fusion_lon": 0.0, "fusion_lat": 0.0, "type": "electric_scooter", "name": "35bd25df6911bc99f44cdce41253d18c", "is_disabled": 0, "rental_uris": {"ios": "https://dc.lft.to/lastmile_qr_scan", "android": "https://dc.lft.to/lastmile_qr_scan"}, "is_reserved": 0}, {"lon": -77.02721933333333, "bike_id": "d08691bfe1863ce7b30c539d596fffb9", "lat": 38.897862, "fusion_lon": 0.0, "fusion_lat": 0.0, "type": "electric_scooter", "name": "d08691bfe1863ce7b30c539d596fffb9", "is_disabled": 0, "rental_uris": {"ios": "https://dc.lft.to/lastmile_qr_scan", "android": "https://dc.lft.to/lastmile_qr_scan"}, "is_reserved": 0}, {"lon": -76.98941116666667, "bike_id": "57e4a11542dda988a41d0d37a3fc4233", "lat": 38.90182166666666, "fusion_lon": 0.0, "fusion_lat": 0.0, "type": "electric_scooter", "name": "57e4a11542dda988a41d0d37a3fc4233", "is_disabled": 0, "rental_uris": {"ios": "https://dc.lft.to/lastmile_qr_scan", "android": "https://dc.lft.to/lastmile_qr_scan"}, "is_reserved": 0}, {"lon": -77.041503, "bike_id": "b4f1be7af763bbbf92a51c1327c2c785", "lat": 38.92334783333333, "fusion_lon": 0.0, "fusion_lat": 0.0, "type": "electric_scooter", "name": "b4f1be7af763bbbf92a51c1327c2c785", "is_disabled": 0, "rental_uris": {"ios": "https://dc.lft.to/lastmile_qr_scan", "android": "https://dc.lft.to/lastmile_qr_scan"}, "is_reserved": 0}, {"lon": -77.04104666666667, "bike_id": "1ba57f4c51dd181f0d60d8dd7b80d356", "lat": 38.9231315, "fusion_lon": 0.0, "fusion_lat": 0.0, "type": "electric_scooter", "name": "1ba57f4c51dd181f0d60d8dd7b80d356", "is_disabled": 0, "rental_uris": {"ios": "https://dc.lft.to/lastmile_qr_scan", "android": "https://dc.lft.to/lastmile_qr_scan"}, "is_reserved": 0}, {"lon": -77.03049266666666, "bike_id": "5982da9569db6b6f0da903c9df866999", "lat": 38.884282, "fusion_lon": 0.0, "fusion_lat": 0.0, "type": "electric_scooter", "name": "5982da9569db6b6f0da903c9df866999", "is_disabled": 0, "rental_uris": {"ios": "https://dc.lft.to/lastmile_qr_scan", "android": "https://dc.lft.to/lastmile_qr_scan"}, "is_reserved": 0}, {"lon": -77.04172516666667, "bike_id": "d5d69bfec3f0fab01585b8b58208d5f1", "lat": 38.9231635, "fusion_lon": 0.0, "fusion_lat": 0.0, "type": "electric_scooter", "name": "d5d69bfec3f0fab01585b8b58208d5f1", "is_disabled": 0, "rental_uris": {"ios": "https://dc.lft.to/lastmile_qr_scan", "android": "https://dc.lft.to/lastmile_qr_scan"}, "is_reserved": 0}, {"lon": -76.95749883333333, "bike_id": "4311e6b1a612dcd824ed53558c52b80b", "lat": 38.88428533333333, "fusion_lon": 0.0, "fusion_lat": 0.0, "type": "electric_scooter", "name": "4311e6b1a612dcd824ed53558c52b80b", "is_disabled": 0, "rental_uris": {"ios": "https://dc.lft.to/lastmile_qr_scan", "android": "https://dc.lft.to/lastmile_qr_scan"}, "is_reserved": 0}, {"lon": -77.05034983333333, "bike_id": "6a8fbc5b0e02952cf821cfcedc8e3840", "lat": 38.90168283333333, "fusion_lon": 0.0, "fusion_lat": 0.0, "type": "electric_scooter", "name": "6a8fbc5b0e02952cf821cfcedc8e3840", "is_disabled": 0, "rental_uris": {"ios": "https://dc.lft.to/lastmile_qr_scan", "android": "https://dc.lft.to/lastmile_qr_scan"}, "is_reserved": 0}, {"lon": -77.03038166666667, "bike_id": "3fba77551f2532c3ef346ff346c1b6ae", "lat": 38.878448, "fusion_lon": 0.0, "fusion_lat": 0.0, "type": "electric_scooter", "name": "3fba77551f2532c3ef346ff346c1b6ae", "is_disabled": 0, "rental_uris": {"ios": "https://dc.lft.to/lastmile_qr_scan", "android": "https://dc.lft.to/lastmile_qr_scan"}, "is_reserved": 0}, {"lon": -77.02580016666667, "bike_id": "f2632b0db10864783405398f9bf697f1", "lat": 38.887416333333334, "fusion_lon": 0.0, "fusion_lat": 0.0, "type": "electric_scooter", "name": "f2632b0db10864783405398f9bf697f1", "is_disabled": 0, "rental_uris": {"ios": "https://dc.lft.to/lastmile_qr_scan", "android": "https://dc.lft.to/lastmile_qr_scan"}, "is_reserved": 0}, {"lon": -77.0386775, "bike_id": "b40cf9698adfd8f23618dd3dabbec288", "lat": 38.912618333333334, "fusion_lon": 0.0, "fusion_lat": 0.0, "type": "electric_scooter", "name": "b40cf9698adfd8f23618dd3dabbec288", "is_disabled": 0, "rental_uris": {"ios": "https://dc.lft.to/lastmile_qr_scan", "android": "https://dc.lft.to/lastmile_qr_scan"}, "is_reserved": 0}, {"lon": -77.02203133333333, "bike_id": "d0df96721cbc128f7b52934c928ad41c", "lat": 38.9164775, "fusion_lon": 0.0, "fusion_lat": 0.0, "type": "electric_scooter", "name": "d0df96721cbc128f7b52934c928ad41c", "is_disabled": 0, "rental_uris": {"ios": "https://dc.lft.to/lastmile_qr_scan", "android": "https://dc.lft.to/lastmile_qr_scan"}, "is_reserved": 0}, {"lon": -77.03840033333333, "bike_id": "72c605aa8bb3a58bf722e8f6fab49e1f", "lat": 38.91012283333333, "fusion_lon": 0.0, "fusion_lat": 0.0, "type": "electric_scooter", "name": "72c605aa8bb3a58bf722e8f6fab49e1f", "is_disabled": 0, "rental_uris": {"ios": "https://dc.lft.to/lastmile_qr_scan", "android": "https://dc.lft.to/lastmile_qr_scan"}, "is_reserved": 0}, {"lon": -77.02477683333333, "bike_id": "27a69506bda3b6ac09ec4712a35a098d", "lat": 38.925920833333336, "fusion_lon": 0.0, "fusion_lat": 0.0, "type": "electric_scooter", "name": "27a69506bda3b6ac09ec4712a35a098d", "is_disabled": 0, "rental_uris": {"ios": "https://dc.lft.to/lastmile_qr_scan", "android": "https://dc.lft.to/lastmile_qr_scan"}, "is_reserved": 0}, {"lon": -77.01703066666667, "bike_id": "bde54ce8f2a1c97710d5dc0bdfe0489d", "lat": 38.902666333333336, "fusion_lon": 0.0, "fusion_lat": 0.0, "type": "electric_scooter", "name": "bde54ce8f2a1c97710d5dc0bdfe0489d", "is_disabled": 0, "rental_uris": {"ios": "https://dc.lft.to/lastmile_qr_scan", "android": "https://dc.lft.to/lastmile_qr_scan"}, "is_reserved": 0}, {"lon": -76.9784405, "bike_id": "e3b69a88c256d22082f868d4e0d42b2e", "lat": 38.8657205, "fusion_lon": 0.0, "fusion_lat": 0.0, "type": "electric_scooter", "name": "e3b69a88c256d22082f868d4e0d42b2e", "is_disabled": 0, "rental_uris": {"ios": "https://dc.lft.to/lastmile_qr_scan", "android": "https://dc.lft.to/lastmile_qr_scan"}, "is_reserved": 0}, {"lon": -77.03866033333334, "bike_id": "21656b5fc4c35af9ebde0186e855ac02", "lat": 38.909709666666664, "fusion_lon": 0.0, "fusion_lat": 0.0, "type": "electric_scooter", "name": "21656b5fc4c35af9ebde0186e855ac02", "is_disabled": 0, "rental_uris": {"ios": "https://dc.lft.to/lastmile_qr_scan", "android": "https://dc.lft.to/lastmile_qr_scan"}, "is_reserved": 0}, {"lon": -77.03806366666667, "bike_id": "0dbf4bc4e2ead3da8b05dfbb773c44bf", "lat": 38.93110583333333, "fusion_lon": 0.0, "fusion_lat": 0.0, "type": "electric_scooter", "name": "0dbf4bc4e2ead3da8b05dfbb773c44bf", "is_disabled": 0, "rental_uris": {"ios": "https://dc.lft.to/lastmile_qr_scan", "android": "https://dc.lft.to/lastmile_qr_scan"}, "is_reserved": 0}, {"lon": -77.02407233333334, "bike_id": "3647d6a6f5014ebdda987c07c5659ccc", "lat": 38.91525516666667, "fusion_lon": 0.0, "fusion_lat": 0.0, "type": "electric_scooter", "name": "3647d6a6f5014ebdda987c07c5659ccc", "is_disabled": 0, "rental_uris": {"ios": "https://dc.lft.to/lastmile_qr_scan", "android": "https://dc.lft.to/lastmile_qr_scan"}, "is_reserved": 0}, {"lon": -77.02726883333334, "bike_id": "bcc2852fb8145812f732e4d6b1f765a5", "lat": 38.89715833333333, "fusion_lon": 0.0, "fusion_lat": 0.0, "type": "electric_scooter", "name": "bcc2852fb8145812f732e4d6b1f765a5", "is_disabled": 0, "rental_uris": {"ios": "https://dc.lft.to/lastmile_qr_scan", "android": "https://dc.lft.to/lastmile_qr_scan"}, "is_reserved": 0}, {"lon": -76.94894033333334, "bike_id": "167e6effa04b9b5755277d5e8fe5b573", "lat": 38.8953095, "fusion_lon": 0.0, "fusion_lat": 0.0, "type": "electric_scooter", "name": "167e6effa04b9b5755277d5e8fe5b573", "is_disabled": 0, "rental_uris": {"ios": "https://dc.lft.to/lastmile_qr_scan", "android": "https://dc.lft.to/lastmile_qr_scan"}, "is_reserved": 0}, {"lon": -77.03603716666667, "bike_id": "9231339c1fb2418b8c4512a8e66ac194", "lat": 38.91778633333333, "fusion_lon": 0.0, "fusion_lat": 0.0, "type": "electric_scooter", "name": "9231339c1fb2418b8c4512a8e66ac194", "is_disabled": 0, "rental_uris": {"ios": "https://dc.lft.to/lastmile_qr_scan", "android": "https://dc.lft.to/lastmile_qr_scan"}, "is_reserved": 0}, {"lon": -77.03900583333333, "bike_id": "4f0218ec02510830f2f26a1e912bc71a", "lat": 38.92346416666667, "fusion_lon": 0.0, "fusion_lat": 0.0, "type": "electric_scooter", "name": "4f0218ec02510830f2f26a1e912bc71a", "is_disabled": 0, "rental_uris": {"ios": "https://dc.lft.to/lastmile_qr_scan", "android": "https://dc.lft.to/lastmile_qr_scan"}, "is_reserved": 0}, {"lon": -76.98751783333333, "bike_id": "03b04b2c843c70023d42858742796b46", "lat": 38.9002045, "fusion_lon": 0.0, "fusion_lat": 0.0, "type": "electric_scooter", "name": "03b04b2c843c70023d42858742796b46", "is_disabled": 0, "rental_uris": {"ios": "https://dc.lft.to/lastmile_qr_scan", "android": "https://dc.lft.to/lastmile_qr_scan"}, "is_reserved": 0}, {"lon": -77.07010033333333, "bike_id": "28517aeef88798c3fcafa9bd7a7c9ace", "lat": 38.95853533333333, "fusion_lon": 0.0, "fusion_lat": 0.0, "type": "electric_scooter", "name": "28517aeef88798c3fcafa9bd7a7c9ace", "is_disabled": 0, "rental_uris": {"ios": "https://dc.lft.to/lastmile_qr_scan", "android": "https://dc.lft.to/lastmile_qr_scan"}, "is_reserved": 0}, {"lon": -77.02898066666667, "bike_id": "634ab5b6d8c05092afaec637c6b8f272", "lat": 38.91701783333333, "fusion_lon": 0.0, "fusion_lat": 0.0, "type": "electric_scooter", "name": "634ab5b6d8c05092afaec637c6b8f272", "is_disabled": 0, "rental_uris": {"ios": "https://dc.lft.to/lastmile_qr_scan", "android": "https://dc.lft.to/lastmile_qr_scan"}, "is_reserved": 0},