{"data": {"bikes": [{"bike_id": "c2362aa73f0c7c4c2e95d564a0c53316", "is_reserved": 0, "fusion_lon": 0.0, "lat": 38.887659166666666, "is_disabled": 0, "name": "c2362aa73f0c7c4c2e95d564a0c53316", "fusion_lat": 0.0, "rental_uris": {"ios": "https://dc.lft.to/lastmile_qr_scan", "android": "https://dc.lft.to/lastmile_qr_scan"}, "lon": -77.03134816666666, "type": "electric_scooter"}, {"bike_id": "3aefe6bcc18798ea7f4161a702fe1d4c", "is_reserved": 0, "fusion_lon": 0.0, "lat": 38.91271833333333, "is_disabled": 0, "name": "3aefe6bcc18798ea7f4161a702fe1d4c", "fusion_lat": 0.0, "rental_uris": {"ios": "https://dc.lft.to/lastmile_qr_scan", "android": "https://dc.lft.to/lastmile_qr_scan"}, "lon": -77.01611433333333, "type": "electric_scooter"}, {"bike_id": "4428acdbccb191b53eabd554082da73c", "is_reserved": 0, "fusion_lon": 0.0, "lat": 38.88966966666667, "is_disabled": 0, "name": "4428acdbccb191b53eabd554082da73c", "fusion_lat": 0.0, "rental_uris": {"ios": "https://dc.lft.to/lastmile_qr_scan", "android": "https://dc.lft.to/lastmile_qr_scan"}, "lon": -76.98032616666667, "type": "electric_bike"}, {"bike_id": "421cfb118561c19a9f9d0b9ce0e17dd0", "is_reserved": 0, "fusion_lon": 0.0, "lat": 38.93000283333333, "is_disabled": 0, "name": "421cfb118561c19a9f9d0b9ce0e17dd0", "fusion_lat": 0.0, "rental_uris": {"ios": "https://dc.lft.to/lastmile_qr_scan", "android": "https://dc.lft.to/lastmile_qr_scan"}, "lon": -77.055374, "type": "electric_scooter"}, {"bike_id": "3ced26db00405f39c641a6a3fa284c2c", "is_reserved": 0, "fusion_lon": 0.0, "lat": 38.93775316666667, "is_disabled": 0, "name": "3ced26db00405f39c641a6a3fa284c2c", "fusion_lat": 0.0, "rental_uris": {"ios": "https://dc.lft.to/lastmile_qr_scan", "android": "https://dc.lft.to/lastmile_qr_scan"}, "lon": -77.01913, "type": "electric_bike"}, {"bike_id": "a6345ccf5d7a386029e6c6c5ab0cf7c6", "is_reserved": 0, "fusion_lon": 0.0, "lat": 38.887471166666664, "is_disabled": 0, "name": "a6345ccf5d7a386029e6c6c5ab0cf7c6", "fusion_lat": 0.0, "rental_uris": {"ios": "https://dc.lft.to/lastmile_qr_scan", "android": "https://dc.lft.to/lastmile_qr_scan"}, "lon": -77.0201525, "type": "electric_scooter"}, {"bike_id": "ae163b71c0b33469cd0c963d69624286", "is_reserved": 0, "fusion_lon": 0.0, "lat": 38.88228466666666, "is_disabled": 0, "name": "ae163b71c0b33469cd0c963d69624286", "fusion_lat": 0.0, "rental_uris": {"ios": "https://dc.lft.to/lastmile_qr_scan", "android": "https://dc.lft.to/lastmile_qr_scan"}, "lon": -76.99087383333334, "type": "electric_scooter"}, {"bike_id": "009342c337353ff2302d482c850f1fb5", "is_reserved": 0, "fusion_lon": 0.0, "lat": 38.9241155, "is_disabled": 0, "name": "009342c337353ff2302d482c850f1fb5", "fusion_lat": 0.0, "rental_uris": {"ios": "https://dc.lft.to/lastmile_qr_scan", "android": "https://dc.lft.to/lastmile_qr_scan"}, "lon": -77.01983566666667, "type": "electric_scooter"}, {"bike_id": "2798efb2add91af0cf00ffb9e7519516", "is_reserved": 0, "fusion_lon": 0.0, "lat": 38.88496, "is_disabled": 0, "name": "2798efb2add91af0cf00ffb9e7519516", "fusion_lat": 0.0, "rental_uris": {"ios": "https://dc.lft.to/lastmile_qr_scan", "android": "https://dc.lft.to/lastmile_qr_scan"}, "lon": -77.00726783333333, "type": "electric_scooter"}, {"bike_id": "ac0c37aabd9b74abec89a75fbef1a7c8", "is_reserved": 0, "fusion_lon": 0.0, "lat": 38.910242, "is_disabled": 0, "name": "ac0c37aabd9b74abec89a75fbef1a7c8", "fusion_lat": 0.0, "rental_uris": {"ios": "https://dc.lft.to/lastmile_qr_scan", "android": "https://dc.lft.to/lastmile_qr_scan"}, "lon": -77.04005, "type": "electric_scooter"}, {"bike_id": "37985f92f0653e9cfc75049736b89578", "is_reserved": 0, "fusion_lon": 0.0, "lat": 38.9248065, "is_disabled": 0, "name": "37985f92f0653e9cfc75049736b89578", "fusion_lat": 0.0, "rental_uris": {"ios": "https://dc.lft.to/lastmile_qr_scan", "android": "https://dc.lft.to/lastmile_qr_scan"}, "lon": -77.02712033333333, "type": "electric_scooter"}, {"bike_id": "ea43704483cf6c093abee96b77b1d788", "is_reserved": 0, "fusion_lon": 0.0, "lat": 38.9308415, "is_disabled": 0, "name": "ea43704483cf6c093abee96b77b1d788", "fusion_lat": 0.0, "rental_uris": {"ios": "https://dc.lft.to/lastmile_qr_scan", "android": "https://dc.lft.to/lastmile_qr_scan"}, "lon": -77.02791583333334, "type": "electric_scooter"}, {"bike_id": "1517e1d1d8a23edc750d824533358b1e", "is_reserved": 0, "fusion_lon": 0.0, "lat": 38.956417, "is_disabled": 0, "name": "1517e1d1d8a23edc750d824533358b1e", "fusion_lat": 0.0, "rental_uris": {"ios": "https://dc.lft.to/lastmile_qr_scan", "android": "https://dc.lft.to/lastmile_qr_scan"}, "lon": -76.99790766666666, "type": "electric_scooter"}, {"bike_id": "5f67a023c1838dfd455631b3e72434d4", "is_reserved": 0, "fusion_lon": 0.0, "lat": 38.89993533333333, "is_disabled": 0, "name": "5f67a023c1838dfd455631b3e72434d4", "fusion_lat": 0.0, "rental_uris": {"ios": "https://dc.lft.to/lastmile_qr_scan", "android": "https://dc.lft.to/lastmile_qr_scan"}, "lon": -76.99474833333333, "type": "electric_scooter"}, {"bike_id": "4849855fe7b8eae36059caebfd7fcdda", "is_reserved": 0, "fusion_lon": 0.0, "lat": 38.832356833333336, "is_disabled": 0, "name": "4849855fe7b8eae36059caebfd7fcdda", "fusion_lat": 0.0, "rental_uris": {"ios": "https://dc.lft.to/lastmile_qr_scan", "android": "https://dc.lft.to/lastmile_qr_scan"}, "lon": -76.94624183333333, "type": "electric_bike"}, {"bike_id": "271fae33e8e162a49893825cc3130d11", "is_reserved": 0, "fusion_lon": 0.0, "lat": 38.895287, "is_disabled": 0, "name": "271fae33e8e162a49893825cc3130d11", "fusion_lat": 0.0, "rental_uris": {"ios": "https://dc.lft.to/lastmile_qr_scan", "android": "https://dc.lft.to/lastmile_qr_scan"}, "lon": -77.033446, "type": "electric_scooter"}, {"bike_id": "2a897ae3d74893c13692d55a8f9afa7e", "is_reserved": 0, "fusion_lon": 0.0, "lat": 38.9244675, "is_disabled": 0, "name": "2a897ae3d74893c13692d55a8f9afa7e", "fusion_lat": 0.0, "rental_uris": {"ios": "https://dc.lft.to/lastmile_qr_scan", "android": "https://dc.lft.to/lastmile_qr_scan"}, "lon": -77.02023883333334, "type": "electric_scooter"}, {"bike_id": "74236c25f0b437e48500154efe1324ce", "is_reserved": 0, "fusion_lon": 0.0, "lat": 38.9141135, "is_disabled": 0, "name": "74236c25f0b437e48500154efe1324ce", "fusion_lat": 0.0, "rental_uris": {"ios": "https://dc.lft.to/lastmile_qr_scan", "android": "https://dc.lft.to/lastmile_qr_scan"}, "lon": -77.045674, "type": "electric_scooter"}, {"bike_id": "dcb4b89cc166ab939383105837df6877", "is_reserved": 0, "fusion_lon": 0.0, "lat": 38.92451483333333, "is_disabled": 0, "name": "dcb4b89cc166ab939383105837df6877", "fusion_lat": 0.0, "rental_uris": {"ios": "https://dc.lft.to/lastmile_qr_scan", "android": "https://dc.lft.to/lastmile_qr_scan"}, "lon": -77.03369933333333, "type": "electric_scooter"}, {"bike_id": "b2e4c666e018c5e317f8096e95776020", "is_reserved": 0, "fusion_lon": 0.0, "lat": 38.94092783333333, "is_disabled": 0, "name": "b2e4c666e018c5e317f8096e95776020", "fusion_lat": 0.0, "rental_uris": {"ios": "https://dc.lft.to/lastmile_qr_scan", "android": "https://dc.lft.to/lastmile_qr_scan"}, "lon": -77.0328015, "type": "electric_scooter"}, {"bike_id": "b5643987cbb9a2773753a12c8b26a06f", "is_reserved": 0, "fusion_lon": 0.0, "lat": 38.91049983333333, "is_disabled": 0, "name": "b5643987cbb9a2773753a12c8b26a06f", "fusion_lat": 0.0, "rental_uris": {"ios": "https://dc.lft.to/lastmile_qr_scan", "android": "https://dc.lft.to/lastmile_qr_scan"}, "lon": -77.01511266666667, "type": "electric_scooter"}, {"bike_id": "08c6bf005628d8ac2f42ca96f8aac74a", "is_reserved": 0, "fusion_lon": 0.0, "lat": 38.972327666666665, "is_disabled": 0, "name": "08c6bf005628d8ac2f42ca96f8aac74a", "fusion_lat": 0.0, "rental_uris": {"ios": "https://dc.lft.to/lastmile_qr_scan", "android": "https://dc.lft.to/lastmile_qr_scan"}, "lon": -77.02709883333333, "type": "electric_scooter"}, {"bike_id": "436af0ad0e832252ec72c4c30aaa1d03", "is_reserved": 0, "fusion_lon": 0.0, "lat": 38.86421766666667, "is_disabled": 0, "name": "436af0ad0e832252ec72c4c30aaa1d03", "fusion_lat": 0.0, "rental_uris": {"ios": "https://dc.lft.to/lastmile_qr_scan", "android": "https://dc.lft.to/lastmile_qr_scan"}, "lon": -76.97460133333334, "type": "electric_scooter"}, {"bike_id": "cc016d0b65022e06c0ec24ac8cf9594f", "is_reserved": 0, "fusion_lon": 0.0, "lat": 38.90829866666667, "is_disabled": 0, "name": "cc016d0b65022e06c0ec24ac8cf9594f", "fusion_lat": 0.0, "rental_uris": {"ios": "https://dc.lft.to/lastmile_qr_scan", "android": "https://dc.lft.to/lastmile_qr_scan"}, "lon": -77.044651, "type": "electric_scooter"}, {"bike_id": "20a6ef7577f6774dbe62190039c441bc", "is_reserved": 0, "fusion_lon": 0.0, "lat": 38.93204633333333, "is_disabled": 0, "name": "20a6ef7577f6774dbe62190039c441bc", "fusion_lat": 0.0, "rental_uris": {"ios": "https://dc.lft.to/lastmile_qr_scan", "android": "https://dc.lft.to/lastmile_qr_scan"}, "lon": -77.0384535, "type": "electric_scooter"}, {"bike_id": "e0568cbb35011b8de5f963b287313df7", "is_reserved": 0, "fusion_lon": 0.0, "lat": 38.90795683333333, "is_disabled": 0, "name": "e0568cbb35011b8de5f963b287313df7", "fusion_lat": 0.0, "rental_uris": {"ios": "https://dc.lft.to/lastmile_qr_scan", "android": "https://dc.lft.to/lastmile_qr_scan"}, "lon": -77.04870466666667, "type": "electric_scooter"}, {"bike_id": "91dbc20bd87f77a737b27a23f3f10f80", "is_reserved": 0, "fusion_lon": 0.0, "lat": 38.9450915, "is_disabled": 0, "name": "91dbc20bd87f77a737b27a23f3f10f80", "fusion_lat": 0.0, "rental_uris": {"ios": "https://dc.lft.to/lastmile_qr_scan", "android": "https://dc.lft.to/lastmile_qr_scan"}, "lon": -77.00673666666667, "type": "electric_bike"}, {"bike_id": "252f6bd74408b7bfc76c80d1c5012d6c", "is_reserved": 0, "fusion_lon": 0.0, "lat": 38.88594416666667, "is_disabled": 0, "name": "252f6bd74408b7bfc76c80d1c5012d6c", "fusion_lat": 0.0, "rental_uris": {"ios": "https://dc.lft.to/lastmile_qr_scan", "android": "https://dc.lft.to/lastmile_qr_scan"}, "lon": -76.9526955, "type": "electric_scooter"}, {"bike_id": "80b4745ac84c5b1b453a666ce3c385bf", "is_reserved": 0, "fusion_lon": 0.0, "lat": 38.91961216666667, "is_disabled": 0, "name": "80b4745ac84c5b1b453a666ce3c385bf", "fusion_lat": 0.0, "rental_uris": {"ios": "https://dc.lft.to/lastmile_qr_scan", "android": "https://dc.lft.to/lastmile_qr_scan"}, "lon": -77.03177133333334, "type": "electric_scooter"}, {"bike_id": "42001ad60768f703e63cbf658df2fd3c", "is_reserved": 0, "fusion_lon": 0.0, "lat": 38.864179, "is_disabled": 0, "name": "42001ad60768f703e63cbf658df2fd3c", "fusion_lat": 0.0, "rental_uris": {"ios": "https://dc.lft.to/lastmile_qr_scan", "android": "https://dc.lft.to/lastmile_qr_scan"}, "lon": -76.9805, "type": "electric_scooter"}, {"bike_id": "c8b2443c3373501f1e2ce1fa9dc7acdf", "is_reserved": 0, "fusion_lon": 0.0, "lat": 38.926667333333334, "is_disabled": 0, "name": "c8b2443c3373501f1e2ce1fa9dc7acdf", "fusion_lat": 0.0, "rental_uris": {"ios": "https://dc.lft.to/lastmile_qr_scan", "android": "https://dc.lft.to/lastmile_qr_scan"}, "lon": -77.0311935, "type": "electric_scooter"}, {"bike_id": "75df517604a71cb4e4097640cc41a2c5", "is_reserved": 0, "fusion_lon": 0.0, "lat": 38.904726, "is_disabled": 0, "name": "75df517604a71cb4e4097640cc41a2c5", "fusion_lat": 0.0, "rental_uris": {"ios": "https://dc.lft.to/lastmile_qr_scan", "android": "https://dc.lft.to/lastmile_qr_scan"}, "lon": -77.00751816666667, "type": "electric_scooter"}, {"bike_id": "adcae03314c1617ddcd228f5a9f26075", "is_reserved": 0, "fusion_lon": 0.0, "lat": 38.92864216666667, "is_disabled": 0, "name": "adcae03314c1617ddcd228f5a9f26075", "fusion_lat": 0.0, "rental_uris": {"ios": "https://dc.lft.to/lastmile_qr_scan", "android": "https://dc.lft.to/lastmile_qr_scan"}, "lon": -77.0272755, "type": "electric_scooter"}, {"bike_id": "ef80b38964f029caf86b39fa3c6c92d1", "is_reserved": 0, "fusion_lon": 0.0, "lat": 38.973205666666665, "is_disabled": 0, "name": "ef80b38964f029caf86b39fa3c6c92d1", "fusion_lat": 0.0, "rental_uris": {"ios": "https://dc.lft.to/lastmile_qr_scan", "android": "https://dc.lft.to/lastmile_qr_scan"}, "lon": -77.0215065, "type": "electric_bike"}, {"bike_id": "91ac64fe5e3679cebe11cd7a7699dece", "is_reserved": 0, "fusion_lon": 0.0, "lat": 38.903224333333334, "is_disabled": 0, "name": "91ac64fe5e3679cebe11cd7a7699dece", "fusion_lat": 0.0, "rental_uris": {"ios": "https://dc.lft.to/lastmile_qr_scan", "android": "https://dc.lft.to/lastmile_qr_scan"}, "lon": -77.03823466666667, "type": "electric_scooter"}, {"bike_id": "94a286c7e0cb926234cf3797b7235c7a", "is_reserved": 0, "fusion_lon": 0.0, "lat": 38.917119, "is_disabled": 0, "name": "94a286c7e0cb926234cf3797b7235c7a", "fusion_lat": 0.0, "rental_uris": {"ios": "https://dc.lft.to/lastmile_qr_scan", "android": "https://dc.lft.to/lastmile_qr_scan"}, "lon": -77.03240283333334, "type": "electric_scooter"}, {"bike_id": "8bd0858de5a1c61f20271b1f94cf5f3d", "is_reserved": 0, "fusion_lon": 0.0, "lat": 38.91103716666667, "is_disabled": 0, "name": "8bd0858de5a1c61f20271b1f94cf5f3d", "fusion_lat": 0.0, "rental_uris": {"ios": "https://dc.lft.to/lastmile_qr_scan", "android": "https://dc.lft.to/lastmile_qr_scan"}, "lon": -77.00214233333334, "type": "electric_scooter"}, {"bike_id": "621af0a0f80e6ea26ca539bf100fac51", "is_reserved": 0, "fusion_lon": 0.0, "lat": 38.9001365, "is_disabled": 0, "name": "621af0a0f80e6ea26ca539bf100fac51", "fusion_lat": 0.0, "rental_uris": {"ios": "https://dc.lft.to/lastmile_qr_scan", "android": "https://dc.lft.to/lastmile_qr_scan"}, "lon": -76.99786133333333, "type": "electric_scooter"}, {"bike_id": "ee3ef3b55317e556d06bd663d285cfdb", "is_reserved": 0, "fusion_lon": 0.0, "lat": 38.90002116666667, "is_disabled": 0, "name": "ee3ef3b55317e556d06bd663d285cfdb", "fusion_lat": 0.0, "rental_uris": {"ios": "https://dc.lft.to/lastmile_qr_scan", "android": "https://dc.lft.to/lastmile_qr_scan"}, "lon": -76.99747733333334, "type": "electric_scooter"}, {"bike_id": "0417c07a924df70f3e1d8915cfb4a661", "is_reserved": 0, "fusion_lon": 0.0, "lat": 38.8385965, "is_disabled": 0, "name": "0417c07a924df70f3e1d8915cfb4a661", "fusion_lat": 0.0, "rental_uris": {"ios": "https://dc.lft.to/lastmile_qr_scan", "android": "https://dc.lft.to/lastmile_qr_scan"}, "lon": -77.0886565, "type": "electric_bike"}, {"bike_id": "166613eabe7a051459791f6c1c17b3d2", "is_reserved": 0, "fusion_lon": 0.0, "lat": 38.898076833333334, "is_disabled": 0, "name": "166613eabe7a051459791f6c1c17b3d2", "fusion_lat": 0.0, "rental_uris": {"ios": "https://dc.lft.to/lastmile_qr_scan", "android": "https://dc.lft.to/lastmile_qr_scan"}, "lon": -77.00619616666667, "type": "electric_scooter"}, {"bike_id": "6a9e0a541861628da46aa429a57aae59", "is_reserved": 0, "fusion_lon": 0.0, "lat": 38.903813666666665, "is_disabled": 0, "name": "6a9e0a541861628da46aa429a57aae59", "fusion_lat": 0.0, "rental_uris": {"ios": "https://dc.lft.to/lastmile_qr_scan", "android": "https://dc.lft.to/lastmile_qr_scan"}, "lon": -77.043663, "type": "electric_scooter"}, {"bike_id": "913630ee2b3220886fac11754b7cb231", "is_reserved": 0, "fusion_lon": 0.0, "lat": 38.9079825, "is_disabled": 0, "name": "913630ee2b3220886fac11754b7cb231", "fusion_lat": 0.0, "rental_uris": {"ios": "https://dc.lft.to/lastmile_qr_scan", "android": "https://dc.lft.to/lastmile_qr_scan"}, "lon": -77.034595, "type": "electric_scooter"}, {"bike_id": "76d966fa93d4fadfb35b87f16faab018", "is_reserved": 0, "fusion_lon": 0.0, "lat": 38.877374333333336, "is_disabled": 0, "name": "76d966fa93d4fadfb35b87f16faab018", "fusion_lat": 0.0, "rental_uris": {"ios": "https://dc.lft.to/lastmile_qr_scan", "android": "https://dc.lft.to/lastmile_qr_scan"}, "lon": -76.97284633333334, "type": "electric_scooter"}, {"bike_id": "6e31e1a23edd61e82a677161cf90c4ba", "is_reserved": 0, "fusion_lon": 0.0, "lat": 38.90281233333333, "is_disabled": 0, "name": "6e31e1a23edd61e82a677161cf90c4ba", "fusion_lat": 0.0, "rental_uris": {"ios": "https://dc.lft.to/lastmile_qr_scan", "android": "https://dc.lft.to/lastmile_qr_scan"}, "lon": -77.01645066666667, "type": "electric_bike"}, {"bike_id": "38fb180825cf00bc765fa7ba637f8606", "is_reserved": 0, "fusion_lon": 0.0, "lat": 38.8620545, "is_disabled": 0, "name": "38fb180825cf00bc765fa7ba637f8606", "fusion_lat": 0.0, "rental_uris": {"ios": "https://dc.lft.to/lastmile_qr_scan", "android": "https://dc.lft.to/lastmile_qr_scan"}, "lon": -76.994621, "type": "electric_scooter"}, {"bike_id": "6090e5eb0889eb8b6164226e921fba90", "is_reserved": 0, "fusion_lon": 0.0, "lat": 38.934972333333334, "is_disabled": 0, "name": "6090e5eb0889eb8b6164226e921fba90", "fusion_lat": 0.0, "rental_uris": {"ios": "https://dc.lft.to/lastmile_qr_scan", "android": "https://dc.lft.to/lastmile_qr_scan"}, "lon": -77.027197, "type": "electric_scooter"}, {"bike_id": "8b81035c525a3b054053ad75585b0fdf", "is_reserved": 0, "fusion_lon": 0.0, "lat": 38.9398255, "is_disabled": 0, "name": "8b81035c525a3b054053ad75585b0fdf", "fusion_lat": 0.0, "rental_uris": {"ios": "https://dc.lft.to/lastmile_qr_scan", "android": "https://dc.lft.to/lastmile_qr_scan"}, "lon": -77.03585616666666, "type": "electric_scooter"}, {"bike_id": "96a01e92b8889eb547bac61639413bcf", "is_reserved": 0, "fusion_lon": 0.0, "lat": 38.90451933333333, "is_disabled": 0, "name": "96a01e92b8889eb547bac61639413bcf", "fusion_lat": 0.0, "rental_uris": {"ios": "https://dc.lft.to/lastmile_qr_scan", "android": "https://dc.lft.to/lastmile_qr_scan"}, "lon": -77.02898033333334, "type": "electric_scooter"}, {"bike_id": "1c6ad4866b0aa982bee89155604a6b69", "is_reserved": 0, "fusion_lon": 0.0, "lat": 38.8961945, "is_disabled": 0, "name": "1c6ad4866b0aa982bee89155604a6b69", "fusion_lat": 0.0, "rental_uris": {"ios": "https://dc.lft.to/lastmile_qr_scan", "android": "https://dc.lft.to/lastmile_qr_scan"}, "lon": -77.0004775, "type": "electric_bike"}, {"bike_id": "548f25979697ce5341bfc7cc79ab1bc7", "is_reserved": 0, "fusion_lon": 0.0, "lat": 38.900220166666664, "is_disabled": 0, "name": "548f25979697ce5341bfc7cc79ab1bc7", "fusion_lat": 0.0, "rental_uris": {"ios": "https://dc.lft.to/lastmile_qr_scan", "android": "https://dc.lft.to/lastmile_qr_scan"}, "lon": -77.01155283333334, "type": "electric_scooter"}, {"bike_id": "1e68f9e83bad57edfc0cdefaca991ea9", "is_reserved": 0, "fusion_lon": 0.0, "lat": 38.915561333333336, "is_disabled": 0, "name": "1e68f9e83bad57edfc0cdefaca991ea9", "fusion_lat": 0.0, "rental_uris": {"ios": "https://dc.lft.to/lastmile_qr_scan", "android": "https://dc.lft.to/lastmile_qr_scan"}, "lon": -77.038666, "type": "electric_scooter"}, {"bike_id": "9c1d3f589a8ce50460f3f02f18d34ac3", "is_reserved": 0, "fusion_lon": 0.0, "lat": 38.89479866666667, "is_disabled": 0, "name": "9c1d3f589a8ce50460f3f02f18d34ac3", "fusion_lat": 0.0, "rental_uris": {"ios": "https://dc.lft.to/lastmile_qr_scan", "android": "https://dc.lft.to/lastmile_qr_scan"}, "lon": -77.0501445, "type": "electric_scooter"}, {"bike_id": "b1ff19a69dc79bf04836dc58e285c58f", "is_reserved": 0, "fusion_lon": 0.0, "lat": 38.92374783333333, "is_disabled": 0, "name": "b1ff19a69dc79bf04836dc58e285c58f", "fusion_lat": 0.0, "rental_uris": {"ios": "https://dc.lft.to/lastmile_qr_scan", "android": "https://dc.lft.to/lastmile_qr_scan"}, "lon": -77.020696, "type": "electric_scooter"}, {"bike_id": "bc78111ce2e2191d0179e71145e92130", "is_reserved": 0, "fusion_lon": 0.0, "lat": 38.89720783333333, "is_disabled": 0, "name": "bc78111ce2e2191d0179e71145e92130", "fusion_lat": 0.0, "rental_uris": {"ios": "https://dc.lft.to/lastmile_qr_scan", "android": "https://dc.lft.to/lastmile_qr_scan"}, "lon": -77.04631966666666, "type": "electric_scooter"}, {"bike_id": "3b4f3cdeeed28384bb739a4161299417", "is_reserved": 0, "fusion_lon": 0.0, "lat": 38.904837666666666, "is_disabled": 0, "name": "3b4f3cdeeed28384bb739a4161299417", "fusion_lat": 0.0, "rental_uris": {"ios": "https://dc.lft.to/lastmile_qr_scan", "android": "https://dc.lft.to/lastmile_qr_scan"}, "lon": -77.02930866666667, "type": "electric_scooter"}, {"bike_id": "e4e5f08b9ee43865745e94f6731a6cce", "is_reserved": 0, "fusion_lon": 0.0, "lat": 38.882207, "is_disabled": 0, "name": "e4e5f08b9ee43865745e94f6731a6cce", "fusion_lat": 0.0, "rental_uris": {"ios": "https://dc.lft.to/lastmile_qr_scan", "android": "https://dc.lft.to/lastmile_qr_scan"}, "lon": -76.94181233333333, "type": "electric_scooter"}, {"bike_id": "61c3a9d088a515a1b8bec995bd33456a", "is_reserved": 0, "fusion_lon": 0.0, "lat": 38.90305633333333, "is_disabled": 0, "name": "61c3a9d088a515a1b8bec995bd33456a", "fusion_lat": 0.0, "rental_uris": {"ios": "https://dc.lft.to/lastmile_qr_scan", "android": "https://dc.lft.to/lastmile_qr_scan"}, "lon": -77.03437033333333, "type": "electric_scooter"}, {"bike_id": "3728d2c502a3a7cbe3fe532c95f1f29f", "is_reserved": 0, "fusion_lon": 0.0, "lat": 38.90325883333333, "is_disabled": 0, "name": "3728d2c502a3a7cbe3fe532c95f1f29f", "fusion_lat": 0.0, "rental_uris": {"ios": "https://dc.lft.to/lastmile_qr_scan", "android": "https://dc.lft.to/lastmile_qr_scan"}, "lon": -76.9897625, "type": "electric_scooter"}, {"bike_id": "9161de6e241660cb262ef050f8659553", "is_reserved": 0, "fusion_lon": 0.0, "lat": 38.90273083333334, "is_disabled": 0, "name": "9161de6e241660cb262ef050f8659553", "fusion_lat": 0.0, "rental_uris": {"ios": "https://dc.lft.to/lastmile_qr_scan", "android": "https://dc.lft.to/lastmile_qr_scan"}, "lon": -77.03657616666666, "type": "electric_scooter"}, {"bike_id": "26d9ddabf692ba6c159a5fce81beaee3", "is_reserved": 0, "fusion_lon": 0.0, "lat": 38.92764283333333, "is_disabled": 0, "name": "26d9ddabf692ba6c159a5fce81beaee3", "fusion_lat": 0.0, "rental_uris": {"ios": "https://dc.lft.to/lastmile_qr_scan", "android": "https://dc.lft.to/lastmile_qr_scan"}, "lon": -77.03240866666667, "type": "electric_scooter"}, {"bike_id": "399506e152eac5a0038b81b291d3654f", "is_reserved": 0, "fusion_lon": 0.0, "lat": 38.9158, "is_disabled": 0, "name": "399506e152eac5a0038b81b291d3654f", "fusion_lat": 0.0, "rental_uris": {"ios": "https://dc.lft.to/lastmile_qr_scan", "android": "https://dc.lft.to/lastmile_qr_scan"}, "lon": -77.04669583333333, "type": "electric_scooter"}, {"bike_id": "0eaff33fddebb8e395b7a3b5c34e1902", "is_reserved": 0, "fusion_lon": 0.0, "lat": 38.902407333333336, "is_disabled": 0, "name": "0eaff33fddebb8e395b7a3b5c34e1902", "fusion_lat": 0.0, "rental_uris": {"ios": "https://dc.lft.to/lastmile_qr_scan", "android": "https://dc.lft.to/lastmile_qr_scan"}, "lon": -77.03417166666667, "type": "electric_scooter"}, {"bike_id": "ddd6a707acbf0c67e5d558dfefc37fbc", "is_reserved": 0, "fusion_lon": 0.0, "lat": 38.91190733333333, "is_disabled": 0, "name": "ddd6a707acbf0c67e5d558dfefc37fbc", "fusion_lat": 0.0, "rental_uris": {"ios": "https://dc.lft.to/lastmile_qr_scan", "android": "https://dc.lft.to/lastmile_qr_scan"}, "lon": -77.007259, "type": "electric_scooter"}, {"bike_id": "1a81eb7301c8b34215f55bd159ce3d23", "is_reserved": 0, "fusion_lon": 0.0, "lat": 38.8788565, "is_disabled": 0, "name": "1a81eb7301c8b34215f55bd159ce3d23", "fusion_lat": 0.0, "rental_uris": {"ios": "https://dc.lft.to/lastmile_qr_scan", "android": "https://dc.lft.to/lastmile_qr_scan"}, "lon": -76.99142666666667, "type": "electric_scooter"}, {"bike_id": "ee2cb40b44c42e6f54f8bd9d60f6052f", "is_reserved": 0, "fusion_lon": 0.0, "lat": 38.922091333333334, "is_disabled": 0, "name": "ee2cb40b44c42e6f54f8bd9d60f6052f", "fusion_lat": 0.0, "rental_uris": {"ios": "https://dc.lft.to/lastmile_qr_scan", "android": "https://dc.lft.to/lastmile_qr_scan"}, "lon": -77.03907616666666, "type": "electric_scooter"}, {"bike_id": "7297381d69d9a4d90d3678b4647c25a8", "is_reserved": 0, "fusion_lon": 0.0, "lat": 38.923417666666666, "is_disabled": 0, "name": "7297381d69d9a4d90d3678b4647c25a8", "fusion_lat": 0.0, "rental_uris": {"ios": "https://dc.lft.to/lastmile_qr_scan", "android": "https://dc.lft.to/lastmile_qr_scan"}, "lon": -77.034905, "type": "electric_scooter"}, {"bike_id": "d025653d71681af22d516d3fc44a7202", "is_reserved": 0, "fusion_lon": 0.0, "lat": 38.944203333333334, "is_disabled": 0, "name": "d025653d71681af22d516d3fc44a7202", "fusion_lat": 0.0, "rental_uris": {"ios": "https://dc.lft.to/lastmile_qr_scan", "android": "https://dc.lft.to/lastmile_qr_scan"}, "lon": -77.01777416666667, "type": "electric_scooter"}, {"bike_id": "950bb5791a7edd4d6a6ddd18c5d33841", "is_reserved": 0, "fusion_lon": 0.0, "lat": 38.8580305, "is_disabled": 0, "name": "950bb5791a7edd4d6a6ddd18c5d33841", "fusion_lat": 0.0, "rental_uris": {"ios": "https://dc.lft.to/lastmile_qr_scan", "android": "https://dc.lft.to/lastmile_qr_scan"}, "lon": -76.98755366666667, "type": "electric_bike"}, {"bike_id": "02f1ffc206b67a5c7a4c20d75d4344e8", "is_reserved": 0, "fusion_lon": 0.0, "lat": 38.866228166666666, "is_disabled": 0, "name": "02f1ffc206b67a5c7a4c20d75d4344e8", "fusion_lat": 0.0, "rental_uris": {"ios": "https://dc.lft.to/lastmile_qr_scan", "android": "https://dc.lft.to/lastmile_qr_scan"}, "lon": -76.986992, "type": "electric_scooter"}, {"bike_id": "c9bd4e2341d556a1d6421a26d8b6f4f1", "is_reserved": 0, "fusion_lon": 0.0, "lat": 38.9049745, "is_disabled": 0, "name": "c9bd4e2341d556a1d6421a26d8b6f4f1", "fusion_lat": 0.0, "rental_uris": {"ios": "https://dc.lft.to/lastmile_qr_scan", "android": "https://dc.lft.to/lastmile_qr_scan"}, "lon": -77.0295395, "type": "electric_scooter"}, {"bike_id": "f74d2ff08d11bc25433def7cabbf9acd", "is_reserved": 0, "fusion_lon": 0.0, "lat": 38.9199375, "is_disabled": 0, "name": "f74d2ff08d11bc25433def7cabbf9acd", "fusion_lat": 0.0, "rental_uris": {"ios": "https://dc.lft.to/lastmile_qr_scan", "android": "https://dc.lft.to/lastmile_qr_scan"}, "lon": -77.03227933333334, "type": "electric_scooter"}, {"bike_id": "0ea2b29cbdb58773f317f8efe3826662", "is_reserved": 0, "fusion_lon": 0.0, "lat": 38.84295516666667, "is_disabled": 0, "name": "0ea2b29cbdb58773f317f8efe3826662", "fusion_lat": 0.0, "rental_uris": {"ios": "https://dc.lft.to/lastmile_qr_scan", "android": "https://dc.lft.to/lastmile_qr_scan"}, "lon": -76.99947766666666, "type": "electric_scooter"}, {"bike_id": "379f1eaa3db1ecc2841c8294541e0135", "is_reserved": 0, "fusion_lon": 0.0, "lat": 38.910500166666665, "is_disabled": 0, "name": "379f1eaa3db1ecc2841c8294541e0135", "fusion_lat": 0.0, "rental_uris": {"ios": "https://dc.lft.to/lastmile_qr_scan", "android": "https://dc.lft.to/lastmile_qr_scan"}, "lon": -77.01685633333334, "type": "electric_scooter"}, {"bike_id": "6acc975b1d4b24bb849aac517ac35d8a", "is_reserved": 0, "fusion_lon": 0.0, "lat": 38.920293, "is_disabled": 0, "name": "6acc975b1d4b24bb849aac517ac35d8a", "fusion_lat": 0.0, "rental_uris": {"ios": "https://dc.lft.to/lastmile_qr_scan", "android": "https://dc.lft.to/lastmile_qr_scan"}, "lon": -77.01116483333334, "type": "electric_scooter"}, {"bike_id": "2b5c307930e697149006488a2a772033", "is_reserved": 0, "fusion_lon": 0.0, "lat": 38.941767666666664, "is_disabled": 0, "name": "2b5c307930e697149006488a2a772033", "fusion_lat": 0.0, "rental_uris": {"ios": "https://dc.lft.to/lastmile_qr_scan", "android": "https://dc.lft.to/lastmile_qr_scan"}, "lon": -77.02497533333333, "type": "electric_scooter"}, {"bike_id": "0471004991aed634b3cf134177ef5983", "is_reserved": 0, "fusion_lon": 0.0, "lat": 38.93677383333333, "is_disabled": 0, "name": "0471004991aed634b3cf134177ef5983", "fusion_lat": 0.0, "rental_uris": {"ios": "https://dc.lft.to/lastmile_qr_scan", "android": "https://dc.lft.to/lastmile_qr_scan"}, "lon": -77.0359165, "type": "electric_scooter"}, {"bike_id": "f1371b9b819cc3465236e329a6dc2c8b", "is_reserved": 0, "fusion_lon": 0.0, "lat": 38.9253125, "is_disabled": 0, "name": "f1371b9b819cc3465236e329a6dc2c8b", "fusion_lat": 0.0, "rental_uris": {"ios": "https://dc.lft.to/lastmile_qr_scan", "android": "https://dc.lft.to/lastmile_qr_scan"}, "lon": -77.0346575, "type": "electric_scooter"}, {"bike_id": "9b765c294286d8c9e11297b5cc21b3ae", "is_reserved": 0, "fusion_lon": 0.0, "lat": 38.917024, "is_disabled": 0, "name": "9b765c294286d8c9e11297b5cc21b3ae", "fusion_lat": 0.0, "rental_uris": {"ios": "https://dc.lft.to/lastmile_qr_scan", "android": "https://dc.lft.to/lastmile_qr_scan"}, "lon": -77.03458816666667, "type": "electric_scooter"}, {"bike_id": "408100041381ef166805ba5db32cd2d0", "is_reserved": 0, "fusion_lon": 0.0, "lat": 38.913324833333334, "is_disabled": 0, "name": "408100041381ef166805ba5db32cd2d0", "fusion_lat": 0.0, "rental_uris": {"ios": "https://dc.lft.to/lastmile_qr_scan", "android": "https://dc.lft.to/lastmile_qr_scan"}, "lon": -77.04866833333334, "type": "electric_scooter"}, {"bike_id": "ee5e6f9539353364df5a9913f2ca5431", "is_reserved": 0, "fusion_lon": 0.0, "lat": 38.900098, "is_disabled": 0, "name": "ee5e6f9539353364df5a9913f2ca5431", "fusion_lat": 0.0, "rental_uris": {"ios": "https://dc.lft.to/lastmile_qr_scan", "android": "https://dc.lft.to/lastmile_qr_scan"}, "lon": -76.99120716666667, "type": "electric_scooter"}, {"bike_id": "ed447b4a806995f84f532185ef577701", "is_reserved": 0, "fusion_lon": 0.0, "lat": 38.92648666666667, "is_disabled": 0, "name": "ed447b4a806995f84f532185ef577701", "fusion_lat": 0.0, "rental_uris": {"ios": "https://dc.lft.to/lastmile_qr_scan", "android": "https://dc.lft.to/lastmile_qr_scan"}, "lon": -77.03710916666667, "type": "electric_scooter"}, {"bike_id": "520ab0de1d8a32d2a77ce7c61652f588", "is_reserved": 0, "fusion_lon": 0.0, "lat": 38.8784205, "is_disabled": 0, "name": "520ab0de1d8a32d2a77ce7c61652f588", "fusion_lat": 0.0, "rental_uris": {"ios": "https://dc.lft.to/lastmile_qr_scan", "android": "https://dc.lft.to/lastmile_qr_scan"}, "lon": -77.004874, "type": "electric_scooter"}, {"bike_id": "38e7f3417b7e24e690a58d7bb910d85e", "is_reserved": 0, "fusion_lon": 0.0, "lat": 38.927680333333335, "is_disabled": 0, "name": "38e7f3417b7e24e690a58d7bb910d85e", "fusion_lat": 0.0, "rental_uris": {"ios": "https://dc.lft.to/lastmile_qr_scan", "android": "https://dc.lft.to/lastmile_qr_scan"}, "lon": -77.02671483333333, "type": "electric_scooter"}, {"bike_id": "56e6e5fab8c07c4507b8a3910cbaea3d", "is_reserved": 0, "fusion_lon": 0.0, "lat": 38.853140333333336, "is_disabled": 0, "name": "56e6e5fab8c07c4507b8a3910cbaea3d", "fusion_lat": 0.0, "rental_uris": {"ios": "https://dc.lft.to/lastmile_qr_scan", "android": "https://dc.lft.to/lastmile_qr_scan"}, "lon": -76.98024916666667, "type": "electric_bike"}, {"bike_id": "9dddfd3fb5eac34146577730b3425cb6", "is_reserved": 0, "fusion_lon": 0.0, "lat": 38.890316166666665, "is_disabled": 0, "name": "9dddfd3fb5eac34146577730b3425cb6", "fusion_lat": 0.0, "rental_uris": {"ios": "https://dc.lft.to/lastmile_qr_scan", "android": "https://dc.lft.to/lastmile_qr_scan"}, "lon": -76.9362745, "type": "electric_scooter"}, {"bike_id": "03af01b0134c8a564362c69381201a8f", "is_reserved": 0, "fusion_lon": 0.0, "lat": 38.89888666666667, "is_disabled": 0, "name": "03af01b0134c8a564362c69381201a8f", "fusion_lat": 0.0, "rental_uris": {"ios": "https://dc.lft.to/lastmile_qr_scan", "android": "https://dc.lft.to/lastmile_qr_scan"}, "lon": -77.03275616666667, "type": "electric_scooter"}, {"bike_id": "cb99a97ed9dce7657fabd3ecb1532cfe", "is_reserved": 0, "fusion_lon": 0.0, "lat": 38.9709095, "is_disabled": 0, "name": "cb99a97ed9dce7657fabd3ecb1532cfe", "fusion_lat": 0.0, "rental_uris": {"ios": "https://dc.lft.to/lastmile_qr_scan", "android": "https://dc.lft.to/lastmile_qr_scan"}, "lon": -77.06961083333333, "type": "electric_bike"}, {"bike_id": "bde8d17b7d9f195a27a21ee004008e50", "is_reserved": 0, "fusion_lon": 0.0, "lat": 38.924016, "is_disabled": 0, "name": "bde8d17b7d9f195a27a21ee004008e50", "fusion_lat": 0.0, "rental_uris": {"ios": "https://dc.lft.to/lastmile_qr_scan", "android": "https://dc.lft.to/lastmile_qr_scan"}, "lon": -77.0296555, "type": "electric_scooter"}, {"bike_id": "c524b9c38fd6b664af81e5539dbefb3b", "is_reserved": 0, "fusion_lon": 0.0, "lat": 38.92342266666667, "is_disabled": 0, "name": "c524b9c38fd6b664af81e5539dbefb3b", "fusion_lat": 0.0, "rental_uris": {"ios": "https://dc.lft.to/lastmile_qr_scan", "android": "https://dc.lft.to/lastmile_qr_scan"}, "lon": -77.2237325, "type": "electric_bike"}, {"bike_id": "c5320ef358a30c51e63017fb54a3d745", "is_reserved": 0, "fusion_lon": 0.0, "lat": 38.92636066666667, "is_disabled": 0, "name": "c5320ef358a30c51e63017fb54a3d745", "fusion_lat": 0.0, "rental_uris": {"ios": "https://dc.lft.to/lastmile_qr_scan", "android": "https://dc.lft.to/lastmile_qr_scan"}, "lon": -77.03789016666667, "type": "electric_scooter"}, {"bike_id": "1334694ffc093cca586a261cd2114ecb", "is_reserved": 0, "fusion_lon": 0.0, "lat": 38.925824, "is_disabled": 0, "name": "1334694ffc093cca586a261cd2114ecb", "fusion_lat": 0.0, "rental_uris": {"ios": "https://dc.lft.to/lastmile_qr_scan", "android": "https://dc.lft.to/lastmile_qr_scan"}, "lon": -77.00469683333333, "type": "electric_scooter"}, {"bike_id": "f05710cedbc851805a49f0207a6cf156", "is_reserved": 0, "fusion_lon": 0.0, "lat": 38.89341066666667, "is_disabled": 0, "name": "f05710cedbc851805a49f0207a6cf156", "fusion_lat": 0.0, "rental_uris": {"ios": "https://dc.lft.to/lastmile_qr_scan", "android": "https://dc.lft.to/lastmile_qr_scan"}, "lon": -76.98455716666666, "type": "electric_scooter"}, {"bike_id": "27d510b9f92b0e4855ab434b27577c83", "is_reserved": 0, "fusion_lon": 0.0, "lat": 38.935761, "is_disabled": 0, "name": "27d510b9f92b0e4855ab434b27577c83", "fusion_lat": 0.0, "rental_uris": {"ios": "https://dc.lft.to/lastmile_qr_scan", "android": "https://dc.lft.to/lastmile_qr_scan"}, "lon": -77.027649, "type": "electric_scooter"}, {"bike_id": "76ea00790fe2c13dcc04b5611c58c5db", "is_reserved": 0, "fusion_lon": 0.0, "lat": 38.885017833333336, "is_disabled": 0, "name": "76ea00790fe2c13dcc04b5611c58c5db", "fusion_lat": 0.0, "rental_uris": {"ios": "https://dc.lft.to/lastmile_qr_scan", "android": "https://dc.lft.to/lastmile_qr_scan"}, "lon": -77.01545433333334, "type": "electric_scooter"}, {"bike_id": "583e02d1b3d0563ce0dcb562868a6574", "is_reserved": 0, "fusion_lon": 0.0, "lat": 38.8982855, "is_disabled": 0, "name": "583e02d1b3d0563ce0dcb562868a6574", "fusion_lat": 0.0, "rental_uris": {"ios": "https://dc.lft.to/lastmile_qr_scan", "android": "https://dc.lft.to/lastmile_qr_scan"}, "lon": -77.03205633333333, "type": "electric_scooter"}, {"bike_id": "32006767443afaaa737dbdde090d1804", "is_reserved": 0, "fusion_lon": 0.0, "lat": 38.88293216666667, "is_disabled": 0, "name": "32006767443afaaa737dbdde090d1804", "fusion_lat": 0.0, "rental_uris": {"ios": "https://dc.lft.to/lastmile_qr_scan", "android": "https://dc.lft.to/lastmile_qr_scan"}, "lon": -76.98613666666667, "type": "electric_scooter"}, {"bike_id": "e5001fdb1731ffb9eb6f8367ddefdfb4", "is_reserved": 0, "fusion_lon": 0.0, "lat": 38.919811833333334, "is_disabled": 0, "name": "e5001fdb1731ffb9eb6f8367ddefdfb4", "fusion_lat": 0.0, "rental_uris": {"ios": "https://dc.lft.to/lastmile_qr_scan", "android": "https://dc.lft.to/lastmile_qr_scan"}, "lon": -77.04443616666667, "type": "electric_scooter"}, {"bike_id": "66ce7c6576dde24e198d81120be906de", "is_reserved": 0, "fusion_lon": 0.0, "lat": 38.903929833333336, "is_disabled": 0, "name": "66ce7c6576dde24e198d81120be906de", "fusion_lat": 0.0, "rental_uris": {"ios": "https://dc.lft.to/lastmile_qr_scan", "android": "https://dc.lft.to/lastmile_qr_scan"}, "lon": -77.04435466666666, "type": "electric_scooter"}, {"bike_id": "f167b415de9286ba54b792e29046d8db", "is_reserved": 0, "fusion_lon": 0.0, "lat": 38.90270016666667, "is_disabled": 0, "name": "f167b415de9286ba54b792e29046d8db", "fusion_lat": 0.0, "rental_uris": {"ios": "https://dc.lft.to/lastmile_qr_scan", "android": "https://dc.lft.to/lastmile_qr_scan"}, "lon": -77.03928883333333, "type": "electric_scooter"}, {"bike_id": "945dd533fc7b44b290099c47d9c1759f", "is_reserved": 0, "fusion_lon": 0.0, "lat": 38.94179416666667, "is_disabled": 0, "name": "945dd533fc7b44b290099c47d9c1759f", "fusion_lat": 0.0, "rental_uris": {"ios": "https://dc.lft.to/lastmile_qr_scan", "android": "https://dc.lft.to/lastmile_qr_scan"}, "lon": -77.03651233333333, "type": "electric_scooter"}, {"bike_id": "2a7079ff0af43db5faa3bd187c231569", "is_reserved": 0, "fusion_lon": 0.0, "lat": 38.902414, "is_disabled": 0, "name": "2a7079ff0af43db5faa3bd187c231569", "fusion_lat": 0.0, "rental_uris": {"ios": "https://dc.lft.to/lastmile_qr_scan", "android": "https://dc.lft.to/lastmile_qr_scan"}, "lon": -77.00198016666667, "type": "electric_scooter"}, {"bike_id": "3e2c79ca16d86b7fc1262ff3a7d60b84", "is_reserved": 0, "fusion_lon": 0.0, "lat": 38.93700966666667, "is_disabled": 0, "name": "3e2c79ca16d86b7fc1262ff3a7d60b84", "fusion_lat": 0.0, "rental_uris": {"ios": "https://dc.lft.to/lastmile_qr_scan", "android": "https://dc.lft.to/lastmile_qr_scan"}, "lon": -77.02981483333333, "type": "electric_bike"}, {"bike_id": "8df221d1d7036735625d996071c361e2", "is_reserved": 0, "fusion_lon": 0.0, "lat": 38.913364333333334, "is_disabled": 0, "name": "8df221d1d7036735625d996071c361e2", "fusion_lat": 0.0, "rental_uris": {"ios": "https://dc.lft.to/lastmile_qr_scan", "android": "https://dc.lft.to/lastmile_qr_scan"}, "lon": -77.04815133333334, "type": "electric_scooter"}, {"bike_id": "591d6f369e443a7ffb7483f66f6348b7", "is_reserved": 0, "fusion_lon": 0.0, "lat": 38.900289, "is_disabled": 0, "name": "591d6f369e443a7ffb7483f66f6348b7", "fusion_lat": 0.0, "rental_uris": {"ios": "https://dc.lft.to/lastmile_qr_scan", "android": "https://dc.lft.to/lastmile_qr_scan"}, "lon": -77.03294066666666, "type": "electric_scooter"}, {"bike_id": "9284b64f440d55dcdb7f378001d9930f", "is_reserved": 0, "fusion_lon": 0.0, "lat": 38.903938833333335, "is_disabled": 0, "name": "9284b64f440d55dcdb7f378001d9930f", "fusion_lat": 0.0, "rental_uris": {"ios": "https://dc.lft.to/lastmile_qr_scan", "android": "https://dc.lft.to/lastmile_qr_scan"}, "lon": -77.02473833333333, "type": "electric_scooter"}, {"bike_id": "ff03136a27c8ce8b12d9e5bc7600569e", "is_reserved": 0, "fusion_lon": 0.0, "lat": 38.920156, "is_disabled": 0, "name": "ff03136a27c8ce8b12d9e5bc7600569e", "fusion_lat": 0.0, "rental_uris": {"ios": "https://dc.lft.to/lastmile_qr_scan", "android": "https://dc.lft.to/lastmile_qr_scan"}, "lon": -77.03864516666667, "type": "electric_scooter"}, {"bike_id": "e366a52277ce9d92ee40b720a47dd9dc", "is_reserved": 0, "fusion_lon": 0.0, "lat": 38.903951666666664, "is_disabled": 0, "name": "e366a52277ce9d92ee40b720a47dd9dc", "fusion_lat": 0.0, "rental_uris": {"ios": "https://dc.lft.to/lastmile_qr_scan", "android": "https://dc.lft.to/lastmile_qr_scan"}, "lon": -77.041947, "type": "electric_scooter"}, {"bike_id": "1986c57da0d98712d7342f889c1b2883", "is_reserved": 0, "fusion_lon": 0.0, "lat": 38.903882, "is_disabled": 0, "name": "1986c57da0d98712d7342f889c1b2883", "fusion_lat": 0.0, "rental_uris": {"ios": "https://dc.lft.to/lastmile_qr_scan", "android": "https://dc.lft.to/lastmile_qr_scan"}, "lon": -77.017634, "type": "electric_scooter"}, {"bike_id": "091b2de33f77edb84d44d55eaac8c8e0", "is_reserved": 0, "fusion_lon": 0.0, "lat": 38.903665833333335, "is_disabled": 0, "name": "091b2de33f77edb84d44d55eaac8c8e0", "fusion_lat": 0.0, "rental_uris": {"ios": "https://dc.lft.to/lastmile_qr_scan", "android": "https://dc.lft.to/lastmile_qr_scan"}, "lon": -76.9849705, "type": "electric_scooter"}, {"bike_id": "05a2fe9e3463d6d28eaa4c9746f3f218", "is_reserved": 0, "fusion_lon": 0.0, "lat": 38.8873555, "is_disabled": 0, "name": "05a2fe9e3463d6d28eaa4c9746f3f218", "fusion_lat": 0.0, "rental_uris": {"ios": "https://dc.lft.to/lastmile_qr_scan", "android": "https://dc.lft.to/lastmile_qr_scan"}, "lon": -77.02860183333334, "type": "electric_scooter"}, {"bike_id": "c14d5f8d46b7563745b7e798891b3c1d", "is_reserved": 0, "fusion_lon": 0.0, "lat": 38.93898133333333, "is_disabled": 0, "name": "c14d5f8d46b7563745b7e798891b3c1d", "fusion_lat": 0.0, "rental_uris": {"ios": "https://dc.lft.to/lastmile_qr_scan", "android": "https://dc.lft.to/lastmile_qr_scan"}, "lon": -77.02816083333333, "type": "electric_bike"}, {"bike_id": "fc02646e851cf6ac034fcf40a4093015", "is_reserved": 0, "fusion_lon": 0.0, "lat": 38.90565933333333, "is_disabled": 0, "name": "fc02646e851cf6ac034fcf40a4093015", "fusion_lat": 0.0, "rental_uris": {"ios": "https://dc.lft.to/lastmile_qr_scan", "android": "https://dc.lft.to/lastmile_qr_scan"}, "lon": -76.98142816666666, "type": "electric_scooter"}, {"bike_id": "6c6da2acdd416ff0a3e332bd5bb749f4", "is_reserved": 0, "fusion_lon": 0.0, "lat": 38.940114, "is_disabled": 0, "name": "6c6da2acdd416ff0a3e332bd5bb749f4", "fusion_lat": 0.0, "rental_uris": {"ios": "https://dc.lft.to/lastmile_qr_scan", "android": "https://dc.lft.to/lastmile_qr_scan"}, "lon": -77.07174216666667, "type": "electric_scooter"}, {"bike_id": "f1bbdc673c1b1817a3cdc85971951d63", "is_reserved": 0, "fusion_lon": 0.0, "lat": 38.904101, "is_disabled": 0, "name": "f1bbdc673c1b1817a3cdc85971951d63", "fusion_lat": 0.0, "rental_uris": {"ios": "https://dc.lft.to/lastmile_qr_scan", "android": "https://dc.lft.to/lastmile_qr_scan"}, "lon": -76.9732455, "type": "electric_scooter"}, {"bike_id": "e619ba3c2248778e86501e9d523a4f78", "is_reserved": 0, "fusion_lon": 0.0, "lat": 38.861687333333336, "is_disabled": 0, "name": "e619ba3c2248778e86501e9d523a4f78", "fusion_lat": 0.0, "rental_uris": {"ios": "https://dc.lft.to/lastmile_qr_scan", "android": "https://dc.lft.to/lastmile_qr_scan"}, "lon": -76.95066416666667, "type": "electric_bike"}, {"bike_id": "934a366aae8d87aa67301e5f97162078", "is_reserved": 0, "fusion_lon": 0.0, "lat": 38.9233555, "is_disabled": 0, "name": "934a366aae8d87aa67301e5f97162078", "fusion_lat": 0.0, "rental_uris": {"ios": "https://dc.lft.to/lastmile_qr_scan", "android": "https://dc.lft.to/lastmile_qr_scan"}, "lon": -77.0390295, "type": "electric_scooter"}, {"bike_id": "27597334718d3eb3119ca3d7be95fbc5", "is_reserved": 0, "fusion_lon": 0.0, "lat": 38.90306233333333, "is_disabled": 0, "name": "27597334718d3eb3119ca3d7be95fbc5", "fusion_lat": 0.0, "rental_uris": {"ios": "https://dc.lft.to/lastmile_qr_scan", "android": "https://dc.lft.to/lastmile_qr_scan"}, "lon": -77.04348016666667, "type": "electric_scooter"}, {"bike_id": "eb35cc90ae1fb708f53e36d720c91e9f", "is_reserved": 0, "fusion_lon": 0.0, "lat": 38.92178583333333, "is_disabled": 0, "name": "eb35cc90ae1fb708f53e36d720c91e9f", "fusion_lat": 0.0, "rental_uris": {"ios": "https://dc.lft.to/lastmile_qr_scan", "android": "https://dc.lft.to/lastmile_qr_scan"}, "lon": -77.0412815, "type": "electric_scooter"}, {"bike_id": "9f396665259ce25898821e3c1d0f2388", "is_reserved": 0, "fusion_lon": 0.0, "lat": 38.9236025, "is_disabled": 0, "name": "9f396665259ce25898821e3c1d0f2388", "fusion_lat": 0.0, "rental_uris": {"ios": "https://dc.lft.to/lastmile_qr_scan", "android": "https://dc.lft.to/lastmile_qr_scan"}, "lon": -77.05030116666667, "type": "electric_scooter"}, {"bike_id": "0591117dff037a308f9aa085cecb5a1e", "is_reserved": 0, "fusion_lon": 0.0, "lat": 38.90131616666667, "is_disabled": 0, "name": "0591117dff037a308f9aa085cecb5a1e", "fusion_lat": 0.0, "rental_uris": {"ios": "https://dc.lft.to/lastmile_qr_scan", "android": "https://dc.lft.to/lastmile_qr_scan"}, "lon": -77.04459666666666, "type": "electric_scooter"}, {"bike_id": "7a2d5f97c009bd85b9322d3bc01b5852", "is_reserved": 0, "fusion_lon": 0.0, "lat": 38.920046166666665, "is_disabled": 0, "name": "7a2d5f97c009bd85b9322d3bc01b5852", "fusion_lat": 0.0, "rental_uris": {"ios": "https://dc.lft.to/lastmile_qr_scan", "android": "https://dc.lft.to/lastmile_qr_scan"}, "lon": -77.032226, "type": "electric_scooter"}, {"bike_id": "9354e2ff6780902809c4b7685fbbc485", "is_reserved": 0, "fusion_lon": 0.0, "lat": 38.9284825, "is_disabled": 0, "name": "9354e2ff6780902809c4b7685fbbc485", "fusion_lat": 0.0, "rental_uris": {"ios": "https://dc.lft.to/lastmile_qr_scan", "android": "https://dc.lft.to/lastmile_qr_scan"}, "lon": -77.05426633333333, "type": "electric_scooter"}, {"bike_id": "0ab0cf488d4290ca1acb5a64475103b7", "is_reserved": 0, "fusion_lon": 0.0, "lat": 38.923302666666665, "is_disabled": 0, "name": "0ab0cf488d4290ca1acb5a64475103b7", "fusion_lat": 0.0, "rental_uris": {"ios": "https://dc.lft.to/lastmile_qr_scan", "android": "https://dc.lft.to/lastmile_qr_scan"}, "lon": -77.04482183333333, "type": "electric_scooter"}, {"bike_id": "2b7309577f6a67705ad2eacefcf2f59e", "is_reserved": 0, "fusion_lon": 0.0, "lat": 38.900964, "is_disabled": 0, "name": "2b7309577f6a67705ad2eacefcf2f59e", "fusion_lat": 0.0, "rental_uris": {"ios": "https://dc.lft.to/lastmile_qr_scan", "android": "https://dc.lft.to/lastmile_qr_scan"}, "lon": -77.04893533333333, "type": "electric_scooter"}, {"bike_id": "ac6e6a1b71f4d50ae467ef4f84584523", "is_reserved": 0, "fusion_lon": 0.0, "lat": 38.9050125, "is_disabled": 0, "name": "ac6e6a1b71f4d50ae467ef4f84584523", "fusion_lat": 0.0, "rental_uris": {"ios": "https://dc.lft.to/lastmile_qr_scan", "android": "https://dc.lft.to/lastmile_qr_scan"}, "lon": -76.990147, "type": "electric_scooter"}, {"bike_id": "62a980fd1231c10fe7fce02b7854b0c6", "is_reserved": 0, "fusion_lon": 0.0, "lat": 38.9047465, "is_disabled": 0, "name": "62a980fd1231c10fe7fce02b7854b0c6", "fusion_lat": 0.0, "rental_uris": {"ios": "https://dc.lft.to/lastmile_qr_scan", "android": "https://dc.lft.to/lastmile_qr_scan"}, "lon": -77.0467285, "type": "electric_scooter"}, {"bike_id": "e3b751db88992a4521d63dbc759f6cb0", "is_reserved": 0, "fusion_lon": 0.0, "lat": 38.885039666666664, "is_disabled": 0, "name": "e3b751db88992a4521d63dbc759f6cb0", "fusion_lat": 0.0, "rental_uris": {"ios": "https://dc.lft.to/lastmile_qr_scan", "android": "https://dc.lft.to/lastmile_qr_scan"}, "lon": -77.00563866666667, "type": "electric_scooter"}, {"bike_id": "cf0cc45120d44edd510cca9ce33446e8", "is_reserved": 0, "fusion_lon": 0.0, "lat": 38.9171665, "is_disabled": 0, "name": "cf0cc45120d44edd510cca9ce33446e8", "fusion_lat": 0.0, "rental_uris": {"ios": "https://dc.lft.to/lastmile_qr_scan", "android": "https://dc.lft.to/lastmile_qr_scan"}, "lon": -77.01205883333333, "type": "electric_scooter"}, {"bike_id": "d06e3932dc7fd60c6b2ff9a29a30990c", "is_reserved": 0, "fusion_lon": 0.0, "lat": 38.913605833333335, "is_disabled": 0, "name": "d06e3932dc7fd60c6b2ff9a29a30990c", "fusion_lat": 0.0, "rental_uris": {"ios": "https://dc.lft.to/lastmile_qr_scan", "android": "https://dc.lft.to/lastmile_qr_scan"}, "lon": -77.01754566666666, "type": "electric_scooter"}, {"bike_id": "2055099e592e41f4329ef23cbceec894", "is_reserved": 0, "fusion_lon": 0.0, "lat": 38.921413, "is_disabled": 0, "name": "2055099e592e41f4329ef23cbceec894", "fusion_lat": 0.0, "rental_uris": {"ios": "https://dc.lft.to/lastmile_qr_scan", "android": "https://dc.lft.to/lastmile_qr_scan"}, "lon": -77.010865, "type": "electric_bike"}, {"bike_id": "1da5b281b2f07b0c3d472dcb5db4f454", "is_reserved": 0, "fusion_lon": 0.0, "lat": 38.90417333333333, "is_disabled": 0, "name": "1da5b281b2f07b0c3d472dcb5db4f454", "fusion_lat": 0.0, "rental_uris": {"ios": "https://dc.lft.to/lastmile_qr_scan", "android": "https://dc.lft.to/lastmile_qr_scan"}, "lon": -77.0325, "type": "electric_scooter"}, {"bike_id": "3b48f2f056965a2957a97536b73fcc43", "is_reserved": 0, "fusion_lon": 0.0, "lat": 38.91403483333333, "is_disabled": 0, "name": "3b48f2f056965a2957a97536b73fcc43", "fusion_lat": 0.0, "rental_uris": {"ios": "https://dc.lft.to/lastmile_qr_scan", "android": "https://dc.lft.to/lastmile_qr_scan"}, "lon": -77.03173933333333, "type": "electric_scooter"}, {"bike_id": "4abc5ad806c27a2e64f061281be813de", "is_reserved": 0, "fusion_lon": 0.0, "lat": 38.892199833333336, "is_disabled": 0, "name": "4abc5ad806c27a2e64f061281be813de", "fusion_lat": 0.0, "rental_uris": {"ios": "https://dc.lft.to/lastmile_qr_scan", "android": "https://dc.lft.to/lastmile_qr_scan"}, "lon": -77.02624716666666, "type": "electric_scooter"}, {"bike_id": "25c998944a4ce8b09242176ae1584633", "is_reserved": 0, "fusion_lon": 0.0, "lat": 38.920775, "is_disabled": 0, "name": "25c998944a4ce8b09242176ae1584633", "fusion_lat": 0.0, "rental_uris": {"ios": "https://dc.lft.to/lastmile_qr_scan", "android": "https://dc.lft.to/lastmile_qr_scan"}, "lon": -77.02426583333333, "type": "electric_scooter"}, {"bike_id": "2d5443b616d929640515078ff1685e62", "is_reserved": 0, "fusion_lon": 0.0, "lat": 38.89356516666667, "is_disabled": 0, "name": "2d5443b616d929640515078ff1685e62", "fusion_lat": 0.0, "rental_uris": {"ios": "https://dc.lft.to/lastmile_qr_scan", "android": "https://dc.lft.to/lastmile_qr_scan"}, "lon": -76.98512933333333, "type": "electric_bike"}, {"bike_id": "7b1f1f20bbd49ec5f4c57e096c46b192", "is_reserved": 0, "fusion_lon": 0.0, "lat": 38.9507965, "is_disabled": 0, "name": "7b1f1f20bbd49ec5f4c57e096c46b192", "fusion_lat": 0.0, "rental_uris": {"ios": "https://dc.lft.to/lastmile_qr_scan", "android": "https://dc.lft.to/lastmile_qr_scan"}, "lon": -77.01200683333333, "type": "electric_bike"}, {"bike_id": "60f3228c59f4295d64bc16517434a5fd", "is_reserved": 0, "fusion_lon": 0.0, "lat": 38.92505416666667, "is_disabled": 0, "name": "60f3228c59f4295d64bc16517434a5fd", "fusion_lat": 0.0, "rental_uris": {"ios": "https://dc.lft.to/lastmile_qr_scan", "android": "https://dc.lft.to/lastmile_qr_scan"}, "lon": -77.0089065, "type": "electric_scooter"}, {"bike_id": "49a725ecb15854311bc2c8b9b0205c97", "is_reserved": 0, "fusion_lon": 0.0, "lat": 38.907805333333336, "is_disabled": 0, "name": "49a725ecb15854311bc2c8b9b0205c97", "fusion_lat": 0.0, "rental_uris": {"ios": "https://dc.lft.to/lastmile_qr_scan", "android": "https://dc.lft.to/lastmile_qr_scan"}, "lon": -77.03831433333333, "type": "electric_scooter"}, {"bike_id": "4e6f018a79974a0166568acf94f27fdf", "is_reserved": 0, "fusion_lon": 0.0, "lat": 38.86373566666666, "is_disabled": 0, "name": "4e6f018a79974a0166568acf94f27fdf", "fusion_lat": 0.0, "rental_uris": {"ios": "https://dc.lft.to/lastmile_qr_scan", "android": "https://dc.lft.to/lastmile_qr_scan"}, "lon": -76.99058616666667, "type": "electric_scooter"}, {"bike_id": "3e7983298635a3c5319adebb37d6a241", "is_reserved": 0, "fusion_lon": 0.0, "lat": 38.899536, "is_disabled": 0, "name": "3e7983298635a3c5319adebb37d6a241", "fusion_lat": 0.0, "rental_uris": {"ios": "https://dc.lft.to/lastmile_qr_scan", "android": "https://dc.lft.to/lastmile_qr_scan"}, "lon": -77.033512, "type": "electric_scooter"}, {"bike_id": "d22548691328c2dfde6dda8705fd3811", "is_reserved": 0, "fusion_lon": 0.0, "lat": 38.89876833333334, "is_disabled": 0, "name": "d22548691328c2dfde6dda8705fd3811", "fusion_lat": 0.0, "rental_uris": {"ios": "https://dc.lft.to/lastmile_qr_scan", "android": "https://dc.lft.to/lastmile_qr_scan"}, "lon": -76.93160583333334, "type": "electric_scooter"}, {"bike_id": "39674ae045960460553dc2a176061981", "is_reserved": 0, "fusion_lon": 0.0, "lat": 38.93428983333333, "is_disabled": 0, "name": "39674ae045960460553dc2a176061981", "fusion_lat": 0.0, "rental_uris": {"ios": "https://dc.lft.to/lastmile_qr_scan", "android": "https://dc.lft.to/lastmile_qr_scan"}, "lon": -77.0344085, "type": "electric_scooter"}, {"bike_id": "3dc2c4cbd4c15db068117f4bca3e6770", "is_reserved": 0, "fusion_lon": 0.0, "lat": 38.92176666666667, "is_disabled": 0, "name": "3dc2c4cbd4c15db068117f4bca3e6770", "fusion_lat": 0.0, "rental_uris": {"ios": "https://dc.lft.to/lastmile_qr_scan", "android": "https://dc.lft.to/lastmile_qr_scan"}, "lon": -77.02536266666667, "type": "electric_scooter"}, {"bike_id": "0c50178b51c4053a6f6f8d2e42bc9aae", "is_reserved": 0, "fusion_lon": 0.0, "lat": 38.92039333333334, "is_disabled": 0, "name": "0c50178b51c4053a6f6f8d2e42bc9aae", "fusion_lat": 0.0, "rental_uris": {"ios": "https://dc.lft.to/lastmile_qr_scan", "android": "https://dc.lft.to/lastmile_qr_scan"}, "lon": -77.02421483333333, "type": "electric_scooter"}, {"bike_id": "59221e4dec968960b7ea86644bb6238f", "is_reserved": 0, "fusion_lon": 0.0, "lat": 38.81309816666667, "is_disabled": 0, "name": "59221e4dec968960b7ea86644bb6238f", "fusion_lat": 0.0, "rental_uris": {"ios": "https://dc.lft.to/lastmile_qr_scan", "android": "https://dc.lft.to/lastmile_qr_scan"}, "lon": -77.05093983333333, "type": "electric_bike"}, {"bike_id": "d43d717075983d829b983fd466b314af", "is_reserved": 0, "fusion_lon": 0.0, "lat": 38.907219833333336, "is_disabled": 0, "name": "d43d717075983d829b983fd466b314af", "fusion_lat": 0.0, "rental_uris": {"ios": "https://dc.lft.to/lastmile_qr_scan", "android": "https://dc.lft.to/lastmile_qr_scan"}, "lon": -77.04347316666667, "type": "electric_scooter"}, {"bike_id": "991c9059790c7b1849cdf3140d8cd116", "is_reserved": 0, "fusion_lon": 0.0, "lat": 38.9078045, "is_disabled": 0, "name": "991c9059790c7b1849cdf3140d8cd116", "fusion_lat": 0.0, "rental_uris": {"ios": "https://dc.lft.to/lastmile_qr_scan", "android": "https://dc.lft.to/lastmile_qr_scan"}, "lon": -77.04265666666667, "type": "electric_scooter"}, {"bike_id": "95ea483d568c506ca8a372d18d61be2e", "is_reserved": 0, "fusion_lon": 0.0, "lat": 38.939877333333335, "is_disabled": 0, "name": "95ea483d568c506ca8a372d18d61be2e", "fusion_lat": 0.0, "rental_uris": {"ios": "https://dc.lft.to/lastmile_qr_scan", "android": "https://dc.lft.to/lastmile_qr_scan"}, "lon": -77.02888416666667, "type": "electric_scooter"}, {"bike_id": "38c9be304c6071f0f57ce1f0de9108c1", "is_reserved": 0, "fusion_lon": 0.0, "lat": 38.91814316666667, "is_disabled": 0, "name": "38c9be304c6071f0f57ce1f0de9108c1", "fusion_lat": 0.0, "rental_uris": {"ios": "https://dc.lft.to/lastmile_qr_scan", "android": "https://dc.lft.to/lastmile_qr_scan"}, "lon": -77.03295466666667, "type": "electric_scooter"}, {"bike_id": "8c918f271640aa1b13b2acf03006e634", "is_reserved": 0, "fusion_lon": 0.0, "lat": 38.90391066666667, "is_disabled": 0, "name": "8c918f271640aa1b13b2acf03006e634", "fusion_lat": 0.0, "rental_uris": {"ios": "https://dc.lft.to/lastmile_qr_scan", "android": "https://dc.lft.to/lastmile_qr_scan"}, "lon": -77.04503933333334, "type": "electric_scooter"}, {"bike_id": "baa1963019ef5e3dece25b7d52218506", "is_reserved": 0, "fusion_lon": 0.0, "lat": 38.91319883333333, "is_disabled": 0, "name": "baa1963019ef5e3dece25b7d52218506", "fusion_lat": 0.0, "rental_uris": {"ios": "https://dc.lft.to/lastmile_qr_scan", "android": "https://dc.lft.to/lastmile_qr_scan"}, "lon": -77.03260133333333, "type": "electric_scooter"}, {"bike_id": "f26304643244956e3064057f11386d8b", "is_reserved": 0, "fusion_lon": 0.0, "lat": 38.936658333333334, "is_disabled": 0, "name": "f26304643244956e3064057f11386d8b", "fusion_lat": 0.0, "rental_uris": {"ios": "https://dc.lft.to/lastmile_qr_scan", "android": "https://dc.lft.to/lastmile_qr_scan"}, "lon": -77.05932533333333, "type": "electric_scooter"}, {"bike_id": "2786d5f09707b6d381c8285857013e83", "is_reserved": 0, "fusion_lon": 0.0, "lat": 38.894298666666664, "is_disabled": 0, "name": "2786d5f09707b6d381c8285857013e83", "fusion_lat": 0.0, "rental_uris": {"ios": "https://dc.lft.to/lastmile_qr_scan", "android": "https://dc.lft.to/lastmile_qr_scan"}, "lon": -77.02622716666667, "type": "electric_scooter"}, {"bike_id": "98ce87e26fa62f2d0ebcd95627a3909f", "is_reserved": 0, "fusion_lon": 0.0, "lat": 38.8956335, "is_disabled": 0, "name": "98ce87e26fa62f2d0ebcd95627a3909f", "fusion_lat": 0.0, "rental_uris": {"ios": "https://dc.lft.to/lastmile_qr_scan", "android": "https://dc.lft.to/lastmile_qr_scan"}, "lon": -76.95020633333333, "type": "electric_scooter"}, {"bike_id": "004682fe706a63837a359704010f7b31", "is_reserved": 0, "fusion_lon": 0.0, "lat": 38.8595975, "is_disabled": 0, "name": "004682fe706a63837a359704010f7b31", "fusion_lat": 0.0, "rental_uris": {"ios": "https://dc.lft.to/lastmile_qr_scan", "android": "https://dc.lft.to/lastmile_qr_scan"}, "lon": -76.99102016666667, "type": "electric_scooter"}, {"bike_id": "dce464205dda8a7ae2f57ea434e3650f", "is_reserved": 0, "fusion_lon": 0.0, "lat": 38.908203666666665, "is_disabled": 0, "name": "dce464205dda8a7ae2f57ea434e3650f", "fusion_lat": 0.0, "rental_uris": {"ios": "https://dc.lft.to/lastmile_qr_scan", "android": "https://dc.lft.to/lastmile_qr_scan"}, "lon": -77.03420433333334, "type": "electric_scooter"}, {"bike_id": "b4620975c053913d6526b24a92f44fe2", "is_reserved": 0, "fusion_lon": 0.0, "lat": 38.916099, "is_disabled": 0, "name": "b4620975c053913d6526b24a92f44fe2", "fusion_lat": 0.0, "rental_uris": {"ios": "https://dc.lft.to/lastmile_qr_scan", "android": "https://dc.lft.to/lastmile_qr_scan"}, "lon": -77.04561083333333, "type": "electric_scooter"}, {"bike_id": "d8734a4b585790854693a13253ce86cb", "is_reserved": 0, "fusion_lon": 0.0, "lat": 38.8972945, "is_disabled": 0, "name": "d8734a4b585790854693a13253ce86cb", "fusion_lat": 0.0, "rental_uris": {"ios": "https://dc.lft.to/lastmile_qr_scan", "android": "https://dc.lft.to/lastmile_qr_scan"}, "lon": -77.04621666666667, "type": "electric_scooter"}, {"bike_id": "3e890222b73a2f7e45faecb59fc7e38b", "is_reserved": 0, "fusion_lon": 0.0, "lat": 38.8926355, "is_disabled": 0, "name": "3e890222b73a2f7e45faecb59fc7e38b", "fusion_lat": 0.0, "rental_uris": {"ios": "https://dc.lft.to/lastmile_qr_scan", "android": "https://dc.lft.to/lastmile_qr_scan"}, "lon": -77.025976, "type": "electric_scooter"}, {"bike_id": "a8eff7dadddea92a0d314fcdb8245261", "is_reserved": 0, "fusion_lon": 0.0, "lat": 38.9047665, "is_disabled": 0, "name": "a8eff7dadddea92a0d314fcdb8245261", "fusion_lat": 0.0, "rental_uris": {"ios": "https://dc.lft.to/lastmile_qr_scan", "android": "https://dc.lft.to/lastmile_qr_scan"}, "lon": -77.046597, "type": "electric_scooter"}, {"bike_id": "5c113961c4a404dfe190f790af43ab7b", "is_reserved": 0, "fusion_lon": 0.0, "lat": 38.86517416666667, "is_disabled": 0, "name": "5c113961c4a404dfe190f790af43ab7b", "fusion_lat": 0.0, "rental_uris": {"ios": "https://dc.lft.to/lastmile_qr_scan", "android": "https://dc.lft.to/lastmile_qr_scan"}, "lon": -76.9903, "type": "electric_scooter"}, {"bike_id": "cfc505b6bb0e4555376fd9c23dfcb59a", "is_reserved": 0, "fusion_lon": 0.0, "lat": 38.94083466666667, "is_disabled": 0, "name": "cfc505b6bb0e4555376fd9c23dfcb59a", "fusion_lat": 0.0, "rental_uris": {"ios": "https://dc.lft.to/lastmile_qr_scan", "android": "https://dc.lft.to/lastmile_qr_scan"}, "lon": -77.06193533333334, "type": "electric_scooter"}, {"bike_id": "0ebd51618c2fa18a54240e72e2f61621", "is_reserved": 0, "fusion_lon": 0.0, "lat": 38.92246083333333, "is_disabled": 0, "name": "0ebd51618c2fa18a54240e72e2f61621", "fusion_lat": 0.0, "rental_uris": {"ios": "https://dc.lft.to/lastmile_qr_scan", "android": "https://dc.lft.to/lastmile_qr_scan"}, "lon": -77.018245, "type": "electric_scooter"}, {"bike_id": "65f38622717bb5407a2713a06eb085dd", "is_reserved": 0, "fusion_lon": 0.0, "lat": 38.930966833333336, "is_disabled": 0, "name": "65f38622717bb5407a2713a06eb085dd", "fusion_lat": 0.0, "rental_uris": {"ios": "https://dc.lft.to/lastmile_qr_scan", "android": "https://dc.lft.to/lastmile_qr_scan"}, "lon": -77.02501933333333, "type": "electric_scooter"}, {"bike_id": "866ff772c01bee8dbb7747acf0925e04", "is_reserved": 0, "fusion_lon": 0.0, "lat": 38.905852, "is_disabled": 0, "name": "866ff772c01bee8dbb7747acf0925e04", "fusion_lat": 0.0, "rental_uris": {"ios": "https://dc.lft.to/lastmile_qr_scan", "android": "https://dc.lft.to/lastmile_qr_scan"}, "lon": -77.002795, "type": "electric_scooter"}, {"bike_id": "1ab9f0f8a557d458a8f6599e5e0b7a17", "is_reserved": 0, "fusion_lon": 0.0, "lat": 38.952728666666665, "is_disabled": 0, "name": "1ab9f0f8a557d458a8f6599e5e0b7a17", "fusion_lat": 0.0, "rental_uris": {"ios": "https://dc.lft.to/lastmile_qr_scan", "android": "https://dc.lft.to/lastmile_qr_scan"}, "lon": -77.06961216666667, "type": "electric_bike"}, {"bike_id": "2881be116e8a9b8db38fd8ba29f30a08", "is_reserved": 0, "fusion_lon": 0.0, "lat": 38.900246, "is_disabled": 0, "name": "2881be116e8a9b8db38fd8ba29f30a08", "fusion_lat": 0.0, "rental_uris": {"ios": "https://dc.lft.to/lastmile_qr_scan", "android": "https://dc.lft.to/lastmile_qr_scan"}, "lon": -77.04698, "type": "electric_scooter"}, {"bike_id": "14e99f77ff40b22bf3c8105b6c4327d2", "is_reserved": 0, "fusion_lon": 0.0, "lat": 38.866051166666665, "is_disabled": 0, "name": "14e99f77ff40b22bf3c8105b6c4327d2", "fusion_lat": 0.0, "rental_uris": {"ios": "https://dc.lft.to/lastmile_qr_scan", "android": "https://dc.lft.to/lastmile_qr_scan"}, "lon": -76.98916483333333, "type": "electric_scooter"}, {"bike_id": "16371570fcbe839e0f7bb8d27a2ad780", "is_reserved": 0, "fusion_lon": 0.0, "lat": 38.9056785, "is_disabled": 0, "name": "16371570fcbe839e0f7bb8d27a2ad780", "fusion_lat": 0.0, "rental_uris": {"ios": "https://dc.lft.to/lastmile_qr_scan", "android": "https://dc.lft.to/lastmile_qr_scan"}, "lon": -77.0217315, "type": "electric_scooter"}, {"bike_id": "f5b0c4a38abfcd8234d7a98b32a4d48f", "is_reserved": 0, "fusion_lon": 0.0, "lat": 38.89210966666667, "is_disabled": 0, "name": "f5b0c4a38abfcd8234d7a98b32a4d48f", "fusion_lat": 0.0, "rental_uris": {"ios": "https://dc.lft.to/lastmile_qr_scan", "android": "https://dc.lft.to/lastmile_qr_scan"}, "lon": -77.03167483333333, "type": "electric_scooter"}, {"bike_id": "f525be57ae0cf4d29596107e758462b6", "is_reserved": 0, "fusion_lon": 0.0, "lat": 38.923605, "is_disabled": 0, "name": "f525be57ae0cf4d29596107e758462b6", "fusion_lat": 0.0, "rental_uris": {"ios": "https://dc.lft.to/lastmile_qr_scan", "android": "https://dc.lft.to/lastmile_qr_scan"}, "lon": -77.0503055, "type": "electric_scooter"}, {"bike_id": "55170a98f1e8b068a9d7c17ab3770ffb", "is_reserved": 0, "fusion_lon": 0.0, "lat": 38.896218166666664, "is_disabled": 0, "name": "55170a98f1e8b068a9d7c17ab3770ffb", "fusion_lat": 0.0, "rental_uris": {"ios": "https://dc.lft.to/lastmile_qr_scan", "android": "https://dc.lft.to/lastmile_qr_scan"}, "lon": -77.03232816666667, "type": "electric_scooter"}, {"bike_id": "4941ba1085c9b31e6316cbd99f3b3c4f", "is_reserved": 0, "fusion_lon": 0.0, "lat": 38.920823166666665, "is_disabled": 0, "name": "4941ba1085c9b31e6316cbd99f3b3c4f", "fusion_lat": 0.0, "rental_uris": {"ios": "https://dc.lft.to/lastmile_qr_scan", "android": "https://dc.lft.to/lastmile_qr_scan"}, "lon": -77.03163066666667, "type": "electric_scooter"}, {"bike_id": "ead7a56ee1267b6d01ffe1067d9c7b66", "is_reserved": 0, "fusion_lon": 0.0, "lat": 38.90395516666667, "is_disabled": 0, "name": "ead7a56ee1267b6d01ffe1067d9c7b66", "fusion_lat": 0.0, "rental_uris": {"ios": "https://dc.lft.to/lastmile_qr_scan", "android": "https://dc.lft.to/lastmile_qr_scan"}, "lon": -77.04337516666666, "type": "electric_scooter"}, {"bike_id": "eb88308b9aa25abdeacf253b82b88e4c", "is_reserved": 0, "fusion_lon": 0.0, "lat": 38.9029445, "is_disabled": 0, "name": "eb88308b9aa25abdeacf253b82b88e4c", "fusion_lat": 0.0, "rental_uris": {"ios": "https://dc.lft.to/lastmile_qr_scan", "android": "https://dc.lft.to/lastmile_qr_scan"}, "lon": -76.94440466666667, "type": "electric_bike"}, {"bike_id": "d593e6b69af7b64540fe53e054b2aea6", "is_reserved": 0, "fusion_lon": 0.0, "lat": 38.913246666666666, "is_disabled": 0, "name": "d593e6b69af7b64540fe53e054b2aea6", "fusion_lat": 0.0, "rental_uris": {"ios": "https://dc.lft.to/lastmile_qr_scan", "android": "https://dc.lft.to/lastmile_qr_scan"}, "lon": -77.015087, "type": "electric_scooter"}, {"bike_id": "ecd70ae9e370cf20681d5ca0e4474d54", "is_reserved": 0, "fusion_lon": 0.0, "lat": 38.90859433333333, "is_disabled": 0, "name": "ecd70ae9e370cf20681d5ca0e4474d54", "fusion_lat": 0.0, "rental_uris": {"ios": "https://dc.lft.to/lastmile_qr_scan", "android": "https://dc.lft.to/lastmile_qr_scan"}, "lon": -77.04258166666666, "type": "electric_scooter"}, {"bike_id": "9a1bd1b779379789e17b103e15b6e111", "is_reserved": 0, "fusion_lon": 0.0, "lat": 38.9389125, "is_disabled": 0, "name": "9a1bd1b779379789e17b103e15b6e111", "fusion_lat": 0.0, "rental_uris": {"ios": "https://dc.lft.to/lastmile_qr_scan", "android": "https://dc.lft.to/lastmile_qr_scan"}, "lon": -77.0298635, "type": "electric_scooter"}, {"bike_id": "e578211fe4868a8c90ca6bf73102edfb", "is_reserved": 0, "fusion_lon": 0.0, "lat": 38.838031, "is_disabled": 0, "name": "e578211fe4868a8c90ca6bf73102edfb", "fusion_lat": 0.0, "rental_uris": {"ios": "https://dc.lft.to/lastmile_qr_scan", "android": "https://dc.lft.to/lastmile_qr_scan"}, "lon": -76.99838266666667, "type": "electric_bike"}, {"bike_id": "f253786069ffab76dbfb7651fc99a1b9", "is_reserved": 0, "fusion_lon": 0.0, "lat": 39.015968666666666, "is_disabled": 0, "name": "f253786069ffab76dbfb7651fc99a1b9", "fusion_lat": 0.0, "rental_uris": {"ios": "https://dc.lft.to/lastmile_qr_scan", "android": "https://dc.lft.to/lastmile_qr_scan"}, "lon": -77.04427616666666, "type": "electric_bike"}, {"bike_id": "b9cbce569c7fa424806ae0b1a8e65477", "is_reserved": 0, "fusion_lon": 0.0, "lat": 38.922412333333334, "is_disabled": 0, "name": "b9cbce569c7fa424806ae0b1a8e65477", "fusion_lat": 0.0, "rental_uris": {"ios": "https://dc.lft.to/lastmile_qr_scan", "android": "https://dc.lft.to/lastmile_qr_scan"}, "lon": -77.03077383333333, "type": "electric_scooter"}, {"bike_id": "39e543d91403b2cf194531d0b74ce052", "is_reserved": 0, "fusion_lon": 0.0, "lat": 38.9054285, "is_disabled": 0, "name": "39e543d91403b2cf194531d0b74ce052", "fusion_lat": 0.0, "rental_uris": {"ios": "https://dc.lft.to/lastmile_qr_scan", "android": "https://dc.lft.to/lastmile_qr_scan"}, "lon": -77.0021085, "type": "electric_bike"}, {"bike_id": "39be193bdbc0e64dbf8389a56db07119", "is_reserved": 0, "fusion_lon": 0.0, "lat": 38.922720166666664, "is_disabled": 0, "name": "39be193bdbc0e64dbf8389a56db07119", "fusion_lat": 0.0, "rental_uris": {"ios": "https://dc.lft.to/lastmile_qr_scan", "android": "https://dc.lft.to/lastmile_qr_scan"}, "lon": -77.04227183333333, "type": "electric_scooter"}, {"bike_id": "33c5eeced1ca959c0c82fd0be77cbc2b", "is_reserved": 0, "fusion_lon": 0.0, "lat": 38.90098966666667, "is_disabled": 0, "name": "33c5eeced1ca959c0c82fd0be77cbc2b", "fusion_lat": 0.0, "rental_uris": {"ios": "https://dc.lft.to/lastmile_qr_scan", "android": "https://dc.lft.to/lastmile_qr_scan"}, "lon": -77.04755316666666, "type": "electric_scooter"}, {"bike_id": "cd42ac7b0a778709bace1f74787a4f09", "is_reserved": 0, "fusion_lon": 0.0, "lat": 38.926743, "is_disabled": 0, "name": "cd42ac7b0a778709bace1f74787a4f09", "fusion_lat": 0.0, "rental_uris": {"ios": "https://dc.lft.to/lastmile_qr_scan", "android": "https://dc.lft.to/lastmile_qr_scan"}, "lon": -77.03632983333334, "type": "electric_scooter"}, {"bike_id": "cc201517151ad9eb481801b3b4ea2f1c", "is_reserved": 0, "fusion_lon": 0.0, "lat": 38.866284, "is_disabled": 0, "name": "cc201517151ad9eb481801b3b4ea2f1c", "fusion_lat": 0.0, "rental_uris": {"ios": "https://dc.lft.to/lastmile_qr_scan", "android": "https://dc.lft.to/lastmile_qr_scan"}, "lon": -76.98713616666667, "type": "electric_scooter"}, {"bike_id": "927d9d5b5d8bb956a75699354542dddd", "is_reserved": 0, "fusion_lon": 0.0, "lat": 38.879993666666664, "is_disabled": 0, "name": "927d9d5b5d8bb956a75699354542dddd", "fusion_lat": 0.0, "rental_uris": {"ios": "https://dc.lft.to/lastmile_qr_scan", "android": "https://dc.lft.to/lastmile_qr_scan"}, "lon": -76.99503116666666, "type": "electric_scooter"}, {"bike_id": "e5f2c1c8fbecbaac142ce999f81daeca", "is_reserved": 0, "fusion_lon": 0.0, "lat": 38.92887783333333, "is_disabled": 0, "name": "e5f2c1c8fbecbaac142ce999f81daeca", "fusion_lat": 0.0, "rental_uris": {"ios": "https://dc.lft.to/lastmile_qr_scan", "android": "https://dc.lft.to/lastmile_qr_scan"}, "lon": -77.05447566666666, "type": "electric_scooter"}, {"bike_id": "709b707f63ba6e6f63277518dddc64f7", "is_reserved": 0, "fusion_lon": 0.0, "lat": 38.908074166666665, "is_disabled": 0, "name": "709b707f63ba6e6f63277518dddc64f7", "fusion_lat": 0.0, "rental_uris": {"ios": "https://dc.lft.to/lastmile_qr_scan", "android": "https://dc.lft.to/lastmile_qr_scan"}, "lon": -77.03453066666667, "type": "electric_scooter"}, {"bike_id": "e3a1bf6c1d2daa9eeed43446f25e5e13", "is_reserved": 0, "fusion_lon": 0.0, "lat": 38.90010183333333, "is_disabled": 0, "name": "e3a1bf6c1d2daa9eeed43446f25e5e13", "fusion_lat": 0.0, "rental_uris": {"ios": "https://dc.lft.to/lastmile_qr_scan", "android": "https://dc.lft.to/lastmile_qr_scan"}, "lon": -76.973129, "type": "electric_scooter"}, {"bike_id": "17dd4763e2de8553b1b0fe0dc507f196", "is_reserved": 0, "fusion_lon": 0.0, "lat": 38.904832666666664, "is_disabled": 0, "name": "17dd4763e2de8553b1b0fe0dc507f196", "fusion_lat": 0.0, "rental_uris": {"ios": "https://dc.lft.to/lastmile_qr_scan", "android": "https://dc.lft.to/lastmile_qr_scan"}, "lon": -77.02972, "type": "electric_scooter"}, {"bike_id": "e0925eb92ef8d2fdcac5396ce53c717a", "is_reserved": 0, "fusion_lon": 0.0, "lat": 38.8995165, "is_disabled": 0, "name": "e0925eb92ef8d2fdcac5396ce53c717a", "fusion_lat": 0.0, "rental_uris": {"ios": "https://dc.lft.to/lastmile_qr_scan", "android": "https://dc.lft.to/lastmile_qr_scan"}, "lon": -77.0033865, "type": "electric_scooter"}, {"bike_id": "b36d5e5431b15874a87324f05c30ef80", "is_reserved": 0, "fusion_lon": 0.0, "lat": 38.89478833333333, "is_disabled": 0, "name": "b36d5e5431b15874a87324f05c30ef80", "fusion_lat": 0.0, "rental_uris": {"ios": "https://dc.lft.to/lastmile_qr_scan", "android": "https://dc.lft.to/lastmile_qr_scan"}, "lon": -77.02202183333333, "type": "electric_scooter"}, {"bike_id": "44a3248cc19cd1ab6d8bb7e15fadcd61", "is_reserved": 0, "fusion_lon": 0.0, "lat": 38.90232733333333, "is_disabled": 0, "name": "44a3248cc19cd1ab6d8bb7e15fadcd61", "fusion_lat": 0.0, "rental_uris": {"ios": "https://dc.lft.to/lastmile_qr_scan", "android": "https://dc.lft.to/lastmile_qr_scan"}, "lon": -77.060622, "type": "electric_scooter"}, {"bike_id": "beba70d8233b343bd645b1a018c6cb1b", "is_reserved": 0, "fusion_lon": 0.0, "lat": 38.920851166666665, "is_disabled": 0, "name": "beba70d8233b343bd645b1a018c6cb1b", "fusion_lat": 0.0, "rental_uris": {"ios": "https://dc.lft.to/lastmile_qr_scan", "android": "https://dc.lft.to/lastmile_qr_scan"}, "lon": -77.02542766666667, "type": "electric_scooter"}, {"bike_id": "4f71f1d673b7e839cb18609f6510d2b1", "is_reserved": 0, "fusion_lon": 0.0, "lat": 38.908508, "is_disabled": 0, "name": "4f71f1d673b7e839cb18609f6510d2b1", "fusion_lat": 0.0, "rental_uris": {"ios": "https://dc.lft.to/lastmile_qr_scan", "android": "https://dc.lft.to/lastmile_qr_scan"}, "lon": -77.08528483333333, "type": "electric_scooter"}, {"bike_id": "806b2f6d0894831a62ada892098f6e6e", "is_reserved": 0, "fusion_lon": 0.0, "lat": 38.912499333333336, "is_disabled": 0, "name": "806b2f6d0894831a62ada892098f6e6e", "fusion_lat": 0.0, "rental_uris": {"ios": "https://dc.lft.to/lastmile_qr_scan", "android": "https://dc.lft.to/lastmile_qr_scan"}, "lon": -77.02694116666666, "type": "electric_scooter"}, {"bike_id": "af5f4acbe264bf41860c868e423ab31f", "is_reserved": 0, "fusion_lon": 0.0, "lat": 38.9037625, "is_disabled": 0, "name": "af5f4acbe264bf41860c868e423ab31f", "fusion_lat": 0.0, "rental_uris": {"ios": "https://dc.lft.to/lastmile_qr_scan", "android": "https://dc.lft.to/lastmile_qr_scan"}, "lon": -77.04342816666667, "type": "electric_scooter"}, {"bike_id": "8c1936c69c9423fe4797030ffa6205c9", "is_reserved": 0, "fusion_lon": 0.0, "lat": 38.927422166666666, "is_disabled": 0, "name": "8c1936c69c9423fe4797030ffa6205c9", "fusion_lat": 0.0, "rental_uris": {"ios": "https://dc.lft.to/lastmile_qr_scan", "android": "https://dc.lft.to/lastmile_qr_scan"}, "lon": -77.02285166666667, "type": "electric_scooter"}, {"bike_id": "775de09539f5f5b1e8990ecb678e7d31", "is_reserved": 0, "fusion_lon": 0.0, "lat": 38.89603916666667, "is_disabled": 0, "name": "775de09539f5f5b1e8990ecb678e7d31", "fusion_lat": 0.0, "rental_uris": {"ios": "https://dc.lft.to/lastmile_qr_scan", "android": "https://dc.lft.to/lastmile_qr_scan"}, "lon": -76.98447816666666, "type": "electric_scooter"}, {"bike_id": "4a02a83e8dd479989168b962ebaf596c", "is_reserved": 0, "fusion_lon": 0.0, "lat": 38.901126166666664, "is_disabled": 0, "name": "4a02a83e8dd479989168b962ebaf596c", "fusion_lat": 0.0, "rental_uris": {"ios": "https://dc.lft.to/lastmile_qr_scan", "android": "https://dc.lft.to/lastmile_qr_scan"}, "lon": -77.04349233333333, "type": "electric_scooter"}, {"bike_id": "fc91d05a5ec4220c6318053ec4544eba", "is_reserved": 0, "fusion_lon": 0.0, "lat": 38.9096245, "is_disabled": 0, "name": "fc91d05a5ec4220c6318053ec4544eba", "fusion_lat": 0.0, "rental_uris": {"ios": "https://dc.lft.to/lastmile_qr_scan", "android": "https://dc.lft.to/lastmile_qr_scan"}, "lon": -77.04861616666666, "type": "electric_scooter"}, {"bike_id": "f74ecb7b535d7692d2ea747364b6635d", "is_reserved": 0, "fusion_lon": 0.0, "lat": 39.03882016666667, "is_disabled": 0, "name": "f74ecb7b535d7692d2ea747364b6635d", "fusion_lat": 0.0, "rental_uris": {"ios": "https://dc.lft.to/lastmile_qr_scan", "android": "https://dc.lft.to/lastmile_qr_scan"}, "lon": -76.99039833333333, "type": "electric_bike"}, {"bike_id": "27396dd647ef4da5464726b1d8108f34", "is_reserved": 0, "fusion_lon": 0.0, "lat": 38.91423066666667, "is_disabled": 0, "name": "27396dd647ef4da5464726b1d8108f34", "fusion_lat": 0.0, "rental_uris": {"ios": "https://dc.lft.to/lastmile_qr_scan", "android": "https://dc.lft.to/lastmile_qr_scan"}, "lon": -77.044895, "type": "electric_scooter"}, {"bike_id": "e95ac4250a2b80725bb832fe2a27a1bc", "is_reserved": 0, "fusion_lon": 0.0, "lat": 38.89222633333333, "is_disabled": 0, "name": "e95ac4250a2b80725bb832fe2a27a1bc", "fusion_lat": 0.0, "rental_uris": {"ios": "https://dc.lft.to/lastmile_qr_scan", "android": "https://dc.lft.to/lastmile_qr_scan"}, "lon": -77.02446283333333, "type": "electric_scooter"}, {"bike_id": "ef3ebe368bb2acb141f2be49a5fb9817", "is_reserved": 0, "fusion_lon": 0.0, "lat": 38.9061255, "is_disabled": 0, "name": "ef3ebe368bb2acb141f2be49a5fb9817", "fusion_lat": 0.0, "rental_uris": {"ios": "https://dc.lft.to/lastmile_qr_scan", "android": "https://dc.lft.to/lastmile_qr_scan"}, "lon": -77.07490983333334, "type": "electric_scooter"}, {"bike_id": "36c3dd5f732eb35fee295acf9e6bfcf9", "is_reserved": 0, "fusion_lon": 0.0, "lat": 38.902496, "is_disabled": 0, "name": "36c3dd5f732eb35fee295acf9e6bfcf9", "fusion_lat": 0.0, "rental_uris": {"ios": "https://dc.lft.to/lastmile_qr_scan", "android": "https://dc.lft.to/lastmile_qr_scan"}, "lon": -77.02816266666666, "type": "electric_scooter"}, {"bike_id": "cf6dab08fea7897f65cae948fca400c7", "is_reserved": 0, "fusion_lon": 0.0, "lat": 38.923303, "is_disabled": 0, "name": "cf6dab08fea7897f65cae948fca400c7", "fusion_lat": 0.0, "rental_uris": {"ios": "https://dc.lft.to/lastmile_qr_scan", "android": "https://dc.lft.to/lastmile_qr_scan"}, "lon": -77.0351145, "type": "electric_scooter"}, {"bike_id": "562c93e48d16d408d3abe566e14215a5", "is_reserved": 0, "fusion_lon": 0.0, "lat": 38.933514833333334, "is_disabled": 0, "name": "562c93e48d16d408d3abe566e14215a5", "fusion_lat": 0.0, "rental_uris": {"ios": "https://dc.lft.to/lastmile_qr_scan", "android": "https://dc.lft.to/lastmile_qr_scan"}, "lon": -77.058632, "type": "electric_scooter"}, {"bike_id": "62f53f060011a0beba749e84f755f480", "is_reserved": 0, "fusion_lon": 0.0, "lat": 38.920878, "is_disabled": 0, "name": "62f53f060011a0beba749e84f755f480", "fusion_lat": 0.0, "rental_uris": {"ios": "https://dc.lft.to/lastmile_qr_scan", "android": "https://dc.lft.to/lastmile_qr_scan"}, "lon": -77.0748475, "type": "electric_scooter"}, {"bike_id": "3ec4804ca9cf9d91234d160a2f9d9f49", "is_reserved": 0, "fusion_lon": 0.0, "lat": 38.900201, "is_disabled": 0, "name": "3ec4804ca9cf9d91234d160a2f9d9f49", "fusion_lat": 0.0, "rental_uris": {"ios": "https://dc.lft.to/lastmile_qr_scan", "android": "https://dc.lft.to/lastmile_qr_scan"}, "lon": -77.0112335, "type": "electric_scooter"}, {"bike_id": "c34af1a71c18c633d05f1ff0ce68fc84", "is_reserved": 0, "fusion_lon": 0.0, "lat": 38.90137266666667, "is_disabled": 0, "name": "c34af1a71c18c633d05f1ff0ce68fc84", "fusion_lat": 0.0, "rental_uris": {"ios": "https://dc.lft.to/lastmile_qr_scan", "android": "https://dc.lft.to/lastmile_qr_scan"}, "lon": -77.044868, "type": "electric_scooter"}, {"bike_id": "40ebbdd53fdba39908a48e267a9150de", "is_reserved": 0, "fusion_lon": 0.0, "lat": 38.86245, "is_disabled": 0, "name": "40ebbdd53fdba39908a48e267a9150de", "fusion_lat": 0.0, "rental_uris": {"ios": "https://dc.lft.to/lastmile_qr_scan", "android": "https://dc.lft.to/lastmile_qr_scan"}, "lon": -76.9948255, "type": "electric_scooter"}, {"bike_id": "af8dc970a8226591d2f3e5e883c7c817", "is_reserved": 0, "fusion_lon": 0.0, "lat": 38.905007499999996, "is_disabled": 0, "name": "af8dc970a8226591d2f3e5e883c7c817", "fusion_lat": 0.0, "rental_uris": {"ios": "https://dc.lft.to/lastmile_qr_scan", "android": "https://dc.lft.to/lastmile_qr_scan"}, "lon": -77.04179183333333, "type": "electric_scooter"}, {"bike_id": "097b6dc073a39f521e44235aab628318", "is_reserved": 0, "fusion_lon": 0.0, "lat": 38.911138333333334, "is_disabled": 0, "name": "097b6dc073a39f521e44235aab628318", "fusion_lat": 0.0, "rental_uris": {"ios": "https://dc.lft.to/lastmile_qr_scan", "android": "https://dc.lft.to/lastmile_qr_scan"}, "lon": -77.00366566666666, "type": "electric_scooter"}, {"bike_id": "55b708e2fd9f726b5f965adc04de0ea6", "is_reserved": 0, "fusion_lon": 0.0, "lat": 38.89825666666667, "is_disabled": 0, "name": "55b708e2fd9f726b5f965adc04de0ea6", "fusion_lat": 0.0, "rental_uris": {"ios": "https://dc.lft.to/lastmile_qr_scan", "android": "https://dc.lft.to/lastmile_qr_scan"}, "lon": -77.03338133333334, "type": "electric_scooter"}, {"bike_id": "a03a1af4b0b3ada6587eb5b02787d653", "is_reserved": 0, "fusion_lon": 0.0, "lat": 38.92498366666667, "is_disabled": 0, "name": "a03a1af4b0b3ada6587eb5b02787d653", "fusion_lat": 0.0, "rental_uris": {"ios": "https://dc.lft.to/lastmile_qr_scan", "android": "https://dc.lft.to/lastmile_qr_scan"}, "lon": -77.02164233333333, "type": "electric_scooter"}, {"bike_id": "5a1b7d2ef6736cf1e71391e12087c96f", "is_reserved": 0, "fusion_lon": 0.0, "lat": 38.922399166666665, "is_disabled": 0, "name": "5a1b7d2ef6736cf1e71391e12087c96f", "fusion_lat": 0.0, "rental_uris": {"ios": "https://dc.lft.to/lastmile_qr_scan", "android": "https://dc.lft.to/lastmile_qr_scan"}, "lon": -77.03089666666666, "type": "electric_scooter"}, {"bike_id": "269b29b0d1963e7b6bc441e4f70fea10", "is_reserved": 0, "fusion_lon": 0.0, "lat": 38.870808333333336, "is_disabled": 0, "name": "269b29b0d1963e7b6bc441e4f70fea10", "fusion_lat": 0.0, "rental_uris": {"ios": "https://dc.lft.to/lastmile_qr_scan", "android": "https://dc.lft.to/lastmile_qr_scan"}, "lon": -77.01212766666667, "type": "electric_bike"}, {"bike_id": "65c1dd8e98164869dc605c5e760f8fe4", "is_reserved": 0, "fusion_lon": 0.0, "lat": 38.917993, "is_disabled": 0, "name": "65c1dd8e98164869dc605c5e760f8fe4", "fusion_lat": 0.0, "rental_uris": {"ios": "https://dc.lft.to/lastmile_qr_scan", "android": "https://dc.lft.to/lastmile_qr_scan"}, "lon": -77.035555, "type": "electric_scooter"}, {"bike_id": "edf3c1c838b8c66d1c0340c5b270456a", "is_reserved": 0, "fusion_lon": 0.0, "lat": 38.900325333333335, "is_disabled": 0, "name": "edf3c1c838b8c66d1c0340c5b270456a", "fusion_lat": 0.0, "rental_uris": {"ios": "https://dc.lft.to/lastmile_qr_scan", "android": "https://dc.lft.to/lastmile_qr_scan"}, "lon": -76.98751116666666, "type": "electric_scooter"}, {"bike_id": "16e9bd7cd925eecf6a72f656e202c8a8", "is_reserved": 0, "fusion_lon": 0.0, "lat": 38.87912516666667, "is_disabled": 0, "name": "16e9bd7cd925eecf6a72f656e202c8a8", "fusion_lat": 0.0, "rental_uris": {"ios": "https://dc.lft.to/lastmile_qr_scan", "android": "https://dc.lft.to/lastmile_qr_scan"}, "lon": -77.02255833333334, "type": "electric_scooter"}, {"bike_id": "c1a69058961d3ca04664ef47af451b5c", "is_reserved": 0, "fusion_lon": 0.0, "lat": 38.906229, "is_disabled": 0, "name": "c1a69058961d3ca04664ef47af451b5c", "fusion_lat": 0.0, "rental_uris": {"ios": "https://dc.lft.to/lastmile_qr_scan", "android": "https://dc.lft.to/lastmile_qr_scan"}, "lon": -76.98607916666667, "type": "electric_bike"}, {"bike_id": "4107ac6c2e9a568d1541359b5ba8a2d9", "is_reserved": 0, "fusion_lon": 0.0, "lat": 38.8967745, "is_disabled": 0, "name": "4107ac6c2e9a568d1541359b5ba8a2d9", "fusion_lat": 0.0, "rental_uris": {"ios": "https://dc.lft.to/lastmile_qr_scan", "android": "https://dc.lft.to/lastmile_qr_scan"}, "lon": -76.99618466666666, "type": "electric_scooter"}, {"bike_id": "6ab865427a939bad62de50440c5a3a0d", "is_reserved": 0, "fusion_lon": 0.0, "lat": 38.9127, "is_disabled": 0, "name": "6ab865427a939bad62de50440c5a3a0d", "fusion_lat": 0.0, "rental_uris": {"ios": "https://dc.lft.to/lastmile_qr_scan", "android": "https://dc.lft.to/lastmile_qr_scan"}, "lon": -77.03764333333334, "type": "electric_scooter"}, {"bike_id": "b5d2ffd4c6c435c3f6224555f08ca2db", "is_reserved": 0, "fusion_lon": 0.0, "lat": 38.891076, "is_disabled": 0, "name": "b5d2ffd4c6c435c3f6224555f08ca2db", "fusion_lat": 0.0, "rental_uris": {"ios": "https://dc.lft.to/lastmile_qr_scan", "android": "https://dc.lft.to/lastmile_qr_scan"}, "lon": -76.98701833333334, "type": "electric_scooter"}, {"bike_id": "a1e3c640a61e649c1a91e6a63b11005e", "is_reserved": 0, "fusion_lon": 0.0, "lat": 38.859208, "is_disabled": 0, "name": "a1e3c640a61e649c1a91e6a63b11005e", "fusion_lat": 0.0, "rental_uris": {"ios": "https://dc.lft.to/lastmile_qr_scan", "android": "https://dc.lft.to/lastmile_qr_scan"}, "lon": -76.98978383333333, "type": "electric_scooter"}, {"bike_id": "0aa3fccd9353eaa981c3c888c2422963", "is_reserved": 0, "fusion_lon": 0.0, "lat": 38.90977683333333, "is_disabled": 0, "name": "0aa3fccd9353eaa981c3c888c2422963", "fusion_lat": 0.0, "rental_uris": {"ios": "https://dc.lft.to/lastmile_qr_scan", "android": "https://dc.lft.to/lastmile_qr_scan"}, "lon": -77.02385266666667, "type": "electric_scooter"}, {"bike_id": "9c3c5e5a321255c8e6fbfe98e109f4fa", "is_reserved": 0, "fusion_lon": 0.0, "lat": 38.89222316666667, "is_disabled": 0, "name": "9c3c5e5a321255c8e6fbfe98e109f4fa", "fusion_lat": 0.0, "rental_uris": {"ios": "https://dc.lft.to/lastmile_qr_scan", "android": "https://dc.lft.to/lastmile_qr_scan"}, "lon": -77.0436725, "type": "electric_scooter"}, {"bike_id": "3eed0112a1d100643590043bcc536973", "is_reserved": 0, "fusion_lon": 0.0, "lat": 38.906150833333335, "is_disabled": 0, "name": "3eed0112a1d100643590043bcc536973", "fusion_lat": 0.0, "rental_uris": {"ios": "https://dc.lft.to/lastmile_qr_scan", "android": "https://dc.lft.to/lastmile_qr_scan"}, "lon": -77.0297305, "type": "electric_scooter"}, {"bike_id": "b0d349a4056bdc60622b9d6170d32eb7", "is_reserved": 0, "fusion_lon": 0.0, "lat": 38.92575883333333, "is_disabled": 0, "name": "b0d349a4056bdc60622b9d6170d32eb7", "fusion_lat": 0.0, "rental_uris": {"ios": "https://dc.lft.to/lastmile_qr_scan", "android": "https://dc.lft.to/lastmile_qr_scan"}, "lon": -77.0310255, "type": "electric_scooter"}, {"bike_id": "c1840ae7cc5145b75adaedb1cf91791d", "is_reserved": 0, "fusion_lon": 0.0, "lat": 38.95890583333333, "is_disabled": 0, "name": "c1840ae7cc5145b75adaedb1cf91791d", "fusion_lat": 0.0, "rental_uris": {"ios": "https://dc.lft.to/lastmile_qr_scan", "android": "https://dc.lft.to/lastmile_qr_scan"}, "lon": -76.92487066666666, "type": "electric_bike"}, {"bike_id": "57eb4b8c040a1a7a68c4772ea4f93d86", "is_reserved": 0, "fusion_lon": 0.0, "lat": 38.89825183333333, "is_disabled": 0, "name": "57eb4b8c040a1a7a68c4772ea4f93d86", "fusion_lat": 0.0, "rental_uris": {"ios": "https://dc.lft.to/lastmile_qr_scan", "android": "https://dc.lft.to/lastmile_qr_scan"}, "lon": -76.9804155, "type": "electric_scooter"}, {"bike_id": "de743c9165d459aaf95052734c4333b9", "is_reserved": 0, "fusion_lon": 0.0, "lat": 38.90672583333333, "is_disabled": 0, "name": "de743c9165d459aaf95052734c4333b9", "fusion_lat": 0.0, "rental_uris": {"ios": "https://dc.lft.to/lastmile_qr_scan", "android": "https://dc.lft.to/lastmile_qr_scan"}, "lon": -76.9877995, "type": "electric_scooter"}, {"bike_id": "6ee9f1b3cb584c7633db019c58d6d8aa", "is_reserved": 0, "fusion_lon": 0.0, "lat": 38.91848983333333, "is_disabled": 0, "name": "6ee9f1b3cb584c7633db019c58d6d8aa", "fusion_lat": 0.0, "rental_uris": {"ios": "https://dc.lft.to/lastmile_qr_scan", "android": "https://dc.lft.to/lastmile_qr_scan"}, "lon": -77.02329816666666, "type": "electric_scooter"}, {"bike_id": "08aca12fb83402c54e62e7b520d98f94", "is_reserved": 0, "fusion_lon": 0.0, "lat": 38.888654, "is_disabled": 0, "name": "08aca12fb83402c54e62e7b520d98f94", "fusion_lat": 0.0, "rental_uris": {"ios": "https://dc.lft.to/lastmile_qr_scan", "android": "https://dc.lft.to/lastmile_qr_scan"}, "lon": -76.99474366666666, "type": "electric_bike"}, {"bike_id": "4b1c1ac106e3e518093555d4798d702b", "is_reserved": 0, "fusion_lon": 0.0, "lat": 38.91909, "is_disabled": 0, "name": "4b1c1ac106e3e518093555d4798d702b", "fusion_lat": 0.0, "rental_uris": {"ios": "https://dc.lft.to/lastmile_qr_scan", "android": "https://dc.lft.to/lastmile_qr_scan"}, "lon": -77.032037, "type": "electric_scooter"}, {"bike_id": "e416595f26c9b8a819811a3eefcdef09", "is_reserved": 0, "fusion_lon": 0.0, "lat": 38.87549216666667, "is_disabled": 0, "name": "e416595f26c9b8a819811a3eefcdef09", "fusion_lat": 0.0, "rental_uris": {"ios": "https://dc.lft.to/lastmile_qr_scan", "android": "https://dc.lft.to/lastmile_qr_scan"}, "lon": -76.9649045, "type": "electric_scooter"}, {"bike_id": "db6e07581caf6352c7bbdbe728e7a8d2", "is_reserved": 0, "fusion_lon": 0.0, "lat": 38.89540866666667, "is_disabled": 0, "name": "db6e07581caf6352c7bbdbe728e7a8d2", "fusion_lat": 0.0, "rental_uris": {"ios": "https://dc.lft.to/lastmile_qr_scan", "android": "https://dc.lft.to/lastmile_qr_scan"}, "lon": -77.0484455, "type": "electric_scooter"}, {"bike_id": "c2ec23e61c3e751ec1f0544cba664069", "is_reserved": 0, "fusion_lon": 0.0, "lat": 38.9103755, "is_disabled": 0, "name": "c2ec23e61c3e751ec1f0544cba664069", "fusion_lat": 0.0, "rental_uris": {"ios": "https://dc.lft.to/lastmile_qr_scan", "android": "https://dc.lft.to/lastmile_qr_scan"}, "lon": -77.043836, "type": "electric_scooter"}, {"bike_id": "19c3aa79923076523e12391bfa67143c", "is_reserved": 0, "fusion_lon": 0.0, "lat": 38.8996065, "is_disabled": 0, "name": "19c3aa79923076523e12391bfa67143c", "fusion_lat": 0.0, "rental_uris": {"ios": "https://dc.lft.to/lastmile_qr_scan", "android": "https://dc.lft.to/lastmile_qr_scan"}, "lon": -76.97543983333334, "type": "electric_scooter"}, {"bike_id": "76913f388d3a383218a92959908d0d43", "is_reserved": 0, "fusion_lon": 0.0, "lat": 38.91106683333334, "is_disabled": 0, "name": "76913f388d3a383218a92959908d0d43", "fusion_lat": 0.0, "rental_uris": {"ios": "https://dc.lft.to/lastmile_qr_scan", "android": "https://dc.lft.to/lastmile_qr_scan"}, "lon": -77.0483455, "type": "electric_scooter"}, {"bike_id": "be3474e0b734ca47d876992ab9bcc8bd", "is_reserved": 0, "fusion_lon": 0.0, "lat": 38.90001, "is_disabled": 0, "name": "be3474e0b734ca47d876992ab9bcc8bd", "fusion_lat": 0.0, "rental_uris": {"ios": "https://dc.lft.to/lastmile_qr_scan", "android": "https://dc.lft.to/lastmile_qr_scan"}, "lon": -77.05236216666667, "type": "electric_scooter"}, {"bike_id": "fb3ec84aedc116ec46d4c5eb51df5dd7", "is_reserved": 0, "fusion_lon": 0.0, "lat": 38.90030483333334, "is_disabled": 0, "name": "fb3ec84aedc116ec46d4c5eb51df5dd7", "fusion_lat": 0.0, "rental_uris": {"ios": "https://dc.lft.to/lastmile_qr_scan", "android": "https://dc.lft.to/lastmile_qr_scan"}, "lon": -76.99524316666667, "type": "electric_scooter"}, {"bike_id": "266a57f3ba029b1251d6d5d27837148d", "is_reserved": 0, "fusion_lon": 0.0, "lat": 38.894837, "is_disabled": 0, "name": "266a57f3ba029b1251d6d5d27837148d", "fusion_lat": 0.0, "rental_uris": {"ios": "https://dc.lft.to/lastmile_qr_scan", "android": "https://dc.lft.to/lastmile_qr_scan"}, "lon": -76.94869716666666, "type": "electric_scooter"}, {"bike_id": "7f409ab722dc0aef3757c69055caef31", "is_reserved": 0, "fusion_lon": 0.0, "lat": 38.89972266666667, "is_disabled": 0, "name": "7f409ab722dc0aef3757c69055caef31", "fusion_lat": 0.0, "rental_uris": {"ios": "https://dc.lft.to/lastmile_qr_scan", "android": "https://dc.lft.to/lastmile_qr_scan"}, "lon": -77.01619366666667, "type": "electric_scooter"}, {"bike_id": "1c52b3c8bebb854ac4262aa6b4192331", "is_reserved": 0, "fusion_lon": 0.0, "lat": 38.952791833333336, "is_disabled": 0, "name": "1c52b3c8bebb854ac4262aa6b4192331", "fusion_lat": 0.0, "rental_uris": {"ios": "https://dc.lft.to/lastmile_qr_scan", "android": "https://dc.lft.to/lastmile_qr_scan"}, "lon": -77.007913, "type": "electric_scooter"}, {"bike_id": "9591246d48deafe6eeffdbb72f028594", "is_reserved": 0, "fusion_lon": 0.0, "lat": 38.93397383333333, "is_disabled": 0, "name": "9591246d48deafe6eeffdbb72f028594", "fusion_lat": 0.0, "rental_uris": {"ios": "https://dc.lft.to/lastmile_qr_scan", "android": "https://dc.lft.to/lastmile_qr_scan"}, "lon": -77.02061583333334, "type": "electric_scooter"}, {"bike_id": "8cac5df37ba138463b07f8ff3a8469df", "is_reserved": 0, "fusion_lon": 0.0, "lat": 38.900291833333334, "is_disabled": 0, "name": "8cac5df37ba138463b07f8ff3a8469df", "fusion_lat": 0.0, "rental_uris": {"ios": "https://dc.lft.to/lastmile_qr_scan", "android": "https://dc.lft.to/lastmile_qr_scan"}, "lon": -76.99788583333333, "type": "electric_scooter"}, {"bike_id": "880f0e9d3bcc5d48b2b4178bb614c889", "is_reserved": 0, "fusion_lon": 0.0, "lat": 38.924363, "is_disabled": 0, "name": "880f0e9d3bcc5d48b2b4178bb614c889", "fusion_lat": 0.0, "rental_uris": {"ios": "https://dc.lft.to/lastmile_qr_scan", "android": "https://dc.lft.to/lastmile_qr_scan"}, "lon": -77.04000966666666, "type": "electric_scooter"}, {"bike_id": "7bf43b908101a76a8e1469f4878aebf1", "is_reserved": 0, "fusion_lon": 0.0, "lat": 38.853194333333334, "is_disabled": 0, "name": "7bf43b908101a76a8e1469f4878aebf1", "fusion_lat": 0.0, "rental_uris": {"ios": "https://dc.lft.to/lastmile_qr_scan", "android": "https://dc.lft.to/lastmile_qr_scan"}, "lon": -76.98007333333334, "type": "electric_scooter"}, {"bike_id": "7b8564ad2b245949183f6b33f420d48a", "is_reserved": 0, "fusion_lon": 0.0, "lat": 38.940434, "is_disabled": 0, "name": "7b8564ad2b245949183f6b33f420d48a", "fusion_lat": 0.0, "rental_uris": {"ios": "https://dc.lft.to/lastmile_qr_scan", "android": "https://dc.lft.to/lastmile_qr_scan"}, "lon": -77.02978333333333, "type": "electric_scooter"}, {"bike_id": "81556b297078324aa9348bb73dd8838d", "is_reserved": 0, "fusion_lon": 0.0, "lat": 38.92261716666667, "is_disabled": 0, "name": "81556b297078324aa9348bb73dd8838d", "fusion_lat": 0.0, "rental_uris": {"ios": "https://dc.lft.to/lastmile_qr_scan", "android": "https://dc.lft.to/lastmile_qr_scan"}, "lon": -77.04144483333333, "type": "electric_scooter"}, {"bike_id": "1ffe20dfa0fb75af2755ecd922d426a2", "is_reserved": 0, "fusion_lon": 0.0, "lat": 38.99067266666667, "is_disabled": 0, "name": "1ffe20dfa0fb75af2755ecd922d426a2", "fusion_lat": 0.0, "rental_uris": {"ios": "https://dc.lft.to/lastmile_qr_scan", "android": "https://dc.lft.to/lastmile_qr_scan"}, "lon": -77.10022266666667, "type": "electric_bike"}, {"bike_id": "6d2131fce984d4e1e53dee6fcc296d7f", "is_reserved": 0, "fusion_lon": 0.0, "lat": 38.87238583333333, "is_disabled": 0, "name": "6d2131fce984d4e1e53dee6fcc296d7f", "fusion_lat": 0.0, "rental_uris": {"ios": "https://dc.lft.to/lastmile_qr_scan", "android": "https://dc.lft.to/lastmile_qr_scan"}, "lon": -77.01167066666666, "type": "electric_bike"}, {"bike_id": "ef2e8aee70093421b2b64f5f61364f97", "is_reserved": 0, "fusion_lon": 0.0, "lat": 38.92086366666667, "is_disabled": 0, "name": "ef2e8aee70093421b2b64f5f61364f97", "fusion_lat": 0.0, "rental_uris": {"ios": "https://dc.lft.to/lastmile_qr_scan", "android": "https://dc.lft.to/lastmile_qr_scan"}, "lon": -76.999019, "type": "electric_scooter"}, {"bike_id": "86dcec02a68c9e2c2ddcc3ecd7cdefb6", "is_reserved": 0, "fusion_lon": 0.0, "lat": 38.918774666666664, "is_disabled": 0, "name": "86dcec02a68c9e2c2ddcc3ecd7cdefb6", "fusion_lat": 0.0, "rental_uris": {"ios": "https://dc.lft.to/lastmile_qr_scan", "android": "https://dc.lft.to/lastmile_qr_scan"}, "lon": -77.03498416666666, "type": "electric_scooter"}, {"bike_id": "312e28f2078248ce03f591291825377f", "is_reserved": 0, "fusion_lon": 0.0, "lat": 38.90805116666667, "is_disabled": 0, "name": "312e28f2078248ce03f591291825377f", "fusion_lat": 0.0, "rental_uris": {"ios": "https://dc.lft.to/lastmile_qr_scan", "android": "https://dc.lft.to/lastmile_qr_scan"}, "lon": -77.03460833333334, "type": "electric_scooter"}, {"bike_id": "bade10219e76d37c8061b0cdfe27b866", "is_reserved": 0, "fusion_lon": 0.0, "lat": 38.92044666666666, "is_disabled": 0, "name": "bade10219e76d37c8061b0cdfe27b866", "fusion_lat": 0.0, "rental_uris": {"ios": "https://dc.lft.to/lastmile_qr_scan", "android": "https://dc.lft.to/lastmile_qr_scan"}, "lon": -76.9981685, "type": "electric_scooter"}, {"bike_id": "d60808f636aba3dca20319e224d5fea1", "is_reserved": 0, "fusion_lon": 0.0, "lat": 38.9241305, "is_disabled": 0, "name": "d60808f636aba3dca20319e224d5fea1", "fusion_lat": 0.0, "rental_uris": {"ios": "https://dc.lft.to/lastmile_qr_scan", "android": "https://dc.lft.to/lastmile_qr_scan"}, "lon": -77.0354525, "type": "electric_scooter"}, {"bike_id": "b169a5940f2acc12436e226ab08cc14e", "is_reserved": 0, "fusion_lon": 0.0, "lat": 38.91806416666667, "is_disabled": 0, "name": "b169a5940f2acc12436e226ab08cc14e", "fusion_lat": 0.0, "rental_uris": {"ios": "https://dc.lft.to/lastmile_qr_scan", "android": "https://dc.lft.to/lastmile_qr_scan"}, "lon": -77.03437366666667, "type": "electric_scooter"}, {"bike_id": "273c768b74acf9bd07256de31d0572d1", "is_reserved": 0, "fusion_lon": 0.0, "lat": 38.90010516666667, "is_disabled": 0, "name": "273c768b74acf9bd07256de31d0572d1", "fusion_lat": 0.0, "rental_uris": {"ios": "https://dc.lft.to/lastmile_qr_scan", "android": "https://dc.lft.to/lastmile_qr_scan"}, "lon": -77.0018635, "type": "electric_scooter"}, {"bike_id": "87624cb810b30f259d09583205c5f39a", "is_reserved": 0, "fusion_lon": 0.0, "lat": 38.939564833333336, "is_disabled": 0, "name": "87624cb810b30f259d09583205c5f39a", "fusion_lat": 0.0, "rental_uris": {"ios": "https://dc.lft.to/lastmile_qr_scan", "android": "https://dc.lft.to/lastmile_qr_scan"}, "lon": -77.0326395, "type": "electric_scooter"}, {"bike_id": "87c4f4ba7ae7b86255bb9dcda31dfb65", "is_reserved": 0, "fusion_lon": 0.0, "lat": 38.892273333333335, "is_disabled": 0, "name": "87c4f4ba7ae7b86255bb9dcda31dfb65", "fusion_lat": 0.0, "rental_uris": {"ios": "https://dc.lft.to/lastmile_qr_scan", "android": "https://dc.lft.to/lastmile_qr_scan"}, "lon": -77.0217595, "type": "electric_scooter"}, {"bike_id": "90b86f1b454ce5e2ae22cd33d7acbb6b", "is_reserved": 0, "fusion_lon": 0.0, "lat": 38.88640483333333, "is_disabled": 0, "name": "90b86f1b454ce5e2ae22cd33d7acbb6b", "fusion_lat": 0.0, "rental_uris": {"ios": "https://dc.lft.to/lastmile_qr_scan", "android": "https://dc.lft.to/lastmile_qr_scan"}, "lon": -77.02138183333334, "type": "electric_scooter"}, {"bike_id": "5126efb63d52aa2a53cdb8c9d5facbad", "is_reserved": 0, "fusion_lon": 0.0, "lat": 38.9067325, "is_disabled": 0, "name": "5126efb63d52aa2a53cdb8c9d5facbad", "fusion_lat": 0.0, "rental_uris": {"ios": "https://dc.lft.to/lastmile_qr_scan", "android": "https://dc.lft.to/lastmile_qr_scan"}, "lon": -77.00018816666666, "type": "electric_scooter"}, {"bike_id": "a222143f6041856132aac35c006ede9b", "is_reserved": 0, "fusion_lon": 0.0, "lat": 38.92459783333334, "is_disabled": 0, "name": "a222143f6041856132aac35c006ede9b", "fusion_lat": 0.0, "rental_uris": {"ios": "https://dc.lft.to/lastmile_qr_scan", "android": "https://dc.lft.to/lastmile_qr_scan"}, "lon": -76.99913433333333, "type": "electric_scooter"}, {"bike_id": "de40033c821f827b2fb10da895b1b89f", "is_reserved": 0, "fusion_lon": 0.0, "lat": 38.903775833333334, "is_disabled": 0, "name": "de40033c821f827b2fb10da895b1b89f", "fusion_lat": 0.0, "rental_uris": {"ios": "https://dc.lft.to/lastmile_qr_scan", "android": "https://dc.lft.to/lastmile_qr_scan"}, "lon": -76.998296, "type": "electric_scooter"}, {"bike_id": "b43b55efefbcfccedc7cdcad768b6fab", "is_reserved": 0, "fusion_lon": 0.0, "lat": 38.813362166666664, "is_disabled": 0, "name": "b43b55efefbcfccedc7cdcad768b6fab", "fusion_lat": 0.0, "rental_uris": {"ios": "https://dc.lft.to/lastmile_qr_scan", "android": "https://dc.lft.to/lastmile_qr_scan"}, "lon": -77.05107016666666, "type": "electric_bike"}, {"bike_id": "492998c5514fe26e6d04c631e43cee04", "is_reserved": 0, "fusion_lon": 0.0, "lat": 38.9037205, "is_disabled": 0, "name": "492998c5514fe26e6d04c631e43cee04", "fusion_lat": 0.0, "rental_uris": {"ios": "https://dc.lft.to/lastmile_qr_scan", "android": "https://dc.lft.to/lastmile_qr_scan"}, "lon": -77.03823866666667, "type": "electric_scooter"}, {"bike_id": "cbcfa4008a9bfd1977d415e1cc79fafe", "is_reserved": 0, "fusion_lon": 0.0, "lat": 38.907248333333335, "is_disabled": 0, "name": "cbcfa4008a9bfd1977d415e1cc79fafe", "fusion_lat": 0.0, "rental_uris": {"ios": "https://dc.lft.to/lastmile_qr_scan", "android": "https://dc.lft.to/lastmile_qr_scan"}, "lon": -77.0434225, "type": "electric_scooter"}, {"bike_id": "a16dfe63b62793a365a704cd894a37ae", "is_reserved": 0, "fusion_lon": 0.0, "lat": 38.917853, "is_disabled": 0, "name": "a16dfe63b62793a365a704cd894a37ae", "fusion_lat": 0.0, "rental_uris": {"ios": "https://dc.lft.to/lastmile_qr_scan", "android": "https://dc.lft.to/lastmile_qr_scan"}, "lon": -77.0269445, "type": "electric_scooter"}, {"bike_id": "5ba9ad4473e0427169a8ffdd7e6977ea", "is_reserved": 0, "fusion_lon": 0.0, "lat": 38.90796016666667, "is_disabled": 0, "name": "5ba9ad4473e0427169a8ffdd7e6977ea", "fusion_lat": 0.0, "rental_uris": {"ios": "https://dc.lft.to/lastmile_qr_scan", "android": "https://dc.lft.to/lastmile_qr_scan"}, "lon": -76.997013, "type": "electric_scooter"}, {"bike_id": "364af07d78f1ec6b63beeed38ca5a2cc", "is_reserved": 0, "fusion_lon": 0.0, "lat": 38.9001255, "is_disabled": 0, "name": "364af07d78f1ec6b63beeed38ca5a2cc", "fusion_lat": 0.0, "rental_uris": {"ios": "https://dc.lft.to/lastmile_qr_scan", "android": "https://dc.lft.to/lastmile_qr_scan"}, "lon": -76.9881595, "type": "electric_scooter"}, {"bike_id": "00e51cc82c9a720de47d99f9bfc16a56", "is_reserved": 0, "fusion_lon": 0.0, "lat": 38.92446783333333, "is_disabled": 0, "name": "00e51cc82c9a720de47d99f9bfc16a56", "fusion_lat": 0.0, "rental_uris": {"ios": "https://dc.lft.to/lastmile_qr_scan", "android": "https://dc.lft.to/lastmile_qr_scan"}, "lon": -77.04105666666666, "type": "electric_scooter"}, {"bike_id": "fd909b013c80d70851038fee5b5c9fef", "is_reserved": 0, "fusion_lon": 0.0, "lat": 38.899712666666666, "is_disabled": 0, "name": "fd909b013c80d70851038fee5b5c9fef", "fusion_lat": 0.0, "rental_uris": {"ios": "https://dc.lft.to/lastmile_qr_scan", "android": "https://dc.lft.to/lastmile_qr_scan"}, "lon": -77.050457, "type": "electric_scooter"}, {"bike_id": "c2aef454914b9a55e981f8a8b9cbd339", "is_reserved": 0, "fusion_lon": 0.0, "lat": 38.941788833333334, "is_disabled": 0, "name": "c2aef454914b9a55e981f8a8b9cbd339", "fusion_lat": 0.0, "rental_uris": {"ios": "https://dc.lft.to/lastmile_qr_scan", "android": "https://dc.lft.to/lastmile_qr_scan"}, "lon": -77.03089266666667, "type": "electric_scooter"}, {"bike_id": "598ddfd59eda9f009547e184d97177ea", "is_reserved": 0, "fusion_lon": 0.0, "lat": 38.90869216666667, "is_disabled": 0, "name": "598ddfd59eda9f009547e184d97177ea", "fusion_lat": 0.0, "rental_uris": {"ios": "https://dc.lft.to/lastmile_qr_scan", "android": "https://dc.lft.to/lastmile_qr_scan"}, "lon": -77.08589966666666, "type": "electric_scooter"}, {"bike_id": "3d2f2856f6e96796fcb14feecf23a5fe", "is_reserved": 0, "fusion_lon": 0.0, "lat": 38.917177833333334, "is_disabled": 0, "name": "3d2f2856f6e96796fcb14feecf23a5fe", "fusion_lat": 0.0, "rental_uris": {"ios": "https://dc.lft.to/lastmile_qr_scan", "android": "https://dc.lft.to/lastmile_qr_scan"}, "lon": -77.038334, "type": "electric_scooter"}, {"bike_id": "62004d9b5446024c438a97df5329501d", "is_reserved": 0, "fusion_lon": 0.0, "lat": 38.9284135, "is_disabled": 0, "name": "62004d9b5446024c438a97df5329501d", "fusion_lat": 0.0, "rental_uris": {"ios": "https://dc.lft.to/lastmile_qr_scan", "android": "https://dc.lft.to/lastmile_qr_scan"}, "lon": -77.02055566666667, "type": "electric_bike"}, {"bike_id": "60ff5a5ff26e49457141022fa5131fad", "is_reserved": 0, "fusion_lon": 0.0, "lat": 38.90187733333333, "is_disabled": 0, "name": "60ff5a5ff26e49457141022fa5131fad", "fusion_lat": 0.0, "rental_uris": {"ios": "https://dc.lft.to/lastmile_qr_scan", "android": "https://dc.lft.to/lastmile_qr_scan"}, "lon": -76.94196133333334, "type": "electric_scooter"},