{"data": {"bikes": [{"lat": 38.905497, "fusion_lat": 0.0, "type": "electric_scooter", "bike_id": "15dc8ec41c9156cdf958fa0e60bdea21", "is_reserved": 0, "rental_uris": {"ios": "https://dc.lft.to/lastmile_qr_scan", "android": "https://dc.lft.to/lastmile_qr_scan"}, "is_disabled": 0, "lon": -77.04651016666666, "name": "15dc8ec41c9156cdf958fa0e60bdea21", "fusion_lon": 0.0}, {"lat": 38.94784383333333, "fusion_lat": 0.0, "type": "electric_bike", "bike_id": "e846365c0636d59b5d309510984dc106", "is_reserved": 0, "rental_uris": {"ios": "https://dc.lft.to/lastmile_qr_scan", "android": "https://dc.lft.to/lastmile_qr_scan"}, "is_disabled": 0, "lon": -76.97210316666667, "name": "e846365c0636d59b5d309510984dc106", "fusion_lon": 0.0}, {"lat": 38.90499633333334, "fusion_lat": 0.0, "type": "electric_scooter", "bike_id": "7ad6d9ff57ad7d79179dcfb24ad786e3", "is_reserved": 0, "rental_uris": {"ios": "https://dc.lft.to/lastmile_qr_scan", "android": "https://dc.lft.to/lastmile_qr_scan"}, "is_disabled": 0, "lon": -77.05346483333334, "name": "7ad6d9ff57ad7d79179dcfb24ad786e3", "fusion_lon": 0.0}, {"lat": 38.90577916666667, "fusion_lat": 0.0, "type": "electric_scooter", "bike_id": "44ca11cbb5c2620759ccf7bafbd371dd", "is_reserved": 0, "rental_uris": {"ios": "https://dc.lft.to/lastmile_qr_scan", "android": "https://dc.lft.to/lastmile_qr_scan"}, "is_disabled": 0, "lon": -77.04499733333333, "name": "44ca11cbb5c2620759ccf7bafbd371dd", "fusion_lon": 0.0}, {"lat": 38.91004366666667, "fusion_lat": 0.0, "type": "electric_scooter", "bike_id": "261dec0fb2eb9ab3bb3ad43ed9b3d7c5", "is_reserved": 0, "rental_uris": {"ios": "https://dc.lft.to/lastmile_qr_scan", "android": "https://dc.lft.to/lastmile_qr_scan"}, "is_disabled": 0, "lon": -77.04007383333334, "name": "261dec0fb2eb9ab3bb3ad43ed9b3d7c5", "fusion_lon": 0.0}, {"lat": 38.914223, "fusion_lat": 0.0, "type": "electric_scooter", "bike_id": "1845ed1198007ba185db3ad9f9276c1d", "is_reserved": 0, "rental_uris": {"ios": "https://dc.lft.to/lastmile_qr_scan", "android": "https://dc.lft.to/lastmile_qr_scan"}, "is_disabled": 0, "lon": -77.04480416666667, "name": "1845ed1198007ba185db3ad9f9276c1d", "fusion_lon": 0.0}, {"lat": 38.8876495, "fusion_lat": 0.0, "type": "electric_scooter", "bike_id": "e1db20e45eb743e975cef5dd5b5b018f", "is_reserved": 0, "rental_uris": {"ios": "https://dc.lft.to/lastmile_qr_scan", "android": "https://dc.lft.to/lastmile_qr_scan"}, "is_disabled": 0, "lon": -76.95593966666667, "name": "e1db20e45eb743e975cef5dd5b5b018f", "fusion_lon": 0.0}, {"lat": 39.02435033333333, "fusion_lat": 0.0, "type": "electric_bike", "bike_id": "ab50e41f4bb5bc7b7b8f74fefee320dc", "is_reserved": 0, "rental_uris": {"ios": "https://dc.lft.to/lastmile_qr_scan", "android": "https://dc.lft.to/lastmile_qr_scan"}, "is_disabled": 0, "lon": -77.1310165, "name": "ab50e41f4bb5bc7b7b8f74fefee320dc", "fusion_lon": 0.0}, {"lat": 38.929081333333336, "fusion_lat": 0.0, "type": "electric_scooter", "bike_id": "64cd0e9a5dbf0251e76329b87875738e", "is_reserved": 0, "rental_uris": {"ios": "https://dc.lft.to/lastmile_qr_scan", "android": "https://dc.lft.to/lastmile_qr_scan"}, "is_disabled": 0, "lon": -77.03625166666667, "name": "64cd0e9a5dbf0251e76329b87875738e", "fusion_lon": 0.0}, {"lat": 38.905355, "fusion_lat": 0.0, "type": "electric_scooter", "bike_id": "e47ce52d6c7ad640d72b561cb672768e", "is_reserved": 0, "rental_uris": {"ios": "https://dc.lft.to/lastmile_qr_scan", "android": "https://dc.lft.to/lastmile_qr_scan"}, "is_disabled": 0, "lon": -77.05019516666667, "name": "e47ce52d6c7ad640d72b561cb672768e", "fusion_lon": 0.0}, {"lat": 38.90235333333333, "fusion_lat": 0.0, "type": "electric_scooter", "bike_id": "e8b8001c45c4fd5218f2213966b1e944", "is_reserved": 0, "rental_uris": {"ios": "https://dc.lft.to/lastmile_qr_scan", "android": "https://dc.lft.to/lastmile_qr_scan"}, "is_disabled": 0, "lon": -77.03964616666667, "name": "e8b8001c45c4fd5218f2213966b1e944", "fusion_lon": 0.0}, {"lat": 38.945962333333334, "fusion_lat": 0.0, "type": "electric_scooter", "bike_id": "5fe41c89e076b072abe64a21a5eb767e", "is_reserved": 0, "rental_uris": {"ios": "https://dc.lft.to/lastmile_qr_scan", "android": "https://dc.lft.to/lastmile_qr_scan"}, "is_disabled": 0, "lon": -77.07041366666667, "name": "5fe41c89e076b072abe64a21a5eb767e", "fusion_lon": 0.0}, {"lat": 38.937648833333334, "fusion_lat": 0.0, "type": "electric_scooter", "bike_id": "4e483457d3d01e6ab7509f102e1b7c53", "is_reserved": 0, "rental_uris": {"ios": "https://dc.lft.to/lastmile_qr_scan", "android": "https://dc.lft.to/lastmile_qr_scan"}, "is_disabled": 0, "lon": -77.02524166666667, "name": "4e483457d3d01e6ab7509f102e1b7c53", "fusion_lon": 0.0}, {"lat": 38.900438333333334, "fusion_lat": 0.0, "type": "electric_scooter", "bike_id": "a6eef2442a355e84a59212870829bcbf", "is_reserved": 0, "rental_uris": {"ios": "https://dc.lft.to/lastmile_qr_scan", "android": "https://dc.lft.to/lastmile_qr_scan"}, "is_disabled": 0, "lon": -77.02383633333334, "name": "a6eef2442a355e84a59212870829bcbf", "fusion_lon": 0.0}, {"lat": 38.897427666666665, "fusion_lat": 0.0, "type": "electric_scooter", "bike_id": "c2ca7668570844052e4126d251d716bd", "is_reserved": 0, "rental_uris": {"ios": "https://dc.lft.to/lastmile_qr_scan", "android": "https://dc.lft.to/lastmile_qr_scan"}, "is_disabled": 0, "lon": -77.00775433333334, "name": "c2ca7668570844052e4126d251d716bd", "fusion_lon": 0.0}, {"lat": 38.87679383333333, "fusion_lat": 0.0, "type": "electric_scooter", "bike_id": "35c53b802223e5cbce330e0d292d54c2", "is_reserved": 0, "rental_uris": {"ios": "https://dc.lft.to/lastmile_qr_scan", "android": "https://dc.lft.to/lastmile_qr_scan"}, "is_disabled": 0, "lon": -76.998245, "name": "35c53b802223e5cbce330e0d292d54c2", "fusion_lon": 0.0}, {"lat": 38.967281166666666, "fusion_lat": 0.0, "type": "electric_scooter", "bike_id": "9796bac1e7b2480b663e70b2dd47b069", "is_reserved": 0, "rental_uris": {"ios": "https://dc.lft.to/lastmile_qr_scan", "android": "https://dc.lft.to/lastmile_qr_scan"}, "is_disabled": 0, "lon": -77.018598, "name": "9796bac1e7b2480b663e70b2dd47b069", "fusion_lon": 0.0}, {"lat": 38.89366283333333, "fusion_lat": 0.0, "type": "electric_scooter", "bike_id": "30dd8aef716d77327bb2a5cdbcf02dfc", "is_reserved": 0, "rental_uris": {"ios": "https://dc.lft.to/lastmile_qr_scan", "android": "https://dc.lft.to/lastmile_qr_scan"}, "is_disabled": 0, "lon": -77.04677316666667, "name": "30dd8aef716d77327bb2a5cdbcf02dfc", "fusion_lon": 0.0}, {"lat": 38.88527716666667, "fusion_lat": 0.0, "type": "electric_scooter", "bike_id": "611fee68b2cda2d22503535f4f708e18", "is_reserved": 0, "rental_uris": {"ios": "https://dc.lft.to/lastmile_qr_scan", "android": "https://dc.lft.to/lastmile_qr_scan"}, "is_disabled": 0, "lon": -77.0113435, "name": "611fee68b2cda2d22503535f4f708e18", "fusion_lon": 0.0}, {"lat": 39.039913166666665, "fusion_lat": 0.0, "type": "electric_bike", "bike_id": "eb3cd7864f4ddcbef33bc029327fa112", "is_reserved": 0, "rental_uris": {"ios": "https://dc.lft.to/lastmile_qr_scan", "android": "https://dc.lft.to/lastmile_qr_scan"}, "is_disabled": 0, "lon": -76.9992955, "name": "eb3cd7864f4ddcbef33bc029327fa112", "fusion_lon": 0.0}, {"lat": 38.909628, "fusion_lat": 0.0, "type": "electric_scooter", "bike_id": "3c52d582c82238420cca8a8839e2f272", "is_reserved": 0, "rental_uris": {"ios": "https://dc.lft.to/lastmile_qr_scan", "android": "https://dc.lft.to/lastmile_qr_scan"}, "is_disabled": 0, "lon": -77.033767, "name": "3c52d582c82238420cca8a8839e2f272", "fusion_lon": 0.0}, {"lat": 38.905145833333336, "fusion_lat": 0.0, "type": "electric_scooter", "bike_id": "d56ae5849a681a8e8660375cc8adf18f", "is_reserved": 0, "rental_uris": {"ios": "https://dc.lft.to/lastmile_qr_scan", "android": "https://dc.lft.to/lastmile_qr_scan"}, "is_disabled": 0, "lon": -77.0013195, "name": "d56ae5849a681a8e8660375cc8adf18f", "fusion_lon": 0.0}, {"lat": 38.9059835, "fusion_lat": 0.0, "type": "electric_scooter", "bike_id": "f478e75638413f4ffb87372ca0e4301a", "is_reserved": 0, "rental_uris": {"ios": "https://dc.lft.to/lastmile_qr_scan", "android": "https://dc.lft.to/lastmile_qr_scan"}, "is_disabled": 0, "lon": -77.07011566666667, "name": "f478e75638413f4ffb87372ca0e4301a", "fusion_lon": 0.0}, {"lat": 38.90027366666666, "fusion_lat": 0.0, "type": "electric_scooter", "bike_id": "e84f3be9a31935fae027e54de6e43470", "is_reserved": 0, "rental_uris": {"ios": "https://dc.lft.to/lastmile_qr_scan", "android": "https://dc.lft.to/lastmile_qr_scan"}, "is_disabled": 0, "lon": -76.99871333333333, "name": "e84f3be9a31935fae027e54de6e43470", "fusion_lon": 0.0}, {"lat": 38.9050365, "fusion_lat": 0.0, "type": "electric_scooter", "bike_id": "56126e758b4658861176d445fdde5959", "is_reserved": 0, "rental_uris": {"ios": "https://dc.lft.to/lastmile_qr_scan", "android": "https://dc.lft.to/lastmile_qr_scan"}, "is_disabled": 0, "lon": -77.0296015, "name": "56126e758b4658861176d445fdde5959", "fusion_lon": 0.0}, {"lat": 38.9038805, "fusion_lat": 0.0, "type": "electric_scooter", "bike_id": "94bd68acf416dadd0c4a3c89bcd848a2", "is_reserved": 0, "rental_uris": {"ios": "https://dc.lft.to/lastmile_qr_scan", "android": "https://dc.lft.to/lastmile_qr_scan"}, "is_disabled": 0, "lon": -77.04923216666667, "name": "94bd68acf416dadd0c4a3c89bcd848a2", "fusion_lon": 0.0}, {"lat": 38.86197083333333, "fusion_lat": 0.0, "type": "electric_bike", "bike_id": "c206680468e26c42b3ac353c4d198435", "is_reserved": 0, "rental_uris": {"ios": "https://dc.lft.to/lastmile_qr_scan", "android": "https://dc.lft.to/lastmile_qr_scan"}, "is_disabled": 0, "lon": -76.94809066666667, "name": "c206680468e26c42b3ac353c4d198435", "fusion_lon": 0.0}, {"lat": 38.923513166666666, "fusion_lat": 0.0, "type": "electric_scooter", "bike_id": "20b50adc79a41eb43dd29f30fc73331d", "is_reserved": 0, "rental_uris": {"ios": "https://dc.lft.to/lastmile_qr_scan", "android": "https://dc.lft.to/lastmile_qr_scan"}, "is_disabled": 0, "lon": -77.041491, "name": "20b50adc79a41eb43dd29f30fc73331d", "fusion_lon": 0.0}, {"lat": 38.9069915, "fusion_lat": 0.0, "type": "electric_scooter", "bike_id": "5e17d55fe53040c8ebc53e92801a0189", "is_reserved": 0, "rental_uris": {"ios": "https://dc.lft.to/lastmile_qr_scan", "android": "https://dc.lft.to/lastmile_qr_scan"}, "is_disabled": 0, "lon": -77.0239085, "name": "5e17d55fe53040c8ebc53e92801a0189", "fusion_lon": 0.0}, {"lat": 38.896212166666665, "fusion_lat": 0.0, "type": "electric_scooter", "bike_id": "102fac798216d34c6e481331c60b65fc", "is_reserved": 0, "rental_uris": {"ios": "https://dc.lft.to/lastmile_qr_scan", "android": "https://dc.lft.to/lastmile_qr_scan"}, "is_disabled": 0, "lon": -76.985703, "name": "102fac798216d34c6e481331c60b65fc", "fusion_lon": 0.0}, {"lat": 38.94042116666667, "fusion_lat": 0.0, "type": "electric_scooter", "bike_id": "9a297312a59bd2d8dfba6183188ade61", "is_reserved": 0, "rental_uris": {"ios": "https://dc.lft.to/lastmile_qr_scan", "android": "https://dc.lft.to/lastmile_qr_scan"}, "is_disabled": 0, "lon": -77.02897216666666, "name": "9a297312a59bd2d8dfba6183188ade61", "fusion_lon": 0.0}, {"lat": 38.90522883333333, "fusion_lat": 0.0, "type": "electric_scooter", "bike_id": "6c416f2ac498742f25fdb303bac07bc2", "is_reserved": 0, "rental_uris": {"ios": "https://dc.lft.to/lastmile_qr_scan", "android": "https://dc.lft.to/lastmile_qr_scan"}, "is_disabled": 0, "lon": -77.0417995, "name": "6c416f2ac498742f25fdb303bac07bc2", "fusion_lon": 0.0}, {"lat": 38.91040866666667, "fusion_lat": 0.0, "type": "electric_scooter", "bike_id": "44e95fb3896d3baee7bb15579863a1ea", "is_reserved": 0, "rental_uris": {"ios": "https://dc.lft.to/lastmile_qr_scan", "android": "https://dc.lft.to/lastmile_qr_scan"}, "is_disabled": 0, "lon": -77.03850783333333, "name": "44e95fb3896d3baee7bb15579863a1ea", "fusion_lon": 0.0}, {"lat": 38.956578666666665, "fusion_lat": 0.0, "type": "electric_scooter", "bike_id": "3b0f2de05db5d4f62c955931aee65ac7", "is_reserved": 0, "rental_uris": {"ios": "https://dc.lft.to/lastmile_qr_scan", "android": "https://dc.lft.to/lastmile_qr_scan"}, "is_disabled": 0, "lon": -77.033279, "name": "3b0f2de05db5d4f62c955931aee65ac7", "fusion_lon": 0.0}, {"lat": 38.91527033333333, "fusion_lat": 0.0, "type": "electric_scooter", "bike_id": "4de25b36d4e8103b111eeeb0440ac0d5", "is_reserved": 0, "rental_uris": {"ios": "https://dc.lft.to/lastmile_qr_scan", "android": "https://dc.lft.to/lastmile_qr_scan"}, "is_disabled": 0, "lon": -76.9834995, "name": "4de25b36d4e8103b111eeeb0440ac0d5", "fusion_lon": 0.0}, {"lat": 38.9014165, "fusion_lat": 0.0, "type": "electric_scooter", "bike_id": "7de551021efa3ea0ad7fa51bce16c83d", "is_reserved": 0, "rental_uris": {"ios": "https://dc.lft.to/lastmile_qr_scan", "android": "https://dc.lft.to/lastmile_qr_scan"}, "is_disabled": 0, "lon": -77.00857516666666, "name": "7de551021efa3ea0ad7fa51bce16c83d", "fusion_lon": 0.0}, {"lat": 38.91899883333333, "fusion_lat": 0.0, "type": "electric_scooter", "bike_id": "da01c7c082cfaabadc97df455cea4d12", "is_reserved": 0, "rental_uris": {"ios": "https://dc.lft.to/lastmile_qr_scan", "android": "https://dc.lft.to/lastmile_qr_scan"}, "is_disabled": 0, "lon": -77.03454966666666, "name": "da01c7c082cfaabadc97df455cea4d12", "fusion_lon": 0.0}, {"lat": 38.912357, "fusion_lat": 0.0, "type": "electric_scooter", "bike_id": "e8e5ee19e253ddf7732814eb0585ec10", "is_reserved": 0, "rental_uris": {"ios": "https://dc.lft.to/lastmile_qr_scan", "android": "https://dc.lft.to/lastmile_qr_scan"}, "is_disabled": 0, "lon": -77.04468416666667, "name": "e8e5ee19e253ddf7732814eb0585ec10", "fusion_lon": 0.0}, {"lat": 38.898437666666666, "fusion_lat": 0.0, "type": "electric_scooter", "bike_id": "7e09df2e5aa45531495f989bcf2998fd", "is_reserved": 0, "rental_uris": {"ios": "https://dc.lft.to/lastmile_qr_scan", "android": "https://dc.lft.to/lastmile_qr_scan"}, "is_disabled": 0, "lon": -77.03931883333334, "name": "7e09df2e5aa45531495f989bcf2998fd", "fusion_lon": 0.0}, {"lat": 38.896202833333334, "fusion_lat": 0.0, "type": "electric_scooter", "bike_id": "2032627d13d29d12c29ca55962101d1f", "is_reserved": 0, "rental_uris": {"ios": "https://dc.lft.to/lastmile_qr_scan", "android": "https://dc.lft.to/lastmile_qr_scan"}, "is_disabled": 0, "lon": -77.00040716666666, "name": "2032627d13d29d12c29ca55962101d1f", "fusion_lon": 0.0}, {"lat": 38.897397166666664, "fusion_lat": 0.0, "type": "electric_scooter", "bike_id": "43333a630adc62205ace1b212f158fd1", "is_reserved": 0, "rental_uris": {"ios": "https://dc.lft.to/lastmile_qr_scan", "android": "https://dc.lft.to/lastmile_qr_scan"}, "is_disabled": 0, "lon": -77.02505283333333, "name": "43333a630adc62205ace1b212f158fd1", "fusion_lon": 0.0}, {"lat": 38.836083333333335, "fusion_lat": 0.0, "type": "electric_bike", "bike_id": "16f4c3b3d40ccaa1f52bbc7fee3fc557", "is_reserved": 0, "rental_uris": {"ios": "https://dc.lft.to/lastmile_qr_scan", "android": "https://dc.lft.to/lastmile_qr_scan"}, "is_disabled": 0, "lon": -77.0038155, "name": "16f4c3b3d40ccaa1f52bbc7fee3fc557", "fusion_lon": 0.0}, {"lat": 38.904168, "fusion_lat": 0.0, "type": "electric_scooter", "bike_id": "3a4b04861f51d587bbf34507723865e9", "is_reserved": 0, "rental_uris": {"ios": "https://dc.lft.to/lastmile_qr_scan", "android": "https://dc.lft.to/lastmile_qr_scan"}, "is_disabled": 0, "lon": -77.02511433333333, "name": "3a4b04861f51d587bbf34507723865e9", "fusion_lon": 0.0}, {"lat": 38.844582833333334, "fusion_lat": 0.0, "type": "electric_bike", "bike_id": "ffdbfb3fd6144c8f69e875195f49cfae", "is_reserved": 0, "rental_uris": {"ios": "https://dc.lft.to/lastmile_qr_scan", "android": "https://dc.lft.to/lastmile_qr_scan"}, "is_disabled": 0, "lon": -76.98753033333334, "name": "ffdbfb3fd6144c8f69e875195f49cfae", "fusion_lon": 0.0}, {"lat": 38.917193, "fusion_lat": 0.0, "type": "electric_scooter", "bike_id": "8fc90b58ed70c35b3f22be015c57846a", "is_reserved": 0, "rental_uris": {"ios": "https://dc.lft.to/lastmile_qr_scan", "android": "https://dc.lft.to/lastmile_qr_scan"}, "is_disabled": 0, "lon": -77.02971033333333, "name": "8fc90b58ed70c35b3f22be015c57846a", "fusion_lon": 0.0}, {"lat": 38.85355466666667, "fusion_lat": 0.0, "type": "electric_bike", "bike_id": "698a73fc2f33ed49e2d45353b1404fb1", "is_reserved": 0, "rental_uris": {"ios": "https://dc.lft.to/lastmile_qr_scan", "android": "https://dc.lft.to/lastmile_qr_scan"}, "is_disabled": 0, "lon": -77.13468083333333, "name": "698a73fc2f33ed49e2d45353b1404fb1", "fusion_lon": 0.0}, {"lat": 38.878487166666666, "fusion_lat": 0.0, "type": "electric_scooter", "bike_id": "d3bb721ab35c65a75d996da57e4876ae", "is_reserved": 0, "rental_uris": {"ios": "https://dc.lft.to/lastmile_qr_scan", "android": "https://dc.lft.to/lastmile_qr_scan"}, "is_disabled": 0, "lon": -77.01967966666666, "name": "d3bb721ab35c65a75d996da57e4876ae", "fusion_lon": 0.0}, {"lat": 38.92729583333333, "fusion_lat": 0.0, "type": "electric_scooter", "bike_id": "19fc479aeac5ce82fa6f358b36416ed9", "is_reserved": 0, "rental_uris": {"ios": "https://dc.lft.to/lastmile_qr_scan", "android": "https://dc.lft.to/lastmile_qr_scan"}, "is_disabled": 0, "lon": -77.0227475, "name": "19fc479aeac5ce82fa6f358b36416ed9", "fusion_lon": 0.0}, {"lat": 38.92208433333333, "fusion_lat": 0.0, "type": "electric_bike", "bike_id": "e53bf3c621ce0e956f5345dd112d8990", "is_reserved": 0, "rental_uris": {"ios": "https://dc.lft.to/lastmile_qr_scan", "android": "https://dc.lft.to/lastmile_qr_scan"}, "is_disabled": 0, "lon": -76.988045, "name": "e53bf3c621ce0e956f5345dd112d8990", "fusion_lon": 0.0}, {"lat": 38.92037083333334, "fusion_lat": 0.0, "type": "electric_scooter", "bike_id": "06651be07dcf8d6ced68f9d52cedc45f", "is_reserved": 0, "rental_uris": {"ios": "https://dc.lft.to/lastmile_qr_scan", "android": "https://dc.lft.to/lastmile_qr_scan"}, "is_disabled": 0, "lon": -77.0122505, "name": "06651be07dcf8d6ced68f9d52cedc45f", "fusion_lon": 0.0}, {"lat": 38.901293, "fusion_lat": 0.0, "type": "electric_scooter", "bike_id": "4e6e754ae5d1a65337dfc8ab92fb7a9b", "is_reserved": 0, "rental_uris": {"ios": "https://dc.lft.to/lastmile_qr_scan", "android": "https://dc.lft.to/lastmile_qr_scan"}, "is_disabled": 0, "lon": -77.01753233333334, "name": "4e6e754ae5d1a65337dfc8ab92fb7a9b", "fusion_lon": 0.0}, {"lat": 38.8962545, "fusion_lat": 0.0, "type": "electric_scooter", "bike_id": "85fff0e53e0d66b464badfcdb14179f3", "is_reserved": 0, "rental_uris": {"ios": "https://dc.lft.to/lastmile_qr_scan", "android": "https://dc.lft.to/lastmile_qr_scan"}, "is_disabled": 0, "lon": -77.02881383333333, "name": "85fff0e53e0d66b464badfcdb14179f3", "fusion_lon": 0.0}, {"lat": 38.907586, "fusion_lat": 0.0, "type": "electric_scooter", "bike_id": "65a46e1e81ac9fee2d90e1469f38fb3b", "is_reserved": 0, "rental_uris": {"ios": "https://dc.lft.to/lastmile_qr_scan", "android": "https://dc.lft.to/lastmile_qr_scan"}, "is_disabled": 0, "lon": -77.0318085, "name": "65a46e1e81ac9fee2d90e1469f38fb3b", "fusion_lon": 0.0}, {"lat": 38.88573133333333, "fusion_lat": 0.0, "type": "electric_scooter", "bike_id": "50a7b8724a30ac1a2ffaa71ff2645c81", "is_reserved": 0, "rental_uris": {"ios": "https://dc.lft.to/lastmile_qr_scan", "android": "https://dc.lft.to/lastmile_qr_scan"}, "is_disabled": 0, "lon": -77.01994566666667, "name": "50a7b8724a30ac1a2ffaa71ff2645c81", "fusion_lon": 0.0}, {"lat": 38.91701883333333, "fusion_lat": 0.0, "type": "electric_scooter", "bike_id": "c74897f0938e62163f9ed45d891b1519", "is_reserved": 0, "rental_uris": {"ios": "https://dc.lft.to/lastmile_qr_scan", "android": "https://dc.lft.to/lastmile_qr_scan"}, "is_disabled": 0, "lon": -77.03773016666666, "name": "c74897f0938e62163f9ed45d891b1519", "fusion_lon": 0.0}, {"lat": 38.88812733333334, "fusion_lat": 0.0, "type": "electric_scooter", "bike_id": "7a731fa69781f86bdd4be9f62f05a563", "is_reserved": 0, "rental_uris": {"ios": "https://dc.lft.to/lastmile_qr_scan", "android": "https://dc.lft.to/lastmile_qr_scan"}, "is_disabled": 0, "lon": -76.9334495, "name": "7a731fa69781f86bdd4be9f62f05a563", "fusion_lon": 0.0}, {"lat": 38.91259866666667, "fusion_lat": 0.0, "type": "electric_scooter", "bike_id": "38928f7e37c22c847c08c7ff26490fd5", "is_reserved": 0, "rental_uris": {"ios": "https://dc.lft.to/lastmile_qr_scan", "android": "https://dc.lft.to/lastmile_qr_scan"}, "is_disabled": 0, "lon": -77.00803483333334, "name": "38928f7e37c22c847c08c7ff26490fd5", "fusion_lon": 0.0}, {"lat": 38.89744666666667, "fusion_lat": 0.0, "type": "electric_scooter", "bike_id": "f5eae6ca99eb1c898bd04f8e68fd5a82", "is_reserved": 0, "rental_uris": {"ios": "https://dc.lft.to/lastmile_qr_scan", "android": "https://dc.lft.to/lastmile_qr_scan"}, "is_disabled": 0, "lon": -77.04301633333333, "name": "f5eae6ca99eb1c898bd04f8e68fd5a82", "fusion_lon": 0.0}, {"lat": 38.910438166666665, "fusion_lat": 0.0, "type": "electric_scooter", "bike_id": "ab6244a59f0b40ebd412a1d1877cb768", "is_reserved": 0, "rental_uris": {"ios": "https://dc.lft.to/lastmile_qr_scan", "android": "https://dc.lft.to/lastmile_qr_scan"}, "is_disabled": 0, "lon": -77.01624216666667, "name": "ab6244a59f0b40ebd412a1d1877cb768", "fusion_lon": 0.0}, {"lat": 38.908447, "fusion_lat": 0.0, "type": "electric_scooter", "bike_id": "8db1ae2972a2b233782a3d9ee5a82d4c", "is_reserved": 0, "rental_uris": {"ios": "https://dc.lft.to/lastmile_qr_scan", "android": "https://dc.lft.to/lastmile_qr_scan"}, "is_disabled": 0, "lon": -77.04015083333333, "name": "8db1ae2972a2b233782a3d9ee5a82d4c", "fusion_lon": 0.0}, {"lat": 38.897137, "fusion_lat": 0.0, "type": "electric_scooter", "bike_id": "8f41f5f50f6a72b5c24426db8788015c", "is_reserved": 0, "rental_uris": {"ios": "https://dc.lft.to/lastmile_qr_scan", "android": "https://dc.lft.to/lastmile_qr_scan"}, "is_disabled": 0, "lon": -76.930025, "name": "8f41f5f50f6a72b5c24426db8788015c", "fusion_lon": 0.0}, {"lat": 38.91267416666667, "fusion_lat": 0.0, "type": "electric_scooter", "bike_id": "016cf762cc6dfb7662fa4966c74c8730", "is_reserved": 0, "rental_uris": {"ios": "https://dc.lft.to/lastmile_qr_scan", "android": "https://dc.lft.to/lastmile_qr_scan"}, "is_disabled": 0, "lon": -77.03827183333334, "name": "016cf762cc6dfb7662fa4966c74c8730", "fusion_lon": 0.0}, {"lat": 38.9169895, "fusion_lat": 0.0, "type": "electric_scooter", "bike_id": "ee6137ac981d3aa8d46242738093c4f0", "is_reserved": 0, "rental_uris": {"ios": "https://dc.lft.to/lastmile_qr_scan", "android": "https://dc.lft.to/lastmile_qr_scan"}, "is_disabled": 0, "lon": -77.0360075, "name": "ee6137ac981d3aa8d46242738093c4f0", "fusion_lon": 0.0}, {"lat": 38.9172515, "fusion_lat": 0.0, "type": "electric_bike", "bike_id": "1b280bb6949e65188155a11f016d0480", "is_reserved": 0, "rental_uris": {"ios": "https://dc.lft.to/lastmile_qr_scan", "android": "https://dc.lft.to/lastmile_qr_scan"}, "is_disabled": 0, "lon": -77.06949866666666, "name": "1b280bb6949e65188155a11f016d0480", "fusion_lon": 0.0}, {"lat": 38.908802666666666, "fusion_lat": 0.0, "type": "electric_scooter", "bike_id": "d0b79c619fc2005e80966ab21aff2a00", "is_reserved": 0, "rental_uris": {"ios": "https://dc.lft.to/lastmile_qr_scan", "android": "https://dc.lft.to/lastmile_qr_scan"}, "is_disabled": 0, "lon": -77.04671483333334, "name": "d0b79c619fc2005e80966ab21aff2a00", "fusion_lon": 0.0}, {"lat": 38.911729333333334, "fusion_lat": 0.0, "type": "electric_scooter", "bike_id": "40cea7dbce02162e70db5be1add0b460", "is_reserved": 0, "rental_uris": {"ios": "https://dc.lft.to/lastmile_qr_scan", "android": "https://dc.lft.to/lastmile_qr_scan"}, "is_disabled": 0, "lon": -77.06079966666667, "name": "40cea7dbce02162e70db5be1add0b460", "fusion_lon": 0.0}, {"lat": 38.90381383333333, "fusion_lat": 0.0, "type": "electric_scooter", "bike_id": "29e2cf94097eef7368c8134a1bf05ef5", "is_reserved": 0, "rental_uris": {"ios": "https://dc.lft.to/lastmile_qr_scan", "android": "https://dc.lft.to/lastmile_qr_scan"}, "is_disabled": 0, "lon": -77.03644316666667, "name": "29e2cf94097eef7368c8134a1bf05ef5", "fusion_lon": 0.0}, {"lat": 38.916396, "fusion_lat": 0.0, "type": "electric_scooter", "bike_id": "36995804fd4b185d1af73b8eb0dd6e30", "is_reserved": 0, "rental_uris": {"ios": "https://dc.lft.to/lastmile_qr_scan", "android": "https://dc.lft.to/lastmile_qr_scan"}, "is_disabled": 0, "lon": -77.02399, "name": "36995804fd4b185d1af73b8eb0dd6e30", "fusion_lon": 0.0}, {"lat": 38.9181865, "fusion_lat": 0.0, "type": "electric_scooter", "bike_id": "cf68d862e3daeb0f2a546734843e4e4d", "is_reserved": 0, "rental_uris": {"ios": "https://dc.lft.to/lastmile_qr_scan", "android": "https://dc.lft.to/lastmile_qr_scan"}, "is_disabled": 0, "lon": -77.00771016666667, "name": "cf68d862e3daeb0f2a546734843e4e4d", "fusion_lon": 0.0}, {"lat": 38.90769916666667, "fusion_lat": 0.0, "type": "electric_scooter", "bike_id": "ca13a13c7c7bd35621d3fb71378ca98b", "is_reserved": 0, "rental_uris": {"ios": "https://dc.lft.to/lastmile_qr_scan", "android": "https://dc.lft.to/lastmile_qr_scan"}, "is_disabled": 0, "lon": -77.02969483333334, "name": "ca13a13c7c7bd35621d3fb71378ca98b", "fusion_lon": 0.0}, {"lat": 38.92673516666667, "fusion_lat": 0.0, "type": "electric_scooter", "bike_id": "4cdf67d7c0f961dafca07db57782d126", "is_reserved": 0, "rental_uris": {"ios": "https://dc.lft.to/lastmile_qr_scan", "android": "https://dc.lft.to/lastmile_qr_scan"}, "is_disabled": 0, "lon": -77.01552016666666, "name": "4cdf67d7c0f961dafca07db57782d126", "fusion_lon": 0.0}, {"lat": 38.91919816666667, "fusion_lat": 0.0, "type": "electric_scooter", "bike_id": "4e409f02dc71cbf8509306d48be04ea1", "is_reserved": 0, "rental_uris": {"ios": "https://dc.lft.to/lastmile_qr_scan", "android": "https://dc.lft.to/lastmile_qr_scan"}, "is_disabled": 0, "lon": -77.02621833333333, "name": "4e409f02dc71cbf8509306d48be04ea1", "fusion_lon": 0.0}, {"lat": 38.895472166666664, "fusion_lat": 0.0, "type": "electric_scooter", "bike_id": "003b3bbdf115a805375cdfd3ff7b84a4", "is_reserved": 0, "rental_uris": {"ios": "https://dc.lft.to/lastmile_qr_scan", "android": "https://dc.lft.to/lastmile_qr_scan"}, "is_disabled": 0, "lon": -76.949251, "name": "003b3bbdf115a805375cdfd3ff7b84a4", "fusion_lon": 0.0}, {"lat": 38.903864666666664, "fusion_lat": 0.0, "type": "electric_scooter", "bike_id": "a1fda194eb2004eaed3d48351b718321", "is_reserved": 0, "rental_uris": {"ios": "https://dc.lft.to/lastmile_qr_scan", "android": "https://dc.lft.to/lastmile_qr_scan"}, "is_disabled": 0, "lon": -77.03251316666666, "name": "a1fda194eb2004eaed3d48351b718321", "fusion_lon": 0.0}, {"lat": 38.92881283333333, "fusion_lat": 0.0, "type": "electric_scooter", "bike_id": "6476d891cd8b325d01a484e9ed433645", "is_reserved": 0, "rental_uris": {"ios": "https://dc.lft.to/lastmile_qr_scan", "android": "https://dc.lft.to/lastmile_qr_scan"}, "is_disabled": 0, "lon": -77.03341383333333, "name": "6476d891cd8b325d01a484e9ed433645", "fusion_lon": 0.0}, {"lat": 38.919376166666666, "fusion_lat": 0.0, "type": "electric_scooter", "bike_id": "1c133166bdd36690dd2bbb5ee4e90f5d", "is_reserved": 0, "rental_uris": {"ios": "https://dc.lft.to/lastmile_qr_scan", "android": "https://dc.lft.to/lastmile_qr_scan"}, "is_disabled": 0, "lon": -77.0450175, "name": "1c133166bdd36690dd2bbb5ee4e90f5d", "fusion_lon": 0.0}, {"lat": 38.89791183333333, "fusion_lat": 0.0, "type": "electric_scooter", "bike_id": "2221de76a1174b2e485f5abeceeecebf", "is_reserved": 0, "rental_uris": {"ios": "https://dc.lft.to/lastmile_qr_scan", "android": "https://dc.lft.to/lastmile_qr_scan"}, "is_disabled": 0, "lon": -77.01210016666667, "name": "2221de76a1174b2e485f5abeceeecebf", "fusion_lon": 0.0}, {"lat": 38.900029333333336, "fusion_lat": 0.0, "type": "electric_scooter", "bike_id": "bd86ed71762e3e4924d3557b34680df5", "is_reserved": 0, "rental_uris": {"ios": "https://dc.lft.to/lastmile_qr_scan", "android": "https://dc.lft.to/lastmile_qr_scan"}, "is_disabled": 0, "lon": -77.0065275, "name": "bd86ed71762e3e4924d3557b34680df5", "fusion_lon": 0.0}, {"lat": 38.924451833333336, "fusion_lat": 0.0, "type": "electric_scooter", "bike_id": "6a7edfb0bd8fac3d02f680cc72075b28", "is_reserved": 0, "rental_uris": {"ios": "https://dc.lft.to/lastmile_qr_scan", "android": "https://dc.lft.to/lastmile_qr_scan"}, "is_disabled": 0, "lon": -77.04108466666666, "name": "6a7edfb0bd8fac3d02f680cc72075b28", "fusion_lon": 0.0}, {"lat": 38.934783, "fusion_lat": 0.0, "type": "electric_scooter", "bike_id": "187b7c279872c817bfb3aea1b1ab41b2", "is_reserved": 0, "rental_uris": {"ios": "https://dc.lft.to/lastmile_qr_scan", "android": "https://dc.lft.to/lastmile_qr_scan"}, "is_disabled": 0, "lon": -77.07269983333333, "name": "187b7c279872c817bfb3aea1b1ab41b2", "fusion_lon": 0.0}, {"lat": 38.900114333333335, "fusion_lat": 0.0, "type": "electric_scooter", "bike_id": "f41e73b531c86935da0bdd1aaddbd4e3", "is_reserved": 0, "rental_uris": {"ios": "https://dc.lft.to/lastmile_qr_scan", "android": "https://dc.lft.to/lastmile_qr_scan"}, "is_disabled": 0, "lon": -77.04293533333333, "name": "f41e73b531c86935da0bdd1aaddbd4e3", "fusion_lon": 0.0}, {"lat": 38.87464166666667, "fusion_lat": 0.0, "type": "electric_scooter", "bike_id": "bb11cf9669d4e64ffde3afd97ef9ecec", "is_reserved": 0, "rental_uris": {"ios": "https://dc.lft.to/lastmile_qr_scan", "android": "https://dc.lft.to/lastmile_qr_scan"}, "is_disabled": 0, "lon": -77.0094215, "name": "bb11cf9669d4e64ffde3afd97ef9ecec", "fusion_lon": 0.0}, {"lat": 38.855283, "fusion_lat": 0.0, "type": "electric_bike", "bike_id": "adcd2df12338b8347cca5c613cbb0e60", "is_reserved": 0, "rental_uris": {"ios": "https://dc.lft.to/lastmile_qr_scan", "android": "https://dc.lft.to/lastmile_qr_scan"}, "is_disabled": 0, "lon": -76.9843915, "name": "adcd2df12338b8347cca5c613cbb0e60", "fusion_lon": 0.0}, {"lat": 38.900039666666665, "fusion_lat": 0.0, "type": "electric_scooter", "bike_id": "51337ff178966af1ec961de1887ef67a", "is_reserved": 0, "rental_uris": {"ios": "https://dc.lft.to/lastmile_qr_scan", "android": "https://dc.lft.to/lastmile_qr_scan"}, "is_disabled": 0, "lon": -77.0102725, "name": "51337ff178966af1ec961de1887ef67a", "fusion_lon": 0.0}, {"lat": 38.843136, "fusion_lat": 0.0, "type": "electric_scooter", "bike_id": "f8f2a13e09dca9b1c786d5bdc326148b", "is_reserved": 0, "rental_uris": {"ios": "https://dc.lft.to/lastmile_qr_scan", "android": "https://dc.lft.to/lastmile_qr_scan"}, "is_disabled": 0, "lon": -76.9992855, "name": "f8f2a13e09dca9b1c786d5bdc326148b", "fusion_lon": 0.0}, {"lat": 38.8831515, "fusion_lat": 0.0, "type": "electric_scooter", "bike_id": "5abb0b1fadfaa5476be98c31d927503c", "is_reserved": 0, "rental_uris": {"ios": "https://dc.lft.to/lastmile_qr_scan", "android": "https://dc.lft.to/lastmile_qr_scan"}, "is_disabled": 0, "lon": -77.00053, "name": "5abb0b1fadfaa5476be98c31d927503c", "fusion_lon": 0.0}, {"lat": 38.90504966666666, "fusion_lat": 0.0, "type": "electric_scooter", "bike_id": "9c9b863806272d9fbc4b0b524940e7d5", "is_reserved": 0, "rental_uris": {"ios": "https://dc.lft.to/lastmile_qr_scan", "android": "https://dc.lft.to/lastmile_qr_scan"}, "is_disabled": 0, "lon": -77.060057, "name": "9c9b863806272d9fbc4b0b524940e7d5", "fusion_lon": 0.0}, {"lat": 38.893087, "fusion_lat": 0.0, "type": "electric_scooter", "bike_id": "8953deafa84b03def1091373e09601e0", "is_reserved": 0, "rental_uris": {"ios": "https://dc.lft.to/lastmile_qr_scan", "android": "https://dc.lft.to/lastmile_qr_scan"}, "is_disabled": 0, "lon": -77.01198533333333, "name": "8953deafa84b03def1091373e09601e0", "fusion_lon": 0.0}, {"lat": 38.91923383333334, "fusion_lat": 0.0, "type": "electric_scooter", "bike_id": "42d6edd8e791c23ead090a105c604c75", "is_reserved": 0, "rental_uris": {"ios": "https://dc.lft.to/lastmile_qr_scan", "android": "https://dc.lft.to/lastmile_qr_scan"}, "is_disabled": 0, "lon": -77.03187666666666, "name": "42d6edd8e791c23ead090a105c604c75", "fusion_lon": 0.0}, {"lat": 38.92035116666667, "fusion_lat": 0.0, "type": "electric_scooter", "bike_id": "752ed24a35f69b48ff08529c029247d2", "is_reserved": 0, "rental_uris": {"ios": "https://dc.lft.to/lastmile_qr_scan", "android": "https://dc.lft.to/lastmile_qr_scan"}, "is_disabled": 0, "lon": -77.02591133333334, "name": "752ed24a35f69b48ff08529c029247d2", "fusion_lon": 0.0}, {"lat": 38.90978466666667, "fusion_lat": 0.0, "type": "electric_scooter", "bike_id": "0fc9a2d46053e8c3807a0b663675e6e2", "is_reserved": 0, "rental_uris": {"ios": "https://dc.lft.to/lastmile_qr_scan", "android": "https://dc.lft.to/lastmile_qr_scan"}, "is_disabled": 0, "lon": -77.0338805, "name": "0fc9a2d46053e8c3807a0b663675e6e2", "fusion_lon": 0.0}, {"lat": 38.916986333333334, "fusion_lat": 0.0, "type": "electric_scooter", "bike_id": "0c9ed107383a8079344bde606ebaf3d3", "is_reserved": 0, "rental_uris": {"ios": "https://dc.lft.to/lastmile_qr_scan", "android": "https://dc.lft.to/lastmile_qr_scan"}, "is_disabled": 0, "lon": -77.01170933333333, "name": "0c9ed107383a8079344bde606ebaf3d3", "fusion_lon": 0.0}, {"lat": 38.928602166666664, "fusion_lat": 0.0, "type": "electric_scooter", "bike_id": "c158d409d091513d45421d0153fb06f7", "is_reserved": 0, "rental_uris": {"ios": "https://dc.lft.to/lastmile_qr_scan", "android": "https://dc.lft.to/lastmile_qr_scan"}, "is_disabled": 0, "lon": -77.02144116666666, "name": "c158d409d091513d45421d0153fb06f7", "fusion_lon": 0.0}, {"lat": 38.854412333333336, "fusion_lat": 0.0, "type": "electric_bike", "bike_id": "8a6fa9d978214a28813d43e64a50e557", "is_reserved": 0, "rental_uris": {"ios": "https://dc.lft.to/lastmile_qr_scan", "android": "https://dc.lft.to/lastmile_qr_scan"}, "is_disabled": 0, "lon": -77.08308233333334, "name": "8a6fa9d978214a28813d43e64a50e557", "fusion_lon": 0.0}, {"lat": 38.91957466666667, "fusion_lat": 0.0, "type": "electric_scooter", "bike_id": "b19ba36e15b7af71628ed60957104f8d", "is_reserved": 0, "rental_uris": {"ios": "https://dc.lft.to/lastmile_qr_scan", "android": "https://dc.lft.to/lastmile_qr_scan"}, "is_disabled": 0, "lon": -77.04173233333333, "name": "b19ba36e15b7af71628ed60957104f8d", "fusion_lon": 0.0}, {"lat": 38.90007883333333, "fusion_lat": 0.0, "type": "electric_scooter", "bike_id": "78973219b90958a5748031ff6a815d99", "is_reserved": 0, "rental_uris": {"ios": "https://dc.lft.to/lastmile_qr_scan", "android": "https://dc.lft.to/lastmile_qr_scan"}, "is_disabled": 0, "lon": -77.006708, "name": "78973219b90958a5748031ff6a815d99", "fusion_lon": 0.0}, {"lat": 38.918574666666665, "fusion_lat": 0.0, "type": "electric_scooter", "bike_id": "939da93fb42699b488cc35d09163ffde", "is_reserved": 0, "rental_uris": {"ios": "https://dc.lft.to/lastmile_qr_scan", "android": "https://dc.lft.to/lastmile_qr_scan"}, "is_disabled": 0, "lon": -77.04037783333334, "name": "939da93fb42699b488cc35d09163ffde", "fusion_lon": 0.0}, {"lat": 38.90501833333333, "fusion_lat": 0.0, "type": "electric_scooter", "bike_id": "7a8433fd2f6772c44106b54c438d1969", "is_reserved": 0, "rental_uris": {"ios": "https://dc.lft.to/lastmile_qr_scan", "android": "https://dc.lft.to/lastmile_qr_scan"}, "is_disabled": 0, "lon": -77.0600525, "name": "7a8433fd2f6772c44106b54c438d1969", "fusion_lon": 0.0}, {"lat": 38.9180975, "fusion_lat": 0.0, "type": "electric_scooter", "bike_id": "ba020beda370f853136618b4473b576a", "is_reserved": 0, "rental_uris": {"ios": "https://dc.lft.to/lastmile_qr_scan", "android": "https://dc.lft.to/lastmile_qr_scan"}, "is_disabled": 0, "lon": -77.0318455, "name": "ba020beda370f853136618b4473b576a", "fusion_lon": 0.0}, {"lat": 38.898996333333336, "fusion_lat": 0.0, "type": "electric_scooter", "bike_id": "e7fcb7375b56d86b3f9f36c5097522cd", "is_reserved": 0, "rental_uris": {"ios": "https://dc.lft.to/lastmile_qr_scan", "android": "https://dc.lft.to/lastmile_qr_scan"}, "is_disabled": 0, "lon": -76.97612833333334, "name": "e7fcb7375b56d86b3f9f36c5097522cd", "fusion_lon": 0.0}, {"lat": 38.919849666666664, "fusion_lat": 0.0, "type": "electric_scooter", "bike_id": "a3aab602a3ecb3da8d791a0a4cfd36f7", "is_reserved": 0, "rental_uris": {"ios": "https://dc.lft.to/lastmile_qr_scan", "android": "https://dc.lft.to/lastmile_qr_scan"}, "is_disabled": 0, "lon": -77.033069, "name": "a3aab602a3ecb3da8d791a0a4cfd36f7", "fusion_lon": 0.0}, {"lat": 38.902015, "fusion_lat": 0.0, "type": "electric_scooter", "bike_id": "bef566d3a9d9ebac35d992ca8b4c86cd", "is_reserved": 0, "rental_uris": {"ios": "https://dc.lft.to/lastmile_qr_scan", "android": "https://dc.lft.to/lastmile_qr_scan"}, "is_disabled": 0, "lon": -76.9884535, "name": "bef566d3a9d9ebac35d992ca8b4c86cd", "fusion_lon": 0.0}, {"lat": 38.92121816666667, "fusion_lat": 0.0, "type": "electric_scooter", "bike_id": "cc5f45bcabd75eada2b6ced2f26ed360", "is_reserved": 0, "rental_uris": {"ios": "https://dc.lft.to/lastmile_qr_scan", "android": "https://dc.lft.to/lastmile_qr_scan"}, "is_disabled": 0, "lon": -77.04572533333334, "name": "cc5f45bcabd75eada2b6ced2f26ed360", "fusion_lon": 0.0}, {"lat": 38.910161, "fusion_lat": 0.0, "type": "electric_scooter", "bike_id": "899b100179747c4b141bc7516392d452", "is_reserved": 0, "rental_uris": {"ios": "https://dc.lft.to/lastmile_qr_scan", "android": "https://dc.lft.to/lastmile_qr_scan"}, "is_disabled": 0, "lon": -77.03462566666667, "name": "899b100179747c4b141bc7516392d452", "fusion_lon": 0.0}, {"lat": 38.907163, "fusion_lat": 0.0, "type": "electric_scooter", "bike_id": "b5327858c4e118b1f84d12d91df2374b", "is_reserved": 0, "rental_uris": {"ios": "https://dc.lft.to/lastmile_qr_scan", "android": "https://dc.lft.to/lastmile_qr_scan"}, "is_disabled": 0, "lon": -77.01013466666667, "name": "b5327858c4e118b1f84d12d91df2374b", "fusion_lon": 0.0}, {"lat": 38.90744, "fusion_lat": 0.0, "type": "electric_scooter", "bike_id": "130e585f140e534f82dcbeeafa93405a", "is_reserved": 0, "rental_uris": {"ios": "https://dc.lft.to/lastmile_qr_scan", "android": "https://dc.lft.to/lastmile_qr_scan"}, "is_disabled": 0, "lon": -77.03485733333333, "name": "130e585f140e534f82dcbeeafa93405a", "fusion_lon": 0.0}, {"lat": 38.8964305, "fusion_lat": 0.0, "type": "electric_scooter", "bike_id": "95c27a62b5b4ee9b6afca13346fc65d0", "is_reserved": 0, "rental_uris": {"ios": "https://dc.lft.to/lastmile_qr_scan", "android": "https://dc.lft.to/lastmile_qr_scan"}, "is_disabled": 0, "lon": -77.02160683333334, "name": "95c27a62b5b4ee9b6afca13346fc65d0", "fusion_lon": 0.0}, {"lat": 38.915518666666664, "fusion_lat": 0.0, "type": "electric_scooter", "bike_id": "e513653124ca6b2056cbb2319fafea20", "is_reserved": 0, "rental_uris": {"ios": "https://dc.lft.to/lastmile_qr_scan", "android": "https://dc.lft.to/lastmile_qr_scan"}, "is_disabled": 0, "lon": -77.023704, "name": "e513653124ca6b2056cbb2319fafea20", "fusion_lon": 0.0}, {"lat": 38.923004, "fusion_lat": 0.0, "type": "electric_scooter", "bike_id": "4e60aa17cce8205001b1ac034d2dedf2", "is_reserved": 0, "rental_uris": {"ios": "https://dc.lft.to/lastmile_qr_scan", "android": "https://dc.lft.to/lastmile_qr_scan"}, "is_disabled": 0, "lon": -77.04145166666666, "name": "4e60aa17cce8205001b1ac034d2dedf2", "fusion_lon": 0.0}, {"lat": 38.906828, "fusion_lat": 0.0, "type": "electric_scooter", "bike_id": "d279d433dd406b521baee5cf7c7025be", "is_reserved": 0, "rental_uris": {"ios": "https://dc.lft.to/lastmile_qr_scan", "android": "https://dc.lft.to/lastmile_qr_scan"}, "is_disabled": 0, "lon": -77.06341, "name": "d279d433dd406b521baee5cf7c7025be", "fusion_lon": 0.0}, {"lat": 38.91573283333334, "fusion_lat": 0.0, "type": "electric_scooter", "bike_id": "1a3501c223c5a082c367c6f02b3c2d1e", "is_reserved": 0, "rental_uris": {"ios": "https://dc.lft.to/lastmile_qr_scan", "android": "https://dc.lft.to/lastmile_qr_scan"}, "is_disabled": 0, "lon": -77.012509, "name": "1a3501c223c5a082c367c6f02b3c2d1e", "fusion_lon": 0.0}, {"lat": 38.898829666666664, "fusion_lat": 0.0, "type": "electric_scooter", "bike_id": "c27c21ed449172fd2c32b3103acd20af", "is_reserved": 0, "rental_uris": {"ios": "https://dc.lft.to/lastmile_qr_scan", "android": "https://dc.lft.to/lastmile_qr_scan"}, "is_disabled": 0, "lon": -77.01258533333333, "name": "c27c21ed449172fd2c32b3103acd20af", "fusion_lon": 0.0}, {"lat": 38.903306, "fusion_lat": 0.0, "type": "electric_scooter", "bike_id": "7efc951d38c050c5294d0ea5f4e45644", "is_reserved": 0, "rental_uris": {"ios": "https://dc.lft.to/lastmile_qr_scan", "android": "https://dc.lft.to/lastmile_qr_scan"}, "is_disabled": 0, "lon": -77.05024816666666, "name": "7efc951d38c050c5294d0ea5f4e45644", "fusion_lon": 0.0}, {"lat": 38.909733, "fusion_lat": 0.0, "type": "electric_scooter", "bike_id": "df4bd1b2b8c5651bcfb6809a69022967", "is_reserved": 0, "rental_uris": {"ios": "https://dc.lft.to/lastmile_qr_scan", "android": "https://dc.lft.to/lastmile_qr_scan"}, "is_disabled": 0, "lon": -77.00945283333333, "name": "df4bd1b2b8c5651bcfb6809a69022967", "fusion_lon": 0.0}, {"lat": 38.905815, "fusion_lat": 0.0, "type": "electric_scooter", "bike_id": "2bb1c16205c337b4e4e9612ba0869d71", "is_reserved": 0, "rental_uris": {"ios": "https://dc.lft.to/lastmile_qr_scan", "android": "https://dc.lft.to/lastmile_qr_scan"}, "is_disabled": 0, "lon": -77.05131933333334, "name": "2bb1c16205c337b4e4e9612ba0869d71", "fusion_lon": 0.0}, {"lat": 38.9008615, "fusion_lat": 0.0, "type": "electric_scooter", "bike_id": "f17cea044e5f765facb10cfb03bae923", "is_reserved": 0, "rental_uris": {"ios": "https://dc.lft.to/lastmile_qr_scan", "android": "https://dc.lft.to/lastmile_qr_scan"}, "is_disabled": 0, "lon": -77.02780866666667, "name": "f17cea044e5f765facb10cfb03bae923", "fusion_lon": 0.0}, {"lat": 38.9371, "fusion_lat": 0.0, "type": "electric_scooter", "bike_id": "622eb3975ce6bb25d6b12c993152869f", "is_reserved": 0, "rental_uris": {"ios": "https://dc.lft.to/lastmile_qr_scan", "android": "https://dc.lft.to/lastmile_qr_scan"}, "is_disabled": 0, "lon": -77.0610285, "name": "622eb3975ce6bb25d6b12c993152869f", "fusion_lon": 0.0}, {"lat": 39.05636616666666, "fusion_lat": 0.0, "type": "electric_bike", "bike_id": "9c84c486d811d9592117b4b906972af9", "is_reserved": 0, "rental_uris": {"ios": "https://dc.lft.to/lastmile_qr_scan", "android": "https://dc.lft.to/lastmile_qr_scan"}, "is_disabled": 0, "lon": -77.12527466666667, "name": "9c84c486d811d9592117b4b906972af9", "fusion_lon": 0.0}, {"lat": 38.917126833333334, "fusion_lat": 0.0, "type": "electric_scooter", "bike_id": "a56daa75440d995178a3142706eac803", "is_reserved": 0, "rental_uris": {"ios": "https://dc.lft.to/lastmile_qr_scan", "android": "https://dc.lft.to/lastmile_qr_scan"}, "is_disabled": 0, "lon": -77.03877216666666, "name": "a56daa75440d995178a3142706eac803", "fusion_lon": 0.0}, {"lat": 38.96625983333333, "fusion_lat": 0.0, "type": "electric_scooter", "bike_id": "67d40d9eedf0fe2e02aaf42cece1336b", "is_reserved": 0, "rental_uris": {"ios": "https://dc.lft.to/lastmile_qr_scan", "android": "https://dc.lft.to/lastmile_qr_scan"}, "is_disabled": 0, "lon": -77.0225315, "name": "67d40d9eedf0fe2e02aaf42cece1336b", "fusion_lon": 0.0}, {"lat": 38.894597166666664, "fusion_lat": 0.0, "type": "electric_scooter", "bike_id": "f6a19a5b32305f38e64197236fa02517", "is_reserved": 0, "rental_uris": {"ios": "https://dc.lft.to/lastmile_qr_scan", "android": "https://dc.lft.to/lastmile_qr_scan"}, "is_disabled": 0, "lon": -77.01130133333334, "name": "f6a19a5b32305f38e64197236fa02517", "fusion_lon": 0.0}, {"lat": 38.906742666666666, "fusion_lat": 0.0, "type": "electric_scooter", "bike_id": "19cc444ceb1457a7bbdf1aa18526a8a8", "is_reserved": 0, "rental_uris": {"ios": "https://dc.lft.to/lastmile_qr_scan", "android": "https://dc.lft.to/lastmile_qr_scan"}, "is_disabled": 0, "lon": -77.07179683333334, "name": "19cc444ceb1457a7bbdf1aa18526a8a8", "fusion_lon": 0.0}, {"lat": 38.900298166666666, "fusion_lat": 0.0, "type": "electric_scooter", "bike_id": "21702cd61c36eeea3a836f24a54d12e7", "is_reserved": 0, "rental_uris": {"ios": "https://dc.lft.to/lastmile_qr_scan", "android": "https://dc.lft.to/lastmile_qr_scan"}, "is_disabled": 0, "lon": -76.98823933333334, "name": "21702cd61c36eeea3a836f24a54d12e7", "fusion_lon": 0.0}, {"lat": 38.9232375, "fusion_lat": 0.0, "type": "electric_scooter", "bike_id": "ea72474dd8dda5b6e06c511ed9cdee3b", "is_reserved": 0, "rental_uris": {"ios": "https://dc.lft.to/lastmile_qr_scan", "android": "https://dc.lft.to/lastmile_qr_scan"}, "is_disabled": 0, "lon": -77.02129683333334, "name": "ea72474dd8dda5b6e06c511ed9cdee3b", "fusion_lon": 0.0}, {"lat": 38.923582833333334, "fusion_lat": 0.0, "type": "electric_scooter", "bike_id": "fad794e5d0a3fcf3e56ba87b37cc6e2d", "is_reserved": 0, "rental_uris": {"ios": "https://dc.lft.to/lastmile_qr_scan", "android": "https://dc.lft.to/lastmile_qr_scan"}, "is_disabled": 0, "lon": -77.051015, "name": "fad794e5d0a3fcf3e56ba87b37cc6e2d", "fusion_lon": 0.0}, {"lat": 38.89471866666667, "fusion_lat": 0.0, "type": "electric_scooter", "bike_id": "e5ff401386c534dec67bf79ef4d8d601", "is_reserved": 0, "rental_uris": {"ios": "https://dc.lft.to/lastmile_qr_scan", "android": "https://dc.lft.to/lastmile_qr_scan"}, "is_disabled": 0, "lon": -77.02254583333334, "name": "e5ff401386c534dec67bf79ef4d8d601", "fusion_lon": 0.0}, {"lat": 38.907245, "fusion_lat": 0.0, "type": "electric_scooter", "bike_id": "71d13897101497be26fb13edc7e6fc7e", "is_reserved": 0, "rental_uris": {"ios": "https://dc.lft.to/lastmile_qr_scan", "android": "https://dc.lft.to/lastmile_qr_scan"}, "is_disabled": 0, "lon": -77.01470733333333, "name": "71d13897101497be26fb13edc7e6fc7e", "fusion_lon": 0.0}, {"lat": 38.89223916666667, "fusion_lat": 0.0, "type": "electric_scooter", "bike_id": "f32ae8bcd2448fabd29d2d123dbe3d70", "is_reserved": 0, "rental_uris": {"ios": "https://dc.lft.to/lastmile_qr_scan", "android": "https://dc.lft.to/lastmile_qr_scan"}, "is_disabled": 0, "lon": -77.04862066666666, "name": "f32ae8bcd2448fabd29d2d123dbe3d70", "fusion_lon": 0.0}, {"lat": 38.87016766666667, "fusion_lat": 0.0, "type": "electric_scooter", "bike_id": "0bd28671429d2a5c2ef7b903e954684b", "is_reserved": 0, "rental_uris": {"ios": "https://dc.lft.to/lastmile_qr_scan", "android": "https://dc.lft.to/lastmile_qr_scan"}, "is_disabled": 0, "lon": -76.98089916666666, "name": "0bd28671429d2a5c2ef7b903e954684b", "fusion_lon": 0.0}, {"lat": 38.920362, "fusion_lat": 0.0, "type": "electric_scooter", "bike_id": "610a9cde8ddd19a6133579dd33d1152f", "is_reserved": 0, "rental_uris": {"ios": "https://dc.lft.to/lastmile_qr_scan", "android": "https://dc.lft.to/lastmile_qr_scan"}, "is_disabled": 0, "lon": -77.025863, "name": "610a9cde8ddd19a6133579dd33d1152f", "fusion_lon": 0.0}, {"lat": 38.89974816666667, "fusion_lat": 0.0, "type": "electric_scooter", "bike_id": "dfaebd163ee6620108f02821157a46cd", "is_reserved": 0, "rental_uris": {"ios": "https://dc.lft.to/lastmile_qr_scan", "android": "https://dc.lft.to/lastmile_qr_scan"}, "is_disabled": 0, "lon": -77.0526855, "name": "dfaebd163ee6620108f02821157a46cd", "fusion_lon": 0.0}, {"lat": 38.91774133333333, "fusion_lat": 0.0, "type": "electric_scooter", "bike_id": "e0d0a58b4906d1f1c0d112d90345dd12", "is_reserved": 0, "rental_uris": {"ios": "https://dc.lft.to/lastmile_qr_scan", "android": "https://dc.lft.to/lastmile_qr_scan"}, "is_disabled": 0, "lon": -77.04056866666667, "name": "e0d0a58b4906d1f1c0d112d90345dd12", "fusion_lon": 0.0}, {"lat": 38.92309933333333, "fusion_lat": 0.0, "type": "electric_scooter", "bike_id": "7e2ba7f1f4a017fb39cd06b97e769ba5", "is_reserved": 0, "rental_uris": {"ios": "https://dc.lft.to/lastmile_qr_scan", "android": "https://dc.lft.to/lastmile_qr_scan"}, "is_disabled": 0, "lon": -77.0313365, "name": "7e2ba7f1f4a017fb39cd06b97e769ba5", "fusion_lon": 0.0}, {"lat": 38.9408645, "fusion_lat": 0.0, "type": "electric_bike", "bike_id": "797751305af1fc51d3eaa57778ec634f", "is_reserved": 0, "rental_uris": {"ios": "https://dc.lft.to/lastmile_qr_scan", "android": "https://dc.lft.to/lastmile_qr_scan"}, "is_disabled": 0, "lon": -77.08947416666666, "name": "797751305af1fc51d3eaa57778ec634f", "fusion_lon": 0.0}, {"lat": 38.896727166666665, "fusion_lat": 0.0, "type": "electric_scooter", "bike_id": "c79569e32030280516feeb8ceadb5a24", "is_reserved": 0, "rental_uris": {"ios": "https://dc.lft.to/lastmile_qr_scan", "android": "https://dc.lft.to/lastmile_qr_scan"}, "is_disabled": 0, "lon": -76.98814683333333, "name": "c79569e32030280516feeb8ceadb5a24", "fusion_lon": 0.0}, {"lat": 38.900365666666666, "fusion_lat": 0.0, "type": "electric_scooter", "bike_id": "484ce5fecef5ee0f4e9c10ace9293a49", "is_reserved": 0, "rental_uris": {"ios": "https://dc.lft.to/lastmile_qr_scan", "android": "https://dc.lft.to/lastmile_qr_scan"}, "is_disabled": 0, "lon": -77.00102966666667, "name": "484ce5fecef5ee0f4e9c10ace9293a49", "fusion_lon": 0.0}, {"lat": 38.922376666666665, "fusion_lat": 0.0, "type": "electric_scooter", "bike_id": "34f751fac29f31141350e8b7a6c2ea94", "is_reserved": 0, "rental_uris": {"ios": "https://dc.lft.to/lastmile_qr_scan", "android": "https://dc.lft.to/lastmile_qr_scan"}, "is_disabled": 0, "lon": -77.039061, "name": "34f751fac29f31141350e8b7a6c2ea94", "fusion_lon": 0.0}, {"lat": 38.892399833333336, "fusion_lat": 0.0, "type": "electric_scooter", "bike_id": "74809c652f0bd8dd905eedc096c930a2", "is_reserved": 0, "rental_uris": {"ios": "https://dc.lft.to/lastmile_qr_scan", "android": "https://dc.lft.to/lastmile_qr_scan"}, "is_disabled": 0, "lon": -77.02516, "name": "74809c652f0bd8dd905eedc096c930a2", "fusion_lon": 0.0}, {"lat": 38.923675833333334, "fusion_lat": 0.0, "type": "electric_scooter", "bike_id": "c3c4862adccc8a18a3317c2be462460e", "is_reserved": 0, "rental_uris": {"ios": "https://dc.lft.to/lastmile_qr_scan", "android": "https://dc.lft.to/lastmile_qr_scan"}, "is_disabled": 0, "lon": -77.04310833333334, "name": "c3c4862adccc8a18a3317c2be462460e", "fusion_lon": 0.0}, {"lat": 38.92107633333333, "fusion_lat": 0.0, "type": "electric_scooter", "bike_id": "ad35b563eca72fe1886ee4086bd36f8a", "is_reserved": 0, "rental_uris": {"ios": "https://dc.lft.to/lastmile_qr_scan", "android": "https://dc.lft.to/lastmile_qr_scan"}, "is_disabled": 0, "lon": -77.03051833333333, "name": "ad35b563eca72fe1886ee4086bd36f8a", "fusion_lon": 0.0}, {"lat": 38.9126115, "fusion_lat": 0.0, "type": "electric_scooter", "bike_id": "871c191dc9db306ada1f634450c785c4", "is_reserved": 0, "rental_uris": {"ios": "https://dc.lft.to/lastmile_qr_scan", "android": "https://dc.lft.to/lastmile_qr_scan"}, "is_disabled": 0, "lon": -77.039051, "name": "871c191dc9db306ada1f634450c785c4", "fusion_lon": 0.0}, {"lat": 38.906795833333334, "fusion_lat": 0.0, "type": "electric_scooter", "bike_id": "93940c0c9446fbc0f2354d27be34eaa5", "is_reserved": 0, "rental_uris": {"ios": "https://dc.lft.to/lastmile_qr_scan", "android": "https://dc.lft.to/lastmile_qr_scan"}, "is_disabled": 0, "lon": -77.0716925, "name": "93940c0c9446fbc0f2354d27be34eaa5", "fusion_lon": 0.0}, {"lat": 38.903360166666666, "fusion_lat": 0.0, "type": "electric_scooter", "bike_id": "acef8fbc6232b4f1857bd1eb52ba25e2", "is_reserved": 0, "rental_uris": {"ios": "https://dc.lft.to/lastmile_qr_scan", "android": "https://dc.lft.to/lastmile_qr_scan"}, "is_disabled": 0, "lon": -76.97591083333333, "name": "acef8fbc6232b4f1857bd1eb52ba25e2", "fusion_lon": 0.0}, {"lat": 38.9231595, "fusion_lat": 0.0, "type": "electric_scooter", "bike_id": "912d9aec4e54cc23ee8fb19cfeb47ac3", "is_reserved": 0, "rental_uris": {"ios": "https://dc.lft.to/lastmile_qr_scan", "android": "https://dc.lft.to/lastmile_qr_scan"}, "is_disabled": 0, "lon": -77.03917383333334, "name": "912d9aec4e54cc23ee8fb19cfeb47ac3", "fusion_lon": 0.0}, {"lat": 38.87069066666667, "fusion_lat": 0.0, "type": "electric_scooter", "bike_id": "a2488f9d15cc8484082a9c17bd82bf05", "is_reserved": 0, "rental_uris": {"ios": "https://dc.lft.to/lastmile_qr_scan", "android": "https://dc.lft.to/lastmile_qr_scan"}, "is_disabled": 0, "lon": -76.98917083333333, "name": "a2488f9d15cc8484082a9c17bd82bf05", "fusion_lon": 0.0}, {"lat": 38.911082666666665, "fusion_lat": 0.0, "type": "electric_scooter", "bike_id": "28cac27a956448690d8c1737f5aa9512", "is_reserved": 0, "rental_uris": {"ios": "https://dc.lft.to/lastmile_qr_scan", "android": "https://dc.lft.to/lastmile_qr_scan"}, "is_disabled": 0, "lon": -77.0409475, "name": "28cac27a956448690d8c1737f5aa9512", "fusion_lon": 0.0}, {"lat": 38.913464, "fusion_lat": 0.0, "type": "electric_scooter", "bike_id": "86efaa6a0e1421f752a4d00240563c8d", "is_reserved": 0, "rental_uris": {"ios": "https://dc.lft.to/lastmile_qr_scan", "android": "https://dc.lft.to/lastmile_qr_scan"}, "is_disabled": 0, "lon": -77.04480483333333, "name": "86efaa6a0e1421f752a4d00240563c8d", "fusion_lon": 0.0}, {"lat": 38.910651333333334, "fusion_lat": 0.0, "type": "electric_scooter", "bike_id": "117a0927f4558be5febc7bba06955359", "is_reserved": 0, "rental_uris": {"ios": "https://dc.lft.to/lastmile_qr_scan", "android": "https://dc.lft.to/lastmile_qr_scan"}, "is_disabled": 0, "lon": -77.03091016666667, "name": "117a0927f4558be5febc7bba06955359", "fusion_lon": 0.0}, {"lat": 38.91706633333333, "fusion_lat": 0.0, "type": "electric_scooter", "bike_id": "0a2af27d7d7eae0039fd438f4a34d3d7", "is_reserved": 0, "rental_uris": {"ios": "https://dc.lft.to/lastmile_qr_scan", "android": "https://dc.lft.to/lastmile_qr_scan"}, "is_disabled": 0, "lon": -77.00795916666667, "name": "0a2af27d7d7eae0039fd438f4a34d3d7", "fusion_lon": 0.0}, {"lat": 38.90098883333334, "fusion_lat": 0.0, "type": "electric_scooter", "bike_id": "53ea18a3578bd41df24203974fc8d3d6", "is_reserved": 0, "rental_uris": {"ios": "https://dc.lft.to/lastmile_qr_scan", "android": "https://dc.lft.to/lastmile_qr_scan"}, "is_disabled": 0, "lon": -77.019917, "name": "53ea18a3578bd41df24203974fc8d3d6", "fusion_lon": 0.0}, {"lat": 38.921707166666664, "fusion_lat": 0.0, "type": "electric_scooter", "bike_id": "9900516613c4ce6b6fc3acecef006381", "is_reserved": 0, "rental_uris": {"ios": "https://dc.lft.to/lastmile_qr_scan", "android": "https://dc.lft.to/lastmile_qr_scan"}, "is_disabled": 0, "lon": -77.038277, "name": "9900516613c4ce6b6fc3acecef006381", "fusion_lon": 0.0}, {"lat": 38.912561333333336, "fusion_lat": 0.0, "type": "electric_scooter", "bike_id": "fd87e45a13b8d858878c70fdf844aaaa", "is_reserved": 0, "rental_uris": {"ios": "https://dc.lft.to/lastmile_qr_scan", "android": "https://dc.lft.to/lastmile_qr_scan"}, "is_disabled": 0, "lon": -77.04498816666667, "name": "fd87e45a13b8d858878c70fdf844aaaa", "fusion_lon": 0.0}, {"lat": 38.9813435, "fusion_lat": 0.0, "type": "electric_scooter", "bike_id": "27f6b6a2a09cb2a6dacf9e0c220d7b5a", "is_reserved": 0, "rental_uris": {"ios": "https://dc.lft.to/lastmile_qr_scan", "android": "https://dc.lft.to/lastmile_qr_scan"}, "is_disabled": 0, "lon": -77.02234783333333, "name": "27f6b6a2a09cb2a6dacf9e0c220d7b5a", "fusion_lon": 0.0}, {"lat": 38.900248500000004, "fusion_lat": 0.0, "type": "electric_scooter", "bike_id": "8435043945fc51ab4aeddcc2cd669f78", "is_reserved": 0, "rental_uris": {"ios": "https://dc.lft.to/lastmile_qr_scan", "android": "https://dc.lft.to/lastmile_qr_scan"}, "is_disabled": 0, "lon": -77.0019335, "name": "8435043945fc51ab4aeddcc2cd669f78", "fusion_lon": 0.0}, {"lat": 38.906228666666664, "fusion_lat": 0.0, "type": "electric_scooter", "bike_id": "b63f8b85b995a480618674cf8fa4a3db", "is_reserved": 0, "rental_uris": {"ios": "https://dc.lft.to/lastmile_qr_scan", "android": "https://dc.lft.to/lastmile_qr_scan"}, "is_disabled": 0, "lon": -77.04652133333333, "name": "b63f8b85b995a480618674cf8fa4a3db", "fusion_lon": 0.0}, {"lat": 38.872116166666665, "fusion_lat": 0.0, "type": "electric_scooter", "bike_id": "ca0c0fae1b77b1d7d6992bccfdb704ba", "is_reserved": 0, "rental_uris": {"ios": "https://dc.lft.to/lastmile_qr_scan", "android": "https://dc.lft.to/lastmile_qr_scan"}, "is_disabled": 0, "lon": -77.00972633333333, "name": "ca0c0fae1b77b1d7d6992bccfdb704ba", "fusion_lon": 0.0}, {"lat": 38.796076, "fusion_lat": 0.0, "type": "electric_bike", "bike_id": "05411b9d7d7bf81f40798a9541ced155", "is_reserved": 0, "rental_uris": {"ios": "https://dc.lft.to/lastmile_qr_scan", "android": "https://dc.lft.to/lastmile_qr_scan"}, "is_disabled": 0, "lon": -76.99744133333333, "name": "05411b9d7d7bf81f40798a9541ced155", "fusion_lon": 0.0}, {"lat": 38.931026, "fusion_lat": 0.0, "type": "electric_scooter", "bike_id": "d55825b4cc81aa328de9161267f6a110", "is_reserved": 0, "rental_uris": {"ios": "https://dc.lft.to/lastmile_qr_scan", "android": "https://dc.lft.to/lastmile_qr_scan"}, "is_disabled": 0, "lon": -77.02482116666667, "name": "d55825b4cc81aa328de9161267f6a110", "fusion_lon": 0.0}, {"lat": 38.942646833333335, "fusion_lat": 0.0, "type": "electric_bike", "bike_id": "d8197f9294e3609ef5f755daafd8d731", "is_reserved": 0, "rental_uris": {"ios": "https://dc.lft.to/lastmile_qr_scan", "android": "https://dc.lft.to/lastmile_qr_scan"}, "is_disabled": 0, "lon": -77.0283375, "name": "d8197f9294e3609ef5f755daafd8d731", "fusion_lon": 0.0}, {"lat": 38.91023466666667, "fusion_lat": 0.0, "type": "electric_scooter", "bike_id": "818e9cfaef0e3f5edcb0547603cdbc55", "is_reserved": 0, "rental_uris": {"ios": "https://dc.lft.to/lastmile_qr_scan", "android": "https://dc.lft.to/lastmile_qr_scan"}, "is_disabled": 0, "lon": -77.00770816666666, "name": "818e9cfaef0e3f5edcb0547603cdbc55", "fusion_lon": 0.0}, {"lat": 38.976778833333334, "fusion_lat": 0.0, "type": "electric_scooter", "bike_id": "6a4d5e3a1b8e2637ea06d63be452dc15", "is_reserved": 0, "rental_uris": {"ios": "https://dc.lft.to/lastmile_qr_scan", "android": "https://dc.lft.to/lastmile_qr_scan"}, "is_disabled": 0, "lon": -77.01662983333334, "name": "6a4d5e3a1b8e2637ea06d63be452dc15", "fusion_lon": 0.0}, {"lat": 38.932233833333335, "fusion_lat": 0.0, "type": "electric_scooter", "bike_id": "726bffa58b22b3220de9be5bcd31885c", "is_reserved": 0, "rental_uris": {"ios": "https://dc.lft.to/lastmile_qr_scan", "android": "https://dc.lft.to/lastmile_qr_scan"}, "is_disabled": 0, "lon": -77.03885316666667, "name": "726bffa58b22b3220de9be5bcd31885c", "fusion_lon": 0.0}, {"lat": 38.924062, "fusion_lat": 0.0, "type": "electric_scooter", "bike_id": "574c89bed720a545be0a89661d6966d6", "is_reserved": 0, "rental_uris": {"ios": "https://dc.lft.to/lastmile_qr_scan", "android": "https://dc.lft.to/lastmile_qr_scan"}, "is_disabled": 0, "lon": -77.0506005, "name": "574c89bed720a545be0a89661d6966d6", "fusion_lon": 0.0}, {"lat": 38.88887033333334, "fusion_lat": 0.0, "type": "electric_scooter", "bike_id": "5eb095433e10a105086d0981b2391943", "is_reserved": 0, "rental_uris": {"ios": "https://dc.lft.to/lastmile_qr_scan", "android": "https://dc.lft.to/lastmile_qr_scan"}, "is_disabled": 0, "lon": -76.94777216666667, "name": "5eb095433e10a105086d0981b2391943", "fusion_lon": 0.0}, {"lat": 38.88753883333333, "fusion_lat": 0.0, "type": "electric_scooter", "bike_id": "44acc5bf3673232db7fd15d2302d52e5", "is_reserved": 0, "rental_uris": {"ios": "https://dc.lft.to/lastmile_qr_scan", "android": "https://dc.lft.to/lastmile_qr_scan"}, "is_disabled": 0, "lon": -77.0255985, "name": "44acc5bf3673232db7fd15d2302d52e5", "fusion_lon": 0.0}, {"lat": 38.903931666666665, "fusion_lat": 0.0, "type": "electric_scooter", "bike_id": "3977a3e78058074c007b54d09fda5e35", "is_reserved": 0, "rental_uris": {"ios": "https://dc.lft.to/lastmile_qr_scan", "android": "https://dc.lft.to/lastmile_qr_scan"}, "is_disabled": 0, "lon": -77.06503266666667, "name": "3977a3e78058074c007b54d09fda5e35", "fusion_lon": 0.0}, {"lat": 38.896457, "fusion_lat": 0.0, "type": "electric_scooter", "bike_id": "68caf109af4914aa40c003ce6838dcdb", "is_reserved": 0, "rental_uris": {"ios": "https://dc.lft.to/lastmile_qr_scan", "android": "https://dc.lft.to/lastmile_qr_scan"}, "is_disabled": 0, "lon": -77.0221385, "name": "68caf109af4914aa40c003ce6838dcdb", "fusion_lon": 0.0}, {"lat": 38.91002566666667, "fusion_lat": 0.0, "type": "electric_scooter", "bike_id": "d9c1f39b95c127821b3a7b3ffe9623ce", "is_reserved": 0, "rental_uris": {"ios": "https://dc.lft.to/lastmile_qr_scan", "android": "https://dc.lft.to/lastmile_qr_scan"}, "is_disabled": 0, "lon": -77.05282033333333, "name": "d9c1f39b95c127821b3a7b3ffe9623ce", "fusion_lon": 0.0}, {"lat": 38.952828333333336, "fusion_lat": 0.0, "type": "electric_scooter", "bike_id": "6f13a427d3594c6d2878cea4406e8266", "is_reserved": 0, "rental_uris": {"ios": "https://dc.lft.to/lastmile_qr_scan", "android": "https://dc.lft.to/lastmile_qr_scan"}, "is_disabled": 0, "lon": -77.00209983333333, "name": "6f13a427d3594c6d2878cea4406e8266", "fusion_lon": 0.0}, {"lat": 38.9072175, "fusion_lat": 0.0, "type": "electric_scooter", "bike_id": "b7693be31c70a3ffee1ce49b52f94a14", "is_reserved": 0, "rental_uris": {"ios": "https://dc.lft.to/lastmile_qr_scan", "android": "https://dc.lft.to/lastmile_qr_scan"}, "is_disabled": 0, "lon": -77.02892966666667, "name": "b7693be31c70a3ffee1ce49b52f94a14", "fusion_lon": 0.0}, {"lat": 38.89223966666667, "fusion_lat": 0.0, "type": "electric_scooter", "bike_id": "67760cd7cf5fe9eb7c79eda0b44db3e3", "is_reserved": 0, "rental_uris": {"ios": "https://dc.lft.to/lastmile_qr_scan", "android": "https://dc.lft.to/lastmile_qr_scan"}, "is_disabled": 0, "lon": -77.04860566666666, "name": "67760cd7cf5fe9eb7c79eda0b44db3e3", "fusion_lon": 0.0}, {"lat": 38.87456066666667, "fusion_lat": 0.0, "type": "electric_scooter", "bike_id": "1a1d96eaf9a82cccae01067ee1dd5a12", "is_reserved": 0, "rental_uris": {"ios": "https://dc.lft.to/lastmile_qr_scan", "android": "https://dc.lft.to/lastmile_qr_scan"}, "is_disabled": 0, "lon": -77.00317083333333, "name": "1a1d96eaf9a82cccae01067ee1dd5a12", "fusion_lon": 0.0}, {"lat": 38.893479, "fusion_lat": 0.0, "type": "electric_scooter", "bike_id": "863207bad1010dff0069c70651f947d1", "is_reserved": 0, "rental_uris": {"ios": "https://dc.lft.to/lastmile_qr_scan", "android": "https://dc.lft.to/lastmile_qr_scan"}, "is_disabled": 0, "lon": -76.98089283333333, "name": "863207bad1010dff0069c70651f947d1", "fusion_lon": 0.0}, {"lat": 38.928889166666664, "fusion_lat": 0.0, "type": "electric_scooter", "bike_id": "7f4c7d77064e44a3184a3b2121cce8be", "is_reserved": 0, "rental_uris": {"ios": "https://dc.lft.to/lastmile_qr_scan", "android": "https://dc.lft.to/lastmile_qr_scan"}, "is_disabled": 0, "lon": -77.033499, "name": "7f4c7d77064e44a3184a3b2121cce8be", "fusion_lon": 0.0}, {"lat": 38.900051500000004, "fusion_lat": 0.0, "type": "electric_scooter", "bike_id": "04def5443831f26d2f031e386310ac89", "is_reserved": 0, "rental_uris": {"ios": "https://dc.lft.to/lastmile_qr_scan", "android": "https://dc.lft.to/lastmile_qr_scan"}, "is_disabled": 0, "lon": -76.99618333333333, "name": "04def5443831f26d2f031e386310ac89", "fusion_lon": 0.0}, {"lat": 38.874737, "fusion_lat": 0.0, "type": "electric_bike", "bike_id": "e46e8bbc25bdb151ea462a5e58d3d989", "is_reserved": 0, "rental_uris": {"ios": "https://dc.lft.to/lastmile_qr_scan", "android": "https://dc.lft.to/lastmile_qr_scan"}, "is_disabled": 0, "lon": -76.96519416666666, "name": "e46e8bbc25bdb151ea462a5e58d3d989", "fusion_lon": 0.0}, {"lat": 38.912933333333335, "fusion_lat": 0.0, "type": "electric_scooter", "bike_id": "ce7f42e275c375f2725be1cdc2d6d1a3", "is_reserved": 0, "rental_uris": {"ios": "https://dc.lft.to/lastmile_qr_scan", "android": "https://dc.lft.to/lastmile_qr_scan"}, "is_disabled": 0, "lon": -77.023882, "name": "ce7f42e275c375f2725be1cdc2d6d1a3", "fusion_lon": 0.0}, {"lat": 38.89618016666667, "fusion_lat": 0.0, "type": "electric_scooter", "bike_id": "d83d56640b1203efa16ed618a225f2d9", "is_reserved": 0, "rental_uris": {"ios": "https://dc.lft.to/lastmile_qr_scan", "android": "https://dc.lft.to/lastmile_qr_scan"}, "is_disabled": 0, "lon": -77.01603466666667, "name": "d83d56640b1203efa16ed618a225f2d9", "fusion_lon": 0.0}, {"lat": 38.897570333333334, "fusion_lat": 0.0, "type": "electric_scooter", "bike_id": "1b4d44cbec6c904659f7d56eebe99874", "is_reserved": 0, "rental_uris": {"ios": "https://dc.lft.to/lastmile_qr_scan", "android": "https://dc.lft.to/lastmile_qr_scan"}, "is_disabled": 0, "lon": -76.9259035, "name": "1b4d44cbec6c904659f7d56eebe99874", "fusion_lon": 0.0}, {"lat": 38.860580166666665, "fusion_lat": 0.0, "type": "electric_scooter", "bike_id": "8d2c90367b4d45ecc73854faad30e5c6", "is_reserved": 0, "rental_uris": {"ios": "https://dc.lft.to/lastmile_qr_scan", "android": "https://dc.lft.to/lastmile_qr_scan"}, "is_disabled": 0, "lon": -76.984266, "name": "8d2c90367b4d45ecc73854faad30e5c6", "fusion_lon": 0.0}, {"lat": 38.91806616666667, "fusion_lat": 0.0, "type": "electric_scooter", "bike_id": "d1daff62eab63b9bfd45ae52535222d8", "is_reserved": 0, "rental_uris": {"ios": "https://dc.lft.to/lastmile_qr_scan", "android": "https://dc.lft.to/lastmile_qr_scan"}, "is_disabled": 0, "lon": -77.045557, "name": "d1daff62eab63b9bfd45ae52535222d8", "fusion_lon": 0.0}, {"lat": 38.88522183333333, "fusion_lat": 0.0, "type": "electric_scooter", "bike_id": "bcedb094c7c79a346d253b4e9460334f", "is_reserved": 0, "rental_uris": {"ios": "https://dc.lft.to/lastmile_qr_scan", "android": "https://dc.lft.to/lastmile_qr_scan"}, "is_disabled": 0, "lon": -77.01551366666666, "name": "bcedb094c7c79a346d253b4e9460334f", "fusion_lon": 0.0}, {"lat": 38.88741233333333, "fusion_lat": 0.0, "type": "electric_scooter", "bike_id": "fdee3e5d6822d62e1a810ec7274c7031", "is_reserved": 0, "rental_uris": {"ios": "https://dc.lft.to/lastmile_qr_scan", "android": "https://dc.lft.to/lastmile_qr_scan"}, "is_disabled": 0, "lon": -77.01528166666667, "name": "fdee3e5d6822d62e1a810ec7274c7031", "fusion_lon": 0.0}, {"lat": 38.916860166666666, "fusion_lat": 0.0, "type": "electric_scooter", "bike_id": "696f1189f4c1487312c86a76c300aff5", "is_reserved": 0, "rental_uris": {"ios": "https://dc.lft.to/lastmile_qr_scan", "android": "https://dc.lft.to/lastmile_qr_scan"}, "is_disabled": 0, "lon": -77.02525033333333, "name": "696f1189f4c1487312c86a76c300aff5", "fusion_lon": 0.0}, {"lat": 38.87642116666667, "fusion_lat": 0.0, "type": "electric_scooter", "bike_id": "0c2d78d307841dfc794913607d19195c", "is_reserved": 0, "rental_uris": {"ios": "https://dc.lft.to/lastmile_qr_scan", "android": "https://dc.lft.to/lastmile_qr_scan"}, "is_disabled": 0, "lon": -77.0045725, "name": "0c2d78d307841dfc794913607d19195c", "fusion_lon": 0.0}, {"lat": 38.83207616666667, "fusion_lat": 0.0, "type": "electric_scooter", "bike_id": "cffd0b5f6bf78f7952a86158d69a4df9", "is_reserved": 0, "rental_uris": {"ios": "https://dc.lft.to/lastmile_qr_scan", "android": "https://dc.lft.to/lastmile_qr_scan"}, "is_disabled": 0, "lon": -77.00795216666667, "name": "cffd0b5f6bf78f7952a86158d69a4df9", "fusion_lon": 0.0}, {"lat": 38.89262183333334, "fusion_lat": 0.0, "type": "electric_scooter", "bike_id": "ddf83fd44762d8517943b555981772d1", "is_reserved": 0, "rental_uris": {"ios": "https://dc.lft.to/lastmile_qr_scan", "android": "https://dc.lft.to/lastmile_qr_scan"}, "is_disabled": 0, "lon": -77.00344233333334, "name": "ddf83fd44762d8517943b555981772d1", "fusion_lon": 0.0}, {"lat": 38.92452683333333, "fusion_lat": 0.0, "type": "electric_scooter", "bike_id": "1ccc22d96b3f25bd25b95979c9ca1a42", "is_reserved": 0, "rental_uris": {"ios": "https://dc.lft.to/lastmile_qr_scan", "android": "https://dc.lft.to/lastmile_qr_scan"}, "is_disabled": 0, "lon": -77.04109266666667, "name": "1ccc22d96b3f25bd25b95979c9ca1a42", "fusion_lon": 0.0}, {"lat": 38.8948235, "fusion_lat": 0.0, "type": "electric_scooter", "bike_id": "24344851c0940efb4bc7c81341c975e2", "is_reserved": 0, "rental_uris": {"ios": "https://dc.lft.to/lastmile_qr_scan", "android": "https://dc.lft.to/lastmile_qr_scan"}, "is_disabled": 0, "lon": -77.0277175, "name": "24344851c0940efb4bc7c81341c975e2", "fusion_lon": 0.0}, {"lat": 38.893567166666664, "fusion_lat": 0.0, "type": "electric_scooter", "bike_id": "47803efabd6c26a4a14d02128129f4c8", "is_reserved": 0, "rental_uris": {"ios": "https://dc.lft.to/lastmile_qr_scan", "android": "https://dc.lft.to/lastmile_qr_scan"}, "is_disabled": 0, "lon": -77.03165283333334, "name": "47803efabd6c26a4a14d02128129f4c8", "fusion_lon": 0.0}, {"lat": 38.90534183333333, "fusion_lat": 0.0, "type": "electric_scooter", "bike_id": "bb7f88dfac4c546c8f180385dc90348c", "is_reserved": 0, "rental_uris": {"ios": "https://dc.lft.to/lastmile_qr_scan", "android": "https://dc.lft.to/lastmile_qr_scan"}, "is_disabled": 0, "lon": -76.981072, "name": "bb7f88dfac4c546c8f180385dc90348c", "fusion_lon": 0.0}, {"lat": 38.896822, "fusion_lat": 0.0, "type": "electric_scooter", "bike_id": "7afc797a66ef5c60cc208d90b8ab8493", "is_reserved": 0, "rental_uris": {"ios": "https://dc.lft.to/lastmile_qr_scan", "android": "https://dc.lft.to/lastmile_qr_scan"}, "is_disabled": 0, "lon": -77.003514, "name": "7afc797a66ef5c60cc208d90b8ab8493", "fusion_lon": 0.0}, {"lat": 38.935393, "fusion_lat": 0.0, "type": "electric_scooter", "bike_id": "3c216aea0c612a2cf026378649c27657", "is_reserved": 0, "rental_uris": {"ios": "https://dc.lft.to/lastmile_qr_scan", "android": "https://dc.lft.to/lastmile_qr_scan"}, "is_disabled": 0, "lon": -77.05823166666667, "name": "3c216aea0c612a2cf026378649c27657", "fusion_lon": 0.0}, {"lat": 38.905100833333336, "fusion_lat": 0.0, "type": "electric_scooter", "bike_id": "b1678d0ed15f0db5c28a72213ec3c576", "is_reserved": 0, "rental_uris": {"ios": "https://dc.lft.to/lastmile_qr_scan", "android": "https://dc.lft.to/lastmile_qr_scan"}, "is_disabled": 0, "lon": -77.00192333333334, "name": "b1678d0ed15f0db5c28a72213ec3c576", "fusion_lon": 0.0}, {"lat": 38.95248566666667, "fusion_lat": 0.0, "type": "electric_bike", "bike_id": "3a2ab9005cb6aa5e48f9275a1bd29745", "is_reserved": 0, "rental_uris": {"ios": "https://dc.lft.to/lastmile_qr_scan", "android": "https://dc.lft.to/lastmile_qr_scan"}, "is_disabled": 0, "lon": -76.97674633333334, "name": "3a2ab9005cb6aa5e48f9275a1bd29745", "fusion_lon": 0.0}, {"lat": 38.922885666666666, "fusion_lat": 0.0, "type": "electric_bike", "bike_id": "f640a96c82e8d52aff66a21e2f3ea9de", "is_reserved": 0, "rental_uris": {"ios": "https://dc.lft.to/lastmile_qr_scan", "android": "https://dc.lft.to/lastmile_qr_scan"}, "is_disabled": 0, "lon": -77.02248, "name": "f640a96c82e8d52aff66a21e2f3ea9de", "fusion_lon": 0.0}, {"lat": 38.93267916666667, "fusion_lat": 0.0, "type": "electric_scooter", "bike_id": "bcfb97a0ea423a8949326955258f6415", "is_reserved": 0, "rental_uris": {"ios": "https://dc.lft.to/lastmile_qr_scan", "android": "https://dc.lft.to/lastmile_qr_scan"}, "is_disabled": 0, "lon": -77.0192395, "name": "bcfb97a0ea423a8949326955258f6415", "fusion_lon": 0.0}, {"lat": 38.938833833333334, "fusion_lat": 0.0, "type": "electric_scooter", "bike_id": "e78238217ac1305f287512bf32efb83e", "is_reserved": 0, "rental_uris": {"ios": "https://dc.lft.to/lastmile_qr_scan", "android": "https://dc.lft.to/lastmile_qr_scan"}, "is_disabled": 0, "lon": -77.02468083333333, "name": "e78238217ac1305f287512bf32efb83e", "fusion_lon": 0.0}, {"lat": 38.902028333333334, "fusion_lat": 0.0, "type": "electric_scooter", "bike_id": "d0c81ec48e9f6e62056758ab7b3a87fd", "is_reserved": 0, "rental_uris": {"ios": "https://dc.lft.to/lastmile_qr_scan", "android": "https://dc.lft.to/lastmile_qr_scan"}, "is_disabled": 0, "lon": -77.02370366666666, "name": "d0c81ec48e9f6e62056758ab7b3a87fd", "fusion_lon": 0.0}, {"lat": 38.906592333333336, "fusion_lat": 0.0, "type": "electric_scooter", "bike_id": "f07988066c95c820c3f780928f42ef32", "is_reserved": 0, "rental_uris": {"ios": "https://dc.lft.to/lastmile_qr_scan", "android": "https://dc.lft.to/lastmile_qr_scan"}, "is_disabled": 0, "lon": -77.01022866666666, "name": "f07988066c95c820c3f780928f42ef32", "fusion_lon": 0.0}, {"lat": 38.919730333333334, "fusion_lat": 0.0, "type": "electric_bike", "bike_id": "08475edd2071818408cae555586a9c86", "is_reserved": 0, "rental_uris": {"ios": "https://dc.lft.to/lastmile_qr_scan", "android": "https://dc.lft.to/lastmile_qr_scan"}, "is_disabled": 0, "lon": -77.0710095, "name": "08475edd2071818408cae555586a9c86", "fusion_lon": 0.0}, {"lat": 38.91706416666667, "fusion_lat": 0.0, "type": "electric_scooter", "bike_id": "345e87d386a30c9c53266d552b7264cc", "is_reserved": 0, "rental_uris": {"ios": "https://dc.lft.to/lastmile_qr_scan", "android": "https://dc.lft.to/lastmile_qr_scan"}, "is_disabled": 0, "lon": -77.024617, "name": "345e87d386a30c9c53266d552b7264cc", "fusion_lon": 0.0}, {"lat": 38.90538, "fusion_lat": 0.0, "type": "electric_scooter", "bike_id": "e5600a7cfa245358afc4e777c2b97d60", "is_reserved": 0, "rental_uris": {"ios": "https://dc.lft.to/lastmile_qr_scan", "android": "https://dc.lft.to/lastmile_qr_scan"}, "is_disabled": 0, "lon": -76.98474216666666, "name": "e5600a7cfa245358afc4e777c2b97d60", "fusion_lon": 0.0}, {"lat": 38.89944, "fusion_lat": 0.0, "type": "electric_scooter", "bike_id": "01b0cc9e1979ae4b102c3b2a0ba53def", "is_reserved": 0, "rental_uris": {"ios": "https://dc.lft.to/lastmile_qr_scan", "android": "https://dc.lft.to/lastmile_qr_scan"}, "is_disabled": 0, "lon": -77.0237675, "name": "01b0cc9e1979ae4b102c3b2a0ba53def", "fusion_lon": 0.0}, {"lat": 38.921077833333335, "fusion_lat": 0.0, "type": "electric_scooter", "bike_id": "7201b2580414c6e2d6801a5b25d7fde3", "is_reserved": 0, "rental_uris": {"ios": "https://dc.lft.to/lastmile_qr_scan", "android": "https://dc.lft.to/lastmile_qr_scan"}, "is_disabled": 0, "lon": -77.01709033333333, "name": "7201b2580414c6e2d6801a5b25d7fde3", "fusion_lon": 0.0}, {"lat": 38.925046333333334, "fusion_lat": 0.0, "type": "electric_scooter", "bike_id": "bbfce5fe4c9aa93fdb26f628125763c8", "is_reserved": 0, "rental_uris": {"ios": "https://dc.lft.to/lastmile_qr_scan", "android": "https://dc.lft.to/lastmile_qr_scan"}, "is_disabled": 0, "lon": -77.02328983333334, "name": "bbfce5fe4c9aa93fdb26f628125763c8", "fusion_lon": 0.0}, {"lat": 38.92603866666666, "fusion_lat": 0.0, "type": "electric_scooter", "bike_id": "1205c42fcf34801294ddb1283e48409e", "is_reserved": 0, "rental_uris": {"ios": "https://dc.lft.to/lastmile_qr_scan", "android": "https://dc.lft.to/lastmile_qr_scan"}, "is_disabled": 0, "lon": -77.02155783333333, "name": "1205c42fcf34801294ddb1283e48409e", "fusion_lon": 0.0}, {"lat": 38.90278566666667, "fusion_lat": 0.0, "type": "electric_scooter", "bike_id": "5c584a4aca109bc02c7f318c74512bce", "is_reserved": 0, "rental_uris": {"ios": "https://dc.lft.to/lastmile_qr_scan", "android": "https://dc.lft.to/lastmile_qr_scan"}, "is_disabled": 0, "lon": -77.01596766666667, "name": "5c584a4aca109bc02c7f318c74512bce", "fusion_lon": 0.0}, {"lat": 38.8763995, "fusion_lat": 0.0, "type": "electric_scooter", "bike_id": "c884c635090ff0d36206d0d3ba50a060", "is_reserved": 0, "rental_uris": {"ios": "https://dc.lft.to/lastmile_qr_scan", "android": "https://dc.lft.to/lastmile_qr_scan"}, "is_disabled": 0, "lon": -77.00453616666667, "name": "c884c635090ff0d36206d0d3ba50a060", "fusion_lon": 0.0}, {"lat": 38.92006416666667, "fusion_lat": 0.0, "type": "electric_scooter", "bike_id": "c68279c8ae28690a56addbbc7aa8edd4", "is_reserved": 0, "rental_uris": {"ios": "https://dc.lft.to/lastmile_qr_scan", "android": "https://dc.lft.to/lastmile_qr_scan"}, "is_disabled": 0, "lon": -77.03315033333334, "name": "c68279c8ae28690a56addbbc7aa8edd4", "fusion_lon": 0.0}, {"lat": 38.932677166666664, "fusion_lat": 0.0, "type": "electric_scooter", "bike_id": "9a8b6f9459b2f922f84779db04ea0790", "is_reserved": 0, "rental_uris": {"ios": "https://dc.lft.to/lastmile_qr_scan", "android": "https://dc.lft.to/lastmile_qr_scan"}, "is_disabled": 0, "lon": -77.03892116666667, "name": "9a8b6f9459b2f922f84779db04ea0790", "fusion_lon": 0.0}, {"lat": 38.90968816666667, "fusion_lat": 0.0, "type": "electric_scooter", "bike_id": "1c5a310f0cf4a370dfbc9b65ee667f7f", "is_reserved": 0, "rental_uris": {"ios": "https://dc.lft.to/lastmile_qr_scan", "android": "https://dc.lft.to/lastmile_qr_scan"}, "is_disabled": 0, "lon": -77.03989233333333, "name": "1c5a310f0cf4a370dfbc9b65ee667f7f", "fusion_lon": 0.0}, {"lat": 38.926687, "fusion_lat": 0.0, "type": "electric_scooter", "bike_id": "60ec9d72492d45793a2fe4b33cabb807", "is_reserved": 0, "rental_uris": {"ios": "https://dc.lft.to/lastmile_qr_scan", "android": "https://dc.lft.to/lastmile_qr_scan"}, "is_disabled": 0, "lon": -76.99548533333333, "name": "60ec9d72492d45793a2fe4b33cabb807", "fusion_lon": 0.0}, {"lat": 38.908638333333336, "fusion_lat": 0.0, "type": "electric_scooter", "bike_id": "a52344aaec216cd18640d0398366ede3", "is_reserved": 0, "rental_uris": {"ios": "https://dc.lft.to/lastmile_qr_scan", "android": "https://dc.lft.to/lastmile_qr_scan"}, "is_disabled": 0, "lon": -77.0322, "name": "a52344aaec216cd18640d0398366ede3", "fusion_lon": 0.0}, {"lat": 38.89865283333334, "fusion_lat": 0.0, "type": "electric_scooter", "bike_id": "b8e1d4f9c801098a4ea4ab4eba689f22", "is_reserved": 0, "rental_uris": {"ios": "https://dc.lft.to/lastmile_qr_scan", "android": "https://dc.lft.to/lastmile_qr_scan"}, "is_disabled": 0, "lon": -76.92753766666667, "name": "b8e1d4f9c801098a4ea4ab4eba689f22", "fusion_lon": 0.0}, {"lat": 38.959451, "fusion_lat": 0.0, "type": "electric_scooter", "bike_id": "545cee7d90f6c3c3b707b3046861fc04", "is_reserved": 0, "rental_uris": {"ios": "https://dc.lft.to/lastmile_qr_scan", "android": "https://dc.lft.to/lastmile_qr_scan"}, "is_disabled": 0, "lon": -77.030498, "name": "545cee7d90f6c3c3b707b3046861fc04", "fusion_lon": 0.0}, {"lat": 38.929719166666665, "fusion_lat": 0.0, "type": "electric_scooter", "bike_id": "9c5795f1d3c1aabb993492ea9352d9e3", "is_reserved": 0, "rental_uris": {"ios": "https://dc.lft.to/lastmile_qr_scan", "android": "https://dc.lft.to/lastmile_qr_scan"}, "is_disabled": 0, "lon": -77.01689116666667, "name": "9c5795f1d3c1aabb993492ea9352d9e3", "fusion_lon": 0.0}, {"lat": 38.90533083333333, "fusion_lat": 0.0, "type": "electric_scooter", "bike_id": "9cad71f91fbc12bce8f3259821114da8", "is_reserved": 0, "rental_uris": {"ios": "https://dc.lft.to/lastmile_qr_scan", "android": "https://dc.lft.to/lastmile_qr_scan"}, "is_disabled": 0, "lon": -77.03090833333333, "name": "9cad71f91fbc12bce8f3259821114da8", "fusion_lon": 0.0}, {"lat": 38.900861666666664, "fusion_lat": 0.0, "type": "electric_scooter", "bike_id": "240352b9d7c96b5296dd93f08d29be1e", "is_reserved": 0, "rental_uris": {"ios": "https://dc.lft.to/lastmile_qr_scan", "android": "https://dc.lft.to/lastmile_qr_scan"}, "is_disabled": 0, "lon": -76.93021683333333, "name": "240352b9d7c96b5296dd93f08d29be1e", "fusion_lon": 0.0}, {"lat": 38.986966333333335, "fusion_lat": 0.0, "type": "electric_scooter", "bike_id": "fc6133a220e64f940e6bf9b7e7c3b6ce", "is_reserved": 0, "rental_uris": {"ios": "https://dc.lft.to/lastmile_qr_scan", "android": "https://dc.lft.to/lastmile_qr_scan"}, "is_disabled": 0, "lon": -77.0297855, "name": "fc6133a220e64f940e6bf9b7e7c3b6ce", "fusion_lon": 0.0}, {"lat": 38.90025833333333, "fusion_lat": 0.0, "type": "electric_scooter", "bike_id": "e776574a920fe393e5f2c736baf819e6", "is_reserved": 0, "rental_uris": {"ios": "https://dc.lft.to/lastmile_qr_scan", "android": "https://dc.lft.to/lastmile_qr_scan"}, "is_disabled": 0, "lon": -76.9993445, "name": "e776574a920fe393e5f2c736baf819e6", "fusion_lon": 0.0}, {"lat": 38.905731333333335, "fusion_lat": 0.0, "type": "electric_bike", "bike_id": "cc595edeb9dd3b55052c1ea317dc9673", "is_reserved": 0, "rental_uris": {"ios": "https://dc.lft.to/lastmile_qr_scan", "android": "https://dc.lft.to/lastmile_qr_scan"}, "is_disabled": 0, "lon": -77.00889583333333, "name": "cc595edeb9dd3b55052c1ea317dc9673", "fusion_lon": 0.0}, {"lat": 38.902734833333334, "fusion_lat": 0.0, "type": "electric_scooter", "bike_id": "185f80c0d8ac7ba1cf2a561352c0970e", "is_reserved": 0, "rental_uris": {"ios": "https://dc.lft.to/lastmile_qr_scan", "android": "https://dc.lft.to/lastmile_qr_scan"}, "is_disabled": 0, "lon": -77.03858916666667, "name": "185f80c0d8ac7ba1cf2a561352c0970e", "fusion_lon": 0.0}, {"lat": 38.911149333333334, "fusion_lat": 0.0, "type": "electric_scooter", "bike_id": "a3fbaa391290596974c3175752dea516", "is_reserved": 0, "rental_uris": {"ios": "https://dc.lft.to/lastmile_qr_scan", "android": "https://dc.lft.to/lastmile_qr_scan"}, "is_disabled": 0, "lon": -77.03918433333334, "name": "a3fbaa391290596974c3175752dea516", "fusion_lon": 0.0}, {"lat": 38.891773666666666, "fusion_lat": 0.0, "type": "electric_scooter", "bike_id": "d9b3c895a5cb2b42b470e8e8a78caccf", "is_reserved": 0, "rental_uris": {"ios": "https://dc.lft.to/lastmile_qr_scan", "android": "https://dc.lft.to/lastmile_qr_scan"}, "is_disabled": 0, "lon": -77.02017216666667, "name": "d9b3c895a5cb2b42b470e8e8a78caccf", "fusion_lon": 0.0}, {"lat": 38.878866, "fusion_lat": 0.0, "type": "electric_bike", "bike_id": "0033da0c7a45e7360b932240929db538", "is_reserved": 0, "rental_uris": {"ios": "https://dc.lft.to/lastmile_qr_scan", "android": "https://dc.lft.to/lastmile_qr_scan"}, "is_disabled": 0, "lon": -77.0961555, "name": "0033da0c7a45e7360b932240929db538", "fusion_lon": 0.0}, {"lat": 38.925127833333335, "fusion_lat": 0.0, "type": "electric_scooter", "bike_id": "5532c06e2bd02aeb0596edbab8a278f8", "is_reserved": 0, "rental_uris": {"ios": "https://dc.lft.to/lastmile_qr_scan", "android": "https://dc.lft.to/lastmile_qr_scan"}, "is_disabled": 0, "lon": -77.023549, "name": "5532c06e2bd02aeb0596edbab8a278f8", "fusion_lon": 0.0}, {"lat": 38.91705366666667, "fusion_lat": 0.0, "type": "electric_scooter", "bike_id": "9f9cbd9234d89b5932a0f928cecb1a64", "is_reserved": 0, "rental_uris": {"ios": "https://dc.lft.to/lastmile_qr_scan", "android": "https://dc.lft.to/lastmile_qr_scan"}, "is_disabled": 0, "lon": -77.0426975, "name": "9f9cbd9234d89b5932a0f928cecb1a64", "fusion_lon": 0.0}, {"lat": 38.92792266666667, "fusion_lat": 0.0, "type": "electric_scooter", "bike_id": "c87406da9ec3adc44920de68f85727d8", "is_reserved": 0, "rental_uris": {"ios": "https://dc.lft.to/lastmile_qr_scan", "android": "https://dc.lft.to/lastmile_qr_scan"}, "is_disabled": 0, "lon": -77.022066, "name": "c87406da9ec3adc44920de68f85727d8", "fusion_lon": 0.0}, {"lat": 38.91567516666667, "fusion_lat": 0.0, "type": "electric_scooter", "bike_id": "ad9d5efe4d20cf144651ccd2f726debb", "is_reserved": 0, "rental_uris": {"ios": "https://dc.lft.to/lastmile_qr_scan", "android": "https://dc.lft.to/lastmile_qr_scan"}, "is_disabled": 0, "lon": -77.032406, "name": "ad9d5efe4d20cf144651ccd2f726debb", "fusion_lon": 0.0}, {"lat": 38.9177365, "fusion_lat": 0.0, "type": "electric_scooter", "bike_id": "0e5bb2dea959af613735232d9036579a", "is_reserved": 0, "rental_uris": {"ios": "https://dc.lft.to/lastmile_qr_scan", "android": "https://dc.lft.to/lastmile_qr_scan"}, "is_disabled": 0, "lon": -77.04060083333333, "name": "0e5bb2dea959af613735232d9036579a", "fusion_lon": 0.0}, {"lat": 38.91129216666667, "fusion_lat": 0.0, "type": "electric_scooter", "bike_id": "060bdc39e45a6e676a1658135600041d", "is_reserved": 0, "rental_uris": {"ios": "https://dc.lft.to/lastmile_qr_scan", "android": "https://dc.lft.to/lastmile_qr_scan"}, "is_disabled": 0, "lon": -77.0319715, "name": "060bdc39e45a6e676a1658135600041d", "fusion_lon": 0.0}, {"lat": 38.898565, "fusion_lat": 0.0, "type": "electric_scooter", "bike_id": "019a90e24a3f4472ec2a8b161f640662", "is_reserved": 0, "rental_uris": {"ios": "https://dc.lft.to/lastmile_qr_scan", "android": "https://dc.lft.to/lastmile_qr_scan"}, "is_disabled": 0, "lon": -77.03371316666667, "name": "019a90e24a3f4472ec2a8b161f640662", "fusion_lon": 0.0}, {"lat": 38.911492, "fusion_lat": 0.0, "type": "electric_scooter", "bike_id": "6067d318d9ec1a762a502e59df51edbd", "is_reserved": 0, "rental_uris": {"ios": "https://dc.lft.to/lastmile_qr_scan", "android": "https://dc.lft.to/lastmile_qr_scan"}, "is_disabled": 0, "lon": -77.03836466666667, "name": "6067d318d9ec1a762a502e59df51edbd", "fusion_lon": 0.0}, {"lat": 38.92312016666666, "fusion_lat": 0.0, "type": "electric_scooter", "bike_id": "113d5a6be4a5abcff26a4ce3cbce36d8", "is_reserved": 0, "rental_uris": {"ios": "https://dc.lft.to/lastmile_qr_scan", "android": "https://dc.lft.to/lastmile_qr_scan"}, "is_disabled": 0, "lon": -77.03535766666667, "name": "113d5a6be4a5abcff26a4ce3cbce36d8", "fusion_lon": 0.0}, {"lat": 38.897091833333334, "fusion_lat": 0.0, "type": "electric_scooter", "bike_id": "4e15ce49a9df144a2eab0e6445075b48", "is_reserved": 0, "rental_uris": {"ios": "https://dc.lft.to/lastmile_qr_scan", "android": "https://dc.lft.to/lastmile_qr_scan"}, "is_disabled": 0, "lon": -77.03175133333333, "name": "4e15ce49a9df144a2eab0e6445075b48", "fusion_lon": 0.0}, {"lat": 38.90855116666667, "fusion_lat": 0.0, "type": "electric_scooter", "bike_id": "0b91429ae89b66b78ef29d15f79d6748", "is_reserved": 0, "rental_uris": {"ios": "https://dc.lft.to/lastmile_qr_scan", "android": "https://dc.lft.to/lastmile_qr_scan"}, "is_disabled": 0, "lon": -77.0254515, "name": "0b91429ae89b66b78ef29d15f79d6748", "fusion_lon": 0.0}, {"lat": 38.838407, "fusion_lat": 0.0, "type": "electric_bike", "bike_id": "4978b3a1e2d25d9d2419b4f550c94e4d", "is_reserved": 0, "rental_uris": {"ios": "https://dc.lft.to/lastmile_qr_scan", "android": "https://dc.lft.to/lastmile_qr_scan"}, "is_disabled": 0, "lon": -77.002267, "name": "4978b3a1e2d25d9d2419b4f550c94e4d", "fusion_lon": 0.0}, {"lat": 38.889138, "fusion_lat": 0.0, "type": "electric_scooter", "bike_id": "5b2405a2a59897991797786e23e88857", "is_reserved": 0, "rental_uris": {"ios": "https://dc.lft.to/lastmile_qr_scan", "android": "https://dc.lft.to/lastmile_qr_scan"}, "is_disabled": 0, "lon": -76.99173983333333, "name": "5b2405a2a59897991797786e23e88857", "fusion_lon": 0.0}, {"lat": 38.932606, "fusion_lat": 0.0, "type": "electric_scooter", "bike_id": "cb399c5f421a97b695b4a1831f98609a", "is_reserved": 0, "rental_uris": {"ios": "https://dc.lft.to/lastmile_qr_scan", "android": "https://dc.lft.to/lastmile_qr_scan"}, "is_disabled": 0, "lon": -77.03857066666667, "name": "cb399c5f421a97b695b4a1831f98609a", "fusion_lon": 0.0}, {"lat": 38.90561233333333, "fusion_lat": 0.0, "type": "electric_scooter", "bike_id": "b4c6f49b364cc421dda1fa1a61edeb29", "is_reserved": 0, "rental_uris": {"ios": "https://dc.lft.to/lastmile_qr_scan", "android": "https://dc.lft.to/lastmile_qr_scan"}, "is_disabled": 0, "lon": -77.041407, "name": "b4c6f49b364cc421dda1fa1a61edeb29", "fusion_lon": 0.0}, {"lat": 38.83538166666666, "fusion_lat": 0.0, "type": "electric_bike", "bike_id": "1658a841a8da6068da315c409dd25334", "is_reserved": 0, "rental_uris": {"ios": "https://dc.lft.to/lastmile_qr_scan", "android": "https://dc.lft.to/lastmile_qr_scan"}, "is_disabled": 0, "lon": -76.98722816666667, "name": "1658a841a8da6068da315c409dd25334", "fusion_lon": 0.0}, {"lat": 38.9349835, "fusion_lat": 0.0, "type": "electric_scooter", "bike_id": "7cfd619bede46fa9e4191306f22e875f", "is_reserved": 0, "rental_uris": {"ios": "https://dc.lft.to/lastmile_qr_scan", "android": "https://dc.lft.to/lastmile_qr_scan"}, "is_disabled": 0, "lon": -77.03525483333334, "name": "7cfd619bede46fa9e4191306f22e875f", "fusion_lon": 0.0}, {"lat": 38.89969166666667, "fusion_lat": 0.0, "type": "electric_scooter", "bike_id": "9e8f385de682e9aa6f8e61e07fd18544", "is_reserved": 0, "rental_uris": {"ios": "https://dc.lft.to/lastmile_qr_scan", "android": "https://dc.lft.to/lastmile_qr_scan"}, "is_disabled": 0, "lon": -77.02182316666666, "name": "9e8f385de682e9aa6f8e61e07fd18544", "fusion_lon": 0.0}, {"lat": 38.91, "fusion_lat": 0.0, "type": "electric_scooter", "bike_id": "176aed5a839ecfff5f02b768b6555c25", "is_reserved": 0, "rental_uris": {"ios": "https://dc.lft.to/lastmile_qr_scan", "android": "https://dc.lft.to/lastmile_qr_scan"}, "is_disabled": 0, "lon": -77.0435815, "name": "176aed5a839ecfff5f02b768b6555c25", "fusion_lon": 0.0}, {"lat": 38.96228766666667, "fusion_lat": 0.0, "type": "electric_bike", "bike_id": "3b15ffc31298264bddfd232ca7548ef6", "is_reserved": 0, "rental_uris": {"ios": "https://dc.lft.to/lastmile_qr_scan", "android": "https://dc.lft.to/lastmile_qr_scan"}, "is_disabled": 0, "lon": -77.0262355, "name": "3b15ffc31298264bddfd232ca7548ef6", "fusion_lon": 0.0}, {"lat": 38.900166, "fusion_lat": 0.0, "type": "electric_scooter", "bike_id": "64af334052c5a36bd3a56eadcc4693f5", "is_reserved": 0, "rental_uris": {"ios": "https://dc.lft.to/lastmile_qr_scan", "android": "https://dc.lft.to/lastmile_qr_scan"}, "is_disabled": 0, "lon": -76.99352133333333, "name": "64af334052c5a36bd3a56eadcc4693f5", "fusion_lon": 0.0}, {"lat": 38.906035, "fusion_lat": 0.0, "type": "electric_scooter", "bike_id": "fb935826b1f2298b56e64bc5d36f3de3", "is_reserved": 0, "rental_uris": {"ios": "https://dc.lft.to/lastmile_qr_scan", "android": "https://dc.lft.to/lastmile_qr_scan"}, "is_disabled": 0, "lon": -77.02109283333333, "name": "fb935826b1f2298b56e64bc5d36f3de3", "fusion_lon": 0.0}, {"lat": 38.901446166666666, "fusion_lat": 0.0, "type": "electric_scooter", "bike_id": "2eac3bce10f0e4a941a896f0e75a703a", "is_reserved": 0, "rental_uris": {"ios": "https://dc.lft.to/lastmile_qr_scan", "android": "https://dc.lft.to/lastmile_qr_scan"}, "is_disabled": 0, "lon": -77.04351366666667, "name": "2eac3bce10f0e4a941a896f0e75a703a", "fusion_lon": 0.0}, {"lat": 38.9324075, "fusion_lat": 0.0, "type": "electric_scooter", "bike_id": "0b35fe0ca091e123d1249516cf0ff108", "is_reserved": 0, "rental_uris": {"ios": "https://dc.lft.to/lastmile_qr_scan", "android": "https://dc.lft.to/lastmile_qr_scan"}, "is_disabled": 0, "lon": -76.99537233333334, "name": "0b35fe0ca091e123d1249516cf0ff108", "fusion_lon": 0.0}, {"lat": 38.917101, "fusion_lat": 0.0, "type": "electric_scooter", "bike_id": "c8f1f98cf8e2bbb8ff71faa982cf3fd1", "is_reserved": 0, "rental_uris": {"ios": "https://dc.lft.to/lastmile_qr_scan", "android": "https://dc.lft.to/lastmile_qr_scan"}, "is_disabled": 0, "lon": -77.03158766666667, "name": "c8f1f98cf8e2bbb8ff71faa982cf3fd1", "fusion_lon": 0.0}, {"lat": 38.88301, "fusion_lat": 0.0, "type": "electric_scooter", "bike_id": "b09e011b2172f925c8061dede02f7d36", "is_reserved": 0, "rental_uris": {"ios": "https://dc.lft.to/lastmile_qr_scan", "android": "https://dc.lft.to/lastmile_qr_scan"}, "is_disabled": 0, "lon": -76.94856583333333, "name": "b09e011b2172f925c8061dede02f7d36", "fusion_lon": 0.0}, {"lat": 38.92330033333333, "fusion_lat": 0.0, "type": "electric_scooter", "bike_id": "de291d4896b49b36e7450124b064ab10", "is_reserved": 0, "rental_uris": {"ios": "https://dc.lft.to/lastmile_qr_scan", "android": "https://dc.lft.to/lastmile_qr_scan"}, "is_disabled": 0, "lon": -77.0297445, "name": "de291d4896b49b36e7450124b064ab10", "fusion_lon": 0.0}, {"lat": 38.96961966666667, "fusion_lat": 0.0, "type": "electric_bike", "bike_id": "bf261cc29d9d3c494c2bb3ba412d4adf", "is_reserved": 0, "rental_uris": {"ios": "https://dc.lft.to/lastmile_qr_scan", "android": "https://dc.lft.to/lastmile_qr_scan"}, "is_disabled": 0, "lon": -76.95750466666667, "name": "bf261cc29d9d3c494c2bb3ba412d4adf", "fusion_lon": 0.0}, {"lat": 38.906224, "fusion_lat": 0.0, "type": "electric_scooter", "bike_id": "ecac76912ce28f00f2ae31650b2f7d5f", "is_reserved": 0, "rental_uris": {"ios": "https://dc.lft.to/lastmile_qr_scan", "android": "https://dc.lft.to/lastmile_qr_scan"}, "is_disabled": 0, "lon": -77.02819133333334, "name": "ecac76912ce28f00f2ae31650b2f7d5f", "fusion_lon": 0.0}, {"lat": 38.864759, "fusion_lat": 0.0, "type": "electric_scooter", "bike_id": "394128ef3d1850bd38ef471b7535d953", "is_reserved": 0, "rental_uris": {"ios": "https://dc.lft.to/lastmile_qr_scan", "android": "https://dc.lft.to/lastmile_qr_scan"}, "is_disabled": 0, "lon": -76.977412, "name": "394128ef3d1850bd38ef471b7535d953", "fusion_lon": 0.0}, {"lat": 38.89788216666667, "fusion_lat": 0.0, "type": "electric_scooter", "bike_id": "d703c8f48295b6dfd8e4be93e91b1ad9", "is_reserved": 0, "rental_uris": {"ios": "https://dc.lft.to/lastmile_qr_scan", "android": "https://dc.lft.to/lastmile_qr_scan"}, "is_disabled": 0, "lon": -77.0448745, "name": "d703c8f48295b6dfd8e4be93e91b1ad9", "fusion_lon": 0.0}, {"lat": 38.9241565, "fusion_lat": 0.0, "type": "electric_scooter", "bike_id": "a9656f1e05cd721ffd506364f18ce471", "is_reserved": 0, "rental_uris": {"ios": "https://dc.lft.to/lastmile_qr_scan", "android": "https://dc.lft.to/lastmile_qr_scan"}, "is_disabled": 0, "lon": -77.020148, "name": "a9656f1e05cd721ffd506364f18ce471", "fusion_lon": 0.0}, {"lat": 38.916918333333335, "fusion_lat": 0.0, "type": "electric_scooter", "bike_id": "3d9495fb9fd4121a268cb502a07fc98c", "is_reserved": 0, "rental_uris": {"ios": "https://dc.lft.to/lastmile_qr_scan", "android": "https://dc.lft.to/lastmile_qr_scan"}, "is_disabled": 0, "lon": -77.02703433333333, "name": "3d9495fb9fd4121a268cb502a07fc98c", "fusion_lon": 0.0}, {"lat": 38.915834, "fusion_lat": 0.0, "type": "electric_scooter", "bike_id": "2b83b15c31edc4662f9731a7e2d78689", "is_reserved": 0, "rental_uris": {"ios": "https://dc.lft.to/lastmile_qr_scan", "android": "https://dc.lft.to/lastmile_qr_scan"}, "is_disabled": 0, "lon": -77.04497766666667, "name": "2b83b15c31edc4662f9731a7e2d78689", "fusion_lon": 0.0}, {"lat": 38.93548783333333, "fusion_lat": 0.0, "type": "electric_scooter", "bike_id": "a8e83868412244870049e8ffb201e18d", "is_reserved": 0, "rental_uris": {"ios": "https://dc.lft.to/lastmile_qr_scan", "android": "https://dc.lft.to/lastmile_qr_scan"}, "is_disabled": 0, "lon": -77.058591, "name": "a8e83868412244870049e8ffb201e18d", "fusion_lon": 0.0}, {"lat": 38.799849, "fusion_lat": 0.0, "type": "electric_bike", "bike_id": "8d6179f64f753cfc6fee91add98b4927", "is_reserved": 0, "rental_uris": {"ios": "https://dc.lft.to/lastmile_qr_scan", "android": "https://dc.lft.to/lastmile_qr_scan"}, "is_disabled": 0, "lon": -77.12977666666667, "name": "8d6179f64f753cfc6fee91add98b4927", "fusion_lon": 0.0}, {"lat": 38.91675033333333, "fusion_lat": 0.0, "type": "electric_scooter", "bike_id": "6b5bb244939795ff1812f6bcf97b9d82", "is_reserved": 0, "rental_uris": {"ios": "https://dc.lft.to/lastmile_qr_scan", "android": "https://dc.lft.to/lastmile_qr_scan"}, "is_disabled": 0, "lon": -77.03689833333334, "name": "6b5bb244939795ff1812f6bcf97b9d82", "fusion_lon": 0.0}, {"lat": 38.920227, "fusion_lat": 0.0, "type": "electric_scooter", "bike_id": "7a57dc6c7730cc1e13356a498e137c35", "is_reserved": 0, "rental_uris": {"ios": "https://dc.lft.to/lastmile_qr_scan", "android": "https://dc.lft.to/lastmile_qr_scan"}, "is_disabled": 0, "lon": -77.02073566666667, "name": "7a57dc6c7730cc1e13356a498e137c35", "fusion_lon": 0.0}, {"lat": 38.9089465, "fusion_lat": 0.0, "type": "electric_scooter", "bike_id": "6ecea5d673cd6446639cd8a2278869d2", "is_reserved": 0, "rental_uris": {"ios": "https://dc.lft.to/lastmile_qr_scan", "android": "https://dc.lft.to/lastmile_qr_scan"}, "is_disabled": 0, "lon": -77.04477183333333, "name": "6ecea5d673cd6446639cd8a2278869d2", "fusion_lon": 0.0}, {"lat": 38.8623945, "fusion_lat": 0.0, "type": "electric_scooter", "bike_id": "dc6f4e38c26daeec4284bb2d65f65c84", "is_reserved": 0, "rental_uris": {"ios": "https://dc.lft.to/lastmile_qr_scan", "android": "https://dc.lft.to/lastmile_qr_scan"}, "is_disabled": 0, "lon": -76.99517283333333, "name": "dc6f4e38c26daeec4284bb2d65f65c84", "fusion_lon": 0.0}, {"lat": 38.900160166666666, "fusion_lat": 0.0, "type": "electric_scooter", "bike_id": "282c09f54f99c724cb87634e46202611", "is_reserved": 0, "rental_uris": {"ios": "https://dc.lft.to/lastmile_qr_scan", "android": "https://dc.lft.to/lastmile_qr_scan"}, "is_disabled": 0, "lon": -76.99864466666666, "name": "282c09f54f99c724cb87634e46202611", "fusion_lon": 0.0}, {"lat": 38.934809333333334, "fusion_lat": 0.0, "type": "electric_scooter", "bike_id": "9b038c97d3259dcadb619e7db676ca5e", "is_reserved": 0, "rental_uris": {"ios": "https://dc.lft.to/lastmile_qr_scan", "android": "https://dc.lft.to/lastmile_qr_scan"}, "is_disabled": 0, "lon": -77.035822, "name": "9b038c97d3259dcadb619e7db676ca5e", "fusion_lon": 0.0}, {"lat": 38.91031666666667, "fusion_lat": 0.0, "type": "electric_scooter", "bike_id": "60919bb8ea3465c740cf0d0983219d7a", "is_reserved": 0, "rental_uris": {"ios": "https://dc.lft.to/lastmile_qr_scan", "android": "https://dc.lft.to/lastmile_qr_scan"}, "is_disabled": 0, "lon": -77.04876016666667, "name": "60919bb8ea3465c740cf0d0983219d7a", "fusion_lon": 0.0}, {"lat": 38.90467566666667, "fusion_lat": 0.0, "type": "electric_scooter", "bike_id": "ea4a464de72297b087e3c6e4ff0c1e96", "is_reserved": 0, "rental_uris": {"ios": "https://dc.lft.to/lastmile_qr_scan", "android": "https://dc.lft.to/lastmile_qr_scan"}, "is_disabled": 0, "lon": -77.03561066666667, "name": "ea4a464de72297b087e3c6e4ff0c1e96", "fusion_lon": 0.0}, {"lat": 38.93192716666667, "fusion_lat": 0.0, "type": "electric_scooter", "bike_id": "b8866de2fb8d0a0954736f7f497066e0", "is_reserved": 0, "rental_uris": {"ios": "https://dc.lft.to/lastmile_qr_scan", "android": "https://dc.lft.to/lastmile_qr_scan"}, "is_disabled": 0, "lon": -77.04531883333334, "name": "b8866de2fb8d0a0954736f7f497066e0", "fusion_lon": 0.0}, {"lat": 38.8130895, "fusion_lat": 0.0, "type": "electric_bike", "bike_id": "3ebddd65c4ec294452aaaadb75a2c9cc", "is_reserved": 0, "rental_uris": {"ios": "https://dc.lft.to/lastmile_qr_scan", "android": "https://dc.lft.to/lastmile_qr_scan"}, "is_disabled": 0, "lon": -77.10958033333333, "name": "3ebddd65c4ec294452aaaadb75a2c9cc", "fusion_lon": 0.0}, {"lat": 38.89743133333333, "fusion_lat": 0.0, "type": "electric_scooter", "bike_id": "1f6d4f1e1e46435645eab1a551972c43", "is_reserved": 0, "rental_uris": {"ios": "https://dc.lft.to/lastmile_qr_scan", "android": "https://dc.lft.to/lastmile_qr_scan"}, "is_disabled": 0, "lon": -76.99753683333333, "name": "1f6d4f1e1e46435645eab1a551972c43", "fusion_lon": 0.0}, {"lat": 38.923540333333335, "fusion_lat": 0.0, "type": "electric_scooter", "bike_id": "d5e46def6031c4f79cb2bfe61d5010e4", "is_reserved": 0, "rental_uris": {"ios": "https://dc.lft.to/lastmile_qr_scan", "android": "https://dc.lft.to/lastmile_qr_scan"}, "is_disabled": 0, "lon": -77.05097833333333, "name": "d5e46def6031c4f79cb2bfe61d5010e4", "fusion_lon": 0.0}, {"lat": 38.874763, "fusion_lat": 0.0, "type": "electric_bike", "bike_id": "3cac362d9c4b2e1a1788aa9546b6c596", "is_reserved": 0, "rental_uris": {"ios": "https://dc.lft.to/lastmile_qr_scan", "android": "https://dc.lft.to/lastmile_qr_scan"}, "is_disabled": 0, "lon": -76.96532016666667, "name": "3cac362d9c4b2e1a1788aa9546b6c596", "fusion_lon": 0.0}, {"lat": 38.9174685, "fusion_lat": 0.0, "type": "electric_scooter", "bike_id": "c2811aca1e25f1da856f9163511b3dc4", "is_reserved": 0, "rental_uris": {"ios": "https://dc.lft.to/lastmile_qr_scan", "android": "https://dc.lft.to/lastmile_qr_scan"}, "is_disabled": 0, "lon": -77.02806466666667, "name": "c2811aca1e25f1da856f9163511b3dc4", "fusion_lon": 0.0}, {"lat": 38.924148333333335, "fusion_lat": 0.0, "type": "electric_scooter", "bike_id": "d2f7f9decf93f74e1525306fc67f0256", "is_reserved": 0, "rental_uris": {"ios": "https://dc.lft.to/lastmile_qr_scan", "android": "https://dc.lft.to/lastmile_qr_scan"}, "is_disabled": 0, "lon": -77.05063783333334, "name": "d2f7f9decf93f74e1525306fc67f0256", "fusion_lon": 0.0}, {"lat": 38.916901833333334, "fusion_lat": 0.0, "type": "electric_scooter", "bike_id": "e5a75600195cf358373fca55cfc223f4", "is_reserved": 0, "rental_uris": {"ios": "https://dc.lft.to/lastmile_qr_scan", "android": "https://dc.lft.to/lastmile_qr_scan"}, "is_disabled": 0, "lon": -77.03493366666666, "name": "e5a75600195cf358373fca55cfc223f4", "fusion_lon": 0.0}, {"lat": 38.92872666666667, "fusion_lat": 0.0, "type": "electric_scooter", "bike_id": "0882f08e0f26b49c91d9d5047514cb73", "is_reserved": 0, "rental_uris": {"ios": "https://dc.lft.to/lastmile_qr_scan", "android": "https://dc.lft.to/lastmile_qr_scan"}, "is_disabled": 0, "lon": -77.03411183333333, "name": "0882f08e0f26b49c91d9d5047514cb73", "fusion_lon": 0.0}, {"lat": 38.907484833333335, "fusion_lat": 0.0, "type": "electric_scooter", "bike_id": "0c59138951dc966860377cf08a1ceee1", "is_reserved": 0, "rental_uris": {"ios": "https://dc.lft.to/lastmile_qr_scan", "android": "https://dc.lft.to/lastmile_qr_scan"}, "is_disabled": 0, "lon": -77.031832, "name": "0c59138951dc966860377cf08a1ceee1", "fusion_lon": 0.0}, {"lat": 38.914197333333334, "fusion_lat": 0.0, "type": "electric_scooter", "bike_id": "e553992bc7d2f944ab7f7a639fed8883", "is_reserved": 0, "rental_uris": {"ios": "https://dc.lft.to/lastmile_qr_scan", "android": "https://dc.lft.to/lastmile_qr_scan"}, "is_disabled": 0, "lon": -77.04919066666666, "name": "e553992bc7d2f944ab7f7a639fed8883", "fusion_lon": 0.0}, {"lat": 38.885154166666666, "fusion_lat": 0.0, "type": "electric_scooter", "bike_id": "4b5aa25793537ecba7992c6682df8841", "is_reserved": 0, "rental_uris": {"ios": "https://dc.lft.to/lastmile_qr_scan", "android": "https://dc.lft.to/lastmile_qr_scan"}, "is_disabled": 0, "lon": -77.002757, "name": "4b5aa25793537ecba7992c6682df8841", "fusion_lon": 0.0},