{"data": {"bikes": [{"is_disabled": 0, "fusion_lon": 0.0, "fusion_lat": 0.0, "lat": 38.937203, "type": "electric_scooter", "lon": -77.0246075, "bike_id": "e4d12eaf6dae3310448bdd950c082d8c", "rental_uris": {"android": "https://dc.lft.to/lastmile_qr_scan", "ios": "https://dc.lft.to/lastmile_qr_scan"}, "name": "e4d12eaf6dae3310448bdd950c082d8c", "is_reserved": 0}, {"is_disabled": 0, "fusion_lon": 0.0, "fusion_lat": 0.0, "lat": 38.9332245, "type": "electric_scooter", "lon": -77.03280766666667, "bike_id": "c59b79328b7fb36ec0bdff8917eb4c7b", "rental_uris": {"android": "https://dc.lft.to/lastmile_qr_scan", "ios": "https://dc.lft.to/lastmile_qr_scan"}, "name": "c59b79328b7fb36ec0bdff8917eb4c7b", "is_reserved": 0}, {"is_disabled": 0, "fusion_lon": 0.0, "fusion_lat": 0.0, "lat": 38.91054916666667, "type": "electric_scooter", "lon": -77.02287916666667, "bike_id": "f194cf6c55f3be5ed6ced500b296256a", "rental_uris": {"android": "https://dc.lft.to/lastmile_qr_scan", "ios": "https://dc.lft.to/lastmile_qr_scan"}, "name": "f194cf6c55f3be5ed6ced500b296256a", "is_reserved": 0}, {"is_disabled": 0, "fusion_lon": 0.0, "fusion_lat": 0.0, "lat": 38.91623533333333, "type": "electric_scooter", "lon": -77.0349915, "bike_id": "02e8d0240d018768eca3024f4c1101e2", "rental_uris": {"android": "https://dc.lft.to/lastmile_qr_scan", "ios": "https://dc.lft.to/lastmile_qr_scan"}, "name": "02e8d0240d018768eca3024f4c1101e2", "is_reserved": 0}, {"is_disabled": 0, "fusion_lon": 0.0, "fusion_lat": 0.0, "lat": 38.897275, "type": "electric_scooter", "lon": -77.0216965, "bike_id": "eae850dcb6251d7bf78a542700c5a799", "rental_uris": {"android": "https://dc.lft.to/lastmile_qr_scan", "ios": "https://dc.lft.to/lastmile_qr_scan"}, "name": "eae850dcb6251d7bf78a542700c5a799", "is_reserved": 0}, {"is_disabled": 0, "fusion_lon": 0.0, "fusion_lat": 0.0, "lat": 38.90390516666667, "type": "electric_scooter", "lon": -76.98999933333333, "bike_id": "7324f3c6443c808912f80b8d6d028f4f", "rental_uris": {"android": "https://dc.lft.to/lastmile_qr_scan", "ios": "https://dc.lft.to/lastmile_qr_scan"}, "name": "7324f3c6443c808912f80b8d6d028f4f", "is_reserved": 0}, {"is_disabled": 0, "fusion_lon": 0.0, "fusion_lat": 0.0, "lat": 38.94623983333334, "type": "electric_bike", "lon": -76.93412616666667, "bike_id": "bf9b6ad946ef9c527b8662e55a965d5c", "rental_uris": {"android": "https://dc.lft.to/lastmile_qr_scan", "ios": "https://dc.lft.to/lastmile_qr_scan"}, "name": "bf9b6ad946ef9c527b8662e55a965d5c", "is_reserved": 0}, {"is_disabled": 0, "fusion_lon": 0.0, "fusion_lat": 0.0, "lat": 38.92465083333333, "type": "electric_scooter", "lon": -77.02967733333334, "bike_id": "513d7f937905e6caba50fed81a93427a", "rental_uris": {"android": "https://dc.lft.to/lastmile_qr_scan", "ios": "https://dc.lft.to/lastmile_qr_scan"}, "name": "513d7f937905e6caba50fed81a93427a", "is_reserved": 0}, {"is_disabled": 0, "fusion_lon": 0.0, "fusion_lat": 0.0, "lat": 38.90274383333333, "type": "electric_scooter", "lon": -77.02380266666667, "bike_id": "1aac3afbb786c582458cce0783dcb7f4", "rental_uris": {"android": "https://dc.lft.to/lastmile_qr_scan", "ios": "https://dc.lft.to/lastmile_qr_scan"}, "name": "1aac3afbb786c582458cce0783dcb7f4", "is_reserved": 0}, {"is_disabled": 0, "fusion_lon": 0.0, "fusion_lat": 0.0, "lat": 38.91549716666667, "type": "electric_scooter", "lon": -77.038446, "bike_id": "d730b80b24b2135a7a0fe7198334662c", "rental_uris": {"android": "https://dc.lft.to/lastmile_qr_scan", "ios": "https://dc.lft.to/lastmile_qr_scan"}, "name": "d730b80b24b2135a7a0fe7198334662c", "is_reserved": 0}, {"is_disabled": 0, "fusion_lon": 0.0, "fusion_lat": 0.0, "lat": 38.94498733333333, "type": "electric_bike", "lon": -76.98659266666667, "bike_id": "d2a26dcf72a948abb369bcd54d0e7b3f", "rental_uris": {"android": "https://dc.lft.to/lastmile_qr_scan", "ios": "https://dc.lft.to/lastmile_qr_scan"}, "name": "d2a26dcf72a948abb369bcd54d0e7b3f", "is_reserved": 0}, {"is_disabled": 0, "fusion_lon": 0.0, "fusion_lat": 0.0, "lat": 38.9354715, "type": "electric_scooter", "lon": -77.05811383333334, "bike_id": "7adc29056e422ac428657e97a4c63ef2", "rental_uris": {"android": "https://dc.lft.to/lastmile_qr_scan", "ios": "https://dc.lft.to/lastmile_qr_scan"}, "name": "7adc29056e422ac428657e97a4c63ef2", "is_reserved": 0}, {"is_disabled": 0, "fusion_lon": 0.0, "fusion_lat": 0.0, "lat": 38.91405616666667, "type": "electric_scooter", "lon": -77.00327716666666, "bike_id": "9f21f629492142c0ee07db71838151da", "rental_uris": {"android": "https://dc.lft.to/lastmile_qr_scan", "ios": "https://dc.lft.to/lastmile_qr_scan"}, "name": "9f21f629492142c0ee07db71838151da", "is_reserved": 0}, {"is_disabled": 0, "fusion_lon": 0.0, "fusion_lat": 0.0, "lat": 38.929252, "type": "electric_scooter", "lon": -77.032822, "bike_id": "62d4a8b92b461275ca20d9d260fed766", "rental_uris": {"android": "https://dc.lft.to/lastmile_qr_scan", "ios": "https://dc.lft.to/lastmile_qr_scan"}, "name": "62d4a8b92b461275ca20d9d260fed766", "is_reserved": 0}, {"is_disabled": 0, "fusion_lon": 0.0, "fusion_lat": 0.0, "lat": 38.89499966666666, "type": "electric_scooter", "lon": -77.02282616666666, "bike_id": "467cb3fc1e6109254fd58e9c348eb858", "rental_uris": {"android": "https://dc.lft.to/lastmile_qr_scan", "ios": "https://dc.lft.to/lastmile_qr_scan"}, "name": "467cb3fc1e6109254fd58e9c348eb858", "is_reserved": 0}, {"is_disabled": 0, "fusion_lon": 0.0, "fusion_lat": 0.0, "lat": 38.9192375, "type": "electric_scooter", "lon": -77.0251475, "bike_id": "c6cd73d4a990439d67e75d8f26026d63", "rental_uris": {"android": "https://dc.lft.to/lastmile_qr_scan", "ios": "https://dc.lft.to/lastmile_qr_scan"}, "name": "c6cd73d4a990439d67e75d8f26026d63", "is_reserved": 0}, {"is_disabled": 0, "fusion_lon": 0.0, "fusion_lat": 0.0, "lat": 38.92431416666667, "type": "electric_scooter", "lon": -77.04475833333333, "bike_id": "d78af2c900b71030cf83fc84186256b2", "rental_uris": {"android": "https://dc.lft.to/lastmile_qr_scan", "ios": "https://dc.lft.to/lastmile_qr_scan"}, "name": "d78af2c900b71030cf83fc84186256b2", "is_reserved": 0}, {"is_disabled": 0, "fusion_lon": 0.0, "fusion_lat": 0.0, "lat": 38.895715333333335, "type": "electric_scooter", "lon": -77.02306916666667, "bike_id": "1acdf79eb0f05879025c32590a47ee38", "rental_uris": {"android": "https://dc.lft.to/lastmile_qr_scan", "ios": "https://dc.lft.to/lastmile_qr_scan"}, "name": "1acdf79eb0f05879025c32590a47ee38", "is_reserved": 0}, {"is_disabled": 0, "fusion_lon": 0.0, "fusion_lat": 0.0, "lat": 38.94309166666667, "type": "electric_scooter", "lon": -77.02349883333333, "bike_id": "d9a457669991c1a0717aefc8725db832", "rental_uris": {"android": "https://dc.lft.to/lastmile_qr_scan", "ios": "https://dc.lft.to/lastmile_qr_scan"}, "name": "d9a457669991c1a0717aefc8725db832", "is_reserved": 0}, {"is_disabled": 0, "fusion_lon": 0.0, "fusion_lat": 0.0, "lat": 38.9388155, "type": "electric_scooter", "lon": -77.03321816666667, "bike_id": "c8f9a4f8f1eb9eba722008ab7157a7e4", "rental_uris": {"android": "https://dc.lft.to/lastmile_qr_scan", "ios": "https://dc.lft.to/lastmile_qr_scan"}, "name": "c8f9a4f8f1eb9eba722008ab7157a7e4", "is_reserved": 0}, {"is_disabled": 0, "fusion_lon": 0.0, "fusion_lat": 0.0, "lat": 39.115191333333335, "type": "electric_bike", "lon": -77.19540666666667, "bike_id": "3c34e7b5b5b7fc25a9038ed9f6136d96", "rental_uris": {"android": "https://dc.lft.to/lastmile_qr_scan", "ios": "https://dc.lft.to/lastmile_qr_scan"}, "name": "3c34e7b5b5b7fc25a9038ed9f6136d96", "is_reserved": 0}, {"is_disabled": 0, "fusion_lon": 0.0, "fusion_lat": 0.0, "lat": 38.93050233333334, "type": "electric_scooter", "lon": -77.00415466666666, "bike_id": "0595410142c81ae1f0f0c13be0b509ca", "rental_uris": {"android": "https://dc.lft.to/lastmile_qr_scan", "ios": "https://dc.lft.to/lastmile_qr_scan"}, "name": "0595410142c81ae1f0f0c13be0b509ca", "is_reserved": 0}, {"is_disabled": 0, "fusion_lon": 0.0, "fusion_lat": 0.0, "lat": 38.83813933333333, "type": "electric_scooter", "lon": -77.0043395, "bike_id": "2e8c62d701e8f4d80ae8f1bf51005c1b", "rental_uris": {"android": "https://dc.lft.to/lastmile_qr_scan", "ios": "https://dc.lft.to/lastmile_qr_scan"}, "name": "2e8c62d701e8f4d80ae8f1bf51005c1b", "is_reserved": 0}, {"is_disabled": 0, "fusion_lon": 0.0, "fusion_lat": 0.0, "lat": 38.91772016666667, "type": "electric_bike", "lon": -77.01017133333333, "bike_id": "92a5a54c1f352827edc4674bf4a9a27f", "rental_uris": {"android": "https://dc.lft.to/lastmile_qr_scan", "ios": "https://dc.lft.to/lastmile_qr_scan"}, "name": "92a5a54c1f352827edc4674bf4a9a27f", "is_reserved": 0}, {"is_disabled": 0, "fusion_lon": 0.0, "fusion_lat": 0.0, "lat": 38.857209833333336, "type": "electric_bike", "lon": -76.98113, "bike_id": "d1fcdf9c2517d52d418201b615b6d603", "rental_uris": {"android": "https://dc.lft.to/lastmile_qr_scan", "ios": "https://dc.lft.to/lastmile_qr_scan"}, "name": "d1fcdf9c2517d52d418201b615b6d603", "is_reserved": 0}, {"is_disabled": 0, "fusion_lon": 0.0, "fusion_lat": 0.0, "lat": 38.9140515, "type": "electric_scooter", "lon": -77.03170466666667, "bike_id": "df48cfb2e897e38ff94f3a3d629fcd2a", "rental_uris": {"android": "https://dc.lft.to/lastmile_qr_scan", "ios": "https://dc.lft.to/lastmile_qr_scan"}, "name": "df48cfb2e897e38ff94f3a3d629fcd2a", "is_reserved": 0}, {"is_disabled": 0, "fusion_lon": 0.0, "fusion_lat": 0.0, "lat": 38.90531516666667, "type": "electric_bike", "lon": -77.05689733333334, "bike_id": "172b30047293ddee4c51eac2c8509cee", "rental_uris": {"android": "https://dc.lft.to/lastmile_qr_scan", "ios": "https://dc.lft.to/lastmile_qr_scan"}, "name": "172b30047293ddee4c51eac2c8509cee", "is_reserved": 0}, {"is_disabled": 0, "fusion_lon": 0.0, "fusion_lat": 0.0, "lat": 38.943333, "type": "electric_bike", "lon": -77.01480283333333, "bike_id": "f067f010ff0535f71f8fcc5f2663a9a9", "rental_uris": {"android": "https://dc.lft.to/lastmile_qr_scan", "ios": "https://dc.lft.to/lastmile_qr_scan"}, "name": "f067f010ff0535f71f8fcc5f2663a9a9", "is_reserved": 0}, {"is_disabled": 0, "fusion_lon": 0.0, "fusion_lat": 0.0, "lat": 38.921304, "type": "electric_scooter", "lon": -77.04429866666666, "bike_id": "44dcb72a6fee450256be1f1d111cfefd", "rental_uris": {"android": "https://dc.lft.to/lastmile_qr_scan", "ios": "https://dc.lft.to/lastmile_qr_scan"}, "name": "44dcb72a6fee450256be1f1d111cfefd", "is_reserved": 0}, {"is_disabled": 0, "fusion_lon": 0.0, "fusion_lat": 0.0, "lat": 38.91810916666667, "type": "electric_scooter", "lon": -76.99966316666666, "bike_id": "2cbd115563b0741b228d6a2fce4c13e3", "rental_uris": {"android": "https://dc.lft.to/lastmile_qr_scan", "ios": "https://dc.lft.to/lastmile_qr_scan"}, "name": "2cbd115563b0741b228d6a2fce4c13e3", "is_reserved": 0}, {"is_disabled": 0, "fusion_lon": 0.0, "fusion_lat": 0.0, "lat": 38.895457666666665, "type": "electric_scooter", "lon": -77.015403, "bike_id": "6fa6931390601c7d6561b37822a4869b", "rental_uris": {"android": "https://dc.lft.to/lastmile_qr_scan", "ios": "https://dc.lft.to/lastmile_qr_scan"}, "name": "6fa6931390601c7d6561b37822a4869b", "is_reserved": 0}, {"is_disabled": 0, "fusion_lon": 0.0, "fusion_lat": 0.0, "lat": 38.907925666666664, "type": "electric_scooter", "lon": -77.02386966666667, "bike_id": "578430f3193dee48a60d7341092c781a", "rental_uris": {"android": "https://dc.lft.to/lastmile_qr_scan", "ios": "https://dc.lft.to/lastmile_qr_scan"}, "name": "578430f3193dee48a60d7341092c781a", "is_reserved": 0}, {"is_disabled": 0, "fusion_lon": 0.0, "fusion_lat": 0.0, "lat": 38.85287016666667, "type": "electric_bike", "lon": -76.98154183333334, "bike_id": "0ae6b1ac1e0897ab565ac69d2c8ac283", "rental_uris": {"android": "https://dc.lft.to/lastmile_qr_scan", "ios": "https://dc.lft.to/lastmile_qr_scan"}, "name": "0ae6b1ac1e0897ab565ac69d2c8ac283", "is_reserved": 0}, {"is_disabled": 0, "fusion_lon": 0.0, "fusion_lat": 0.0, "lat": 38.85783816666667, "type": "electric_bike", "lon": -76.98758583333333, "bike_id": "41d6e8d7be0b6c2319e3e8b45b727e6f", "rental_uris": {"android": "https://dc.lft.to/lastmile_qr_scan", "ios": "https://dc.lft.to/lastmile_qr_scan"}, "name": "41d6e8d7be0b6c2319e3e8b45b727e6f", "is_reserved": 0}, {"is_disabled": 0, "fusion_lon": 0.0, "fusion_lat": 0.0, "lat": 38.91623233333333, "type": "electric_scooter", "lon": -77.03199383333333, "bike_id": "e7134bcf0addeca30f6ff89690764daa", "rental_uris": {"android": "https://dc.lft.to/lastmile_qr_scan", "ios": "https://dc.lft.to/lastmile_qr_scan"}, "name": "e7134bcf0addeca30f6ff89690764daa", "is_reserved": 0}, {"is_disabled": 0, "fusion_lon": 0.0, "fusion_lat": 0.0, "lat": 38.900113166666664, "type": "electric_scooter", "lon": -77.033704, "bike_id": "ec22bddcf82eb1d8fd418ded64443b3d", "rental_uris": {"android": "https://dc.lft.to/lastmile_qr_scan", "ios": "https://dc.lft.to/lastmile_qr_scan"}, "name": "ec22bddcf82eb1d8fd418ded64443b3d", "is_reserved": 0}, {"is_disabled": 0, "fusion_lon": 0.0, "fusion_lat": 0.0, "lat": 38.905624333333336, "type": "electric_scooter", "lon": -77.03678033333334, "bike_id": "147be91ed67aac81b6314c2b03a434cd", "rental_uris": {"android": "https://dc.lft.to/lastmile_qr_scan", "ios": "https://dc.lft.to/lastmile_qr_scan"}, "name": "147be91ed67aac81b6314c2b03a434cd", "is_reserved": 0}, {"is_disabled": 0, "fusion_lon": 0.0, "fusion_lat": 0.0, "lat": 38.9335955, "type": "electric_scooter", "lon": -77.07378183333333, "bike_id": "ed75a62064a801875d7acd8c01e7a205", "rental_uris": {"android": "https://dc.lft.to/lastmile_qr_scan", "ios": "https://dc.lft.to/lastmile_qr_scan"}, "name": "ed75a62064a801875d7acd8c01e7a205", "is_reserved": 0}, {"is_disabled": 0, "fusion_lon": 0.0, "fusion_lat": 0.0, "lat": 38.90356166666667, "type": "electric_scooter", "lon": -77.0111505, "bike_id": "0485280b5841496c29bd3dba7f713cd6", "rental_uris": {"android": "https://dc.lft.to/lastmile_qr_scan", "ios": "https://dc.lft.to/lastmile_qr_scan"}, "name": "0485280b5841496c29bd3dba7f713cd6", "is_reserved": 0}, {"is_disabled": 0, "fusion_lon": 0.0, "fusion_lat": 0.0, "lat": 38.9967345, "type": "electric_bike", "lon": -76.991386, "bike_id": "6ff005d559beaa982b2b6b72ec60d0ea", "rental_uris": {"android": "https://dc.lft.to/lastmile_qr_scan", "ios": "https://dc.lft.to/lastmile_qr_scan"}, "name": "6ff005d559beaa982b2b6b72ec60d0ea", "is_reserved": 0}, {"is_disabled": 0, "fusion_lon": 0.0, "fusion_lat": 0.0, "lat": 38.9446235, "type": "electric_scooter", "lon": -77.0602545, "bike_id": "5137a5fcb23b0c33147e57c5842a1ad8", "rental_uris": {"android": "https://dc.lft.to/lastmile_qr_scan", "ios": "https://dc.lft.to/lastmile_qr_scan"}, "name": "5137a5fcb23b0c33147e57c5842a1ad8", "is_reserved": 0}, {"is_disabled": 0, "fusion_lon": 0.0, "fusion_lat": 0.0, "lat": 38.92625366666667, "type": "electric_scooter", "lon": -77.0419335, "bike_id": "acee9fef95cd4dbf56aeba34c058a4a3", "rental_uris": {"android": "https://dc.lft.to/lastmile_qr_scan", "ios": "https://dc.lft.to/lastmile_qr_scan"}, "name": "acee9fef95cd4dbf56aeba34c058a4a3", "is_reserved": 0}, {"is_disabled": 0, "fusion_lon": 0.0, "fusion_lat": 0.0, "lat": 38.90200016666667, "type": "electric_scooter", "lon": -77.04809266666666, "bike_id": "3f7a11756147265faadaff352a8fef79", "rental_uris": {"android": "https://dc.lft.to/lastmile_qr_scan", "ios": "https://dc.lft.to/lastmile_qr_scan"}, "name": "3f7a11756147265faadaff352a8fef79", "is_reserved": 0}, {"is_disabled": 0, "fusion_lon": 0.0, "fusion_lat": 0.0, "lat": 38.92722216666667, "type": "electric_scooter", "lon": -77.0159965, "bike_id": "762e0c9e1c8fd30e3d4a6ee668ba8b0f", "rental_uris": {"android": "https://dc.lft.to/lastmile_qr_scan", "ios": "https://dc.lft.to/lastmile_qr_scan"}, "name": "762e0c9e1c8fd30e3d4a6ee668ba8b0f", "is_reserved": 0}, {"is_disabled": 0, "fusion_lon": 0.0, "fusion_lat": 0.0, "lat": 38.92660383333333, "type": "electric_scooter", "lon": -77.0228205, "bike_id": "ac0dd424ebdf0c9b5b1a073afc79508a", "rental_uris": {"android": "https://dc.lft.to/lastmile_qr_scan", "ios": "https://dc.lft.to/lastmile_qr_scan"}, "name": "ac0dd424ebdf0c9b5b1a073afc79508a", "is_reserved": 0}, {"is_disabled": 0, "fusion_lon": 0.0, "fusion_lat": 0.0, "lat": 38.875742333333335, "type": "electric_scooter", "lon": -77.02080383333333, "bike_id": "f5629eba49c4a0095d73d028fdbfb372", "rental_uris": {"android": "https://dc.lft.to/lastmile_qr_scan", "ios": "https://dc.lft.to/lastmile_qr_scan"}, "name": "f5629eba49c4a0095d73d028fdbfb372", "is_reserved": 0}, {"is_disabled": 0, "fusion_lon": 0.0, "fusion_lat": 0.0, "lat": 38.90926733333333, "type": "electric_scooter", "lon": -77.032079, "bike_id": "5646d5436b8dc345c68a78884b1cee95", "rental_uris": {"android": "https://dc.lft.to/lastmile_qr_scan", "ios": "https://dc.lft.to/lastmile_qr_scan"}, "name": "5646d5436b8dc345c68a78884b1cee95", "is_reserved": 0}, {"is_disabled": 0, "fusion_lon": 0.0, "fusion_lat": 0.0, "lat": 38.949850166666664, "type": "electric_scooter", "lon": -77.02703416666667, "bike_id": "20ac21fecd9250a63e6497f2efe3b32a", "rental_uris": {"android": "https://dc.lft.to/lastmile_qr_scan", "ios": "https://dc.lft.to/lastmile_qr_scan"}, "name": "20ac21fecd9250a63e6497f2efe3b32a", "is_reserved": 0}, {"is_disabled": 0, "fusion_lon": 0.0, "fusion_lat": 0.0, "lat": 38.887444333333335, "type": "electric_scooter", "lon": -77.015253, "bike_id": "7b2eab9e26f62c4121c16f9c8fedcbbe", "rental_uris": {"android": "https://dc.lft.to/lastmile_qr_scan", "ios": "https://dc.lft.to/lastmile_qr_scan"}, "name": "7b2eab9e26f62c4121c16f9c8fedcbbe", "is_reserved": 0}, {"is_disabled": 0, "fusion_lon": 0.0, "fusion_lat": 0.0, "lat": 38.89224733333333, "type": "electric_scooter", "lon": -77.02256816666667, "bike_id": "6dcfb0336d6273c3562c7dc405c57328", "rental_uris": {"android": "https://dc.lft.to/lastmile_qr_scan", "ios": "https://dc.lft.to/lastmile_qr_scan"}, "name": "6dcfb0336d6273c3562c7dc405c57328", "is_reserved": 0}, {"is_disabled": 0, "fusion_lon": 0.0, "fusion_lat": 0.0, "lat": 38.890004833333336, "type": "electric_scooter", "lon": -77.01502516666666, "bike_id": "654eb568f1783bb6bb357bbf76544f3c", "rental_uris": {"android": "https://dc.lft.to/lastmile_qr_scan", "ios": "https://dc.lft.to/lastmile_qr_scan"}, "name": "654eb568f1783bb6bb357bbf76544f3c", "is_reserved": 0}, {"is_disabled": 0, "fusion_lon": 0.0, "fusion_lat": 0.0, "lat": 38.922522666666666, "type": "electric_scooter", "lon": -77.03143616666667, "bike_id": "5bd01b51a5eda901197d388a60a744fd", "rental_uris": {"android": "https://dc.lft.to/lastmile_qr_scan", "ios": "https://dc.lft.to/lastmile_qr_scan"}, "name": "5bd01b51a5eda901197d388a60a744fd", "is_reserved": 0}, {"is_disabled": 0, "fusion_lon": 0.0, "fusion_lat": 0.0, "lat": 38.91038566666667, "type": "electric_scooter", "lon": -77.01375716666666, "bike_id": "bad75c300051e2ef6134dabd42ab691c", "rental_uris": {"android": "https://dc.lft.to/lastmile_qr_scan", "ios": "https://dc.lft.to/lastmile_qr_scan"}, "name": "bad75c300051e2ef6134dabd42ab691c", "is_reserved": 0}, {"is_disabled": 0, "fusion_lon": 0.0, "fusion_lat": 0.0, "lat": 38.9036865, "type": "electric_scooter", "lon": -77.00222216666667, "bike_id": "93cb42492b815875196bd696b04fe1c7", "rental_uris": {"android": "https://dc.lft.to/lastmile_qr_scan", "ios": "https://dc.lft.to/lastmile_qr_scan"}, "name": "93cb42492b815875196bd696b04fe1c7", "is_reserved": 0}, {"is_disabled": 0, "fusion_lon": 0.0, "fusion_lat": 0.0, "lat": 38.91924516666667, "type": "electric_scooter", "lon": -77.03031083333333, "bike_id": "bed30d833c2f3243e8206e5a538f2a3f", "rental_uris": {"android": "https://dc.lft.to/lastmile_qr_scan", "ios": "https://dc.lft.to/lastmile_qr_scan"}, "name": "bed30d833c2f3243e8206e5a538f2a3f", "is_reserved": 0}, {"is_disabled": 0, "fusion_lon": 0.0, "fusion_lat": 0.0, "lat": 38.890042, "type": "electric_scooter", "lon": -77.0489545, "bike_id": "25b6ddb7f9310e17c1883bf05a03e856", "rental_uris": {"android": "https://dc.lft.to/lastmile_qr_scan", "ios": "https://dc.lft.to/lastmile_qr_scan"}, "name": "25b6ddb7f9310e17c1883bf05a03e856", "is_reserved": 0}, {"is_disabled": 0, "fusion_lon": 0.0, "fusion_lat": 0.0, "lat": 38.899702, "type": "electric_scooter", "lon": -77.047911, "bike_id": "204d29f199390a7197d766933c7ec556", "rental_uris": {"android": "https://dc.lft.to/lastmile_qr_scan", "ios": "https://dc.lft.to/lastmile_qr_scan"}, "name": "204d29f199390a7197d766933c7ec556", "is_reserved": 0}, {"is_disabled": 0, "fusion_lon": 0.0, "fusion_lat": 0.0, "lat": 38.894871333333334, "type": "electric_scooter", "lon": -76.99411116666667, "bike_id": "9c43229d741cae73c9c3acbef88f2c74", "rental_uris": {"android": "https://dc.lft.to/lastmile_qr_scan", "ios": "https://dc.lft.to/lastmile_qr_scan"}, "name": "9c43229d741cae73c9c3acbef88f2c74", "is_reserved": 0}, {"is_disabled": 0, "fusion_lon": 0.0, "fusion_lat": 0.0, "lat": 38.930708333333335, "type": "electric_scooter", "lon": -77.03800916666667, "bike_id": "dd5f9678daa8ea60a799b4cb8d0cb3e4", "rental_uris": {"android": "https://dc.lft.to/lastmile_qr_scan", "ios": "https://dc.lft.to/lastmile_qr_scan"}, "name": "dd5f9678daa8ea60a799b4cb8d0cb3e4", "is_reserved": 0}, {"is_disabled": 0, "fusion_lon": 0.0, "fusion_lat": 0.0, "lat": 38.907067833333336, "type": "electric_scooter", "lon": -76.98689366666666, "bike_id": "665a9161304284ef2dd181c4f679b951", "rental_uris": {"android": "https://dc.lft.to/lastmile_qr_scan", "ios": "https://dc.lft.to/lastmile_qr_scan"}, "name": "665a9161304284ef2dd181c4f679b951", "is_reserved": 0}, {"is_disabled": 0, "fusion_lon": 0.0, "fusion_lat": 0.0, "lat": 38.928552833333335, "type": "electric_scooter", "lon": -77.014057, "bike_id": "2900707268dff1bf6a0b70e229053fc0", "rental_uris": {"android": "https://dc.lft.to/lastmile_qr_scan", "ios": "https://dc.lft.to/lastmile_qr_scan"}, "name": "2900707268dff1bf6a0b70e229053fc0", "is_reserved": 0}, {"is_disabled": 0, "fusion_lon": 0.0, "fusion_lat": 0.0, "lat": 38.9253115, "type": "electric_scooter", "lon": -77.07661566666667, "bike_id": "2176e61e04a10ff50e6f576a84cf5815", "rental_uris": {"android": "https://dc.lft.to/lastmile_qr_scan", "ios": "https://dc.lft.to/lastmile_qr_scan"}, "name": "2176e61e04a10ff50e6f576a84cf5815", "is_reserved": 0}, {"is_disabled": 0, "fusion_lon": 0.0, "fusion_lat": 0.0, "lat": 38.90603866666667, "type": "electric_scooter", "lon": -77.05704433333334, "bike_id": "4fc1108dbc1e3ebb4cd345d94909660f", "rental_uris": {"android": "https://dc.lft.to/lastmile_qr_scan", "ios": "https://dc.lft.to/lastmile_qr_scan"}, "name": "4fc1108dbc1e3ebb4cd345d94909660f", "is_reserved": 0}, {"is_disabled": 0, "fusion_lon": 0.0, "fusion_lat": 0.0, "lat": 38.90561016666667, "type": "electric_scooter", "lon": -77.024102, "bike_id": "f4d272551d04f00442925bc6d4a87a4f", "rental_uris": {"android": "https://dc.lft.to/lastmile_qr_scan", "ios": "https://dc.lft.to/lastmile_qr_scan"}, "name": "f4d272551d04f00442925bc6d4a87a4f", "is_reserved": 0}, {"is_disabled": 0, "fusion_lon": 0.0, "fusion_lat": 0.0, "lat": 38.94303883333333, "type": "electric_scooter", "lon": -77.03347283333333, "bike_id": "1e838a55bd835c5c027732f68be8fd23", "rental_uris": {"android": "https://dc.lft.to/lastmile_qr_scan", "ios": "https://dc.lft.to/lastmile_qr_scan"}, "name": "1e838a55bd835c5c027732f68be8fd23", "is_reserved": 0}, {"is_disabled": 0, "fusion_lon": 0.0, "fusion_lat": 0.0, "lat": 38.842952833333335, "type": "electric_scooter", "lon": -76.99943483333334, "bike_id": "671b104a6986f16f04f4bbe5a32027df", "rental_uris": {"android": "https://dc.lft.to/lastmile_qr_scan", "ios": "https://dc.lft.to/lastmile_qr_scan"}, "name": "671b104a6986f16f04f4bbe5a32027df", "is_reserved": 0}, {"is_disabled": 0, "fusion_lon": 0.0, "fusion_lat": 0.0, "lat": 38.929063666666664, "type": "electric_scooter", "lon": -77.03271266666667, "bike_id": "b5cfede8206071763e701e6fb4639784", "rental_uris": {"android": "https://dc.lft.to/lastmile_qr_scan", "ios": "https://dc.lft.to/lastmile_qr_scan"}, "name": "b5cfede8206071763e701e6fb4639784", "is_reserved": 0}, {"is_disabled": 0, "fusion_lon": 0.0, "fusion_lat": 0.0, "lat": 38.9644625, "type": "electric_bike", "lon": -76.97726116666666, "bike_id": "444fc8b5a3b1abef3c9765f8b090b769", "rental_uris": {"android": "https://dc.lft.to/lastmile_qr_scan", "ios": "https://dc.lft.to/lastmile_qr_scan"}, "name": "444fc8b5a3b1abef3c9765f8b090b769", "is_reserved": 0}, {"is_disabled": 0, "fusion_lon": 0.0, "fusion_lat": 0.0, "lat": 38.94050766666667, "type": "electric_scooter", "lon": -77.02494933333334, "bike_id": "ad5e8f40aeb7ba2da860129fd42cc839", "rental_uris": {"android": "https://dc.lft.to/lastmile_qr_scan", "ios": "https://dc.lft.to/lastmile_qr_scan"}, "name": "ad5e8f40aeb7ba2da860129fd42cc839", "is_reserved": 0}, {"is_disabled": 0, "fusion_lon": 0.0, "fusion_lat": 0.0, "lat": 39.03003733333333, "type": "electric_bike", "lon": -77.10652433333334, "bike_id": "de53c85661f068aeab29ac6fc81a2f5b", "rental_uris": {"android": "https://dc.lft.to/lastmile_qr_scan", "ios": "https://dc.lft.to/lastmile_qr_scan"}, "name": "de53c85661f068aeab29ac6fc81a2f5b", "is_reserved": 0}, {"is_disabled": 0, "fusion_lon": 0.0, "fusion_lat": 0.0, "lat": 38.887488833333336, "type": "electric_scooter", "lon": -77.01606783333334, "bike_id": "07f24a5f413c4e1006696beb2d17441b", "rental_uris": {"android": "https://dc.lft.to/lastmile_qr_scan", "ios": "https://dc.lft.to/lastmile_qr_scan"}, "name": "07f24a5f413c4e1006696beb2d17441b", "is_reserved": 0}, {"is_disabled": 0, "fusion_lon": 0.0, "fusion_lat": 0.0, "lat": 38.911849333333336, "type": "electric_scooter", "lon": -77.01877433333334, "bike_id": "8cc69cb5bcebbc0ac6ff34e200096224", "rental_uris": {"android": "https://dc.lft.to/lastmile_qr_scan", "ios": "https://dc.lft.to/lastmile_qr_scan"}, "name": "8cc69cb5bcebbc0ac6ff34e200096224", "is_reserved": 0}, {"is_disabled": 0, "fusion_lon": 0.0, "fusion_lat": 0.0, "lat": 38.89955666666667, "type": "electric_scooter", "lon": -77.05220666666666, "bike_id": "b9e2000e91768bf71c8f59b6b1706e7d", "rental_uris": {"android": "https://dc.lft.to/lastmile_qr_scan", "ios": "https://dc.lft.to/lastmile_qr_scan"}, "name": "b9e2000e91768bf71c8f59b6b1706e7d", "is_reserved": 0}, {"is_disabled": 0, "fusion_lon": 0.0, "fusion_lat": 0.0, "lat": 38.87498516666667, "type": "electric_scooter", "lon": -76.999734, "bike_id": "c5afaa7f34f31dc736bf7db628bcbc14", "rental_uris": {"android": "https://dc.lft.to/lastmile_qr_scan", "ios": "https://dc.lft.to/lastmile_qr_scan"}, "name": "c5afaa7f34f31dc736bf7db628bcbc14", "is_reserved": 0}, {"is_disabled": 0, "fusion_lon": 0.0, "fusion_lat": 0.0, "lat": 38.9182645, "type": "electric_scooter", "lon": -77.0365775, "bike_id": "7f611d8d843c00a2c0354f2ca0b3dc3d", "rental_uris": {"android": "https://dc.lft.to/lastmile_qr_scan", "ios": "https://dc.lft.to/lastmile_qr_scan"}, "name": "7f611d8d843c00a2c0354f2ca0b3dc3d", "is_reserved": 0}, {"is_disabled": 0, "fusion_lon": 0.0, "fusion_lat": 0.0, "lat": 38.909502333333336, "type": "electric_scooter", "lon": -77.0466995, "bike_id": "8ad7ec6056eef3969dca6ec54eccb0a3", "rental_uris": {"android": "https://dc.lft.to/lastmile_qr_scan", "ios": "https://dc.lft.to/lastmile_qr_scan"}, "name": "8ad7ec6056eef3969dca6ec54eccb0a3", "is_reserved": 0}, {"is_disabled": 0, "fusion_lon": 0.0, "fusion_lat": 0.0, "lat": 38.896649333333336, "type": "electric_scooter", "lon": -77.0117265, "bike_id": "a2b58cbc655b04bc16200d16d7839df1", "rental_uris": {"android": "https://dc.lft.to/lastmile_qr_scan", "ios": "https://dc.lft.to/lastmile_qr_scan"}, "name": "a2b58cbc655b04bc16200d16d7839df1", "is_reserved": 0}, {"is_disabled": 0, "fusion_lon": 0.0, "fusion_lat": 0.0, "lat": 38.99073666666666, "type": "electric_bike", "lon": -77.02380083333334, "bike_id": "7cacd69757d5944104778ece800360e9", "rental_uris": {"android": "https://dc.lft.to/lastmile_qr_scan", "ios": "https://dc.lft.to/lastmile_qr_scan"}, "name": "7cacd69757d5944104778ece800360e9", "is_reserved": 0}, {"is_disabled": 0, "fusion_lon": 0.0, "fusion_lat": 0.0, "lat": 38.903645833333336, "type": "electric_scooter", "lon": -77.02215366666667, "bike_id": "9da3dee85ef10b2946f0ea4ce6d739e1", "rental_uris": {"android": "https://dc.lft.to/lastmile_qr_scan", "ios": "https://dc.lft.to/lastmile_qr_scan"}, "name": "9da3dee85ef10b2946f0ea4ce6d739e1", "is_reserved": 0}, {"is_disabled": 0, "fusion_lon": 0.0, "fusion_lat": 0.0, "lat": 38.8841935, "type": "electric_scooter", "lon": -77.033003, "bike_id": "0cd4000e4710d681911dd1b9b1a06ce6", "rental_uris": {"android": "https://dc.lft.to/lastmile_qr_scan", "ios": "https://dc.lft.to/lastmile_qr_scan"}, "name": "0cd4000e4710d681911dd1b9b1a06ce6", "is_reserved": 0}, {"is_disabled": 0, "fusion_lon": 0.0, "fusion_lat": 0.0, "lat": 38.9178735, "type": "electric_scooter", "lon": -77.04356183333333, "bike_id": "ce5dc0ec64abe0eb76a3de4c84c036b6", "rental_uris": {"android": "https://dc.lft.to/lastmile_qr_scan", "ios": "https://dc.lft.to/lastmile_qr_scan"}, "name": "ce5dc0ec64abe0eb76a3de4c84c036b6", "is_reserved": 0}, {"is_disabled": 0, "fusion_lon": 0.0, "fusion_lat": 0.0, "lat": 38.911493166666666, "type": "electric_bike", "lon": -77.011549, "bike_id": "d28acfb23b50a84ce5d51890d48778df", "rental_uris": {"android": "https://dc.lft.to/lastmile_qr_scan", "ios": "https://dc.lft.to/lastmile_qr_scan"}, "name": "d28acfb23b50a84ce5d51890d48778df", "is_reserved": 0}, {"is_disabled": 0, "fusion_lon": 0.0, "fusion_lat": 0.0, "lat": 38.88135883333333, "type": "electric_scooter", "lon": -77.02077966666667, "bike_id": "6fc4fbe5a986b3047bf1751dc9edd87a", "rental_uris": {"android": "https://dc.lft.to/lastmile_qr_scan", "ios": "https://dc.lft.to/lastmile_qr_scan"}, "name": "6fc4fbe5a986b3047bf1751dc9edd87a", "is_reserved": 0}, {"is_disabled": 0, "fusion_lon": 0.0, "fusion_lat": 0.0, "lat": 38.93779166666667, "type": "electric_scooter", "lon": -77.02438666666667, "bike_id": "31b3297cce4981d3ec581be2c370bfbe", "rental_uris": {"android": "https://dc.lft.to/lastmile_qr_scan", "ios": "https://dc.lft.to/lastmile_qr_scan"}, "name": "31b3297cce4981d3ec581be2c370bfbe", "is_reserved": 0}, {"is_disabled": 0, "fusion_lon": 0.0, "fusion_lat": 0.0, "lat": 38.923524666666665, "type": "electric_bike", "lon": -76.99246916666667, "bike_id": "c95b27626ac0143a845f30bcc3166ae5", "rental_uris": {"android": "https://dc.lft.to/lastmile_qr_scan", "ios": "https://dc.lft.to/lastmile_qr_scan"}, "name": "c95b27626ac0143a845f30bcc3166ae5", "is_reserved": 0}, {"is_disabled": 0, "fusion_lon": 0.0, "fusion_lat": 0.0, "lat": 38.90688033333333, "type": "electric_scooter", "lon": -77.02690766666667, "bike_id": "c1e9da984f233661cb66831b202c9733", "rental_uris": {"android": "https://dc.lft.to/lastmile_qr_scan", "ios": "https://dc.lft.to/lastmile_qr_scan"}, "name": "c1e9da984f233661cb66831b202c9733", "is_reserved": 0}, {"is_disabled": 0, "fusion_lon": 0.0, "fusion_lat": 0.0, "lat": 38.8368215, "type": "electric_bike", "lon": -77.04990816666667, "bike_id": "fe60c2d214438883c2fe37fb002d91fc", "rental_uris": {"android": "https://dc.lft.to/lastmile_qr_scan", "ios": "https://dc.lft.to/lastmile_qr_scan"}, "name": "fe60c2d214438883c2fe37fb002d91fc", "is_reserved": 0}, {"is_disabled": 0, "fusion_lon": 0.0, "fusion_lat": 0.0, "lat": 38.904183333333336, "type": "electric_scooter", "lon": -77.05329283333333, "bike_id": "09f1d4b2e3006c3c4cdbbafe642f7723", "rental_uris": {"android": "https://dc.lft.to/lastmile_qr_scan", "ios": "https://dc.lft.to/lastmile_qr_scan"}, "name": "09f1d4b2e3006c3c4cdbbafe642f7723", "is_reserved": 0}, {"is_disabled": 0, "fusion_lon": 0.0, "fusion_lat": 0.0, "lat": 38.93409483333333, "type": "electric_scooter", "lon": -77.032608, "bike_id": "bfcbff3e55f66bf1c5997cecf22716cf", "rental_uris": {"android": "https://dc.lft.to/lastmile_qr_scan", "ios": "https://dc.lft.to/lastmile_qr_scan"}, "name": "bfcbff3e55f66bf1c5997cecf22716cf", "is_reserved": 0}, {"is_disabled": 0, "fusion_lon": 0.0, "fusion_lat": 0.0, "lat": 38.90407, "type": "electric_scooter", "lon": -77.00587066666667, "bike_id": "c96cc0c54760c658ac1287af5c2f918b", "rental_uris": {"android": "https://dc.lft.to/lastmile_qr_scan", "ios": "https://dc.lft.to/lastmile_qr_scan"}, "name": "c96cc0c54760c658ac1287af5c2f918b", "is_reserved": 0}, {"is_disabled": 0, "fusion_lon": 0.0, "fusion_lat": 0.0, "lat": 38.91038283333334, "type": "electric_scooter", "lon": -77.04010166666667, "bike_id": "cd2cf32f33c9c3a5cb9d20263571c095", "rental_uris": {"android": "https://dc.lft.to/lastmile_qr_scan", "ios": "https://dc.lft.to/lastmile_qr_scan"}, "name": "cd2cf32f33c9c3a5cb9d20263571c095", "is_reserved": 0}, {"is_disabled": 0, "fusion_lon": 0.0, "fusion_lat": 0.0, "lat": 38.92351466666667, "type": "electric_scooter", "lon": -77.03389333333334, "bike_id": "913950cbb2e0809fadfc551261f17ab3", "rental_uris": {"android": "https://dc.lft.to/lastmile_qr_scan", "ios": "https://dc.lft.to/lastmile_qr_scan"}, "name": "913950cbb2e0809fadfc551261f17ab3", "is_reserved": 0}, {"is_disabled": 0, "fusion_lon": 0.0, "fusion_lat": 0.0, "lat": 38.90685383333334, "type": "electric_scooter", "lon": -76.97999233333333, "bike_id": "37e115261ab4d46feef9cfd32a97d1f8", "rental_uris": {"android": "https://dc.lft.to/lastmile_qr_scan", "ios": "https://dc.lft.to/lastmile_qr_scan"}, "name": "37e115261ab4d46feef9cfd32a97d1f8", "is_reserved": 0}, {"is_disabled": 0, "fusion_lon": 0.0, "fusion_lat": 0.0, "lat": 38.858076, "type": "electric_scooter", "lon": -76.98654533333334, "bike_id": "2b070d01f6b889daef9ed0c02b76bcab", "rental_uris": {"android": "https://dc.lft.to/lastmile_qr_scan", "ios": "https://dc.lft.to/lastmile_qr_scan"}, "name": "2b070d01f6b889daef9ed0c02b76bcab", "is_reserved": 0}, {"is_disabled": 0, "fusion_lon": 0.0, "fusion_lat": 0.0, "lat": 38.86527133333333, "type": "electric_scooter", "lon": -76.98965583333333, "bike_id": "6174ce5aae9ba5d7fe96dbea9404667b", "rental_uris": {"android": "https://dc.lft.to/lastmile_qr_scan", "ios": "https://dc.lft.to/lastmile_qr_scan"}, "name": "6174ce5aae9ba5d7fe96dbea9404667b", "is_reserved": 0}, {"is_disabled": 0, "fusion_lon": 0.0, "fusion_lat": 0.0, "lat": 38.90874083333333, "type": "electric_scooter", "lon": -77.03538333333333, "bike_id": "bb4e82172166cbbac6e64676beab79bd", "rental_uris": {"android": "https://dc.lft.to/lastmile_qr_scan", "ios": "https://dc.lft.to/lastmile_qr_scan"}, "name": "bb4e82172166cbbac6e64676beab79bd", "is_reserved": 0}, {"is_disabled": 0, "fusion_lon": 0.0, "fusion_lat": 0.0, "lat": 38.91187266666667, "type": "electric_scooter", "lon": -77.03497666666667, "bike_id": "a19ed0570cacbd90a8e3ab2718c862cc", "rental_uris": {"android": "https://dc.lft.to/lastmile_qr_scan", "ios": "https://dc.lft.to/lastmile_qr_scan"}, "name": "a19ed0570cacbd90a8e3ab2718c862cc", "is_reserved": 0}, {"is_disabled": 0, "fusion_lon": 0.0, "fusion_lat": 0.0, "lat": 38.921985666666664, "type": "electric_scooter", "lon": -76.99701016666667, "bike_id": "f88311af5da07840e23f0de78fe92946", "rental_uris": {"android": "https://dc.lft.to/lastmile_qr_scan", "ios": "https://dc.lft.to/lastmile_qr_scan"}, "name": "f88311af5da07840e23f0de78fe92946", "is_reserved": 0}, {"is_disabled": 0, "fusion_lon": 0.0, "fusion_lat": 0.0, "lat": 38.90081566666667, "type": "electric_scooter", "lon": -77.018241, "bike_id": "e2f29b4c5034fb2e4173539a79828347", "rental_uris": {"android": "https://dc.lft.to/lastmile_qr_scan", "ios": "https://dc.lft.to/lastmile_qr_scan"}, "name": "e2f29b4c5034fb2e4173539a79828347", "is_reserved": 0}, {"is_disabled": 0, "fusion_lon": 0.0, "fusion_lat": 0.0, "lat": 38.9297565, "type": "electric_scooter", "lon": -77.02078316666666, "bike_id": "abf32b8f5bc0d632f0688dd32819d03c", "rental_uris": {"android": "https://dc.lft.to/lastmile_qr_scan", "ios": "https://dc.lft.to/lastmile_qr_scan"}, "name": "abf32b8f5bc0d632f0688dd32819d03c", "is_reserved": 0}, {"is_disabled": 0, "fusion_lon": 0.0, "fusion_lat": 0.0, "lat": 38.96420583333333, "type": "electric_scooter", "lon": -77.075274, "bike_id": "db42de2686d42b1a7944b081015c102b", "rental_uris": {"android": "https://dc.lft.to/lastmile_qr_scan", "ios": "https://dc.lft.to/lastmile_qr_scan"}, "name": "db42de2686d42b1a7944b081015c102b", "is_reserved": 0}, {"is_disabled": 0, "fusion_lon": 0.0, "fusion_lat": 0.0, "lat": 38.9420785, "type": "electric_scooter", "lon": -77.02590383333333, "bike_id": "4797436e34ad58a4eb79f5d050910e06", "rental_uris": {"android": "https://dc.lft.to/lastmile_qr_scan", "ios": "https://dc.lft.to/lastmile_qr_scan"}, "name": "4797436e34ad58a4eb79f5d050910e06", "is_reserved": 0}, {"is_disabled": 0, "fusion_lon": 0.0, "fusion_lat": 0.0, "lat": 38.923165166666664, "type": "electric_scooter", "lon": -77.0380375, "bike_id": "cb9046e4b26d3e2cd1913cbe23b2f605", "rental_uris": {"android": "https://dc.lft.to/lastmile_qr_scan", "ios": "https://dc.lft.to/lastmile_qr_scan"}, "name": "cb9046e4b26d3e2cd1913cbe23b2f605", "is_reserved": 0}, {"is_disabled": 0, "fusion_lon": 0.0, "fusion_lat": 0.0, "lat": 38.9164205, "type": "electric_scooter", "lon": -77.02282316666667, "bike_id": "1396d88ac7b4b75e64bb76ebf052a366", "rental_uris": {"android": "https://dc.lft.to/lastmile_qr_scan", "ios": "https://dc.lft.to/lastmile_qr_scan"}, "name": "1396d88ac7b4b75e64bb76ebf052a366", "is_reserved": 0}, {"is_disabled": 0, "fusion_lon": 0.0, "fusion_lat": 0.0, "lat": 39.0527215, "type": "electric_bike", "lon": -77.04385366666666, "bike_id": "9e1fff5815a49978fdbfc9a2a2c307ca", "rental_uris": {"android": "https://dc.lft.to/lastmile_qr_scan", "ios": "https://dc.lft.to/lastmile_qr_scan"}, "name": "9e1fff5815a49978fdbfc9a2a2c307ca", "is_reserved": 0}, {"is_disabled": 0, "fusion_lon": 0.0, "fusion_lat": 0.0, "lat": 38.948991166666666, "type": "electric_bike", "lon": -76.96366666666667, "bike_id": "7812e241de61b6ce32dfee484a5999ea", "rental_uris": {"android": "https://dc.lft.to/lastmile_qr_scan", "ios": "https://dc.lft.to/lastmile_qr_scan"}, "name": "7812e241de61b6ce32dfee484a5999ea", "is_reserved": 0}, {"is_disabled": 0, "fusion_lon": 0.0, "fusion_lat": 0.0, "lat": 38.91596716666667, "type": "electric_scooter", "lon": -77.07275, "bike_id": "dd44b41fa539585b2b8109f3142468ed", "rental_uris": {"android": "https://dc.lft.to/lastmile_qr_scan", "ios": "https://dc.lft.to/lastmile_qr_scan"}, "name": "dd44b41fa539585b2b8109f3142468ed", "is_reserved": 0}, {"is_disabled": 0, "fusion_lon": 0.0, "fusion_lat": 0.0, "lat": 38.90960333333334, "type": "electric_scooter", "lon": -77.03948416666667, "bike_id": "ee8b8d3f73b5fb1880f3f180ccca54db", "rental_uris": {"android": "https://dc.lft.to/lastmile_qr_scan", "ios": "https://dc.lft.to/lastmile_qr_scan"}, "name": "ee8b8d3f73b5fb1880f3f180ccca54db", "is_reserved": 0}, {"is_disabled": 0, "fusion_lon": 0.0, "fusion_lat": 0.0, "lat": 38.91706283333333, "type": "electric_scooter", "lon": -77.001125, "bike_id": "4ee1cd84a0de211972900650730e21ef", "rental_uris": {"android": "https://dc.lft.to/lastmile_qr_scan", "ios": "https://dc.lft.to/lastmile_qr_scan"}, "name": "4ee1cd84a0de211972900650730e21ef", "is_reserved": 0}, {"is_disabled": 0, "fusion_lon": 0.0, "fusion_lat": 0.0, "lat": 38.92230766666667, "type": "electric_scooter", "lon": -77.043423, "bike_id": "35727e59a933f13cb8514f9d90d2ac1e", "rental_uris": {"android": "https://dc.lft.to/lastmile_qr_scan", "ios": "https://dc.lft.to/lastmile_qr_scan"}, "name": "35727e59a933f13cb8514f9d90d2ac1e", "is_reserved": 0}, {"is_disabled": 0, "fusion_lon": 0.0, "fusion_lat": 0.0, "lat": 38.917068666666665, "type": "electric_bike", "lon": -77.09561283333333, "bike_id": "9f5cf0d0d6d39081fe2e29337b046d02", "rental_uris": {"android": "https://dc.lft.to/lastmile_qr_scan", "ios": "https://dc.lft.to/lastmile_qr_scan"}, "name": "9f5cf0d0d6d39081fe2e29337b046d02", "is_reserved": 0}, {"is_disabled": 0, "fusion_lon": 0.0, "fusion_lat": 0.0, "lat": 38.9169325, "type": "electric_scooter", "lon": -77.0368515, "bike_id": "553249efa18e744572543a10f552758a", "rental_uris": {"android": "https://dc.lft.to/lastmile_qr_scan", "ios": "https://dc.lft.to/lastmile_qr_scan"}, "name": "553249efa18e744572543a10f552758a", "is_reserved": 0}, {"is_disabled": 0, "fusion_lon": 0.0, "fusion_lat": 0.0, "lat": 38.8695825, "type": "electric_scooter", "lon": -76.979272, "bike_id": "152189d063d33c1fd025070ac0b18f5e", "rental_uris": {"android": "https://dc.lft.to/lastmile_qr_scan", "ios": "https://dc.lft.to/lastmile_qr_scan"}, "name": "152189d063d33c1fd025070ac0b18f5e", "is_reserved": 0}, {"is_disabled": 0, "fusion_lon": 0.0, "fusion_lat": 0.0, "lat": 38.91562316666667, "type": "electric_scooter", "lon": -77.03236483333333, "bike_id": "ab86116b2bfa6f0ebe6712cd4bcff4c8", "rental_uris": {"android": "https://dc.lft.to/lastmile_qr_scan", "ios": "https://dc.lft.to/lastmile_qr_scan"}, "name": "ab86116b2bfa6f0ebe6712cd4bcff4c8", "is_reserved": 0}, {"is_disabled": 0, "fusion_lon": 0.0, "fusion_lat": 0.0, "lat": 38.897728666666666, "type": "electric_scooter", "lon": -77.02193966666667, "bike_id": "f113fdb724a6fb84a7414d76a1927de7", "rental_uris": {"android": "https://dc.lft.to/lastmile_qr_scan", "ios": "https://dc.lft.to/lastmile_qr_scan"}, "name": "f113fdb724a6fb84a7414d76a1927de7", "is_reserved": 0}, {"is_disabled": 0, "fusion_lon": 0.0, "fusion_lat": 0.0, "lat": 38.9067315, "type": "electric_scooter", "lon": -77.02707816666667, "bike_id": "a831375fefdc85d38e865ccbd04264aa", "rental_uris": {"android": "https://dc.lft.to/lastmile_qr_scan", "ios": "https://dc.lft.to/lastmile_qr_scan"}, "name": "a831375fefdc85d38e865ccbd04264aa", "is_reserved": 0}, {"is_disabled": 0, "fusion_lon": 0.0, "fusion_lat": 0.0, "lat": 38.932142666666664, "type": "electric_scooter", "lon": -77.02386716666666, "bike_id": "c4bef988131679daad2709e1140ac2b5", "rental_uris": {"android": "https://dc.lft.to/lastmile_qr_scan", "ios": "https://dc.lft.to/lastmile_qr_scan"}, "name": "c4bef988131679daad2709e1140ac2b5", "is_reserved": 0}, {"is_disabled": 0, "fusion_lon": 0.0, "fusion_lat": 0.0, "lat": 38.915219, "type": "electric_scooter", "lon": -77.0198275, "bike_id": "3bc42117ebe0aebfd92f6f19c01ac6a6", "rental_uris": {"android": "https://dc.lft.to/lastmile_qr_scan", "ios": "https://dc.lft.to/lastmile_qr_scan"}, "name": "3bc42117ebe0aebfd92f6f19c01ac6a6", "is_reserved": 0}, {"is_disabled": 0, "fusion_lon": 0.0, "fusion_lat": 0.0, "lat": 38.93157216666667, "type": "electric_scooter", "lon": -77.07834483333333, "bike_id": "ea4c2d1bcf284e4ee8673f41c1039ee4", "rental_uris": {"android": "https://dc.lft.to/lastmile_qr_scan", "ios": "https://dc.lft.to/lastmile_qr_scan"}, "name": "ea4c2d1bcf284e4ee8673f41c1039ee4", "is_reserved": 0}, {"is_disabled": 0, "fusion_lon": 0.0, "fusion_lat": 0.0, "lat": 38.90930066666667, "type": "electric_scooter", "lon": -77.05717466666667, "bike_id": "c7ebb09210e7b5e2245dfa2bb9d0503c", "rental_uris": {"android": "https://dc.lft.to/lastmile_qr_scan", "ios": "https://dc.lft.to/lastmile_qr_scan"}, "name": "c7ebb09210e7b5e2245dfa2bb9d0503c", "is_reserved": 0}, {"is_disabled": 0, "fusion_lon": 0.0, "fusion_lat": 0.0, "lat": 38.91388366666666, "type": "electric_scooter", "lon": -77.01704966666667, "bike_id": "da39300d7575080969d972115212c539", "rental_uris": {"android": "https://dc.lft.to/lastmile_qr_scan", "ios": "https://dc.lft.to/lastmile_qr_scan"}, "name": "da39300d7575080969d972115212c539", "is_reserved": 0}, {"is_disabled": 0, "fusion_lon": 0.0, "fusion_lat": 0.0, "lat": 38.945094, "type": "electric_bike", "lon": -77.00672283333333, "bike_id": "1ee046007cf04a2afb1a767df1d9efff", "rental_uris": {"android": "https://dc.lft.to/lastmile_qr_scan", "ios": "https://dc.lft.to/lastmile_qr_scan"}, "name": "1ee046007cf04a2afb1a767df1d9efff", "is_reserved": 0}, {"is_disabled": 0, "fusion_lon": 0.0, "fusion_lat": 0.0, "lat": 38.897363666666664, "type": "electric_scooter", "lon": -77.02171166666666, "bike_id": "fc123573f4d8652c7c030fb128f53d1a", "rental_uris": {"android": "https://dc.lft.to/lastmile_qr_scan", "ios": "https://dc.lft.to/lastmile_qr_scan"}, "name": "fc123573f4d8652c7c030fb128f53d1a", "is_reserved": 0}, {"is_disabled": 0, "fusion_lon": 0.0, "fusion_lat": 0.0, "lat": 38.900216, "type": "electric_scooter", "lon": -77.03346283333333, "bike_id": "14948ea5b8c9c9a049182158d7d8cd5c", "rental_uris": {"android": "https://dc.lft.to/lastmile_qr_scan", "ios": "https://dc.lft.to/lastmile_qr_scan"}, "name": "14948ea5b8c9c9a049182158d7d8cd5c", "is_reserved": 0}, {"is_disabled": 0, "fusion_lon": 0.0, "fusion_lat": 0.0, "lat": 38.910899, "type": "electric_scooter", "lon": -77.02203316666667, "bike_id": "1101849bd21cc36cd3768e7150af616e", "rental_uris": {"android": "https://dc.lft.to/lastmile_qr_scan", "ios": "https://dc.lft.to/lastmile_qr_scan"}, "name": "1101849bd21cc36cd3768e7150af616e", "is_reserved": 0}, {"is_disabled": 0, "fusion_lon": 0.0, "fusion_lat": 0.0, "lat": 38.87536933333333, "type": "electric_scooter", "lon": -77.00064483333334, "bike_id": "b0cf1a5374426bc2491fc14abc857f37", "rental_uris": {"android": "https://dc.lft.to/lastmile_qr_scan", "ios": "https://dc.lft.to/lastmile_qr_scan"}, "name": "b0cf1a5374426bc2491fc14abc857f37", "is_reserved": 0}, {"is_disabled": 0, "fusion_lon": 0.0, "fusion_lat": 0.0, "lat": 38.89771416666667, "type": "electric_scooter", "lon": -77.02477283333333, "bike_id": "a9a7e594d484d244f9f50319be57d784", "rental_uris": {"android": "https://dc.lft.to/lastmile_qr_scan", "ios": "https://dc.lft.to/lastmile_qr_scan"}, "name": "a9a7e594d484d244f9f50319be57d784", "is_reserved": 0}, {"is_disabled": 0, "fusion_lon": 0.0, "fusion_lat": 0.0, "lat": 38.9418095, "type": "electric_scooter", "lon": -77.03653566666667, "bike_id": "c8b05b0c8513be41f1d766126b2c1753", "rental_uris": {"android": "https://dc.lft.to/lastmile_qr_scan", "ios": "https://dc.lft.to/lastmile_qr_scan"}, "name": "c8b05b0c8513be41f1d766126b2c1753", "is_reserved": 0}, {"is_disabled": 0, "fusion_lon": 0.0, "fusion_lat": 0.0, "lat": 38.95647983333333, "type": "electric_scooter", "lon": -77.01496766666666, "bike_id": "7c0de8c9d0b3ab59517cff38ad2e3a8c", "rental_uris": {"android": "https://dc.lft.to/lastmile_qr_scan", "ios": "https://dc.lft.to/lastmile_qr_scan"}, "name": "7c0de8c9d0b3ab59517cff38ad2e3a8c", "is_reserved": 0}, {"is_disabled": 0, "fusion_lon": 0.0, "fusion_lat": 0.0, "lat": 38.902008333333335, "type": "electric_scooter", "lon": -77.04809433333334, "bike_id": "bcac9fac816da2618191e3d5724378a1", "rental_uris": {"android": "https://dc.lft.to/lastmile_qr_scan", "ios": "https://dc.lft.to/lastmile_qr_scan"}, "name": "bcac9fac816da2618191e3d5724378a1", "is_reserved": 0}, {"is_disabled": 0, "fusion_lon": 0.0, "fusion_lat": 0.0, "lat": 38.925761333333334, "type": "electric_scooter", "lon": -77.02274633333333, "bike_id": "18971bea78dd4f0ec9301623832e7dba", "rental_uris": {"android": "https://dc.lft.to/lastmile_qr_scan", "ios": "https://dc.lft.to/lastmile_qr_scan"}, "name": "18971bea78dd4f0ec9301623832e7dba", "is_reserved": 0}, {"is_disabled": 0, "fusion_lon": 0.0, "fusion_lat": 0.0, "lat": 38.9291575, "type": "electric_scooter", "lon": -77.03185016666667, "bike_id": "ce6538aa96fa78ff17f19e55e12d3765", "rental_uris": {"android": "https://dc.lft.to/lastmile_qr_scan", "ios": "https://dc.lft.to/lastmile_qr_scan"}, "name": "ce6538aa96fa78ff17f19e55e12d3765", "is_reserved": 0}, {"is_disabled": 0, "fusion_lon": 0.0, "fusion_lat": 0.0, "lat": 38.92107, "type": "electric_scooter", "lon": -77.03186133333334, "bike_id": "8ce4aa5fcb0a954a81fb971eec65d037", "rental_uris": {"android": "https://dc.lft.to/lastmile_qr_scan", "ios": "https://dc.lft.to/lastmile_qr_scan"}, "name": "8ce4aa5fcb0a954a81fb971eec65d037", "is_reserved": 0}, {"is_disabled": 0, "fusion_lon": 0.0, "fusion_lat": 0.0, "lat": 38.878788666666665, "type": "electric_scooter", "lon": -77.02227933333333, "bike_id": "83e22a0b4cd168d8a5fba93c308d7728", "rental_uris": {"android": "https://dc.lft.to/lastmile_qr_scan", "ios": "https://dc.lft.to/lastmile_qr_scan"}, "name": "83e22a0b4cd168d8a5fba93c308d7728", "is_reserved": 0}, {"is_disabled": 0, "fusion_lon": 0.0, "fusion_lat": 0.0, "lat": 38.918641, "type": "electric_bike", "lon": -76.961735, "bike_id": "6c05a7b3269f883156cf77c00002a8d3", "rental_uris": {"android": "https://dc.lft.to/lastmile_qr_scan", "ios": "https://dc.lft.to/lastmile_qr_scan"}, "name": "6c05a7b3269f883156cf77c00002a8d3", "is_reserved": 0}, {"is_disabled": 0, "fusion_lon": 0.0, "fusion_lat": 0.0, "lat": 38.986645333333335, "type": "electric_scooter", "lon": -77.02653416666666, "bike_id": "00d621a266311337cb0cdcc50c555076", "rental_uris": {"android": "https://dc.lft.to/lastmile_qr_scan", "ios": "https://dc.lft.to/lastmile_qr_scan"}, "name": "00d621a266311337cb0cdcc50c555076", "is_reserved": 0}, {"is_disabled": 0, "fusion_lon": 0.0, "fusion_lat": 0.0, "lat": 38.914786666666664, "type": "electric_scooter", "lon": -77.04394133333334, "bike_id": "35f8aa6d6de74c49a8e474037febfb68", "rental_uris": {"android": "https://dc.lft.to/lastmile_qr_scan", "ios": "https://dc.lft.to/lastmile_qr_scan"}, "name": "35f8aa6d6de74c49a8e474037febfb68", "is_reserved": 0}, {"is_disabled": 0, "fusion_lon": 0.0, "fusion_lat": 0.0, "lat": 38.9185505, "type": "electric_scooter", "lon": -77.02952216666667, "bike_id": "9eb63bf5a8f610e52ce1d226a3c67409", "rental_uris": {"android": "https://dc.lft.to/lastmile_qr_scan", "ios": "https://dc.lft.to/lastmile_qr_scan"}, "name": "9eb63bf5a8f610e52ce1d226a3c67409", "is_reserved": 0}, {"is_disabled": 0, "fusion_lon": 0.0, "fusion_lat": 0.0, "lat": 38.914945333333335, "type": "electric_scooter", "lon": -77.01979383333334, "bike_id": "773814df7fa9f8bc1b77bff16bc7ea9a", "rental_uris": {"android": "https://dc.lft.to/lastmile_qr_scan", "ios": "https://dc.lft.to/lastmile_qr_scan"}, "name": "773814df7fa9f8bc1b77bff16bc7ea9a", "is_reserved": 0}, {"is_disabled": 0, "fusion_lon": 0.0, "fusion_lat": 0.0, "lat": 38.93275783333333, "type": "electric_scooter", "lon": -76.99680116666667, "bike_id": "d91c096b70a1c727acb95894fbfa4ef5", "rental_uris": {"android": "https://dc.lft.to/lastmile_qr_scan", "ios": "https://dc.lft.to/lastmile_qr_scan"}, "name": "d91c096b70a1c727acb95894fbfa4ef5", "is_reserved": 0}, {"is_disabled": 0, "fusion_lon": 0.0, "fusion_lat": 0.0, "lat": 38.8998465, "type": "electric_scooter", "lon": -77.02686633333333, "bike_id": "2372cc20f31b4c5092e4c4d6747e0aea", "rental_uris": {"android": "https://dc.lft.to/lastmile_qr_scan", "ios": "https://dc.lft.to/lastmile_qr_scan"}, "name": "2372cc20f31b4c5092e4c4d6747e0aea", "is_reserved": 0}, {"is_disabled": 0, "fusion_lon": 0.0, "fusion_lat": 0.0, "lat": 38.836116833333335, "type": "electric_bike", "lon": -77.00385266666666, "bike_id": "2e9a6a11d9083805692e5dec248be456", "rental_uris": {"android": "https://dc.lft.to/lastmile_qr_scan", "ios": "https://dc.lft.to/lastmile_qr_scan"}, "name": "2e9a6a11d9083805692e5dec248be456", "is_reserved": 0}, {"is_disabled": 0, "fusion_lon": 0.0, "fusion_lat": 0.0, "lat": 38.89913033333333, "type": "electric_scooter", "lon": -76.9338435, "bike_id": "212ad0825ccf9253607a9d20cfea8de0", "rental_uris": {"android": "https://dc.lft.to/lastmile_qr_scan", "ios": "https://dc.lft.to/lastmile_qr_scan"}, "name": "212ad0825ccf9253607a9d20cfea8de0", "is_reserved": 0}, {"is_disabled": 0, "fusion_lon": 0.0, "fusion_lat": 0.0, "lat": 38.887583666666664, "type": "electric_scooter", "lon": -76.996166, "bike_id": "5500f7cd67612cd113783f5375aad3b7", "rental_uris": {"android": "https://dc.lft.to/lastmile_qr_scan", "ios": "https://dc.lft.to/lastmile_qr_scan"}, "name": "5500f7cd67612cd113783f5375aad3b7", "is_reserved": 0}, {"is_disabled": 0, "fusion_lon": 0.0, "fusion_lat": 0.0, "lat": 38.892086166666665, "type": "electric_scooter", "lon": -76.98800533333333, "bike_id": "3035d5f771cb63cd37ae76b6b788ee52", "rental_uris": {"android": "https://dc.lft.to/lastmile_qr_scan", "ios": "https://dc.lft.to/lastmile_qr_scan"}, "name": "3035d5f771cb63cd37ae76b6b788ee52", "is_reserved": 0}, {"is_disabled": 0, "fusion_lon": 0.0, "fusion_lat": 0.0, "lat": 38.9054255, "type": "electric_scooter", "lon": -77.05697866666667, "bike_id": "d88212fea9b58cd54b53a7c4b70dc17a", "rental_uris": {"android": "https://dc.lft.to/lastmile_qr_scan", "ios": "https://dc.lft.to/lastmile_qr_scan"}, "name": "d88212fea9b58cd54b53a7c4b70dc17a", "is_reserved": 0}, {"is_disabled": 0, "fusion_lon": 0.0, "fusion_lat": 0.0, "lat": 38.8873995, "type": "electric_scooter", "lon": -77.01528783333333, "bike_id": "7a8eede9690b7390748fdd58be4b26cf", "rental_uris": {"android": "https://dc.lft.to/lastmile_qr_scan", "ios": "https://dc.lft.to/lastmile_qr_scan"}, "name": "7a8eede9690b7390748fdd58be4b26cf", "is_reserved": 0}, {"is_disabled": 0, "fusion_lon": 0.0, "fusion_lat": 0.0, "lat": 38.9242135, "type": "electric_scooter", "lon": -77.05615, "bike_id": "043bd64f90e4c9b2eda28ef29e3a6bfd", "rental_uris": {"android": "https://dc.lft.to/lastmile_qr_scan", "ios": "https://dc.lft.to/lastmile_qr_scan"}, "name": "043bd64f90e4c9b2eda28ef29e3a6bfd", "is_reserved": 0}, {"is_disabled": 0, "fusion_lon": 0.0, "fusion_lat": 0.0, "lat": 38.96923683333333, "type": "electric_bike", "lon": -77.02611283333333, "bike_id": "b153eeabf14a713335774c337ff16297", "rental_uris": {"android": "https://dc.lft.to/lastmile_qr_scan", "ios": "https://dc.lft.to/lastmile_qr_scan"}, "name": "b153eeabf14a713335774c337ff16297", "is_reserved": 0}, {"is_disabled": 0, "fusion_lon": 0.0, "fusion_lat": 0.0, "lat": 38.8636095, "type": "electric_scooter", "lon": -76.99068666666666, "bike_id": "3a24ddabdf1e90261e5ef7e56f00ddd0", "rental_uris": {"android": "https://dc.lft.to/lastmile_qr_scan", "ios": "https://dc.lft.to/lastmile_qr_scan"}, "name": "3a24ddabdf1e90261e5ef7e56f00ddd0", "is_reserved": 0}, {"is_disabled": 0, "fusion_lon": 0.0, "fusion_lat": 0.0, "lat": 38.92819266666667, "type": "electric_scooter", "lon": -77.013945, "bike_id": "5182d014170bc33d2b9a52728f8fe7cc", "rental_uris": {"android": "https://dc.lft.to/lastmile_qr_scan", "ios": "https://dc.lft.to/lastmile_qr_scan"}, "name": "5182d014170bc33d2b9a52728f8fe7cc", "is_reserved": 0}, {"is_disabled": 0, "fusion_lon": 0.0, "fusion_lat": 0.0, "lat": 38.99066883333333, "type": "electric_bike", "lon": -77.10028283333334, "bike_id": "c898fb85162fb8dcce492fc16b53a9f1", "rental_uris": {"android": "https://dc.lft.to/lastmile_qr_scan", "ios": "https://dc.lft.to/lastmile_qr_scan"}, "name": "c898fb85162fb8dcce492fc16b53a9f1", "is_reserved": 0}, {"is_disabled": 0, "fusion_lon": 0.0, "fusion_lat": 0.0, "lat": 38.990914833333335, "type": "electric_bike", "lon": -76.87492133333333, "bike_id": "ba3c5495b28d0286dd4883ff0d6a62cd", "rental_uris": {"android": "https://dc.lft.to/lastmile_qr_scan", "ios": "https://dc.lft.to/lastmile_qr_scan"}, "name": "ba3c5495b28d0286dd4883ff0d6a62cd", "is_reserved": 0}, {"is_disabled": 0, "fusion_lon": 0.0, "fusion_lat": 0.0, "lat": 38.90539616666667, "type": "electric_scooter", "lon": -77.041082, "bike_id": "d62b2613acfdd40a83b290fe228b1bf9", "rental_uris": {"android": "https://dc.lft.to/lastmile_qr_scan", "ios": "https://dc.lft.to/lastmile_qr_scan"}, "name": "d62b2613acfdd40a83b290fe228b1bf9", "is_reserved": 0}, {"is_disabled": 0, "fusion_lon": 0.0, "fusion_lat": 0.0, "lat": 38.907245833333334, "type": "electric_scooter", "lon": -77.04081716666667, "bike_id": "67eaf3bda6bba3521c74bdc5f2a3e6de", "rental_uris": {"android": "https://dc.lft.to/lastmile_qr_scan", "ios": "https://dc.lft.to/lastmile_qr_scan"}, "name": "67eaf3bda6bba3521c74bdc5f2a3e6de", "is_reserved": 0}, {"is_disabled": 0, "fusion_lon": 0.0, "fusion_lat": 0.0, "lat": 38.90539116666667, "type": "electric_scooter", "lon": -77.0652755, "bike_id": "1bfb32e89bac4e42dfb502c7bd43227a", "rental_uris": {"android": "https://dc.lft.to/lastmile_qr_scan", "ios": "https://dc.lft.to/lastmile_qr_scan"}, "name": "1bfb32e89bac4e42dfb502c7bd43227a", "is_reserved": 0}, {"is_disabled": 0, "fusion_lon": 0.0, "fusion_lat": 0.0, "lat": 38.956041, "type": "electric_scooter", "lon": -77.00979183333334, "bike_id": "a13898b3d2ce218b681f5736de33fe43", "rental_uris": {"android": "https://dc.lft.to/lastmile_qr_scan", "ios": "https://dc.lft.to/lastmile_qr_scan"}, "name": "a13898b3d2ce218b681f5736de33fe43", "is_reserved": 0}, {"is_disabled": 0, "fusion_lon": 0.0, "fusion_lat": 0.0, "lat": 38.87494933333333, "type": "electric_bike", "lon": -77.0489915, "bike_id": "d8b9aeda98fc3a1e15365cc5f42aa51d", "rental_uris": {"android": "https://dc.lft.to/lastmile_qr_scan", "ios": "https://dc.lft.to/lastmile_qr_scan"}, "name": "d8b9aeda98fc3a1e15365cc5f42aa51d", "is_reserved": 0}, {"is_disabled": 0, "fusion_lon": 0.0, "fusion_lat": 0.0, "lat": 38.93305, "type": "electric_scooter", "lon": -77.02138083333334, "bike_id": "23f81ad3a296d2f236f0930761fa07c9", "rental_uris": {"android": "https://dc.lft.to/lastmile_qr_scan", "ios": "https://dc.lft.to/lastmile_qr_scan"}, "name": "23f81ad3a296d2f236f0930761fa07c9", "is_reserved": 0}, {"is_disabled": 0, "fusion_lon": 0.0, "fusion_lat": 0.0, "lat": 38.962164333333334, "type": "electric_scooter", "lon": -77.02803233333333, "bike_id": "05f23d9e8ccef443677b6de5162766f9", "rental_uris": {"android": "https://dc.lft.to/lastmile_qr_scan", "ios": "https://dc.lft.to/lastmile_qr_scan"}, "name": "05f23d9e8ccef443677b6de5162766f9", "is_reserved": 0}, {"is_disabled": 0, "fusion_lon": 0.0, "fusion_lat": 0.0, "lat": 38.883603, "type": "electric_scooter", "lon": -77.02510333333333, "bike_id": "bedf76962e5a2c36b752eb11a093392c", "rental_uris": {"android": "https://dc.lft.to/lastmile_qr_scan", "ios": "https://dc.lft.to/lastmile_qr_scan"}, "name": "bedf76962e5a2c36b752eb11a093392c", "is_reserved": 0}, {"is_disabled": 0, "fusion_lon": 0.0, "fusion_lat": 0.0, "lat": 38.846221666666665, "type": "electric_scooter", "lon": -76.99629466666667, "bike_id": "e793328199e9ab794db03c7c8f3a7e37", "rental_uris": {"android": "https://dc.lft.to/lastmile_qr_scan", "ios": "https://dc.lft.to/lastmile_qr_scan"}, "name": "e793328199e9ab794db03c7c8f3a7e37", "is_reserved": 0}, {"is_disabled": 0, "fusion_lon": 0.0, "fusion_lat": 0.0, "lat": 38.91815883333334, "type": "electric_scooter", "lon": -77.0344025, "bike_id": "7354818bbbcdec7ec5d13148efe09340", "rental_uris": {"android": "https://dc.lft.to/lastmile_qr_scan", "ios": "https://dc.lft.to/lastmile_qr_scan"}, "name": "7354818bbbcdec7ec5d13148efe09340", "is_reserved": 0}, {"is_disabled": 0, "fusion_lon": 0.0, "fusion_lat": 0.0, "lat": 38.924467666666665, "type": "electric_scooter", "lon": -77.02610583333333, "bike_id": "30e343ba7f48a13634a79ba91e27bb3a", "rental_uris": {"android": "https://dc.lft.to/lastmile_qr_scan", "ios": "https://dc.lft.to/lastmile_qr_scan"}, "name": "30e343ba7f48a13634a79ba91e27bb3a", "is_reserved": 0}, {"is_disabled": 0, "fusion_lon": 0.0, "fusion_lat": 0.0, "lat": 38.86253133333334, "type": "electric_scooter", "lon": -76.9948595, "bike_id": "ce818a714bbee4a3f172dde663ef3ef8", "rental_uris": {"android": "https://dc.lft.to/lastmile_qr_scan", "ios": "https://dc.lft.to/lastmile_qr_scan"}, "name": "ce818a714bbee4a3f172dde663ef3ef8", "is_reserved": 0}, {"is_disabled": 0, "fusion_lon": 0.0, "fusion_lat": 0.0, "lat": 38.90958883333333, "type": "electric_scooter", "lon": -77.021821, "bike_id": "c0b33f4a4daa6afb3c1f27d165ea2f21", "rental_uris": {"android": "https://dc.lft.to/lastmile_qr_scan", "ios": "https://dc.lft.to/lastmile_qr_scan"}, "name": "c0b33f4a4daa6afb3c1f27d165ea2f21", "is_reserved": 0}, {"is_disabled": 0, "fusion_lon": 0.0, "fusion_lat": 0.0, "lat": 38.9673505, "type": "electric_scooter", "lon": -77.02762883333334, "bike_id": "21b4aa677f361ec94efc0f04834c6b40", "rental_uris": {"android": "https://dc.lft.to/lastmile_qr_scan", "ios": "https://dc.lft.to/lastmile_qr_scan"}, "name": "21b4aa677f361ec94efc0f04834c6b40", "is_reserved": 0}, {"is_disabled": 0, "fusion_lon": 0.0, "fusion_lat": 0.0, "lat": 38.9882895, "type": "electric_bike", "lon": -76.987593, "bike_id": "b7fa710d1d72ea5cbf8302155af2cba0", "rental_uris": {"android": "https://dc.lft.to/lastmile_qr_scan", "ios": "https://dc.lft.to/lastmile_qr_scan"}, "name": "b7fa710d1d72ea5cbf8302155af2cba0", "is_reserved": 0}, {"is_disabled": 0, "fusion_lon": 0.0, "fusion_lat": 0.0, "lat": 38.91542533333333, "type": "electric_scooter", "lon": -77.03198433333333, "bike_id": "cc7aad40501d9d623c88f2ef69ea6944", "rental_uris": {"android": "https://dc.lft.to/lastmile_qr_scan", "ios": "https://dc.lft.to/lastmile_qr_scan"}, "name": "cc7aad40501d9d623c88f2ef69ea6944", "is_reserved": 0}, {"is_disabled": 0, "fusion_lon": 0.0, "fusion_lat": 0.0, "lat": 38.952160166666665, "type": "electric_scooter", "lon": -77.03632733333333, "bike_id": "b621a5ea638e252d66924fd033145cc8", "rental_uris": {"android": "https://dc.lft.to/lastmile_qr_scan", "ios": "https://dc.lft.to/lastmile_qr_scan"}, "name": "b621a5ea638e252d66924fd033145cc8", "is_reserved": 0}, {"is_disabled": 0, "fusion_lon": 0.0, "fusion_lat": 0.0, "lat": 38.920384166666665, "type": "electric_scooter", "lon": -77.02588516666667, "bike_id": "3519c952690fd8abf12cbe9107dc8bf2", "rental_uris": {"android": "https://dc.lft.to/lastmile_qr_scan", "ios": "https://dc.lft.to/lastmile_qr_scan"}, "name": "3519c952690fd8abf12cbe9107dc8bf2", "is_reserved": 0}, {"is_disabled": 0, "fusion_lon": 0.0, "fusion_lat": 0.0, "lat": 38.896216, "type": "electric_scooter", "lon": -77.02169266666667, "bike_id": "50492d57ac076024f016c8d160d2c768", "rental_uris": {"android": "https://dc.lft.to/lastmile_qr_scan", "ios": "https://dc.lft.to/lastmile_qr_scan"}, "name": "50492d57ac076024f016c8d160d2c768", "is_reserved": 0}, {"is_disabled": 0, "fusion_lon": 0.0, "fusion_lat": 0.0, "lat": 38.89530466666667, "type": "electric_scooter", "lon": -77.0283455, "bike_id": "ad24202cf180e40517ed7ee7e2ab0b97", "rental_uris": {"android": "https://dc.lft.to/lastmile_qr_scan", "ios": "https://dc.lft.to/lastmile_qr_scan"}, "name": "ad24202cf180e40517ed7ee7e2ab0b97", "is_reserved": 0}, {"is_disabled": 0, "fusion_lon": 0.0, "fusion_lat": 0.0, "lat": 38.88513583333334, "type": "electric_scooter", "lon": -76.99850683333334, "bike_id": "e1085f7c0eff83e96147bb5502287363", "rental_uris": {"android": "https://dc.lft.to/lastmile_qr_scan", "ios": "https://dc.lft.to/lastmile_qr_scan"}, "name": "e1085f7c0eff83e96147bb5502287363", "is_reserved": 0}, {"is_disabled": 0, "fusion_lon": 0.0, "fusion_lat": 0.0, "lat": 38.889942166666664, "type": "electric_scooter", "lon": -76.99513316666666, "bike_id": "d62733be5952a369d79286a8621a91c3", "rental_uris": {"android": "https://dc.lft.to/lastmile_qr_scan", "ios": "https://dc.lft.to/lastmile_qr_scan"}, "name": "d62733be5952a369d79286a8621a91c3", "is_reserved": 0}, {"is_disabled": 0, "fusion_lon": 0.0, "fusion_lat": 0.0, "lat": 38.9171235, "type": "electric_scooter", "lon": -77.03674883333333, "bike_id": "066d379ecd6cf9cbbb43de8cf6ca7849", "rental_uris": {"android": "https://dc.lft.to/lastmile_qr_scan", "ios": "https://dc.lft.to/lastmile_qr_scan"}, "name": "066d379ecd6cf9cbbb43de8cf6ca7849", "is_reserved": 0}, {"is_disabled": 0, "fusion_lon": 0.0, "fusion_lat": 0.0, "lat": 38.946218333333334, "type": "electric_scooter", "lon": -77.036234, "bike_id": "d73b786f385a323ee7656fb006ab8658", "rental_uris": {"android": "https://dc.lft.to/lastmile_qr_scan", "ios": "https://dc.lft.to/lastmile_qr_scan"}, "name": "d73b786f385a323ee7656fb006ab8658", "is_reserved": 0}, {"is_disabled": 0, "fusion_lon": 0.0, "fusion_lat": 0.0, "lat": 38.92017666666667, "type": "electric_scooter", "lon": -77.03144066666667, "bike_id": "ed0f1b2727513dbf08922dec6487883c", "rental_uris": {"android": "https://dc.lft.to/lastmile_qr_scan", "ios": "https://dc.lft.to/lastmile_qr_scan"}, "name": "ed0f1b2727513dbf08922dec6487883c", "is_reserved": 0}, {"is_disabled": 0, "fusion_lon": 0.0, "fusion_lat": 0.0, "lat": 38.91271966666667, "type": "electric_scooter", "lon": -77.03360916666666, "bike_id": "9412abc8479e0d2428fde0ca7291098c", "rental_uris": {"android": "https://dc.lft.to/lastmile_qr_scan", "ios": "https://dc.lft.to/lastmile_qr_scan"}, "name": "9412abc8479e0d2428fde0ca7291098c", "is_reserved": 0}, {"is_disabled": 0, "fusion_lon": 0.0, "fusion_lat": 0.0, "lat": 38.9279395, "type": "electric_scooter", "lon": -77.02442183333334, "bike_id": "e692fb1c29fe2ba2c81054cf8a674966", "rental_uris": {"android": "https://dc.lft.to/lastmile_qr_scan", "ios": "https://dc.lft.to/lastmile_qr_scan"}, "name": "e692fb1c29fe2ba2c81054cf8a674966", "is_reserved": 0}, {"is_disabled": 0, "fusion_lon": 0.0, "fusion_lat": 0.0, "lat": 38.92967, "type": "electric_scooter", "lon": -77.04206316666667, "bike_id": "d7069ffde26cd4abeb03f49c25e7944f", "rental_uris": {"android": "https://dc.lft.to/lastmile_qr_scan", "ios": "https://dc.lft.to/lastmile_qr_scan"}, "name": "d7069ffde26cd4abeb03f49c25e7944f", "is_reserved": 0}, {"is_disabled": 0, "fusion_lon": 0.0, "fusion_lat": 0.0, "lat": 38.930829833333334, "type": "electric_scooter", "lon": -77.02808416666667, "bike_id": "437e098b7d7009671dc4f08ff89ef2fc", "rental_uris": {"android": "https://dc.lft.to/lastmile_qr_scan", "ios": "https://dc.lft.to/lastmile_qr_scan"}, "name": "437e098b7d7009671dc4f08ff89ef2fc", "is_reserved": 0}, {"is_disabled": 0, "fusion_lon": 0.0, "fusion_lat": 0.0, "lat": 38.93338933333333, "type": "electric_bike", "lon": -77.04211683333334, "bike_id": "c34057ce653f605f565792b00e311f0e", "rental_uris": {"android": "https://dc.lft.to/lastmile_qr_scan", "ios": "https://dc.lft.to/lastmile_qr_scan"}, "name": "c34057ce653f605f565792b00e311f0e", "is_reserved": 0}, {"is_disabled": 0, "fusion_lon": 0.0, "fusion_lat": 0.0, "lat": 38.966208, "type": "electric_scooter", "lon": -77.0352985, "bike_id": "878517b6b8833efc26782a1ba98f7b1b", "rental_uris": {"android": "https://dc.lft.to/lastmile_qr_scan", "ios": "https://dc.lft.to/lastmile_qr_scan"}, "name": "878517b6b8833efc26782a1ba98f7b1b", "is_reserved": 0}, {"is_disabled": 0, "fusion_lon": 0.0, "fusion_lat": 0.0, "lat": 38.89616083333333, "type": "electric_scooter", "lon": -76.99634383333333, "bike_id": "238410784bb3e20e735fd28c748e9775", "rental_uris": {"android": "https://dc.lft.to/lastmile_qr_scan", "ios": "https://dc.lft.to/lastmile_qr_scan"}, "name": "238410784bb3e20e735fd28c748e9775", "is_reserved": 0}, {"is_disabled": 0, "fusion_lon": 0.0, "fusion_lat": 0.0, "lat": 38.901822, "type": "electric_scooter", "lon": -76.928233, "bike_id": "881fbd055ac20e2a7717df25883bf301", "rental_uris": {"android": "https://dc.lft.to/lastmile_qr_scan", "ios": "https://dc.lft.to/lastmile_qr_scan"}, "name": "881fbd055ac20e2a7717df25883bf301", "is_reserved": 0}, {"is_disabled": 0, "fusion_lon": 0.0, "fusion_lat": 0.0, "lat": 38.91488016666667, "type": "electric_scooter", "lon": -77.03220416666667, "bike_id": "ca67522d66adde37b2d8ea7b74c956e7", "rental_uris": {"android": "https://dc.lft.to/lastmile_qr_scan", "ios": "https://dc.lft.to/lastmile_qr_scan"}, "name": "ca67522d66adde37b2d8ea7b74c956e7", "is_reserved": 0}, {"is_disabled": 0, "fusion_lon": 0.0, "fusion_lat": 0.0, "lat": 38.910964166666666, "type": "electric_scooter", "lon": -77.03857066666667, "bike_id": "70875b549d4e26b4e898dc9a5114edd1", "rental_uris": {"android": "https://dc.lft.to/lastmile_qr_scan", "ios": "https://dc.lft.to/lastmile_qr_scan"}, "name": "70875b549d4e26b4e898dc9a5114edd1", "is_reserved": 0}, {"is_disabled": 0, "fusion_lon": 0.0, "fusion_lat": 0.0, "lat": 38.94790066666667, "type": "electric_scooter", "lon": -77.09280966666667, "bike_id": "b5b5053e6fc8d6cbab0866b4f1bd886f", "rental_uris": {"android": "https://dc.lft.to/lastmile_qr_scan", "ios": "https://dc.lft.to/lastmile_qr_scan"}, "name": "b5b5053e6fc8d6cbab0866b4f1bd886f", "is_reserved": 0}, {"is_disabled": 0, "fusion_lon": 0.0, "fusion_lat": 0.0, "lat": 38.91630833333333, "type": "electric_scooter", "lon": -77.02283033333333, "bike_id": "023f329d6625c7f2077f328875455e14", "rental_uris": {"android": "https://dc.lft.to/lastmile_qr_scan", "ios": "https://dc.lft.to/lastmile_qr_scan"}, "name": "023f329d6625c7f2077f328875455e14", "is_reserved": 0}, {"is_disabled": 0, "fusion_lon": 0.0, "fusion_lat": 0.0, "lat": 38.8658725, "type": "electric_scooter", "lon": -76.9902975, "bike_id": "4c01db17f77d28ca9ffc64b3927e035a", "rental_uris": {"android": "https://dc.lft.to/lastmile_qr_scan", "ios": "https://dc.lft.to/lastmile_qr_scan"}, "name": "4c01db17f77d28ca9ffc64b3927e035a", "is_reserved": 0}, {"is_disabled": 0, "fusion_lon": 0.0, "fusion_lat": 0.0, "lat": 38.922487, "type": "electric_scooter", "lon": -77.0307575, "bike_id": "7b1481b2b91b61d034f5ddecb57d0cc3", "rental_uris": {"android": "https://dc.lft.to/lastmile_qr_scan", "ios": "https://dc.lft.to/lastmile_qr_scan"}, "name": "7b1481b2b91b61d034f5ddecb57d0cc3", "is_reserved": 0}, {"is_disabled": 0, "fusion_lon": 0.0, "fusion_lat": 0.0, "lat": 38.88722966666667, "type": "electric_scooter", "lon": -77.02839433333334, "bike_id": "82eafe1cf664a065a845f4d260279778", "rental_uris": {"android": "https://dc.lft.to/lastmile_qr_scan", "ios": "https://dc.lft.to/lastmile_qr_scan"}, "name": "82eafe1cf664a065a845f4d260279778", "is_reserved": 0}, {"is_disabled": 0, "fusion_lon": 0.0, "fusion_lat": 0.0, "lat": 38.91567633333333, "type": "electric_scooter", "lon": -77.03270433333333, "bike_id": "9aa042b3145675774202cb596c72f9e1", "rental_uris": {"android": "https://dc.lft.to/lastmile_qr_scan", "ios": "https://dc.lft.to/lastmile_qr_scan"}, "name": "9aa042b3145675774202cb596c72f9e1", "is_reserved": 0}, {"is_disabled": 0, "fusion_lon": 0.0, "fusion_lat": 0.0, "lat": 38.9028635, "type": "electric_scooter", "lon": -77.02275283333333, "bike_id": "bbfb2e50d5f542a2ddf6cc733b0cbf50", "rental_uris": {"android": "https://dc.lft.to/lastmile_qr_scan", "ios": "https://dc.lft.to/lastmile_qr_scan"}, "name": "bbfb2e50d5f542a2ddf6cc733b0cbf50", "is_reserved": 0}, {"is_disabled": 0, "fusion_lon": 0.0, "fusion_lat": 0.0, "lat": 38.91874083333333, "type": "electric_bike", "lon": -76.96123066666667, "bike_id": "e3360879475a317c2f0a5785579b758c", "rental_uris": {"android": "https://dc.lft.to/lastmile_qr_scan", "ios": "https://dc.lft.to/lastmile_qr_scan"}, "name": "e3360879475a317c2f0a5785579b758c", "is_reserved": 0}, {"is_disabled": 0, "fusion_lon": 0.0, "fusion_lat": 0.0, "lat": 38.931135166666664, "type": "electric_scooter", "lon": -77.034835, "bike_id": "682ed65cb169ef9ef061ef1e48ae3e98", "rental_uris": {"android": "https://dc.lft.to/lastmile_qr_scan", "ios": "https://dc.lft.to/lastmile_qr_scan"}, "name": "682ed65cb169ef9ef061ef1e48ae3e98", "is_reserved": 0}, {"is_disabled": 0, "fusion_lon": 0.0, "fusion_lat": 0.0, "lat": 38.96505666666667, "type": "electric_scooter", "lon": -77.024824, "bike_id": "19344ca9c33b6e551dec303abc7d75e0", "rental_uris": {"android": "https://dc.lft.to/lastmile_qr_scan", "ios": "https://dc.lft.to/lastmile_qr_scan"}, "name": "19344ca9c33b6e551dec303abc7d75e0", "is_reserved": 0}, {"is_disabled": 0, "fusion_lon": 0.0, "fusion_lat": 0.0, "lat": 38.90127316666667, "type": "electric_scooter", "lon": -77.049902, "bike_id": "433a4c2b14335295ff63038e898e60c7", "rental_uris": {"android": "https://dc.lft.to/lastmile_qr_scan", "ios": "https://dc.lft.to/lastmile_qr_scan"}, "name": "433a4c2b14335295ff63038e898e60c7", "is_reserved": 0}, {"is_disabled": 0, "fusion_lon": 0.0, "fusion_lat": 0.0, "lat": 38.96649, "type": "electric_bike", "lon": -76.930189, "bike_id": "f14ae0a09c752f1f6cf6afc96bec0a80", "rental_uris": {"android": "https://dc.lft.to/lastmile_qr_scan", "ios": "https://dc.lft.to/lastmile_qr_scan"}, "name": "f14ae0a09c752f1f6cf6afc96bec0a80", "is_reserved": 0}, {"is_disabled": 0, "fusion_lon": 0.0, "fusion_lat": 0.0, "lat": 38.930181, "type": "electric_scooter", "lon": -77.0784465, "bike_id": "dff50c31866d9e7b8349a913cb511ce6", "rental_uris": {"android": "https://dc.lft.to/lastmile_qr_scan", "ios": "https://dc.lft.to/lastmile_qr_scan"}, "name": "dff50c31866d9e7b8349a913cb511ce6", "is_reserved": 0}, {"is_disabled": 0, "fusion_lon": 0.0, "fusion_lat": 0.0, "lat": 38.92253933333333, "type": "electric_scooter", "lon": -77.03086333333333, "bike_id": "8fdb4360d9219b681504a9f424d07ca1", "rental_uris": {"android": "https://dc.lft.to/lastmile_qr_scan", "ios": "https://dc.lft.to/lastmile_qr_scan"}, "name": "8fdb4360d9219b681504a9f424d07ca1", "is_reserved": 0}, {"is_disabled": 0, "fusion_lon": 0.0, "fusion_lat": 0.0, "lat": 38.90959933333333, "type": "electric_scooter", "lon": -77.03313983333334, "bike_id": "e7ceeb91a0d1234863683c6390f61d99", "rental_uris": {"android": "https://dc.lft.to/lastmile_qr_scan", "ios": "https://dc.lft.to/lastmile_qr_scan"}, "name": "e7ceeb91a0d1234863683c6390f61d99", "is_reserved": 0}, {"is_disabled": 0, "fusion_lon": 0.0, "fusion_lat": 0.0, "lat": 38.891967, "type": "electric_scooter", "lon": -77.02239116666667, "bike_id": "e920943beab224747175d91d7fcf2e15", "rental_uris": {"android": "https://dc.lft.to/lastmile_qr_scan", "ios": "https://dc.lft.to/lastmile_qr_scan"}, "name": "e920943beab224747175d91d7fcf2e15", "is_reserved": 0}, {"is_disabled": 0, "fusion_lon": 0.0, "fusion_lat": 0.0, "lat": 38.908329333333334, "type": "electric_scooter", "lon": -77.04878016666666, "bike_id": "8d828da7dbb884a91382e00d7a0b220c", "rental_uris": {"android": "https://dc.lft.to/lastmile_qr_scan", "ios": "https://dc.lft.to/lastmile_qr_scan"}, "name": "8d828da7dbb884a91382e00d7a0b220c", "is_reserved": 0}, {"is_disabled": 0, "fusion_lon": 0.0, "fusion_lat": 0.0, "lat": 38.93875516666667, "type": "electric_scooter", "lon": -77.032548, "bike_id": "811f139cf1ead44d4ca0b392a6af85b4", "rental_uris": {"android": "https://dc.lft.to/lastmile_qr_scan", "ios": "https://dc.lft.to/lastmile_qr_scan"}, "name": "811f139cf1ead44d4ca0b392a6af85b4", "is_reserved": 0}, {"is_disabled": 0, "fusion_lon": 0.0, "fusion_lat": 0.0, "lat": 38.89244, "type": "electric_scooter", "lon": -77.050302, "bike_id": "ded561db98b02579a83cf69fa5816938", "rental_uris": {"android": "https://dc.lft.to/lastmile_qr_scan", "ios": "https://dc.lft.to/lastmile_qr_scan"}, "name": "ded561db98b02579a83cf69fa5816938", "is_reserved": 0}, {"is_disabled": 0, "fusion_lon": 0.0, "fusion_lat": 0.0, "lat": 38.92711533333333, "type": "electric_scooter", "lon": -77.05364033333333, "bike_id": "26e1f9db48e0b80014599146d3e8f06a", "rental_uris": {"android": "https://dc.lft.to/lastmile_qr_scan", "ios": "https://dc.lft.to/lastmile_qr_scan"}, "name": "26e1f9db48e0b80014599146d3e8f06a", "is_reserved": 0}, {"is_disabled": 0, "fusion_lon": 0.0, "fusion_lat": 0.0, "lat": 38.880046666666665, "type": "electric_bike", "lon": -76.91598966666666, "bike_id": "17843e1bcd23d56e9c8bbe926c620480", "rental_uris": {"android": "https://dc.lft.to/lastmile_qr_scan", "ios": "https://dc.lft.to/lastmile_qr_scan"}, "name": "17843e1bcd23d56e9c8bbe926c620480", "is_reserved": 0}, {"is_disabled": 0, "fusion_lon": 0.0, "fusion_lat": 0.0, "lat": 38.9540375, "type": "electric_scooter", "lon": -77.02751216666667, "bike_id": "66e0b7970789aae18d5b2f54856b907c", "rental_uris": {"android": "https://dc.lft.to/lastmile_qr_scan", "ios": "https://dc.lft.to/lastmile_qr_scan"}, "name": "66e0b7970789aae18d5b2f54856b907c", "is_reserved": 0}, {"is_disabled": 0, "fusion_lon": 0.0, "fusion_lat": 0.0, "lat": 38.92421866666667, "type": "electric_scooter", "lon": -77.04163716666666, "bike_id": "ba2f03af51f15e7a1b46ecc6b2e34c0e", "rental_uris": {"android": "https://dc.lft.to/lastmile_qr_scan", "ios": "https://dc.lft.to/lastmile_qr_scan"}, "name": "ba2f03af51f15e7a1b46ecc6b2e34c0e", "is_reserved": 0}, {"is_disabled": 0, "fusion_lon": 0.0, "fusion_lat": 0.0, "lat": 38.858475, "type": "electric_bike", "lon": -76.99284483333334, "bike_id": "bf82b480a547754b9022f21c22009adb", "rental_uris": {"android": "https://dc.lft.to/lastmile_qr_scan", "ios": "https://dc.lft.to/lastmile_qr_scan"}, "name": "bf82b480a547754b9022f21c22009adb", "is_reserved": 0}, {"is_disabled": 0, "fusion_lon": 0.0, "fusion_lat": 0.0, "lat": 38.95381533333333, "type": "electric_scooter", "lon": -77.02554633333334, "bike_id": "2badd0f5ea7ebcfccdd189494a445d6c", "rental_uris": {"android": "https://dc.lft.to/lastmile_qr_scan", "ios": "https://dc.lft.to/lastmile_qr_scan"}, "name": "2badd0f5ea7ebcfccdd189494a445d6c", "is_reserved": 0}, {"is_disabled": 0, "fusion_lon": 0.0, "fusion_lat": 0.0, "lat": 38.904458, "type": "electric_scooter", "lon": -77.06123366666667, "bike_id": "7d98528d1b8682e5ebc449f4de868e7d", "rental_uris": {"android": "https://dc.lft.to/lastmile_qr_scan", "ios": "https://dc.lft.to/lastmile_qr_scan"}, "name": "7d98528d1b8682e5ebc449f4de868e7d", "is_reserved": 0}, {"is_disabled": 0, "fusion_lon": 0.0, "fusion_lat": 0.0, "lat": 38.9148575, "type": "electric_scooter", "lon": -77.0324225, "bike_id": "7fd447c1bd5501209b20b50eee51ac40", "rental_uris": {"android": "https://dc.lft.to/lastmile_qr_scan", "ios": "https://dc.lft.to/lastmile_qr_scan"}, "name": "7fd447c1bd5501209b20b50eee51ac40", "is_reserved": 0}, {"is_disabled": 0, "fusion_lon": 0.0, "fusion_lat": 0.0, "lat": 38.892269166666665, "type": "electric_scooter", "lon": -77.0222435, "bike_id": "17a6b2cfe0ec54e53fabe50d01648aa4", "rental_uris": {"android": "https://dc.lft.to/lastmile_qr_scan", "ios": "https://dc.lft.to/lastmile_qr_scan"}, "name": "17a6b2cfe0ec54e53fabe50d01648aa4", "is_reserved": 0}, {"is_disabled": 0, "fusion_lon": 0.0, "fusion_lat": 0.0, "lat": 38.89507066666667, "type": "electric_scooter", "lon": -77.011231, "bike_id": "9c3d2ca9c128fe75235b690c9310f15b", "rental_uris": {"android": "https://dc.lft.to/lastmile_qr_scan", "ios": "https://dc.lft.to/lastmile_qr_scan"}, "name": "9c3d2ca9c128fe75235b690c9310f15b", "is_reserved": 0}, {"is_disabled": 0, "fusion_lon": 0.0, "fusion_lat": 0.0, "lat": 38.8973475, "type": "electric_scooter", "lon": -77.04989016666667, "bike_id": "b555c0b46be1fffe6b5078a1f1e65fb5", "rental_uris": {"android": "https://dc.lft.to/lastmile_qr_scan", "ios": "https://dc.lft.to/lastmile_qr_scan"}, "name": "b555c0b46be1fffe6b5078a1f1e65fb5", "is_reserved": 0}, {"is_disabled": 0, "fusion_lon": 0.0, "fusion_lat": 0.0, "lat": 38.880746, "type": "electric_scooter", "lon": -77.01669783333334, "bike_id": "81a8c8f8865ed01460362ff6f0468519", "rental_uris": {"android": "https://dc.lft.to/lastmile_qr_scan", "ios": "https://dc.lft.to/lastmile_qr_scan"}, "name": "81a8c8f8865ed01460362ff6f0468519", "is_reserved": 0}, {"is_disabled": 0, "fusion_lon": 0.0, "fusion_lat": 0.0, "lat": 38.878260166666664, "type": "electric_scooter", "lon": -76.96315366666667, "bike_id": "040ebe0a5de4a6929ea8d3092d053333", "rental_uris": {"android": "https://dc.lft.to/lastmile_qr_scan", "ios": "https://dc.lft.to/lastmile_qr_scan"}, "name": "040ebe0a5de4a6929ea8d3092d053333", "is_reserved": 0}, {"is_disabled": 0, "fusion_lon": 0.0, "fusion_lat": 0.0, "lat": 38.876751, "type": "electric_scooter", "lon": -76.93194016666666, "bike_id": "5a0cdc22673e7f6d5d78a2a4521ed9b4", "rental_uris": {"android": "https://dc.lft.to/lastmile_qr_scan", "ios": "https://dc.lft.to/lastmile_qr_scan"}, "name": "5a0cdc22673e7f6d5d78a2a4521ed9b4", "is_reserved": 0}, {"is_disabled": 0, "fusion_lon": 0.0, "fusion_lat": 0.0, "lat": 38.905242, "type": "electric_scooter", "lon": -77.0620025, "bike_id": "ee0cf232a0ec9b04b4b369e08f8256ff", "rental_uris": {"android": "https://dc.lft.to/lastmile_qr_scan", "ios": "https://dc.lft.to/lastmile_qr_scan"}, "name": "ee0cf232a0ec9b04b4b369e08f8256ff", "is_reserved": 0}, {"is_disabled": 0, "fusion_lon": 0.0, "fusion_lat": 0.0, "lat": 38.894937666666664, "type": "electric_scooter", "lon": -77.02215016666666, "bike_id": "3ad2c38e2024bdde3f7ac0494cfb470b", "rental_uris": {"android": "https://dc.lft.to/lastmile_qr_scan", "ios": "https://dc.lft.to/lastmile_qr_scan"}, "name": "3ad2c38e2024bdde3f7ac0494cfb470b", "is_reserved": 0}, {"is_disabled": 0, "fusion_lon": 0.0, "fusion_lat": 0.0, "lat": 38.95001833333333, "type": "electric_bike", "lon": -77.35308466666666, "bike_id": "9a095b8587442d6c27f89448af77c9aa", "rental_uris": {"android": "https://dc.lft.to/lastmile_qr_scan", "ios": "https://dc.lft.to/lastmile_qr_scan"}, "name": "9a095b8587442d6c27f89448af77c9aa", "is_reserved": 0}, {"is_disabled": 0, "fusion_lon": 0.0, "fusion_lat": 0.0, "lat": 38.89741333333333, "type": "electric_scooter", "lon": -77.04807266666667, "bike_id": "5f124afef1589c40a15d54e18d4fb413", "rental_uris": {"android": "https://dc.lft.to/lastmile_qr_scan", "ios": "https://dc.lft.to/lastmile_qr_scan"}, "name": "5f124afef1589c40a15d54e18d4fb413", "is_reserved": 0}, {"is_disabled": 0, "fusion_lon": 0.0, "fusion_lat": 0.0, "lat": 38.89038716666666, "type": "electric_scooter", "lon": -77.02976033333333, "bike_id": "ce9f89a0a29397b375a31d42f117e0a4", "rental_uris": {"android": "https://dc.lft.to/lastmile_qr_scan", "ios": "https://dc.lft.to/lastmile_qr_scan"}, "name": "ce9f89a0a29397b375a31d42f117e0a4", "is_reserved": 0}, {"is_disabled": 0, "fusion_lon": 0.0, "fusion_lat": 0.0, "lat": 38.89909316666667, "type": "electric_scooter", "lon": -77.0398545, "bike_id": "7ba9854803223c855b8617e4051222a2", "rental_uris": {"android": "https://dc.lft.to/lastmile_qr_scan", "ios": "https://dc.lft.to/lastmile_qr_scan"}, "name": "7ba9854803223c855b8617e4051222a2", "is_reserved": 0}, {"is_disabled": 0, "fusion_lon": 0.0, "fusion_lat": 0.0, "lat": 38.898334, "type": "electric_scooter", "lon": -77.03176183333333, "bike_id": "5f0118c2aae250e9cf0054328c72e919", "rental_uris": {"android": "https://dc.lft.to/lastmile_qr_scan", "ios": "https://dc.lft.to/lastmile_qr_scan"}, "name": "5f0118c2aae250e9cf0054328c72e919", "is_reserved": 0}, {"is_disabled": 0, "fusion_lon": 0.0, "fusion_lat": 0.0, "lat": 38.945257166666664, "type": "electric_scooter", "lon": -77.029754, "bike_id": "0aacc1f62e603968a675a5586a746969", "rental_uris": {"android": "https://dc.lft.to/lastmile_qr_scan", "ios": "https://dc.lft.to/lastmile_qr_scan"}, "name": "0aacc1f62e603968a675a5586a746969", "is_reserved": 0}, {"is_disabled": 0, "fusion_lon": 0.0, "fusion_lat": 0.0, "lat": 38.90682483333333, "type": "electric_scooter", "lon": -77.03111466666667, "bike_id": "221e2e2f827d8c5827afc3cf71552106", "rental_uris": {"android": "https://dc.lft.to/lastmile_qr_scan", "ios": "https://dc.lft.to/lastmile_qr_scan"}, "name": "221e2e2f827d8c5827afc3cf71552106", "is_reserved": 0}, {"is_disabled": 0, "fusion_lon": 0.0, "fusion_lat": 0.0, "lat": 38.90148583333333, "type": "electric_scooter", "lon": -77.04191183333333, "bike_id": "77812df1ff18355bd9aab7dbd83cd865", "rental_uris": {"android": "https://dc.lft.to/lastmile_qr_scan", "ios": "https://dc.lft.to/lastmile_qr_scan"}, "name": "77812df1ff18355bd9aab7dbd83cd865", "is_reserved": 0}, {"is_disabled": 0, "fusion_lon": 0.0, "fusion_lat": 0.0, "lat": 38.89730733333333, "type": "electric_scooter", "lon": -77.0216375, "bike_id": "7e295c1148c48ea9753ce14aac6907c2", "rental_uris": {"android": "https://dc.lft.to/lastmile_qr_scan", "ios": "https://dc.lft.to/lastmile_qr_scan"}, "name": "7e295c1148c48ea9753ce14aac6907c2", "is_reserved": 0}, {"is_disabled": 0, "fusion_lon": 0.0, "fusion_lat": 0.0, "lat": 38.9279395, "type": "electric_scooter", "lon": -77.03256666666667, "bike_id": "f239a243660320befe6fd00e502ccf0b", "rental_uris": {"android": "https://dc.lft.to/lastmile_qr_scan", "ios": "https://dc.lft.to/lastmile_qr_scan"}, "name": "f239a243660320befe6fd00e502ccf0b", "is_reserved": 0}, {"is_disabled": 0, "fusion_lon": 0.0, "fusion_lat": 0.0, "lat": 38.903083333333335, "type": "electric_scooter", "lon": -77.02247616666666, "bike_id": "d8d09b3005c20ea4a009d29050a854a6", "rental_uris": {"android": "https://dc.lft.to/lastmile_qr_scan", "ios": "https://dc.lft.to/lastmile_qr_scan"}, "name": "d8d09b3005c20ea4a009d29050a854a6", "is_reserved": 0}, {"is_disabled": 0, "fusion_lon": 0.0, "fusion_lat": 0.0, "lat": 38.90600466666667, "type": "electric_scooter", "lon": -77.063716, "bike_id": "eda67b8a52ed248020dded7bbab7a01b", "rental_uris": {"android": "https://dc.lft.to/lastmile_qr_scan", "ios": "https://dc.lft.to/lastmile_qr_scan"}, "name": "eda67b8a52ed248020dded7bbab7a01b", "is_reserved": 0}, {"is_disabled": 0, "fusion_lon": 0.0, "fusion_lat": 0.0, "lat": 38.918102833333336, "type": "electric_scooter", "lon": -77.03439166666666, "bike_id": "65c2a33039cc1ff6ece34561477c8b12", "rental_uris": {"android": "https://dc.lft.to/lastmile_qr_scan", "ios": "https://dc.lft.to/lastmile_qr_scan"}, "name": "65c2a33039cc1ff6ece34561477c8b12", "is_reserved": 0}, {"is_disabled": 0, "fusion_lon": 0.0, "fusion_lat": 0.0, "lat": 38.883767166666665, "type": "electric_scooter", "lon": -76.923735, "bike_id": "610e649bfcaf8c4867e1f55113a5f848", "rental_uris": {"android": "https://dc.lft.to/lastmile_qr_scan", "ios": "https://dc.lft.to/lastmile_qr_scan"}, "name": "610e649bfcaf8c4867e1f55113a5f848", "is_reserved": 0}, {"is_disabled": 0, "fusion_lon": 0.0, "fusion_lat": 0.0, "lat": 38.90201316666667, "type": "electric_scooter", "lon": -77.039517, "bike_id": "2f819c926961bef6c44950a2470bfeee", "rental_uris": {"android": "https://dc.lft.to/lastmile_qr_scan", "ios": "https://dc.lft.to/lastmile_qr_scan"}, "name": "2f819c926961bef6c44950a2470bfeee", "is_reserved": 0}, {"is_disabled": 0, "fusion_lon": 0.0, "fusion_lat": 0.0, "lat": 38.91678916666667, "type": "electric_scooter", "lon": -77.02711466666666, "bike_id": "7da282e411c5b707a6753dc1ca073b2e", "rental_uris": {"android": "https://dc.lft.to/lastmile_qr_scan", "ios": "https://dc.lft.to/lastmile_qr_scan"}, "name": "7da282e411c5b707a6753dc1ca073b2e", "is_reserved": 0}, {"is_disabled": 0, "fusion_lon": 0.0, "fusion_lat": 0.0, "lat": 38.9084285, "type": "electric_scooter", "lon": -76.997014, "bike_id": "3a2d0f5357afecb17e7cc97811896798", "rental_uris": {"android": "https://dc.lft.to/lastmile_qr_scan", "ios": "https://dc.lft.to/lastmile_qr_scan"}, "name": "3a2d0f5357afecb17e7cc97811896798", "is_reserved": 0}, {"is_disabled": 0, "fusion_lon": 0.0, "fusion_lat": 0.0, "lat": 38.91859383333333, "type": "electric_scooter", "lon": -77.0416995, "bike_id": "517d834c015ae4af4d7f0140fd9e27b5", "rental_uris": {"android": "https://dc.lft.to/lastmile_qr_scan", "ios": "https://dc.lft.to/lastmile_qr_scan"}, "name": "517d834c015ae4af4d7f0140fd9e27b5", "is_reserved": 0}, {"is_disabled": 0, "fusion_lon": 0.0, "fusion_lat": 0.0, "lat": 38.8922335, "type": "electric_scooter", "lon": -77.03338766666667, "bike_id": "4a91b81196a262dd4648250e681c4909", "rental_uris": {"android": "https://dc.lft.to/lastmile_qr_scan", "ios": "https://dc.lft.to/lastmile_qr_scan"}, "name": "4a91b81196a262dd4648250e681c4909", "is_reserved": 0}, {"is_disabled": 0, "fusion_lon": 0.0, "fusion_lat": 0.0, "lat": 38.8451815, "type": "electric_bike", "lon": -77.07791866666666, "bike_id": "4de2a7a9e60c280105b4b88283c3b580", "rental_uris": {"android": "https://dc.lft.to/lastmile_qr_scan", "ios": "https://dc.lft.to/lastmile_qr_scan"}, "name": "4de2a7a9e60c280105b4b88283c3b580", "is_reserved": 0}, {"is_disabled": 0, "fusion_lon": 0.0, "fusion_lat": 0.0, "lat": 38.9143365, "type": "electric_scooter", "lon": -77.0199755, "bike_id": "7df61743b0ad13afd52678b1274f9955", "rental_uris": {"android": "https://dc.lft.to/lastmile_qr_scan", "ios": "https://dc.lft.to/lastmile_qr_scan"}, "name": "7df61743b0ad13afd52678b1274f9955", "is_reserved": 0}, {"is_disabled": 0, "fusion_lon": 0.0, "fusion_lat": 0.0, "lat": 38.90683533333333, "type": "electric_scooter", "lon": -77.0269005, "bike_id": "b38aac63455b1b993589b89af54f26df", "rental_uris": {"android": "https://dc.lft.to/lastmile_qr_scan", "ios": "https://dc.lft.to/lastmile_qr_scan"}, "name": "b38aac63455b1b993589b89af54f26df", "is_reserved": 0}, {"is_disabled": 0, "fusion_lon": 0.0, "fusion_lat": 0.0, "lat": 38.920542166666664, "type": "electric_scooter", "lon": -77.026121, "bike_id": "a97d195ac391c25d76f23df5982a0dfd", "rental_uris": {"android": "https://dc.lft.to/lastmile_qr_scan", "ios": "https://dc.lft.to/lastmile_qr_scan"}, "name": "a97d195ac391c25d76f23df5982a0dfd", "is_reserved": 0}, {"is_disabled": 0, "fusion_lon": 0.0, "fusion_lat": 0.0, "lat": 38.90583183333333, "type": "electric_scooter", "lon": -77.03360583333334, "bike_id": "5abd59867b8a131cca1225157b73da21", "rental_uris": {"android": "https://dc.lft.to/lastmile_qr_scan", "ios": "https://dc.lft.to/lastmile_qr_scan"}, "name": "5abd59867b8a131cca1225157b73da21", "is_reserved": 0}, {"is_disabled": 0, "fusion_lon": 0.0, "fusion_lat": 0.0, "lat": 38.90607966666666, "type": "electric_scooter", "lon": -77.01625466666667, "bike_id": "56706d79fccebffdf29124516a7e5a18", "rental_uris": {"android": "https://dc.lft.to/lastmile_qr_scan", "ios": "https://dc.lft.to/lastmile_qr_scan"}, "name": "56706d79fccebffdf29124516a7e5a18", "is_reserved": 0}, {"is_disabled": 0, "fusion_lon": 0.0, "fusion_lat": 0.0, "lat": 38.9134255, "type": "electric_scooter", "lon": -77.03185333333333, "bike_id": "2ec3ce8d070f59dbb565da44c2b7bb1b", "rental_uris": {"android": "https://dc.lft.to/lastmile_qr_scan", "ios": "https://dc.lft.to/lastmile_qr_scan"}, "name": "2ec3ce8d070f59dbb565da44c2b7bb1b", "is_reserved": 0}, {"is_disabled": 0, "fusion_lon": 0.0, "fusion_lat": 0.0, "lat": 38.9605815, "type": "electric_scooter", "lon": -77.08573733333333, "bike_id": "2e16c72695e8aa8ffc3d8699f10dfbdb", "rental_uris": {"android": "https://dc.lft.to/lastmile_qr_scan", "ios": "https://dc.lft.to/lastmile_qr_scan"}, "name": "2e16c72695e8aa8ffc3d8699f10dfbdb", "is_reserved": 0}, {"is_disabled": 0, "fusion_lon": 0.0, "fusion_lat": 0.0, "lat": 38.89334733333333, "type": "electric_scooter", "lon": -77.02120766666667, "bike_id": "2b3c93d2ee2595f5a9e1e288b28f8232", "rental_uris": {"android": "https://dc.lft.to/lastmile_qr_scan", "ios": "https://dc.lft.to/lastmile_qr_scan"}, "name": "2b3c93d2ee2595f5a9e1e288b28f8232", "is_reserved": 0}, {"is_disabled": 0, "fusion_lon": 0.0, "fusion_lat": 0.0, "lat": 39.023016166666665, "type": "electric_bike", "lon": -77.02105616666667, "bike_id": "e66cd468b398f3e520092f9735bcc492", "rental_uris": {"android": "https://dc.lft.to/lastmile_qr_scan", "ios": "https://dc.lft.to/lastmile_qr_scan"}, "name": "e66cd468b398f3e520092f9735bcc492", "is_reserved": 0}, {"is_disabled": 0, "fusion_lon": 0.0, "fusion_lat": 0.0, "lat": 38.905211, "type": "electric_scooter", "lon": -77.066281, "bike_id": "3af89957271aeaa141abebf2a2a0613c", "rental_uris": {"android": "https://dc.lft.to/lastmile_qr_scan", "ios": "https://dc.lft.to/lastmile_qr_scan"}, "name": "3af89957271aeaa141abebf2a2a0613c", "is_reserved": 0}, {"is_disabled": 0, "fusion_lon": 0.0, "fusion_lat": 0.0, "lat": 38.93150633333333, "type": "electric_scooter", "lon": -77.04128466666667, "bike_id": "ff8e61ab99831a7ccab126ad0878c7c9", "rental_uris": {"android": "https://dc.lft.to/lastmile_qr_scan", "ios": "https://dc.lft.to/lastmile_qr_scan"}, "name": "ff8e61ab99831a7ccab126ad0878c7c9", "is_reserved": 0}, {"is_disabled": 0, "fusion_lon": 0.0, "fusion_lat": 0.0, "lat": 38.895580333333335, "type": "electric_scooter", "lon": -76.94871166666667, "bike_id": "f0b54a753fccd32c9e345a7a7e34f32a", "rental_uris": {"android": "https://dc.lft.to/lastmile_qr_scan", "ios": "https://dc.lft.to/lastmile_qr_scan"}, "name": "f0b54a753fccd32c9e345a7a7e34f32a", "is_reserved": 0}, {"is_disabled": 0, "fusion_lon": 0.0, "fusion_lat": 0.0, "lat": 38.86528466666667, "type": "electric_scooter", "lon": -76.9896615, "bike_id": "2660d207a87629a5b583bcb0207e44f9", "rental_uris": {"android": "https://dc.lft.to/lastmile_qr_scan", "ios": "https://dc.lft.to/lastmile_qr_scan"}, "name": "2660d207a87629a5b583bcb0207e44f9", "is_reserved": 0}, {"is_disabled": 0, "fusion_lon": 0.0, "fusion_lat": 0.0, "lat": 38.898454, "type": "electric_scooter", "lon": -76.944945, "bike_id": "8bf658811c1ef9f881a9a47ead55664e", "rental_uris": {"android": "https://dc.lft.to/lastmile_qr_scan", "ios": "https://dc.lft.to/lastmile_qr_scan"}, "name": "8bf658811c1ef9f881a9a47ead55664e", "is_reserved": 0}, {"is_disabled": 0, "fusion_lon": 0.0, "fusion_lat": 0.0, "lat": 38.910414333333335, "type": "electric_scooter", "lon": -77.040534, "bike_id": "c61e453b23c15de3c67f93f45f4af4b0", "rental_uris": {"android": "https://dc.lft.to/lastmile_qr_scan", "ios": "https://dc.lft.to/lastmile_qr_scan"}, "name": "c61e453b23c15de3c67f93f45f4af4b0", "is_reserved": 0}, {"is_disabled": 0, "fusion_lon": 0.0, "fusion_lat": 0.0, "lat": 38.88765183333334, "type": "electric_scooter", "lon": -76.95672183333333, "bike_id": "d8574cbc352f7043e1c78822ced5f5c2", "rental_uris": {"android": "https://dc.lft.to/lastmile_qr_scan", "ios": "https://dc.lft.to/lastmile_qr_scan"}, "name": "d8574cbc352f7043e1c78822ced5f5c2", "is_reserved": 0}, {"is_disabled": 0, "fusion_lon": 0.0, "fusion_lat": 0.0, "lat": 38.90509766666667, "type": "electric_scooter", "lon": -76.98846083333333, "bike_id": "dee825ffeb762399cc500c82028799d2", "rental_uris": {"android": "https://dc.lft.to/lastmile_qr_scan", "ios": "https://dc.lft.to/lastmile_qr_scan"}, "name": "dee825ffeb762399cc500c82028799d2", "is_reserved": 0}, {"is_disabled": 0, "fusion_lon": 0.0, "fusion_lat": 0.0, "lat": 38.898321, "type": "electric_scooter", "lon": -77.03172733333334, "bike_id": "364a390c6029d8edda08089bf3a58443", "rental_uris": {"android": "https://dc.lft.to/lastmile_qr_scan", "ios": "https://dc.lft.to/lastmile_qr_scan"}, "name": "364a390c6029d8edda08089bf3a58443", "is_reserved": 0}, {"is_disabled": 0, "fusion_lon": 0.0, "fusion_lat": 0.0, "lat": 38.898969666666666, "type": "electric_scooter", "lon": -77.02183383333333, "bike_id": "16afbe556ee0e067b62337798e286618", "rental_uris": {"android": "https://dc.lft.to/lastmile_qr_scan", "ios": "https://dc.lft.to/lastmile_qr_scan"}, "name": "16afbe556ee0e067b62337798e286618", "is_reserved": 0}, {"is_disabled": 0, "fusion_lon": 0.0, "fusion_lat": 0.0, "lat": 38.92624083333333, "type": "electric_scooter", "lon": -77.057069, "bike_id": "26485727b86bd718d2b91244cf034477", "rental_uris": {"android": "https://dc.lft.to/lastmile_qr_scan", "ios": "https://dc.lft.to/lastmile_qr_scan"}, "name": "26485727b86bd718d2b91244cf034477", "is_reserved": 0}, {"is_disabled": 0, "fusion_lon": 0.0, "fusion_lat": 0.0, "lat": 38.93608433333333, "type": "electric_scooter", "lon": -77.0586175, "bike_id": "693a783c9ba033048cea9f1bb5d0e5ef", "rental_uris": {"android": "https://dc.lft.to/lastmile_qr_scan", "ios": "https://dc.lft.to/lastmile_qr_scan"}, "name": "693a783c9ba033048cea9f1bb5d0e5ef", "is_reserved": 0}, {"is_disabled": 0, "fusion_lon": 0.0, "fusion_lat": 0.0, "lat": 38.90539416666667, "type": "electric_scooter", "lon": -76.987839, "bike_id": "512cd3db650a7a6638dc0a61810c68d4", "rental_uris": {"android": "https://dc.lft.to/lastmile_qr_scan", "ios": "https://dc.lft.to/lastmile_qr_scan"}, "name": "512cd3db650a7a6638dc0a61810c68d4", "is_reserved": 0}, {"is_disabled": 0, "fusion_lon": 0.0, "fusion_lat": 0.0, "lat": 38.89919033333334, "type": "electric_scooter", "lon": -77.03290816666667, "bike_id": "ede476c1aeec21814d3ee7f661da883a", "rental_uris": {"android": "https://dc.lft.to/lastmile_qr_scan", "ios": "https://dc.lft.to/lastmile_qr_scan"}, "name": "ede476c1aeec21814d3ee7f661da883a", "is_reserved": 0}, {"is_disabled": 0, "fusion_lon": 0.0, "fusion_lat": 0.0, "lat": 38.9155735, "type": "electric_scooter", "lon": -77.03842033333333, "bike_id": "00cd97371d849736b010d0f79b6e9361", "rental_uris": {"android": "https://dc.lft.to/lastmile_qr_scan", "ios": "https://dc.lft.to/lastmile_qr_scan"}, "name": "00cd97371d849736b010d0f79b6e9361", "is_reserved": 0}, {"is_disabled": 0, "fusion_lon": 0.0, "fusion_lat": 0.0, "lat": 38.893560666666666, "type": "electric_scooter", "lon": -76.98470166666667, "bike_id": "9e4ae5466cfea412be69f6a9890a4c83", "rental_uris": {"android": "https://dc.lft.to/lastmile_qr_scan", "ios": "https://dc.lft.to/lastmile_qr_scan"}, "name": "9e4ae5466cfea412be69f6a9890a4c83", "is_reserved": 0}, {"is_disabled": 0, "fusion_lon": 0.0, "fusion_lat": 0.0, "lat": 38.887355666666664, "type": "electric_scooter", "lon": -77.0174055, "bike_id": "2eda90b5423181baba02d1d01ae757d0", "rental_uris": {"android": "https://dc.lft.to/lastmile_qr_scan", "ios": "https://dc.lft.to/lastmile_qr_scan"}, "name": "2eda90b5423181baba02d1d01ae757d0", "is_reserved": 0}, {"is_disabled": 0, "fusion_lon": 0.0, "fusion_lat": 0.0, "lat": 38.924724499999996, "type": "electric_scooter", "lon": -77.02815016666666, "bike_id": "3f0ac95a7979b64ffd9ea3eb9387f78b", "rental_uris": {"android": "https://dc.lft.to/lastmile_qr_scan", "ios": "https://dc.lft.to/lastmile_qr_scan"}, "name": "3f0ac95a7979b64ffd9ea3eb9387f78b", "is_reserved": 0}, {"is_disabled": 0, "fusion_lon": 0.0, "fusion_lat": 0.0, "lat": 38.88023183333333, "type": "electric_scooter", "lon": -76.982396, "bike_id": "f75b1d61b3860d206e571942f25e38d4", "rental_uris": {"android": "https://dc.lft.to/lastmile_qr_scan", "ios": "https://dc.lft.to/lastmile_qr_scan"}, "name": "f75b1d61b3860d206e571942f25e38d4", "is_reserved": 0}, {"is_disabled": 0, "fusion_lon": 0.0, "fusion_lat": 0.0, "lat": 38.901546333333336, "type": "electric_scooter", "lon": -77.039922, "bike_id": "21e83327da150df37dc2a75f0c3b6d68", "rental_uris": {"android": "https://dc.lft.to/lastmile_qr_scan", "ios": "https://dc.lft.to/lastmile_qr_scan"}, "name": "21e83327da150df37dc2a75f0c3b6d68", "is_reserved": 0}, {"is_disabled": 0, "fusion_lon": 0.0, "fusion_lat": 0.0, "lat": 38.906389833333336, "type": "electric_scooter", "lon": -77.034515, "bike_id": "2d4a2ee18f8b0239e8afbd4aebd390d4", "rental_uris": {"android": "https://dc.lft.to/lastmile_qr_scan", "ios": "https://dc.lft.to/lastmile_qr_scan"}, "name": "2d4a2ee18f8b0239e8afbd4aebd390d4", "is_reserved": 0}, {"is_disabled": 0, "fusion_lon": 0.0, "fusion_lat": 0.0, "lat": 38.94088766666667, "type": "electric_scooter", "lon": -77.03817216666667, "bike_id": "99c3099a3aba18385b004faf40d4a364", "rental_uris": {"android": "https://dc.lft.to/lastmile_qr_scan", "ios": "https://dc.lft.to/lastmile_qr_scan"}, "name": "99c3099a3aba18385b004faf40d4a364", "is_reserved": 0}, {"is_disabled": 0, "fusion_lon": 0.0, "fusion_lat": 0.0, "lat": 38.88740716666667, "type": "electric_scooter", "lon": -77.01529716666667, "bike_id": "cbc97665873d5743427cd18bf1ee2531", "rental_uris": {"android": "https://dc.lft.to/lastmile_qr_scan", "ios": "https://dc.lft.to/lastmile_qr_scan"}, "name": "cbc97665873d5743427cd18bf1ee2531", "is_reserved": 0}, {"is_disabled": 0, "fusion_lon": 0.0, "fusion_lat": 0.0, "lat": 38.916967166666666, "type": "electric_scooter", "lon": -77.02597783333333, "bike_id": "3a1b24012b4092e8a69d810b8ecc7213", "rental_uris": {"android": "https://dc.lft.to/lastmile_qr_scan", "ios": "https://dc.lft.to/lastmile_qr_scan"}, "name": "3a1b24012b4092e8a69d810b8ecc7213", "is_reserved": 0}, {"is_disabled": 0, "fusion_lon": 0.0, "fusion_lat": 0.0, "lat": 38.9070855, "type": "electric_scooter", "lon": -77.0631195, "bike_id": "241462eaead5304c0fddd443f592e5ec", "rental_uris": {"android": "https://dc.lft.to/lastmile_qr_scan", "ios": "https://dc.lft.to/lastmile_qr_scan"}, "name": "241462eaead5304c0fddd443f592e5ec", "is_reserved": 0}, {"is_disabled": 0, "fusion_lon": 0.0, "fusion_lat": 0.0, "lat": 38.920348, "type": "electric_scooter", "lon": -77.031985, "bike_id": "a44b0a4179e97bc12e603a4857e5e01e", "rental_uris": {"android": "https://dc.lft.to/lastmile_qr_scan", "ios": "https://dc.lft.to/lastmile_qr_scan"}, "name": "a44b0a4179e97bc12e603a4857e5e01e", "is_reserved": 0}, {"is_disabled": 0, "fusion_lon": 0.0, "fusion_lat": 0.0, "lat": 38.9077115, "type": "electric_scooter", "lon": -77.03209033333333, "bike_id": "1c3da49e0b25da0ef1a5abca82fabc68", "rental_uris": {"android": "https://dc.lft.to/lastmile_qr_scan", "ios": "https://dc.lft.to/lastmile_qr_scan"}, "name": "1c3da49e0b25da0ef1a5abca82fabc68", "is_reserved": 0}, {"is_disabled": 0, "fusion_lon": 0.0, "fusion_lat": 0.0, "lat": 38.85890916666666, "type": "electric_scooter", "lon": -76.99029083333333, "bike_id": "56147f841981a38c2aee48e093b13bb6", "rental_uris": {"android": "https://dc.lft.to/lastmile_qr_scan", "ios": "https://dc.lft.to/lastmile_qr_scan"}, "name": "56147f841981a38c2aee48e093b13bb6", "is_reserved": 0}, {"is_disabled": 0, "fusion_lon": 0.0, "fusion_lat": 0.0, "lat": 38.978294, "type": "electric_bike", "lon": -76.92879683333334, "bike_id": "1b3845b270e5cf5e9d0eb1b7634b0fe7", "rental_uris": {"android": "https://dc.lft.to/lastmile_qr_scan", "ios": "https://dc.lft.to/lastmile_qr_scan"}, "name": "1b3845b270e5cf5e9d0eb1b7634b0fe7", "is_reserved": 0}, {"is_disabled": 0, "fusion_lon": 0.0, "fusion_lat": 0.0, "lat": 38.90957016666667, "type": "electric_scooter", "lon": -77.0464495, "bike_id": "6855b3bef066f74b3ce4bf0019a16544", "rental_uris": {"android": "https://dc.lft.to/lastmile_qr_scan", "ios": "https://dc.lft.to/lastmile_qr_scan"}, "name": "6855b3bef066f74b3ce4bf0019a16544", "is_reserved": 0},