{"data": {"bikes": [{"bike_id": "d8e0dacc91e95b1430c60ddd687529ea", "type": "electric_scooter", "is_disabled": 0, "lat": 38.922551, "rental_uris": {"ios": "https://dc.lft.to/lastmile_qr_scan", "android": "https://dc.lft.to/lastmile_qr_scan"}, "is_reserved": 0, "fusion_lon": 0.0, "fusion_lat": 0.0, "lon": -77.04261316666667, "name": "d8e0dacc91e95b1430c60ddd687529ea"}, {"bike_id": "1d672fa30d4e2b7807bdbe2d6acf5c51", "type": "electric_scooter", "is_disabled": 0, "lat": 38.9192525, "rental_uris": {"ios": "https://dc.lft.to/lastmile_qr_scan", "android": "https://dc.lft.to/lastmile_qr_scan"}, "is_reserved": 0, "fusion_lon": 0.0, "fusion_lat": 0.0, "lon": -77.04157866666667, "name": "1d672fa30d4e2b7807bdbe2d6acf5c51"}, {"bike_id": "f037111eb444d117b07f724c40800ba2", "type": "electric_scooter", "is_disabled": 0, "lat": 38.92363133333333, "rental_uris": {"ios": "https://dc.lft.to/lastmile_qr_scan", "android": "https://dc.lft.to/lastmile_qr_scan"}, "is_reserved": 0, "fusion_lon": 0.0, "fusion_lat": 0.0, "lon": -77.04128733333333, "name": "f037111eb444d117b07f724c40800ba2"}, {"bike_id": "f338bc0fbe8acc7036e5015b23b0ba9c", "type": "electric_bike", "is_disabled": 0, "lat": 38.85516766666667, "rental_uris": {"ios": "https://dc.lft.to/lastmile_qr_scan", "android": "https://dc.lft.to/lastmile_qr_scan"}, "is_reserved": 0, "fusion_lon": 0.0, "fusion_lat": 0.0, "lon": -77.1201705, "name": "f338bc0fbe8acc7036e5015b23b0ba9c"}, {"bike_id": "132657cb81ffac83a1933ed8e7c2b32d", "type": "electric_scooter", "is_disabled": 0, "lat": 38.91400016666667, "rental_uris": {"ios": "https://dc.lft.to/lastmile_qr_scan", "android": "https://dc.lft.to/lastmile_qr_scan"}, "is_reserved": 0, "fusion_lon": 0.0, "fusion_lat": 0.0, "lon": -76.98190716666667, "name": "132657cb81ffac83a1933ed8e7c2b32d"}, {"bike_id": "9505bf578fd828d3983639f95294268d", "type": "electric_scooter", "is_disabled": 0, "lat": 38.916791333333336, "rental_uris": {"ios": "https://dc.lft.to/lastmile_qr_scan", "android": "https://dc.lft.to/lastmile_qr_scan"}, "is_reserved": 0, "fusion_lon": 0.0, "fusion_lat": 0.0, "lon": -77.02960083333333, "name": "9505bf578fd828d3983639f95294268d"}, {"bike_id": "69656997611c2ecd2de84c9fce01a0b2", "type": "electric_scooter", "is_disabled": 0, "lat": 38.905528833333335, "rental_uris": {"ios": "https://dc.lft.to/lastmile_qr_scan", "android": "https://dc.lft.to/lastmile_qr_scan"}, "is_reserved": 0, "fusion_lon": 0.0, "fusion_lat": 0.0, "lon": -77.02718116666667, "name": "69656997611c2ecd2de84c9fce01a0b2"}, {"bike_id": "48f72f2f4f17af0673acf7eab5e5bed3", "type": "electric_scooter", "is_disabled": 0, "lat": 38.917249, "rental_uris": {"ios": "https://dc.lft.to/lastmile_qr_scan", "android": "https://dc.lft.to/lastmile_qr_scan"}, "is_reserved": 0, "fusion_lon": 0.0, "fusion_lat": 0.0, "lon": -77.01912033333333, "name": "48f72f2f4f17af0673acf7eab5e5bed3"}, {"bike_id": "ab2cbe9232c4c8bad13215da30a139b8", "type": "electric_scooter", "is_disabled": 0, "lat": 38.92742783333333, "rental_uris": {"ios": "https://dc.lft.to/lastmile_qr_scan", "android": "https://dc.lft.to/lastmile_qr_scan"}, "is_reserved": 0, "fusion_lon": 0.0, "fusion_lat": 0.0, "lon": -77.00597533333334, "name": "ab2cbe9232c4c8bad13215da30a139b8"}, {"bike_id": "60038e5d7b4a336951a160e6ae76f030", "type": "electric_scooter", "is_disabled": 0, "lat": 38.90668483333334, "rental_uris": {"ios": "https://dc.lft.to/lastmile_qr_scan", "android": "https://dc.lft.to/lastmile_qr_scan"}, "is_reserved": 0, "fusion_lon": 0.0, "fusion_lat": 0.0, "lon": -77.071656, "name": "60038e5d7b4a336951a160e6ae76f030"}, {"bike_id": "d23f74d7ed9474505f293f7c31fb1062", "type": "electric_scooter", "is_disabled": 0, "lat": 38.907328666666665, "rental_uris": {"ios": "https://dc.lft.to/lastmile_qr_scan", "android": "https://dc.lft.to/lastmile_qr_scan"}, "is_reserved": 0, "fusion_lon": 0.0, "fusion_lat": 0.0, "lon": -77.029572, "name": "d23f74d7ed9474505f293f7c31fb1062"}, {"bike_id": "9edbd5cf4c0130c2c8c830cafbc02e00", "type": "electric_scooter", "is_disabled": 0, "lat": 38.90075233333334, "rental_uris": {"ios": "https://dc.lft.to/lastmile_qr_scan", "android": "https://dc.lft.to/lastmile_qr_scan"}, "is_reserved": 0, "fusion_lon": 0.0, "fusion_lat": 0.0, "lon": -77.01823466666667, "name": "9edbd5cf4c0130c2c8c830cafbc02e00"}, {"bike_id": "d40ba5ad7a3be0cbff5ad3f822fa9788", "type": "electric_scooter", "is_disabled": 0, "lat": 38.984241, "rental_uris": {"ios": "https://dc.lft.to/lastmile_qr_scan", "android": "https://dc.lft.to/lastmile_qr_scan"}, "is_reserved": 0, "fusion_lon": 0.0, "fusion_lat": 0.0, "lon": -77.02666816666667, "name": "d40ba5ad7a3be0cbff5ad3f822fa9788"}, {"bike_id": "c4c87821029e3f839c990df723148605", "type": "electric_scooter", "is_disabled": 0, "lat": 38.925763333333336, "rental_uris": {"ios": "https://dc.lft.to/lastmile_qr_scan", "android": "https://dc.lft.to/lastmile_qr_scan"}, "is_reserved": 0, "fusion_lon": 0.0, "fusion_lat": 0.0, "lon": -77.03744666666667, "name": "c4c87821029e3f839c990df723148605"}, {"bike_id": "27606fdce504fabd9f7680377369aeec", "type": "electric_scooter", "is_disabled": 0, "lat": 38.9065355, "rental_uris": {"ios": "https://dc.lft.to/lastmile_qr_scan", "android": "https://dc.lft.to/lastmile_qr_scan"}, "is_reserved": 0, "fusion_lon": 0.0, "fusion_lat": 0.0, "lon": -77.01461533333334, "name": "27606fdce504fabd9f7680377369aeec"}, {"bike_id": "5a54c6be3e52ab51d50be1f12fdf2022", "type": "electric_scooter", "is_disabled": 0, "lat": 38.9656225, "rental_uris": {"ios": "https://dc.lft.to/lastmile_qr_scan", "android": "https://dc.lft.to/lastmile_qr_scan"}, "is_reserved": 0, "fusion_lon": 0.0, "fusion_lat": 0.0, "lon": -77.02775783333334, "name": "5a54c6be3e52ab51d50be1f12fdf2022"}, {"bike_id": "334d0481917d644c8f7133b4d1352293", "type": "electric_scooter", "is_disabled": 0, "lat": 38.87646766666667, "rental_uris": {"ios": "https://dc.lft.to/lastmile_qr_scan", "android": "https://dc.lft.to/lastmile_qr_scan"}, "is_reserved": 0, "fusion_lon": 0.0, "fusion_lat": 0.0, "lon": -76.96505933333333, "name": "334d0481917d644c8f7133b4d1352293"}, {"bike_id": "0695607a1e51fa3b0d01c427ee8f1bff", "type": "electric_scooter", "is_disabled": 0, "lat": 38.903304166666665, "rental_uris": {"ios": "https://dc.lft.to/lastmile_qr_scan", "android": "https://dc.lft.to/lastmile_qr_scan"}, "is_reserved": 0, "fusion_lon": 0.0, "fusion_lat": 0.0, "lon": -77.06931033333333, "name": "0695607a1e51fa3b0d01c427ee8f1bff"}, {"bike_id": "620732ccfafc0f28dd32849af2f8921d", "type": "electric_scooter", "is_disabled": 0, "lat": 38.86244766666667, "rental_uris": {"ios": "https://dc.lft.to/lastmile_qr_scan", "android": "https://dc.lft.to/lastmile_qr_scan"}, "is_reserved": 0, "fusion_lon": 0.0, "fusion_lat": 0.0, "lon": -76.99500666666667, "name": "620732ccfafc0f28dd32849af2f8921d"}, {"bike_id": "c0a54f385c5145f1bc1dcfb002577c77", "type": "electric_scooter", "is_disabled": 0, "lat": 38.9286715, "rental_uris": {"ios": "https://dc.lft.to/lastmile_qr_scan", "android": "https://dc.lft.to/lastmile_qr_scan"}, "is_reserved": 0, "fusion_lon": 0.0, "fusion_lat": 0.0, "lon": -77.02173733333333, "name": "c0a54f385c5145f1bc1dcfb002577c77"}, {"bike_id": "959039cfe9742fe650a4b49d9068b686", "type": "electric_scooter", "is_disabled": 0, "lat": 38.952177666666664, "rental_uris": {"ios": "https://dc.lft.to/lastmile_qr_scan", "android": "https://dc.lft.to/lastmile_qr_scan"}, "is_reserved": 0, "fusion_lon": 0.0, "fusion_lat": 0.0, "lon": -77.07072033333333, "name": "959039cfe9742fe650a4b49d9068b686"}, {"bike_id": "af5399550ba678d0b7a49200d93d09dd", "type": "electric_bike", "is_disabled": 0, "lat": 38.854351333333334, "rental_uris": {"ios": "https://dc.lft.to/lastmile_qr_scan", "android": "https://dc.lft.to/lastmile_qr_scan"}, "is_reserved": 0, "fusion_lon": 0.0, "fusion_lat": 0.0, "lon": -77.08309866666667, "name": "af5399550ba678d0b7a49200d93d09dd"}, {"bike_id": "9d84a0549aa5b382ba58be5d0684fc4e", "type": "electric_scooter", "is_disabled": 0, "lat": 38.919516333333334, "rental_uris": {"ios": "https://dc.lft.to/lastmile_qr_scan", "android": "https://dc.lft.to/lastmile_qr_scan"}, "is_reserved": 0, "fusion_lon": 0.0, "fusion_lat": 0.0, "lon": -77.0488185, "name": "9d84a0549aa5b382ba58be5d0684fc4e"}, {"bike_id": "732dc552e5552c98a21c22c4d90b950c", "type": "electric_scooter", "is_disabled": 0, "lat": 38.929768333333335, "rental_uris": {"ios": "https://dc.lft.to/lastmile_qr_scan", "android": "https://dc.lft.to/lastmile_qr_scan"}, "is_reserved": 0, "fusion_lon": 0.0, "fusion_lat": 0.0, "lon": -77.03765233333333, "name": "732dc552e5552c98a21c22c4d90b950c"}, {"bike_id": "1e67cd3ea0ef52fd25c544e28571610c", "type": "electric_scooter", "is_disabled": 0, "lat": 38.909512666666664, "rental_uris": {"ios": "https://dc.lft.to/lastmile_qr_scan", "android": "https://dc.lft.to/lastmile_qr_scan"}, "is_reserved": 0, "fusion_lon": 0.0, "fusion_lat": 0.0, "lon": -77.0222155, "name": "1e67cd3ea0ef52fd25c544e28571610c"}, {"bike_id": "72fa7c1d2584bd16ff94c2f9b752c5af", "type": "electric_scooter", "is_disabled": 0, "lat": 38.90180066666667, "rental_uris": {"ios": "https://dc.lft.to/lastmile_qr_scan", "android": "https://dc.lft.to/lastmile_qr_scan"}, "is_reserved": 0, "fusion_lon": 0.0, "fusion_lat": 0.0, "lon": -77.03949983333334, "name": "72fa7c1d2584bd16ff94c2f9b752c5af"}, {"bike_id": "5a3f1ca8dc6867fe49d9a25c0c8f772b", "type": "electric_scooter", "is_disabled": 0, "lat": 38.92671816666667, "rental_uris": {"ios": "https://dc.lft.to/lastmile_qr_scan", "android": "https://dc.lft.to/lastmile_qr_scan"}, "is_reserved": 0, "fusion_lon": 0.0, "fusion_lat": 0.0, "lon": -77.01513566666667, "name": "5a3f1ca8dc6867fe49d9a25c0c8f772b"}, {"bike_id": "3dcfaccceed36a90848ec054668980af", "type": "electric_scooter", "is_disabled": 0, "lat": 38.92065933333333, "rental_uris": {"ios": "https://dc.lft.to/lastmile_qr_scan", "android": "https://dc.lft.to/lastmile_qr_scan"}, "is_reserved": 0, "fusion_lon": 0.0, "fusion_lat": 0.0, "lon": -77.00448016666667, "name": "3dcfaccceed36a90848ec054668980af"}, {"bike_id": "f73a4ce88bca1cb377f24ce5121148a8", "type": "electric_scooter", "is_disabled": 0, "lat": 38.902629, "rental_uris": {"ios": "https://dc.lft.to/lastmile_qr_scan", "android": "https://dc.lft.to/lastmile_qr_scan"}, "is_reserved": 0, "fusion_lon": 0.0, "fusion_lat": 0.0, "lon": -77.0446635, "name": "f73a4ce88bca1cb377f24ce5121148a8"}, {"bike_id": "41e210bf776bceea0a71a27bb6f04aea", "type": "electric_scooter", "is_disabled": 0, "lat": 38.9096835, "rental_uris": {"ios": "https://dc.lft.to/lastmile_qr_scan", "android": "https://dc.lft.to/lastmile_qr_scan"}, "is_reserved": 0, "fusion_lon": 0.0, "fusion_lat": 0.0, "lon": -77.031963, "name": "41e210bf776bceea0a71a27bb6f04aea"}, {"bike_id": "98abf7ceef31e490c12b6b4da9b16080", "type": "electric_scooter", "is_disabled": 0, "lat": 38.870635, "rental_uris": {"ios": "https://dc.lft.to/lastmile_qr_scan", "android": "https://dc.lft.to/lastmile_qr_scan"}, "is_reserved": 0, "fusion_lon": 0.0, "fusion_lat": 0.0, "lon": -77.00739833333333, "name": "98abf7ceef31e490c12b6b4da9b16080"}, {"bike_id": "25676c5319a2059fae1fd2f136ddca1e", "type": "electric_scooter", "is_disabled": 0, "lat": 38.90244883333333, "rental_uris": {"ios": "https://dc.lft.to/lastmile_qr_scan", "android": "https://dc.lft.to/lastmile_qr_scan"}, "is_reserved": 0, "fusion_lon": 0.0, "fusion_lat": 0.0, "lon": -77.0007475, "name": "25676c5319a2059fae1fd2f136ddca1e"}, {"bike_id": "1004421f328f608a81e8f93d063d6436", "type": "electric_scooter", "is_disabled": 0, "lat": 38.917681333333334, "rental_uris": {"ios": "https://dc.lft.to/lastmile_qr_scan", "android": "https://dc.lft.to/lastmile_qr_scan"}, "is_reserved": 0, "fusion_lon": 0.0, "fusion_lat": 0.0, "lon": -77.04766933333333, "name": "1004421f328f608a81e8f93d063d6436"}, {"bike_id": "508a3f56e5765729164b0276db53cc42", "type": "electric_scooter", "is_disabled": 0, "lat": 38.928333, "rental_uris": {"ios": "https://dc.lft.to/lastmile_qr_scan", "android": "https://dc.lft.to/lastmile_qr_scan"}, "is_reserved": 0, "fusion_lon": 0.0, "fusion_lat": 0.0, "lon": -77.02326066666667, "name": "508a3f56e5765729164b0276db53cc42"}, {"bike_id": "885ab452e0524b5548a225cd2063604b", "type": "electric_scooter", "is_disabled": 0, "lat": 38.9213725, "rental_uris": {"ios": "https://dc.lft.to/lastmile_qr_scan", "android": "https://dc.lft.to/lastmile_qr_scan"}, "is_reserved": 0, "fusion_lon": 0.0, "fusion_lat": 0.0, "lon": -77.01807666666667, "name": "885ab452e0524b5548a225cd2063604b"}, {"bike_id": "43697a1c46e24302e2600086a03f9f27", "type": "electric_scooter", "is_disabled": 0, "lat": 38.92825883333333, "rental_uris": {"ios": "https://dc.lft.to/lastmile_qr_scan", "android": "https://dc.lft.to/lastmile_qr_scan"}, "is_reserved": 0, "fusion_lon": 0.0, "fusion_lat": 0.0, "lon": -77.05522366666666, "name": "43697a1c46e24302e2600086a03f9f27"}, {"bike_id": "8b5518dd883141f14abb84fe096c57c1", "type": "electric_scooter", "is_disabled": 0, "lat": 38.88412833333334, "rental_uris": {"ios": "https://dc.lft.to/lastmile_qr_scan", "android": "https://dc.lft.to/lastmile_qr_scan"}, "is_reserved": 0, "fusion_lon": 0.0, "fusion_lat": 0.0, "lon": -77.0074675, "name": "8b5518dd883141f14abb84fe096c57c1"}, {"bike_id": "e2d1cf275728631ced5d89b19e570af2", "type": "electric_scooter", "is_disabled": 0, "lat": 38.86369716666667, "rental_uris": {"ios": "https://dc.lft.to/lastmile_qr_scan", "android": "https://dc.lft.to/lastmile_qr_scan"}, "is_reserved": 0, "fusion_lon": 0.0, "fusion_lat": 0.0, "lon": -76.990584, "name": "e2d1cf275728631ced5d89b19e570af2"}, {"bike_id": "ac43f59afc016767f47880c312a26d94", "type": "electric_bike", "is_disabled": 0, "lat": 38.956235666666664, "rental_uris": {"ios": "https://dc.lft.to/lastmile_qr_scan", "android": "https://dc.lft.to/lastmile_qr_scan"}, "is_reserved": 0, "fusion_lon": 0.0, "fusion_lat": 0.0, "lon": -76.938752, "name": "ac43f59afc016767f47880c312a26d94"}, {"bike_id": "550eed025c298413e8325bf687994ea9", "type": "electric_bike", "is_disabled": 0, "lat": 38.94014116666666, "rental_uris": {"ios": "https://dc.lft.to/lastmile_qr_scan", "android": "https://dc.lft.to/lastmile_qr_scan"}, "is_reserved": 0, "fusion_lon": 0.0, "fusion_lat": 0.0, "lon": -76.97615466666667, "name": "550eed025c298413e8325bf687994ea9"}, {"bike_id": "6b7bad315a014505223b84fb06718496", "type": "electric_scooter", "is_disabled": 0, "lat": 38.916198333333334, "rental_uris": {"ios": "https://dc.lft.to/lastmile_qr_scan", "android": "https://dc.lft.to/lastmile_qr_scan"}, "is_reserved": 0, "fusion_lon": 0.0, "fusion_lat": 0.0, "lon": -77.03211316666666, "name": "6b7bad315a014505223b84fb06718496"}, {"bike_id": "d9ea99352de8e38985eb40d0afa9ef8b", "type": "electric_scooter", "is_disabled": 0, "lat": 38.98433083333333, "rental_uris": {"ios": "https://dc.lft.to/lastmile_qr_scan", "android": "https://dc.lft.to/lastmile_qr_scan"}, "is_reserved": 0, "fusion_lon": 0.0, "fusion_lat": 0.0, "lon": -77.02671916666667, "name": "d9ea99352de8e38985eb40d0afa9ef8b"}, {"bike_id": "b716d374c8ea9b09fc04819b7eef17b9", "type": "electric_scooter", "is_disabled": 0, "lat": 38.927978833333334, "rental_uris": {"ios": "https://dc.lft.to/lastmile_qr_scan", "android": "https://dc.lft.to/lastmile_qr_scan"}, "is_reserved": 0, "fusion_lon": 0.0, "fusion_lat": 0.0, "lon": -77.02605166666666, "name": "b716d374c8ea9b09fc04819b7eef17b9"}, {"bike_id": "7e1b34a08bc9115b05afd3c0e2a71839", "type": "electric_scooter", "is_disabled": 0, "lat": 38.89846216666667, "rental_uris": {"ios": "https://dc.lft.to/lastmile_qr_scan", "android": "https://dc.lft.to/lastmile_qr_scan"}, "is_reserved": 0, "fusion_lon": 0.0, "fusion_lat": 0.0, "lon": -77.03921766666667, "name": "7e1b34a08bc9115b05afd3c0e2a71839"}, {"bike_id": "aa450424cf06071b33bdfa7ad89b6543", "type": "electric_scooter", "is_disabled": 0, "lat": 38.92145516666667, "rental_uris": {"ios": "https://dc.lft.to/lastmile_qr_scan", "android": "https://dc.lft.to/lastmile_qr_scan"}, "is_reserved": 0, "fusion_lon": 0.0, "fusion_lat": 0.0, "lon": -77.0180515, "name": "aa450424cf06071b33bdfa7ad89b6543"}, {"bike_id": "89e7af4d1ba5abddceca1058559c7682", "type": "electric_scooter", "is_disabled": 0, "lat": 38.956813, "rental_uris": {"ios": "https://dc.lft.to/lastmile_qr_scan", "android": "https://dc.lft.to/lastmile_qr_scan"}, "is_reserved": 0, "fusion_lon": 0.0, "fusion_lat": 0.0, "lon": -77.02405483333334, "name": "89e7af4d1ba5abddceca1058559c7682"}, {"bike_id": "b9fa464bc0fc55109030e0b81a53e204", "type": "electric_scooter", "is_disabled": 0, "lat": 38.9072565, "rental_uris": {"ios": "https://dc.lft.to/lastmile_qr_scan", "android": "https://dc.lft.to/lastmile_qr_scan"}, "is_reserved": 0, "fusion_lon": 0.0, "fusion_lat": 0.0, "lon": -77.05326516666666, "name": "b9fa464bc0fc55109030e0b81a53e204"}, {"bike_id": "43fe82b0662cf30c66bd35cecfea876e", "type": "electric_scooter", "is_disabled": 0, "lat": 38.932344, "rental_uris": {"ios": "https://dc.lft.to/lastmile_qr_scan", "android": "https://dc.lft.to/lastmile_qr_scan"}, "is_reserved": 0, "fusion_lon": 0.0, "fusion_lat": 0.0, "lon": -77.03590183333333, "name": "43fe82b0662cf30c66bd35cecfea876e"}, {"bike_id": "172d4b3c70937a6059fab05e8130b0f3", "type": "electric_scooter", "is_disabled": 0, "lat": 38.920606666666664, "rental_uris": {"ios": "https://dc.lft.to/lastmile_qr_scan", "android": "https://dc.lft.to/lastmile_qr_scan"}, "is_reserved": 0, "fusion_lon": 0.0, "fusion_lat": 0.0, "lon": -77.03468933333333, "name": "172d4b3c70937a6059fab05e8130b0f3"}, {"bike_id": "f4fce0e06d4fa7a1fe4c56e7f4c8f459", "type": "electric_scooter", "is_disabled": 0, "lat": 38.9196855, "rental_uris": {"ios": "https://dc.lft.to/lastmile_qr_scan", "android": "https://dc.lft.to/lastmile_qr_scan"}, "is_reserved": 0, "fusion_lon": 0.0, "fusion_lat": 0.0, "lon": -77.03328533333334, "name": "f4fce0e06d4fa7a1fe4c56e7f4c8f459"}, {"bike_id": "4f44d05e722e8dbcaf1426f60bbb073b", "type": "electric_scooter", "is_disabled": 0, "lat": 38.88477566666667, "rental_uris": {"ios": "https://dc.lft.to/lastmile_qr_scan", "android": "https://dc.lft.to/lastmile_qr_scan"}, "is_reserved": 0, "fusion_lon": 0.0, "fusion_lat": 0.0, "lon": -77.01502033333334, "name": "4f44d05e722e8dbcaf1426f60bbb073b"}, {"bike_id": "dc255ca815616ddda586eb4c75ab9b80", "type": "electric_scooter", "is_disabled": 0, "lat": 38.926843, "rental_uris": {"ios": "https://dc.lft.to/lastmile_qr_scan", "android": "https://dc.lft.to/lastmile_qr_scan"}, "is_reserved": 0, "fusion_lon": 0.0, "fusion_lat": 0.0, "lon": -77.0215805, "name": "dc255ca815616ddda586eb4c75ab9b80"}, {"bike_id": "e5c4d89ca03549409c371a1ccd65642c", "type": "electric_scooter", "is_disabled": 0, "lat": 38.933421333333335, "rental_uris": {"ios": "https://dc.lft.to/lastmile_qr_scan", "android": "https://dc.lft.to/lastmile_qr_scan"}, "is_reserved": 0, "fusion_lon": 0.0, "fusion_lat": 0.0, "lon": -77.02376583333333, "name": "e5c4d89ca03549409c371a1ccd65642c"}, {"bike_id": "9c2ac22ca06280cd5d77d56489a21a8d", "type": "electric_scooter", "is_disabled": 0, "lat": 38.91211283333333, "rental_uris": {"ios": "https://dc.lft.to/lastmile_qr_scan", "android": "https://dc.lft.to/lastmile_qr_scan"}, "is_reserved": 0, "fusion_lon": 0.0, "fusion_lat": 0.0, "lon": -77.0344665, "name": "9c2ac22ca06280cd5d77d56489a21a8d"}, {"bike_id": "fb09eb1041ae87ee076c2711706b7e0a", "type": "electric_scooter", "is_disabled": 0, "lat": 38.929705166666665, "rental_uris": {"ios": "https://dc.lft.to/lastmile_qr_scan", "android": "https://dc.lft.to/lastmile_qr_scan"}, "is_reserved": 0, "fusion_lon": 0.0, "fusion_lat": 0.0, "lon": -77.0279635, "name": "fb09eb1041ae87ee076c2711706b7e0a"}, {"bike_id": "cd71e837222acb1e5e8671670d4897cd", "type": "electric_scooter", "is_disabled": 0, "lat": 38.893206666666664, "rental_uris": {"ios": "https://dc.lft.to/lastmile_qr_scan", "android": "https://dc.lft.to/lastmile_qr_scan"}, "is_reserved": 0, "fusion_lon": 0.0, "fusion_lat": 0.0, "lon": -77.04873883333333, "name": "cd71e837222acb1e5e8671670d4897cd"}, {"bike_id": "094cc07ed6980c2dbb2d9e07308f78ef", "type": "electric_scooter", "is_disabled": 0, "lat": 38.9309495, "rental_uris": {"ios": "https://dc.lft.to/lastmile_qr_scan", "android": "https://dc.lft.to/lastmile_qr_scan"}, "is_reserved": 0, "fusion_lon": 0.0, "fusion_lat": 0.0, "lon": -77.034886, "name": "094cc07ed6980c2dbb2d9e07308f78ef"}, {"bike_id": "96710b8da6c7ef1b4e7e0dacc1f60cae", "type": "electric_scooter", "is_disabled": 0, "lat": 38.874529833333334, "rental_uris": {"ios": "https://dc.lft.to/lastmile_qr_scan", "android": "https://dc.lft.to/lastmile_qr_scan"}, "is_reserved": 0, "fusion_lon": 0.0, "fusion_lat": 0.0, "lon": -77.0093945, "name": "96710b8da6c7ef1b4e7e0dacc1f60cae"}, {"bike_id": "b469000c7c142033e0e7d46cd68f9896", "type": "electric_scooter", "is_disabled": 0, "lat": 38.87880283333333, "rental_uris": {"ios": "https://dc.lft.to/lastmile_qr_scan", "android": "https://dc.lft.to/lastmile_qr_scan"}, "is_reserved": 0, "fusion_lon": 0.0, "fusion_lat": 0.0, "lon": -77.02239916666667, "name": "b469000c7c142033e0e7d46cd68f9896"}, {"bike_id": "1f7f349a40d210ba4ec27f3838acedca", "type": "electric_scooter", "is_disabled": 0, "lat": 38.908661333333335, "rental_uris": {"ios": "https://dc.lft.to/lastmile_qr_scan", "android": "https://dc.lft.to/lastmile_qr_scan"}, "is_reserved": 0, "fusion_lon": 0.0, "fusion_lat": 0.0, "lon": -77.04486366666667, "name": "1f7f349a40d210ba4ec27f3838acedca"}, {"bike_id": "e1b39d72aff2ba585e1ad12e7b53231c", "type": "electric_scooter", "is_disabled": 0, "lat": 38.913339666666666, "rental_uris": {"ios": "https://dc.lft.to/lastmile_qr_scan", "android": "https://dc.lft.to/lastmile_qr_scan"}, "is_reserved": 0, "fusion_lon": 0.0, "fusion_lat": 0.0, "lon": -77.02516483333333, "name": "e1b39d72aff2ba585e1ad12e7b53231c"}, {"bike_id": "339feb9639623870759b8032a92c10e1", "type": "electric_scooter", "is_disabled": 0, "lat": 38.92293883333333, "rental_uris": {"ios": "https://dc.lft.to/lastmile_qr_scan", "android": "https://dc.lft.to/lastmile_qr_scan"}, "is_reserved": 0, "fusion_lon": 0.0, "fusion_lat": 0.0, "lon": -77.07300383333333, "name": "339feb9639623870759b8032a92c10e1"}, {"bike_id": "48b9a3269abfa35b9b33e626b50b1d7f", "type": "electric_scooter", "is_disabled": 0, "lat": 38.911819333333334, "rental_uris": {"ios": "https://dc.lft.to/lastmile_qr_scan", "android": "https://dc.lft.to/lastmile_qr_scan"}, "is_reserved": 0, "fusion_lon": 0.0, "fusion_lat": 0.0, "lon": -77.02382616666667, "name": "48b9a3269abfa35b9b33e626b50b1d7f"}, {"bike_id": "7557b6c7e77ff785c1e3e70ed5457a0b", "type": "electric_bike", "is_disabled": 0, "lat": 38.8361045, "rental_uris": {"ios": "https://dc.lft.to/lastmile_qr_scan", "android": "https://dc.lft.to/lastmile_qr_scan"}, "is_reserved": 0, "fusion_lon": 0.0, "fusion_lat": 0.0, "lon": -77.00383183333334, "name": "7557b6c7e77ff785c1e3e70ed5457a0b"}, {"bike_id": "2de2625688503806b89e3101fe3b73af", "type": "electric_scooter", "is_disabled": 0, "lat": 38.907849, "rental_uris": {"ios": "https://dc.lft.to/lastmile_qr_scan", "android": "https://dc.lft.to/lastmile_qr_scan"}, "is_reserved": 0, "fusion_lon": 0.0, "fusion_lat": 0.0, "lon": -77.06428283333334, "name": "2de2625688503806b89e3101fe3b73af"}, {"bike_id": "07c2bf31f36c04b90ec8b5cfa4988d47", "type": "electric_scooter", "is_disabled": 0, "lat": 38.90755716666666, "rental_uris": {"ios": "https://dc.lft.to/lastmile_qr_scan", "android": "https://dc.lft.to/lastmile_qr_scan"}, "is_reserved": 0, "fusion_lon": 0.0, "fusion_lat": 0.0, "lon": -77.03606366666666, "name": "07c2bf31f36c04b90ec8b5cfa4988d47"}, {"bike_id": "4a51047b2bf2ba03889c06e63e404544", "type": "electric_bike", "is_disabled": 0, "lat": 38.871300166666664, "rental_uris": {"ios": "https://dc.lft.to/lastmile_qr_scan", "android": "https://dc.lft.to/lastmile_qr_scan"}, "is_reserved": 0, "fusion_lon": 0.0, "fusion_lat": 0.0, "lon": -77.10028216666667, "name": "4a51047b2bf2ba03889c06e63e404544"}, {"bike_id": "7aae660bdea757b64c91d78711b3eba6", "type": "electric_scooter", "is_disabled": 0, "lat": 38.921026499999996, "rental_uris": {"ios": "https://dc.lft.to/lastmile_qr_scan", "android": "https://dc.lft.to/lastmile_qr_scan"}, "is_reserved": 0, "fusion_lon": 0.0, "fusion_lat": 0.0, "lon": -77.02216333333334, "name": "7aae660bdea757b64c91d78711b3eba6"}, {"bike_id": "e9da1629c5aacf68019afd81c32f8691", "type": "electric_scooter", "is_disabled": 0, "lat": 38.899105666666664, "rental_uris": {"ios": "https://dc.lft.to/lastmile_qr_scan", "android": "https://dc.lft.to/lastmile_qr_scan"}, "is_reserved": 0, "fusion_lon": 0.0, "fusion_lat": 0.0, "lon": -76.93370516666667, "name": "e9da1629c5aacf68019afd81c32f8691"}, {"bike_id": "e87836000a648f77e462e45da128d1c5", "type": "electric_scooter", "is_disabled": 0, "lat": 38.92052433333333, "rental_uris": {"ios": "https://dc.lft.to/lastmile_qr_scan", "android": "https://dc.lft.to/lastmile_qr_scan"}, "is_reserved": 0, "fusion_lon": 0.0, "fusion_lat": 0.0, "lon": -77.02399966666667, "name": "e87836000a648f77e462e45da128d1c5"}, {"bike_id": "c42548ff375c301220bb5b18023a4dec", "type": "electric_scooter", "is_disabled": 0, "lat": 38.906303, "rental_uris": {"ios": "https://dc.lft.to/lastmile_qr_scan", "android": "https://dc.lft.to/lastmile_qr_scan"}, "is_reserved": 0, "fusion_lon": 0.0, "fusion_lat": 0.0, "lon": -77.04876783333333, "name": "c42548ff375c301220bb5b18023a4dec"}, {"bike_id": "fa24b45f22fd9b85065d3ca7669f9a8f", "type": "electric_scooter", "is_disabled": 0, "lat": 38.918648, "rental_uris": {"ios": "https://dc.lft.to/lastmile_qr_scan", "android": "https://dc.lft.to/lastmile_qr_scan"}, "is_reserved": 0, "fusion_lon": 0.0, "fusion_lat": 0.0, "lon": -77.04455666666667, "name": "fa24b45f22fd9b85065d3ca7669f9a8f"}, {"bike_id": "f68edc3d8eae35a299269ba46b190a20", "type": "electric_scooter", "is_disabled": 0, "lat": 38.930232, "rental_uris": {"ios": "https://dc.lft.to/lastmile_qr_scan", "android": "https://dc.lft.to/lastmile_qr_scan"}, "is_reserved": 0, "fusion_lon": 0.0, "fusion_lat": 0.0, "lon": -77.03798533333334, "name": "f68edc3d8eae35a299269ba46b190a20"}, {"bike_id": "2e097f0f13b6462b9ff098f599a6b087", "type": "electric_scooter", "is_disabled": 0, "lat": 38.89612966666667, "rental_uris": {"ios": "https://dc.lft.to/lastmile_qr_scan", "android": "https://dc.lft.to/lastmile_qr_scan"}, "is_reserved": 0, "fusion_lon": 0.0, "fusion_lat": 0.0, "lon": -77.00021266666667, "name": "2e097f0f13b6462b9ff098f599a6b087"}, {"bike_id": "3dc5b487ba1fe3c976e0a5f6a1bec808", "type": "electric_scooter", "is_disabled": 0, "lat": 38.96139816666667, "rental_uris": {"ios": "https://dc.lft.to/lastmile_qr_scan", "android": "https://dc.lft.to/lastmile_qr_scan"}, "is_reserved": 0, "fusion_lon": 0.0, "fusion_lat": 0.0, "lon": -77.02989166666667, "name": "3dc5b487ba1fe3c976e0a5f6a1bec808"}, {"bike_id": "19854248634488af65a471021cca4171", "type": "electric_scooter", "is_disabled": 0, "lat": 38.903667166666665, "rental_uris": {"ios": "https://dc.lft.to/lastmile_qr_scan", "android": "https://dc.lft.to/lastmile_qr_scan"}, "is_reserved": 0, "fusion_lon": 0.0, "fusion_lat": 0.0, "lon": -77.01190333333334, "name": "19854248634488af65a471021cca4171"}, {"bike_id": "a5bcc97a297d71225d1ea9213adfd84f", "type": "electric_scooter", "is_disabled": 0, "lat": 38.900488833333334, "rental_uris": {"ios": "https://dc.lft.to/lastmile_qr_scan", "android": "https://dc.lft.to/lastmile_qr_scan"}, "is_reserved": 0, "fusion_lon": 0.0, "fusion_lat": 0.0, "lon": -77.03658533333333, "name": "a5bcc97a297d71225d1ea9213adfd84f"}, {"bike_id": "c20b3287506e8855459a7732e0f4181e", "type": "electric_bike", "is_disabled": 0, "lat": 38.92900266666667, "rental_uris": {"ios": "https://dc.lft.to/lastmile_qr_scan", "android": "https://dc.lft.to/lastmile_qr_scan"}, "is_reserved": 0, "fusion_lon": 0.0, "fusion_lat": 0.0, "lon": -77.0326655, "name": "c20b3287506e8855459a7732e0f4181e"}, {"bike_id": "43798d3f799a880ed167cba87f83015a", "type": "electric_scooter", "is_disabled": 0, "lat": 38.906750333333335, "rental_uris": {"ios": "https://dc.lft.to/lastmile_qr_scan", "android": "https://dc.lft.to/lastmile_qr_scan"}, "is_reserved": 0, "fusion_lon": 0.0, "fusion_lat": 0.0, "lon": -77.0380705, "name": "43798d3f799a880ed167cba87f83015a"}, {"bike_id": "aaf5244c3c18ba595b50723ccd29177d", "type": "electric_scooter", "is_disabled": 0, "lat": 38.90252683333333, "rental_uris": {"ios": "https://dc.lft.to/lastmile_qr_scan", "android": "https://dc.lft.to/lastmile_qr_scan"}, "is_reserved": 0, "fusion_lon": 0.0, "fusion_lat": 0.0, "lon": -76.97548133333333, "name": "aaf5244c3c18ba595b50723ccd29177d"}, {"bike_id": "bff6a28921d2f5cb21d965bec99c44d0", "type": "electric_scooter", "is_disabled": 0, "lat": 38.922103166666666, "rental_uris": {"ios": "https://dc.lft.to/lastmile_qr_scan", "android": "https://dc.lft.to/lastmile_qr_scan"}, "is_reserved": 0, "fusion_lon": 0.0, "fusion_lat": 0.0, "lon": -77.03458366666666, "name": "bff6a28921d2f5cb21d965bec99c44d0"}, {"bike_id": "236964c11f8a0d41713dc4805fadb8a0", "type": "electric_bike", "is_disabled": 0, "lat": 39.039842166666666, "rental_uris": {"ios": "https://dc.lft.to/lastmile_qr_scan", "android": "https://dc.lft.to/lastmile_qr_scan"}, "is_reserved": 0, "fusion_lon": 0.0, "fusion_lat": 0.0, "lon": -76.999297, "name": "236964c11f8a0d41713dc4805fadb8a0"}, {"bike_id": "45ac5038991b4e40d8b9aa42fb326cdc", "type": "electric_scooter", "is_disabled": 0, "lat": 38.904934833333336, "rental_uris": {"ios": "https://dc.lft.to/lastmile_qr_scan", "android": "https://dc.lft.to/lastmile_qr_scan"}, "is_reserved": 0, "fusion_lon": 0.0, "fusion_lat": 0.0, "lon": -76.9868165, "name": "45ac5038991b4e40d8b9aa42fb326cdc"}, {"bike_id": "1bc6b5325af3158d3d113bf95305ff5e", "type": "electric_scooter", "is_disabled": 0, "lat": 38.89731366666667, "rental_uris": {"ios": "https://dc.lft.to/lastmile_qr_scan", "android": "https://dc.lft.to/lastmile_qr_scan"}, "is_reserved": 0, "fusion_lon": 0.0, "fusion_lat": 0.0, "lon": -77.0547575, "name": "1bc6b5325af3158d3d113bf95305ff5e"}, {"bike_id": "05bcbc7cbf63c1af5fd974b715ef1692", "type": "electric_scooter", "is_disabled": 0, "lat": 38.8923075, "rental_uris": {"ios": "https://dc.lft.to/lastmile_qr_scan", "android": "https://dc.lft.to/lastmile_qr_scan"}, "is_reserved": 0, "fusion_lon": 0.0, "fusion_lat": 0.0, "lon": -77.050005, "name": "05bcbc7cbf63c1af5fd974b715ef1692"}, {"bike_id": "6d10da473054cfb11d3fb699f5ebb6a8", "type": "electric_bike", "is_disabled": 0, "lat": 38.80388283333333, "rental_uris": {"ios": "https://dc.lft.to/lastmile_qr_scan", "android": "https://dc.lft.to/lastmile_qr_scan"}, "is_reserved": 0, "fusion_lon": 0.0, "fusion_lat": 0.0, "lon": -77.05561333333333, "name": "6d10da473054cfb11d3fb699f5ebb6a8"}, {"bike_id": "a0ed5c9786fece8d0d9563a5d844783f", "type": "electric_scooter", "is_disabled": 0, "lat": 38.938963333333334, "rental_uris": {"ios": "https://dc.lft.to/lastmile_qr_scan", "android": "https://dc.lft.to/lastmile_qr_scan"}, "is_reserved": 0, "fusion_lon": 0.0, "fusion_lat": 0.0, "lon": -77.03322466666667, "name": "a0ed5c9786fece8d0d9563a5d844783f"}, {"bike_id": "45372ab1804ad461566e090a95ee672e", "type": "electric_scooter", "is_disabled": 0, "lat": 38.89265733333333, "rental_uris": {"ios": "https://dc.lft.to/lastmile_qr_scan", "android": "https://dc.lft.to/lastmile_qr_scan"}, "is_reserved": 0, "fusion_lon": 0.0, "fusion_lat": 0.0, "lon": -77.02041083333333, "name": "45372ab1804ad461566e090a95ee672e"}, {"bike_id": "fb6bf560ea0cecc04169fe3f6e12c00e", "type": "electric_scooter", "is_disabled": 0, "lat": 38.94197483333333, "rental_uris": {"ios": "https://dc.lft.to/lastmile_qr_scan", "android": "https://dc.lft.to/lastmile_qr_scan"}, "is_reserved": 0, "fusion_lon": 0.0, "fusion_lat": 0.0, "lon": -77.025461, "name": "fb6bf560ea0cecc04169fe3f6e12c00e"}, {"bike_id": "6e928de34a9914185e739ea56405b8b6", "type": "electric_scooter", "is_disabled": 0, "lat": 38.93976683333333, "rental_uris": {"ios": "https://dc.lft.to/lastmile_qr_scan", "android": "https://dc.lft.to/lastmile_qr_scan"}, "is_reserved": 0, "fusion_lon": 0.0, "fusion_lat": 0.0, "lon": -77.02872166666667, "name": "6e928de34a9914185e739ea56405b8b6"}, {"bike_id": "c39f326b85c00c659662967f0cb7e6ba", "type": "electric_scooter", "is_disabled": 0, "lat": 38.86624416666667, "rental_uris": {"ios": "https://dc.lft.to/lastmile_qr_scan", "android": "https://dc.lft.to/lastmile_qr_scan"}, "is_reserved": 0, "fusion_lon": 0.0, "fusion_lat": 0.0, "lon": -76.98717516666666, "name": "c39f326b85c00c659662967f0cb7e6ba"}, {"bike_id": "0eda9428f49e438f87782925812012cd", "type": "electric_scooter", "is_disabled": 0, "lat": 38.8706775, "rental_uris": {"ios": "https://dc.lft.to/lastmile_qr_scan", "android": "https://dc.lft.to/lastmile_qr_scan"}, "is_reserved": 0, "fusion_lon": 0.0, "fusion_lat": 0.0, "lon": -76.98130666666667, "name": "0eda9428f49e438f87782925812012cd"}, {"bike_id": "252d14309b6a59b05c07509b1fe93ee1", "type": "electric_bike", "is_disabled": 0, "lat": 38.864803, "rental_uris": {"ios": "https://dc.lft.to/lastmile_qr_scan", "android": "https://dc.lft.to/lastmile_qr_scan"}, "is_reserved": 0, "fusion_lon": 0.0, "fusion_lat": 0.0, "lon": -76.97744433333334, "name": "252d14309b6a59b05c07509b1fe93ee1"}, {"bike_id": "a2f30f08dba5db57fc0c4686137c66b3", "type": "electric_scooter", "is_disabled": 0, "lat": 38.858073166666664, "rental_uris": {"ios": "https://dc.lft.to/lastmile_qr_scan", "android": "https://dc.lft.to/lastmile_qr_scan"}, "is_reserved": 0, "fusion_lon": 0.0, "fusion_lat": 0.0, "lon": -76.9892655, "name": "a2f30f08dba5db57fc0c4686137c66b3"}, {"bike_id": "92044037d98b1af35ac5024e112194b1", "type": "electric_scooter", "is_disabled": 0, "lat": 38.914926666666666, "rental_uris": {"ios": "https://dc.lft.to/lastmile_qr_scan", "android": "https://dc.lft.to/lastmile_qr_scan"}, "is_reserved": 0, "fusion_lon": 0.0, "fusion_lat": 0.0, "lon": -77.02501216666667, "name": "92044037d98b1af35ac5024e112194b1"}, {"bike_id": "a39eda52a4f893fbdfc960927cd1f18e", "type": "electric_scooter", "is_disabled": 0, "lat": 38.91734966666667, "rental_uris": {"ios": "https://dc.lft.to/lastmile_qr_scan", "android": "https://dc.lft.to/lastmile_qr_scan"}, "is_reserved": 0, "fusion_lon": 0.0, "fusion_lat": 0.0, "lon": -77.02817333333333, "name": "a39eda52a4f893fbdfc960927cd1f18e"}, {"bike_id": "3b80b657ad933c9f42524e5a05999ec5", "type": "electric_scooter", "is_disabled": 0, "lat": 38.912673833333336, "rental_uris": {"ios": "https://dc.lft.to/lastmile_qr_scan", "android": "https://dc.lft.to/lastmile_qr_scan"}, "is_reserved": 0, "fusion_lon": 0.0, "fusion_lat": 0.0, "lon": -77.00226316666667, "name": "3b80b657ad933c9f42524e5a05999ec5"}, {"bike_id": "bfb088c9a9da6ed57a0448424a78b096", "type": "electric_scooter", "is_disabled": 0, "lat": 38.90019483333333, "rental_uris": {"ios": "https://dc.lft.to/lastmile_qr_scan", "android": "https://dc.lft.to/lastmile_qr_scan"}, "is_reserved": 0, "fusion_lon": 0.0, "fusion_lat": 0.0, "lon": -77.003819, "name": "bfb088c9a9da6ed57a0448424a78b096"}, {"bike_id": "4bb428f87eaa0138358ac9b7a7b03cba", "type": "electric_scooter", "is_disabled": 0, "lat": 38.897559666666666, "rental_uris": {"ios": "https://dc.lft.to/lastmile_qr_scan", "android": "https://dc.lft.to/lastmile_qr_scan"}, "is_reserved": 0, "fusion_lon": 0.0, "fusion_lat": 0.0, "lon": -77.02688716666667, "name": "4bb428f87eaa0138358ac9b7a7b03cba"}, {"bike_id": "4eeae5e78062b141f33c2693bddf61e5", "type": "electric_scooter", "is_disabled": 0, "lat": 38.9170975, "rental_uris": {"ios": "https://dc.lft.to/lastmile_qr_scan", "android": "https://dc.lft.to/lastmile_qr_scan"}, "is_reserved": 0, "fusion_lon": 0.0, "fusion_lat": 0.0, "lon": -77.0289485, "name": "4eeae5e78062b141f33c2693bddf61e5"}, {"bike_id": "f8be03bde8ad513ced40a262cd9a10bf", "type": "electric_scooter", "is_disabled": 0, "lat": 38.928541833333334, "rental_uris": {"ios": "https://dc.lft.to/lastmile_qr_scan", "android": "https://dc.lft.to/lastmile_qr_scan"}, "is_reserved": 0, "fusion_lon": 0.0, "fusion_lat": 0.0, "lon": -77.0327915, "name": "f8be03bde8ad513ced40a262cd9a10bf"}, {"bike_id": "19c321f5b8ea43750d58cfa04e5935b7", "type": "electric_scooter", "is_disabled": 0, "lat": 38.887361, "rental_uris": {"ios": "https://dc.lft.to/lastmile_qr_scan", "android": "https://dc.lft.to/lastmile_qr_scan"}, "is_reserved": 0, "fusion_lon": 0.0, "fusion_lat": 0.0, "lon": -77.01767733333334, "name": "19c321f5b8ea43750d58cfa04e5935b7"}, {"bike_id": "68590c2a049f2702bc6b1b77cff142df", "type": "electric_scooter", "is_disabled": 0, "lat": 38.862445, "rental_uris": {"ios": "https://dc.lft.to/lastmile_qr_scan", "android": "https://dc.lft.to/lastmile_qr_scan"}, "is_reserved": 0, "fusion_lon": 0.0, "fusion_lat": 0.0, "lon": -76.9950165, "name": "68590c2a049f2702bc6b1b77cff142df"}, {"bike_id": "0e0246cddc1c0bf6cc810bd2fb91056e", "type": "electric_scooter", "is_disabled": 0, "lat": 38.920138333333334, "rental_uris": {"ios": "https://dc.lft.to/lastmile_qr_scan", "android": "https://dc.lft.to/lastmile_qr_scan"}, "is_reserved": 0, "fusion_lon": 0.0, "fusion_lat": 0.0, "lon": -76.99570583333333, "name": "0e0246cddc1c0bf6cc810bd2fb91056e"}, {"bike_id": "9bb13ae81b209d64aa975775469919fc", "type": "electric_scooter", "is_disabled": 0, "lat": 38.91778016666667, "rental_uris": {"ios": "https://dc.lft.to/lastmile_qr_scan", "android": "https://dc.lft.to/lastmile_qr_scan"}, "is_reserved": 0, "fusion_lon": 0.0, "fusion_lat": 0.0, "lon": -77.02402566666666, "name": "9bb13ae81b209d64aa975775469919fc"}, {"bike_id": "a469aab1ea08252b06912b943d5ad0bb", "type": "electric_scooter", "is_disabled": 0, "lat": 38.921363166666666, "rental_uris": {"ios": "https://dc.lft.to/lastmile_qr_scan", "android": "https://dc.lft.to/lastmile_qr_scan"}, "is_reserved": 0, "fusion_lon": 0.0, "fusion_lat": 0.0, "lon": -77.01808, "name": "a469aab1ea08252b06912b943d5ad0bb"}, {"bike_id": "e3afa7f638125dd7fa16f64bb43ee42b", "type": "electric_scooter", "is_disabled": 0, "lat": 38.8805645, "rental_uris": {"ios": "https://dc.lft.to/lastmile_qr_scan", "android": "https://dc.lft.to/lastmile_qr_scan"}, "is_reserved": 0, "fusion_lon": 0.0, "fusion_lat": 0.0, "lon": -76.93213683333333, "name": "e3afa7f638125dd7fa16f64bb43ee42b"}, {"bike_id": "0e984ff0a3f5dcf4b20de43ed8bd8990", "type": "electric_scooter", "is_disabled": 0, "lat": 38.905994, "rental_uris": {"ios": "https://dc.lft.to/lastmile_qr_scan", "android": "https://dc.lft.to/lastmile_qr_scan"}, "is_reserved": 0, "fusion_lon": 0.0, "fusion_lat": 0.0, "lon": -77.07006133333333, "name": "0e984ff0a3f5dcf4b20de43ed8bd8990"}, {"bike_id": "2df382f079d2f33856ebc69feee0cae7", "type": "electric_scooter", "is_disabled": 0, "lat": 38.90688333333333, "rental_uris": {"ios": "https://dc.lft.to/lastmile_qr_scan", "android": "https://dc.lft.to/lastmile_qr_scan"}, "is_reserved": 0, "fusion_lon": 0.0, "fusion_lat": 0.0, "lon": -77.036741, "name": "2df382f079d2f33856ebc69feee0cae7"}, {"bike_id": "daf49657e71022dc36d7c989b702e161", "type": "electric_scooter", "is_disabled": 0, "lat": 38.9322195, "rental_uris": {"ios": "https://dc.lft.to/lastmile_qr_scan", "android": "https://dc.lft.to/lastmile_qr_scan"}, "is_reserved": 0, "fusion_lon": 0.0, "fusion_lat": 0.0, "lon": -77.03043283333334, "name": "daf49657e71022dc36d7c989b702e161"}, {"bike_id": "8bf594116c2e0176ba543708cc09dd0b", "type": "electric_scooter", "is_disabled": 0, "lat": 38.956025, "rental_uris": {"ios": "https://dc.lft.to/lastmile_qr_scan", "android": "https://dc.lft.to/lastmile_qr_scan"}, "is_reserved": 0, "fusion_lon": 0.0, "fusion_lat": 0.0, "lon": -77.00097633333333, "name": "8bf594116c2e0176ba543708cc09dd0b"}, {"bike_id": "080872566f5268b76ebf7502969a7cb9", "type": "electric_scooter", "is_disabled": 0, "lat": 38.9068245, "rental_uris": {"ios": "https://dc.lft.to/lastmile_qr_scan", "android": "https://dc.lft.to/lastmile_qr_scan"}, "is_reserved": 0, "fusion_lon": 0.0, "fusion_lat": 0.0, "lon": -77.0651725, "name": "080872566f5268b76ebf7502969a7cb9"}, {"bike_id": "26d1bb6718185c25d910786b536a7ab3", "type": "electric_scooter", "is_disabled": 0, "lat": 38.91729016666667, "rental_uris": {"ios": "https://dc.lft.to/lastmile_qr_scan", "android": "https://dc.lft.to/lastmile_qr_scan"}, "is_reserved": 0, "fusion_lon": 0.0, "fusion_lat": 0.0, "lon": -77.04175766666667, "name": "26d1bb6718185c25d910786b536a7ab3"}, {"bike_id": "76c95dd65ff9cb3a93d35edfaf61bc87", "type": "electric_bike", "is_disabled": 0, "lat": 38.906537666666665, "rental_uris": {"ios": "https://dc.lft.to/lastmile_qr_scan", "android": "https://dc.lft.to/lastmile_qr_scan"}, "is_reserved": 0, "fusion_lon": 0.0, "fusion_lat": 0.0, "lon": -77.00899716666666, "name": "76c95dd65ff9cb3a93d35edfaf61bc87"}, {"bike_id": "0bf997ca21b9b71133be54e7d0628ba0", "type": "electric_scooter", "is_disabled": 0, "lat": 38.9201195, "rental_uris": {"ios": "https://dc.lft.to/lastmile_qr_scan", "android": "https://dc.lft.to/lastmile_qr_scan"}, "is_reserved": 0, "fusion_lon": 0.0, "fusion_lat": 0.0, "lon": -77.02817083333333, "name": "0bf997ca21b9b71133be54e7d0628ba0"}, {"bike_id": "f7e6b0f876f424b121bf3271407be562", "type": "electric_scooter", "is_disabled": 0, "lat": 38.918212833333335, "rental_uris": {"ios": "https://dc.lft.to/lastmile_qr_scan", "android": "https://dc.lft.to/lastmile_qr_scan"}, "is_reserved": 0, "fusion_lon": 0.0, "fusion_lat": 0.0, "lon": -77.04944983333333, "name": "f7e6b0f876f424b121bf3271407be562"}, {"bike_id": "391de618f5cacb09429f0c7b19420fa4", "type": "electric_scooter", "is_disabled": 0, "lat": 38.914018166666665, "rental_uris": {"ios": "https://dc.lft.to/lastmile_qr_scan", "android": "https://dc.lft.to/lastmile_qr_scan"}, "is_reserved": 0, "fusion_lon": 0.0, "fusion_lat": 0.0, "lon": -77.03176666666667, "name": "391de618f5cacb09429f0c7b19420fa4"}, {"bike_id": "147e0494ec21503fa0bbccb736bdb634", "type": "electric_scooter", "is_disabled": 0, "lat": 38.92086966666667, "rental_uris": {"ios": "https://dc.lft.to/lastmile_qr_scan", "android": "https://dc.lft.to/lastmile_qr_scan"}, "is_reserved": 0, "fusion_lon": 0.0, "fusion_lat": 0.0, "lon": -77.02376966666667, "name": "147e0494ec21503fa0bbccb736bdb634"}, {"bike_id": "8ceb6c7d2b1d14933a3361196780f88e", "type": "electric_scooter", "is_disabled": 0, "lat": 38.964157166666666, "rental_uris": {"ios": "https://dc.lft.to/lastmile_qr_scan", "android": "https://dc.lft.to/lastmile_qr_scan"}, "is_reserved": 0, "fusion_lon": 0.0, "fusion_lat": 0.0, "lon": -77.02430283333334, "name": "8ceb6c7d2b1d14933a3361196780f88e"}, {"bike_id": "507a801f19ca99fbb6e20a1d7db2b86e", "type": "electric_scooter", "is_disabled": 0, "lat": 38.90689533333333, "rental_uris": {"ios": "https://dc.lft.to/lastmile_qr_scan", "android": "https://dc.lft.to/lastmile_qr_scan"}, "is_reserved": 0, "fusion_lon": 0.0, "fusion_lat": 0.0, "lon": -77.03676366666667, "name": "507a801f19ca99fbb6e20a1d7db2b86e"}, {"bike_id": "0c0b26293cae6041297ed190f779d792", "type": "electric_scooter", "is_disabled": 0, "lat": 38.91515366666667, "rental_uris": {"ios": "https://dc.lft.to/lastmile_qr_scan", "android": "https://dc.lft.to/lastmile_qr_scan"}, "is_reserved": 0, "fusion_lon": 0.0, "fusion_lat": 0.0, "lon": -77.0122005, "name": "0c0b26293cae6041297ed190f779d792"}, {"bike_id": "ce82e4a00691faf5ba270fe9bc8b1f31", "type": "electric_scooter", "is_disabled": 0, "lat": 38.92450183333333, "rental_uris": {"ios": "https://dc.lft.to/lastmile_qr_scan", "android": "https://dc.lft.to/lastmile_qr_scan"}, "is_reserved": 0, "fusion_lon": 0.0, "fusion_lat": 0.0, "lon": -77.04201716666667, "name": "ce82e4a00691faf5ba270fe9bc8b1f31"}, {"bike_id": "eaf720a91e252b2fcf486380cb66ac36", "type": "electric_scooter", "is_disabled": 0, "lat": 38.91917016666667, "rental_uris": {"ios": "https://dc.lft.to/lastmile_qr_scan", "android": "https://dc.lft.to/lastmile_qr_scan"}, "is_reserved": 0, "fusion_lon": 0.0, "fusion_lat": 0.0, "lon": -77.04631633333334, "name": "eaf720a91e252b2fcf486380cb66ac36"}, {"bike_id": "f0cf8e14758a55c797da35473c5251c2", "type": "electric_bike", "is_disabled": 0, "lat": 38.8973975, "rental_uris": {"ios": "https://dc.lft.to/lastmile_qr_scan", "android": "https://dc.lft.to/lastmile_qr_scan"}, "is_reserved": 0, "fusion_lon": 0.0, "fusion_lat": 0.0, "lon": -76.9204765, "name": "f0cf8e14758a55c797da35473c5251c2"}, {"bike_id": "55fe46eedde21996ad611c8fb62ee9cd", "type": "electric_scooter", "is_disabled": 0, "lat": 38.90551633333333, "rental_uris": {"ios": "https://dc.lft.to/lastmile_qr_scan", "android": "https://dc.lft.to/lastmile_qr_scan"}, "is_reserved": 0, "fusion_lon": 0.0, "fusion_lat": 0.0, "lon": -77.03817966666666, "name": "55fe46eedde21996ad611c8fb62ee9cd"}, {"bike_id": "3500b604e4f472356ccd012ba7e4db54", "type": "electric_scooter", "is_disabled": 0, "lat": 38.922035, "rental_uris": {"ios": "https://dc.lft.to/lastmile_qr_scan", "android": "https://dc.lft.to/lastmile_qr_scan"}, "is_reserved": 0, "fusion_lon": 0.0, "fusion_lat": 0.0, "lon": -77.03287466666667, "name": "3500b604e4f472356ccd012ba7e4db54"}, {"bike_id": "75666c63c7f1db48bdcc67f9466197e5", "type": "electric_scooter", "is_disabled": 0, "lat": 38.897608, "rental_uris": {"ios": "https://dc.lft.to/lastmile_qr_scan", "android": "https://dc.lft.to/lastmile_qr_scan"}, "is_reserved": 0, "fusion_lon": 0.0, "fusion_lat": 0.0, "lon": -77.02681466666667, "name": "75666c63c7f1db48bdcc67f9466197e5"}, {"bike_id": "cc910bc5732e365ea6bdb99917e2a64e", "type": "electric_scooter", "is_disabled": 0, "lat": 38.91914516666667, "rental_uris": {"ios": "https://dc.lft.to/lastmile_qr_scan", "android": "https://dc.lft.to/lastmile_qr_scan"}, "is_reserved": 0, "fusion_lon": 0.0, "fusion_lat": 0.0, "lon": -77.033613, "name": "cc910bc5732e365ea6bdb99917e2a64e"}, {"bike_id": "ca3727882f25a29b1c26d80a0875eca1", "type": "electric_scooter", "is_disabled": 0, "lat": 38.956315000000004, "rental_uris": {"ios": "https://dc.lft.to/lastmile_qr_scan", "android": "https://dc.lft.to/lastmile_qr_scan"}, "is_reserved": 0, "fusion_lon": 0.0, "fusion_lat": 0.0, "lon": -77.01160916666667, "name": "ca3727882f25a29b1c26d80a0875eca1"}, {"bike_id": "294956c4db803241c621affe655f640a", "type": "electric_scooter", "is_disabled": 0, "lat": 38.89676566666667, "rental_uris": {"ios": "https://dc.lft.to/lastmile_qr_scan", "android": "https://dc.lft.to/lastmile_qr_scan"}, "is_reserved": 0, "fusion_lon": 0.0, "fusion_lat": 0.0, "lon": -77.033598, "name": "294956c4db803241c621affe655f640a"}, {"bike_id": "2918613ef037e43a8537eab484f73442", "type": "electric_scooter", "is_disabled": 0, "lat": 38.95654566666666, "rental_uris": {"ios": "https://dc.lft.to/lastmile_qr_scan", "android": "https://dc.lft.to/lastmile_qr_scan"}, "is_reserved": 0, "fusion_lon": 0.0, "fusion_lat": 0.0, "lon": -77.010056, "name": "2918613ef037e43a8537eab484f73442"}, {"bike_id": "9c1c839cd61bb15a6b9d27aeb9132058", "type": "electric_scooter", "is_disabled": 0, "lat": 38.89521333333333, "rental_uris": {"ios": "https://dc.lft.to/lastmile_qr_scan", "android": "https://dc.lft.to/lastmile_qr_scan"}, "is_reserved": 0, "fusion_lon": 0.0, "fusion_lat": 0.0, "lon": -77.01094033333334, "name": "9c1c839cd61bb15a6b9d27aeb9132058"}, {"bike_id": "58d16eb3c75f742999889e715262030b", "type": "electric_scooter", "is_disabled": 0, "lat": 38.9005925, "rental_uris": {"ios": "https://dc.lft.to/lastmile_qr_scan", "android": "https://dc.lft.to/lastmile_qr_scan"}, "is_reserved": 0, "fusion_lon": 0.0, "fusion_lat": 0.0, "lon": -77.04896116666667, "name": "58d16eb3c75f742999889e715262030b"}, {"bike_id": "8b36c92aa49c655f45a1773ba9118873", "type": "electric_bike", "is_disabled": 0, "lat": 38.874738666666666, "rental_uris": {"ios": "https://dc.lft.to/lastmile_qr_scan", "android": "https://dc.lft.to/lastmile_qr_scan"}, "is_reserved": 0, "fusion_lon": 0.0, "fusion_lat": 0.0, "lon": -76.965244, "name": "8b36c92aa49c655f45a1773ba9118873"}, {"bike_id": "3bbfbfb8f64396195d32466eaa1fea4a", "type": "electric_bike", "is_disabled": 0, "lat": 38.81304983333333, "rental_uris": {"ios": "https://dc.lft.to/lastmile_qr_scan", "android": "https://dc.lft.to/lastmile_qr_scan"}, "is_reserved": 0, "fusion_lon": 0.0, "fusion_lat": 0.0, "lon": -77.1096215, "name": "3bbfbfb8f64396195d32466eaa1fea4a"}, {"bike_id": "068b5b8aa6a1fd092284e6f17b7790b6", "type": "electric_scooter", "is_disabled": 0, "lat": 38.88734066666667, "rental_uris": {"ios": "https://dc.lft.to/lastmile_qr_scan", "android": "https://dc.lft.to/lastmile_qr_scan"}, "is_reserved": 0, "fusion_lon": 0.0, "fusion_lat": 0.0, "lon": -77.015281, "name": "068b5b8aa6a1fd092284e6f17b7790b6"}, {"bike_id": "af1781fc77e823dd2a62821d477be17a", "type": "electric_scooter", "is_disabled": 0, "lat": 38.90828366666667, "rental_uris": {"ios": "https://dc.lft.to/lastmile_qr_scan", "android": "https://dc.lft.to/lastmile_qr_scan"}, "is_reserved": 0, "fusion_lon": 0.0, "fusion_lat": 0.0, "lon": -77.02976616666666, "name": "af1781fc77e823dd2a62821d477be17a"}, {"bike_id": "cf8521b03ac443a47616c1a296430b24", "type": "electric_scooter", "is_disabled": 0, "lat": 38.90677183333333, "rental_uris": {"ios": "https://dc.lft.to/lastmile_qr_scan", "android": "https://dc.lft.to/lastmile_qr_scan"}, "is_reserved": 0, "fusion_lon": 0.0, "fusion_lat": 0.0, "lon": -77.06268566666667, "name": "cf8521b03ac443a47616c1a296430b24"}, {"bike_id": "ab37aecc87f3e05606bf3587f3a15d27", "type": "electric_scooter", "is_disabled": 0, "lat": 38.9086395, "rental_uris": {"ios": "https://dc.lft.to/lastmile_qr_scan", "android": "https://dc.lft.to/lastmile_qr_scan"}, "is_reserved": 0, "fusion_lon": 0.0, "fusion_lat": 0.0, "lon": -77.00190883333333, "name": "ab37aecc87f3e05606bf3587f3a15d27"}, {"bike_id": "635f05fbb1a5fd527eecdb186d32d586", "type": "electric_scooter", "is_disabled": 0, "lat": 38.933887, "rental_uris": {"ios": "https://dc.lft.to/lastmile_qr_scan", "android": "https://dc.lft.to/lastmile_qr_scan"}, "is_reserved": 0, "fusion_lon": 0.0, "fusion_lat": 0.0, "lon": -77.045509, "name": "635f05fbb1a5fd527eecdb186d32d586"}, {"bike_id": "a7ebb6914602b806256571d0f41d25d3", "type": "electric_scooter", "is_disabled": 0, "lat": 38.886978166666665, "rental_uris": {"ios": "https://dc.lft.to/lastmile_qr_scan", "android": "https://dc.lft.to/lastmile_qr_scan"}, "is_reserved": 0, "fusion_lon": 0.0, "fusion_lat": 0.0, "lon": -76.99620716666666, "name": "a7ebb6914602b806256571d0f41d25d3"}, {"bike_id": "a8caad23ffc809e970174e0bb55f3090", "type": "electric_scooter", "is_disabled": 0, "lat": 38.908835, "rental_uris": {"ios": "https://dc.lft.to/lastmile_qr_scan", "android": "https://dc.lft.to/lastmile_qr_scan"}, "is_reserved": 0, "fusion_lon": 0.0, "fusion_lat": 0.0, "lon": -76.9982985, "name": "a8caad23ffc809e970174e0bb55f3090"}, {"bike_id": "578a737b01728219920faa42830b5668", "type": "electric_scooter", "is_disabled": 0, "lat": 38.90167666666667, "rental_uris": {"ios": "https://dc.lft.to/lastmile_qr_scan", "android": "https://dc.lft.to/lastmile_qr_scan"}, "is_reserved": 0, "fusion_lon": 0.0, "fusion_lat": 0.0, "lon": -76.9302715, "name": "578a737b01728219920faa42830b5668"}, {"bike_id": "342d7baec06df419dc0261b2a6dda978", "type": "electric_scooter", "is_disabled": 0, "lat": 38.92410016666667, "rental_uris": {"ios": "https://dc.lft.to/lastmile_qr_scan", "android": "https://dc.lft.to/lastmile_qr_scan"}, "is_reserved": 0, "fusion_lon": 0.0, "fusion_lat": 0.0, "lon": -77.0506165, "name": "342d7baec06df419dc0261b2a6dda978"}, {"bike_id": "261e2564d7db916d99614cc9fb6f50be", "type": "electric_scooter", "is_disabled": 0, "lat": 38.901488, "rental_uris": {"ios": "https://dc.lft.to/lastmile_qr_scan", "android": "https://dc.lft.to/lastmile_qr_scan"}, "is_reserved": 0, "fusion_lon": 0.0, "fusion_lat": 0.0, "lon": -76.9901905, "name": "261e2564d7db916d99614cc9fb6f50be"}, {"bike_id": "94a2955c1e86371c756ef99e06cd2b4b", "type": "electric_scooter", "is_disabled": 0, "lat": 38.882106666666665, "rental_uris": {"ios": "https://dc.lft.to/lastmile_qr_scan", "android": "https://dc.lft.to/lastmile_qr_scan"}, "is_reserved": 0, "fusion_lon": 0.0, "fusion_lat": 0.0, "lon": -77.02910583333333, "name": "94a2955c1e86371c756ef99e06cd2b4b"}, {"bike_id": "c7d9204f0ae24e294a00fe398694747e", "type": "electric_scooter", "is_disabled": 0, "lat": 38.90718733333333, "rental_uris": {"ios": "https://dc.lft.to/lastmile_qr_scan", "android": "https://dc.lft.to/lastmile_qr_scan"}, "is_reserved": 0, "fusion_lon": 0.0, "fusion_lat": 0.0, "lon": -77.04018766666667, "name": "c7d9204f0ae24e294a00fe398694747e"}, {"bike_id": "c37b61e002242f0c8994a080f88c85b4", "type": "electric_scooter", "is_disabled": 0, "lat": 38.906207333333334, "rental_uris": {"ios": "https://dc.lft.to/lastmile_qr_scan", "android": "https://dc.lft.to/lastmile_qr_scan"}, "is_reserved": 0, "fusion_lon": 0.0, "fusion_lat": 0.0, "lon": -77.04166533333333, "name": "c37b61e002242f0c8994a080f88c85b4"}, {"bike_id": "8e36eefb817141c6aa7b36efa1cf2c43", "type": "electric_scooter", "is_disabled": 0, "lat": 38.915905333333335, "rental_uris": {"ios": "https://dc.lft.to/lastmile_qr_scan", "android": "https://dc.lft.to/lastmile_qr_scan"}, "is_reserved": 0, "fusion_lon": 0.0, "fusion_lat": 0.0, "lon": -77.02299533333333, "name": "8e36eefb817141c6aa7b36efa1cf2c43"}, {"bike_id": "57f4f24e53cb87faf77427fc15fe8e42", "type": "electric_scooter", "is_disabled": 0, "lat": 38.90880416666667, "rental_uris": {"ios": "https://dc.lft.to/lastmile_qr_scan", "android": "https://dc.lft.to/lastmile_qr_scan"}, "is_reserved": 0, "fusion_lon": 0.0, "fusion_lat": 0.0, "lon": -77.00260983333334, "name": "57f4f24e53cb87faf77427fc15fe8e42"}, {"bike_id": "23e552f7a59fdc841256afffbac01d66", "type": "electric_bike", "is_disabled": 0, "lat": 38.8651115, "rental_uris": {"ios": "https://dc.lft.to/lastmile_qr_scan", "android": "https://dc.lft.to/lastmile_qr_scan"}, "is_reserved": 0, "fusion_lon": 0.0, "fusion_lat": 0.0, "lon": -77.12942183333334, "name": "23e552f7a59fdc841256afffbac01d66"}, {"bike_id": "a3f3f8c06a788aee640d9413556ec904", "type": "electric_scooter", "is_disabled": 0, "lat": 38.901951333333336, "rental_uris": {"ios": "https://dc.lft.to/lastmile_qr_scan", "android": "https://dc.lft.to/lastmile_qr_scan"}, "is_reserved": 0, "fusion_lon": 0.0, "fusion_lat": 0.0, "lon": -76.99681483333333, "name": "a3f3f8c06a788aee640d9413556ec904"}, {"bike_id": "daacd6858ea00f587ba19393de6943fe", "type": "electric_scooter", "is_disabled": 0, "lat": 38.89219766666667, "rental_uris": {"ios": "https://dc.lft.to/lastmile_qr_scan", "android": "https://dc.lft.to/lastmile_qr_scan"}, "is_reserved": 0, "fusion_lon": 0.0, "fusion_lat": 0.0, "lon": -77.043305, "name": "daacd6858ea00f587ba19393de6943fe"}, {"bike_id": "eb89c0f02187869482549959a8e03a96", "type": "electric_scooter", "is_disabled": 0, "lat": 38.884305833333336, "rental_uris": {"ios": "https://dc.lft.to/lastmile_qr_scan", "android": "https://dc.lft.to/lastmile_qr_scan"}, "is_reserved": 0, "fusion_lon": 0.0, "fusion_lat": 0.0, "lon": -76.95755333333334, "name": "eb89c0f02187869482549959a8e03a96"}, {"bike_id": "181cc1d17d49eab41a185872da44c6cb", "type": "electric_scooter", "is_disabled": 0, "lat": 38.905438, "rental_uris": {"ios": "https://dc.lft.to/lastmile_qr_scan", "android": "https://dc.lft.to/lastmile_qr_scan"}, "is_reserved": 0, "fusion_lon": 0.0, "fusion_lat": 0.0, "lon": -77.04956433333334, "name": "181cc1d17d49eab41a185872da44c6cb"}, {"bike_id": "1616d2d5f581d1d7a3b5238871d79b98", "type": "electric_bike", "is_disabled": 0, "lat": 38.934527, "rental_uris": {"ios": "https://dc.lft.to/lastmile_qr_scan", "android": "https://dc.lft.to/lastmile_qr_scan"}, "is_reserved": 0, "fusion_lon": 0.0, "fusion_lat": 0.0, "lon": -77.0272205, "name": "1616d2d5f581d1d7a3b5238871d79b98"}, {"bike_id": "cd42fa71bef33d0ba3cd2e03610fc6b2", "type": "electric_scooter", "is_disabled": 0, "lat": 38.9174355, "rental_uris": {"ios": "https://dc.lft.to/lastmile_qr_scan", "android": "https://dc.lft.to/lastmile_qr_scan"}, "is_reserved": 0, "fusion_lon": 0.0, "fusion_lat": 0.0, "lon": -77.03657183333333, "name": "cd42fa71bef33d0ba3cd2e03610fc6b2"}, {"bike_id": "c0717e206a3b68fd0e8b9e8e40d9ab82", "type": "electric_scooter", "is_disabled": 0, "lat": 38.93036983333333, "rental_uris": {"ios": "https://dc.lft.to/lastmile_qr_scan", "android": "https://dc.lft.to/lastmile_qr_scan"}, "is_reserved": 0, "fusion_lon": 0.0, "fusion_lat": 0.0, "lon": -77.018207, "name": "c0717e206a3b68fd0e8b9e8e40d9ab82"}, {"bike_id": "6c49808e393718f66a32159f8a67ea84", "type": "electric_scooter", "is_disabled": 0, "lat": 38.896994666666664, "rental_uris": {"ios": "https://dc.lft.to/lastmile_qr_scan", "android": "https://dc.lft.to/lastmile_qr_scan"}, "is_reserved": 0, "fusion_lon": 0.0, "fusion_lat": 0.0, "lon": -76.93001433333333, "name": "6c49808e393718f66a32159f8a67ea84"}, {"bike_id": "710503e44601db6c8e4bcc8cf446a51a", "type": "electric_scooter", "is_disabled": 0, "lat": 38.86731116666667, "rental_uris": {"ios": "https://dc.lft.to/lastmile_qr_scan", "android": "https://dc.lft.to/lastmile_qr_scan"}, "is_reserved": 0, "fusion_lon": 0.0, "fusion_lat": 0.0, "lon": -76.9786195, "name": "710503e44601db6c8e4bcc8cf446a51a"}, {"bike_id": "45f9a22b8123008db3021356bc471c65", "type": "electric_scooter", "is_disabled": 0, "lat": 38.907333, "rental_uris": {"ios": "https://dc.lft.to/lastmile_qr_scan", "android": "https://dc.lft.to/lastmile_qr_scan"}, "is_reserved": 0, "fusion_lon": 0.0, "fusion_lat": 0.0, "lon": -76.97968666666667, "name": "45f9a22b8123008db3021356bc471c65"}, {"bike_id": "4c5de2c16c5bb51117c930386093dd75", "type": "electric_scooter", "is_disabled": 0, "lat": 38.91760033333333, "rental_uris": {"ios": "https://dc.lft.to/lastmile_qr_scan", "android": "https://dc.lft.to/lastmile_qr_scan"}, "is_reserved": 0, "fusion_lon": 0.0, "fusion_lat": 0.0, "lon": -77.0343745, "name": "4c5de2c16c5bb51117c930386093dd75"}, {"bike_id": "5b091d08cd998d3439ee3484f03a3c6d", "type": "electric_scooter", "is_disabled": 0, "lat": 38.90751433333333, "rental_uris": {"ios": "https://dc.lft.to/lastmile_qr_scan", "android": "https://dc.lft.to/lastmile_qr_scan"}, "is_reserved": 0, "fusion_lon": 0.0, "fusion_lat": 0.0, "lon": -77.03177733333334, "name": "5b091d08cd998d3439ee3484f03a3c6d"}, {"bike_id": "719ee45627a59d5452777235de71988a", "type": "electric_bike", "is_disabled": 0, "lat": 38.961135, "rental_uris": {"ios": "https://dc.lft.to/lastmile_qr_scan", "android": "https://dc.lft.to/lastmile_qr_scan"}, "is_reserved": 0, "fusion_lon": 0.0, "fusion_lat": 0.0, "lon": -77.0692135, "name": "719ee45627a59d5452777235de71988a"}, {"bike_id": "07c9b072781e5b6f0c59be29b96c983b", "type": "electric_scooter", "is_disabled": 0, "lat": 38.9144235, "rental_uris": {"ios": "https://dc.lft.to/lastmile_qr_scan", "android": "https://dc.lft.to/lastmile_qr_scan"}, "is_reserved": 0, "fusion_lon": 0.0, "fusion_lat": 0.0, "lon": -77.01994816666667, "name": "07c9b072781e5b6f0c59be29b96c983b"}, {"bike_id": "0bcbcfe13e50b633a2a6f154209587aa", "type": "electric_scooter", "is_disabled": 0, "lat": 38.831188166666664, "rental_uris": {"ios": "https://dc.lft.to/lastmile_qr_scan", "android": "https://dc.lft.to/lastmile_qr_scan"}, "is_reserved": 0, "fusion_lon": 0.0, "fusion_lat": 0.0, "lon": -77.05165633333333, "name": "0bcbcfe13e50b633a2a6f154209587aa"}, {"bike_id": "4d77daf04ec18e038d34e5fc9cbeced7", "type": "electric_scooter", "is_disabled": 0, "lat": 38.916959, "rental_uris": {"ios": "https://dc.lft.to/lastmile_qr_scan", "android": "https://dc.lft.to/lastmile_qr_scan"}, "is_reserved": 0, "fusion_lon": 0.0, "fusion_lat": 0.0, "lon": -77.03218, "name": "4d77daf04ec18e038d34e5fc9cbeced7"}, {"bike_id": "8adb33fe2147b634e771aecf5ff20b2e", "type": "electric_scooter", "is_disabled": 0, "lat": 38.8873475, "rental_uris": {"ios": "https://dc.lft.to/lastmile_qr_scan", "android": "https://dc.lft.to/lastmile_qr_scan"}, "is_reserved": 0, "fusion_lon": 0.0, "fusion_lat": 0.0, "lon": -77.0176785, "name": "8adb33fe2147b634e771aecf5ff20b2e"}, {"bike_id": "e26e83d83943435e39bca010615ab868", "type": "electric_scooter", "is_disabled": 0, "lat": 38.90822983333333, "rental_uris": {"ios": "https://dc.lft.to/lastmile_qr_scan", "android": "https://dc.lft.to/lastmile_qr_scan"}, "is_reserved": 0, "fusion_lon": 0.0, "fusion_lat": 0.0, "lon": -77.04477833333333, "name": "e26e83d83943435e39bca010615ab868"}, {"bike_id": "f31a0b6a5602f5370f7e552b6ac75fe0", "type": "electric_scooter", "is_disabled": 0, "lat": 38.862472, "rental_uris": {"ios": "https://dc.lft.to/lastmile_qr_scan", "android": "https://dc.lft.to/lastmile_qr_scan"}, "is_reserved": 0, "fusion_lon": 0.0, "fusion_lat": 0.0, "lon": -76.99502116666666, "name": "f31a0b6a5602f5370f7e552b6ac75fe0"}, {"bike_id": "285401239628cb57b28563cdd09ea7ff", "type": "electric_scooter", "is_disabled": 0, "lat": 38.923183, "rental_uris": {"ios": "https://dc.lft.to/lastmile_qr_scan", "android": "https://dc.lft.to/lastmile_qr_scan"}, "is_reserved": 0, "fusion_lon": 0.0, "fusion_lat": 0.0, "lon": -77.0390645, "name": "285401239628cb57b28563cdd09ea7ff"}, {"bike_id": "4cedc174b9e36b5e6e85a34019d099b1", "type": "electric_scooter", "is_disabled": 0, "lat": 38.8764095, "rental_uris": {"ios": "https://dc.lft.to/lastmile_qr_scan", "android": "https://dc.lft.to/lastmile_qr_scan"}, "is_reserved": 0, "fusion_lon": 0.0, "fusion_lat": 0.0, "lon": -77.0075045, "name": "4cedc174b9e36b5e6e85a34019d099b1"}, {"bike_id": "72c4826dc15bd74e1599670bfe290a9b", "type": "electric_scooter", "is_disabled": 0, "lat": 38.9023825, "rental_uris": {"ios": "https://dc.lft.to/lastmile_qr_scan", "android": "https://dc.lft.to/lastmile_qr_scan"}, "is_reserved": 0, "fusion_lon": 0.0, "fusion_lat": 0.0, "lon": -77.04149833333334, "name": "72c4826dc15bd74e1599670bfe290a9b"}, {"bike_id": "3fd794d0cd109f9aebfa5001adebec48", "type": "electric_scooter", "is_disabled": 0, "lat": 38.915483, "rental_uris": {"ios": "https://dc.lft.to/lastmile_qr_scan", "android": "https://dc.lft.to/lastmile_qr_scan"}, "is_reserved": 0, "fusion_lon": 0.0, "fusion_lat": 0.0, "lon": -77.031698, "name": "3fd794d0cd109f9aebfa5001adebec48"}, {"bike_id": "892b6d281618a5e4a2f636d104c1f60e", "type": "electric_scooter", "is_disabled": 0, "lat": 38.904285, "rental_uris": {"ios": "https://dc.lft.to/lastmile_qr_scan", "android": "https://dc.lft.to/lastmile_qr_scan"}, "is_reserved": 0, "fusion_lon": 0.0, "fusion_lat": 0.0, "lon": -77.01814483333334, "name": "892b6d281618a5e4a2f636d104c1f60e"}, {"bike_id": "07bd2c10771015dd3c86c8f481209cab", "type": "electric_scooter", "is_disabled": 0, "lat": 38.949977833333335, "rental_uris": {"ios": "https://dc.lft.to/lastmile_qr_scan", "android": "https://dc.lft.to/lastmile_qr_scan"}, "is_reserved": 0, "fusion_lon": 0.0, "fusion_lat": 0.0, "lon": -77.015605, "name": "07bd2c10771015dd3c86c8f481209cab"}, {"bike_id": "0b1152b551a37753c7f8ae44d4347c02", "type": "electric_scooter", "is_disabled": 0, "lat": 38.87178433333333, "rental_uris": {"ios": "https://dc.lft.to/lastmile_qr_scan", "android": "https://dc.lft.to/lastmile_qr_scan"}, "is_reserved": 0, "fusion_lon": 0.0, "fusion_lat": 0.0, "lon": -77.00617, "name": "0b1152b551a37753c7f8ae44d4347c02"}, {"bike_id": "d58fa8665cadbbf0c110a72da63f70dd", "type": "electric_scooter", "is_disabled": 0, "lat": 38.9565775, "rental_uris": {"ios": "https://dc.lft.to/lastmile_qr_scan", "android": "https://dc.lft.to/lastmile_qr_scan"}, "is_reserved": 0, "fusion_lon": 0.0, "fusion_lat": 0.0, "lon": -77.02402983333333, "name": "d58fa8665cadbbf0c110a72da63f70dd"}, {"bike_id": "cdb84ca4808388d4f68ef005b9b7f809", "type": "electric_scooter", "is_disabled": 0, "lat": 38.89006666666667, "rental_uris": {"ios": "https://dc.lft.to/lastmile_qr_scan", "android": "https://dc.lft.to/lastmile_qr_scan"}, "is_reserved": 0, "fusion_lon": 0.0, "fusion_lat": 0.0, "lon": -76.93750583333333, "name": "cdb84ca4808388d4f68ef005b9b7f809"}, {"bike_id": "082ed8378dabc45b1edcc5fe4de9c687", "type": "electric_bike", "is_disabled": 0, "lat": 38.99301416666667, "rental_uris": {"ios": "https://dc.lft.to/lastmile_qr_scan", "android": "https://dc.lft.to/lastmile_qr_scan"}, "is_reserved": 0, "fusion_lon": 0.0, "fusion_lat": 0.0, "lon": -77.02513583333334, "name": "082ed8378dabc45b1edcc5fe4de9c687"}, {"bike_id": "570847b4a1bd3be2433f532740f8ac6e", "type": "electric_scooter", "is_disabled": 0, "lat": 38.90043716666667, "rental_uris": {"ios": "https://dc.lft.to/lastmile_qr_scan", "android": "https://dc.lft.to/lastmile_qr_scan"}, "is_reserved": 0, "fusion_lon": 0.0, "fusion_lat": 0.0, "lon": -77.03657966666667, "name": "570847b4a1bd3be2433f532740f8ac6e"}, {"bike_id": "576ebcb2ad1d8c44c5bdafa374f40b73", "type": "electric_bike", "is_disabled": 0, "lat": 38.857689, "rental_uris": {"ios": "https://dc.lft.to/lastmile_qr_scan", "android": "https://dc.lft.to/lastmile_qr_scan"}, "is_reserved": 0, "fusion_lon": 0.0, "fusion_lat": 0.0, "lon": -76.98763183333334, "name": "576ebcb2ad1d8c44c5bdafa374f40b73"}, {"bike_id": "e1ccb06862b86b71086c95d6e6af8251", "type": "electric_scooter", "is_disabled": 0, "lat": 38.914085166666666, "rental_uris": {"ios": "https://dc.lft.to/lastmile_qr_scan", "android": "https://dc.lft.to/lastmile_qr_scan"}, "is_reserved": 0, "fusion_lon": 0.0, "fusion_lat": 0.0, "lon": -77.0211875, "name": "e1ccb06862b86b71086c95d6e6af8251"}, {"bike_id": "d7ebd8d44d28c351f1fe2100e301fb0f", "type": "electric_scooter", "is_disabled": 0, "lat": 38.8431605, "rental_uris": {"ios": "https://dc.lft.to/lastmile_qr_scan", "android": "https://dc.lft.to/lastmile_qr_scan"}, "is_reserved": 0, "fusion_lon": 0.0, "fusion_lat": 0.0, "lon": -76.99932533333333, "name": "d7ebd8d44d28c351f1fe2100e301fb0f"}, {"bike_id": "03c0b9a3d3bcbd8882ca842607146ef4", "type": "electric_scooter", "is_disabled": 0, "lat": 38.9335095, "rental_uris": {"ios": "https://dc.lft.to/lastmile_qr_scan", "android": "https://dc.lft.to/lastmile_qr_scan"}, "is_reserved": 0, "fusion_lon": 0.0, "fusion_lat": 0.0, "lon": -77.0731605, "name": "03c0b9a3d3bcbd8882ca842607146ef4"}, {"bike_id": "ddc5f96e80d2a104d1a6349f93ed8448", "type": "electric_scooter", "is_disabled": 0, "lat": 38.92823166666667, "rental_uris": {"ios": "https://dc.lft.to/lastmile_qr_scan", "android": "https://dc.lft.to/lastmile_qr_scan"}, "is_reserved": 0, "fusion_lon": 0.0, "fusion_lat": 0.0, "lon": -77.02256233333334, "name": "ddc5f96e80d2a104d1a6349f93ed8448"}, {"bike_id": "8fb6159601ad516f0528f051dca5c60e", "type": "electric_scooter", "is_disabled": 0, "lat": 38.9140495, "rental_uris": {"ios": "https://dc.lft.to/lastmile_qr_scan", "android": "https://dc.lft.to/lastmile_qr_scan"}, "is_reserved": 0, "fusion_lon": 0.0, "fusion_lat": 0.0, "lon": -77.03587366666666, "name": "8fb6159601ad516f0528f051dca5c60e"}, {"bike_id": "63d2f4b25f30ec89e4f565365f480268", "type": "electric_scooter", "is_disabled": 0, "lat": 38.92863233333333, "rental_uris": {"ios": "https://dc.lft.to/lastmile_qr_scan", "android": "https://dc.lft.to/lastmile_qr_scan"}, "is_reserved": 0, "fusion_lon": 0.0, "fusion_lat": 0.0, "lon": -77.03437116666667, "name": "63d2f4b25f30ec89e4f565365f480268"}, {"bike_id": "3959845774bd37ca608aeb66970f46fe", "type": "electric_scooter", "is_disabled": 0, "lat": 38.905213833333335, "rental_uris": {"ios": "https://dc.lft.to/lastmile_qr_scan", "android": "https://dc.lft.to/lastmile_qr_scan"}, "is_reserved": 0, "fusion_lon": 0.0, "fusion_lat": 0.0, "lon": -77.06224683333333, "name": "3959845774bd37ca608aeb66970f46fe"}, {"bike_id": "385f94bbc9225559c27a01c02d0311aa", "type": "electric_scooter", "is_disabled": 0, "lat": 38.929698, "rental_uris": {"ios": "https://dc.lft.to/lastmile_qr_scan", "android": "https://dc.lft.to/lastmile_qr_scan"}, "is_reserved": 0, "fusion_lon": 0.0, "fusion_lat": 0.0, "lon": -77.032509, "name": "385f94bbc9225559c27a01c02d0311aa"}, {"bike_id": "81b882bbe052f8db552d5ea4198a4c63", "type": "electric_scooter", "is_disabled": 0, "lat": 38.90085333333333, "rental_uris": {"ios": "https://dc.lft.to/lastmile_qr_scan", "android": "https://dc.lft.to/lastmile_qr_scan"}, "is_reserved": 0, "fusion_lon": 0.0, "fusion_lat": 0.0, "lon": -77.0502445, "name": "81b882bbe052f8db552d5ea4198a4c63"}, {"bike_id": "911229fc8b516bd38e83db6961c63eac", "type": "electric_scooter", "is_disabled": 0, "lat": 38.92671283333333, "rental_uris": {"ios": "https://dc.lft.to/lastmile_qr_scan", "android": "https://dc.lft.to/lastmile_qr_scan"}, "is_reserved": 0, "fusion_lon": 0.0, "fusion_lat": 0.0, "lon": -77.014743, "name": "911229fc8b516bd38e83db6961c63eac"}, {"bike_id": "49449fbba4afb8d96a8eb5ed19d2cc84", "type": "electric_scooter", "is_disabled": 0, "lat": 38.9432045, "rental_uris": {"ios": "https://dc.lft.to/lastmile_qr_scan", "android": "https://dc.lft.to/lastmile_qr_scan"}, "is_reserved": 0, "fusion_lon": 0.0, "fusion_lat": 0.0, "lon": -77.06133533333333, "name": "49449fbba4afb8d96a8eb5ed19d2cc84"}, {"bike_id": "29beea5f0ac1353365b4c11ec7af1c80", "type": "electric_scooter", "is_disabled": 0, "lat": 38.95109516666667, "rental_uris": {"ios": "https://dc.lft.to/lastmile_qr_scan", "android": "https://dc.lft.to/lastmile_qr_scan"}, "is_reserved": 0, "fusion_lon": 0.0, "fusion_lat": 0.0, "lon": -77.01431, "name": "29beea5f0ac1353365b4c11ec7af1c80"}, {"bike_id": "f3e8904e5eb5882e2e4cba85fa966647", "type": "electric_bike", "is_disabled": 0, "lat": 38.942517, "rental_uris": {"ios": "https://dc.lft.to/lastmile_qr_scan", "android": "https://dc.lft.to/lastmile_qr_scan"}, "is_reserved": 0, "fusion_lon": 0.0, "fusion_lat": 0.0, "lon": -76.99072783333334, "name": "f3e8904e5eb5882e2e4cba85fa966647"}, {"bike_id": "e50839ce8db85b5f38666021bc06b1d8", "type": "electric_scooter", "is_disabled": 0, "lat": 38.8668655, "rental_uris": {"ios": "https://dc.lft.to/lastmile_qr_scan", "android": "https://dc.lft.to/lastmile_qr_scan"}, "is_reserved": 0, "fusion_lon": 0.0, "fusion_lat": 0.0, "lon": -76.98567116666666, "name": "e50839ce8db85b5f38666021bc06b1d8"}, {"bike_id": "fb9ddef7531236cf54f6cc02e191829e", "type": "electric_scooter", "is_disabled": 0, "lat": 38.89219933333333, "rental_uris": {"ios": "https://dc.lft.to/lastmile_qr_scan", "android": "https://dc.lft.to/lastmile_qr_scan"}, "is_reserved": 0, "fusion_lon": 0.0, "fusion_lat": 0.0, "lon": -77.043301, "name": "fb9ddef7531236cf54f6cc02e191829e"}, {"bike_id": "8c11ab0f11ba859c8a8e855b08555b1a", "type": "electric_scooter", "is_disabled": 0, "lat": 38.9006415, "rental_uris": {"ios": "https://dc.lft.to/lastmile_qr_scan", "android": "https://dc.lft.to/lastmile_qr_scan"}, "is_reserved": 0, "fusion_lon": 0.0, "fusion_lat": 0.0, "lon": -77.0513065, "name": "8c11ab0f11ba859c8a8e855b08555b1a"}, {"bike_id": "ad18bf88aa3db27d15e9c6c268040913", "type": "electric_scooter", "is_disabled": 0, "lat": 38.915082166666664, "rental_uris": {"ios": "https://dc.lft.to/lastmile_qr_scan", "android": "https://dc.lft.to/lastmile_qr_scan"}, "is_reserved": 0, "fusion_lon": 0.0, "fusion_lat": 0.0, "lon": -77.02298333333333, "name": "ad18bf88aa3db27d15e9c6c268040913"}, {"bike_id": "7373bf4b69fbb2eb76c80b7ddd39c0c3", "type": "electric_scooter", "is_disabled": 0, "lat": 38.902432166666664, "rental_uris": {"ios": "https://dc.lft.to/lastmile_qr_scan", "android": "https://dc.lft.to/lastmile_qr_scan"}, "is_reserved": 0, "fusion_lon": 0.0, "fusion_lat": 0.0, "lon": -77.01637766666667, "name": "7373bf4b69fbb2eb76c80b7ddd39c0c3"}, {"bike_id": "f92448ec20618510f9fb44d250194d3c", "type": "electric_scooter", "is_disabled": 0, "lat": 38.900735, "rental_uris": {"ios": "https://dc.lft.to/lastmile_qr_scan", "android": "https://dc.lft.to/lastmile_qr_scan"}, "is_reserved": 0, "fusion_lon": 0.0, "fusion_lat": 0.0, "lon": -77.01910733333334, "name": "f92448ec20618510f9fb44d250194d3c"}, {"bike_id": "641218b37f4333e233701418ba1a5be0", "type": "electric_scooter", "is_disabled": 0, "lat": 38.92540566666667, "rental_uris": {"ios": "https://dc.lft.to/lastmile_qr_scan", "android": "https://dc.lft.to/lastmile_qr_scan"}, "is_reserved": 0, "fusion_lon": 0.0, "fusion_lat": 0.0, "lon": -77.033564, "name": "641218b37f4333e233701418ba1a5be0"}, {"bike_id": "b3a4d3cade40e503a4046aa9d31b560f", "type": "electric_scooter", "is_disabled": 0, "lat": 38.8950095, "rental_uris": {"ios": "https://dc.lft.to/lastmile_qr_scan", "android": "https://dc.lft.to/lastmile_qr_scan"}, "is_reserved": 0, "fusion_lon": 0.0, "fusion_lat": 0.0, "lon": -76.93480483333333, "name": "b3a4d3cade40e503a4046aa9d31b560f"}, {"bike_id": "afa6807e75a051985daa8a30bd9598ac", "type": "electric_bike", "is_disabled": 0, "lat": 38.848412833333335, "rental_uris": {"ios": "https://dc.lft.to/lastmile_qr_scan", "android": "https://dc.lft.to/lastmile_qr_scan"}, "is_reserved": 0, "fusion_lon": 0.0, "fusion_lat": 0.0, "lon": -77.079204, "name": "afa6807e75a051985daa8a30bd9598ac"}, {"bike_id": "eb95ed74c0fe44ef20b0bcc8b2663a47", "type": "electric_scooter", "is_disabled": 0, "lat": 38.92603733333333, "rental_uris": {"ios": "https://dc.lft.to/lastmile_qr_scan", "android": "https://dc.lft.to/lastmile_qr_scan"}, "is_reserved": 0, "fusion_lon": 0.0, "fusion_lat": 0.0, "lon": -77.10252733333333, "name": "eb95ed74c0fe44ef20b0bcc8b2663a47"}, {"bike_id": "d67274b831a1606720e4992e96293ec1", "type": "electric_scooter", "is_disabled": 0, "lat": 38.92102633333333, "rental_uris": {"ios": "https://dc.lft.to/lastmile_qr_scan", "android": "https://dc.lft.to/lastmile_qr_scan"}, "is_reserved": 0, "fusion_lon": 0.0, "fusion_lat": 0.0, "lon": -77.03170383333334, "name": "d67274b831a1606720e4992e96293ec1"}, {"bike_id": "44d5b7bdcf76750ef9076ad20b64f4b8", "type": "electric_bike", "is_disabled": 0, "lat": 39.00110316666667, "rental_uris": {"ios": "https://dc.lft.to/lastmile_qr_scan", "android": "https://dc.lft.to/lastmile_qr_scan"}, "is_reserved": 0, "fusion_lon": 0.0, "fusion_lat": 0.0, "lon": -77.02524466666667, "name": "44d5b7bdcf76750ef9076ad20b64f4b8"}, {"bike_id": "a0fb40c4be1986929a13f48a9e4e42ec", "type": "electric_scooter", "is_disabled": 0, "lat": 38.874857666666664, "rental_uris": {"ios": "https://dc.lft.to/lastmile_qr_scan", "android": "https://dc.lft.to/lastmile_qr_scan"}, "is_reserved": 0, "fusion_lon": 0.0, "fusion_lat": 0.0, "lon": -77.00007283333333, "name": "a0fb40c4be1986929a13f48a9e4e42ec"}, {"bike_id": "74e9adabee40e260c1936e69ca8cd079", "type": "electric_scooter", "is_disabled": 0, "lat": 38.899147166666665, "rental_uris": {"ios": "https://dc.lft.to/lastmile_qr_scan", "android": "https://dc.lft.to/lastmile_qr_scan"}, "is_reserved": 0, "fusion_lon": 0.0, "fusion_lat": 0.0, "lon": -76.93367833333333, "name": "74e9adabee40e260c1936e69ca8cd079"}, {"bike_id": "7675689f908819dfee6ef0c557a35312", "type": "electric_scooter", "is_disabled": 0, "lat": 38.90960916666667, "rental_uris": {"ios": "https://dc.lft.to/lastmile_qr_scan", "android": "https://dc.lft.to/lastmile_qr_scan"}, "is_reserved": 0, "fusion_lon": 0.0, "fusion_lat": 0.0, "lon": -77.02294783333333, "name": "7675689f908819dfee6ef0c557a35312"}, {"bike_id": "0a92bee4b96d70d2aa21d871f03d50fc", "type": "electric_scooter", "is_disabled": 0, "lat": 38.91745, "rental_uris": {"ios": "https://dc.lft.to/lastmile_qr_scan", "android": "https://dc.lft.to/lastmile_qr_scan"}, "is_reserved": 0, "fusion_lon": 0.0, "fusion_lat": 0.0, "lon": -77.03662383333334, "name": "0a92bee4b96d70d2aa21d871f03d50fc"}, {"bike_id": "1119b8e63a0e2d01e0e01f16eb6a4467", "type": "electric_scooter", "is_disabled": 0, "lat": 38.898399833333336, "rental_uris": {"ios": "https://dc.lft.to/lastmile_qr_scan", "android": "https://dc.lft.to/lastmile_qr_scan"}, "is_reserved": 0, "fusion_lon": 0.0, "fusion_lat": 0.0, "lon": -76.94633116666667, "name": "1119b8e63a0e2d01e0e01f16eb6a4467"}, {"bike_id": "993dca5ca8aeb7f2f291dbfffef77bed", "type": "electric_scooter", "is_disabled": 0, "lat": 38.900291333333335, "rental_uris": {"ios": "https://dc.lft.to/lastmile_qr_scan", "android": "https://dc.lft.to/lastmile_qr_scan"}, "is_reserved": 0, "fusion_lon": 0.0, "fusion_lat": 0.0, "lon": -76.98935883333333, "name": "993dca5ca8aeb7f2f291dbfffef77bed"}, {"bike_id": "745c3b6e7d007b483b48995fa9380454", "type": "electric_scooter", "is_disabled": 0, "lat": 38.9040445, "rental_uris": {"ios": "https://dc.lft.to/lastmile_qr_scan", "android": "https://dc.lft.to/lastmile_qr_scan"}, "is_reserved": 0, "fusion_lon": 0.0, "fusion_lat": 0.0, "lon": -76.97334233333333, "name": "745c3b6e7d007b483b48995fa9380454"}, {"bike_id": "5e47aa11ebaaf6841d6c4ff48c244c36", "type": "electric_bike", "is_disabled": 0, "lat": 38.960602333333334, "rental_uris": {"ios": "https://dc.lft.to/lastmile_qr_scan", "android": "https://dc.lft.to/lastmile_qr_scan"}, "is_reserved": 0, "fusion_lon": 0.0, "fusion_lat": 0.0, "lon": -77.00503616666667, "name": "5e47aa11ebaaf6841d6c4ff48c244c36"}, {"bike_id": "bce811c1a1fe2c03ab5140799f130450", "type": "electric_scooter", "is_disabled": 0, "lat": 38.92135866666667, "rental_uris": {"ios": "https://dc.lft.to/lastmile_qr_scan", "android": "https://dc.lft.to/lastmile_qr_scan"}, "is_reserved": 0, "fusion_lon": 0.0, "fusion_lat": 0.0, "lon": -77.025223, "name": "bce811c1a1fe2c03ab5140799f130450"}, {"bike_id": "8aace6a00826b66b7fe6f92be8e652e4", "type": "electric_scooter", "is_disabled": 0, "lat": 38.900119, "rental_uris": {"ios": "https://dc.lft.to/lastmile_qr_scan", "android": "https://dc.lft.to/lastmile_qr_scan"}, "is_reserved": 0, "fusion_lon": 0.0, "fusion_lat": 0.0, "lon": -77.04472866666667, "name": "8aace6a00826b66b7fe6f92be8e652e4"}, {"bike_id": "88d622e9a0d6a79d822445735d75d015", "type": "electric_scooter", "is_disabled": 0, "lat": 38.92555316666667, "rental_uris": {"ios": "https://dc.lft.to/lastmile_qr_scan", "android": "https://dc.lft.to/lastmile_qr_scan"}, "is_reserved": 0, "fusion_lon": 0.0, "fusion_lat": 0.0, "lon": -77.03771133333333, "name": "88d622e9a0d6a79d822445735d75d015"}, {"bike_id": "1028732418e754fea70a6f18480107a5", "type": "electric_scooter", "is_disabled": 0, "lat": 38.936233, "rental_uris": {"ios": "https://dc.lft.to/lastmile_qr_scan", "android": "https://dc.lft.to/lastmile_qr_scan"}, "is_reserved": 0, "fusion_lon": 0.0, "fusion_lat": 0.0, "lon": -77.03666816666667, "name": "1028732418e754fea70a6f18480107a5"}, {"bike_id": "9070dcb083f48ff3559f36fc9cb4359a", "type": "electric_scooter", "is_disabled": 0, "lat": 38.89637916666667, "rental_uris": {"ios": "https://dc.lft.to/lastmile_qr_scan", "android": "https://dc.lft.to/lastmile_qr_scan"}, "is_reserved": 0, "fusion_lon": 0.0, "fusion_lat": 0.0, "lon": -77.046592, "name": "9070dcb083f48ff3559f36fc9cb4359a"}, {"bike_id": "fe0ec6317772b6227f837b61d7f10c30", "type": "electric_scooter", "is_disabled": 0, "lat": 38.93049883333333, "rental_uris": {"ios": "https://dc.lft.to/lastmile_qr_scan", "android": "https://dc.lft.to/lastmile_qr_scan"}, "is_reserved": 0, "fusion_lon": 0.0, "fusion_lat": 0.0, "lon": -77.02349766666667, "name": "fe0ec6317772b6227f837b61d7f10c30"}, {"bike_id": "15426c4d386d2db809aa295339790f20", "type": "electric_bike", "is_disabled": 0, "lat": 39.050538833333334, "rental_uris": {"ios": "https://dc.lft.to/lastmile_qr_scan", "android": "https://dc.lft.to/lastmile_qr_scan"}, "is_reserved": 0, "fusion_lon": 0.0, "fusion_lat": 0.0, "lon": -77.05150066666667, "name": "15426c4d386d2db809aa295339790f20"}, {"bike_id": "c9f377dee321611f2bb038d727755284", "type": "electric_scooter", "is_disabled": 0, "lat": 38.919700166666665, "rental_uris": {"ios": "https://dc.lft.to/lastmile_qr_scan", "android": "https://dc.lft.to/lastmile_qr_scan"}, "is_reserved": 0, "fusion_lon": 0.0, "fusion_lat": 0.0, "lon": -77.03315966666666, "name": "c9f377dee321611f2bb038d727755284"}, {"bike_id": "02b5968ccf0743206faa92fcbe93eff3", "type": "electric_scooter", "is_disabled": 0, "lat": 38.9159455, "rental_uris": {"ios": "https://dc.lft.to/lastmile_qr_scan", "android": "https://dc.lft.to/lastmile_qr_scan"}, "is_reserved": 0, "fusion_lon": 0.0, "fusion_lat": 0.0, "lon": -77.024099, "name": "02b5968ccf0743206faa92fcbe93eff3"}, {"bike_id": "41a7f0a54e500adf238eb3c47763edb0", "type": "electric_scooter", "is_disabled": 0, "lat": 38.8763095, "rental_uris": {"ios": "https://dc.lft.to/lastmile_qr_scan", "android": "https://dc.lft.to/lastmile_qr_scan"}, "is_reserved": 0, "fusion_lon": 0.0, "fusion_lat": 0.0, "lon": -77.00952866666667, "name": "41a7f0a54e500adf238eb3c47763edb0"}, {"bike_id": "eac024fdb786a62238372a82a4433127", "type": "electric_scooter", "is_disabled": 0, "lat": 38.8900425, "rental_uris": {"ios": "https://dc.lft.to/lastmile_qr_scan", "android": "https://dc.lft.to/lastmile_qr_scan"}, "is_reserved": 0, "fusion_lon": 0.0, "fusion_lat": 0.0, "lon": -76.93749316666667, "name": "eac024fdb786a62238372a82a4433127"}, {"bike_id": "79c7e47b5b3b5c612d9d1a58bd6eaeaa", "type": "electric_bike", "is_disabled": 0, "lat": 38.83235466666667, "rental_uris": {"ios": "https://dc.lft.to/lastmile_qr_scan", "android": "https://dc.lft.to/lastmile_qr_scan"}, "is_reserved": 0, "fusion_lon": 0.0, "fusion_lat": 0.0, "lon": -76.94630666666667, "name": "79c7e47b5b3b5c612d9d1a58bd6eaeaa"}, {"bike_id": "c62b1bf931fdf20f3fecf19741c92715", "type": "electric_scooter", "is_disabled": 0, "lat": 38.905063, "rental_uris": {"ios": "https://dc.lft.to/lastmile_qr_scan", "android": "https://dc.lft.to/lastmile_qr_scan"}, "is_reserved": 0, "fusion_lon": 0.0, "fusion_lat": 0.0, "lon": -77.04161183333333, "name": "c62b1bf931fdf20f3fecf19741c92715"}, {"bike_id": "0e90078b56c2bc0685a51bebe7188f2b", "type": "electric_scooter", "is_disabled": 0, "lat": 38.91562483333333, "rental_uris": {"ios": "https://dc.lft.to/lastmile_qr_scan", "android": "https://dc.lft.to/lastmile_qr_scan"}, "is_reserved": 0, "fusion_lon": 0.0, "fusion_lat": 0.0, "lon": -77.04507983333333, "name": "0e90078b56c2bc0685a51bebe7188f2b"}, {"bike_id": "d3e4f01d828b0339e6df59cceb74fbe5", "type": "electric_scooter", "is_disabled": 0, "lat": 38.911297166666664, "rental_uris": {"ios": "https://dc.lft.to/lastmile_qr_scan", "android": "https://dc.lft.to/lastmile_qr_scan"}, "is_reserved": 0, "fusion_lon": 0.0, "fusion_lat": 0.0, "lon": -77.04420466666667, "name": "d3e4f01d828b0339e6df59cceb74fbe5"}, {"bike_id": "4fbc40ce742501f3366d8a891d39c4e4", "type": "electric_scooter", "is_disabled": 0, "lat": 38.91179266666666, "rental_uris": {"ios": "https://dc.lft.to/lastmile_qr_scan", "android": "https://dc.lft.to/lastmile_qr_scan"}, "is_reserved": 0, "fusion_lon": 0.0, "fusion_lat": 0.0, "lon": -77.00219933333334, "name": "4fbc40ce742501f3366d8a891d39c4e4"}, {"bike_id": "f58c658b8b7f1f984d0206c271c8dd98", "type": "electric_scooter", "is_disabled": 0, "lat": 38.86623433333333, "rental_uris": {"ios": "https://dc.lft.to/lastmile_qr_scan", "android": "https://dc.lft.to/lastmile_qr_scan"}, "is_reserved": 0, "fusion_lon": 0.0, "fusion_lat": 0.0, "lon": -76.987178, "name": "f58c658b8b7f1f984d0206c271c8dd98"}, {"bike_id": "7f7579718ee374a0faff6d6c9031c5cc", "type": "electric_scooter", "is_disabled": 0, "lat": 38.933575166666664, "rental_uris": {"ios": "https://dc.lft.to/lastmile_qr_scan", "android": "https://dc.lft.to/lastmile_qr_scan"}, "is_reserved": 0, "fusion_lon": 0.0, "fusion_lat": 0.0, "lon": -77.088597, "name": "7f7579718ee374a0faff6d6c9031c5cc"}, {"bike_id": "a533c1bcb6366dfe4357f6ab27c0468e", "type": "electric_scooter", "is_disabled": 0, "lat": 38.905576, "rental_uris": {"ios": "https://dc.lft.to/lastmile_qr_scan", "android": "https://dc.lft.to/lastmile_qr_scan"}, "is_reserved": 0, "fusion_lon": 0.0, "fusion_lat": 0.0, "lon": -77.01637983333333, "name": "a533c1bcb6366dfe4357f6ab27c0468e"}, {"bike_id": "6c8fb1ae1268dfd34a4a6f9242bc48ae", "type": "electric_scooter", "is_disabled": 0, "lat": 38.93400066666667, "rental_uris": {"ios": "https://dc.lft.to/lastmile_qr_scan", "android": "https://dc.lft.to/lastmile_qr_scan"}, "is_reserved": 0, "fusion_lon": 0.0, "fusion_lat": 0.0, "lon": -77.03877133333333, "name": "6c8fb1ae1268dfd34a4a6f9242bc48ae"}, {"bike_id": "f7e6f4828fd868ec0046b96228f33978", "type": "electric_scooter", "is_disabled": 0, "lat": 38.956260666666665, "rental_uris": {"ios": "https://dc.lft.to/lastmile_qr_scan", "android": "https://dc.lft.to/lastmile_qr_scan"}, "is_reserved": 0, "fusion_lon": 0.0, "fusion_lat": 0.0, "lon": -77.03622016666667, "name": "f7e6f4828fd868ec0046b96228f33978"}, {"bike_id": "9162bf37babaf98e439738114b871bdb", "type": "electric_scooter", "is_disabled": 0, "lat": 38.923261, "rental_uris": {"ios": "https://dc.lft.to/lastmile_qr_scan", "android": "https://dc.lft.to/lastmile_qr_scan"}, "is_reserved": 0, "fusion_lon": 0.0, "fusion_lat": 0.0, "lon": -77.03778366666667, "name": "9162bf37babaf98e439738114b871bdb"}, {"bike_id": "452941d5bfb5cda483d9b4b91dd2a715", "type": "electric_scooter", "is_disabled": 0, "lat": 38.873605166666664, "rental_uris": {"ios": "https://dc.lft.to/lastmile_qr_scan", "android": "https://dc.lft.to/lastmile_qr_scan"}, "is_reserved": 0, "fusion_lon": 0.0, "fusion_lat": 0.0, "lon": -77.006227, "name": "452941d5bfb5cda483d9b4b91dd2a715"}, {"bike_id": "4f3939650ff2494f7a1ceacfc774d459", "type": "electric_scooter", "is_disabled": 0, "lat": 38.899055, "rental_uris": {"ios": "https://dc.lft.to/lastmile_qr_scan", "android": "https://dc.lft.to/lastmile_qr_scan"}, "is_reserved": 0, "fusion_lon": 0.0, "fusion_lat": 0.0, "lon": -77.0393045, "name": "4f3939650ff2494f7a1ceacfc774d459"}, {"bike_id": "e6eb36657190b7e9a899c5d222eeab37", "type": "electric_scooter", "is_disabled": 0, "lat": 38.901036166666664, "rental_uris": {"ios": "https://dc.lft.to/lastmile_qr_scan", "android": "https://dc.lft.to/lastmile_qr_scan"}, "is_reserved": 0, "fusion_lon": 0.0, "fusion_lat": 0.0, "lon": -77.049904, "name": "e6eb36657190b7e9a899c5d222eeab37"}, {"bike_id": "cf0fed86c36fda1136bb723c253ee3d8", "type": "electric_bike", "is_disabled": 0, "lat": 38.97401166666667, "rental_uris": {"ios": "https://dc.lft.to/lastmile_qr_scan", "android": "https://dc.lft.to/lastmile_qr_scan"}, "is_reserved": 0, "fusion_lon": 0.0, "fusion_lat": 0.0, "lon": -77.06455, "name": "cf0fed86c36fda1136bb723c253ee3d8"}, {"bike_id": "9e019f925aeeff1f77043c0278a11c97", "type": "electric_scooter", "is_disabled": 0, "lat": 38.90007116666666, "rental_uris": {"ios": "https://dc.lft.to/lastmile_qr_scan", "android": "https://dc.lft.to/lastmile_qr_scan"}, "is_reserved": 0, "fusion_lon": 0.0, "fusion_lat": 0.0, "lon": -76.99247066666666, "name": "9e019f925aeeff1f77043c0278a11c97"}, {"bike_id": "135662f402f72c79d9afd7771ce24e39", "type": "electric_scooter", "is_disabled": 0, "lat": 38.902818, "rental_uris": {"ios": "https://dc.lft.to/lastmile_qr_scan", "android": "https://dc.lft.to/lastmile_qr_scan"}, "is_reserved": 0, "fusion_lon": 0.0, "fusion_lat": 0.0, "lon": -77.0033775, "name": "135662f402f72c79d9afd7771ce24e39"}, {"bike_id": "83632e1c11e6fc5f6890320dfd65e8ce", "type": "electric_scooter", "is_disabled": 0, "lat": 38.9011855, "rental_uris": {"ios": "https://dc.lft.to/lastmile_qr_scan", "android": "https://dc.lft.to/lastmile_qr_scan"}, "is_reserved": 0, "fusion_lon": 0.0, "fusion_lat": 0.0, "lon": -76.92954166666667, "name": "83632e1c11e6fc5f6890320dfd65e8ce"}, {"bike_id": "63d0b81f140f884b979e93fd1812fce5", "type": "electric_scooter", "is_disabled": 0, "lat": 38.873306666666664, "rental_uris": {"ios": "https://dc.lft.to/lastmile_qr_scan", "android": "https://dc.lft.to/lastmile_qr_scan"}, "is_reserved": 0, "fusion_lon": 0.0, "fusion_lat": 0.0, "lon": -76.96785166666666, "name": "63d0b81f140f884b979e93fd1812fce5"}, {"bike_id": "13d4e0da32f7fa1b652a8b5a77c1eb7a", "type": "electric_scooter", "is_disabled": 0, "lat": 38.910532833333335, "rental_uris": {"ios": "https://dc.lft.to/lastmile_qr_scan", "android": "https://dc.lft.to/lastmile_qr_scan"}, "is_reserved": 0, "fusion_lon": 0.0, "fusion_lat": 0.0, "lon": -77.0546485, "name": "13d4e0da32f7fa1b652a8b5a77c1eb7a"}, {"bike_id": "4600205be2171eaa4835e8921565a447", "type": "electric_scooter", "is_disabled": 0, "lat": 38.899857833333336, "rental_uris": {"ios": "https://dc.lft.to/lastmile_qr_scan", "android": "https://dc.lft.to/lastmile_qr_scan"}, "is_reserved": 0, "fusion_lon": 0.0, "fusion_lat": 0.0, "lon": -76.950016, "name": "4600205be2171eaa4835e8921565a447"}, {"bike_id": "7bd0980ec81a5f2bd957eb46366b35ad", "type": "electric_scooter", "is_disabled": 0, "lat": 38.87813466666667, "rental_uris": {"ios": "https://dc.lft.to/lastmile_qr_scan", "android": "https://dc.lft.to/lastmile_qr_scan"}, "is_reserved": 0, "fusion_lon": 0.0, "fusion_lat": 0.0, "lon": -76.97172483333334, "name": "7bd0980ec81a5f2bd957eb46366b35ad"}, {"bike_id": "a17ac5fe4f3d4d26bb9a8f54eb8de4e1", "type": "electric_scooter", "is_disabled": 0, "lat": 38.937712833333336, "rental_uris": {"ios": "https://dc.lft.to/lastmile_qr_scan", "android": "https://dc.lft.to/lastmile_qr_scan"}, "is_reserved": 0, "fusion_lon": 0.0, "fusion_lat": 0.0, "lon": -77.01973566666666, "name": "a17ac5fe4f3d4d26bb9a8f54eb8de4e1"}, {"bike_id": "dae1be5c5f9a1d209709446ded314e60", "type": "electric_scooter", "is_disabled": 0, "lat": 38.8588935, "rental_uris": {"ios": "https://dc.lft.to/lastmile_qr_scan", "android": "https://dc.lft.to/lastmile_qr_scan"}, "is_reserved": 0, "fusion_lon": 0.0, "fusion_lat": 0.0, "lon": -76.9972705, "name": "dae1be5c5f9a1d209709446ded314e60"}, {"bike_id": "d0e86051ec26b203fdb3a41d8dca3382", "type": "electric_bike", "is_disabled": 0, "lat": 38.863317, "rental_uris": {"ios": "https://dc.lft.to/lastmile_qr_scan", "android": "https://dc.lft.to/lastmile_qr_scan"}, "is_reserved": 0, "fusion_lon": 0.0, "fusion_lat": 0.0, "lon": -76.9871565, "name": "d0e86051ec26b203fdb3a41d8dca3382"}, {"bike_id": "8fb558be64ff7d22ec6851c72653b757", "type": "electric_scooter", "is_disabled": 0, "lat": 38.92174816666667, "rental_uris": {"ios": "https://dc.lft.to/lastmile_qr_scan", "android": "https://dc.lft.to/lastmile_qr_scan"}, "is_reserved": 0, "fusion_lon": 0.0, "fusion_lat": 0.0, "lon": -76.99795583333334, "name": "8fb558be64ff7d22ec6851c72653b757"}, {"bike_id": "ec675c4207d8121dbc182265459fd745", "type": "electric_scooter", "is_disabled": 0, "lat": 38.90138916666667, "rental_uris": {"ios": "https://dc.lft.to/lastmile_qr_scan", "android": "https://dc.lft.to/lastmile_qr_scan"}, "is_reserved": 0, "fusion_lon": 0.0, "fusion_lat": 0.0, "lon": -77.0256975, "name": "ec675c4207d8121dbc182265459fd745"}, {"bike_id": "b0698aee7bcf6918f86f1490bed41436", "type": "electric_scooter", "is_disabled": 0, "lat": 38.944129333333336, "rental_uris": {"ios": "https://dc.lft.to/lastmile_qr_scan", "android": "https://dc.lft.to/lastmile_qr_scan"}, "is_reserved": 0, "fusion_lon": 0.0, "fusion_lat": 0.0, "lon": -77.06325983333333, "name": "b0698aee7bcf6918f86f1490bed41436"}, {"bike_id": "198e9fb4dcce004bc200fd6bd9a8678f", "type": "electric_scooter", "is_disabled": 0, "lat": 38.91246866666667, "rental_uris": {"ios": "https://dc.lft.to/lastmile_qr_scan", "android": "https://dc.lft.to/lastmile_qr_scan"}, "is_reserved": 0, "fusion_lon": 0.0, "fusion_lat": 0.0, "lon": -77.00118833333333, "name": "198e9fb4dcce004bc200fd6bd9a8678f"}, {"bike_id": "8168a4ae7ecdb3c1372caae81442815c", "type": "electric_scooter", "is_disabled": 0, "lat": 38.9053345, "rental_uris": {"ios": "https://dc.lft.to/lastmile_qr_scan", "android": "https://dc.lft.to/lastmile_qr_scan"}, "is_reserved": 0, "fusion_lon": 0.0, "fusion_lat": 0.0, "lon": -77.04569533333333, "name": "8168a4ae7ecdb3c1372caae81442815c"}, {"bike_id": "518188314ba4893710cd442278e02b27", "type": "electric_scooter", "is_disabled": 0, "lat": 38.929144, "rental_uris": {"ios": "https://dc.lft.to/lastmile_qr_scan", "android": "https://dc.lft.to/lastmile_qr_scan"}, "is_reserved": 0, "fusion_lon": 0.0, "fusion_lat": 0.0, "lon": -77.02092933333333, "name": "518188314ba4893710cd442278e02b27"}, {"bike_id": "ca45265db3e17b979fdc0352bd6a8aba", "type": "electric_scooter", "is_disabled": 0, "lat": 38.9206905, "rental_uris": {"ios": "https://dc.lft.to/lastmile_qr_scan", "android": "https://dc.lft.to/lastmile_qr_scan"}, "is_reserved": 0, "fusion_lon": 0.0, "fusion_lat": 0.0, "lon": -77.02368216666666, "name": "ca45265db3e17b979fdc0352bd6a8aba"}, {"bike_id": "f37c0941b827f70adc5c0461a7cb9ad5", "type": "electric_scooter", "is_disabled": 0, "lat": 38.898826166666666, "rental_uris": {"ios": "https://dc.lft.to/lastmile_qr_scan", "android": "https://dc.lft.to/lastmile_qr_scan"}, "is_reserved": 0, "fusion_lon": 0.0, "fusion_lat": 0.0, "lon": -76.93178033333334, "name": "f37c0941b827f70adc5c0461a7cb9ad5"}, {"bike_id": "9c672edd73c40f40be36d5e45dee53ba", "type": "electric_bike", "is_disabled": 0, "lat": 38.905838, "rental_uris": {"ios": "https://dc.lft.to/lastmile_qr_scan", "android": "https://dc.lft.to/lastmile_qr_scan"}, "is_reserved": 0, "fusion_lon": 0.0, "fusion_lat": 0.0, "lon": -77.06522016666666, "name": "9c672edd73c40f40be36d5e45dee53ba"}, {"bike_id": "e37d75c246141a9c74697f1f1b808ce1", "type": "electric_scooter", "is_disabled": 0, "lat": 38.915623333333336, "rental_uris": {"ios": "https://dc.lft.to/lastmile_qr_scan", "android": "https://dc.lft.to/lastmile_qr_scan"}, "is_reserved": 0, "fusion_lon": 0.0, "fusion_lat": 0.0, "lon": -77.03278333333333, "name": "e37d75c246141a9c74697f1f1b808ce1"}, {"bike_id": "dcc17d0dac242fdee998d97b78ba1eea", "type": "electric_scooter", "is_disabled": 0, "lat": 38.935285, "rental_uris": {"ios": "https://dc.lft.to/lastmile_qr_scan", "android": "https://dc.lft.to/lastmile_qr_scan"}, "is_reserved": 0, "fusion_lon": 0.0, "fusion_lat": 0.0, "lon": -77.0297, "name": "dcc17d0dac242fdee998d97b78ba1eea"}, {"bike_id": "e6d76cfd041335e8430f4ce5f4383fbc", "type": "electric_scooter", "is_disabled": 0, "lat": 38.97225266666667, "rental_uris": {"ios": "https://dc.lft.to/lastmile_qr_scan", "android": "https://dc.lft.to/lastmile_qr_scan"}, "is_reserved": 0, "fusion_lon": 0.0, "fusion_lat": 0.0, "lon": -77.02690983333333, "name": "e6d76cfd041335e8430f4ce5f4383fbc"}, {"bike_id": "8d19761175feec5c5e1996877291e575", "type": "electric_bike", "is_disabled": 0, "lat": 38.946606833333334, "rental_uris": {"ios": "https://dc.lft.to/lastmile_qr_scan", "android": "https://dc.lft.to/lastmile_qr_scan"}, "is_reserved": 0, "fusion_lon": 0.0, "fusion_lat": 0.0, "lon": -76.9566965, "name": "8d19761175feec5c5e1996877291e575"}, {"bike_id": "ccadd5b637130b79ed406bb82e5a91d9", "type": "electric_bike", "is_disabled": 0, "lat": 38.9571065, "rental_uris": {"ios": "https://dc.lft.to/lastmile_qr_scan", "android": "https://dc.lft.to/lastmile_qr_scan"}, "is_reserved": 0, "fusion_lon": 0.0, "fusion_lat": 0.0, "lon": -77.0028205, "name": "ccadd5b637130b79ed406bb82e5a91d9"}, {"bike_id": "352da61ad5407260e2a89e6d8ae343f2", "type": "electric_scooter", "is_disabled": 0, "lat": 38.903790666666666, "rental_uris": {"ios": "https://dc.lft.to/lastmile_qr_scan", "android": "https://dc.lft.to/lastmile_qr_scan"}, "is_reserved": 0, "fusion_lon": 0.0, "fusion_lat": 0.0, "lon": -77.03855366666667, "name": "352da61ad5407260e2a89e6d8ae343f2"}, {"bike_id": "78c2edc5cf59515c03f28f27fb58bcfc", "type": "electric_scooter", "is_disabled": 0, "lat": 38.91244, "rental_uris": {"ios": "https://dc.lft.to/lastmile_qr_scan", "android": "https://dc.lft.to/lastmile_qr_scan"}, "is_reserved": 0, "fusion_lon": 0.0, "fusion_lat": 0.0, "lon": -77.03195333333333, "name": "78c2edc5cf59515c03f28f27fb58bcfc"}, {"bike_id": "cebe8fe656a8d0bdaf9180040b8a7049", "type": "electric_bike", "is_disabled": 0, "lat": 38.92448683333333, "rental_uris": {"ios": "https://dc.lft.to/lastmile_qr_scan", "android": "https://dc.lft.to/lastmile_qr_scan"}, "is_reserved": 0, "fusion_lon": 0.0, "fusion_lat": 0.0, "lon": -77.22558483333333, "name": "cebe8fe656a8d0bdaf9180040b8a7049"}, {"bike_id": "8c06ecdbb91d1597b52f147f8d35df46", "type": "electric_scooter", "is_disabled": 0, "lat": 38.8926265, "rental_uris": {"ios": "https://dc.lft.to/lastmile_qr_scan", "android": "https://dc.lft.to/lastmile_qr_scan"}, "is_reserved": 0, "fusion_lon": 0.0, "fusion_lat": 0.0, "lon": -77.0240095, "name": "8c06ecdbb91d1597b52f147f8d35df46"}, {"bike_id": "ead14f8260e4e2985d29e5e8e0208bb8", "type": "electric_scooter", "is_disabled": 0, "lat": 38.92310966666667, "rental_uris": {"ios": "https://dc.lft.to/lastmile_qr_scan", "android": "https://dc.lft.to/lastmile_qr_scan"}, "is_reserved": 0, "fusion_lon": 0.0, "fusion_lat": 0.0, "lon": -77.04214966666666, "name": "ead14f8260e4e2985d29e5e8e0208bb8"}, {"bike_id": "93f6e442a7e0e3c13e0ee4302312f8d3", "type": "electric_scooter", "is_disabled": 0, "lat": 38.906454833333335, "rental_uris": {"ios": "https://dc.lft.to/lastmile_qr_scan", "android": "https://dc.lft.to/lastmile_qr_scan"}, "is_reserved": 0, "fusion_lon": 0.0, "fusion_lat": 0.0, "lon": -77.01028366666667, "name": "93f6e442a7e0e3c13e0ee4302312f8d3"}, {"bike_id": "c1e3ea3eaad900d5878743430e8d21fb", "type": "electric_scooter", "is_disabled": 0, "lat": 38.91109066666667, "rental_uris": {"ios": "https://dc.lft.to/lastmile_qr_scan", "android": "https://dc.lft.to/lastmile_qr_scan"}, "is_reserved": 0, "fusion_lon": 0.0, "fusion_lat": 0.0, "lon": -77.0392315, "name": "c1e3ea3eaad900d5878743430e8d21fb"}, {"bike_id": "5e81d381d999196ef0e97c057bdd6bda", "type": "electric_scooter", "is_disabled": 0, "lat": 38.920645666666665, "rental_uris": {"ios": "https://dc.lft.to/lastmile_qr_scan", "android": "https://dc.lft.to/lastmile_qr_scan"}, "is_reserved": 0, "fusion_lon": 0.0, "fusion_lat": 0.0, "lon": -77.0266735, "name": "5e81d381d999196ef0e97c057bdd6bda"}, {"bike_id": "1a2a3bc0aaf52b1e3d638c24f53a3a6a", "type": "electric_scooter", "is_disabled": 0, "lat": 38.927460833333335, "rental_uris": {"ios": "https://dc.lft.to/lastmile_qr_scan", "android": "https://dc.lft.to/lastmile_qr_scan"}, "is_reserved": 0, "fusion_lon": 0.0, "fusion_lat": 0.0, "lon": -77.02534566666667, "name": "1a2a3bc0aaf52b1e3d638c24f53a3a6a"}, {"bike_id": "312862973be9e383a983c34000fae58d", "type": "electric_bike", "is_disabled": 0, "lat": 38.98355683333333, "rental_uris": {"ios": "https://dc.lft.to/lastmile_qr_scan", "android": "https://dc.lft.to/lastmile_qr_scan"}, "is_reserved": 0, "fusion_lon": 0.0, "fusion_lat": 0.0, "lon": -76.97214733333334, "name": "312862973be9e383a983c34000fae58d"}, {"bike_id": "6f8693bef9ebf8bc9c740b243b11248d", "type": "electric_bike", "is_disabled": 0, "lat": 38.934942, "rental_uris": {"ios": "https://dc.lft.to/lastmile_qr_scan", "android": "https://dc.lft.to/lastmile_qr_scan"}, "is_reserved": 0, "fusion_lon": 0.0, "fusion_lat": 0.0, "lon": -76.99131766666666, "name": "6f8693bef9ebf8bc9c740b243b11248d"}, {"bike_id": "46c43f8abbe54b4216384d7660a34900", "type": "electric_scooter", "is_disabled": 0, "lat": 38.936674833333335, "rental_uris": {"ios": "https://dc.lft.to/lastmile_qr_scan", "android": "https://dc.lft.to/lastmile_qr_scan"}, "is_reserved": 0, "fusion_lon": 0.0, "fusion_lat": 0.0, "lon": -77.03568833333334, "name": "46c43f8abbe54b4216384d7660a34900"}, {"bike_id": "291a4625038dbb53e912d80bb6ea6dd8", "type": "electric_scooter", "is_disabled": 0, "lat": 38.86248283333333, "rental_uris": {"ios": "https://dc.lft.to/lastmile_qr_scan", "android": "https://dc.lft.to/lastmile_qr_scan"}, "is_reserved": 0, "fusion_lon": 0.0, "fusion_lat": 0.0, "lon": -76.99502966666667, "name": "291a4625038dbb53e912d80bb6ea6dd8"}, {"bike_id": "336e85756400a2f78d3f544b32d07732", "type": "electric_scooter", "is_disabled": 0, "lat": 38.86676933333333, "rental_uris": {"ios": "https://dc.lft.to/lastmile_qr_scan", "android": "https://dc.lft.to/lastmile_qr_scan"}, "is_reserved": 0, "fusion_lon": 0.0, "fusion_lat": 0.0, "lon": -76.985864, "name": "336e85756400a2f78d3f544b32d07732"}, {"bike_id": "6a39b60ef5a56fa19ba6b488aee74197", "type": "electric_bike", "is_disabled": 0, "lat": 38.943642833333335, "rental_uris": {"ios": "https://dc.lft.to/lastmile_qr_scan", "android": "https://dc.lft.to/lastmile_qr_scan"}, "is_reserved": 0, "fusion_lon": 0.0, "fusion_lat": 0.0, "lon": -76.96779216666667, "name": "6a39b60ef5a56fa19ba6b488aee74197"}, {"bike_id": "4dd1508600bf1f0bf8812b6f034f9b8d", "type": "electric_scooter", "is_disabled": 0, "lat": 38.85019333333334, "rental_uris": {"ios": "https://dc.lft.to/lastmile_qr_scan", "android": "https://dc.lft.to/lastmile_qr_scan"}, "is_reserved": 0, "fusion_lon": 0.0, "fusion_lat": 0.0, "lon": -76.975364, "name": "4dd1508600bf1f0bf8812b6f034f9b8d"}, {"bike_id": "fd335d6fc9cfcf30cde02a16a4a95dea", "type": "electric_scooter", "is_disabled": 0, "lat": 38.9052175, "rental_uris": {"ios": "https://dc.lft.to/lastmile_qr_scan", "android": "https://dc.lft.to/lastmile_qr_scan"}, "is_reserved": 0, "fusion_lon": 0.0, "fusion_lat": 0.0, "lon": -77.06300033333333, "name": "fd335d6fc9cfcf30cde02a16a4a95dea"},