{"data": {"bikes": [{"lat": 38.92205966666667, "is_disabled": 0, "type": "electric_scooter", "lon": -77.0400505, "bike_id": "456ec03d3bc22af82aad8cffe2032513", "fusion_lat": 0.0, "name": "456ec03d3bc22af82aad8cffe2032513", "is_reserved": 0, "rental_uris": {"android": "https://dc.lft.to/lastmile_qr_scan", "ios": "https://dc.lft.to/lastmile_qr_scan"}, "fusion_lon": 0.0}, {"lat": 38.84035433333333, "is_disabled": 0, "type": "electric_bike", "lon": -76.97625216666667, "bike_id": "82ae78c7115c9160498a0b8c2a6cbd0f", "fusion_lat": 0.0, "name": "82ae78c7115c9160498a0b8c2a6cbd0f", "is_reserved": 0, "rental_uris": {"android": "https://dc.lft.to/lastmile_qr_scan", "ios": "https://dc.lft.to/lastmile_qr_scan"}, "fusion_lon": 0.0}, {"lat": 38.886044, "is_disabled": 0, "type": "electric_scooter", "lon": -77.022012, "bike_id": "137d4a3b2798bfceedcebd98f632c785", "fusion_lat": 0.0, "name": "137d4a3b2798bfceedcebd98f632c785", "is_reserved": 0, "rental_uris": {"android": "https://dc.lft.to/lastmile_qr_scan", "ios": "https://dc.lft.to/lastmile_qr_scan"}, "fusion_lon": 0.0}, {"lat": 38.916053166666664, "is_disabled": 0, "type": "electric_scooter", "lon": -77.021312, "bike_id": "bb70dd03c077379683c134dd906d25d0", "fusion_lat": 0.0, "name": "bb70dd03c077379683c134dd906d25d0", "is_reserved": 0, "rental_uris": {"android": "https://dc.lft.to/lastmile_qr_scan", "ios": "https://dc.lft.to/lastmile_qr_scan"}, "fusion_lon": 0.0}, {"lat": 38.9177245, "is_disabled": 0, "type": "electric_scooter", "lon": -77.02320616666667, "bike_id": "169191a136c8c56f01aaa9fc59dfea2c", "fusion_lat": 0.0, "name": "169191a136c8c56f01aaa9fc59dfea2c", "is_reserved": 0, "rental_uris": {"android": "https://dc.lft.to/lastmile_qr_scan", "ios": "https://dc.lft.to/lastmile_qr_scan"}, "fusion_lon": 0.0}, {"lat": 38.89043, "is_disabled": 0, "type": "electric_scooter", "lon": -76.951407, "bike_id": "5f9d269ac5b011a6af66c09df7ea6a19", "fusion_lat": 0.0, "name": "5f9d269ac5b011a6af66c09df7ea6a19", "is_reserved": 0, "rental_uris": {"android": "https://dc.lft.to/lastmile_qr_scan", "ios": "https://dc.lft.to/lastmile_qr_scan"}, "fusion_lon": 0.0}, {"lat": 38.906501166666665, "is_disabled": 0, "type": "electric_scooter", "lon": -77.025978, "bike_id": "b7e573dc7edd2caa5ababbcf2e7e384c", "fusion_lat": 0.0, "name": "b7e573dc7edd2caa5ababbcf2e7e384c", "is_reserved": 0, "rental_uris": {"android": "https://dc.lft.to/lastmile_qr_scan", "ios": "https://dc.lft.to/lastmile_qr_scan"}, "fusion_lon": 0.0}, {"lat": 38.91738183333333, "is_disabled": 0, "type": "electric_scooter", "lon": -77.00765333333334, "bike_id": "097b1e80b33d69aedf6a942e89add94f", "fusion_lat": 0.0, "name": "097b1e80b33d69aedf6a942e89add94f", "is_reserved": 0, "rental_uris": {"android": "https://dc.lft.to/lastmile_qr_scan", "ios": "https://dc.lft.to/lastmile_qr_scan"}, "fusion_lon": 0.0}, {"lat": 38.931758, "is_disabled": 0, "type": "electric_scooter", "lon": -77.02818183333333, "bike_id": "dc24b7b0fbd4bca9e9de3ebbfb5e447d", "fusion_lat": 0.0, "name": "dc24b7b0fbd4bca9e9de3ebbfb5e447d", "is_reserved": 0, "rental_uris": {"android": "https://dc.lft.to/lastmile_qr_scan", "ios": "https://dc.lft.to/lastmile_qr_scan"}, "fusion_lon": 0.0}, {"lat": 38.905814, "is_disabled": 0, "type": "electric_scooter", "lon": -77.02939466666666, "bike_id": "71f035fdc14ef6a7696d29f6ab274a16", "fusion_lat": 0.0, "name": "71f035fdc14ef6a7696d29f6ab274a16", "is_reserved": 0, "rental_uris": {"android": "https://dc.lft.to/lastmile_qr_scan", "ios": "https://dc.lft.to/lastmile_qr_scan"}, "fusion_lon": 0.0}, {"lat": 38.903768, "is_disabled": 0, "type": "electric_scooter", "lon": -77.04354033333334, "bike_id": "c03eb42ffaa552d573add635fc161c24", "fusion_lat": 0.0, "name": "c03eb42ffaa552d573add635fc161c24", "is_reserved": 0, "rental_uris": {"android": "https://dc.lft.to/lastmile_qr_scan", "ios": "https://dc.lft.to/lastmile_qr_scan"}, "fusion_lon": 0.0}, {"lat": 38.8971795, "is_disabled": 0, "type": "electric_scooter", "lon": -77.00799733333334, "bike_id": "e804c92b99688e3eb38addf8284c457b", "fusion_lat": 0.0, "name": "e804c92b99688e3eb38addf8284c457b", "is_reserved": 0, "rental_uris": {"android": "https://dc.lft.to/lastmile_qr_scan", "ios": "https://dc.lft.to/lastmile_qr_scan"}, "fusion_lon": 0.0}, {"lat": 38.86909433333334, "is_disabled": 0, "type": "electric_bike", "lon": -77.13183616666667, "bike_id": "4b0dc8c500421d4534996cd3b67347f8", "fusion_lat": 0.0, "name": "4b0dc8c500421d4534996cd3b67347f8", "is_reserved": 0, "rental_uris": {"android": "https://dc.lft.to/lastmile_qr_scan", "ios": "https://dc.lft.to/lastmile_qr_scan"}, "fusion_lon": 0.0}, {"lat": 38.91050416666667, "is_disabled": 0, "type": "electric_scooter", "lon": -77.01510683333333, "bike_id": "299da3c8dacaef09ef6264aad8a0b1bd", "fusion_lat": 0.0, "name": "299da3c8dacaef09ef6264aad8a0b1bd", "is_reserved": 0, "rental_uris": {"android": "https://dc.lft.to/lastmile_qr_scan", "ios": "https://dc.lft.to/lastmile_qr_scan"}, "fusion_lon": 0.0}, {"lat": 38.907626, "is_disabled": 0, "type": "electric_scooter", "lon": -77.04253983333334, "bike_id": "0946fc93412830d01f212173cab4178b", "fusion_lat": 0.0, "name": "0946fc93412830d01f212173cab4178b", "is_reserved": 0, "rental_uris": {"android": "https://dc.lft.to/lastmile_qr_scan", "ios": "https://dc.lft.to/lastmile_qr_scan"}, "fusion_lon": 0.0}, {"lat": 38.93417433333333, "is_disabled": 0, "type": "electric_scooter", "lon": -77.05782033333334, "bike_id": "1e25706f5d98e3599cfa80d6ab05b7be", "fusion_lat": 0.0, "name": "1e25706f5d98e3599cfa80d6ab05b7be", "is_reserved": 0, "rental_uris": {"android": "https://dc.lft.to/lastmile_qr_scan", "ios": "https://dc.lft.to/lastmile_qr_scan"}, "fusion_lon": 0.0}, {"lat": 38.905596833333334, "is_disabled": 0, "type": "electric_scooter", "lon": -77.034061, "bike_id": "4169c1ac2b3c8e9e915a474599f6f951", "fusion_lat": 0.0, "name": "4169c1ac2b3c8e9e915a474599f6f951", "is_reserved": 0, "rental_uris": {"android": "https://dc.lft.to/lastmile_qr_scan", "ios": "https://dc.lft.to/lastmile_qr_scan"}, "fusion_lon": 0.0}, {"lat": 38.9106305, "is_disabled": 0, "type": "electric_scooter", "lon": -77.026566, "bike_id": "213460e6d2059d7bc6ee46507ff3632f", "fusion_lat": 0.0, "name": "213460e6d2059d7bc6ee46507ff3632f", "is_reserved": 0, "rental_uris": {"android": "https://dc.lft.to/lastmile_qr_scan", "ios": "https://dc.lft.to/lastmile_qr_scan"}, "fusion_lon": 0.0}, {"lat": 38.954047833333334, "is_disabled": 0, "type": "electric_scooter", "lon": -77.03629983333333, "bike_id": "7cfcd4e4d106070f0c7a74bb6e9b04cd", "fusion_lat": 0.0, "name": "7cfcd4e4d106070f0c7a74bb6e9b04cd", "is_reserved": 0, "rental_uris": {"android": "https://dc.lft.to/lastmile_qr_scan", "ios": "https://dc.lft.to/lastmile_qr_scan"}, "fusion_lon": 0.0}, {"lat": 38.917755166666666, "is_disabled": 0, "type": "electric_scooter", "lon": -77.02879483333334, "bike_id": "fd63d56da6e54d439794d82f36277f28", "fusion_lat": 0.0, "name": "fd63d56da6e54d439794d82f36277f28", "is_reserved": 0, "rental_uris": {"android": "https://dc.lft.to/lastmile_qr_scan", "ios": "https://dc.lft.to/lastmile_qr_scan"}, "fusion_lon": 0.0}, {"lat": 38.931347333333335, "is_disabled": 0, "type": "electric_scooter", "lon": -77.03255966666667, "bike_id": "05195dcaf68e0bcf449f1f30a79163dd", "fusion_lat": 0.0, "name": "05195dcaf68e0bcf449f1f30a79163dd", "is_reserved": 0, "rental_uris": {"android": "https://dc.lft.to/lastmile_qr_scan", "ios": "https://dc.lft.to/lastmile_qr_scan"}, "fusion_lon": 0.0}, {"lat": 38.9220295, "is_disabled": 0, "type": "electric_scooter", "lon": -76.95660616666666, "bike_id": "2cfba3fc4ccf7a7b14efe479ae751c03", "fusion_lat": 0.0, "name": "2cfba3fc4ccf7a7b14efe479ae751c03", "is_reserved": 0, "rental_uris": {"android": "https://dc.lft.to/lastmile_qr_scan", "ios": "https://dc.lft.to/lastmile_qr_scan"}, "fusion_lon": 0.0}, {"lat": 38.87212366666667, "is_disabled": 0, "type": "electric_bike", "lon": -77.01530483333333, "bike_id": "ac2729ab0b7537e83d020ac719fdbade", "fusion_lat": 0.0, "name": "ac2729ab0b7537e83d020ac719fdbade", "is_reserved": 0, "rental_uris": {"android": "https://dc.lft.to/lastmile_qr_scan", "ios": "https://dc.lft.to/lastmile_qr_scan"}, "fusion_lon": 0.0}, {"lat": 38.92862783333333, "is_disabled": 0, "type": "electric_bike", "lon": -77.22228283333334, "bike_id": "8aa71b53ca6df10360f9ffb68e02fd7e", "fusion_lat": 0.0, "name": "8aa71b53ca6df10360f9ffb68e02fd7e", "is_reserved": 0, "rental_uris": {"android": "https://dc.lft.to/lastmile_qr_scan", "ios": "https://dc.lft.to/lastmile_qr_scan"}, "fusion_lon": 0.0}, {"lat": 38.902175166666666, "is_disabled": 0, "type": "electric_scooter", "lon": -77.04324266666667, "bike_id": "e3f9402d7989447cfc3e8fd1b123b661", "fusion_lat": 0.0, "name": "e3f9402d7989447cfc3e8fd1b123b661", "is_reserved": 0, "rental_uris": {"android": "https://dc.lft.to/lastmile_qr_scan", "ios": "https://dc.lft.to/lastmile_qr_scan"}, "fusion_lon": 0.0}, {"lat": 38.90338283333333, "is_disabled": 0, "type": "electric_scooter", "lon": -77.02899516666666, "bike_id": "189b03ee252fcb7826fd7ca923e3320e", "fusion_lat": 0.0, "name": "189b03ee252fcb7826fd7ca923e3320e", "is_reserved": 0, "rental_uris": {"android": "https://dc.lft.to/lastmile_qr_scan", "ios": "https://dc.lft.to/lastmile_qr_scan"}, "fusion_lon": 0.0}, {"lat": 38.89965733333333, "is_disabled": 0, "type": "electric_scooter", "lon": -77.02301233333333, "bike_id": "bf872aa341be1905d0e955f9603497ba", "fusion_lat": 0.0, "name": "bf872aa341be1905d0e955f9603497ba", "is_reserved": 0, "rental_uris": {"android": "https://dc.lft.to/lastmile_qr_scan", "ios": "https://dc.lft.to/lastmile_qr_scan"}, "fusion_lon": 0.0}, {"lat": 38.922641166666665, "is_disabled": 0, "type": "electric_scooter", "lon": -77.04291816666667, "bike_id": "2ab58dcf84e605740f81e9ef48106e9a", "fusion_lat": 0.0, "name": "2ab58dcf84e605740f81e9ef48106e9a", "is_reserved": 0, "rental_uris": {"android": "https://dc.lft.to/lastmile_qr_scan", "ios": "https://dc.lft.to/lastmile_qr_scan"}, "fusion_lon": 0.0}, {"lat": 38.90638216666667, "is_disabled": 0, "type": "electric_scooter", "lon": -77.04672333333333, "bike_id": "93d706b788d4d368b80bfd6a9d05cb4d", "fusion_lat": 0.0, "name": "93d706b788d4d368b80bfd6a9d05cb4d", "is_reserved": 0, "rental_uris": {"android": "https://dc.lft.to/lastmile_qr_scan", "ios": "https://dc.lft.to/lastmile_qr_scan"}, "fusion_lon": 0.0}, {"lat": 38.96559233333333, "is_disabled": 0, "type": "electric_bike", "lon": -77.02037766666666, "bike_id": "edeb5b31855b859b58b23a5273df9333", "fusion_lat": 0.0, "name": "edeb5b31855b859b58b23a5273df9333", "is_reserved": 0, "rental_uris": {"android": "https://dc.lft.to/lastmile_qr_scan", "ios": "https://dc.lft.to/lastmile_qr_scan"}, "fusion_lon": 0.0}, {"lat": 39.088569166666666, "is_disabled": 0, "type": "electric_bike", "lon": -77.17840566666666, "bike_id": "324c69151438a18230e9ee1745b18ec7", "fusion_lat": 0.0, "name": "324c69151438a18230e9ee1745b18ec7", "is_reserved": 0, "rental_uris": {"android": "https://dc.lft.to/lastmile_qr_scan", "ios": "https://dc.lft.to/lastmile_qr_scan"}, "fusion_lon": 0.0}, {"lat": 38.9171015, "is_disabled": 0, "type": "electric_scooter", "lon": -77.032224, "bike_id": "9921670377662397e7b5962ede6d1c19", "fusion_lat": 0.0, "name": "9921670377662397e7b5962ede6d1c19", "is_reserved": 0, "rental_uris": {"android": "https://dc.lft.to/lastmile_qr_scan", "ios": "https://dc.lft.to/lastmile_qr_scan"}, "fusion_lon": 0.0}, {"lat": 38.9134135, "is_disabled": 0, "type": "electric_scooter", "lon": -77.002266, "bike_id": "bedde146926c4bbca4524e97c5dc2ebf", "fusion_lat": 0.0, "name": "bedde146926c4bbca4524e97c5dc2ebf", "is_reserved": 0, "rental_uris": {"android": "https://dc.lft.to/lastmile_qr_scan", "ios": "https://dc.lft.to/lastmile_qr_scan"}, "fusion_lon": 0.0}, {"lat": 38.9233465, "is_disabled": 0, "type": "electric_scooter", "lon": -77.018976, "bike_id": "bafae31ad1f872f469846edb47ca8f8c", "fusion_lat": 0.0, "name": "bafae31ad1f872f469846edb47ca8f8c", "is_reserved": 0, "rental_uris": {"android": "https://dc.lft.to/lastmile_qr_scan", "ios": "https://dc.lft.to/lastmile_qr_scan"}, "fusion_lon": 0.0}, {"lat": 38.9174075, "is_disabled": 0, "type": "electric_scooter", "lon": -77.06893183333334, "bike_id": "47dba30bc84410bcf39598fed9d64a2c", "fusion_lat": 0.0, "name": "47dba30bc84410bcf39598fed9d64a2c", "is_reserved": 0, "rental_uris": {"android": "https://dc.lft.to/lastmile_qr_scan", "ios": "https://dc.lft.to/lastmile_qr_scan"}, "fusion_lon": 0.0}, {"lat": 38.9225775, "is_disabled": 0, "type": "electric_scooter", "lon": -77.04242466666666, "bike_id": "b818d5ca235cd13023f881bb90783705", "fusion_lat": 0.0, "name": "b818d5ca235cd13023f881bb90783705", "is_reserved": 0, "rental_uris": {"android": "https://dc.lft.to/lastmile_qr_scan", "ios": "https://dc.lft.to/lastmile_qr_scan"}, "fusion_lon": 0.0}, {"lat": 38.879320666666665, "is_disabled": 0, "type": "electric_scooter", "lon": -77.00710683333334, "bike_id": "ef0f27450756b7e56e71cdb3b601d587", "fusion_lat": 0.0, "name": "ef0f27450756b7e56e71cdb3b601d587", "is_reserved": 0, "rental_uris": {"android": "https://dc.lft.to/lastmile_qr_scan", "ios": "https://dc.lft.to/lastmile_qr_scan"}, "fusion_lon": 0.0}, {"lat": 38.912255333333334, "is_disabled": 0, "type": "electric_scooter", "lon": -77.04498983333333, "bike_id": "b3cfc1b0b6fc10a108f9b1177a80ba78", "fusion_lat": 0.0, "name": "b3cfc1b0b6fc10a108f9b1177a80ba78", "is_reserved": 0, "rental_uris": {"android": "https://dc.lft.to/lastmile_qr_scan", "ios": "https://dc.lft.to/lastmile_qr_scan"}, "fusion_lon": 0.0}, {"lat": 38.918071833333336, "is_disabled": 0, "type": "electric_scooter", "lon": -77.03439216666666, "bike_id": "dcbc43acf444dd3beaf07e4519ac9bb8", "fusion_lat": 0.0, "name": "dcbc43acf444dd3beaf07e4519ac9bb8", "is_reserved": 0, "rental_uris": {"android": "https://dc.lft.to/lastmile_qr_scan", "ios": "https://dc.lft.to/lastmile_qr_scan"}, "fusion_lon": 0.0}, {"lat": 38.85800416666667, "is_disabled": 0, "type": "electric_scooter", "lon": -76.98725433333334, "bike_id": "ed417edf4aa091e802e49f771568b799", "fusion_lat": 0.0, "name": "ed417edf4aa091e802e49f771568b799", "is_reserved": 0, "rental_uris": {"android": "https://dc.lft.to/lastmile_qr_scan", "ios": "https://dc.lft.to/lastmile_qr_scan"}, "fusion_lon": 0.0}, {"lat": 38.883425833333334, "is_disabled": 0, "type": "electric_scooter", "lon": -77.031485, "bike_id": "7665ad2257de2fb70f492d47c7b16c86", "fusion_lat": 0.0, "name": "7665ad2257de2fb70f492d47c7b16c86", "is_reserved": 0, "rental_uris": {"android": "https://dc.lft.to/lastmile_qr_scan", "ios": "https://dc.lft.to/lastmile_qr_scan"}, "fusion_lon": 0.0}, {"lat": 38.9239025, "is_disabled": 0, "type": "electric_scooter", "lon": -77.00065983333333, "bike_id": "8f644bb370e0beb340b956eba0b4174f", "fusion_lat": 0.0, "name": "8f644bb370e0beb340b956eba0b4174f", "is_reserved": 0, "rental_uris": {"android": "https://dc.lft.to/lastmile_qr_scan", "ios": "https://dc.lft.to/lastmile_qr_scan"}, "fusion_lon": 0.0}, {"lat": 38.861148666666665, "is_disabled": 0, "type": "electric_scooter", "lon": -76.967648, "bike_id": "4922cdb22dff3805c9465ae94ce150e5", "fusion_lat": 0.0, "name": "4922cdb22dff3805c9465ae94ce150e5", "is_reserved": 0, "rental_uris": {"android": "https://dc.lft.to/lastmile_qr_scan", "ios": "https://dc.lft.to/lastmile_qr_scan"}, "fusion_lon": 0.0}, {"lat": 38.898968333333336, "is_disabled": 0, "type": "electric_scooter", "lon": -77.0217195, "bike_id": "cfbe5c8e0316373cd7f55dc4f6f4a1e1", "fusion_lat": 0.0, "name": "cfbe5c8e0316373cd7f55dc4f6f4a1e1", "is_reserved": 0, "rental_uris": {"android": "https://dc.lft.to/lastmile_qr_scan", "ios": "https://dc.lft.to/lastmile_qr_scan"}, "fusion_lon": 0.0}, {"lat": 38.92417783333333, "is_disabled": 0, "type": "electric_scooter", "lon": -77.03542833333333, "bike_id": "538fce39faf1e52a822bb88749fd756f", "fusion_lat": 0.0, "name": "538fce39faf1e52a822bb88749fd756f", "is_reserved": 0, "rental_uris": {"android": "https://dc.lft.to/lastmile_qr_scan", "ios": "https://dc.lft.to/lastmile_qr_scan"}, "fusion_lon": 0.0}, {"lat": 38.9248185, "is_disabled": 0, "type": "electric_scooter", "lon": -77.03487833333334, "bike_id": "fef1b1c27efbd4f5624fe1a60aec5a2a", "fusion_lat": 0.0, "name": "fef1b1c27efbd4f5624fe1a60aec5a2a", "is_reserved": 0, "rental_uris": {"android": "https://dc.lft.to/lastmile_qr_scan", "ios": "https://dc.lft.to/lastmile_qr_scan"}, "fusion_lon": 0.0}, {"lat": 38.965611833333334, "is_disabled": 0, "type": "electric_scooter", "lon": -77.01627783333333, "bike_id": "0c00c55d158b78ead4c51c99950fc5a5", "fusion_lat": 0.0, "name": "0c00c55d158b78ead4c51c99950fc5a5", "is_reserved": 0, "rental_uris": {"android": "https://dc.lft.to/lastmile_qr_scan", "ios": "https://dc.lft.to/lastmile_qr_scan"}, "fusion_lon": 0.0}, {"lat": 38.90266283333333, "is_disabled": 0, "type": "electric_scooter", "lon": -77.0201385, "bike_id": "7d8ce8554fdeb39e77b0411a36ec23e2", "fusion_lat": 0.0, "name": "7d8ce8554fdeb39e77b0411a36ec23e2", "is_reserved": 0, "rental_uris": {"android": "https://dc.lft.to/lastmile_qr_scan", "ios": "https://dc.lft.to/lastmile_qr_scan"}, "fusion_lon": 0.0}, {"lat": 38.88639216666667, "is_disabled": 0, "type": "electric_scooter", "lon": -76.95492616666667, "bike_id": "80eaefc097dfd82e41224b6769020d02", "fusion_lat": 0.0, "name": "80eaefc097dfd82e41224b6769020d02", "is_reserved": 0, "rental_uris": {"android": "https://dc.lft.to/lastmile_qr_scan", "ios": "https://dc.lft.to/lastmile_qr_scan"}, "fusion_lon": 0.0}, {"lat": 38.90276016666667, "is_disabled": 0, "type": "electric_scooter", "lon": -77.03381966666667, "bike_id": "3efae32080aebe42b5dd07ee64d137fd", "fusion_lat": 0.0, "name": "3efae32080aebe42b5dd07ee64d137fd", "is_reserved": 0, "rental_uris": {"android": "https://dc.lft.to/lastmile_qr_scan", "ios": "https://dc.lft.to/lastmile_qr_scan"}, "fusion_lon": 0.0}, {"lat": 38.943181833333334, "is_disabled": 0, "type": "electric_scooter", "lon": -77.06147916666667, "bike_id": "ca7cfa9e21bdda8be634dbac9d6735d4", "fusion_lat": 0.0, "name": "ca7cfa9e21bdda8be634dbac9d6735d4", "is_reserved": 0, "rental_uris": {"android": "https://dc.lft.to/lastmile_qr_scan", "ios": "https://dc.lft.to/lastmile_qr_scan"}, "fusion_lon": 0.0}, {"lat": 38.8949165, "is_disabled": 0, "type": "electric_scooter", "lon": -77.002587, "bike_id": "cc580abe7d9b0ec306766be0310be5ba", "fusion_lat": 0.0, "name": "cc580abe7d9b0ec306766be0310be5ba", "is_reserved": 0, "rental_uris": {"android": "https://dc.lft.to/lastmile_qr_scan", "ios": "https://dc.lft.to/lastmile_qr_scan"}, "fusion_lon": 0.0}, {"lat": 38.89652483333333, "is_disabled": 0, "type": "electric_scooter", "lon": -77.04642966666667, "bike_id": "1800e69a6515a5eae1fdfe1b2f4c5092", "fusion_lat": 0.0, "name": "1800e69a6515a5eae1fdfe1b2f4c5092", "is_reserved": 0, "rental_uris": {"android": "https://dc.lft.to/lastmile_qr_scan", "ios": "https://dc.lft.to/lastmile_qr_scan"}, "fusion_lon": 0.0}, {"lat": 38.9157, "is_disabled": 0, "type": "electric_scooter", "lon": -77.05027983333333, "bike_id": "a15ce4329fe6a035ccddf0034587951a", "fusion_lat": 0.0, "name": "a15ce4329fe6a035ccddf0034587951a", "is_reserved": 0, "rental_uris": {"android": "https://dc.lft.to/lastmile_qr_scan", "ios": "https://dc.lft.to/lastmile_qr_scan"}, "fusion_lon": 0.0}, {"lat": 38.927076666666665, "is_disabled": 0, "type": "electric_scooter", "lon": -77.014746, "bike_id": "7be485d3b6d80d8608af6dec2d1b39a7", "fusion_lat": 0.0, "name": "7be485d3b6d80d8608af6dec2d1b39a7", "is_reserved": 0, "rental_uris": {"android": "https://dc.lft.to/lastmile_qr_scan", "ios": "https://dc.lft.to/lastmile_qr_scan"}, "fusion_lon": 0.0}, {"lat": 38.9066875, "is_disabled": 0, "type": "electric_scooter", "lon": -77.03867966666667, "bike_id": "da27660341ef70b9a24ed4fe4ef34fc9", "fusion_lat": 0.0, "name": "da27660341ef70b9a24ed4fe4ef34fc9", "is_reserved": 0, "rental_uris": {"android": "https://dc.lft.to/lastmile_qr_scan", "ios": "https://dc.lft.to/lastmile_qr_scan"}, "fusion_lon": 0.0}, {"lat": 38.89354466666666, "is_disabled": 0, "type": "electric_scooter", "lon": -76.98472033333333, "bike_id": "3e428beab6389afcbf5e613ab8a70e3f", "fusion_lat": 0.0, "name": "3e428beab6389afcbf5e613ab8a70e3f", "is_reserved": 0, "rental_uris": {"android": "https://dc.lft.to/lastmile_qr_scan", "ios": "https://dc.lft.to/lastmile_qr_scan"}, "fusion_lon": 0.0}, {"lat": 38.904857166666666, "is_disabled": 0, "type": "electric_scooter", "lon": -76.97328666666667, "bike_id": "a59941d3b2c1cf74ed9f927e834b7dda", "fusion_lat": 0.0, "name": "a59941d3b2c1cf74ed9f927e834b7dda", "is_reserved": 0, "rental_uris": {"android": "https://dc.lft.to/lastmile_qr_scan", "ios": "https://dc.lft.to/lastmile_qr_scan"}, "fusion_lon": 0.0}, {"lat": 38.91046033333333, "is_disabled": 0, "type": "electric_scooter", "lon": -77.04570016666666, "bike_id": "70816b771d3f940f03767d1d2966c52e", "fusion_lat": 0.0, "name": "70816b771d3f940f03767d1d2966c52e", "is_reserved": 0, "rental_uris": {"android": "https://dc.lft.to/lastmile_qr_scan", "ios": "https://dc.lft.to/lastmile_qr_scan"}, "fusion_lon": 0.0}, {"lat": 38.895078, "is_disabled": 0, "type": "electric_scooter", "lon": -77.01610283333333, "bike_id": "0f2436d1d15ade362e2210e0bcf07514", "fusion_lat": 0.0, "name": "0f2436d1d15ade362e2210e0bcf07514", "is_reserved": 0, "rental_uris": {"android": "https://dc.lft.to/lastmile_qr_scan", "ios": "https://dc.lft.to/lastmile_qr_scan"}, "fusion_lon": 0.0}, {"lat": 38.92117833333333, "is_disabled": 0, "type": "electric_scooter", "lon": -77.04195833333333, "bike_id": "0fde407d517584465bbe3916de064f74", "fusion_lat": 0.0, "name": "0fde407d517584465bbe3916de064f74", "is_reserved": 0, "rental_uris": {"android": "https://dc.lft.to/lastmile_qr_scan", "ios": "https://dc.lft.to/lastmile_qr_scan"}, "fusion_lon": 0.0}, {"lat": 38.92170816666667, "is_disabled": 0, "type": "electric_scooter", "lon": -77.04013666666667, "bike_id": "f974ed702283d3ef2abd03165e8575f0", "fusion_lat": 0.0, "name": "f974ed702283d3ef2abd03165e8575f0", "is_reserved": 0, "rental_uris": {"android": "https://dc.lft.to/lastmile_qr_scan", "ios": "https://dc.lft.to/lastmile_qr_scan"}, "fusion_lon": 0.0}, {"lat": 38.9034855, "is_disabled": 0, "type": "electric_scooter", "lon": -77.05219933333333, "bike_id": "95b8034d5e7620314d49574b983f72e3", "fusion_lat": 0.0, "name": "95b8034d5e7620314d49574b983f72e3", "is_reserved": 0, "rental_uris": {"android": "https://dc.lft.to/lastmile_qr_scan", "ios": "https://dc.lft.to/lastmile_qr_scan"}, "fusion_lon": 0.0}, {"lat": 38.896579, "is_disabled": 0, "type": "electric_scooter", "lon": -77.005207, "bike_id": "4753a36eff18f4b17ebea7ff176d088a", "fusion_lat": 0.0, "name": "4753a36eff18f4b17ebea7ff176d088a", "is_reserved": 0, "rental_uris": {"android": "https://dc.lft.to/lastmile_qr_scan", "ios": "https://dc.lft.to/lastmile_qr_scan"}, "fusion_lon": 0.0}, {"lat": 38.94109366666667, "is_disabled": 0, "type": "electric_scooter", "lon": -77.077297, "bike_id": "8223a3c17ebf861e95b71ab2e629b8f2", "fusion_lat": 0.0, "name": "8223a3c17ebf861e95b71ab2e629b8f2", "is_reserved": 0, "rental_uris": {"android": "https://dc.lft.to/lastmile_qr_scan", "ios": "https://dc.lft.to/lastmile_qr_scan"}, "fusion_lon": 0.0}, {"lat": 38.918779666666666, "is_disabled": 0, "type": "electric_scooter", "lon": -77.03496916666667, "bike_id": "be984308f2780c79c75f6f3f4c45874c", "fusion_lat": 0.0, "name": "be984308f2780c79c75f6f3f4c45874c", "is_reserved": 0, "rental_uris": {"android": "https://dc.lft.to/lastmile_qr_scan", "ios": "https://dc.lft.to/lastmile_qr_scan"}, "fusion_lon": 0.0}, {"lat": 38.90587766666667, "is_disabled": 0, "type": "electric_scooter", "lon": -76.98621933333334, "bike_id": "99615ce4ff6512c3c977898997e370aa", "fusion_lat": 0.0, "name": "99615ce4ff6512c3c977898997e370aa", "is_reserved": 0, "rental_uris": {"android": "https://dc.lft.to/lastmile_qr_scan", "ios": "https://dc.lft.to/lastmile_qr_scan"}, "fusion_lon": 0.0}, {"lat": 38.9391135, "is_disabled": 0, "type": "electric_scooter", "lon": -77.0667365, "bike_id": "da3de93e112f8b5b3e8716128b4dd213", "fusion_lat": 0.0, "name": "da3de93e112f8b5b3e8716128b4dd213", "is_reserved": 0, "rental_uris": {"android": "https://dc.lft.to/lastmile_qr_scan", "ios": "https://dc.lft.to/lastmile_qr_scan"}, "fusion_lon": 0.0}, {"lat": 38.9288705, "is_disabled": 0, "type": "electric_scooter", "lon": -77.05752333333334, "bike_id": "dbd012230d0b907df3de75e61b0c1ff9", "fusion_lat": 0.0, "name": "dbd012230d0b907df3de75e61b0c1ff9", "is_reserved": 0, "rental_uris": {"android": "https://dc.lft.to/lastmile_qr_scan", "ios": "https://dc.lft.to/lastmile_qr_scan"}, "fusion_lon": 0.0}, {"lat": 38.90865933333333, "is_disabled": 0, "type": "electric_bike", "lon": -76.94012516666666, "bike_id": "160bd6fbbb3b5982feab675aa3147e6a", "fusion_lat": 0.0, "name": "160bd6fbbb3b5982feab675aa3147e6a", "is_reserved": 0, "rental_uris": {"android": "https://dc.lft.to/lastmile_qr_scan", "ios": "https://dc.lft.to/lastmile_qr_scan"}, "fusion_lon": 0.0}, {"lat": 38.86709116666667, "is_disabled": 0, "type": "electric_scooter", "lon": -76.98725483333334, "bike_id": "0506b23747d80428c406133056cca776", "fusion_lat": 0.0, "name": "0506b23747d80428c406133056cca776", "is_reserved": 0, "rental_uris": {"android": "https://dc.lft.to/lastmile_qr_scan", "ios": "https://dc.lft.to/lastmile_qr_scan"}, "fusion_lon": 0.0}, {"lat": 38.92129383333334, "is_disabled": 0, "type": "electric_scooter", "lon": -77.04575, "bike_id": "e9058756190a17f17fbe15fad30b25d9", "fusion_lat": 0.0, "name": "e9058756190a17f17fbe15fad30b25d9", "is_reserved": 0, "rental_uris": {"android": "https://dc.lft.to/lastmile_qr_scan", "ios": "https://dc.lft.to/lastmile_qr_scan"}, "fusion_lon": 0.0}, {"lat": 38.84507083333333, "is_disabled": 0, "type": "electric_bike", "lon": -76.993548, "bike_id": "72c47c929e6dab7840b8f306ad23504b", "fusion_lat": 0.0, "name": "72c47c929e6dab7840b8f306ad23504b", "is_reserved": 0, "rental_uris": {"android": "https://dc.lft.to/lastmile_qr_scan", "ios": "https://dc.lft.to/lastmile_qr_scan"}, "fusion_lon": 0.0}, {"lat": 38.892299333333334, "is_disabled": 0, "type": "electric_scooter", "lon": -77.05004683333334, "bike_id": "cf1b824c8f17734e207b1ee77d72c764", "fusion_lat": 0.0, "name": "cf1b824c8f17734e207b1ee77d72c764", "is_reserved": 0, "rental_uris": {"android": "https://dc.lft.to/lastmile_qr_scan", "ios": "https://dc.lft.to/lastmile_qr_scan"}, "fusion_lon": 0.0}, {"lat": 38.918771166666666, "is_disabled": 0, "type": "electric_scooter", "lon": -77.03507366666666, "bike_id": "364d670740d006192c6efb8401c7309b", "fusion_lat": 0.0, "name": "364d670740d006192c6efb8401c7309b", "is_reserved": 0, "rental_uris": {"android": "https://dc.lft.to/lastmile_qr_scan", "ios": "https://dc.lft.to/lastmile_qr_scan"}, "fusion_lon": 0.0}, {"lat": 38.895598, "is_disabled": 0, "type": "electric_scooter", "lon": -76.93383916666667, "bike_id": "ec20e1421652c8854dc123b2ee6c764b", "fusion_lat": 0.0, "name": "ec20e1421652c8854dc123b2ee6c764b", "is_reserved": 0, "rental_uris": {"android": "https://dc.lft.to/lastmile_qr_scan", "ios": "https://dc.lft.to/lastmile_qr_scan"}, "fusion_lon": 0.0}, {"lat": 38.92662833333333, "is_disabled": 0, "type": "electric_scooter", "lon": -77.0559625, "bike_id": "4a93df31c9089b1b20d482fe0784253e", "fusion_lat": 0.0, "name": "4a93df31c9089b1b20d482fe0784253e", "is_reserved": 0, "rental_uris": {"android": "https://dc.lft.to/lastmile_qr_scan", "ios": "https://dc.lft.to/lastmile_qr_scan"}, "fusion_lon": 0.0}, {"lat": 38.93536066666667, "is_disabled": 0, "type": "electric_scooter", "lon": -77.0235105, "bike_id": "6b9638d068f8d5857a497f79898dfc8b", "fusion_lat": 0.0, "name": "6b9638d068f8d5857a497f79898dfc8b", "is_reserved": 0, "rental_uris": {"android": "https://dc.lft.to/lastmile_qr_scan", "ios": "https://dc.lft.to/lastmile_qr_scan"}, "fusion_lon": 0.0}, {"lat": 38.87687716666667, "is_disabled": 0, "type": "electric_bike", "lon": -77.0162515, "bike_id": "aaf38a24ba1a170a5d5c37b53b9d5292", "fusion_lat": 0.0, "name": "aaf38a24ba1a170a5d5c37b53b9d5292", "is_reserved": 0, "rental_uris": {"android": "https://dc.lft.to/lastmile_qr_scan", "ios": "https://dc.lft.to/lastmile_qr_scan"}, "fusion_lon": 0.0}, {"lat": 38.9020945, "is_disabled": 0, "type": "electric_scooter", "lon": -76.98842366666666, "bike_id": "3f86da0cc97335a810a73f55a24d9133", "fusion_lat": 0.0, "name": "3f86da0cc97335a810a73f55a24d9133", "is_reserved": 0, "rental_uris": {"android": "https://dc.lft.to/lastmile_qr_scan", "ios": "https://dc.lft.to/lastmile_qr_scan"}, "fusion_lon": 0.0}, {"lat": 38.92863633333333, "is_disabled": 0, "type": "electric_scooter", "lon": -77.03001816666666, "bike_id": "f5be69629b480eba4ce413b408b9deeb", "fusion_lat": 0.0, "name": "f5be69629b480eba4ce413b408b9deeb", "is_reserved": 0, "rental_uris": {"android": "https://dc.lft.to/lastmile_qr_scan", "ios": "https://dc.lft.to/lastmile_qr_scan"}, "fusion_lon": 0.0}, {"lat": 38.90366433333333, "is_disabled": 0, "type": "electric_scooter", "lon": -76.97654816666666, "bike_id": "65ba4bbe740f0ef7733430ce18198d1a", "fusion_lat": 0.0, "name": "65ba4bbe740f0ef7733430ce18198d1a", "is_reserved": 0, "rental_uris": {"android": "https://dc.lft.to/lastmile_qr_scan", "ios": "https://dc.lft.to/lastmile_qr_scan"}, "fusion_lon": 0.0}, {"lat": 38.92599033333333, "is_disabled": 0, "type": "electric_scooter", "lon": -77.024905, "bike_id": "e0e64a5f9c5bd45c8d4e4a41fb23005b", "fusion_lat": 0.0, "name": "e0e64a5f9c5bd45c8d4e4a41fb23005b", "is_reserved": 0, "rental_uris": {"android": "https://dc.lft.to/lastmile_qr_scan", "ios": "https://dc.lft.to/lastmile_qr_scan"}, "fusion_lon": 0.0}, {"lat": 38.874724666666665, "is_disabled": 0, "type": "electric_scooter", "lon": -77.00520083333333, "bike_id": "5aaf89d86e6ea5d4b78428b608a5427d", "fusion_lat": 0.0, "name": "5aaf89d86e6ea5d4b78428b608a5427d", "is_reserved": 0, "rental_uris": {"android": "https://dc.lft.to/lastmile_qr_scan", "ios": "https://dc.lft.to/lastmile_qr_scan"}, "fusion_lon": 0.0}, {"lat": 38.960547166666665, "is_disabled": 0, "type": "electric_scooter", "lon": -77.0731135, "bike_id": "3b287384fc2a7de6df589b12fe952986", "fusion_lat": 0.0, "name": "3b287384fc2a7de6df589b12fe952986", "is_reserved": 0, "rental_uris": {"android": "https://dc.lft.to/lastmile_qr_scan", "ios": "https://dc.lft.to/lastmile_qr_scan"}, "fusion_lon": 0.0}, {"lat": 38.8962675, "is_disabled": 0, "type": "electric_scooter", "lon": -77.04497933333333, "bike_id": "21529560dbf7c549fa5bae85e6cb1a03", "fusion_lat": 0.0, "name": "21529560dbf7c549fa5bae85e6cb1a03", "is_reserved": 0, "rental_uris": {"android": "https://dc.lft.to/lastmile_qr_scan", "ios": "https://dc.lft.to/lastmile_qr_scan"}, "fusion_lon": 0.0}, {"lat": 38.913494, "is_disabled": 0, "type": "electric_scooter", "lon": -77.0427775, "bike_id": "dd5b81658f77d20511419ab3f9c282c2", "fusion_lat": 0.0, "name": "dd5b81658f77d20511419ab3f9c282c2", "is_reserved": 0, "rental_uris": {"android": "https://dc.lft.to/lastmile_qr_scan", "ios": "https://dc.lft.to/lastmile_qr_scan"}, "fusion_lon": 0.0}, {"lat": 38.914838333333336, "is_disabled": 0, "type": "electric_scooter", "lon": -77.0323905, "bike_id": "45c750bd3398df98619323c2bfd9fdd4", "fusion_lat": 0.0, "name": "45c750bd3398df98619323c2bfd9fdd4", "is_reserved": 0, "rental_uris": {"android": "https://dc.lft.to/lastmile_qr_scan", "ios": "https://dc.lft.to/lastmile_qr_scan"}, "fusion_lon": 0.0}, {"lat": 38.901394, "is_disabled": 0, "type": "electric_bike", "lon": -76.986456, "bike_id": "cb905abe9e5db2d5088577adea4b34e2", "fusion_lat": 0.0, "name": "cb905abe9e5db2d5088577adea4b34e2", "is_reserved": 0, "rental_uris": {"android": "https://dc.lft.to/lastmile_qr_scan", "ios": "https://dc.lft.to/lastmile_qr_scan"}, "fusion_lon": 0.0}, {"lat": 38.933809833333335, "is_disabled": 0, "type": "electric_scooter", "lon": -77.03797883333333, "bike_id": "d3411c46fef19653e4fb51e378a9b196", "fusion_lat": 0.0, "name": "d3411c46fef19653e4fb51e378a9b196", "is_reserved": 0, "rental_uris": {"android": "https://dc.lft.to/lastmile_qr_scan", "ios": "https://dc.lft.to/lastmile_qr_scan"}, "fusion_lon": 0.0}, {"lat": 38.91959466666667, "is_disabled": 0, "type": "electric_bike", "lon": -76.972687, "bike_id": "685cda30f71ae23e50722edbb1c4570a", "fusion_lat": 0.0, "name": "685cda30f71ae23e50722edbb1c4570a", "is_reserved": 0, "rental_uris": {"android": "https://dc.lft.to/lastmile_qr_scan", "ios": "https://dc.lft.to/lastmile_qr_scan"}, "fusion_lon": 0.0}, {"lat": 38.919545666666664, "is_disabled": 0, "type": "electric_scooter", "lon": -77.04883633333333, "bike_id": "e51e13fd30ea039a3081f46a1a100c41", "fusion_lat": 0.0, "name": "e51e13fd30ea039a3081f46a1a100c41", "is_reserved": 0, "rental_uris": {"android": "https://dc.lft.to/lastmile_qr_scan", "ios": "https://dc.lft.to/lastmile_qr_scan"}, "fusion_lon": 0.0}, {"lat": 38.96275133333333, "is_disabled": 0, "type": "electric_bike", "lon": -77.03262716666667, "bike_id": "cc9f56fb0fd696a2ed03ef01e1a45153", "fusion_lat": 0.0, "name": "cc9f56fb0fd696a2ed03ef01e1a45153", "is_reserved": 0, "rental_uris": {"android": "https://dc.lft.to/lastmile_qr_scan", "ios": "https://dc.lft.to/lastmile_qr_scan"}, "fusion_lon": 0.0}, {"lat": 38.90214316666667, "is_disabled": 0, "type": "electric_scooter", "lon": -76.94594083333334, "bike_id": "ff92339b0deac58fd17b5a5a664ea6d2", "fusion_lat": 0.0, "name": "ff92339b0deac58fd17b5a5a664ea6d2", "is_reserved": 0, "rental_uris": {"android": "https://dc.lft.to/lastmile_qr_scan", "ios": "https://dc.lft.to/lastmile_qr_scan"}, "fusion_lon": 0.0}, {"lat": 38.8976895, "is_disabled": 0, "type": "electric_scooter", "lon": -77.04352833333333, "bike_id": "1ac102b0a02e6e5b51503ada1bf06c68", "fusion_lat": 0.0, "name": "1ac102b0a02e6e5b51503ada1bf06c68", "is_reserved": 0, "rental_uris": {"android": "https://dc.lft.to/lastmile_qr_scan", "ios": "https://dc.lft.to/lastmile_qr_scan"}, "fusion_lon": 0.0}, {"lat": 38.922495833333336, "is_disabled": 0, "type": "electric_scooter", "lon": -77.03066916666667, "bike_id": "cf47e497e66f82f5dfbe4914d495d15d", "fusion_lat": 0.0, "name": "cf47e497e66f82f5dfbe4914d495d15d", "is_reserved": 0, "rental_uris": {"android": "https://dc.lft.to/lastmile_qr_scan", "ios": "https://dc.lft.to/lastmile_qr_scan"}, "fusion_lon": 0.0}, {"lat": 38.93012566666667, "is_disabled": 0, "type": "electric_bike", "lon": -77.21651116666666, "bike_id": "0e7016671c86a0b618590c29936b0fba", "fusion_lat": 0.0, "name": "0e7016671c86a0b618590c29936b0fba", "is_reserved": 0, "rental_uris": {"android": "https://dc.lft.to/lastmile_qr_scan", "ios": "https://dc.lft.to/lastmile_qr_scan"}, "fusion_lon": 0.0}, {"lat": 38.94436866666667, "is_disabled": 0, "type": "electric_scooter", "lon": -77.015072, "bike_id": "52a2458fac717880b6c0c4727c14e93a", "fusion_lat": 0.0, "name": "52a2458fac717880b6c0c4727c14e93a", "is_reserved": 0, "rental_uris": {"android": "https://dc.lft.to/lastmile_qr_scan", "ios": "https://dc.lft.to/lastmile_qr_scan"}, "fusion_lon": 0.0}, {"lat": 38.851955, "is_disabled": 0, "type": "electric_bike", "lon": -76.96108666666666, "bike_id": "3a48e49b8ad36c42908d35fdbbcca7ab", "fusion_lat": 0.0, "name": "3a48e49b8ad36c42908d35fdbbcca7ab", "is_reserved": 0, "rental_uris": {"android": "https://dc.lft.to/lastmile_qr_scan", "ios": "https://dc.lft.to/lastmile_qr_scan"}, "fusion_lon": 0.0}, {"lat": 38.91109866666667, "is_disabled": 0, "type": "electric_scooter", "lon": -77.03833666666667, "bike_id": "7f402ee5a8f37ad0ba09dfb2fea74680", "fusion_lat": 0.0, "name": "7f402ee5a8f37ad0ba09dfb2fea74680", "is_reserved": 0, "rental_uris": {"android": "https://dc.lft.to/lastmile_qr_scan", "ios": "https://dc.lft.to/lastmile_qr_scan"}, "fusion_lon": 0.0}, {"lat": 38.9011455, "is_disabled": 0, "type": "electric_scooter", "lon": -77.02537783333334, "bike_id": "1b427064a4f48613144bed7f1bd4f43d", "fusion_lat": 0.0, "name": "1b427064a4f48613144bed7f1bd4f43d", "is_reserved": 0, "rental_uris": {"android": "https://dc.lft.to/lastmile_qr_scan", "ios": "https://dc.lft.to/lastmile_qr_scan"}, "fusion_lon": 0.0}, {"lat": 38.943936666666666, "is_disabled": 0, "type": "electric_scooter", "lon": -77.01985966666666, "bike_id": "01e32dc959196700a4413d3df22f6af7", "fusion_lat": 0.0, "name": "01e32dc959196700a4413d3df22f6af7", "is_reserved": 0, "rental_uris": {"android": "https://dc.lft.to/lastmile_qr_scan", "ios": "https://dc.lft.to/lastmile_qr_scan"}, "fusion_lon": 0.0}, {"lat": 38.928566333333336, "is_disabled": 0, "type": "electric_scooter", "lon": -77.01392816666667, "bike_id": "0a3abb0ca1f829f6ae396f3d6e79ccbd", "fusion_lat": 0.0, "name": "0a3abb0ca1f829f6ae396f3d6e79ccbd", "is_reserved": 0, "rental_uris": {"android": "https://dc.lft.to/lastmile_qr_scan", "ios": "https://dc.lft.to/lastmile_qr_scan"}, "fusion_lon": 0.0}, {"lat": 38.9900695, "is_disabled": 0, "type": "electric_bike", "lon": -77.0043965, "bike_id": "5d2813c3646c776f4d6a9f1171fa2613", "fusion_lat": 0.0, "name": "5d2813c3646c776f4d6a9f1171fa2613", "is_reserved": 0, "rental_uris": {"android": "https://dc.lft.to/lastmile_qr_scan", "ios": "https://dc.lft.to/lastmile_qr_scan"}, "fusion_lon": 0.0}, {"lat": 38.85509966666667, "is_disabled": 0, "type": "electric_bike", "lon": -77.1202005, "bike_id": "a31cb33649799487162e628d2caf53ff", "fusion_lat": 0.0, "name": "a31cb33649799487162e628d2caf53ff", "is_reserved": 0, "rental_uris": {"android": "https://dc.lft.to/lastmile_qr_scan", "ios": "https://dc.lft.to/lastmile_qr_scan"}, "fusion_lon": 0.0}, {"lat": 38.91882066666667, "is_disabled": 0, "type": "electric_scooter", "lon": -77.03496616666666, "bike_id": "addd5ff7b33fc15d70953b75d17dd5c3", "fusion_lat": 0.0, "name": "addd5ff7b33fc15d70953b75d17dd5c3", "is_reserved": 0, "rental_uris": {"android": "https://dc.lft.to/lastmile_qr_scan", "ios": "https://dc.lft.to/lastmile_qr_scan"}, "fusion_lon": 0.0}, {"lat": 38.9234595, "is_disabled": 0, "type": "electric_scooter", "lon": -77.03398616666666, "bike_id": "34f76f7e449efb7ac7a23b2f2905742e", "fusion_lat": 0.0, "name": "34f76f7e449efb7ac7a23b2f2905742e", "is_reserved": 0, "rental_uris": {"android": "https://dc.lft.to/lastmile_qr_scan", "ios": "https://dc.lft.to/lastmile_qr_scan"}, "fusion_lon": 0.0}, {"lat": 38.93568833333333, "is_disabled": 0, "type": "electric_scooter", "lon": -77.03261466666666, "bike_id": "c048d22c060abd439a09bfa0375c8a69", "fusion_lat": 0.0, "name": "c048d22c060abd439a09bfa0375c8a69", "is_reserved": 0, "rental_uris": {"android": "https://dc.lft.to/lastmile_qr_scan", "ios": "https://dc.lft.to/lastmile_qr_scan"}, "fusion_lon": 0.0}, {"lat": 38.91054166666667, "is_disabled": 0, "type": "electric_scooter", "lon": -77.04346433333333, "bike_id": "725019eb0a9649023c750a3c5443c015", "fusion_lat": 0.0, "name": "725019eb0a9649023c750a3c5443c015", "is_reserved": 0, "rental_uris": {"android": "https://dc.lft.to/lastmile_qr_scan", "ios": "https://dc.lft.to/lastmile_qr_scan"}, "fusion_lon": 0.0}, {"lat": 38.90559416666667, "is_disabled": 0, "type": "electric_scooter", "lon": -77.0361605, "bike_id": "23e79c51e61d92b5621d652ccf80523b", "fusion_lat": 0.0, "name": "23e79c51e61d92b5621d652ccf80523b", "is_reserved": 0, "rental_uris": {"android": "https://dc.lft.to/lastmile_qr_scan", "ios": "https://dc.lft.to/lastmile_qr_scan"}, "fusion_lon": 0.0}, {"lat": 38.91531116666667, "is_disabled": 0, "type": "electric_scooter", "lon": -77.0321825, "bike_id": "5083332e976f18e5ebb46e02994bfe12", "fusion_lat": 0.0, "name": "5083332e976f18e5ebb46e02994bfe12", "is_reserved": 0, "rental_uris": {"android": "https://dc.lft.to/lastmile_qr_scan", "ios": "https://dc.lft.to/lastmile_qr_scan"}, "fusion_lon": 0.0}, {"lat": 38.897095, "is_disabled": 0, "type": "electric_scooter", "lon": -77.0083975, "bike_id": "479e944b7e7bd2c7837c0a9c6feba172", "fusion_lat": 0.0, "name": "479e944b7e7bd2c7837c0a9c6feba172", "is_reserved": 0, "rental_uris": {"android": "https://dc.lft.to/lastmile_qr_scan", "ios": "https://dc.lft.to/lastmile_qr_scan"}, "fusion_lon": 0.0}, {"lat": 38.9311895, "is_disabled": 0, "type": "electric_scooter", "lon": -77.03025783333334, "bike_id": "634b129609a4abb81a6e27bd3737e6c6", "fusion_lat": 0.0, "name": "634b129609a4abb81a6e27bd3737e6c6", "is_reserved": 0, "rental_uris": {"android": "https://dc.lft.to/lastmile_qr_scan", "ios": "https://dc.lft.to/lastmile_qr_scan"}, "fusion_lon": 0.0}, {"lat": 38.91743233333333, "is_disabled": 0, "type": "electric_scooter", "lon": -77.02522366666666, "bike_id": "35d33d59405b26a90b810aad9afe4908", "fusion_lat": 0.0, "name": "35d33d59405b26a90b810aad9afe4908", "is_reserved": 0, "rental_uris": {"android": "https://dc.lft.to/lastmile_qr_scan", "ios": "https://dc.lft.to/lastmile_qr_scan"}, "fusion_lon": 0.0}, {"lat": 38.921505333333336, "is_disabled": 0, "type": "electric_scooter", "lon": -77.03870516666667, "bike_id": "d5fb38149facb3bd1fda458663521dbf", "fusion_lat": 0.0, "name": "d5fb38149facb3bd1fda458663521dbf", "is_reserved": 0, "rental_uris": {"android": "https://dc.lft.to/lastmile_qr_scan", "ios": "https://dc.lft.to/lastmile_qr_scan"}, "fusion_lon": 0.0}, {"lat": 38.927817833333336, "is_disabled": 0, "type": "electric_scooter", "lon": -77.05256183333333, "bike_id": "2f87c793f7c2ca84a8b474aea60fbd27", "fusion_lat": 0.0, "name": "2f87c793f7c2ca84a8b474aea60fbd27", "is_reserved": 0, "rental_uris": {"android": "https://dc.lft.to/lastmile_qr_scan", "ios": "https://dc.lft.to/lastmile_qr_scan"}, "fusion_lon": 0.0}, {"lat": 38.89606116666667, "is_disabled": 0, "type": "electric_scooter", "lon": -77.00926816666667, "bike_id": "704b242b39dfe3e49e9581864ef69d99", "fusion_lat": 0.0, "name": "704b242b39dfe3e49e9581864ef69d99", "is_reserved": 0, "rental_uris": {"android": "https://dc.lft.to/lastmile_qr_scan", "ios": "https://dc.lft.to/lastmile_qr_scan"}, "fusion_lon": 0.0}, {"lat": 38.89851866666667, "is_disabled": 0, "type": "electric_bike", "lon": -76.93191266666666, "bike_id": "918db36a3203cce4136ab90fb5c03a2b", "fusion_lat": 0.0, "name": "918db36a3203cce4136ab90fb5c03a2b", "is_reserved": 0, "rental_uris": {"android": "https://dc.lft.to/lastmile_qr_scan", "ios": "https://dc.lft.to/lastmile_qr_scan"}, "fusion_lon": 0.0}, {"lat": 38.937077, "is_disabled": 0, "type": "electric_scooter", "lon": -77.06102166666666, "bike_id": "9b59481bef2c2b8ff219977e5753c25f", "fusion_lat": 0.0, "name": "9b59481bef2c2b8ff219977e5753c25f", "is_reserved": 0, "rental_uris": {"android": "https://dc.lft.to/lastmile_qr_scan", "ios": "https://dc.lft.to/lastmile_qr_scan"}, "fusion_lon": 0.0}, {"lat": 38.915192166666664, "is_disabled": 0, "type": "electric_scooter", "lon": -77.038414, "bike_id": "883068f14cd62ed6450bcebe810cf395", "fusion_lat": 0.0, "name": "883068f14cd62ed6450bcebe810cf395", "is_reserved": 0, "rental_uris": {"android": "https://dc.lft.to/lastmile_qr_scan", "ios": "https://dc.lft.to/lastmile_qr_scan"}, "fusion_lon": 0.0}, {"lat": 38.93383016666667, "is_disabled": 0, "type": "electric_scooter", "lon": -76.99514816666667, "bike_id": "8dd2bc1ce820775dcab59c406171ad20", "fusion_lat": 0.0, "name": "8dd2bc1ce820775dcab59c406171ad20", "is_reserved": 0, "rental_uris": {"android": "https://dc.lft.to/lastmile_qr_scan", "ios": "https://dc.lft.to/lastmile_qr_scan"}, "fusion_lon": 0.0}, {"lat": 38.90860083333333, "is_disabled": 0, "type": "electric_scooter", "lon": -77.03836333333334, "bike_id": "ddb4bf53d5308b079df62dcb5f9ae746", "fusion_lat": 0.0, "name": "ddb4bf53d5308b079df62dcb5f9ae746", "is_reserved": 0, "rental_uris": {"android": "https://dc.lft.to/lastmile_qr_scan", "ios": "https://dc.lft.to/lastmile_qr_scan"}, "fusion_lon": 0.0}, {"lat": 38.9662405, "is_disabled": 0, "type": "electric_bike", "lon": -76.976683, "bike_id": "00a5d0f899ebd3e75f295ae4aa91f2c4", "fusion_lat": 0.0, "name": "00a5d0f899ebd3e75f295ae4aa91f2c4", "is_reserved": 0, "rental_uris": {"android": "https://dc.lft.to/lastmile_qr_scan", "ios": "https://dc.lft.to/lastmile_qr_scan"}, "fusion_lon": 0.0}, {"lat": 38.9030685, "is_disabled": 0, "type": "electric_scooter", "lon": -77.053064, "bike_id": "30c86407503e62b28caabf5312cbd833", "fusion_lat": 0.0, "name": "30c86407503e62b28caabf5312cbd833", "is_reserved": 0, "rental_uris": {"android": "https://dc.lft.to/lastmile_qr_scan", "ios": "https://dc.lft.to/lastmile_qr_scan"}, "fusion_lon": 0.0}, {"lat": 38.903805, "is_disabled": 0, "type": "electric_scooter", "lon": -77.00882383333334, "bike_id": "aaf68b99452278e5c68c87792fd0b379", "fusion_lat": 0.0, "name": "aaf68b99452278e5c68c87792fd0b379", "is_reserved": 0, "rental_uris": {"android": "https://dc.lft.to/lastmile_qr_scan", "ios": "https://dc.lft.to/lastmile_qr_scan"}, "fusion_lon": 0.0}, {"lat": 38.871469833333336, "is_disabled": 0, "type": "electric_bike", "lon": -76.93677666666666, "bike_id": "e877e3b3deef2402e2d166dd1631735f", "fusion_lat": 0.0, "name": "e877e3b3deef2402e2d166dd1631735f", "is_reserved": 0, "rental_uris": {"android": "https://dc.lft.to/lastmile_qr_scan", "ios": "https://dc.lft.to/lastmile_qr_scan"}, "fusion_lon": 0.0}, {"lat": 38.90285033333333, "is_disabled": 0, "type": "electric_scooter", "lon": -77.03670233333334, "bike_id": "047ee12f5c2771d4db24d2025db4421e", "fusion_lat": 0.0, "name": "047ee12f5c2771d4db24d2025db4421e", "is_reserved": 0, "rental_uris": {"android": "https://dc.lft.to/lastmile_qr_scan", "ios": "https://dc.lft.to/lastmile_qr_scan"}, "fusion_lon": 0.0}, {"lat": 38.94135166666667, "is_disabled": 0, "type": "electric_scooter", "lon": -77.07611533333333, "bike_id": "7a6dccab09188b7fc1cccd330b0405b9", "fusion_lat": 0.0, "name": "7a6dccab09188b7fc1cccd330b0405b9", "is_reserved": 0, "rental_uris": {"android": "https://dc.lft.to/lastmile_qr_scan", "ios": "https://dc.lft.to/lastmile_qr_scan"}, "fusion_lon": 0.0}, {"lat": 38.9000535, "is_disabled": 0, "type": "electric_scooter", "lon": -77.03318316666666, "bike_id": "3a492f8c3903a1e178c86bdd1ca99bb7", "fusion_lat": 0.0, "name": "3a492f8c3903a1e178c86bdd1ca99bb7", "is_reserved": 0, "rental_uris": {"android": "https://dc.lft.to/lastmile_qr_scan", "ios": "https://dc.lft.to/lastmile_qr_scan"}, "fusion_lon": 0.0}, {"lat": 38.916373, "is_disabled": 0, "type": "electric_scooter", "lon": -77.0269735, "bike_id": "8d713bf569bf0d2d90e08bc31ef85c03", "fusion_lat": 0.0, "name": "8d713bf569bf0d2d90e08bc31ef85c03", "is_reserved": 0, "rental_uris": {"android": "https://dc.lft.to/lastmile_qr_scan", "ios": "https://dc.lft.to/lastmile_qr_scan"}, "fusion_lon": 0.0}, {"lat": 38.909454833333335, "is_disabled": 0, "type": "electric_scooter", "lon": -77.04664033333333, "bike_id": "aeb5ec9a8d964d8a31c317eacec6e5eb", "fusion_lat": 0.0, "name": "aeb5ec9a8d964d8a31c317eacec6e5eb", "is_reserved": 0, "rental_uris": {"android": "https://dc.lft.to/lastmile_qr_scan", "ios": "https://dc.lft.to/lastmile_qr_scan"}, "fusion_lon": 0.0}, {"lat": 38.93579733333333, "is_disabled": 0, "type": "electric_bike", "lon": -77.1068625, "bike_id": "a752cdde607ce22b183f98bf8fbfe5e9", "fusion_lat": 0.0, "name": "a752cdde607ce22b183f98bf8fbfe5e9", "is_reserved": 0, "rental_uris": {"android": "https://dc.lft.to/lastmile_qr_scan", "ios": "https://dc.lft.to/lastmile_qr_scan"}, "fusion_lon": 0.0}, {"lat": 38.90014883333333, "is_disabled": 0, "type": "electric_scooter", "lon": -77.03333883333333, "bike_id": "7708197bb8e75f8fd1568ea5a327938a", "fusion_lat": 0.0, "name": "7708197bb8e75f8fd1568ea5a327938a", "is_reserved": 0, "rental_uris": {"android": "https://dc.lft.to/lastmile_qr_scan", "ios": "https://dc.lft.to/lastmile_qr_scan"}, "fusion_lon": 0.0}, {"lat": 38.90278216666667, "is_disabled": 0, "type": "electric_scooter", "lon": -77.01164266666666, "bike_id": "6b79c90d5af7ea671dc87f59b93b44d6", "fusion_lat": 0.0, "name": "6b79c90d5af7ea671dc87f59b93b44d6", "is_reserved": 0, "rental_uris": {"android": "https://dc.lft.to/lastmile_qr_scan", "ios": "https://dc.lft.to/lastmile_qr_scan"}, "fusion_lon": 0.0}, {"lat": 38.944995166666665, "is_disabled": 0, "type": "electric_bike", "lon": -77.0068055, "bike_id": "e8ef772574695e599e858f098abb67bb", "fusion_lat": 0.0, "name": "e8ef772574695e599e858f098abb67bb", "is_reserved": 0, "rental_uris": {"android": "https://dc.lft.to/lastmile_qr_scan", "ios": "https://dc.lft.to/lastmile_qr_scan"}, "fusion_lon": 0.0}, {"lat": 38.86361016666667, "is_disabled": 0, "type": "electric_scooter", "lon": -76.99036583333333, "bike_id": "51c571b8682fb1c20e7be194c96d471e", "fusion_lat": 0.0, "name": "51c571b8682fb1c20e7be194c96d471e", "is_reserved": 0, "rental_uris": {"android": "https://dc.lft.to/lastmile_qr_scan", "ios": "https://dc.lft.to/lastmile_qr_scan"}, "fusion_lon": 0.0}, {"lat": 38.8953005, "is_disabled": 0, "type": "electric_scooter", "lon": -77.00058783333333, "bike_id": "212f45f536a2863f4678371e07baf6aa", "fusion_lat": 0.0, "name": "212f45f536a2863f4678371e07baf6aa", "is_reserved": 0, "rental_uris": {"android": "https://dc.lft.to/lastmile_qr_scan", "ios": "https://dc.lft.to/lastmile_qr_scan"}, "fusion_lon": 0.0}, {"lat": 38.948366666666665, "is_disabled": 0, "type": "electric_scooter", "lon": -77.02577316666667, "bike_id": "df4e09133a1fea81a4d4e5a85d165a2a", "fusion_lat": 0.0, "name": "df4e09133a1fea81a4d4e5a85d165a2a", "is_reserved": 0, "rental_uris": {"android": "https://dc.lft.to/lastmile_qr_scan", "ios": "https://dc.lft.to/lastmile_qr_scan"}, "fusion_lon": 0.0}, {"lat": 38.95056566666667, "is_disabled": 0, "type": "electric_scooter", "lon": -77.00720233333334, "bike_id": "0835a483913bf5286e44c305887d3b27", "fusion_lat": 0.0, "name": "0835a483913bf5286e44c305887d3b27", "is_reserved": 0, "rental_uris": {"android": "https://dc.lft.to/lastmile_qr_scan", "ios": "https://dc.lft.to/lastmile_qr_scan"}, "fusion_lon": 0.0}, {"lat": 38.910117166666666, "is_disabled": 0, "type": "electric_scooter", "lon": -77.0400755, "bike_id": "98b0566f772d449a3da5af1aa3c53f44", "fusion_lat": 0.0, "name": "98b0566f772d449a3da5af1aa3c53f44", "is_reserved": 0, "rental_uris": {"android": "https://dc.lft.to/lastmile_qr_scan", "ios": "https://dc.lft.to/lastmile_qr_scan"}, "fusion_lon": 0.0}, {"lat": 38.9278775, "is_disabled": 0, "type": "electric_scooter", "lon": -77.02680933333333, "bike_id": "6b94b96f729d346508f958e2b13641a7", "fusion_lat": 0.0, "name": "6b94b96f729d346508f958e2b13641a7", "is_reserved": 0, "rental_uris": {"android": "https://dc.lft.to/lastmile_qr_scan", "ios": "https://dc.lft.to/lastmile_qr_scan"}, "fusion_lon": 0.0}, {"lat": 38.900369, "is_disabled": 0, "type": "electric_scooter", "lon": -76.983723, "bike_id": "ad4b079133fd04b9c2fe771faff77798", "fusion_lat": 0.0, "name": "ad4b079133fd04b9c2fe771faff77798", "is_reserved": 0, "rental_uris": {"android": "https://dc.lft.to/lastmile_qr_scan", "ios": "https://dc.lft.to/lastmile_qr_scan"}, "fusion_lon": 0.0}, {"lat": 38.901816333333336, "is_disabled": 0, "type": "electric_scooter", "lon": -77.0237905, "bike_id": "48169529ff9c045642880ef582971b8e", "fusion_lat": 0.0, "name": "48169529ff9c045642880ef582971b8e", "is_reserved": 0, "rental_uris": {"android": "https://dc.lft.to/lastmile_qr_scan", "ios": "https://dc.lft.to/lastmile_qr_scan"}, "fusion_lon": 0.0}, {"lat": 38.94065583333333, "is_disabled": 0, "type": "electric_scooter", "lon": -76.99460883333333, "bike_id": "163df68bacb87361a93b69efc81ec9b0", "fusion_lat": 0.0, "name": "163df68bacb87361a93b69efc81ec9b0", "is_reserved": 0, "rental_uris": {"android": "https://dc.lft.to/lastmile_qr_scan", "ios": "https://dc.lft.to/lastmile_qr_scan"}, "fusion_lon": 0.0}, {"lat": 38.85025266666667, "is_disabled": 0, "type": "electric_bike", "lon": -77.09805366666667, "bike_id": "e7d0f51585832a9f8df2d7d5435f9bf8", "fusion_lat": 0.0, "name": "e7d0f51585832a9f8df2d7d5435f9bf8", "is_reserved": 0, "rental_uris": {"android": "https://dc.lft.to/lastmile_qr_scan", "ios": "https://dc.lft.to/lastmile_qr_scan"}, "fusion_lon": 0.0}, {"lat": 38.93144616666667, "is_disabled": 0, "type": "electric_scooter", "lon": -77.021406, "bike_id": "fd0bb5eba5d174a64aa35e5370582f0e", "fusion_lat": 0.0, "name": "fd0bb5eba5d174a64aa35e5370582f0e", "is_reserved": 0, "rental_uris": {"android": "https://dc.lft.to/lastmile_qr_scan", "ios": "https://dc.lft.to/lastmile_qr_scan"}, "fusion_lon": 0.0}, {"lat": 38.90268783333333, "is_disabled": 0, "type": "electric_scooter", "lon": -77.0200495, "bike_id": "fb36b824b146c9011e80d7fdbeb711f4", "fusion_lat": 0.0, "name": "fb36b824b146c9011e80d7fdbeb711f4", "is_reserved": 0, "rental_uris": {"android": "https://dc.lft.to/lastmile_qr_scan", "ios": "https://dc.lft.to/lastmile_qr_scan"}, "fusion_lon": 0.0}, {"lat": 38.897667166666665, "is_disabled": 0, "type": "electric_scooter", "lon": -77.05013, "bike_id": "7779bee5b4f05a39749473af39b2cce3", "fusion_lat": 0.0, "name": "7779bee5b4f05a39749473af39b2cce3", "is_reserved": 0, "rental_uris": {"android": "https://dc.lft.to/lastmile_qr_scan", "ios": "https://dc.lft.to/lastmile_qr_scan"}, "fusion_lon": 0.0}, {"lat": 38.8847765, "is_disabled": 0, "type": "electric_scooter", "lon": -76.94532216666667, "bike_id": "06dd0589b557155e0833b65d78a384b9", "fusion_lat": 0.0, "name": "06dd0589b557155e0833b65d78a384b9", "is_reserved": 0, "rental_uris": {"android": "https://dc.lft.to/lastmile_qr_scan", "ios": "https://dc.lft.to/lastmile_qr_scan"}, "fusion_lon": 0.0}, {"lat": 38.93078116666667, "is_disabled": 0, "type": "electric_scooter", "lon": -77.07761833333333, "bike_id": "b42f7c060fc64510286612d6fe817477", "fusion_lat": 0.0, "name": "b42f7c060fc64510286612d6fe817477", "is_reserved": 0, "rental_uris": {"android": "https://dc.lft.to/lastmile_qr_scan", "ios": "https://dc.lft.to/lastmile_qr_scan"}, "fusion_lon": 0.0}, {"lat": 38.917846833333336, "is_disabled": 0, "type": "electric_scooter", "lon": -77.02232366666667, "bike_id": "f77887c3b13513486489bc537047f37a", "fusion_lat": 0.0, "name": "f77887c3b13513486489bc537047f37a", "is_reserved": 0, "rental_uris": {"android": "https://dc.lft.to/lastmile_qr_scan", "ios": "https://dc.lft.to/lastmile_qr_scan"}, "fusion_lon": 0.0}, {"lat": 38.90338366666667, "is_disabled": 0, "type": "electric_scooter", "lon": -77.01633883333334, "bike_id": "387e9de2cbb72e4d3ab908faa9610959", "fusion_lat": 0.0, "name": "387e9de2cbb72e4d3ab908faa9610959", "is_reserved": 0, "rental_uris": {"android": "https://dc.lft.to/lastmile_qr_scan", "ios": "https://dc.lft.to/lastmile_qr_scan"}, "fusion_lon": 0.0}, {"lat": 38.9161955, "is_disabled": 0, "type": "electric_scooter", "lon": -77.03277716666666, "bike_id": "68b9f1946bcc293c635ba8e0ac7fddfb", "fusion_lat": 0.0, "name": "68b9f1946bcc293c635ba8e0ac7fddfb", "is_reserved": 0, "rental_uris": {"android": "https://dc.lft.to/lastmile_qr_scan", "ios": "https://dc.lft.to/lastmile_qr_scan"}, "fusion_lon": 0.0}, {"lat": 38.836933333333334, "is_disabled": 0, "type": "electric_scooter", "lon": -77.10306216666666, "bike_id": "fcc24c04d1718266bbae82895558291b", "fusion_lat": 0.0, "name": "fcc24c04d1718266bbae82895558291b", "is_reserved": 0, "rental_uris": {"android": "https://dc.lft.to/lastmile_qr_scan", "ios": "https://dc.lft.to/lastmile_qr_scan"}, "fusion_lon": 0.0}, {"lat": 38.88113283333333, "is_disabled": 0, "type": "electric_scooter", "lon": -76.98339083333333, "bike_id": "5cc561dc66df82445bb6e2ac40ef5998", "fusion_lat": 0.0, "name": "5cc561dc66df82445bb6e2ac40ef5998", "is_reserved": 0, "rental_uris": {"android": "https://dc.lft.to/lastmile_qr_scan", "ios": "https://dc.lft.to/lastmile_qr_scan"}, "fusion_lon": 0.0}, {"lat": 38.93666016666667, "is_disabled": 0, "type": "electric_scooter", "lon": -77.05936716666666, "bike_id": "906295fce7adb7d2bfb126ae1b7c3d8b", "fusion_lat": 0.0, "name": "906295fce7adb7d2bfb126ae1b7c3d8b", "is_reserved": 0, "rental_uris": {"android": "https://dc.lft.to/lastmile_qr_scan", "ios": "https://dc.lft.to/lastmile_qr_scan"}, "fusion_lon": 0.0}, {"lat": 38.86710716666666, "is_disabled": 0, "type": "electric_scooter", "lon": -76.987295, "bike_id": "f413865fbfe5c7f704436cec02ff4649", "fusion_lat": 0.0, "name": "f413865fbfe5c7f704436cec02ff4649", "is_reserved": 0, "rental_uris": {"android": "https://dc.lft.to/lastmile_qr_scan", "ios": "https://dc.lft.to/lastmile_qr_scan"}, "fusion_lon": 0.0}, {"lat": 38.871489833333335, "is_disabled": 0, "type": "electric_bike", "lon": -76.93705233333333, "bike_id": "ba50973fa89587020888bc19ca341323", "fusion_lat": 0.0, "name": "ba50973fa89587020888bc19ca341323", "is_reserved": 0, "rental_uris": {"android": "https://dc.lft.to/lastmile_qr_scan", "ios": "https://dc.lft.to/lastmile_qr_scan"}, "fusion_lon": 0.0}, {"lat": 38.92710016666667, "is_disabled": 0, "type": "electric_scooter", "lon": -77.02083066666667, "bike_id": "0b13bddcdcb349c9b56e187185bccd4b", "fusion_lat": 0.0, "name": "0b13bddcdcb349c9b56e187185bccd4b", "is_reserved": 0, "rental_uris": {"android": "https://dc.lft.to/lastmile_qr_scan", "ios": "https://dc.lft.to/lastmile_qr_scan"}, "fusion_lon": 0.0}, {"lat": 38.84566816666667, "is_disabled": 0, "type": "electric_bike", "lon": -77.09624383333333, "bike_id": "576a2d2c59b5f4a129755b847bc01577", "fusion_lat": 0.0, "name": "576a2d2c59b5f4a129755b847bc01577", "is_reserved": 0, "rental_uris": {"android": "https://dc.lft.to/lastmile_qr_scan", "ios": "https://dc.lft.to/lastmile_qr_scan"}, "fusion_lon": 0.0}, {"lat": 38.90051183333333, "is_disabled": 0, "type": "electric_scooter", "lon": -77.0509345, "bike_id": "cc35ed146a21b3f8cdee2037d15b8a34", "fusion_lat": 0.0, "name": "cc35ed146a21b3f8cdee2037d15b8a34", "is_reserved": 0, "rental_uris": {"android": "https://dc.lft.to/lastmile_qr_scan", "ios": "https://dc.lft.to/lastmile_qr_scan"}, "fusion_lon": 0.0}, {"lat": 38.91022433333333, "is_disabled": 0, "type": "electric_scooter", "lon": -77.04872933333333, "bike_id": "0e2a8a7a96afeb4f813d5458bd2ebd9e", "fusion_lat": 0.0, "name": "0e2a8a7a96afeb4f813d5458bd2ebd9e", "is_reserved": 0, "rental_uris": {"android": "https://dc.lft.to/lastmile_qr_scan", "ios": "https://dc.lft.to/lastmile_qr_scan"}, "fusion_lon": 0.0}, {"lat": 38.8714195, "is_disabled": 0, "type": "electric_bike", "lon": -76.937045, "bike_id": "06cce69385dd5c94ec6e16a440c53c5d", "fusion_lat": 0.0, "name": "06cce69385dd5c94ec6e16a440c53c5d", "is_reserved": 0, "rental_uris": {"android": "https://dc.lft.to/lastmile_qr_scan", "ios": "https://dc.lft.to/lastmile_qr_scan"}, "fusion_lon": 0.0}, {"lat": 38.96138416666667, "is_disabled": 0, "type": "electric_scooter", "lon": -77.02236866666667, "bike_id": "39a704bad23bcd3b4b8fa729c829e366", "fusion_lat": 0.0, "name": "39a704bad23bcd3b4b8fa729c829e366", "is_reserved": 0, "rental_uris": {"android": "https://dc.lft.to/lastmile_qr_scan", "ios": "https://dc.lft.to/lastmile_qr_scan"}, "fusion_lon": 0.0}, {"lat": 38.929762333333336, "is_disabled": 0, "type": "electric_scooter", "lon": -77.013021, "bike_id": "5440d5db503616b0ca857465b5489903", "fusion_lat": 0.0, "name": "5440d5db503616b0ca857465b5489903", "is_reserved": 0, "rental_uris": {"android": "https://dc.lft.to/lastmile_qr_scan", "ios": "https://dc.lft.to/lastmile_qr_scan"}, "fusion_lon": 0.0}, {"lat": 38.90736416666667, "is_disabled": 0, "type": "electric_scooter", "lon": -77.03445566666667, "bike_id": "4f74ead8771694e2a5cc734de58a702a", "fusion_lat": 0.0, "name": "4f74ead8771694e2a5cc734de58a702a", "is_reserved": 0, "rental_uris": {"android": "https://dc.lft.to/lastmile_qr_scan", "ios": "https://dc.lft.to/lastmile_qr_scan"}, "fusion_lon": 0.0}, {"lat": 38.923845166666666, "is_disabled": 0, "type": "electric_scooter", "lon": -77.03174383333334, "bike_id": "0ebf1a6468d06ccfd1baf16fa3fb8e9a", "fusion_lat": 0.0, "name": "0ebf1a6468d06ccfd1baf16fa3fb8e9a", "is_reserved": 0, "rental_uris": {"android": "https://dc.lft.to/lastmile_qr_scan", "ios": "https://dc.lft.to/lastmile_qr_scan"}, "fusion_lon": 0.0}, {"lat": 38.85715016666666, "is_disabled": 0, "type": "electric_bike", "lon": -76.97127983333333, "bike_id": "893fca933e3c913ee82b7eb8d1decd7e", "fusion_lat": 0.0, "name": "893fca933e3c913ee82b7eb8d1decd7e", "is_reserved": 0, "rental_uris": {"android": "https://dc.lft.to/lastmile_qr_scan", "ios": "https://dc.lft.to/lastmile_qr_scan"}, "fusion_lon": 0.0}, {"lat": 38.906645, "is_disabled": 0, "type": "electric_scooter", "lon": -77.03865416666666, "bike_id": "d911214e08950e033561ebb46048a557", "fusion_lat": 0.0, "name": "d911214e08950e033561ebb46048a557", "is_reserved": 0, "rental_uris": {"android": "https://dc.lft.to/lastmile_qr_scan", "ios": "https://dc.lft.to/lastmile_qr_scan"}, "fusion_lon": 0.0}, {"lat": 38.909803333333336, "is_disabled": 0, "type": "electric_scooter", "lon": -77.03442533333333, "bike_id": "72ce1784ada29e231379163261de7494", "fusion_lat": 0.0, "name": "72ce1784ada29e231379163261de7494", "is_reserved": 0, "rental_uris": {"android": "https://dc.lft.to/lastmile_qr_scan", "ios": "https://dc.lft.to/lastmile_qr_scan"}, "fusion_lon": 0.0}, {"lat": 38.897420833333335, "is_disabled": 0, "type": "electric_scooter", "lon": -77.04762233333334, "bike_id": "6ebe2bb30df659c22a13c636f1edc24b", "fusion_lat": 0.0, "name": "6ebe2bb30df659c22a13c636f1edc24b", "is_reserved": 0, "rental_uris": {"android": "https://dc.lft.to/lastmile_qr_scan", "ios": "https://dc.lft.to/lastmile_qr_scan"}, "fusion_lon": 0.0}, {"lat": 38.902579, "is_disabled": 0, "type": "electric_scooter", "lon": -77.02817, "bike_id": "67ae042914b4e6b74be7d7c6a47f6d70", "fusion_lat": 0.0, "name": "67ae042914b4e6b74be7d7c6a47f6d70", "is_reserved": 0, "rental_uris": {"android": "https://dc.lft.to/lastmile_qr_scan", "ios": "https://dc.lft.to/lastmile_qr_scan"}, "fusion_lon": 0.0}, {"lat": 38.8935275, "is_disabled": 0, "type": "electric_scooter", "lon": -77.03990916666666, "bike_id": "975a73f096bb46e316b5087417ee17de", "fusion_lat": 0.0, "name": "975a73f096bb46e316b5087417ee17de", "is_reserved": 0, "rental_uris": {"android": "https://dc.lft.to/lastmile_qr_scan", "ios": "https://dc.lft.to/lastmile_qr_scan"}, "fusion_lon": 0.0}, {"lat": 38.91678816666666, "is_disabled": 0, "type": "electric_scooter", "lon": -77.0241145, "bike_id": "b90968cb939c9e4cfe6f36571b98f2dc", "fusion_lat": 0.0, "name": "b90968cb939c9e4cfe6f36571b98f2dc", "is_reserved": 0, "rental_uris": {"android": "https://dc.lft.to/lastmile_qr_scan", "ios": "https://dc.lft.to/lastmile_qr_scan"}, "fusion_lon": 0.0}, {"lat": 38.962272166666665, "is_disabled": 0, "type": "electric_bike", "lon": -77.0263425, "bike_id": "d0b48c94f7a1dfb569bbd515e7488042", "fusion_lat": 0.0, "name": "d0b48c94f7a1dfb569bbd515e7488042", "is_reserved": 0, "rental_uris": {"android": "https://dc.lft.to/lastmile_qr_scan", "ios": "https://dc.lft.to/lastmile_qr_scan"}, "fusion_lon": 0.0}, {"lat": 38.913383, "is_disabled": 0, "type": "electric_scooter", "lon": -77.012659, "bike_id": "2eb37a76ef3311e6ae53ec809900648a", "fusion_lat": 0.0, "name": "2eb37a76ef3311e6ae53ec809900648a", "is_reserved": 0, "rental_uris": {"android": "https://dc.lft.to/lastmile_qr_scan", "ios": "https://dc.lft.to/lastmile_qr_scan"}, "fusion_lon": 0.0}, {"lat": 38.8922285, "is_disabled": 0, "type": "electric_bike", "lon": -77.10780233333334, "bike_id": "4d415150fcc9654bd063be24133d1a47", "fusion_lat": 0.0, "name": "4d415150fcc9654bd063be24133d1a47", "is_reserved": 0, "rental_uris": {"android": "https://dc.lft.to/lastmile_qr_scan", "ios": "https://dc.lft.to/lastmile_qr_scan"}, "fusion_lon": 0.0}, {"lat": 38.93199966666667, "is_disabled": 0, "type": "electric_scooter", "lon": -77.02347966666666, "bike_id": "c71b498adf67ed7cb1d85f46f58ac8e8", "fusion_lat": 0.0, "name": "c71b498adf67ed7cb1d85f46f58ac8e8", "is_reserved": 0, "rental_uris": {"android": "https://dc.lft.to/lastmile_qr_scan", "ios": "https://dc.lft.to/lastmile_qr_scan"}, "fusion_lon": 0.0}, {"lat": 38.886914166666664, "is_disabled": 0, "type": "electric_scooter", "lon": -77.01767016666666, "bike_id": "e205eefe570759776c46657262225e65", "fusion_lat": 0.0, "name": "e205eefe570759776c46657262225e65", "is_reserved": 0, "rental_uris": {"android": "https://dc.lft.to/lastmile_qr_scan", "ios": "https://dc.lft.to/lastmile_qr_scan"}, "fusion_lon": 0.0}, {"lat": 38.89496233333333, "is_disabled": 0, "type": "electric_scooter", "lon": -77.00213683333334, "bike_id": "b3ed404c3fd3daeb2aa1bc3586a9f95c", "fusion_lat": 0.0, "name": "b3ed404c3fd3daeb2aa1bc3586a9f95c", "is_reserved": 0, "rental_uris": {"android": "https://dc.lft.to/lastmile_qr_scan", "ios": "https://dc.lft.to/lastmile_qr_scan"}, "fusion_lon": 0.0}, {"lat": 38.89837283333333, "is_disabled": 0, "type": "electric_scooter", "lon": -76.99501466666666, "bike_id": "fbc8dc1d1267a2fe8843b0d02109d066", "fusion_lat": 0.0, "name": "fbc8dc1d1267a2fe8843b0d02109d066", "is_reserved": 0, "rental_uris": {"android": "https://dc.lft.to/lastmile_qr_scan", "ios": "https://dc.lft.to/lastmile_qr_scan"}, "fusion_lon": 0.0}, {"lat": 38.922442, "is_disabled": 0, "type": "electric_scooter", "lon": -77.04342866666667, "bike_id": "1c2b4228776ea4c2a8161adf5de715a0", "fusion_lat": 0.0, "name": "1c2b4228776ea4c2a8161adf5de715a0", "is_reserved": 0, "rental_uris": {"android": "https://dc.lft.to/lastmile_qr_scan", "ios": "https://dc.lft.to/lastmile_qr_scan"}, "fusion_lon": 0.0}, {"lat": 38.90851166666667, "is_disabled": 0, "type": "electric_scooter", "lon": -77.00368916666666, "bike_id": "f22691dee918a87464688403b0a2303d", "fusion_lat": 0.0, "name": "f22691dee918a87464688403b0a2303d", "is_reserved": 0, "rental_uris": {"android": "https://dc.lft.to/lastmile_qr_scan", "ios": "https://dc.lft.to/lastmile_qr_scan"}, "fusion_lon": 0.0}, {"lat": 38.9040085, "is_disabled": 0, "type": "electric_scooter", "lon": -76.98465766666666, "bike_id": "abed35f95df39033143a7a7e043fcf3e", "fusion_lat": 0.0, "name": "abed35f95df39033143a7a7e043fcf3e", "is_reserved": 0, "rental_uris": {"android": "https://dc.lft.to/lastmile_qr_scan", "ios": "https://dc.lft.to/lastmile_qr_scan"}, "fusion_lon": 0.0}, {"lat": 38.926788, "is_disabled": 0, "type": "electric_scooter", "lon": -77.00738716666666, "bike_id": "c8340c05cb22bf250b0e037d3b1c3794", "fusion_lat": 0.0, "name": "c8340c05cb22bf250b0e037d3b1c3794", "is_reserved": 0, "rental_uris": {"android": "https://dc.lft.to/lastmile_qr_scan", "ios": "https://dc.lft.to/lastmile_qr_scan"}, "fusion_lon": 0.0}, {"lat": 38.955528, "is_disabled": 0, "type": "electric_bike", "lon": -76.93546883333333, "bike_id": "59b51e5b9743d23ed8ff5a1d8ff59b55", "fusion_lat": 0.0, "name": "59b51e5b9743d23ed8ff5a1d8ff59b55", "is_reserved": 0, "rental_uris": {"android": "https://dc.lft.to/lastmile_qr_scan", "ios": "https://dc.lft.to/lastmile_qr_scan"}, "fusion_lon": 0.0}, {"lat": 38.86350566666667, "is_disabled": 0, "type": "electric_scooter", "lon": -76.99001516666667, "bike_id": "7f80dcec5463a029c6d0e4ec0e39d3f9", "fusion_lat": 0.0, "name": "7f80dcec5463a029c6d0e4ec0e39d3f9", "is_reserved": 0, "rental_uris": {"android": "https://dc.lft.to/lastmile_qr_scan", "ios": "https://dc.lft.to/lastmile_qr_scan"}, "fusion_lon": 0.0}, {"lat": 38.848678166666666, "is_disabled": 0, "type": "electric_scooter", "lon": -76.97692233333333, "bike_id": "db38a569cda7889d0ce6091aa31eaea5", "fusion_lat": 0.0, "name": "db38a569cda7889d0ce6091aa31eaea5", "is_reserved": 0, "rental_uris": {"android": "https://dc.lft.to/lastmile_qr_scan", "ios": "https://dc.lft.to/lastmile_qr_scan"}, "fusion_lon": 0.0}, {"lat": 38.912556333333335, "is_disabled": 0, "type": "electric_scooter", "lon": -77.047635, "bike_id": "0e51dfe3a4c7536c414d943cdcdf9080", "fusion_lat": 0.0, "name": "0e51dfe3a4c7536c414d943cdcdf9080", "is_reserved": 0, "rental_uris": {"android": "https://dc.lft.to/lastmile_qr_scan", "ios": "https://dc.lft.to/lastmile_qr_scan"}, "fusion_lon": 0.0}, {"lat": 38.91556116666667, "is_disabled": 0, "type": "electric_scooter", "lon": -77.02427633333333, "bike_id": "4ededca73a25c081b2386fcec504ae37", "fusion_lat": 0.0, "name": "4ededca73a25c081b2386fcec504ae37", "is_reserved": 0, "rental_uris": {"android": "https://dc.lft.to/lastmile_qr_scan", "ios": "https://dc.lft.to/lastmile_qr_scan"}, "fusion_lon": 0.0}, {"lat": 38.882814833333335, "is_disabled": 0, "type": "electric_bike", "lon": -76.987762, "bike_id": "5035cd9cf9acb45a3933d6aaa6f7041b", "fusion_lat": 0.0, "name": "5035cd9cf9acb45a3933d6aaa6f7041b", "is_reserved": 0, "rental_uris": {"android": "https://dc.lft.to/lastmile_qr_scan", "ios": "https://dc.lft.to/lastmile_qr_scan"}, "fusion_lon": 0.0}, {"lat": 38.89880133333333, "is_disabled": 0, "type": "electric_scooter", "lon": -77.05339433333333, "bike_id": "ecd7ea3ff92da5b305f77dc3491ff576", "fusion_lat": 0.0, "name": "ecd7ea3ff92da5b305f77dc3491ff576", "is_reserved": 0, "rental_uris": {"android": "https://dc.lft.to/lastmile_qr_scan", "ios": "https://dc.lft.to/lastmile_qr_scan"}, "fusion_lon": 0.0}, {"lat": 38.89916766666666, "is_disabled": 0, "type": "electric_scooter", "lon": -76.9338095, "bike_id": "c63d9c7c268227e7e0c2902855e294e3", "fusion_lat": 0.0, "name": "c63d9c7c268227e7e0c2902855e294e3", "is_reserved": 0, "rental_uris": {"android": "https://dc.lft.to/lastmile_qr_scan", "ios": "https://dc.lft.to/lastmile_qr_scan"}, "fusion_lon": 0.0}, {"lat": 38.988213, "is_disabled": 0, "type": "electric_bike", "lon": -76.9965205, "bike_id": "73fb9ccf36368ea15f827186477efaba", "fusion_lat": 0.0, "name": "73fb9ccf36368ea15f827186477efaba", "is_reserved": 0, "rental_uris": {"android": "https://dc.lft.to/lastmile_qr_scan", "ios": "https://dc.lft.to/lastmile_qr_scan"}, "fusion_lon": 0.0}, {"lat": 38.917631666666665, "is_disabled": 0, "type": "electric_scooter", "lon": -76.97635083333333, "bike_id": "e9677c3158998d83410f1b29c412ed03", "fusion_lat": 0.0, "name": "e9677c3158998d83410f1b29c412ed03", "is_reserved": 0, "rental_uris": {"android": "https://dc.lft.to/lastmile_qr_scan", "ios": "https://dc.lft.to/lastmile_qr_scan"}, "fusion_lon": 0.0}, {"lat": 38.90751383333333, "is_disabled": 0, "type": "electric_scooter", "lon": -77.00100666666667, "bike_id": "1648efc1018bb96e00f0c96865060c98", "fusion_lat": 0.0, "name": "1648efc1018bb96e00f0c96865060c98", "is_reserved": 0, "rental_uris": {"android": "https://dc.lft.to/lastmile_qr_scan", "ios": "https://dc.lft.to/lastmile_qr_scan"}, "fusion_lon": 0.0}, {"lat": 38.941220333333334, "is_disabled": 0, "type": "electric_scooter", "lon": -77.00071483333333, "bike_id": "6342a2a99331d8cc05ae1a7b58c0d9f1", "fusion_lat": 0.0, "name": "6342a2a99331d8cc05ae1a7b58c0d9f1", "is_reserved": 0, "rental_uris": {"android": "https://dc.lft.to/lastmile_qr_scan", "ios": "https://dc.lft.to/lastmile_qr_scan"}, "fusion_lon": 0.0}, {"lat": 38.9588895, "is_disabled": 0, "type": "electric_bike", "lon": -76.92502433333334, "bike_id": "b3c4abcb4520a57e9c1316988c29c658", "fusion_lat": 0.0, "name": "b3c4abcb4520a57e9c1316988c29c658", "is_reserved": 0, "rental_uris": {"android": "https://dc.lft.to/lastmile_qr_scan", "ios": "https://dc.lft.to/lastmile_qr_scan"}, "fusion_lon": 0.0}, {"lat": 38.906185666666666, "is_disabled": 0, "type": "electric_scooter", "lon": -77.06273183333333, "bike_id": "4825d728a2f10e2ef6f160cb71f30324", "fusion_lat": 0.0, "name": "4825d728a2f10e2ef6f160cb71f30324", "is_reserved": 0, "rental_uris": {"android": "https://dc.lft.to/lastmile_qr_scan", "ios": "https://dc.lft.to/lastmile_qr_scan"}, "fusion_lon": 0.0}, {"lat": 38.91889916666667, "is_disabled": 0, "type": "electric_scooter", "lon": -77.04450366666667, "bike_id": "6439bb780eef3080f7e64c7e2fc85cc6", "fusion_lat": 0.0, "name": "6439bb780eef3080f7e64c7e2fc85cc6", "is_reserved": 0, "rental_uris": {"android": "https://dc.lft.to/lastmile_qr_scan", "ios": "https://dc.lft.to/lastmile_qr_scan"}, "fusion_lon": 0.0}, {"lat": 38.932526333333335, "is_disabled": 0, "type": "electric_scooter", "lon": -77.03288133333334, "bike_id": "9d506f759073e8ce7d48f63ad76a648f", "fusion_lat": 0.0, "name": "9d506f759073e8ce7d48f63ad76a648f", "is_reserved": 0, "rental_uris": {"android": "https://dc.lft.to/lastmile_qr_scan", "ios": "https://dc.lft.to/lastmile_qr_scan"}, "fusion_lon": 0.0}, {"lat": 38.917797, "is_disabled": 0, "type": "electric_scooter", "lon": -77.02352866666666, "bike_id": "e6426f0e75ad1bc10a7db46df65f06e5", "fusion_lat": 0.0, "name": "e6426f0e75ad1bc10a7db46df65f06e5", "is_reserved": 0, "rental_uris": {"android": "https://dc.lft.to/lastmile_qr_scan", "ios": "https://dc.lft.to/lastmile_qr_scan"}, "fusion_lon": 0.0}, {"lat": 38.91682933333333, "is_disabled": 0, "type": "electric_scooter", "lon": -77.00203416666666, "bike_id": "f1501b3025cc5aa74b4896eb12295ed5", "fusion_lat": 0.0, "name": "f1501b3025cc5aa74b4896eb12295ed5", "is_reserved": 0, "rental_uris": {"android": "https://dc.lft.to/lastmile_qr_scan", "ios": "https://dc.lft.to/lastmile_qr_scan"}, "fusion_lon": 0.0}, {"lat": 38.88363716666667, "is_disabled": 0, "type": "electric_scooter", "lon": -76.941564, "bike_id": "a2298811caf09417523da2bb49ff2226", "fusion_lat": 0.0, "name": "a2298811caf09417523da2bb49ff2226", "is_reserved": 0, "rental_uris": {"android": "https://dc.lft.to/lastmile_qr_scan", "ios": "https://dc.lft.to/lastmile_qr_scan"}, "fusion_lon": 0.0}, {"lat": 38.89868883333333, "is_disabled": 0, "type": "electric_scooter", "lon": -77.02030583333334, "bike_id": "2a957e38395f3fbb6aef599022b777e7", "fusion_lat": 0.0, "name": "2a957e38395f3fbb6aef599022b777e7", "is_reserved": 0, "rental_uris": {"android": "https://dc.lft.to/lastmile_qr_scan", "ios": "https://dc.lft.to/lastmile_qr_scan"}, "fusion_lon": 0.0}, {"lat": 38.91669816666667, "is_disabled": 0, "type": "electric_scooter", "lon": -77.0239905, "bike_id": "0c3749a128cdf3fc159dd0a9ac5f032f", "fusion_lat": 0.0, "name": "0c3749a128cdf3fc159dd0a9ac5f032f", "is_reserved": 0, "rental_uris": {"android": "https://dc.lft.to/lastmile_qr_scan", "ios": "https://dc.lft.to/lastmile_qr_scan"}, "fusion_lon": 0.0}, {"lat": 38.920655833333335, "is_disabled": 0, "type": "electric_scooter", "lon": -77.0480895, "bike_id": "e50a56e962694035244d18e2fad91c9b", "fusion_lat": 0.0, "name": "e50a56e962694035244d18e2fad91c9b", "is_reserved": 0, "rental_uris": {"android": "https://dc.lft.to/lastmile_qr_scan", "ios": "https://dc.lft.to/lastmile_qr_scan"}, "fusion_lon": 0.0}, {"lat": 38.86677983333333, "is_disabled": 0, "type": "electric_scooter", "lon": -76.98542516666667, "bike_id": "8354538fd5d972ea9503ab18f0b6e45e", "fusion_lat": 0.0, "name": "8354538fd5d972ea9503ab18f0b6e45e", "is_reserved": 0, "rental_uris": {"android": "https://dc.lft.to/lastmile_qr_scan", "ios": "https://dc.lft.to/lastmile_qr_scan"}, "fusion_lon": 0.0}, {"lat": 38.9175865, "is_disabled": 0, "type": "electric_scooter", "lon": -77.02811316666667, "bike_id": "1de600e20e432c49a6c9c3c3835e9169", "fusion_lat": 0.0, "name": "1de600e20e432c49a6c9c3c3835e9169", "is_reserved": 0, "rental_uris": {"android": "https://dc.lft.to/lastmile_qr_scan", "ios": "https://dc.lft.to/lastmile_qr_scan"}, "fusion_lon": 0.0}, {"lat": 38.877319, "is_disabled": 0, "type": "electric_bike", "lon": -76.9810745, "bike_id": "c8f4e887aec3f1d3473d2f4064980570", "fusion_lat": 0.0, "name": "c8f4e887aec3f1d3473d2f4064980570", "is_reserved": 0, "rental_uris": {"android": "https://dc.lft.to/lastmile_qr_scan", "ios": "https://dc.lft.to/lastmile_qr_scan"}, "fusion_lon": 0.0}, {"lat": 38.900122833333334, "is_disabled": 0, "type": "electric_scooter", "lon": -77.0119995, "bike_id": "47b4a4693b156eb0f3d9a52498f37157", "fusion_lat": 0.0, "name": "47b4a4693b156eb0f3d9a52498f37157", "is_reserved": 0, "rental_uris": {"android": "https://dc.lft.to/lastmile_qr_scan", "ios": "https://dc.lft.to/lastmile_qr_scan"}, "fusion_lon": 0.0}, {"lat": 38.8974235, "is_disabled": 0, "type": "electric_scooter", "lon": -77.000754, "bike_id": "f653e1771c2b0312723dfbe177aa6740", "fusion_lat": 0.0, "name": "f653e1771c2b0312723dfbe177aa6740", "is_reserved": 0, "rental_uris": {"android": "https://dc.lft.to/lastmile_qr_scan", "ios": "https://dc.lft.to/lastmile_qr_scan"}, "fusion_lon": 0.0}, {"lat": 38.832346666666666, "is_disabled": 0, "type": "electric_bike", "lon": -77.0497245, "bike_id": "a9557bdd99b668ea73e7c3dc52394ffe", "fusion_lat": 0.0, "name": "a9557bdd99b668ea73e7c3dc52394ffe", "is_reserved": 0, "rental_uris": {"android": "https://dc.lft.to/lastmile_qr_scan", "ios": "https://dc.lft.to/lastmile_qr_scan"}, "fusion_lon": 0.0}, {"lat": 38.93318433333334, "is_disabled": 0, "type": "electric_scooter", "lon": -77.04520966666666, "bike_id": "a2a2056de3c12e3d9b5b997acb648e6a", "fusion_lat": 0.0, "name": "a2a2056de3c12e3d9b5b997acb648e6a", "is_reserved": 0, "rental_uris": {"android": "https://dc.lft.to/lastmile_qr_scan", "ios": "https://dc.lft.to/lastmile_qr_scan"}, "fusion_lon": 0.0}, {"lat": 38.90971566666666, "is_disabled": 0, "type": "electric_scooter", "lon": -77.03944316666667, "bike_id": "703856193bbaa4e5623ea825d7fbdf80", "fusion_lat": 0.0, "name": "703856193bbaa4e5623ea825d7fbdf80", "is_reserved": 0, "rental_uris": {"android": "https://dc.lft.to/lastmile_qr_scan", "ios": "https://dc.lft.to/lastmile_qr_scan"}, "fusion_lon": 0.0}, {"lat": 38.8728755, "is_disabled": 0, "type": "electric_scooter", "lon": -77.00969716666667, "bike_id": "79c68111acb9f43b9fc9b4c508246e08", "fusion_lat": 0.0, "name": "79c68111acb9f43b9fc9b4c508246e08", "is_reserved": 0, "rental_uris": {"android": "https://dc.lft.to/lastmile_qr_scan", "ios": "https://dc.lft.to/lastmile_qr_scan"}, "fusion_lon": 0.0}, {"lat": 38.878495, "is_disabled": 0, "type": "electric_scooter", "lon": -77.00738483333333, "bike_id": "9a8f6841ff3c0ee188e74529b9332777", "fusion_lat": 0.0, "name": "9a8f6841ff3c0ee188e74529b9332777", "is_reserved": 0, "rental_uris": {"android": "https://dc.lft.to/lastmile_qr_scan", "ios": "https://dc.lft.to/lastmile_qr_scan"}, "fusion_lon": 0.0}, {"lat": 38.89014683333333, "is_disabled": 0, "type": "electric_scooter", "lon": -77.000449, "bike_id": "3a052c901b653592f645f3f395a86c8d", "fusion_lat": 0.0, "name": "3a052c901b653592f645f3f395a86c8d", "is_reserved": 0, "rental_uris": {"android": "https://dc.lft.to/lastmile_qr_scan", "ios": "https://dc.lft.to/lastmile_qr_scan"}, "fusion_lon": 0.0}, {"lat": 38.90285033333333, "is_disabled": 0, "type": "electric_scooter", "lon": -77.03636483333334, "bike_id": "6b2248fc06d5dc8e21a4a173884f5ae1", "fusion_lat": 0.0, "name": "6b2248fc06d5dc8e21a4a173884f5ae1", "is_reserved": 0, "rental_uris": {"android": "https://dc.lft.to/lastmile_qr_scan", "ios": "https://dc.lft.to/lastmile_qr_scan"}, "fusion_lon": 0.0}, {"lat": 38.93694333333333, "is_disabled": 0, "type": "electric_scooter", "lon": -77.03262816666667, "bike_id": "3a07ae653670756c164c5c8a01619165", "fusion_lat": 0.0, "name": "3a07ae653670756c164c5c8a01619165", "is_reserved": 0, "rental_uris": {"android": "https://dc.lft.to/lastmile_qr_scan", "ios": "https://dc.lft.to/lastmile_qr_scan"}, "fusion_lon": 0.0}, {"lat": 38.897594, "is_disabled": 0, "type": "electric_scooter", "lon": -76.9418415, "bike_id": "94c62250fcbec9554200d698641998bb", "fusion_lat": 0.0, "name": "94c62250fcbec9554200d698641998bb", "is_reserved": 0, "rental_uris": {"android": "https://dc.lft.to/lastmile_qr_scan", "ios": "https://dc.lft.to/lastmile_qr_scan"}, "fusion_lon": 0.0}, {"lat": 38.905399833333334, "is_disabled": 0, "type": "electric_scooter", "lon": -77.05678683333333, "bike_id": "70693109f5d70e9249fd11be712ca064", "fusion_lat": 0.0, "name": "70693109f5d70e9249fd11be712ca064", "is_reserved": 0, "rental_uris": {"android": "https://dc.lft.to/lastmile_qr_scan", "ios": "https://dc.lft.to/lastmile_qr_scan"}, "fusion_lon": 0.0}, {"lat": 38.855151666666664, "is_disabled": 0, "type": "electric_bike", "lon": -76.9843145, "bike_id": "44f164636de661995786b373284e95dc", "fusion_lat": 0.0, "name": "44f164636de661995786b373284e95dc", "is_reserved": 0, "rental_uris": {"android": "https://dc.lft.to/lastmile_qr_scan", "ios": "https://dc.lft.to/lastmile_qr_scan"}, "fusion_lon": 0.0}, {"lat": 38.901818, "is_disabled": 0, "type": "electric_scooter", "lon": -77.01898783333333, "bike_id": "285aa0f5005b1af91bb7f1252a2ed9f3", "fusion_lat": 0.0, "name": "285aa0f5005b1af91bb7f1252a2ed9f3", "is_reserved": 0, "rental_uris": {"android": "https://dc.lft.to/lastmile_qr_scan", "ios": "https://dc.lft.to/lastmile_qr_scan"}, "fusion_lon": 0.0}, {"lat": 38.92384166666667, "is_disabled": 0, "type": "electric_scooter", "lon": -77.03053683333333, "bike_id": "777dcdcdbc620d1a261b92a20cca0b4b", "fusion_lat": 0.0, "name": "777dcdcdbc620d1a261b92a20cca0b4b", "is_reserved": 0, "rental_uris": {"android": "https://dc.lft.to/lastmile_qr_scan", "ios": "https://dc.lft.to/lastmile_qr_scan"}, "fusion_lon": 0.0}, {"lat": 38.914864, "is_disabled": 0, "type": "electric_scooter", "lon": -77.01372783333333, "bike_id": "2b4bbc3285955caade82f5af7112ff9d", "fusion_lat": 0.0, "name": "2b4bbc3285955caade82f5af7112ff9d", "is_reserved": 0, "rental_uris": {"android": "https://dc.lft.to/lastmile_qr_scan", "ios": "https://dc.lft.to/lastmile_qr_scan"}, "fusion_lon": 0.0}, {"lat": 38.911062, "is_disabled": 0, "type": "electric_scooter", "lon": -77.048166, "bike_id": "5bc6cf5ac7b4c3cb236967b7aa8938bf", "fusion_lat": 0.0, "name": "5bc6cf5ac7b4c3cb236967b7aa8938bf", "is_reserved": 0, "rental_uris": {"android": "https://dc.lft.to/lastmile_qr_scan", "ios": "https://dc.lft.to/lastmile_qr_scan"}, "fusion_lon": 0.0}, {"lat": 38.813464, "is_disabled": 0, "type": "electric_bike", "lon": -77.04925666666666, "bike_id": "6d4e568f2823abb0732e1fcbcf347530", "fusion_lat": 0.0, "name": "6d4e568f2823abb0732e1fcbcf347530", "is_reserved": 0, "rental_uris": {"android": "https://dc.lft.to/lastmile_qr_scan", "ios": "https://dc.lft.to/lastmile_qr_scan"}, "fusion_lon": 0.0}, {"lat": 38.920348833333335, "is_disabled": 0, "type": "electric_scooter", "lon": -77.04185816666667, "bike_id": "531cc7eb346891bbcbb8f4d009b825c8", "fusion_lat": 0.0, "name": "531cc7eb346891bbcbb8f4d009b825c8", "is_reserved": 0, "rental_uris": {"android": "https://dc.lft.to/lastmile_qr_scan", "ios": "https://dc.lft.to/lastmile_qr_scan"}, "fusion_lon": 0.0}, {"lat": 38.863609333333336, "is_disabled": 0, "type": "electric_scooter", "lon": -76.99038033333333, "bike_id": "a17d6e039afe17bdbaae87aa10d82ebd", "fusion_lat": 0.0, "name": "a17d6e039afe17bdbaae87aa10d82ebd", "is_reserved": 0, "rental_uris": {"android": "https://dc.lft.to/lastmile_qr_scan", "ios": "https://dc.lft.to/lastmile_qr_scan"}, "fusion_lon": 0.0}, {"lat": 38.927493166666665, "is_disabled": 0, "type": "electric_scooter", "lon": -76.99720683333334, "bike_id": "bace015cbeae5245edfe5408bb53fc92", "fusion_lat": 0.0, "name": "bace015cbeae5245edfe5408bb53fc92", "is_reserved": 0, "rental_uris": {"android": "https://dc.lft.to/lastmile_qr_scan", "ios": "https://dc.lft.to/lastmile_qr_scan"}, "fusion_lon": 0.0}, {"lat": 38.915295, "is_disabled": 0, "type": "electric_scooter", "lon": -76.98219533333334, "bike_id": "ddf9c06dee8954039efeada09e8250b3", "fusion_lat": 0.0, "name": "ddf9c06dee8954039efeada09e8250b3", "is_reserved": 0, "rental_uris": {"android": "https://dc.lft.to/lastmile_qr_scan", "ios": "https://dc.lft.to/lastmile_qr_scan"}, "fusion_lon": 0.0}, {"lat": 39.03048533333333, "is_disabled": 0, "type": "electric_bike", "lon": -77.0948655, "bike_id": "2545ef12e880b2d5a482f2c3d2e44272", "fusion_lat": 0.0, "name": "2545ef12e880b2d5a482f2c3d2e44272", "is_reserved": 0, "rental_uris": {"android": "https://dc.lft.to/lastmile_qr_scan", "ios": "https://dc.lft.to/lastmile_qr_scan"}, "fusion_lon": 0.0}, {"lat": 38.90721083333333, "is_disabled": 0, "type": "electric_scooter", "lon": -77.04837883333333, "bike_id": "296a3459fffbc39c871fa226e26992e1", "fusion_lat": 0.0, "name": "296a3459fffbc39c871fa226e26992e1", "is_reserved": 0, "rental_uris": {"android": "https://dc.lft.to/lastmile_qr_scan", "ios": "https://dc.lft.to/lastmile_qr_scan"}, "fusion_lon": 0.0}, {"lat": 38.914209166666666, "is_disabled": 0, "type": "electric_scooter", "lon": -77.0220485, "bike_id": "8ff6bae99163042e61e55d6b157b507a", "fusion_lat": 0.0, "name": "8ff6bae99163042e61e55d6b157b507a", "is_reserved": 0, "rental_uris": {"android": "https://dc.lft.to/lastmile_qr_scan", "ios": "https://dc.lft.to/lastmile_qr_scan"}, "fusion_lon": 0.0}, {"lat": 38.93839166666667, "is_disabled": 0, "type": "electric_bike", "lon": -76.9886365, "bike_id": "281d56f408032b8d4726db7c806e5fa6", "fusion_lat": 0.0, "name": "281d56f408032b8d4726db7c806e5fa6", "is_reserved": 0, "rental_uris": {"android": "https://dc.lft.to/lastmile_qr_scan", "ios": "https://dc.lft.to/lastmile_qr_scan"}, "fusion_lon": 0.0}, {"lat": 38.903702833333334, "is_disabled": 0, "type": "electric_scooter", "lon": -77.0384655, "bike_id": "facfe05852a9048ae83d60701e739a2e", "fusion_lat": 0.0, "name": "facfe05852a9048ae83d60701e739a2e", "is_reserved": 0, "rental_uris": {"android": "https://dc.lft.to/lastmile_qr_scan", "ios": "https://dc.lft.to/lastmile_qr_scan"}, "fusion_lon": 0.0}, {"lat": 38.8756935, "is_disabled": 0, "type": "electric_scooter", "lon": -77.02074766666667, "bike_id": "9f60053b83f601a632f297198ab88329", "fusion_lat": 0.0, "name": "9f60053b83f601a632f297198ab88329", "is_reserved": 0, "rental_uris": {"android": "https://dc.lft.to/lastmile_qr_scan", "ios": "https://dc.lft.to/lastmile_qr_scan"}, "fusion_lon": 0.0}, {"lat": 38.911190833333336, "is_disabled": 0, "type": "electric_scooter", "lon": -77.0277975, "bike_id": "120507aac8683cf80546c3d1b63b277f", "fusion_lat": 0.0, "name": "120507aac8683cf80546c3d1b63b277f", "is_reserved": 0, "rental_uris": {"android": "https://dc.lft.to/lastmile_qr_scan", "ios": "https://dc.lft.to/lastmile_qr_scan"}, "fusion_lon": 0.0}, {"lat": 38.917072, "is_disabled": 0, "type": "electric_scooter", "lon": -77.0386315, "bike_id": "eec5f83fa1ef73551f3c7225eb7daa57", "fusion_lat": 0.0, "name": "eec5f83fa1ef73551f3c7225eb7daa57", "is_reserved": 0, "rental_uris": {"android": "https://dc.lft.to/lastmile_qr_scan", "ios": "https://dc.lft.to/lastmile_qr_scan"}, "fusion_lon": 0.0}, {"lat": 38.9097495, "is_disabled": 0, "type": "electric_scooter", "lon": -77.0386965, "bike_id": "942f25eeadc863e530cfee0e8d9ffac0", "fusion_lat": 0.0, "name": "942f25eeadc863e530cfee0e8d9ffac0", "is_reserved": 0, "rental_uris": {"android": "https://dc.lft.to/lastmile_qr_scan", "ios": "https://dc.lft.to/lastmile_qr_scan"}, "fusion_lon": 0.0}, {"lat": 38.91712733333333, "is_disabled": 0, "type": "electric_scooter", "lon": -77.0372435, "bike_id": "9a2a5a464bc4760fadd3ca1b7efb0f00", "fusion_lat": 0.0, "name": "9a2a5a464bc4760fadd3ca1b7efb0f00", "is_reserved": 0, "rental_uris": {"android": "https://dc.lft.to/lastmile_qr_scan", "ios": "https://dc.lft.to/lastmile_qr_scan"}, "fusion_lon": 0.0}, {"lat": 38.885117666666666, "is_disabled": 0, "type": "electric_scooter", "lon": -77.006799, "bike_id": "d5bb56a1238cfadb94375869a7766c4b", "fusion_lat": 0.0, "name": "d5bb56a1238cfadb94375869a7766c4b", "is_reserved": 0, "rental_uris": {"android": "https://dc.lft.to/lastmile_qr_scan", "ios": "https://dc.lft.to/lastmile_qr_scan"}, "fusion_lon": 0.0}, {"lat": 38.912035333333336, "is_disabled": 0, "type": "electric_scooter", "lon": -77.0234145, "bike_id": "ce5b111ce7831a9327351c854acd103e", "fusion_lat": 0.0, "name": "ce5b111ce7831a9327351c854acd103e", "is_reserved": 0, "rental_uris": {"android": "https://dc.lft.to/lastmile_qr_scan", "ios": "https://dc.lft.to/lastmile_qr_scan"}, "fusion_lon": 0.0}, {"lat": 38.907385166666664, "is_disabled": 0, "type": "electric_scooter", "lon": -77.00930983333333, "bike_id": "358238c2ea6ab1000403a80c49a12ba5", "fusion_lat": 0.0, "name": "358238c2ea6ab1000403a80c49a12ba5", "is_reserved": 0, "rental_uris": {"android": "https://dc.lft.to/lastmile_qr_scan", "ios": "https://dc.lft.to/lastmile_qr_scan"}, "fusion_lon": 0.0}, {"lat": 38.9096015, "is_disabled": 0, "type": "electric_scooter", "lon": -77.02379916666666, "bike_id": "e5457a24b0a0c0dc2f5331d5b38f2e11", "fusion_lat": 0.0, "name": "e5457a24b0a0c0dc2f5331d5b38f2e11", "is_reserved": 0, "rental_uris": {"android": "https://dc.lft.to/lastmile_qr_scan", "ios": "https://dc.lft.to/lastmile_qr_scan"}, "fusion_lon": 0.0}, {"lat": 38.90178616666667, "is_disabled": 0, "type": "electric_scooter", "lon": -77.0249505, "bike_id": "fe390e533dbc70befba12ae1f4f4fb3a", "fusion_lat": 0.0, "name": "fe390e533dbc70befba12ae1f4f4fb3a", "is_reserved": 0, "rental_uris": {"android": "https://dc.lft.to/lastmile_qr_scan", "ios": "https://dc.lft.to/lastmile_qr_scan"}, "fusion_lon": 0.0}, {"lat": 38.90845483333333, "is_disabled": 0, "type": "electric_scooter", "lon": -77.03440783333333, "bike_id": "97d7a8611fe25367fcb1b2dad6ac3216", "fusion_lat": 0.0, "name": "97d7a8611fe25367fcb1b2dad6ac3216", "is_reserved": 0, "rental_uris": {"android": "https://dc.lft.to/lastmile_qr_scan", "ios": "https://dc.lft.to/lastmile_qr_scan"}, "fusion_lon": 0.0}, {"lat": 38.8949825, "is_disabled": 0, "type": "electric_scooter", "lon": -77.00213216666667, "bike_id": "c3f40696e5722b39d5a91b0c9b30a6a4", "fusion_lat": 0.0, "name": "c3f40696e5722b39d5a91b0c9b30a6a4", "is_reserved": 0, "rental_uris": {"android": "https://dc.lft.to/lastmile_qr_scan", "ios": "https://dc.lft.to/lastmile_qr_scan"}, "fusion_lon": 0.0}, {"lat": 38.9125995, "is_disabled": 0, "type": "electric_scooter", "lon": -77.07108016666666, "bike_id": "210b932b9d445b21b288cba3d81a2be8", "fusion_lat": 0.0, "name": "210b932b9d445b21b288cba3d81a2be8", "is_reserved": 0, "rental_uris": {"android": "https://dc.lft.to/lastmile_qr_scan", "ios": "https://dc.lft.to/lastmile_qr_scan"}, "fusion_lon": 0.0}, {"lat": 38.9202695, "is_disabled": 0, "type": "electric_scooter", "lon": -77.01324983333333, "bike_id": "2c193fb7718e411cee439a82dd04b85f", "fusion_lat": 0.0, "name": "2c193fb7718e411cee439a82dd04b85f", "is_reserved": 0, "rental_uris": {"android": "https://dc.lft.to/lastmile_qr_scan", "ios": "https://dc.lft.to/lastmile_qr_scan"}, "fusion_lon": 0.0}, {"lat": 38.92627783333333, "is_disabled": 0, "type": "electric_scooter", "lon": -77.04183416666666, "bike_id": "6aba0764932f729c8d2c785365d3c5cf", "fusion_lat": 0.0, "name": "6aba0764932f729c8d2c785365d3c5cf", "is_reserved": 0, "rental_uris": {"android": "https://dc.lft.to/lastmile_qr_scan", "ios": "https://dc.lft.to/lastmile_qr_scan"}, "fusion_lon": 0.0}, {"lat": 38.90690983333333, "is_disabled": 0, "type": "electric_scooter", "lon": -77.02937416666667, "bike_id": "4e522a77e2647bb61a69d92963454fb1", "fusion_lat": 0.0, "name": "4e522a77e2647bb61a69d92963454fb1", "is_reserved": 0, "rental_uris": {"android": "https://dc.lft.to/lastmile_qr_scan", "ios": "https://dc.lft.to/lastmile_qr_scan"}, "fusion_lon": 0.0}, {"lat": 38.92115033333333, "is_disabled": 0, "type": "electric_bike", "lon": -76.98576666666666, "bike_id": "e1042660f64a357350ea5993b48262de", "fusion_lat": 0.0, "name": "e1042660f64a357350ea5993b48262de", "is_reserved": 0, "rental_uris": {"android": "https://dc.lft.to/lastmile_qr_scan", "ios": "https://dc.lft.to/lastmile_qr_scan"}, "fusion_lon": 0.0}, {"lat": 38.93099333333333, "is_disabled": 0, "type": "electric_scooter", "lon": -77.02495666666667, "bike_id": "e61ea0db728a9d6c41523ff1d5505e3a", "fusion_lat": 0.0, "name": "e61ea0db728a9d6c41523ff1d5505e3a", "is_reserved": 0, "rental_uris": {"android": "https://dc.lft.to/lastmile_qr_scan", "ios": "https://dc.lft.to/lastmile_qr_scan"}, "fusion_lon": 0.0}, {"lat": 38.93124983333333, "is_disabled": 0, "type": "electric_scooter", "lon": -77.0340445, "bike_id": "6ec7f2da0aac21d642f6ae0de1d3ae7a", "fusion_lat": 0.0, "name": "6ec7f2da0aac21d642f6ae0de1d3ae7a", "is_reserved": 0, "rental_uris": {"android": "https://dc.lft.to/lastmile_qr_scan", "ios": "https://dc.lft.to/lastmile_qr_scan"}, "fusion_lon": 0.0}, {"lat": 38.907475166666664, "is_disabled": 0, "type": "electric_scooter", "lon": -77.04188083333334, "bike_id": "fb882bbe2d0990427f471b99bfb20885", "fusion_lat": 0.0, "name": "fb882bbe2d0990427f471b99bfb20885", "is_reserved": 0, "rental_uris": {"android": "https://dc.lft.to/lastmile_qr_scan", "ios": "https://dc.lft.to/lastmile_qr_scan"}, "fusion_lon": 0.0}, {"lat": 38.9224875, "is_disabled": 0, "type": "electric_scooter", "lon": -77.03105, "bike_id": "938234fe391025a7bc0b261d0d88fbac", "fusion_lat": 0.0, "name": "938234fe391025a7bc0b261d0d88fbac", "is_reserved": 0, "rental_uris": {"android": "https://dc.lft.to/lastmile_qr_scan", "ios": "https://dc.lft.to/lastmile_qr_scan"}, "fusion_lon": 0.0}, {"lat": 38.92076266666667, "is_disabled": 0, "type": "electric_scooter", "lon": -77.01430783333333, "bike_id": "2a4eba6283e17dcc71c397f05b6e0144", "fusion_lat": 0.0, "name": "2a4eba6283e17dcc71c397f05b6e0144", "is_reserved": 0, "rental_uris": {"android": "https://dc.lft.to/lastmile_qr_scan", "ios": "https://dc.lft.to/lastmile_qr_scan"}, "fusion_lon": 0.0}, {"lat": 38.94040966666667, "is_disabled": 0, "type": "electric_bike", "lon": -77.05164866666667, "bike_id": "cdbea187291305d6b2b09b2ecffc3741", "fusion_lat": 0.0, "name": "cdbea187291305d6b2b09b2ecffc3741", "is_reserved": 0, "rental_uris": {"android": "https://dc.lft.to/lastmile_qr_scan", "ios": "https://dc.lft.to/lastmile_qr_scan"}, "fusion_lon": 0.0}, {"lat": 38.9138445, "is_disabled": 0, "type": "electric_scooter", "lon": -77.01902433333333, "bike_id": "feb083eeba01accb7e9601959f587818", "fusion_lat": 0.0, "name": "feb083eeba01accb7e9601959f587818", "is_reserved": 0, "rental_uris": {"android": "https://dc.lft.to/lastmile_qr_scan", "ios": "https://dc.lft.to/lastmile_qr_scan"}, "fusion_lon": 0.0}, {"lat": 38.90283866666667, "is_disabled": 0, "type": "electric_scooter", "lon": -77.06350066666667, "bike_id": "cee2e1fcc962e1736c4278183df77a6d", "fusion_lat": 0.0, "name": "cee2e1fcc962e1736c4278183df77a6d", "is_reserved": 0, "rental_uris": {"android": "https://dc.lft.to/lastmile_qr_scan", "ios": "https://dc.lft.to/lastmile_qr_scan"}, "fusion_lon": 0.0}, {"lat": 38.929681333333335, "is_disabled": 0, "type": "electric_scooter", "lon": -77.03071166666666, "bike_id": "e19732ae281b498ede1e1b23116f8e14", "fusion_lat": 0.0, "name": "e19732ae281b498ede1e1b23116f8e14", "is_reserved": 0, "rental_uris": {"android": "https://dc.lft.to/lastmile_qr_scan", "ios": "https://dc.lft.to/lastmile_qr_scan"}, "fusion_lon": 0.0}, {"lat": 38.90571583333333, "is_disabled": 0, "type": "electric_scooter", "lon": -77.0221975, "bike_id": "18feee4431e9cc7c9d1efc17abcec74e", "fusion_lat": 0.0, "name": "18feee4431e9cc7c9d1efc17abcec74e", "is_reserved": 0, "rental_uris": {"android": "https://dc.lft.to/lastmile_qr_scan", "ios": "https://dc.lft.to/lastmile_qr_scan"}, "fusion_lon": 0.0}, {"lat": 38.9024725, "is_disabled": 0, "type": "electric_scooter", "lon": -77.03216333333333, "bike_id": "54bd145358e6ffe9d6f149449e84eabf", "fusion_lat": 0.0, "name": "54bd145358e6ffe9d6f149449e84eabf", "is_reserved": 0, "rental_uris": {"android": "https://dc.lft.to/lastmile_qr_scan", "ios": "https://dc.lft.to/lastmile_qr_scan"}, "fusion_lon": 0.0}, {"lat": 38.89045083333333, "is_disabled": 0, "type": "electric_scooter", "lon": -76.94073083333333, "bike_id": "05054353966635f0fd10a1a6dbe9580b", "fusion_lat": 0.0, "name": "05054353966635f0fd10a1a6dbe9580b", "is_reserved": 0, "rental_uris": {"android": "https://dc.lft.to/lastmile_qr_scan", "ios": "https://dc.lft.to/lastmile_qr_scan"}, "fusion_lon": 0.0}, {"lat": 38.91171966666667, "is_disabled": 0, "type": "electric_scooter", "lon": -77.03851333333333, "bike_id": "29e846c94ae0cd256c2202e771d899ec", "fusion_lat": 0.0, "name": "29e846c94ae0cd256c2202e771d899ec", "is_reserved": 0, "rental_uris": {"android": "https://dc.lft.to/lastmile_qr_scan", "ios": "https://dc.lft.to/lastmile_qr_scan"}, "fusion_lon": 0.0}, {"lat": 38.958870166666664, "is_disabled": 0, "type": "electric_bike", "lon": -76.92493533333334, "bike_id": "95b6b63564596f30bb4dc1e381ecab43", "fusion_lat": 0.0, "name": "95b6b63564596f30bb4dc1e381ecab43", "is_reserved": 0, "rental_uris": {"android": "https://dc.lft.to/lastmile_qr_scan", "ios": "https://dc.lft.to/lastmile_qr_scan"}, "fusion_lon": 0.0}, {"lat": 38.85851366666667, "is_disabled": 0, "type": "electric_bike", "lon": -77.097572, "bike_id": "d3ff0c3f1dd568e372fedb3c83a4f8b0", "fusion_lat": 0.0, "name": "d3ff0c3f1dd568e372fedb3c83a4f8b0", "is_reserved": 0, "rental_uris": {"android": "https://dc.lft.to/lastmile_qr_scan", "ios": "https://dc.lft.to/lastmile_qr_scan"}, "fusion_lon": 0.0}, {"lat": 38.918015, "is_disabled": 0, "type": "electric_scooter", "lon": -77.04438233333333, "bike_id": "15aa4d7091fb457540d86685f4d170ac", "fusion_lat": 0.0, "name": "15aa4d7091fb457540d86685f4d170ac", "is_reserved": 0, "rental_uris": {"android": "https://dc.lft.to/lastmile_qr_scan", "ios": "https://dc.lft.to/lastmile_qr_scan"}, "fusion_lon": 0.0}, {"lat": 38.90750166666667, "is_disabled": 0, "type": "electric_scooter", "lon": -77.04157366666666, "bike_id": "ebbbcdf2d33d79d4e6b16e5c61a53660", "fusion_lat": 0.0, "name": "ebbbcdf2d33d79d4e6b16e5c61a53660", "is_reserved": 0, "rental_uris": {"android": "https://dc.lft.to/lastmile_qr_scan", "ios": "https://dc.lft.to/lastmile_qr_scan"}, "fusion_lon": 0.0}, {"lat": 38.8827655, "is_disabled": 0, "type": "electric_bike", "lon": -76.932375, "bike_id": "b08ac3a2fa4281ad01b69e7fd36f6eac", "fusion_lat": 0.0, "name": "b08ac3a2fa4281ad01b69e7fd36f6eac", "is_reserved": 0, "rental_uris": {"android": "https://dc.lft.to/lastmile_qr_scan", "ios": "https://dc.lft.to/lastmile_qr_scan"}, "fusion_lon": 0.0}, {"lat": 38.903331, "is_disabled": 0, "type": "electric_scooter", "lon": -76.970556, "bike_id": "9ecdd633198b607ba4a9ad8507a7a29c", "fusion_lat": 0.0, "name": "9ecdd633198b607ba4a9ad8507a7a29c", "is_reserved": 0, "rental_uris": {"android": "https://dc.lft.to/lastmile_qr_scan", "ios": "https://dc.lft.to/lastmile_qr_scan"}, "fusion_lon": 0.0}, {"lat": 38.9005065, "is_disabled": 0, "type": "electric_scooter", "lon": -77.0508415, "bike_id": "bd9c8e1234d0453791c2d057b4913662", "fusion_lat": 0.0, "name": "bd9c8e1234d0453791c2d057b4913662", "is_reserved": 0, "rental_uris": {"android": "https://dc.lft.to/lastmile_qr_scan", "ios": "https://dc.lft.to/lastmile_qr_scan"}, "fusion_lon": 0.0}, {"lat": 38.91565083333333, "is_disabled": 0, "type": "electric_scooter", "lon": -77.009772, "bike_id": "e65ce26e47439fb7256ac1edc2f23e82", "fusion_lat": 0.0, "name": "e65ce26e47439fb7256ac1edc2f23e82", "is_reserved": 0, "rental_uris": {"android": "https://dc.lft.to/lastmile_qr_scan", "ios": "https://dc.lft.to/lastmile_qr_scan"}, "fusion_lon": 0.0}, {"lat": 38.91190683333333, "is_disabled": 0, "type": "electric_scooter", "lon": -77.04459833333334, "bike_id": "5347dae32e2b97605d4dfa60bf53758f", "fusion_lat": 0.0, "name": "5347dae32e2b97605d4dfa60bf53758f", "is_reserved": 0, "rental_uris": {"android": "https://dc.lft.to/lastmile_qr_scan", "ios": "https://dc.lft.to/lastmile_qr_scan"}, "fusion_lon": 0.0}, {"lat": 38.866145, "is_disabled": 0, "type": "electric_scooter", "lon": -76.9866785, "bike_id": "ea2eab4ef6a487849df9d1954cf75e4f", "fusion_lat": 0.0, "name": "ea2eab4ef6a487849df9d1954cf75e4f", "is_reserved": 0, "rental_uris": {"android": "https://dc.lft.to/lastmile_qr_scan", "ios": "https://dc.lft.to/lastmile_qr_scan"}, "fusion_lon": 0.0}, {"lat": 38.908834166666665, "is_disabled": 0, "type": "electric_scooter", "lon": -77.036632, "bike_id": "f98a7a48b175a6012935beb85136dbef", "fusion_lat": 0.0, "name": "f98a7a48b175a6012935beb85136dbef", "is_reserved": 0, "rental_uris": {"android": "https://dc.lft.to/lastmile_qr_scan", "ios": "https://dc.lft.to/lastmile_qr_scan"}, "fusion_lon": 0.0}, {"lat": 38.95079283333333, "is_disabled": 0, "type": "electric_bike", "lon": -77.012016, "bike_id": "17cce0b6e540c4e8adc72119e221c506", "fusion_lat": 0.0, "name": "17cce0b6e540c4e8adc72119e221c506", "is_reserved": 0, "rental_uris": {"android": "https://dc.lft.to/lastmile_qr_scan", "ios": "https://dc.lft.to/lastmile_qr_scan"}, "fusion_lon": 0.0}, {"lat": 38.914975166666665, "is_disabled": 0, "type": "electric_scooter", "lon": -76.98375316666667, "bike_id": "afe0ee95af4c3d9647a47d03e27315b3", "fusion_lat": 0.0, "name": "afe0ee95af4c3d9647a47d03e27315b3", "is_reserved": 0, "rental_uris": {"android": "https://dc.lft.to/lastmile_qr_scan", "ios": "https://dc.lft.to/lastmile_qr_scan"}, "fusion_lon": 0.0}, {"lat": 38.90142, "is_disabled": 0, "type": "electric_scooter", "lon": -77.0510005, "bike_id": "1d9980c3709a78b4f0e126fe354da297", "fusion_lat": 0.0, "name": "1d9980c3709a78b4f0e126fe354da297", "is_reserved": 0, "rental_uris": {"android": "https://dc.lft.to/lastmile_qr_scan", "ios": "https://dc.lft.to/lastmile_qr_scan"}, "fusion_lon": 0.0}, {"lat": 38.894323, "is_disabled": 0, "type": "electric_scooter", "lon": -77.02093533333333, "bike_id": "40d188b67d98234262d27d4f531c686c", "fusion_lat": 0.0, "name": "40d188b67d98234262d27d4f531c686c", "is_reserved": 0, "rental_uris": {"android": "https://dc.lft.to/lastmile_qr_scan", "ios": "https://dc.lft.to/lastmile_qr_scan"}, "fusion_lon": 0.0},