{"data": {"bikes": [{"fusion_lat": 0.0, "name": "512bc6fe959ecb8dda730129010f9dea", "is_disabled": 0, "rental_uris": {"android": "https://dc.lft.to/lastmile_qr_scan", "ios": "https://dc.lft.to/lastmile_qr_scan"}, "fusion_lon": 0.0, "lat": 38.92451066666667, "bike_id": "512bc6fe959ecb8dda730129010f9dea", "type": "electric_scooter", "is_reserved": 0, "lon": -77.03324766666667}, {"fusion_lat": 0.0, "name": "939e3de0142a2c2296f5c48895781a5e", "is_disabled": 0, "rental_uris": {"android": "https://dc.lft.to/lastmile_qr_scan", "ios": "https://dc.lft.to/lastmile_qr_scan"}, "fusion_lon": 0.0, "lat": 38.918598333333335, "bike_id": "939e3de0142a2c2296f5c48895781a5e", "type": "electric_scooter", "is_reserved": 0, "lon": -77.04065166666666}, {"fusion_lat": 0.0, "name": "0de6d9ab54422c373201b22d0e38f2e3", "is_disabled": 0, "rental_uris": {"android": "https://dc.lft.to/lastmile_qr_scan", "ios": "https://dc.lft.to/lastmile_qr_scan"}, "fusion_lon": 0.0, "lat": 38.90697133333333, "bike_id": "0de6d9ab54422c373201b22d0e38f2e3", "type": "electric_scooter", "is_reserved": 0, "lon": -77.02718383333334}, {"fusion_lat": 0.0, "name": "707df6c6fd1a55223abf5835c2130a42", "is_disabled": 0, "rental_uris": {"android": "https://dc.lft.to/lastmile_qr_scan", "ios": "https://dc.lft.to/lastmile_qr_scan"}, "fusion_lon": 0.0, "lat": 38.95221316666667, "bike_id": "707df6c6fd1a55223abf5835c2130a42", "type": "electric_scooter", "is_reserved": 0, "lon": -77.00063583333333}, {"fusion_lat": 0.0, "name": "efbc4eff6b530e1381280819d3efeb6b", "is_disabled": 0, "rental_uris": {"android": "https://dc.lft.to/lastmile_qr_scan", "ios": "https://dc.lft.to/lastmile_qr_scan"}, "fusion_lon": 0.0, "lat": 38.91125266666667, "bike_id": "efbc4eff6b530e1381280819d3efeb6b", "type": "electric_scooter", "is_reserved": 0, "lon": -77.02092783333333}, {"fusion_lat": 0.0, "name": "7f8e93dc8d9d497b68c8b8dc7ead62f6", "is_disabled": 0, "rental_uris": {"android": "https://dc.lft.to/lastmile_qr_scan", "ios": "https://dc.lft.to/lastmile_qr_scan"}, "fusion_lon": 0.0, "lat": 38.897292666666665, "bike_id": "7f8e93dc8d9d497b68c8b8dc7ead62f6", "type": "electric_bike", "is_reserved": 0, "lon": -76.92048333333334}, {"fusion_lat": 0.0, "name": "36b88023b2470459e5d527fe4fcbcb38", "is_disabled": 0, "rental_uris": {"android": "https://dc.lft.to/lastmile_qr_scan", "ios": "https://dc.lft.to/lastmile_qr_scan"}, "fusion_lon": 0.0, "lat": 38.974944666666666, "bike_id": "36b88023b2470459e5d527fe4fcbcb38", "type": "electric_scooter", "is_reserved": 0, "lon": -77.01694}, {"fusion_lat": 0.0, "name": "55af4af15b180a7565a15dbdf1982f60", "is_disabled": 0, "rental_uris": {"android": "https://dc.lft.to/lastmile_qr_scan", "ios": "https://dc.lft.to/lastmile_qr_scan"}, "fusion_lon": 0.0, "lat": 38.904297, "bike_id": "55af4af15b180a7565a15dbdf1982f60", "type": "electric_scooter", "is_reserved": 0, "lon": -77.0327785}, {"fusion_lat": 0.0, "name": "c7b0ce9747de132d7d2b4007816eb999", "is_disabled": 0, "rental_uris": {"android": "https://dc.lft.to/lastmile_qr_scan", "ios": "https://dc.lft.to/lastmile_qr_scan"}, "fusion_lon": 0.0, "lat": 38.91820666666667, "bike_id": "c7b0ce9747de132d7d2b4007816eb999", "type": "electric_scooter", "is_reserved": 0, "lon": -77.01206583333334}, {"fusion_lat": 0.0, "name": "932995341854443a110f368400c22699", "is_disabled": 0, "rental_uris": {"android": "https://dc.lft.to/lastmile_qr_scan", "ios": "https://dc.lft.to/lastmile_qr_scan"}, "fusion_lon": 0.0, "lat": 38.969867666666666, "bike_id": "932995341854443a110f368400c22699", "type": "electric_scooter", "is_reserved": 0, "lon": -77.01162783333334}, {"fusion_lat": 0.0, "name": "385f7ec0fe7455e05234cdaefa113707", "is_disabled": 0, "rental_uris": {"android": "https://dc.lft.to/lastmile_qr_scan", "ios": "https://dc.lft.to/lastmile_qr_scan"}, "fusion_lon": 0.0, "lat": 38.9201165, "bike_id": "385f7ec0fe7455e05234cdaefa113707", "type": "electric_scooter", "is_reserved": 0, "lon": -77.07118916666667}, {"fusion_lat": 0.0, "name": "2a121e27419bb08f9a8019553723e5cd", "is_disabled": 0, "rental_uris": {"android": "https://dc.lft.to/lastmile_qr_scan", "ios": "https://dc.lft.to/lastmile_qr_scan"}, "fusion_lon": 0.0, "lat": 38.856543333333335, "bike_id": "2a121e27419bb08f9a8019553723e5cd", "type": "electric_scooter", "is_reserved": 0, "lon": -76.99675283333333}, {"fusion_lat": 0.0, "name": "6c5542fadb2a87f820fe530ebe320ec2", "is_disabled": 0, "rental_uris": {"android": "https://dc.lft.to/lastmile_qr_scan", "ios": "https://dc.lft.to/lastmile_qr_scan"}, "fusion_lon": 0.0, "lat": 38.897316000000004, "bike_id": "6c5542fadb2a87f820fe530ebe320ec2", "type": "electric_scooter", "is_reserved": 0, "lon": -77.02474533333333}, {"fusion_lat": 0.0, "name": "f1ef59f56123f65239996017b80b844d", "is_disabled": 0, "rental_uris": {"android": "https://dc.lft.to/lastmile_qr_scan", "ios": "https://dc.lft.to/lastmile_qr_scan"}, "fusion_lon": 0.0, "lat": 38.9263405, "bike_id": "f1ef59f56123f65239996017b80b844d", "type": "electric_scooter", "is_reserved": 0, "lon": -77.03327783333333}, {"fusion_lat": 0.0, "name": "b6f7887e01963443b02a9fc060035ad0", "is_disabled": 0, "rental_uris": {"android": "https://dc.lft.to/lastmile_qr_scan", "ios": "https://dc.lft.to/lastmile_qr_scan"}, "fusion_lon": 0.0, "lat": 38.89116383333333, "bike_id": "b6f7887e01963443b02a9fc060035ad0", "type": "electric_scooter", "is_reserved": 0, "lon": -76.93845733333333}, {"fusion_lat": 0.0, "name": "f1730db01191184c12afeed8368c1b37", "is_disabled": 0, "rental_uris": {"android": "https://dc.lft.to/lastmile_qr_scan", "ios": "https://dc.lft.to/lastmile_qr_scan"}, "fusion_lon": 0.0, "lat": 38.95631016666667, "bike_id": "f1730db01191184c12afeed8368c1b37", "type": "electric_scooter", "is_reserved": 0, "lon": -76.9953295}, {"fusion_lat": 0.0, "name": "c9e20a4cf6fc5b2dcb7aaf17346f58f5", "is_disabled": 0, "rental_uris": {"android": "https://dc.lft.to/lastmile_qr_scan", "ios": "https://dc.lft.to/lastmile_qr_scan"}, "fusion_lon": 0.0, "lat": 38.897367833333334, "bike_id": "c9e20a4cf6fc5b2dcb7aaf17346f58f5", "type": "electric_scooter", "is_reserved": 0, "lon": -77.00367816666666}, {"fusion_lat": 0.0, "name": "2c5577989fb6f0420c425378a0720171", "is_disabled": 0, "rental_uris": {"android": "https://dc.lft.to/lastmile_qr_scan", "ios": "https://dc.lft.to/lastmile_qr_scan"}, "fusion_lon": 0.0, "lat": 38.9097085, "bike_id": "2c5577989fb6f0420c425378a0720171", "type": "electric_scooter", "is_reserved": 0, "lon": -77.032587}, {"fusion_lat": 0.0, "name": "df47ede55a051e7bd0f09d3d1e2305d0", "is_disabled": 0, "rental_uris": {"android": "https://dc.lft.to/lastmile_qr_scan", "ios": "https://dc.lft.to/lastmile_qr_scan"}, "fusion_lon": 0.0, "lat": 38.91102266666667, "bike_id": "df47ede55a051e7bd0f09d3d1e2305d0", "type": "electric_scooter", "is_reserved": 0, "lon": -77.02954666666666}, {"fusion_lat": 0.0, "name": "9d56c654c0a6909587868b2bb508603e", "is_disabled": 0, "rental_uris": {"android": "https://dc.lft.to/lastmile_qr_scan", "ios": "https://dc.lft.to/lastmile_qr_scan"}, "fusion_lon": 0.0, "lat": 38.91661633333333, "bike_id": "9d56c654c0a6909587868b2bb508603e", "type": "electric_scooter", "is_reserved": 0, "lon": -77.0321165}, {"fusion_lat": 0.0, "name": "f76050d3b49ca1dcf410ceab0f6d9b20", "is_disabled": 0, "rental_uris": {"android": "https://dc.lft.to/lastmile_qr_scan", "ios": "https://dc.lft.to/lastmile_qr_scan"}, "fusion_lon": 0.0, "lat": 38.93386783333333, "bike_id": "f76050d3b49ca1dcf410ceab0f6d9b20", "type": "electric_scooter", "is_reserved": 0, "lon": -77.0239235}, {"fusion_lat": 0.0, "name": "2fe820512e76c392d6f9be7ebf0782ed", "is_disabled": 0, "rental_uris": {"android": "https://dc.lft.to/lastmile_qr_scan", "ios": "https://dc.lft.to/lastmile_qr_scan"}, "fusion_lon": 0.0, "lat": 38.9162635, "bike_id": "2fe820512e76c392d6f9be7ebf0782ed", "type": "electric_scooter", "is_reserved": 0, "lon": -77.03930133333333}, {"fusion_lat": 0.0, "name": "79a4dbdb4c3d799d3c13536a9140be4e", "is_disabled": 0, "rental_uris": {"android": "https://dc.lft.to/lastmile_qr_scan", "ios": "https://dc.lft.to/lastmile_qr_scan"}, "fusion_lon": 0.0, "lat": 38.900593666666666, "bike_id": "79a4dbdb4c3d799d3c13536a9140be4e", "type": "electric_scooter", "is_reserved": 0, "lon": -77.0542795}, {"fusion_lat": 0.0, "name": "4e4c082da1b4a5ab3a49560490370f92", "is_disabled": 0, "rental_uris": {"android": "https://dc.lft.to/lastmile_qr_scan", "ios": "https://dc.lft.to/lastmile_qr_scan"}, "fusion_lon": 0.0, "lat": 38.91111733333334, "bike_id": "4e4c082da1b4a5ab3a49560490370f92", "type": "electric_scooter", "is_reserved": 0, "lon": -76.99767316666667}, {"fusion_lat": 0.0, "name": "729ff9082278b4226ca16259df9b1cfb", "is_disabled": 0, "rental_uris": {"android": "https://dc.lft.to/lastmile_qr_scan", "ios": "https://dc.lft.to/lastmile_qr_scan"}, "fusion_lon": 0.0, "lat": 38.881345, "bike_id": "729ff9082278b4226ca16259df9b1cfb", "type": "electric_bike", "is_reserved": 0, "lon": -76.99837966666666}, {"fusion_lat": 0.0, "name": "07903da47d9e5ff4ce47ae45fb031d83", "is_disabled": 0, "rental_uris": {"android": "https://dc.lft.to/lastmile_qr_scan", "ios": "https://dc.lft.to/lastmile_qr_scan"}, "fusion_lon": 0.0, "lat": 38.916674, "bike_id": "07903da47d9e5ff4ce47ae45fb031d83", "type": "electric_scooter", "is_reserved": 0, "lon": -77.02272583333334}, {"fusion_lat": 0.0, "name": "9edc4f8f6138d34ca31c0ce0f0c40448", "is_disabled": 0, "rental_uris": {"android": "https://dc.lft.to/lastmile_qr_scan", "ios": "https://dc.lft.to/lastmile_qr_scan"}, "fusion_lon": 0.0, "lat": 38.91419766666667, "bike_id": "9edc4f8f6138d34ca31c0ce0f0c40448", "type": "electric_scooter", "is_reserved": 0, "lon": -77.031699}, {"fusion_lat": 0.0, "name": "831aaae618c2adf254d2ffee11bdf3cd", "is_disabled": 0, "rental_uris": {"android": "https://dc.lft.to/lastmile_qr_scan", "ios": "https://dc.lft.to/lastmile_qr_scan"}, "fusion_lon": 0.0, "lat": 38.8996185, "bike_id": "831aaae618c2adf254d2ffee11bdf3cd", "type": "electric_scooter", "is_reserved": 0, "lon": -77.0069905}, {"fusion_lat": 0.0, "name": "24d4d9ef4f35309a1f8b3c0ec187cfa1", "is_disabled": 0, "rental_uris": {"android": "https://dc.lft.to/lastmile_qr_scan", "ios": "https://dc.lft.to/lastmile_qr_scan"}, "fusion_lon": 0.0, "lat": 38.905726333333334, "bike_id": "24d4d9ef4f35309a1f8b3c0ec187cfa1", "type": "electric_scooter", "is_reserved": 0, "lon": -77.04358733333333}, {"fusion_lat": 0.0, "name": "c0719ee888a193cfd16b7011ec04057f", "is_disabled": 0, "rental_uris": {"android": "https://dc.lft.to/lastmile_qr_scan", "ios": "https://dc.lft.to/lastmile_qr_scan"}, "fusion_lon": 0.0, "lat": 38.88613133333333, "bike_id": "c0719ee888a193cfd16b7011ec04057f", "type": "electric_scooter", "is_reserved": 0, "lon": -77.01249816666666}, {"fusion_lat": 0.0, "name": "1f99e1e62397a6816b776821883c62f5", "is_disabled": 0, "rental_uris": {"android": "https://dc.lft.to/lastmile_qr_scan", "ios": "https://dc.lft.to/lastmile_qr_scan"}, "fusion_lon": 0.0, "lat": 38.885554, "bike_id": "1f99e1e62397a6816b776821883c62f5", "type": "electric_scooter", "is_reserved": 0, "lon": -76.97719266666667}, {"fusion_lat": 0.0, "name": "864f690fe9e25eaa1a57df4c4641ad50", "is_disabled": 0, "rental_uris": {"android": "https://dc.lft.to/lastmile_qr_scan", "ios": "https://dc.lft.to/lastmile_qr_scan"}, "fusion_lon": 0.0, "lat": 38.9231215, "bike_id": "864f690fe9e25eaa1a57df4c4641ad50", "type": "electric_scooter", "is_reserved": 0, "lon": -77.02904216666667}, {"fusion_lat": 0.0, "name": "ea7bf9a35b516de00bef74268910c4f0", "is_disabled": 0, "rental_uris": {"android": "https://dc.lft.to/lastmile_qr_scan", "ios": "https://dc.lft.to/lastmile_qr_scan"}, "fusion_lon": 0.0, "lat": 38.929577, "bike_id": "ea7bf9a35b516de00bef74268910c4f0", "type": "electric_scooter", "is_reserved": 0, "lon": -77.02978683333333}, {"fusion_lat": 0.0, "name": "dfb8548c76dc8c4e876c67dc2c129e01", "is_disabled": 0, "rental_uris": {"android": "https://dc.lft.to/lastmile_qr_scan", "ios": "https://dc.lft.to/lastmile_qr_scan"}, "fusion_lon": 0.0, "lat": 38.9192305, "bike_id": "dfb8548c76dc8c4e876c67dc2c129e01", "type": "electric_scooter", "is_reserved": 0, "lon": -77.00970266666667}, {"fusion_lat": 0.0, "name": "ae48d4932de9c7b5218b729bc2711460", "is_disabled": 0, "rental_uris": {"android": "https://dc.lft.to/lastmile_qr_scan", "ios": "https://dc.lft.to/lastmile_qr_scan"}, "fusion_lon": 0.0, "lat": 38.893571666666666, "bike_id": "ae48d4932de9c7b5218b729bc2711460", "type": "electric_scooter", "is_reserved": 0, "lon": -76.92589683333334}, {"fusion_lat": 0.0, "name": "35c8f743a78860e71ca6d722cf84384e", "is_disabled": 0, "rental_uris": {"android": "https://dc.lft.to/lastmile_qr_scan", "ios": "https://dc.lft.to/lastmile_qr_scan"}, "fusion_lon": 0.0, "lat": 38.961549833333336, "bike_id": "35c8f743a78860e71ca6d722cf84384e", "type": "electric_scooter", "is_reserved": 0, "lon": -77.07358783333333}, {"fusion_lat": 0.0, "name": "e277cc898998dea472efb8c87e8411d5", "is_disabled": 0, "rental_uris": {"android": "https://dc.lft.to/lastmile_qr_scan", "ios": "https://dc.lft.to/lastmile_qr_scan"}, "fusion_lon": 0.0, "lat": 38.912597833333336, "bike_id": "e277cc898998dea472efb8c87e8411d5", "type": "electric_scooter", "is_reserved": 0, "lon": -77.04839616666666}, {"fusion_lat": 0.0, "name": "fc6cbefd60a21d5ffea503e087387f1c", "is_disabled": 0, "rental_uris": {"android": "https://dc.lft.to/lastmile_qr_scan", "ios": "https://dc.lft.to/lastmile_qr_scan"}, "fusion_lon": 0.0, "lat": 38.900341166666664, "bike_id": "fc6cbefd60a21d5ffea503e087387f1c", "type": "electric_scooter", "is_reserved": 0, "lon": -77.00721666666666}, {"fusion_lat": 0.0, "name": "2bf8c73163500429097b43afa8475143", "is_disabled": 0, "rental_uris": {"android": "https://dc.lft.to/lastmile_qr_scan", "ios": "https://dc.lft.to/lastmile_qr_scan"}, "fusion_lon": 0.0, "lat": 38.909495166666666, "bike_id": "2bf8c73163500429097b43afa8475143", "type": "electric_scooter", "is_reserved": 0, "lon": -76.98537916666666}, {"fusion_lat": 0.0, "name": "361ea496d76c1830c713ed1dfb21aa4b", "is_disabled": 0, "rental_uris": {"android": "https://dc.lft.to/lastmile_qr_scan", "ios": "https://dc.lft.to/lastmile_qr_scan"}, "fusion_lon": 0.0, "lat": 38.916934166666664, "bike_id": "361ea496d76c1830c713ed1dfb21aa4b", "type": "electric_scooter", "is_reserved": 0, "lon": -77.042176}, {"fusion_lat": 0.0, "name": "5be6706ea7382b8d21121770f648c54b", "is_disabled": 0, "rental_uris": {"android": "https://dc.lft.to/lastmile_qr_scan", "ios": "https://dc.lft.to/lastmile_qr_scan"}, "fusion_lon": 0.0, "lat": 38.918071833333336, "bike_id": "5be6706ea7382b8d21121770f648c54b", "type": "electric_scooter", "is_reserved": 0, "lon": -77.04626533333334}, {"fusion_lat": 0.0, "name": "4a0fed472416a7e344a23f524440c4c4", "is_disabled": 0, "rental_uris": {"android": "https://dc.lft.to/lastmile_qr_scan", "ios": "https://dc.lft.to/lastmile_qr_scan"}, "fusion_lon": 0.0, "lat": 38.90899266666667, "bike_id": "4a0fed472416a7e344a23f524440c4c4", "type": "electric_scooter", "is_reserved": 0, "lon": -77.03212483333333}, {"fusion_lat": 0.0, "name": "6e86345eee257a76829eb30433840c42", "is_disabled": 0, "rental_uris": {"android": "https://dc.lft.to/lastmile_qr_scan", "ios": "https://dc.lft.to/lastmile_qr_scan"}, "fusion_lon": 0.0, "lat": 38.9141715, "bike_id": "6e86345eee257a76829eb30433840c42", "type": "electric_scooter", "is_reserved": 0, "lon": -77.04575783333334}, {"fusion_lat": 0.0, "name": "44e0cb113312d1ed9de7c3b521290a3d", "is_disabled": 0, "rental_uris": {"android": "https://dc.lft.to/lastmile_qr_scan", "ios": "https://dc.lft.to/lastmile_qr_scan"}, "fusion_lon": 0.0, "lat": 38.9129725, "bike_id": "44e0cb113312d1ed9de7c3b521290a3d", "type": "electric_scooter", "is_reserved": 0, "lon": -76.98464766666666}, {"fusion_lat": 0.0, "name": "fc49d9c7258a117fe2462ce699896236", "is_disabled": 0, "rental_uris": {"android": "https://dc.lft.to/lastmile_qr_scan", "ios": "https://dc.lft.to/lastmile_qr_scan"}, "fusion_lon": 0.0, "lat": 38.824568, "bike_id": "fc49d9c7258a117fe2462ce699896236", "type": "electric_bike", "is_reserved": 0, "lon": -77.00793683333333}, {"fusion_lat": 0.0, "name": "7cdea97485feb1902699e80d8f1f900f", "is_disabled": 0, "rental_uris": {"android": "https://dc.lft.to/lastmile_qr_scan", "ios": "https://dc.lft.to/lastmile_qr_scan"}, "fusion_lon": 0.0, "lat": 38.90867866666667, "bike_id": "7cdea97485feb1902699e80d8f1f900f", "type": "electric_scooter", "is_reserved": 0, "lon": -77.08597016666667}, {"fusion_lat": 0.0, "name": "eb889f45a732da74794399737366eac4", "is_disabled": 0, "rental_uris": {"android": "https://dc.lft.to/lastmile_qr_scan", "ios": "https://dc.lft.to/lastmile_qr_scan"}, "fusion_lon": 0.0, "lat": 38.911893, "bike_id": "eb889f45a732da74794399737366eac4", "type": "electric_scooter", "is_reserved": 0, "lon": -77.042449}, {"fusion_lat": 0.0, "name": "b481a998f07498c9b02b8ad17cdcf4e4", "is_disabled": 0, "rental_uris": {"android": "https://dc.lft.to/lastmile_qr_scan", "ios": "https://dc.lft.to/lastmile_qr_scan"}, "fusion_lon": 0.0, "lat": 38.923134166666664, "bike_id": "b481a998f07498c9b02b8ad17cdcf4e4", "type": "electric_scooter", "is_reserved": 0, "lon": -77.04113633333333}, {"fusion_lat": 0.0, "name": "d27723430f33ec443d141132036c5723", "is_disabled": 0, "rental_uris": {"android": "https://dc.lft.to/lastmile_qr_scan", "ios": "https://dc.lft.to/lastmile_qr_scan"}, "fusion_lon": 0.0, "lat": 38.876788, "bike_id": "d27723430f33ec443d141132036c5723", "type": "electric_scooter", "is_reserved": 0, "lon": -77.00741466666666}, {"fusion_lat": 0.0, "name": "0e75d598b590841b0167aea7efdc415b", "is_disabled": 0, "rental_uris": {"android": "https://dc.lft.to/lastmile_qr_scan", "ios": "https://dc.lft.to/lastmile_qr_scan"}, "fusion_lon": 0.0, "lat": 38.89742783333333, "bike_id": "0e75d598b590841b0167aea7efdc415b", "type": "electric_scooter", "is_reserved": 0, "lon": -77.03384383333334}, {"fusion_lat": 0.0, "name": "71f688178f7397e153aa1a10ef7aa341", "is_disabled": 0, "rental_uris": {"android": "https://dc.lft.to/lastmile_qr_scan", "ios": "https://dc.lft.to/lastmile_qr_scan"}, "fusion_lon": 0.0, "lat": 38.92061183333333, "bike_id": "71f688178f7397e153aa1a10ef7aa341", "type": "electric_scooter", "is_reserved": 0, "lon": -77.03196583333333}, {"fusion_lat": 0.0, "name": "73cad4ce1f1ca4cb1137513eda9b709d", "is_disabled": 0, "rental_uris": {"android": "https://dc.lft.to/lastmile_qr_scan", "ios": "https://dc.lft.to/lastmile_qr_scan"}, "fusion_lon": 0.0, "lat": 38.904274666666666, "bike_id": "73cad4ce1f1ca4cb1137513eda9b709d", "type": "electric_scooter", "is_reserved": 0, "lon": -77.00124716666667}, {"fusion_lat": 0.0, "name": "87de312f1502d903688eea4f1c635f68", "is_disabled": 0, "rental_uris": {"android": "https://dc.lft.to/lastmile_qr_scan", "ios": "https://dc.lft.to/lastmile_qr_scan"}, "fusion_lon": 0.0, "lat": 38.874776833333335, "bike_id": "87de312f1502d903688eea4f1c635f68", "type": "electric_bike", "is_reserved": 0, "lon": -77.008723}, {"fusion_lat": 0.0, "name": "ac10271a8645f4190e48ae3298f7f6ae", "is_disabled": 0, "rental_uris": {"android": "https://dc.lft.to/lastmile_qr_scan", "ios": "https://dc.lft.to/lastmile_qr_scan"}, "fusion_lon": 0.0, "lat": 38.88766, "bike_id": "ac10271a8645f4190e48ae3298f7f6ae", "type": "electric_scooter", "is_reserved": 0, "lon": -76.97754266666666}, {"fusion_lat": 0.0, "name": "83b29ba9cc3e16d4c2adb1496c9bca3f", "is_disabled": 0, "rental_uris": {"android": "https://dc.lft.to/lastmile_qr_scan", "ios": "https://dc.lft.to/lastmile_qr_scan"}, "fusion_lon": 0.0, "lat": 38.90380116666667, "bike_id": "83b29ba9cc3e16d4c2adb1496c9bca3f", "type": "electric_scooter", "is_reserved": 0, "lon": -77.04452533333334}, {"fusion_lat": 0.0, "name": "a8fe64d98c774bf437034f8c89f069be", "is_disabled": 0, "rental_uris": {"android": "https://dc.lft.to/lastmile_qr_scan", "ios": "https://dc.lft.to/lastmile_qr_scan"}, "fusion_lon": 0.0, "lat": 38.876561, "bike_id": "a8fe64d98c774bf437034f8c89f069be", "type": "electric_scooter", "is_reserved": 0, "lon": -77.01565216666667}, {"fusion_lat": 0.0, "name": "1ef62f945df898c2a788192536b23d86", "is_disabled": 0, "rental_uris": {"android": "https://dc.lft.to/lastmile_qr_scan", "ios": "https://dc.lft.to/lastmile_qr_scan"}, "fusion_lon": 0.0, "lat": 38.87088766666667, "bike_id": "1ef62f945df898c2a788192536b23d86", "type": "electric_scooter", "is_reserved": 0, "lon": -77.01215883333333}, {"fusion_lat": 0.0, "name": "dc31e34799a561e7d6918054f6d46366", "is_disabled": 0, "rental_uris": {"android": "https://dc.lft.to/lastmile_qr_scan", "ios": "https://dc.lft.to/lastmile_qr_scan"}, "fusion_lon": 0.0, "lat": 38.864459, "bike_id": "dc31e34799a561e7d6918054f6d46366", "type": "electric_bike", "is_reserved": 0, "lon": -77.10688433333333}, {"fusion_lat": 0.0, "name": "4b6208c9bc4820e338c8f00068813723", "is_disabled": 0, "rental_uris": {"android": "https://dc.lft.to/lastmile_qr_scan", "ios": "https://dc.lft.to/lastmile_qr_scan"}, "fusion_lon": 0.0, "lat": 38.906308833333334, "bike_id": "4b6208c9bc4820e338c8f00068813723", "type": "electric_scooter", "is_reserved": 0, "lon": -77.01024766666667}, {"fusion_lat": 0.0, "name": "a8da3d463a5d5f9bdd3254bd1aa56404", "is_disabled": 0, "rental_uris": {"android": "https://dc.lft.to/lastmile_qr_scan", "ios": "https://dc.lft.to/lastmile_qr_scan"}, "fusion_lon": 0.0, "lat": 38.909616, "bike_id": "a8da3d463a5d5f9bdd3254bd1aa56404", "type": "electric_scooter", "is_reserved": 0, "lon": -77.0331065}, {"fusion_lat": 0.0, "name": "10072e4e14a91869900478fef2f721fd", "is_disabled": 0, "rental_uris": {"android": "https://dc.lft.to/lastmile_qr_scan", "ios": "https://dc.lft.to/lastmile_qr_scan"}, "fusion_lon": 0.0, "lat": 38.90979683333333, "bike_id": "10072e4e14a91869900478fef2f721fd", "type": "electric_scooter", "is_reserved": 0, "lon": -77.03395666666667}, {"fusion_lat": 0.0, "name": "2e2ff9c3271646052a5276357549b175", "is_disabled": 0, "rental_uris": {"android": "https://dc.lft.to/lastmile_qr_scan", "ios": "https://dc.lft.to/lastmile_qr_scan"}, "fusion_lon": 0.0, "lat": 38.897312666666664, "bike_id": "2e2ff9c3271646052a5276357549b175", "type": "electric_scooter", "is_reserved": 0, "lon": -77.02327966666667}, {"fusion_lat": 0.0, "name": "14dd7a9f6419f66339b77fa8ccf2a80f", "is_disabled": 0, "rental_uris": {"android": "https://dc.lft.to/lastmile_qr_scan", "ios": "https://dc.lft.to/lastmile_qr_scan"}, "fusion_lon": 0.0, "lat": 38.902859166666666, "bike_id": "14dd7a9f6419f66339b77fa8ccf2a80f", "type": "electric_scooter", "is_reserved": 0, "lon": -77.0416745}, {"fusion_lat": 0.0, "name": "0ae6b6e380befeeccfdd74487defc918", "is_disabled": 0, "rental_uris": {"android": "https://dc.lft.to/lastmile_qr_scan", "ios": "https://dc.lft.to/lastmile_qr_scan"}, "fusion_lon": 0.0, "lat": 38.919196166666666, "bike_id": "0ae6b6e380befeeccfdd74487defc918", "type": "electric_scooter", "is_reserved": 0, "lon": -77.00979266666667}, {"fusion_lat": 0.0, "name": "719c1139644765816044010b393e6844", "is_disabled": 0, "rental_uris": {"android": "https://dc.lft.to/lastmile_qr_scan", "ios": "https://dc.lft.to/lastmile_qr_scan"}, "fusion_lon": 0.0, "lat": 38.956293333333335, "bike_id": "719c1139644765816044010b393e6844", "type": "electric_scooter", "is_reserved": 0, "lon": -77.09133283333334}, {"fusion_lat": 0.0, "name": "9376ff0abf36c3782f79e2d9498c8fb2", "is_disabled": 0, "rental_uris": {"android": "https://dc.lft.to/lastmile_qr_scan", "ios": "https://dc.lft.to/lastmile_qr_scan"}, "fusion_lon": 0.0, "lat": 38.8840515, "bike_id": "9376ff0abf36c3782f79e2d9498c8fb2", "type": "electric_bike", "is_reserved": 0, "lon": -76.95415733333333}, {"fusion_lat": 0.0, "name": "c668e62500b65509e32e47b65cb0a008", "is_disabled": 0, "rental_uris": {"android": "https://dc.lft.to/lastmile_qr_scan", "ios": "https://dc.lft.to/lastmile_qr_scan"}, "fusion_lon": 0.0, "lat": 38.928645333333336, "bike_id": "c668e62500b65509e32e47b65cb0a008", "type": "electric_scooter", "is_reserved": 0, "lon": -77.02731366666667}, {"fusion_lat": 0.0, "name": "64a5259bacfdc4c6c973a3bdef09e819", "is_disabled": 0, "rental_uris": {"android": "https://dc.lft.to/lastmile_qr_scan", "ios": "https://dc.lft.to/lastmile_qr_scan"}, "fusion_lon": 0.0, "lat": 38.935095, "bike_id": "64a5259bacfdc4c6c973a3bdef09e819", "type": "electric_scooter", "is_reserved": 0, "lon": -77.058426}, {"fusion_lat": 0.0, "name": "9d9125f6dbc216674d0e5f8143db9503", "is_disabled": 0, "rental_uris": {"android": "https://dc.lft.to/lastmile_qr_scan", "ios": "https://dc.lft.to/lastmile_qr_scan"}, "fusion_lon": 0.0, "lat": 38.887170166666664, "bike_id": "9d9125f6dbc216674d0e5f8143db9503", "type": "electric_scooter", "is_reserved": 0, "lon": -76.996432}, {"fusion_lat": 0.0, "name": "6307180119770a8afe5f18e8efdaa97d", "is_disabled": 0, "rental_uris": {"android": "https://dc.lft.to/lastmile_qr_scan", "ios": "https://dc.lft.to/lastmile_qr_scan"}, "fusion_lon": 0.0, "lat": 38.9182225, "bike_id": "6307180119770a8afe5f18e8efdaa97d", "type": "electric_scooter", "is_reserved": 0, "lon": -77.04175983333333}, {"fusion_lat": 0.0, "name": "4925d83dff98546b6e5f705ad8024bb3", "is_disabled": 0, "rental_uris": {"android": "https://dc.lft.to/lastmile_qr_scan", "ios": "https://dc.lft.to/lastmile_qr_scan"}, "fusion_lon": 0.0, "lat": 38.87790733333333, "bike_id": "4925d83dff98546b6e5f705ad8024bb3", "type": "electric_scooter", "is_reserved": 0, "lon": -77.001324}, {"fusion_lat": 0.0, "name": "18d1a1248381f8524b19417a53fbaa9c", "is_disabled": 0, "rental_uris": {"android": "https://dc.lft.to/lastmile_qr_scan", "ios": "https://dc.lft.to/lastmile_qr_scan"}, "fusion_lon": 0.0, "lat": 38.90267133333333, "bike_id": "18d1a1248381f8524b19417a53fbaa9c", "type": "electric_scooter", "is_reserved": 0, "lon": -77.05316266666667}, {"fusion_lat": 0.0, "name": "c9e0141a9b954c29f0f1ed262ebd2115", "is_disabled": 0, "rental_uris": {"android": "https://dc.lft.to/lastmile_qr_scan", "ios": "https://dc.lft.to/lastmile_qr_scan"}, "fusion_lon": 0.0, "lat": 38.89601666666667, "bike_id": "c9e0141a9b954c29f0f1ed262ebd2115", "type": "electric_scooter", "is_reserved": 0, "lon": -77.026385}, {"fusion_lat": 0.0, "name": "9af7f83ac33a7ec6e38cba868d0e3686", "is_disabled": 0, "rental_uris": {"android": "https://dc.lft.to/lastmile_qr_scan", "ios": "https://dc.lft.to/lastmile_qr_scan"}, "fusion_lon": 0.0, "lat": 38.879264166666665, "bike_id": "9af7f83ac33a7ec6e38cba868d0e3686", "type": "electric_scooter", "is_reserved": 0, "lon": -77.00919}, {"fusion_lat": 0.0, "name": "105bf69bcd89716049d4d3b65a13100e", "is_disabled": 0, "rental_uris": {"android": "https://dc.lft.to/lastmile_qr_scan", "ios": "https://dc.lft.to/lastmile_qr_scan"}, "fusion_lon": 0.0, "lat": 38.9014205, "bike_id": "105bf69bcd89716049d4d3b65a13100e", "type": "electric_scooter", "is_reserved": 0, "lon": -77.0607155}, {"fusion_lat": 0.0, "name": "b0252129b3f3754b4b6ad5dd3e83fa6c", "is_disabled": 0, "rental_uris": {"android": "https://dc.lft.to/lastmile_qr_scan", "ios": "https://dc.lft.to/lastmile_qr_scan"}, "fusion_lon": 0.0, "lat": 38.951829000000004, "bike_id": "b0252129b3f3754b4b6ad5dd3e83fa6c", "type": "electric_scooter", "is_reserved": 0, "lon": -77.0272625}, {"fusion_lat": 0.0, "name": "26c6e4186b9d7e39fc733dfb291d5e59", "is_disabled": 0, "rental_uris": {"android": "https://dc.lft.to/lastmile_qr_scan", "ios": "https://dc.lft.to/lastmile_qr_scan"}, "fusion_lon": 0.0, "lat": 38.88347066666667, "bike_id": "26c6e4186b9d7e39fc733dfb291d5e59", "type": "electric_scooter", "is_reserved": 0, "lon": -76.99503833333333}, {"fusion_lat": 0.0, "name": "eb46629135502abef8c541e41d4cd051", "is_disabled": 0, "rental_uris": {"android": "https://dc.lft.to/lastmile_qr_scan", "ios": "https://dc.lft.to/lastmile_qr_scan"}, "fusion_lon": 0.0, "lat": 38.85508316666667, "bike_id": "eb46629135502abef8c541e41d4cd051", "type": "electric_bike", "is_reserved": 0, "lon": -77.10541633333334}, {"fusion_lat": 0.0, "name": "1ffd8ba1b003760884aea89d788ce38d", "is_disabled": 0, "rental_uris": {"android": "https://dc.lft.to/lastmile_qr_scan", "ios": "https://dc.lft.to/lastmile_qr_scan"}, "fusion_lon": 0.0, "lat": 38.928274333333334, "bike_id": "1ffd8ba1b003760884aea89d788ce38d", "type": "electric_scooter", "is_reserved": 0, "lon": -77.05439366666667}, {"fusion_lat": 0.0, "name": "94ec37c144ef462a5094ff85c94415ea", "is_disabled": 0, "rental_uris": {"android": "https://dc.lft.to/lastmile_qr_scan", "ios": "https://dc.lft.to/lastmile_qr_scan"}, "fusion_lon": 0.0, "lat": 38.911109833333335, "bike_id": "94ec37c144ef462a5094ff85c94415ea", "type": "electric_scooter", "is_reserved": 0, "lon": -77.03726366666666}, {"fusion_lat": 0.0, "name": "bcc02e620e05cd11b003cdec9daef5e2", "is_disabled": 0, "rental_uris": {"android": "https://dc.lft.to/lastmile_qr_scan", "ios": "https://dc.lft.to/lastmile_qr_scan"}, "fusion_lon": 0.0, "lat": 38.90311833333333, "bike_id": "bcc02e620e05cd11b003cdec9daef5e2", "type": "electric_scooter", "is_reserved": 0, "lon": -76.9779595}, {"fusion_lat": 0.0, "name": "bd3a4c118dd569d926b0770885a27397", "is_disabled": 0, "rental_uris": {"android": "https://dc.lft.to/lastmile_qr_scan", "ios": "https://dc.lft.to/lastmile_qr_scan"}, "fusion_lon": 0.0, "lat": 38.89622266666667, "bike_id": "bd3a4c118dd569d926b0770885a27397", "type": "electric_scooter", "is_reserved": 0, "lon": -77.0116905}, {"fusion_lat": 0.0, "name": "eb76d537cc335621c2f624c4d3dc4199", "is_disabled": 0, "rental_uris": {"android": "https://dc.lft.to/lastmile_qr_scan", "ios": "https://dc.lft.to/lastmile_qr_scan"}, "fusion_lon": 0.0, "lat": 38.886302, "bike_id": "eb76d537cc335621c2f624c4d3dc4199", "type": "electric_scooter", "is_reserved": 0, "lon": -77.022181}, {"fusion_lat": 0.0, "name": "1ca43e909a185ced7aa822284c27831b", "is_disabled": 0, "rental_uris": {"android": "https://dc.lft.to/lastmile_qr_scan", "ios": "https://dc.lft.to/lastmile_qr_scan"}, "fusion_lon": 0.0, "lat": 38.916926833333335, "bike_id": "1ca43e909a185ced7aa822284c27831b", "type": "electric_scooter", "is_reserved": 0, "lon": -77.03156266666667}, {"fusion_lat": 0.0, "name": "81c4b868170693c27c501a4789983c02", "is_disabled": 0, "rental_uris": {"android": "https://dc.lft.to/lastmile_qr_scan", "ios": "https://dc.lft.to/lastmile_qr_scan"}, "fusion_lon": 0.0, "lat": 38.8887105, "bike_id": "81c4b868170693c27c501a4789983c02", "type": "electric_scooter", "is_reserved": 0, "lon": -76.984551}, {"fusion_lat": 0.0, "name": "47198563bbb6ab206497c4cbc2917c94", "is_disabled": 0, "rental_uris": {"android": "https://dc.lft.to/lastmile_qr_scan", "ios": "https://dc.lft.to/lastmile_qr_scan"}, "fusion_lon": 0.0, "lat": 38.9204305, "bike_id": "47198563bbb6ab206497c4cbc2917c94", "type": "electric_scooter", "is_reserved": 0, "lon": -77.00213966666666}, {"fusion_lat": 0.0, "name": "efaaf2f2b48e23e110df6614f2e1cac2", "is_disabled": 0, "rental_uris": {"android": "https://dc.lft.to/lastmile_qr_scan", "ios": "https://dc.lft.to/lastmile_qr_scan"}, "fusion_lon": 0.0, "lat": 38.914001, "bike_id": "efaaf2f2b48e23e110df6614f2e1cac2", "type": "electric_scooter", "is_reserved": 0, "lon": -77.03185866666666}, {"fusion_lat": 0.0, "name": "cae39a10045ff0d6de110e21b71895da", "is_disabled": 0, "rental_uris": {"android": "https://dc.lft.to/lastmile_qr_scan", "ios": "https://dc.lft.to/lastmile_qr_scan"}, "fusion_lon": 0.0, "lat": 38.93415066666667, "bike_id": "cae39a10045ff0d6de110e21b71895da", "type": "electric_scooter", "is_reserved": 0, "lon": -77.0431565}, {"fusion_lat": 0.0, "name": "6729de843d817f493251414fe54faa73", "is_disabled": 0, "rental_uris": {"android": "https://dc.lft.to/lastmile_qr_scan", "ios": "https://dc.lft.to/lastmile_qr_scan"}, "fusion_lon": 0.0, "lat": 38.901848, "bike_id": "6729de843d817f493251414fe54faa73", "type": "electric_scooter", "is_reserved": 0, "lon": -76.928996}, {"fusion_lat": 0.0, "name": "a23eb0a98f98bbdbe84f83a703ae9c1b", "is_disabled": 0, "rental_uris": {"android": "https://dc.lft.to/lastmile_qr_scan", "ios": "https://dc.lft.to/lastmile_qr_scan"}, "fusion_lon": 0.0, "lat": 38.8862875, "bike_id": "a23eb0a98f98bbdbe84f83a703ae9c1b", "type": "electric_scooter", "is_reserved": 0, "lon": -76.92586433333334}, {"fusion_lat": 0.0, "name": "25f2558af58b88cee1c17fd4f96a8f36", "is_disabled": 0, "rental_uris": {"android": "https://dc.lft.to/lastmile_qr_scan", "ios": "https://dc.lft.to/lastmile_qr_scan"}, "fusion_lon": 0.0, "lat": 38.946558333333336, "bike_id": "25f2558af58b88cee1c17fd4f96a8f36", "type": "electric_bike", "is_reserved": 0, "lon": -77.00695283333333}, {"fusion_lat": 0.0, "name": "80be1c7680879ab83598558cbcda6dac", "is_disabled": 0, "rental_uris": {"android": "https://dc.lft.to/lastmile_qr_scan", "ios": "https://dc.lft.to/lastmile_qr_scan"}, "fusion_lon": 0.0, "lat": 38.936713, "bike_id": "80be1c7680879ab83598558cbcda6dac", "type": "electric_scooter", "is_reserved": 0, "lon": -77.03587833333333}, {"fusion_lat": 0.0, "name": "082bc0c2df648d758586a5028793a8e5", "is_disabled": 0, "rental_uris": {"android": "https://dc.lft.to/lastmile_qr_scan", "ios": "https://dc.lft.to/lastmile_qr_scan"}, "fusion_lon": 0.0, "lat": 38.9213455, "bike_id": "082bc0c2df648d758586a5028793a8e5", "type": "electric_scooter", "is_reserved": 0, "lon": -77.032098}, {"fusion_lat": 0.0, "name": "a4c93a85bd982518f698c63e1624e4e0", "is_disabled": 0, "rental_uris": {"android": "https://dc.lft.to/lastmile_qr_scan", "ios": "https://dc.lft.to/lastmile_qr_scan"}, "fusion_lon": 0.0, "lat": 38.86506216666667, "bike_id": "a4c93a85bd982518f698c63e1624e4e0", "type": "electric_scooter", "is_reserved": 0, "lon": -76.9900715}, {"fusion_lat": 0.0, "name": "5aef90342a6b3586876a73773299a2a4", "is_disabled": 0, "rental_uris": {"android": "https://dc.lft.to/lastmile_qr_scan", "ios": "https://dc.lft.to/lastmile_qr_scan"}, "fusion_lon": 0.0, "lat": 38.95378483333333, "bike_id": "5aef90342a6b3586876a73773299a2a4", "type": "electric_scooter", "is_reserved": 0, "lon": -77.02555783333334}, {"fusion_lat": 0.0, "name": "308ad126d5e984149989438234a773fa", "is_disabled": 0, "rental_uris": {"android": "https://dc.lft.to/lastmile_qr_scan", "ios": "https://dc.lft.to/lastmile_qr_scan"}, "fusion_lon": 0.0, "lat": 38.862589666666665, "bike_id": "308ad126d5e984149989438234a773fa", "type": "electric_bike", "is_reserved": 0, "lon": -76.98353133333333}, {"fusion_lat": 0.0, "name": "df375514beb746b5b11444beb57dac5a", "is_disabled": 0, "rental_uris": {"android": "https://dc.lft.to/lastmile_qr_scan", "ios": "https://dc.lft.to/lastmile_qr_scan"}, "fusion_lon": 0.0, "lat": 38.88721833333334, "bike_id": "df375514beb746b5b11444beb57dac5a", "type": "electric_scooter", "is_reserved": 0, "lon": -77.01332433333333}, {"fusion_lat": 0.0, "name": "5d284d1897bebd19ed41b1de01132074", "is_disabled": 0, "rental_uris": {"android": "https://dc.lft.to/lastmile_qr_scan", "ios": "https://dc.lft.to/lastmile_qr_scan"}, "fusion_lon": 0.0, "lat": 38.87890516666667, "bike_id": "5d284d1897bebd19ed41b1de01132074", "type": "electric_scooter", "is_reserved": 0, "lon": -77.02282083333333}, {"fusion_lat": 0.0, "name": "ab44629f95dcd7def8f227faf6ca841a", "is_disabled": 0, "rental_uris": {"android": "https://dc.lft.to/lastmile_qr_scan", "ios": "https://dc.lft.to/lastmile_qr_scan"}, "fusion_lon": 0.0, "lat": 38.8836055, "bike_id": "ab44629f95dcd7def8f227faf6ca841a", "type": "electric_scooter", "is_reserved": 0, "lon": -76.98213966666667}, {"fusion_lat": 0.0, "name": "ef7f5b19b2799cdf2fe3f645f4e6a14b", "is_disabled": 0, "rental_uris": {"android": "https://dc.lft.to/lastmile_qr_scan", "ios": "https://dc.lft.to/lastmile_qr_scan"}, "fusion_lon": 0.0, "lat": 38.922475166666665, "bike_id": "ef7f5b19b2799cdf2fe3f645f4e6a14b", "type": "electric_scooter", "is_reserved": 0, "lon": -77.0299635}, {"fusion_lat": 0.0, "name": "cdc0f95d79dc60c0f4c5a6ca4b44349b", "is_disabled": 0, "rental_uris": {"android": "https://dc.lft.to/lastmile_qr_scan", "ios": "https://dc.lft.to/lastmile_qr_scan"}, "fusion_lon": 0.0, "lat": 38.897169833333336, "bike_id": "cdc0f95d79dc60c0f4c5a6ca4b44349b", "type": "electric_scooter", "is_reserved": 0, "lon": -77.00844}, {"fusion_lat": 0.0, "name": "d266dbbbb1a0f452cb6b2fb4a92375e4", "is_disabled": 0, "rental_uris": {"android": "https://dc.lft.to/lastmile_qr_scan", "ios": "https://dc.lft.to/lastmile_qr_scan"}, "fusion_lon": 0.0, "lat": 38.92042633333333, "bike_id": "d266dbbbb1a0f452cb6b2fb4a92375e4", "type": "electric_scooter", "is_reserved": 0, "lon": -77.02362633333334}, {"fusion_lat": 0.0, "name": "11cb958bf0c1cc0226b3ab3db8e2d262", "is_disabled": 0, "rental_uris": {"android": "https://dc.lft.to/lastmile_qr_scan", "ios": "https://dc.lft.to/lastmile_qr_scan"}, "fusion_lon": 0.0, "lat": 38.92364, "bike_id": "11cb958bf0c1cc0226b3ab3db8e2d262", "type": "electric_scooter", "is_reserved": 0, "lon": -77.01956666666666}, {"fusion_lat": 0.0, "name": "2e2db4d661eec1c42d61dc303f6311ef", "is_disabled": 0, "rental_uris": {"android": "https://dc.lft.to/lastmile_qr_scan", "ios": "https://dc.lft.to/lastmile_qr_scan"}, "fusion_lon": 0.0, "lat": 38.889436, "bike_id": "2e2db4d661eec1c42d61dc303f6311ef", "type": "electric_scooter", "is_reserved": 0, "lon": -76.9915825}, {"fusion_lat": 0.0, "name": "2f6b669148500f60d9df58193e098576", "is_disabled": 0, "rental_uris": {"android": "https://dc.lft.to/lastmile_qr_scan", "ios": "https://dc.lft.to/lastmile_qr_scan"}, "fusion_lon": 0.0, "lat": 38.92871366666667, "bike_id": "2f6b669148500f60d9df58193e098576", "type": "electric_scooter", "is_reserved": 0, "lon": -77.05457016666666}, {"fusion_lat": 0.0, "name": "0de34b8e644e25db861512cea27ceddc", "is_disabled": 0, "rental_uris": {"android": "https://dc.lft.to/lastmile_qr_scan", "ios": "https://dc.lft.to/lastmile_qr_scan"}, "fusion_lon": 0.0, "lat": 38.90383583333333, "bike_id": "0de34b8e644e25db861512cea27ceddc", "type": "electric_scooter", "is_reserved": 0, "lon": -77.042741}, {"fusion_lat": 0.0, "name": "1b757d9a7291997eb9849d7bcba684a8", "is_disabled": 0, "rental_uris": {"android": "https://dc.lft.to/lastmile_qr_scan", "ios": "https://dc.lft.to/lastmile_qr_scan"}, "fusion_lon": 0.0, "lat": 38.928354666666664, "bike_id": "1b757d9a7291997eb9849d7bcba684a8", "type": "electric_scooter", "is_reserved": 0, "lon": -77.03272033333333}, {"fusion_lat": 0.0, "name": "eb1291cd26a55ac19c3e7eb154356015", "is_disabled": 0, "rental_uris": {"android": "https://dc.lft.to/lastmile_qr_scan", "ios": "https://dc.lft.to/lastmile_qr_scan"}, "fusion_lon": 0.0, "lat": 38.94161116666667, "bike_id": "eb1291cd26a55ac19c3e7eb154356015", "type": "electric_scooter", "is_reserved": 0, "lon": -77.02500333333333}, {"fusion_lat": 0.0, "name": "8e55a597d59087875b0b8b1394d0de56", "is_disabled": 0, "rental_uris": {"android": "https://dc.lft.to/lastmile_qr_scan", "ios": "https://dc.lft.to/lastmile_qr_scan"}, "fusion_lon": 0.0, "lat": 38.90981716666667, "bike_id": "8e55a597d59087875b0b8b1394d0de56", "type": "electric_scooter", "is_reserved": 0, "lon": -77.04414083333333}, {"fusion_lat": 0.0, "name": "1e5bdb15f2a05c98bf1c7a7a20565a66", "is_disabled": 0, "rental_uris": {"android": "https://dc.lft.to/lastmile_qr_scan", "ios": "https://dc.lft.to/lastmile_qr_scan"}, "fusion_lon": 0.0, "lat": 38.936972, "bike_id": "1e5bdb15f2a05c98bf1c7a7a20565a66", "type": "electric_scooter", "is_reserved": 0, "lon": -77.0328515}, {"fusion_lat": 0.0, "name": "1df71cdc038c0cce6a290fc7cbdaf35c", "is_disabled": 0, "rental_uris": {"android": "https://dc.lft.to/lastmile_qr_scan", "ios": "https://dc.lft.to/lastmile_qr_scan"}, "fusion_lon": 0.0, "lat": 38.86369066666666, "bike_id": "1df71cdc038c0cce6a290fc7cbdaf35c", "type": "electric_bike", "is_reserved": 0, "lon": -76.97017266666667}, {"fusion_lat": 0.0, "name": "57f0822c3bee48e7c8c99c9f0768a932", "is_disabled": 0, "rental_uris": {"android": "https://dc.lft.to/lastmile_qr_scan", "ios": "https://dc.lft.to/lastmile_qr_scan"}, "fusion_lon": 0.0, "lat": 38.919903, "bike_id": "57f0822c3bee48e7c8c99c9f0768a932", "type": "electric_scooter", "is_reserved": 0, "lon": -77.01787233333333}, {"fusion_lat": 0.0, "name": "0944976868ca9d24a8d96a54b596dedd", "is_disabled": 0, "rental_uris": {"android": "https://dc.lft.to/lastmile_qr_scan", "ios": "https://dc.lft.to/lastmile_qr_scan"}, "fusion_lon": 0.0, "lat": 38.91413083333333, "bike_id": "0944976868ca9d24a8d96a54b596dedd", "type": "electric_scooter", "is_reserved": 0, "lon": -77.0093745}, {"fusion_lat": 0.0, "name": "80cc7e1b49391d27e5a09c752e2c9498", "is_disabled": 0, "rental_uris": {"android": "https://dc.lft.to/lastmile_qr_scan", "ios": "https://dc.lft.to/lastmile_qr_scan"}, "fusion_lon": 0.0, "lat": 38.9105495, "bike_id": "80cc7e1b49391d27e5a09c752e2c9498", "type": "electric_scooter", "is_reserved": 0, "lon": -77.0346375}, {"fusion_lat": 0.0, "name": "521f6006d719f3d83bccbd1e778b63bc", "is_disabled": 0, "rental_uris": {"android": "https://dc.lft.to/lastmile_qr_scan", "ios": "https://dc.lft.to/lastmile_qr_scan"}, "fusion_lon": 0.0, "lat": 38.93067516666667, "bike_id": "521f6006d719f3d83bccbd1e778b63bc", "type": "electric_scooter", "is_reserved": 0, "lon": -77.019574}, {"fusion_lat": 0.0, "name": "43f8041d550fa567b54118f84eab7add", "is_disabled": 0, "rental_uris": {"android": "https://dc.lft.to/lastmile_qr_scan", "ios": "https://dc.lft.to/lastmile_qr_scan"}, "fusion_lon": 0.0, "lat": 38.928241666666665, "bike_id": "43f8041d550fa567b54118f84eab7add", "type": "electric_scooter", "is_reserved": 0, "lon": -77.01406633333333}, {"fusion_lat": 0.0, "name": "49fd75f9b67c0222c484178f59c7f110", "is_disabled": 0, "rental_uris": {"android": "https://dc.lft.to/lastmile_qr_scan", "ios": "https://dc.lft.to/lastmile_qr_scan"}, "fusion_lon": 0.0, "lat": 38.898376999999996, "bike_id": "49fd75f9b67c0222c484178f59c7f110", "type": "electric_scooter", "is_reserved": 0, "lon": -77.04102966666666}, {"fusion_lat": 0.0, "name": "defc50d02080425caaf16b233867d860", "is_disabled": 0, "rental_uris": {"android": "https://dc.lft.to/lastmile_qr_scan", "ios": "https://dc.lft.to/lastmile_qr_scan"}, "fusion_lon": 0.0, "lat": 38.928278666666664, "bike_id": "defc50d02080425caaf16b233867d860", "type": "electric_scooter", "is_reserved": 0, "lon": -77.05442683333334}, {"fusion_lat": 0.0, "name": "8f4e349bd63838f6f06978458669cd25", "is_disabled": 0, "rental_uris": {"android": "https://dc.lft.to/lastmile_qr_scan", "ios": "https://dc.lft.to/lastmile_qr_scan"}, "fusion_lon": 0.0, "lat": 38.92216716666667, "bike_id": "8f4e349bd63838f6f06978458669cd25", "type": "electric_bike", "is_reserved": 0, "lon": -77.20136366666667}, {"fusion_lat": 0.0, "name": "744455a1ba9a78db0de864fda0eca0ca", "is_disabled": 0, "rental_uris": {"android": "https://dc.lft.to/lastmile_qr_scan", "ios": "https://dc.lft.to/lastmile_qr_scan"}, "fusion_lon": 0.0, "lat": 38.893985, "bike_id": "744455a1ba9a78db0de864fda0eca0ca", "type": "electric_scooter", "is_reserved": 0, "lon": -76.994906}, {"fusion_lat": 0.0, "name": "d5fe3346cc6bfbd387abfae0d3fb9e6c", "is_disabled": 0, "rental_uris": {"android": "https://dc.lft.to/lastmile_qr_scan", "ios": "https://dc.lft.to/lastmile_qr_scan"}, "fusion_lon": 0.0, "lat": 38.941888, "bike_id": "d5fe3346cc6bfbd387abfae0d3fb9e6c", "type": "electric_scooter", "is_reserved": 0, "lon": -77.0259075}, {"fusion_lat": 0.0, "name": "63bc9c36e75ae6c713c43d0cddbdf96b", "is_disabled": 0, "rental_uris": {"android": "https://dc.lft.to/lastmile_qr_scan", "ios": "https://dc.lft.to/lastmile_qr_scan"}, "fusion_lon": 0.0, "lat": 38.900703, "bike_id": "63bc9c36e75ae6c713c43d0cddbdf96b", "type": "electric_scooter", "is_reserved": 0, "lon": -77.022601}, {"fusion_lat": 0.0, "name": "9746602987ef0b70173f6f83f0bdb71a", "is_disabled": 0, "rental_uris": {"android": "https://dc.lft.to/lastmile_qr_scan", "ios": "https://dc.lft.to/lastmile_qr_scan"}, "fusion_lon": 0.0, "lat": 38.96406116666667, "bike_id": "9746602987ef0b70173f6f83f0bdb71a", "type": "electric_scooter", "is_reserved": 0, "lon": -77.07534683333333}, {"fusion_lat": 0.0, "name": "dcf8b8645fa352f387f089b23eacd5ed", "is_disabled": 0, "rental_uris": {"android": "https://dc.lft.to/lastmile_qr_scan", "ios": "https://dc.lft.to/lastmile_qr_scan"}, "fusion_lon": 0.0, "lat": 38.922967666666665, "bike_id": "dcf8b8645fa352f387f089b23eacd5ed", "type": "electric_scooter", "is_reserved": 0, "lon": -77.04177066666666}, {"fusion_lat": 0.0, "name": "7dde84f2704e8a7fa63b0cd4e528d700", "is_disabled": 0, "rental_uris": {"android": "https://dc.lft.to/lastmile_qr_scan", "ios": "https://dc.lft.to/lastmile_qr_scan"}, "fusion_lon": 0.0, "lat": 38.91414616666667, "bike_id": "7dde84f2704e8a7fa63b0cd4e528d700", "type": "electric_scooter", "is_reserved": 0, "lon": -77.03893333333333}, {"fusion_lat": 0.0, "name": "06a706791bdc084eebda064db1652d0d", "is_disabled": 0, "rental_uris": {"android": "https://dc.lft.to/lastmile_qr_scan", "ios": "https://dc.lft.to/lastmile_qr_scan"}, "fusion_lon": 0.0, "lat": 38.936992833333335, "bike_id": "06a706791bdc084eebda064db1652d0d", "type": "electric_scooter", "is_reserved": 0, "lon": -77.03283583333334}, {"fusion_lat": 0.0, "name": "7439b32719dedc6eaa6e71aa9d409b2a", "is_disabled": 0, "rental_uris": {"android": "https://dc.lft.to/lastmile_qr_scan", "ios": "https://dc.lft.to/lastmile_qr_scan"}, "fusion_lon": 0.0, "lat": 38.866816, "bike_id": "7439b32719dedc6eaa6e71aa9d409b2a", "type": "electric_scooter", "is_reserved": 0, "lon": -76.985636}, {"fusion_lat": 0.0, "name": "ee89c4814fb493d81d008f70c89a4aec", "is_disabled": 0, "rental_uris": {"android": "https://dc.lft.to/lastmile_qr_scan", "ios": "https://dc.lft.to/lastmile_qr_scan"}, "fusion_lon": 0.0, "lat": 38.93526833333333, "bike_id": "ee89c4814fb493d81d008f70c89a4aec", "type": "electric_scooter", "is_reserved": 0, "lon": -77.036557}, {"fusion_lat": 0.0, "name": "3a3a153f4e69cfcb7590ebe1faa62b96", "is_disabled": 0, "rental_uris": {"android": "https://dc.lft.to/lastmile_qr_scan", "ios": "https://dc.lft.to/lastmile_qr_scan"}, "fusion_lon": 0.0, "lat": 38.89864216666667, "bike_id": "3a3a153f4e69cfcb7590ebe1faa62b96", "type": "electric_scooter", "is_reserved": 0, "lon": -76.94637783333333}, {"fusion_lat": 0.0, "name": "810557b76c9e9c394168e5bb9551df1c", "is_disabled": 0, "rental_uris": {"android": "https://dc.lft.to/lastmile_qr_scan", "ios": "https://dc.lft.to/lastmile_qr_scan"}, "fusion_lon": 0.0, "lat": 38.900035333333335, "bike_id": "810557b76c9e9c394168e5bb9551df1c", "type": "electric_scooter", "is_reserved": 0, "lon": -77.006877}, {"fusion_lat": 0.0, "name": "3c20162609f784d521878f069c9051e2", "is_disabled": 0, "rental_uris": {"android": "https://dc.lft.to/lastmile_qr_scan", "ios": "https://dc.lft.to/lastmile_qr_scan"}, "fusion_lon": 0.0, "lat": 38.9225115, "bike_id": "3c20162609f784d521878f069c9051e2", "type": "electric_scooter", "is_reserved": 0, "lon": -77.0420535}, {"fusion_lat": 0.0, "name": "30bd37caf910e697490c0db7944148b8", "is_disabled": 0, "rental_uris": {"android": "https://dc.lft.to/lastmile_qr_scan", "ios": "https://dc.lft.to/lastmile_qr_scan"}, "fusion_lon": 0.0, "lat": 38.842795, "bike_id": "30bd37caf910e697490c0db7944148b8", "type": "electric_bike", "is_reserved": 0, "lon": -77.04504216666666}, {"fusion_lat": 0.0, "name": "bf89691fedbe0c45378bd9889b23076d", "is_disabled": 0, "rental_uris": {"android": "https://dc.lft.to/lastmile_qr_scan", "ios": "https://dc.lft.to/lastmile_qr_scan"}, "fusion_lon": 0.0, "lat": 38.89735133333333, "bike_id": "bf89691fedbe0c45378bd9889b23076d", "type": "electric_scooter", "is_reserved": 0, "lon": -77.04347583333333}, {"fusion_lat": 0.0, "name": "5f4d1882b93704aee976cf389e9c8596", "is_disabled": 0, "rental_uris": {"android": "https://dc.lft.to/lastmile_qr_scan", "ios": "https://dc.lft.to/lastmile_qr_scan"}, "fusion_lon": 0.0, "lat": 38.9282435, "bike_id": "5f4d1882b93704aee976cf389e9c8596", "type": "electric_scooter", "is_reserved": 0, "lon": -77.032815}, {"fusion_lat": 0.0, "name": "ab0f364dd22fbfe8511395a680482e08", "is_disabled": 0, "rental_uris": {"android": "https://dc.lft.to/lastmile_qr_scan", "ios": "https://dc.lft.to/lastmile_qr_scan"}, "fusion_lon": 0.0, "lat": 38.93459266666667, "bike_id": "ab0f364dd22fbfe8511395a680482e08", "type": "electric_scooter", "is_reserved": 0, "lon": -77.04118766666667}, {"fusion_lat": 0.0, "name": "07a195d4bf441f766633b5be3d8ca2eb", "is_disabled": 0, "rental_uris": {"android": "https://dc.lft.to/lastmile_qr_scan", "ios": "https://dc.lft.to/lastmile_qr_scan"}, "fusion_lon": 0.0, "lat": 38.913638166666665, "bike_id": "07a195d4bf441f766633b5be3d8ca2eb", "type": "electric_scooter", "is_reserved": 0, "lon": -77.04561383333333}, {"fusion_lat": 0.0, "name": "44cf4b135e3a590a7f5c956f556ce601", "is_disabled": 0, "rental_uris": {"android": "https://dc.lft.to/lastmile_qr_scan", "ios": "https://dc.lft.to/lastmile_qr_scan"}, "fusion_lon": 0.0, "lat": 38.884850666666665, "bike_id": "44cf4b135e3a590a7f5c956f556ce601", "type": "electric_scooter", "is_reserved": 0, "lon": -77.0070225}, {"fusion_lat": 0.0, "name": "b9967bfd90d68c31f8589751e5e9715d", "is_disabled": 0, "rental_uris": {"android": "https://dc.lft.to/lastmile_qr_scan", "ios": "https://dc.lft.to/lastmile_qr_scan"}, "fusion_lon": 0.0, "lat": 39.07049166666667, "bike_id": "b9967bfd90d68c31f8589751e5e9715d", "type": "electric_bike", "is_reserved": 0, "lon": -77.11482216666667}, {"fusion_lat": 0.0, "name": "e1dd94fe48bebf029273e3919cc71116", "is_disabled": 0, "rental_uris": {"android": "https://dc.lft.to/lastmile_qr_scan", "ios": "https://dc.lft.to/lastmile_qr_scan"}, "fusion_lon": 0.0, "lat": 38.8990285, "bike_id": "e1dd94fe48bebf029273e3919cc71116", "type": "electric_scooter", "is_reserved": 0, "lon": -76.92738216666666}, {"fusion_lat": 0.0, "name": "ca9483e102df489e9b76d8ffda2afad1", "is_disabled": 0, "rental_uris": {"android": "https://dc.lft.to/lastmile_qr_scan", "ios": "https://dc.lft.to/lastmile_qr_scan"}, "fusion_lon": 0.0, "lat": 38.94534266666667, "bike_id": "ca9483e102df489e9b76d8ffda2afad1", "type": "electric_scooter", "is_reserved": 0, "lon": -77.02529633333333}, {"fusion_lat": 0.0, "name": "d73e43c1e26f5cd24e5d3b8edce44cb8", "is_disabled": 0, "rental_uris": {"android": "https://dc.lft.to/lastmile_qr_scan", "ios": "https://dc.lft.to/lastmile_qr_scan"}, "fusion_lon": 0.0, "lat": 38.86580766666667, "bike_id": "d73e43c1e26f5cd24e5d3b8edce44cb8", "type": "electric_scooter", "is_reserved": 0, "lon": -76.98931333333333}, {"fusion_lat": 0.0, "name": "d54c30d141672efd1fb9c3474dd0f6bb", "is_disabled": 0, "rental_uris": {"android": "https://dc.lft.to/lastmile_qr_scan", "ios": "https://dc.lft.to/lastmile_qr_scan"}, "fusion_lon": 0.0, "lat": 38.89958, "bike_id": "d54c30d141672efd1fb9c3474dd0f6bb", "type": "electric_scooter", "is_reserved": 0, "lon": -77.01621433333334}, {"fusion_lat": 0.0, "name": "6c3c3e31124461e4865c9908b8882b92", "is_disabled": 0, "rental_uris": {"android": "https://dc.lft.to/lastmile_qr_scan", "ios": "https://dc.lft.to/lastmile_qr_scan"}, "fusion_lon": 0.0, "lat": 38.88296783333333, "bike_id": "6c3c3e31124461e4865c9908b8882b92", "type": "electric_scooter", "is_reserved": 0, "lon": -76.94855383333334}, {"fusion_lat": 0.0, "name": "2a5744827375a7c724a803a1e4961609", "is_disabled": 0, "rental_uris": {"android": "https://dc.lft.to/lastmile_qr_scan", "ios": "https://dc.lft.to/lastmile_qr_scan"}, "fusion_lon": 0.0, "lat": 38.873966, "bike_id": "2a5744827375a7c724a803a1e4961609", "type": "electric_scooter", "is_reserved": 0, "lon": -77.00069983333333}, {"fusion_lat": 0.0, "name": "7de008b3eb02e88dbbb1964fe8d18c73", "is_disabled": 0, "rental_uris": {"android": "https://dc.lft.to/lastmile_qr_scan", "ios": "https://dc.lft.to/lastmile_qr_scan"}, "fusion_lon": 0.0, "lat": 38.884231666666665, "bike_id": "7de008b3eb02e88dbbb1964fe8d18c73", "type": "electric_scooter", "is_reserved": 0, "lon": -76.98570183333334}, {"fusion_lat": 0.0, "name": "4223e04fd55c72e179bb9916ed370c34", "is_disabled": 0, "rental_uris": {"android": "https://dc.lft.to/lastmile_qr_scan", "ios": "https://dc.lft.to/lastmile_qr_scan"}, "fusion_lon": 0.0, "lat": 38.89232416666667, "bike_id": "4223e04fd55c72e179bb9916ed370c34", "type": "electric_scooter", "is_reserved": 0, "lon": -77.04162683333334}, {"fusion_lat": 0.0, "name": "e6d7a354f327b0562f88ba627d47e247", "is_disabled": 0, "rental_uris": {"android": "https://dc.lft.to/lastmile_qr_scan", "ios": "https://dc.lft.to/lastmile_qr_scan"}, "fusion_lon": 0.0, "lat": 38.900447666666665, "bike_id": "e6d7a354f327b0562f88ba627d47e247", "type": "electric_scooter", "is_reserved": 0, "lon": -76.9990245}, {"fusion_lat": 0.0, "name": "b46e14a7b6e8f5a37a48a58727de1b03", "is_disabled": 0, "rental_uris": {"android": "https://dc.lft.to/lastmile_qr_scan", "ios": "https://dc.lft.to/lastmile_qr_scan"}, "fusion_lon": 0.0, "lat": 38.885171166666666, "bike_id": "b46e14a7b6e8f5a37a48a58727de1b03", "type": "electric_scooter", "is_reserved": 0, "lon": -77.01528583333334}, {"fusion_lat": 0.0, "name": "ef34817a540792e5f5925d34cd86d906", "is_disabled": 0, "rental_uris": {"android": "https://dc.lft.to/lastmile_qr_scan", "ios": "https://dc.lft.to/lastmile_qr_scan"}, "fusion_lon": 0.0, "lat": 38.914229, "bike_id": "ef34817a540792e5f5925d34cd86d906", "type": "electric_scooter", "is_reserved": 0, "lon": -77.064198}, {"fusion_lat": 0.0, "name": "386806a96b46944c503ea41ed6749eb8", "is_disabled": 0, "rental_uris": {"android": "https://dc.lft.to/lastmile_qr_scan", "ios": "https://dc.lft.to/lastmile_qr_scan"}, "fusion_lon": 0.0, "lat": 38.94172783333333, "bike_id": "386806a96b46944c503ea41ed6749eb8", "type": "electric_scooter", "is_reserved": 0, "lon": -77.0326605}, {"fusion_lat": 0.0, "name": "b15a53359b9103ad8b42deb7c1d0857d", "is_disabled": 0, "rental_uris": {"android": "https://dc.lft.to/lastmile_qr_scan", "ios": "https://dc.lft.to/lastmile_qr_scan"}, "fusion_lon": 0.0, "lat": 38.88741, "bike_id": "b15a53359b9103ad8b42deb7c1d0857d", "type": "electric_scooter", "is_reserved": 0, "lon": -77.01779216666667}, {"fusion_lat": 0.0, "name": "0eb1d1a65d0f6d9b3dab3a096feb77f5", "is_disabled": 0, "rental_uris": {"android": "https://dc.lft.to/lastmile_qr_scan", "ios": "https://dc.lft.to/lastmile_qr_scan"}, "fusion_lon": 0.0, "lat": 38.896426166666664, "bike_id": "0eb1d1a65d0f6d9b3dab3a096feb77f5", "type": "electric_scooter", "is_reserved": 0, "lon": -76.99946216666666}, {"fusion_lat": 0.0, "name": "36e83a56c40267978a59154f75fb8634", "is_disabled": 0, "rental_uris": {"android": "https://dc.lft.to/lastmile_qr_scan", "ios": "https://dc.lft.to/lastmile_qr_scan"}, "fusion_lon": 0.0, "lat": 38.87455833333333, "bike_id": "36e83a56c40267978a59154f75fb8634", "type": "electric_scooter", "is_reserved": 0, "lon": -77.00970983333333}, {"fusion_lat": 0.0, "name": "4d93f78e8221c4e6b0625e7ed1e3aa01", "is_disabled": 0, "rental_uris": {"android": "https://dc.lft.to/lastmile_qr_scan", "ios": "https://dc.lft.to/lastmile_qr_scan"}, "fusion_lon": 0.0, "lat": 38.92650316666667, "bike_id": "4d93f78e8221c4e6b0625e7ed1e3aa01", "type": "electric_scooter", "is_reserved": 0, "lon": -77.0372095}, {"fusion_lat": 0.0, "name": "6ead5d7fbf8fc5c4323edf11bbd93acb", "is_disabled": 0, "rental_uris": {"android": "https://dc.lft.to/lastmile_qr_scan", "ios": "https://dc.lft.to/lastmile_qr_scan"}, "fusion_lon": 0.0, "lat": 38.860548666666666, "bike_id": "6ead5d7fbf8fc5c4323edf11bbd93acb", "type": "electric_scooter", "is_reserved": 0, "lon": -76.98502716666667}, {"fusion_lat": 0.0, "name": "f0ba85719abd06d203178c636ed38288", "is_disabled": 0, "rental_uris": {"android": "https://dc.lft.to/lastmile_qr_scan", "ios": "https://dc.lft.to/lastmile_qr_scan"}, "fusion_lon": 0.0, "lat": 38.920759833333335, "bike_id": "f0ba85719abd06d203178c636ed38288", "type": "electric_bike", "is_reserved": 0, "lon": -76.98947333333334}, {"fusion_lat": 0.0, "name": "08b6a89fba4fb9126ec8a8d2e727272d", "is_disabled": 0, "rental_uris": {"android": "https://dc.lft.to/lastmile_qr_scan", "ios": "https://dc.lft.to/lastmile_qr_scan"}, "fusion_lon": 0.0, "lat": 38.910659, "bike_id": "08b6a89fba4fb9126ec8a8d2e727272d", "type": "electric_scooter", "is_reserved": 0, "lon": -77.0218465}, {"fusion_lat": 0.0, "name": "fa1f8ad7437e4f5f67075c9501dda376", "is_disabled": 0, "rental_uris": {"android": "https://dc.lft.to/lastmile_qr_scan", "ios": "https://dc.lft.to/lastmile_qr_scan"}, "fusion_lon": 0.0, "lat": 38.88398466666666, "bike_id": "fa1f8ad7437e4f5f67075c9501dda376", "type": "electric_scooter", "is_reserved": 0, "lon": -76.985888}, {"fusion_lat": 0.0, "name": "8e5953795316e0518a161dabe5c580d8", "is_disabled": 0, "rental_uris": {"android": "https://dc.lft.to/lastmile_qr_scan", "ios": "https://dc.lft.to/lastmile_qr_scan"}, "fusion_lon": 0.0, "lat": 38.90236433333333, "bike_id": "8e5953795316e0518a161dabe5c580d8", "type": "electric_scooter", "is_reserved": 0, "lon": -77.00201583333333}, {"fusion_lat": 0.0, "name": "916ccaa6156ee5ea583080346dcfe5f4", "is_disabled": 0, "rental_uris": {"android": "https://dc.lft.to/lastmile_qr_scan", "ios": "https://dc.lft.to/lastmile_qr_scan"}, "fusion_lon": 0.0, "lat": 38.915743, "bike_id": "916ccaa6156ee5ea583080346dcfe5f4", "type": "electric_scooter", "is_reserved": 0, "lon": -77.03195333333333}, {"fusion_lat": 0.0, "name": "85c5030eb187c0f3665895d9b72b791f", "is_disabled": 0, "rental_uris": {"android": "https://dc.lft.to/lastmile_qr_scan", "ios": "https://dc.lft.to/lastmile_qr_scan"}, "fusion_lon": 0.0, "lat": 38.98499483333333, "bike_id": "85c5030eb187c0f3665895d9b72b791f", "type": "electric_bike", "is_reserved": 0, "lon": -76.98208133333333}, {"fusion_lat": 0.0, "name": "1bd6fc5d7a3212cd3dd6c2afa3e41103", "is_disabled": 0, "rental_uris": {"android": "https://dc.lft.to/lastmile_qr_scan", "ios": "https://dc.lft.to/lastmile_qr_scan"}, "fusion_lon": 0.0, "lat": 38.89736033333333, "bike_id": "1bd6fc5d7a3212cd3dd6c2afa3e41103", "type": "electric_scooter", "is_reserved": 0, "lon": -77.03197233333333}, {"fusion_lat": 0.0, "name": "6be4e2bb2a0a44b733554f2a8beb8d81", "is_disabled": 0, "rental_uris": {"android": "https://dc.lft.to/lastmile_qr_scan", "ios": "https://dc.lft.to/lastmile_qr_scan"}, "fusion_lon": 0.0, "lat": 38.8845605, "bike_id": "6be4e2bb2a0a44b733554f2a8beb8d81", "type": "electric_scooter", "is_reserved": 0, "lon": -76.99640516666666}, {"fusion_lat": 0.0, "name": "28308e74176dcecfc023c073113e3e6f", "is_disabled": 0, "rental_uris": {"android": "https://dc.lft.to/lastmile_qr_scan", "ios": "https://dc.lft.to/lastmile_qr_scan"}, "fusion_lon": 0.0, "lat": 38.88231183333333, "bike_id": "28308e74176dcecfc023c073113e3e6f", "type": "electric_scooter", "is_reserved": 0, "lon": -77.0261625}, {"fusion_lat": 0.0, "name": "4abeb381517fd9ee0d0c6a29153c8080", "is_disabled": 0, "rental_uris": {"android": "https://dc.lft.to/lastmile_qr_scan", "ios": "https://dc.lft.to/lastmile_qr_scan"}, "fusion_lon": 0.0, "lat": 38.90970733333333, "bike_id": "4abeb381517fd9ee0d0c6a29153c8080", "type": "electric_scooter", "is_reserved": 0, "lon": -77.0371075}, {"fusion_lat": 0.0, "name": "3804611456238175d073059ca53c4be0", "is_disabled": 0, "rental_uris": {"android": "https://dc.lft.to/lastmile_qr_scan", "ios": "https://dc.lft.to/lastmile_qr_scan"}, "fusion_lon": 0.0, "lat": 38.871739166666664, "bike_id": "3804611456238175d073059ca53c4be0", "type": "electric_scooter", "is_reserved": 0, "lon": -77.00605183333333}, {"fusion_lat": 0.0, "name": "bd3cb9707670f3ce04b56559ecae3e6d", "is_disabled": 0, "rental_uris": {"android": "https://dc.lft.to/lastmile_qr_scan", "ios": "https://dc.lft.to/lastmile_qr_scan"}, "fusion_lon": 0.0, "lat": 38.900108333333336, "bike_id": "bd3cb9707670f3ce04b56559ecae3e6d", "type": "electric_scooter", "is_reserved": 0, "lon": -77.04461816666667}, {"fusion_lat": 0.0, "name": "f4ab6079133a4e37c20f94a4eff9859b", "is_disabled": 0, "rental_uris": {"android": "https://dc.lft.to/lastmile_qr_scan", "ios": "https://dc.lft.to/lastmile_qr_scan"}, "fusion_lon": 0.0, "lat": 38.887474, "bike_id": "f4ab6079133a4e37c20f94a4eff9859b", "type": "electric_scooter", "is_reserved": 0, "lon": -76.99837766666667}, {"fusion_lat": 0.0, "name": "91d748fdd40f78220d60b424a39fa34c", "is_disabled": 0, "rental_uris": {"android": "https://dc.lft.to/lastmile_qr_scan", "ios": "https://dc.lft.to/lastmile_qr_scan"}, "fusion_lon": 0.0, "lat": 38.9250015, "bike_id": "91d748fdd40f78220d60b424a39fa34c", "type": "electric_bike", "is_reserved": 0, "lon": -77.05755166666667}, {"fusion_lat": 0.0, "name": "026829e34c9f3fdd76804304f87ab2ea", "is_disabled": 0, "rental_uris": {"android": "https://dc.lft.to/lastmile_qr_scan", "ios": "https://dc.lft.to/lastmile_qr_scan"}, "fusion_lon": 0.0, "lat": 38.8843445, "bike_id": "026829e34c9f3fdd76804304f87ab2ea", "type": "electric_scooter", "is_reserved": 0, "lon": -76.9959415}, {"fusion_lat": 0.0, "name": "5152487f795e62c049f3483ef63123e5", "is_disabled": 0, "rental_uris": {"android": "https://dc.lft.to/lastmile_qr_scan", "ios": "https://dc.lft.to/lastmile_qr_scan"}, "fusion_lon": 0.0, "lat": 38.911092833333335, "bike_id": "5152487f795e62c049f3483ef63123e5", "type": "electric_scooter", "is_reserved": 0, "lon": -77.03172816666667}, {"fusion_lat": 0.0, "name": "a4ff9fc76b985f8fcbd3bb7590714785", "is_disabled": 0, "rental_uris": {"android": "https://dc.lft.to/lastmile_qr_scan", "ios": "https://dc.lft.to/lastmile_qr_scan"}, "fusion_lon": 0.0, "lat": 38.907768833333336, "bike_id": "a4ff9fc76b985f8fcbd3bb7590714785", "type": "electric_scooter", "is_reserved": 0, "lon": -77.0097465}, {"fusion_lat": 0.0, "name": "358ade6fcebbbcce64998afe247fa301", "is_disabled": 0, "rental_uris": {"android": "https://dc.lft.to/lastmile_qr_scan", "ios": "https://dc.lft.to/lastmile_qr_scan"}, "fusion_lon": 0.0, "lat": 38.904067166666664, "bike_id": "358ade6fcebbbcce64998afe247fa301", "type": "electric_scooter", "is_reserved": 0, "lon": -76.97331516666667}, {"fusion_lat": 0.0, "name": "f15beb540b63f545e80f749028603368", "is_disabled": 0, "rental_uris": {"android": "https://dc.lft.to/lastmile_qr_scan", "ios": "https://dc.lft.to/lastmile_qr_scan"}, "fusion_lon": 0.0, "lat": 38.910331166666666, "bike_id": "f15beb540b63f545e80f749028603368", "type": "electric_scooter", "is_reserved": 0, "lon": -77.06423716666667}, {"fusion_lat": 0.0, "name": "8a0e710554053b31b5bbe3cbbe6b7090", "is_disabled": 0, "rental_uris": {"android": "https://dc.lft.to/lastmile_qr_scan", "ios": "https://dc.lft.to/lastmile_qr_scan"}, "fusion_lon": 0.0, "lat": 38.98764233333333, "bike_id": "8a0e710554053b31b5bbe3cbbe6b7090", "type": "electric_bike", "is_reserved": 0, "lon": -77.14053866666667}, {"fusion_lat": 0.0, "name": "dd32c50a4f4c1f8e8ff19090e1bbe4d5", "is_disabled": 0, "rental_uris": {"android": "https://dc.lft.to/lastmile_qr_scan", "ios": "https://dc.lft.to/lastmile_qr_scan"}, "fusion_lon": 0.0, "lat": 38.9031935, "bike_id": "dd32c50a4f4c1f8e8ff19090e1bbe4d5", "type": "electric_scooter", "is_reserved": 0, "lon": -77.02878116666666}, {"fusion_lat": 0.0, "name": "be1287c1c711e1ff2d1df3ea7b1353e6", "is_disabled": 0, "rental_uris": {"android": "https://dc.lft.to/lastmile_qr_scan", "ios": "https://dc.lft.to/lastmile_qr_scan"}, "fusion_lon": 0.0, "lat": 38.905182833333335, "bike_id": "be1287c1c711e1ff2d1df3ea7b1353e6", "type": "electric_scooter", "is_reserved": 0, "lon": -77.0629885}, {"fusion_lat": 0.0, "name": "ec77732e50fa7aa7f9d31d600ca9a21a", "is_disabled": 0, "rental_uris": {"android": "https://dc.lft.to/lastmile_qr_scan", "ios": "https://dc.lft.to/lastmile_qr_scan"}, "fusion_lon": 0.0, "lat": 38.896628, "bike_id": "ec77732e50fa7aa7f9d31d600ca9a21a", "type": "electric_scooter", "is_reserved": 0, "lon": -77.02470883333334}, {"fusion_lat": 0.0, "name": "fbae7b6687c1f4eec192c0a24e09eada", "is_disabled": 0, "rental_uris": {"android": "https://dc.lft.to/lastmile_qr_scan", "ios": "https://dc.lft.to/lastmile_qr_scan"}, "fusion_lon": 0.0, "lat": 38.872442666666664, "bike_id": "fbae7b6687c1f4eec192c0a24e09eada", "type": "electric_scooter", "is_reserved": 0, "lon": -76.97731}, {"fusion_lat": 0.0, "name": "19bfdbf11a528e44b5f098ab4e4e30d8", "is_disabled": 0, "rental_uris": {"android": "https://dc.lft.to/lastmile_qr_scan", "ios": "https://dc.lft.to/lastmile_qr_scan"}, "fusion_lon": 0.0, "lat": 38.89734983333334, "bike_id": "19bfdbf11a528e44b5f098ab4e4e30d8", "type": "electric_scooter", "is_reserved": 0, "lon": -77.043587}, {"fusion_lat": 0.0, "name": "31f73e26cf5816947b098edb881bce20", "is_disabled": 0, "rental_uris": {"android": "https://dc.lft.to/lastmile_qr_scan", "ios": "https://dc.lft.to/lastmile_qr_scan"}, "fusion_lon": 0.0, "lat": 38.916864, "bike_id": "31f73e26cf5816947b098edb881bce20", "type": "electric_scooter", "is_reserved": 0, "lon": -77.03593283333333}, {"fusion_lat": 0.0, "name": "11c18e695b86e2ef19e8990619cc458b", "is_disabled": 0, "rental_uris": {"android": "https://dc.lft.to/lastmile_qr_scan", "ios": "https://dc.lft.to/lastmile_qr_scan"}, "fusion_lon": 0.0, "lat": 38.91005283333333, "bike_id": "11c18e695b86e2ef19e8990619cc458b", "type": "electric_scooter", "is_reserved": 0, "lon": -76.99410883333333}, {"fusion_lat": 0.0, "name": "86958dab5db71da3d52fdf299e02ebda", "is_disabled": 0, "rental_uris": {"android": "https://dc.lft.to/lastmile_qr_scan", "ios": "https://dc.lft.to/lastmile_qr_scan"}, "fusion_lon": 0.0, "lat": 38.942258333333335, "bike_id": "86958dab5db71da3d52fdf299e02ebda", "type": "electric_scooter", "is_reserved": 0, "lon": -77.01388066666667}, {"fusion_lat": 0.0, "name": "966dd9415b70f9d15e958b2dce1041a7", "is_disabled": 0, "rental_uris": {"android": "https://dc.lft.to/lastmile_qr_scan", "ios": "https://dc.lft.to/lastmile_qr_scan"}, "fusion_lon": 0.0, "lat": 38.90569583333333, "bike_id": "966dd9415b70f9d15e958b2dce1041a7", "type": "electric_scooter", "is_reserved": 0, "lon": -77.05147533333333}, {"fusion_lat": 0.0, "name": "714e213ff08fb51216cc2c9e161ca118", "is_disabled": 0, "rental_uris": {"android": "https://dc.lft.to/lastmile_qr_scan", "ios": "https://dc.lft.to/lastmile_qr_scan"}, "fusion_lon": 0.0, "lat": 38.885273, "bike_id": "714e213ff08fb51216cc2c9e161ca118", "type": "electric_scooter", "is_reserved": 0, "lon": -77.0152185}, {"fusion_lat": 0.0, "name": "0528d9ec87e8924a2007c02f1e491c42", "is_disabled": 0, "rental_uris": {"android": "https://dc.lft.to/lastmile_qr_scan", "ios": "https://dc.lft.to/lastmile_qr_scan"}, "fusion_lon": 0.0, "lat": 38.937114, "bike_id": "0528d9ec87e8924a2007c02f1e491c42", "type": "electric_scooter", "is_reserved": 0, "lon": -77.02467516666667}, {"fusion_lat": 0.0, "name": "f01606b36331bf157682c0f8260bd1b0", "is_disabled": 0, "rental_uris": {"android": "https://dc.lft.to/lastmile_qr_scan", "ios": "https://dc.lft.to/lastmile_qr_scan"}, "fusion_lon": 0.0, "lat": 38.9021535, "bike_id": "f01606b36331bf157682c0f8260bd1b0", "type": "electric_scooter", "is_reserved": 0, "lon": -77.05951933333333}, {"fusion_lat": 0.0, "name": "85c6f38700212068cb5fed778b523853", "is_disabled": 0, "rental_uris": {"android": "https://dc.lft.to/lastmile_qr_scan", "ios": "https://dc.lft.to/lastmile_qr_scan"}, "fusion_lon": 0.0, "lat": 38.883656, "bike_id": "85c6f38700212068cb5fed778b523853", "type": "electric_scooter", "is_reserved": 0, "lon": -76.99572916666666}, {"fusion_lat": 0.0, "name": "e6da6be44a4cb6e3c041888c0d71522f", "is_disabled": 0, "rental_uris": {"android": "https://dc.lft.to/lastmile_qr_scan", "ios": "https://dc.lft.to/lastmile_qr_scan"}, "fusion_lon": 0.0, "lat": 38.917982, "bike_id": "e6da6be44a4cb6e3c041888c0d71522f", "type": "electric_scooter", "is_reserved": 0, "lon": -77.04438183333333}, {"fusion_lat": 0.0, "name": "dd2df0e0e068134f853a446d61f69716", "is_disabled": 0, "rental_uris": {"android": "https://dc.lft.to/lastmile_qr_scan", "ios": "https://dc.lft.to/lastmile_qr_scan"}, "fusion_lon": 0.0, "lat": 38.916413166666665, "bike_id": "dd2df0e0e068134f853a446d61f69716", "type": "electric_scooter", "is_reserved": 0, "lon": -77.03180383333333}, {"fusion_lat": 0.0, "name": "a9c76b844e7d4377371a820dcad1d68f", "is_disabled": 0, "rental_uris": {"android": "https://dc.lft.to/lastmile_qr_scan", "ios": "https://dc.lft.to/lastmile_qr_scan"}, "fusion_lon": 0.0, "lat": 38.920753166666664, "bike_id": "a9c76b844e7d4377371a820dcad1d68f", "type": "electric_bike", "is_reserved": 0, "lon": -76.989453}, {"fusion_lat": 0.0, "name": "5502897f5040ea761f5b160f10d8a61c", "is_disabled": 0, "rental_uris": {"android": "https://dc.lft.to/lastmile_qr_scan", "ios": "https://dc.lft.to/lastmile_qr_scan"}, "fusion_lon": 0.0, "lat": 38.936440166666664, "bike_id": "5502897f5040ea761f5b160f10d8a61c", "type": "electric_scooter", "is_reserved": 0, "lon": -77.030571}, {"fusion_lat": 0.0, "name": "15292d1c4028f8b962d44a824ca00450", "is_disabled": 0, "rental_uris": {"android": "https://dc.lft.to/lastmile_qr_scan", "ios": "https://dc.lft.to/lastmile_qr_scan"}, "fusion_lon": 0.0, "lat": 38.92357233333333, "bike_id": "15292d1c4028f8b962d44a824ca00450", "type": "electric_scooter", "is_reserved": 0, "lon": -77.05045716666666}, {"fusion_lat": 0.0, "name": "1f18b066ed37059ea61e1f605f05267d", "is_disabled": 0, "rental_uris": {"android": "https://dc.lft.to/lastmile_qr_scan", "ios": "https://dc.lft.to/lastmile_qr_scan"}, "fusion_lon": 0.0, "lat": 38.89221933333334, "bike_id": "1f18b066ed37059ea61e1f605f05267d", "type": "electric_scooter", "is_reserved": 0, "lon": -77.032225}, {"fusion_lat": 0.0, "name": "16ec82fad7e814fbb374e87c4024ec36", "is_disabled": 0, "rental_uris": {"android": "https://dc.lft.to/lastmile_qr_scan", "ios": "https://dc.lft.to/lastmile_qr_scan"}, "fusion_lon": 0.0, "lat": 38.903979666666665, "bike_id": "16ec82fad7e814fbb374e87c4024ec36", "type": "electric_scooter", "is_reserved": 0, "lon": -77.06149583333334}, {"fusion_lat": 0.0, "name": "a2b1e42653b08e00a91beab6bc2299bd", "is_disabled": 0, "rental_uris": {"android": "https://dc.lft.to/lastmile_qr_scan", "ios": "https://dc.lft.to/lastmile_qr_scan"}, "fusion_lon": 0.0, "lat": 38.8450345, "bike_id": "a2b1e42653b08e00a91beab6bc2299bd", "type": "electric_bike", "is_reserved": 0, "lon": -76.99355283333334}, {"fusion_lat": 0.0, "name": "77fbcc4c08aa395191004e751b305fe8", "is_disabled": 0, "rental_uris": {"android": "https://dc.lft.to/lastmile_qr_scan", "ios": "https://dc.lft.to/lastmile_qr_scan"}, "fusion_lon": 0.0, "lat": 38.9207415, "bike_id": "77fbcc4c08aa395191004e751b305fe8", "type": "electric_scooter", "is_reserved": 0, "lon": -77.02517183333333}, {"fusion_lat": 0.0, "name": "531ffb2e53e534ad635e5d371e2ca1bd", "is_disabled": 0, "rental_uris": {"android": "https://dc.lft.to/lastmile_qr_scan", "ios": "https://dc.lft.to/lastmile_qr_scan"}, "fusion_lon": 0.0, "lat": 38.92537016666667, "bike_id": "531ffb2e53e534ad635e5d371e2ca1bd", "type": "electric_scooter", "is_reserved": 0, "lon": -77.05581383333333}, {"fusion_lat": 0.0, "name": "f4e766877712f03a5f1537cbaa414066", "is_disabled": 0, "rental_uris": {"android": "https://dc.lft.to/lastmile_qr_scan", "ios": "https://dc.lft.to/lastmile_qr_scan"}, "fusion_lon": 0.0, "lat": 38.886750666666664, "bike_id": "f4e766877712f03a5f1537cbaa414066", "type": "electric_bike", "is_reserved": 0, "lon": -77.16242183333334}, {"fusion_lat": 0.0, "name": "cf41d0cdbf71fdca799ac62d27e72001", "is_disabled": 0, "rental_uris": {"android": "https://dc.lft.to/lastmile_qr_scan", "ios": "https://dc.lft.to/lastmile_qr_scan"}, "fusion_lon": 0.0, "lat": 38.88455866666666, "bike_id": "cf41d0cdbf71fdca799ac62d27e72001", "type": "electric_scooter", "is_reserved": 0, "lon": -76.926239}, {"fusion_lat": 0.0, "name": "b31e14a4069292b63135479111eed678", "is_disabled": 0, "rental_uris": {"android": "https://dc.lft.to/lastmile_qr_scan", "ios": "https://dc.lft.to/lastmile_qr_scan"}, "fusion_lon": 0.0, "lat": 38.912861166666666, "bike_id": "b31e14a4069292b63135479111eed678", "type": "electric_scooter", "is_reserved": 0, "lon": -77.04739416666666}, {"fusion_lat": 0.0, "name": "058bd01379f2735b36cafbbc907673b5", "is_disabled": 0, "rental_uris": {"android": "https://dc.lft.to/lastmile_qr_scan", "ios": "https://dc.lft.to/lastmile_qr_scan"}, "fusion_lon": 0.0, "lat": 38.929705, "bike_id": "058bd01379f2735b36cafbbc907673b5", "type": "electric_scooter", "is_reserved": 0, "lon": -77.02826616666667}, {"fusion_lat": 0.0, "name": "b13260c5645d8f96da62448f801b0103", "is_disabled": 0, "rental_uris": {"android": "https://dc.lft.to/lastmile_qr_scan", "ios": "https://dc.lft.to/lastmile_qr_scan"}, "fusion_lon": 0.0, "lat": 38.896087666666666, "bike_id": "b13260c5645d8f96da62448f801b0103", "type": "electric_scooter", "is_reserved": 0, "lon": -77.04478966666667}, {"fusion_lat": 0.0, "name": "81379b205d21e9b4a7be307a09f6b929", "is_disabled": 0, "rental_uris": {"android": "https://dc.lft.to/lastmile_qr_scan", "ios": "https://dc.lft.to/lastmile_qr_scan"}, "fusion_lon": 0.0, "lat": 38.99388016666666, "bike_id": "81379b205d21e9b4a7be307a09f6b929", "type": "electric_bike", "is_reserved": 0, "lon": -77.0310945}, {"fusion_lat": 0.0, "name": "86b9b1c534dc45afa09c060baa9652c4", "is_disabled": 0, "rental_uris": {"android": "https://dc.lft.to/lastmile_qr_scan", "ios": "https://dc.lft.to/lastmile_qr_scan"}, "fusion_lon": 0.0, "lat": 38.95790916666667, "bike_id": "86b9b1c534dc45afa09c060baa9652c4", "type": "electric_bike", "is_reserved": 0, "lon": -76.99963933333333}, {"fusion_lat": 0.0, "name": "c67bd4a6febf0fefdfab16f1bb65bcc3", "is_disabled": 0, "rental_uris": {"android": "https://dc.lft.to/lastmile_qr_scan", "ios": "https://dc.lft.to/lastmile_qr_scan"}, "fusion_lon": 0.0, "lat": 38.945916833333335, "bike_id": "c67bd4a6febf0fefdfab16f1bb65bcc3", "type": "electric_scooter", "is_reserved": 0, "lon": -77.02982283333333}, {"fusion_lat": 0.0, "name": "ad15ef41169f1a9253d0b9797c264513", "is_disabled": 0, "rental_uris": {"android": "https://dc.lft.to/lastmile_qr_scan", "ios": "https://dc.lft.to/lastmile_qr_scan"}, "fusion_lon": 0.0, "lat": 38.85775616666667, "bike_id": "ad15ef41169f1a9253d0b9797c264513", "type": "electric_scooter", "is_reserved": 0, "lon": -76.97299183333334}, {"fusion_lat": 0.0, "name": "af68705b747dfcc90ecabc4771f99dbf", "is_disabled": 0, "rental_uris": {"android": "https://dc.lft.to/lastmile_qr_scan", "ios": "https://dc.lft.to/lastmile_qr_scan"}, "fusion_lon": 0.0, "lat": 38.9039365, "bike_id": "af68705b747dfcc90ecabc4771f99dbf", "type": "electric_scooter", "is_reserved": 0, "lon": -76.98468133333333}, {"fusion_lat": 0.0, "name": "e404d4b7bc74efc7e64d118794e01a65", "is_disabled": 0, "rental_uris": {"android": "https://dc.lft.to/lastmile_qr_scan", "ios": "https://dc.lft.to/lastmile_qr_scan"}, "fusion_lon": 0.0, "lat": 38.92857983333333, "bike_id": "e404d4b7bc74efc7e64d118794e01a65", "type": "electric_scooter", "is_reserved": 0, "lon": -77.03315566666667}, {"fusion_lat": 0.0, "name": "4bb3a4dbd34b9f2cc42608e71abbfbf6", "is_disabled": 0, "rental_uris": {"android": "https://dc.lft.to/lastmile_qr_scan", "ios": "https://dc.lft.to/lastmile_qr_scan"}, "fusion_lon": 0.0, "lat": 38.911143333333335, "bike_id": "4bb3a4dbd34b9f2cc42608e71abbfbf6", "type": "electric_scooter", "is_reserved": 0, "lon": -77.03729616666666}, {"fusion_lat": 0.0, "name": "29d19f7b530eddec0feb8af8533a2df4", "is_disabled": 0, "rental_uris": {"android": "https://dc.lft.to/lastmile_qr_scan", "ios": "https://dc.lft.to/lastmile_qr_scan"}, "fusion_lon": 0.0, "lat": 38.95066083333333, "bike_id": "29d19f7b530eddec0feb8af8533a2df4", "type": "electric_bike", "is_reserved": 0, "lon": -77.07227716666667}, {"fusion_lat": 0.0, "name": "38c7e6895a0e1c44aac5cf3aca165717", "is_disabled": 0, "rental_uris": {"android": "https://dc.lft.to/lastmile_qr_scan", "ios": "https://dc.lft.to/lastmile_qr_scan"}, "fusion_lon": 0.0, "lat": 38.920871, "bike_id": "38c7e6895a0e1c44aac5cf3aca165717", "type": "electric_scooter", "is_reserved": 0, "lon": -77.0737345}, {"fusion_lat": 0.0, "name": "be8a0c24bde08bbee5c0f1ca28f1ad0f", "is_disabled": 0, "rental_uris": {"android": "https://dc.lft.to/lastmile_qr_scan", "ios": "https://dc.lft.to/lastmile_qr_scan"}, "fusion_lon": 0.0, "lat": 38.90724933333333, "bike_id": "be8a0c24bde08bbee5c0f1ca28f1ad0f", "type": "electric_scooter", "is_reserved": 0, "lon": -77.0399}, {"fusion_lat": 0.0, "name": "b78c9e866adc0a9858eac96e24b1e3ed", "is_disabled": 0, "rental_uris": {"android": "https://dc.lft.to/lastmile_qr_scan", "ios": "https://dc.lft.to/lastmile_qr_scan"}, "fusion_lon": 0.0, "lat": 38.95873516666666, "bike_id": "b78c9e866adc0a9858eac96e24b1e3ed", "type": "electric_bike", "is_reserved": 0, "lon": -76.97052433333333}, {"fusion_lat": 0.0, "name": "6d6d4c71378cfc692dfaa3158e89e4b0", "is_disabled": 0, "rental_uris": {"android": "https://dc.lft.to/lastmile_qr_scan", "ios": "https://dc.lft.to/lastmile_qr_scan"}, "fusion_lon": 0.0, "lat": 38.9573855, "bike_id": "6d6d4c71378cfc692dfaa3158e89e4b0", "type": "electric_bike", "is_reserved": 0, "lon": -77.02164183333333}, {"fusion_lat": 0.0, "name": "775e6d42c46c113282cd00fd50933887", "is_disabled": 0, "rental_uris": {"android": "https://dc.lft.to/lastmile_qr_scan", "ios": "https://dc.lft.to/lastmile_qr_scan"}, "fusion_lon": 0.0, "lat": 38.89437566666667, "bike_id": "775e6d42c46c113282cd00fd50933887", "type": "electric_scooter", "is_reserved": 0, "lon": -77.02637316666667}, {"fusion_lat": 0.0, "name": "61514aab24ca1a5ef7faa197a9cbf4da", "is_disabled": 0, "rental_uris": {"android": "https://dc.lft.to/lastmile_qr_scan", "ios": "https://dc.lft.to/lastmile_qr_scan"}, "fusion_lon": 0.0, "lat": 38.92664583333333, "bike_id": "61514aab24ca1a5ef7faa197a9cbf4da", "type": "electric_bike", "is_reserved": 0, "lon": -77.09852583333333}, {"fusion_lat": 0.0, "name": "af8944bb985fe13f8f0747fb42b17010", "is_disabled": 0, "rental_uris": {"android": "https://dc.lft.to/lastmile_qr_scan", "ios": "https://dc.lft.to/lastmile_qr_scan"}, "fusion_lon": 0.0, "lat": 38.915628166666664, "bike_id": "af8944bb985fe13f8f0747fb42b17010", "type": "electric_scooter", "is_reserved": 0, "lon": -77.03144233333333}, {"fusion_lat": 0.0, "name": "bad0f98f123a6aef147b289b03811ed6", "is_disabled": 0, "rental_uris": {"android": "https://dc.lft.to/lastmile_qr_scan", "ios": "https://dc.lft.to/lastmile_qr_scan"}, "fusion_lon": 0.0, "lat": 38.914094166666665, "bike_id": "bad0f98f123a6aef147b289b03811ed6", "type": "electric_scooter", "is_reserved": 0, "lon": -77.03995083333334}, {"fusion_lat": 0.0, "name": "519bc48655167992a048063a9ef807f8", "is_disabled": 0, "rental_uris": {"android": "https://dc.lft.to/lastmile_qr_scan", "ios": "https://dc.lft.to/lastmile_qr_scan"}, "fusion_lon": 0.0, "lat": 38.883078166666664, "bike_id": "519bc48655167992a048063a9ef807f8", "type": "electric_scooter", "is_reserved": 0, "lon": -76.99157916666667}, {"fusion_lat": 0.0, "name": "f3789e9cdf187dc150e537ce07151d9d", "is_disabled": 0, "rental_uris": {"android": "https://dc.lft.to/lastmile_qr_scan", "ios": "https://dc.lft.to/lastmile_qr_scan"}, "fusion_lon": 0.0, "lat": 38.91110283333333, "bike_id": "f3789e9cdf187dc150e537ce07151d9d", "type": "electric_scooter", "is_reserved": 0, "lon": -77.01151183333333}, {"fusion_lat": 0.0, "name": "fad4d281321fbab926ddedc28c8333a4", "is_disabled": 0, "rental_uris": {"android": "https://dc.lft.to/lastmile_qr_scan", "ios": "https://dc.lft.to/lastmile_qr_scan"}, "fusion_lon": 0.0, "lat": 38.8973555, "bike_id": "fad4d281321fbab926ddedc28c8333a4", "type": "electric_scooter", "is_reserved": 0, "lon": -77.0200375}, {"fusion_lat": 0.0, "name": "8b08f293eead59eae63baae0f1830d77", "is_disabled": 0, "rental_uris": {"android": "https://dc.lft.to/lastmile_qr_scan", "ios": "https://dc.lft.to/lastmile_qr_scan"}, "fusion_lon": 0.0, "lat": 38.91318666666667, "bike_id": "8b08f293eead59eae63baae0f1830d77", "type": "electric_scooter", "is_reserved": 0, "lon": -77.02962383333333}, {"fusion_lat": 0.0, "name": "626d4c3fb6f70d1b044a9fc4721aa2eb", "is_disabled": 0, "rental_uris": {"android": "https://dc.lft.to/lastmile_qr_scan", "ios": "https://dc.lft.to/lastmile_qr_scan"}, "fusion_lon": 0.0, "lat": 38.92218316666667, "bike_id": "626d4c3fb6f70d1b044a9fc4721aa2eb", "type": "electric_scooter", "is_reserved": 0, "lon": -76.99357166666667}, {"fusion_lat": 0.0, "name": "1f3695979684b4358a6711cd522e8bad", "is_disabled": 0, "rental_uris": {"android": "https://dc.lft.to/lastmile_qr_scan", "ios": "https://dc.lft.to/lastmile_qr_scan"}, "fusion_lon": 0.0, "lat": 38.957427333333335, "bike_id": "1f3695979684b4358a6711cd522e8bad", "type": "electric_bike", "is_reserved": 0, "lon": -76.97255666666666}, {"fusion_lat": 0.0, "name": "92d57576a1cc6f8199a7a2bb16742ee7", "is_disabled": 0, "rental_uris": {"android": "https://dc.lft.to/lastmile_qr_scan", "ios": "https://dc.lft.to/lastmile_qr_scan"}, "fusion_lon": 0.0, "lat": 38.91702266666667, "bike_id": "92d57576a1cc6f8199a7a2bb16742ee7", "type": "electric_scooter", "is_reserved": 0, "lon": -77.02630883333333}, {"fusion_lat": 0.0, "name": "6556c75d57bf10dd6349889b5e8819b2", "is_disabled": 0, "rental_uris": {"android": "https://dc.lft.to/lastmile_qr_scan", "ios": "https://dc.lft.to/lastmile_qr_scan"}, "fusion_lon": 0.0, "lat": 38.956321, "bike_id": "6556c75d57bf10dd6349889b5e8819b2", "type": "electric_scooter", "is_reserved": 0, "lon": -77.0330605}, {"fusion_lat": 0.0, "name": "5d321d9e152b83b6e7bf75ed5e1c22cd", "is_disabled": 0, "rental_uris": {"android": "https://dc.lft.to/lastmile_qr_scan", "ios": "https://dc.lft.to/lastmile_qr_scan"}, "fusion_lon": 0.0, "lat": 38.898952666666666, "bike_id": "5d321d9e152b83b6e7bf75ed5e1c22cd", "type": "electric_bike", "is_reserved": 0, "lon": -77.09618833333333}, {"fusion_lat": 0.0, "name": "e314af43a501f4d0ad7c53f0869797f0", "is_disabled": 0, "rental_uris": {"android": "https://dc.lft.to/lastmile_qr_scan", "ios": "https://dc.lft.to/lastmile_qr_scan"}, "fusion_lon": 0.0, "lat": 38.907007666666665, "bike_id": "e314af43a501f4d0ad7c53f0869797f0", "type": "electric_scooter", "is_reserved": 0, "lon": -76.98702733333333}, {"fusion_lat": 0.0, "name": "28afd39b0df35af5ecbaaa350c312170", "is_disabled": 0, "rental_uris": {"android": "https://dc.lft.to/lastmile_qr_scan", "ios": "https://dc.lft.to/lastmile_qr_scan"}, "fusion_lon": 0.0, "lat": 38.89195733333333, "bike_id": "28afd39b0df35af5ecbaaa350c312170", "type": "electric_scooter", "is_reserved": 0, "lon": -77.02130416666667}, {"fusion_lat": 0.0, "name": "5a69a12ff17f7b8d2249b039351c27a5", "is_disabled": 0, "rental_uris": {"android": "https://dc.lft.to/lastmile_qr_scan", "ios": "https://dc.lft.to/lastmile_qr_scan"}, "fusion_lon": 0.0, "lat": 38.90682533333333, "bike_id": "5a69a12ff17f7b8d2249b039351c27a5", "type": "electric_scooter", "is_reserved": 0, "lon": -77.0109005}, {"fusion_lat": 0.0, "name": "311ff4c3f74caab50a19bd5aed7abbd2", "is_disabled": 0, "rental_uris": {"android": "https://dc.lft.to/lastmile_qr_scan", "ios": "https://dc.lft.to/lastmile_qr_scan"}, "fusion_lon": 0.0, "lat": 38.912745666666666, "bike_id": "311ff4c3f74caab50a19bd5aed7abbd2", "type": "electric_scooter", "is_reserved": 0, "lon": -77.0218025}, {"fusion_lat": 0.0, "name": "b383384ff77965a92977796a6d91455c", "is_disabled": 0, "rental_uris": {"android": "https://dc.lft.to/lastmile_qr_scan", "ios": "https://dc.lft.to/lastmile_qr_scan"}, "fusion_lon": 0.0, "lat": 38.990944, "bike_id": "b383384ff77965a92977796a6d91455c", "type": "electric_bike", "is_reserved": 0, "lon": -76.99376666666667}, {"fusion_lat": 0.0, "name": "7faa93dc99b8dd788de8e69885ed02a3", "is_disabled": 0, "rental_uris": {"android": "https://dc.lft.to/lastmile_qr_scan", "ios": "https://dc.lft.to/lastmile_qr_scan"}, "fusion_lon": 0.0, "lat": 38.909750833333334, "bike_id": "7faa93dc99b8dd788de8e69885ed02a3", "type": "electric_scooter", "is_reserved": 0, "lon": -77.04873633333334}, {"fusion_lat": 0.0, "name": "77956440c65b274d809e96d343359c91", "is_disabled": 0, "rental_uris": {"android": "https://dc.lft.to/lastmile_qr_scan", "ios": "https://dc.lft.to/lastmile_qr_scan"}, "fusion_lon": 0.0, "lat": 38.88043283333333, "bike_id": "77956440c65b274d809e96d343359c91", "type": "electric_scooter", "is_reserved": 0, "lon": -77.004624}, {"fusion_lat": 0.0, "name": "8ec5f7337c52e5ea0644b5d22b667270", "is_disabled": 0, "rental_uris": {"android": "https://dc.lft.to/lastmile_qr_scan", "ios": "https://dc.lft.to/lastmile_qr_scan"}, "fusion_lon": 0.0, "lat": 38.87592883333333, "bike_id": "8ec5f7337c52e5ea0644b5d22b667270", "type": "electric_scooter", "is_reserved": 0, "lon": -77.0009245}, {"fusion_lat": 0.0, "name": "48ffffebb38a690658ba1803fb6b0c74", "is_disabled": 0, "rental_uris": {"android": "https://dc.lft.to/lastmile_qr_scan", "ios": "https://dc.lft.to/lastmile_qr_scan"}, "fusion_lon": 0.0, "lat": 38.92816216666667, "bike_id": "48ffffebb38a690658ba1803fb6b0c74", "type": "electric_scooter", "is_reserved": 0, "lon": -77.0545935}, {"fusion_lat": 0.0, "name": "4c9be988a88eb1b39506f99e771753d7", "is_disabled": 0, "rental_uris": {"android": "https://dc.lft.to/lastmile_qr_scan", "ios": "https://dc.lft.to/lastmile_qr_scan"}, "fusion_lon": 0.0, "lat": 38.90309033333333, "bike_id": "4c9be988a88eb1b39506f99e771753d7", "type": "electric_scooter", "is_reserved": 0, "lon": -77.0320985}, {"fusion_lat": 0.0, "name": "58d2a1d238a00849cf12701fb1ca4c3b", "is_disabled": 0, "rental_uris": {"android": "https://dc.lft.to/lastmile_qr_scan", "ios": "https://dc.lft.to/lastmile_qr_scan"}, "fusion_lon": 0.0, "lat": 38.93579716666667, "bike_id": "58d2a1d238a00849cf12701fb1ca4c3b", "type": "electric_scooter", "is_reserved": 0, "lon": -77.0734055}, {"fusion_lat": 0.0, "name": "d1c865d7ae1a37ac8edcaade582c88d0", "is_disabled": 0, "rental_uris": {"android": "https://dc.lft.to/lastmile_qr_scan", "ios": "https://dc.lft.to/lastmile_qr_scan"}, "fusion_lon": 0.0, "lat": 38.914033333333336, "bike_id": "d1c865d7ae1a37ac8edcaade582c88d0", "type": "electric_scooter", "is_reserved": 0, "lon": -77.03225183333333}, {"fusion_lat": 0.0, "name": "086f7d5ea00b117a57f9b55917e67d36", "is_disabled": 0, "rental_uris": {"android": "https://dc.lft.to/lastmile_qr_scan", "ios": "https://dc.lft.to/lastmile_qr_scan"}, "fusion_lon": 0.0, "lat": 38.89612266666666, "bike_id": "086f7d5ea00b117a57f9b55917e67d36", "type": "electric_scooter", "is_reserved": 0, "lon": -77.0448555}, {"fusion_lat": 0.0, "name": "894c0610b210d93f56fab18241bcdcfe", "is_disabled": 0, "rental_uris": {"android": "https://dc.lft.to/lastmile_qr_scan", "ios": "https://dc.lft.to/lastmile_qr_scan"}, "fusion_lon": 0.0, "lat": 38.924211666666665, "bike_id": "894c0610b210d93f56fab18241bcdcfe", "type": "electric_scooter", "is_reserved": 0, "lon": -77.0195415}, {"fusion_lat": 0.0, "name": "5c346792517d0821ab2219b49eab4e65", "is_disabled": 0, "rental_uris": {"android": "https://dc.lft.to/lastmile_qr_scan", "ios": "https://dc.lft.to/lastmile_qr_scan"}, "fusion_lon": 0.0, "lat": 38.8878945, "bike_id": "5c346792517d0821ab2219b49eab4e65", "type": "electric_bike", "is_reserved": 0, "lon": -76.9234335}, {"fusion_lat": 0.0, "name": "b5c801d06906e91a3eda30ced0507477", "is_disabled": 0, "rental_uris": {"android": "https://dc.lft.to/lastmile_qr_scan", "ios": "https://dc.lft.to/lastmile_qr_scan"}, "fusion_lon": 0.0, "lat": 38.90162133333333, "bike_id": "b5c801d06906e91a3eda30ced0507477", "type": "electric_scooter", "is_reserved": 0, "lon": -77.04898966666667}, {"fusion_lat": 0.0, "name": "4849370b8ff76e6cfc48467945ac67f6", "is_disabled": 0, "rental_uris": {"android": "https://dc.lft.to/lastmile_qr_scan", "ios": "https://dc.lft.to/lastmile_qr_scan"}, "fusion_lon": 0.0, "lat": 38.898100666666664, "bike_id": "4849370b8ff76e6cfc48467945ac67f6", "type": "electric_scooter", "is_reserved": 0, "lon": -77.0313575}, {"fusion_lat": 0.0, "name": "a2deb5a2953adfe6acd5722c83ebd033", "is_disabled": 0, "rental_uris": {"android": "https://dc.lft.to/lastmile_qr_scan", "ios": "https://dc.lft.to/lastmile_qr_scan"}, "fusion_lon": 0.0, "lat": 38.900248166666664, "bike_id": "a2deb5a2953adfe6acd5722c83ebd033", "type": "electric_scooter", "is_reserved": 0, "lon": -77.01186966666667}, {"fusion_lat": 0.0, "name": "a9e17f8f545279ebcd97374095d5cafa", "is_disabled": 0, "rental_uris": {"android": "https://dc.lft.to/lastmile_qr_scan", "ios": "https://dc.lft.to/lastmile_qr_scan"}, "fusion_lon": 0.0, "lat": 38.89224766666667, "bike_id": "a9e17f8f545279ebcd97374095d5cafa", "type": "electric_scooter", "is_reserved": 0, "lon": -77.03990033333334}, {"fusion_lat": 0.0, "name": "54a1d92c93766c4e5571eec00564741b", "is_disabled": 0, "rental_uris": {"android": "https://dc.lft.to/lastmile_qr_scan", "ios": "https://dc.lft.to/lastmile_qr_scan"}, "fusion_lon": 0.0, "lat": 38.88328383333333, "bike_id": "54a1d92c93766c4e5571eec00564741b", "type": "electric_scooter", "is_reserved": 0, "lon": -77.0177245}, {"fusion_lat": 0.0, "name": "3b7eede21d5bdcac175913a15750b5d1", "is_disabled": 0, "rental_uris": {"android": "https://dc.lft.to/lastmile_qr_scan", "ios": "https://dc.lft.to/lastmile_qr_scan"}, "fusion_lon": 0.0, "lat": 38.88497066666667, "bike_id": "3b7eede21d5bdcac175913a15750b5d1", "type": "electric_scooter", "is_reserved": 0, "lon": -77.02086683333333}, {"fusion_lat": 0.0, "name": "b1390d37f979b19e45c2507597936727", "is_disabled": 0, "rental_uris": {"android": "https://dc.lft.to/lastmile_qr_scan", "ios": "https://dc.lft.to/lastmile_qr_scan"}, "fusion_lon": 0.0, "lat": 38.9092975, "bike_id": "b1390d37f979b19e45c2507597936727", "type": "electric_scooter", "is_reserved": 0, "lon": -77.02129416666666}, {"fusion_lat": 0.0, "name": "5268b6e89d657115a1e73b4e6a3c3055", "is_disabled": 0, "rental_uris": {"android": "https://dc.lft.to/lastmile_qr_scan", "ios": "https://dc.lft.to/lastmile_qr_scan"}, "fusion_lon": 0.0, "lat": 38.920428, "bike_id": "5268b6e89d657115a1e73b4e6a3c3055", "type": "electric_scooter", "is_reserved": 0, "lon": -77.02365966666666}, {"fusion_lat": 0.0, "name": "5ce1c8ef900582871b8cfff7b4f0f78a", "is_disabled": 0, "rental_uris": {"android": "https://dc.lft.to/lastmile_qr_scan", "ios": "https://dc.lft.to/lastmile_qr_scan"}, "fusion_lon": 0.0, "lat": 38.898287833333335, "bike_id": "5ce1c8ef900582871b8cfff7b4f0f78a", "type": "electric_scooter", "is_reserved": 0, "lon": -77.0242925}, {"fusion_lat": 0.0, "name": "46a8305a42507502bda6191f659603db", "is_disabled": 0, "rental_uris": {"android": "https://dc.lft.to/lastmile_qr_scan", "ios": "https://dc.lft.to/lastmile_qr_scan"}, "fusion_lon": 0.0, "lat": 38.91774, "bike_id": "46a8305a42507502bda6191f659603db", "type": "electric_scooter", "is_reserved": 0, "lon": -77.0410055}, {"fusion_lat": 0.0, "name": "1a42f748f92a8231d69a4e90a44b55a7", "is_disabled": 0, "rental_uris": {"android": "https://dc.lft.to/lastmile_qr_scan", "ios": "https://dc.lft.to/lastmile_qr_scan"}, "fusion_lon": 0.0, "lat": 38.88984816666667, "bike_id": "1a42f748f92a8231d69a4e90a44b55a7", "type": "electric_scooter", "is_reserved": 0, "lon": -76.98739916666666}, {"fusion_lat": 0.0, "name": "d807e3f176e53f8fd5023d59a5af15a8", "is_disabled": 0, "rental_uris": {"android": "https://dc.lft.to/lastmile_qr_scan", "ios": "https://dc.lft.to/lastmile_qr_scan"}, "fusion_lon": 0.0, "lat": 38.9166435, "bike_id": "d807e3f176e53f8fd5023d59a5af15a8", "type": "electric_scooter", "is_reserved": 0, "lon": -77.027162}, {"fusion_lat": 0.0, "name": "73ee6ec7e1e5fcb7f7d324a8569c9bd3", "is_disabled": 0, "rental_uris": {"android": "https://dc.lft.to/lastmile_qr_scan", "ios": "https://dc.lft.to/lastmile_qr_scan"}, "fusion_lon": 0.0, "lat": 38.8845425, "bike_id": "73ee6ec7e1e5fcb7f7d324a8569c9bd3", "type": "electric_scooter", "is_reserved": 0, "lon": -76.99833216666667}, {"fusion_lat": 0.0, "name": "914a12c94aefea000e446d422c36fbbb", "is_disabled": 0, "rental_uris": {"android": "https://dc.lft.to/lastmile_qr_scan", "ios": "https://dc.lft.to/lastmile_qr_scan"}, "fusion_lon": 0.0, "lat": 38.974876333333334, "bike_id": "914a12c94aefea000e446d422c36fbbb", "type": "electric_scooter", "is_reserved": 0, "lon": -77.01692216666666}, {"fusion_lat": 0.0, "name": "22c868099090333471256886c65b7c8b", "is_disabled": 0, "rental_uris": {"android": "https://dc.lft.to/lastmile_qr_scan", "ios": "https://dc.lft.to/lastmile_qr_scan"}, "fusion_lon": 0.0, "lat": 38.95114616666667, "bike_id": "22c868099090333471256886c65b7c8b", "type": "electric_scooter", "is_reserved": 0, "lon": -77.0136225}, {"fusion_lat": 0.0, "name": "53f7827e1f69f14214241e276c9939fa", "is_disabled": 0, "rental_uris": {"android": "https://dc.lft.to/lastmile_qr_scan", "ios": "https://dc.lft.to/lastmile_qr_scan"}, "fusion_lon": 0.0, "lat": 38.88505333333333, "bike_id": "53f7827e1f69f14214241e276c9939fa", "type": "electric_scooter", "is_reserved": 0, "lon": -76.92953983333334}, {"fusion_lat": 0.0, "name": "089e1f184f9c72c8d1c2f8de6bc01772", "is_disabled": 0, "rental_uris": {"android": "https://dc.lft.to/lastmile_qr_scan", "ios": "https://dc.lft.to/lastmile_qr_scan"}, "fusion_lon": 0.0, "lat": 38.9191385, "bike_id": "089e1f184f9c72c8d1c2f8de6bc01772", "type": "electric_scooter", "is_reserved": 0, "lon": -77.033168}, {"fusion_lat": 0.0, "name": "c3e354807fb1a5442a3b17d6a22a495a", "is_disabled": 0, "rental_uris": {"android": "https://dc.lft.to/lastmile_qr_scan", "ios": "https://dc.lft.to/lastmile_qr_scan"}, "fusion_lon": 0.0, "lat": 38.93785533333333, "bike_id": "c3e354807fb1a5442a3b17d6a22a495a", "type": "electric_scooter", "is_reserved": 0, "lon": -77.02466083333333}, {"fusion_lat": 0.0, "name": "e60aff630f3527ce657fe55bd5b38d9b", "is_disabled": 0, "rental_uris": {"android": "https://dc.lft.to/lastmile_qr_scan", "ios": "https://dc.lft.to/lastmile_qr_scan"}, "fusion_lon": 0.0, "lat": 38.95853233333333, "bike_id": "e60aff630f3527ce657fe55bd5b38d9b", "type": "electric_bike", "is_reserved": 0, "lon": -77.00145333333333}, {"fusion_lat": 0.0, "name": "5eafbf429cdd4870d6fc0ff95fd0567a", "is_disabled": 0, "rental_uris": {"android": "https://dc.lft.to/lastmile_qr_scan", "ios": "https://dc.lft.to/lastmile_qr_scan"}, "fusion_lon": 0.0, "lat": 38.91770416666667, "bike_id": "5eafbf429cdd4870d6fc0ff95fd0567a", "type": "electric_scooter", "is_reserved": 0, "lon": -77.01913266666666}, {"fusion_lat": 0.0, "name": "2f6d29ff0384caa1539643edc0b6d440", "is_disabled": 0, "rental_uris": {"android": "https://dc.lft.to/lastmile_qr_scan", "ios": "https://dc.lft.to/lastmile_qr_scan"}, "fusion_lon": 0.0, "lat": 38.90815333333333, "bike_id": "2f6d29ff0384caa1539643edc0b6d440", "type": "electric_scooter", "is_reserved": 0, "lon": -77.05497016666666}, {"fusion_lat": 0.0, "name": "61ed30dceaab9f349b6a16bed60fc8a6", "is_disabled": 0, "rental_uris": {"android": "https://dc.lft.to/lastmile_qr_scan", "ios": "https://dc.lft.to/lastmile_qr_scan"}, "fusion_lon": 0.0, "lat": 38.91712483333333, "bike_id": "61ed30dceaab9f349b6a16bed60fc8a6", "type": "electric_scooter", "is_reserved": 0, "lon": -77.01212483333333}, {"fusion_lat": 0.0, "name": "290a20a1a8b12e02600a0c695811905f", "is_disabled": 0, "rental_uris": {"android": "https://dc.lft.to/lastmile_qr_scan", "ios": "https://dc.lft.to/lastmile_qr_scan"}, "fusion_lon": 0.0, "lat": 38.92850083333333, "bike_id": "290a20a1a8b12e02600a0c695811905f", "type": "electric_scooter", "is_reserved": 0, "lon": -77.03256916666666}, {"fusion_lat": 0.0, "name": "928d0062c7455cbbddd3eb94fae4445d", "is_disabled": 0, "rental_uris": {"android": "https://dc.lft.to/lastmile_qr_scan", "ios": "https://dc.lft.to/lastmile_qr_scan"}, "fusion_lon": 0.0, "lat": 38.96116683333333, "bike_id": "928d0062c7455cbbddd3eb94fae4445d", "type": "electric_scooter", "is_reserved": 0, "lon": -77.0286485}, {"fusion_lat": 0.0, "name": "73e0772e082df206cde092db2ba22bdf", "is_disabled": 0, "rental_uris": {"android": "https://dc.lft.to/lastmile_qr_scan", "ios": "https://dc.lft.to/lastmile_qr_scan"}, "fusion_lon": 0.0, "lat": 38.919891, "bike_id": "73e0772e082df206cde092db2ba22bdf", "type": "electric_scooter", "is_reserved": 0, "lon": -77.017905}, {"fusion_lat": 0.0, "name": "306c0bd7e25f5cd2345e136ab6072b81", "is_disabled": 0, "rental_uris": {"android": "https://dc.lft.to/lastmile_qr_scan", "ios": "https://dc.lft.to/lastmile_qr_scan"}, "fusion_lon": 0.0, "lat": 38.9139855, "bike_id": "306c0bd7e25f5cd2345e136ab6072b81", "type": "electric_scooter", "is_reserved": 0, "lon": -77.03445133333334}, {"fusion_lat": 0.0, "name": "366c3d75c1e423a9f8acfa6803dcb6fa", "is_disabled": 0, "rental_uris": {"android": "https://dc.lft.to/lastmile_qr_scan", "ios": "https://dc.lft.to/lastmile_qr_scan"}, "fusion_lon": 0.0, "lat": 38.93672433333333, "bike_id": "366c3d75c1e423a9f8acfa6803dcb6fa", "type": "electric_scooter", "is_reserved": 0, "lon": -77.03590016666666}, {"fusion_lat": 0.0, "name": "c7c0e5df32d511697d73b6adaf46ffc7", "is_disabled": 0, "rental_uris": {"android": "https://dc.lft.to/lastmile_qr_scan", "ios": "https://dc.lft.to/lastmile_qr_scan"}, "fusion_lon": 0.0, "lat": 38.89489566666666, "bike_id": "c7c0e5df32d511697d73b6adaf46ffc7", "type": "electric_scooter", "is_reserved": 0, "lon": -77.01514683333333}, {"fusion_lat": 0.0, "name": "0e4e8e2b665ce789035cc8d27e9aa770", "is_disabled": 0, "rental_uris": {"android": "https://dc.lft.to/lastmile_qr_scan", "ios": "https://dc.lft.to/lastmile_qr_scan"}, "fusion_lon": 0.0, "lat": 38.9318895, "bike_id": "0e4e8e2b665ce789035cc8d27e9aa770", "type": "electric_scooter", "is_reserved": 0, "lon": -77.04296033333334}, {"fusion_lat": 0.0, "name": "b20774c76db6c078259a38a23f181660", "is_disabled": 0, "rental_uris": {"android": "https://dc.lft.to/lastmile_qr_scan", "ios": "https://dc.lft.to/lastmile_qr_scan"}, "fusion_lon": 0.0, "lat": 38.94704433333333, "bike_id": "b20774c76db6c078259a38a23f181660", "type": "electric_scooter", "is_reserved": 0, "lon": -77.01942516666666}, {"fusion_lat": 0.0, "name": "19ea87cfba792cb6827f787a9c535da2", "is_disabled": 0, "rental_uris": {"android": "https://dc.lft.to/lastmile_qr_scan", "ios": "https://dc.lft.to/lastmile_qr_scan"}, "fusion_lon": 0.0, "lat": 38.93426133333333, "bike_id": "19ea87cfba792cb6827f787a9c535da2", "type": "electric_scooter", "is_reserved": 0, "lon": -77.04422066666666}, {"fusion_lat": 0.0, "name": "cb9b612b07880ec98e2b12b8e820b859", "is_disabled": 0, "rental_uris": {"android": "https://dc.lft.to/lastmile_qr_scan", "ios": "https://dc.lft.to/lastmile_qr_scan"}, "fusion_lon": 0.0, "lat": 38.931792, "bike_id": "cb9b612b07880ec98e2b12b8e820b859", "type": "electric_scooter", "is_reserved": 0, "lon": -77.04299333333333}, {"fusion_lat": 0.0, "name": "3b3556a48a52adbc3a2f4a73f783ce6a", "is_disabled": 0, "rental_uris": {"android": "https://dc.lft.to/lastmile_qr_scan", "ios": "https://dc.lft.to/lastmile_qr_scan"}, "fusion_lon": 0.0, "lat": 38.9050255, "bike_id": "3b3556a48a52adbc3a2f4a73f783ce6a", "type": "electric_scooter", "is_reserved": 0, "lon": -77.03449966666666}, {"fusion_lat": 0.0, "name": "073d41ec30b23dd0ea59b477153e44ef", "is_disabled": 0, "rental_uris": {"android": "https://dc.lft.to/lastmile_qr_scan", "ios": "https://dc.lft.to/lastmile_qr_scan"}, "fusion_lon": 0.0, "lat": 38.905567833333336, "bike_id": "073d41ec30b23dd0ea59b477153e44ef", "type": "electric_scooter", "is_reserved": 0, "lon": -77.01315666666666}, {"fusion_lat": 0.0, "name": "2e5d885135be7577d9950e29678ae881", "is_disabled": 0, "rental_uris": {"android": "https://dc.lft.to/lastmile_qr_scan", "ios": "https://dc.lft.to/lastmile_qr_scan"}, "fusion_lon": 0.0, "lat": 38.93859533333333, "bike_id": "2e5d885135be7577d9950e29678ae881", "type": "electric_bike", "is_reserved": 0, "lon": -77.02489316666667}, {"fusion_lat": 0.0, "name": "1bc789bc32e6392a5b16dbb38a296bd4", "is_disabled": 0, "rental_uris": {"android": "https://dc.lft.to/lastmile_qr_scan", "ios": "https://dc.lft.to/lastmile_qr_scan"}, "fusion_lon": 0.0, "lat": 38.896433, "bike_id": "1bc789bc32e6392a5b16dbb38a296bd4", "type": "electric_scooter", "is_reserved": 0, "lon": -77.04676833333333}, {"fusion_lat": 0.0, "name": "13c0174ddfcf98de08ab4af7887e8106", "is_disabled": 0, "rental_uris": {"android": "https://dc.lft.to/lastmile_qr_scan", "ios": "https://dc.lft.to/lastmile_qr_scan"}, "fusion_lon": 0.0, "lat": 38.903861166666665, "bike_id": "13c0174ddfcf98de08ab4af7887e8106", "type": "electric_scooter", "is_reserved": 0, "lon": -77.04282666666667}, {"fusion_lat": 0.0, "name": "f4623b060e4604c7aa2c1c57150f3071", "is_disabled": 0, "rental_uris": {"android": "https://dc.lft.to/lastmile_qr_scan", "ios": "https://dc.lft.to/lastmile_qr_scan"}, "fusion_lon": 0.0, "lat": 38.9031005, "bike_id": "f4623b060e4604c7aa2c1c57150f3071", "type": "electric_scooter", "is_reserved": 0, "lon": -77.065254}, {"fusion_lat": 0.0, "name": "21005901c14f5b0abc3982cfe235117e", "is_disabled": 0, "rental_uris": {"android": "https://dc.lft.to/lastmile_qr_scan", "ios": "https://dc.lft.to/lastmile_qr_scan"}, "fusion_lon": 0.0, "lat": 38.930622666666665, "bike_id": "21005901c14f5b0abc3982cfe235117e", "type": "electric_scooter", "is_reserved": 0, "lon": -77.0297685},