{"data": {"bikes": [{"bike_id": "11324d0f54a71a43ca7bb0e5c3d4182a", "type": "electric_scooter", "is_disabled": 0, "lat": 38.9110315, "rental_uris": {"ios": "https://dc.lft.to/lastmile_qr_scan", "android": "https://dc.lft.to/lastmile_qr_scan"}, "is_reserved": 0, "fusion_lon": 0.0, "fusion_lat": 0.0, "lon": -77.04478766666666, "name": "11324d0f54a71a43ca7bb0e5c3d4182a"}, {"bike_id": "308d5592bf520d271c8072c0d059a8c5", "type": "electric_scooter", "is_disabled": 0, "lat": 38.885074, "rental_uris": {"ios": "https://dc.lft.to/lastmile_qr_scan", "android": "https://dc.lft.to/lastmile_qr_scan"}, "is_reserved": 0, "fusion_lon": 0.0, "fusion_lat": 0.0, "lon": -77.01516483333333, "name": "308d5592bf520d271c8072c0d059a8c5"}, {"bike_id": "7f6e4dbf6f5f3c35a7a8daef2341310e", "type": "electric_scooter", "is_disabled": 0, "lat": 38.904409666666666, "rental_uris": {"ios": "https://dc.lft.to/lastmile_qr_scan", "android": "https://dc.lft.to/lastmile_qr_scan"}, "is_reserved": 0, "fusion_lon": 0.0, "fusion_lat": 0.0, "lon": -77.053412, "name": "7f6e4dbf6f5f3c35a7a8daef2341310e"}, {"bike_id": "4de161d71d0df417785c5a3e6f5c32f0", "type": "electric_scooter", "is_disabled": 0, "lat": 38.917064833333335, "rental_uris": {"ios": "https://dc.lft.to/lastmile_qr_scan", "android": "https://dc.lft.to/lastmile_qr_scan"}, "is_reserved": 0, "fusion_lon": 0.0, "fusion_lat": 0.0, "lon": -77.04124216666666, "name": "4de161d71d0df417785c5a3e6f5c32f0"}, {"bike_id": "abc860ee0504ade33af30830b7df697a", "type": "electric_scooter", "is_disabled": 0, "lat": 38.92058733333333, "rental_uris": {"ios": "https://dc.lft.to/lastmile_qr_scan", "android": "https://dc.lft.to/lastmile_qr_scan"}, "is_reserved": 0, "fusion_lon": 0.0, "fusion_lat": 0.0, "lon": -77.034666, "name": "abc860ee0504ade33af30830b7df697a"}, {"bike_id": "889ea2e2c7e62da9debfeb01bc67d063", "type": "electric_scooter", "is_disabled": 0, "lat": 38.9166335, "rental_uris": {"ios": "https://dc.lft.to/lastmile_qr_scan", "android": "https://dc.lft.to/lastmile_qr_scan"}, "is_reserved": 0, "fusion_lon": 0.0, "fusion_lat": 0.0, "lon": -77.03851466666667, "name": "889ea2e2c7e62da9debfeb01bc67d063"}, {"bike_id": "3fcce4aea7402e3aa4083ae00f19466a", "type": "electric_scooter", "is_disabled": 0, "lat": 38.92687133333333, "rental_uris": {"ios": "https://dc.lft.to/lastmile_qr_scan", "android": "https://dc.lft.to/lastmile_qr_scan"}, "is_reserved": 0, "fusion_lon": 0.0, "fusion_lat": 0.0, "lon": -77.02159466666667, "name": "3fcce4aea7402e3aa4083ae00f19466a"}, {"bike_id": "aa41c76c37f7db5fb72d0237dae3a04a", "type": "electric_scooter", "is_disabled": 0, "lat": 38.95691566666667, "rental_uris": {"ios": "https://dc.lft.to/lastmile_qr_scan", "android": "https://dc.lft.to/lastmile_qr_scan"}, "is_reserved": 0, "fusion_lon": 0.0, "fusion_lat": 0.0, "lon": -77.02402433333333, "name": "aa41c76c37f7db5fb72d0237dae3a04a"}, {"bike_id": "bd6d818b241b896f5d852a93289a0474", "type": "electric_scooter", "is_disabled": 0, "lat": 38.907314166666666, "rental_uris": {"ios": "https://dc.lft.to/lastmile_qr_scan", "android": "https://dc.lft.to/lastmile_qr_scan"}, "is_reserved": 0, "fusion_lon": 0.0, "fusion_lat": 0.0, "lon": -77.05328483333334, "name": "bd6d818b241b896f5d852a93289a0474"}, {"bike_id": "8c17242a98167134fbc9389ebe8321c3", "type": "electric_scooter", "is_disabled": 0, "lat": 38.91628, "rental_uris": {"ios": "https://dc.lft.to/lastmile_qr_scan", "android": "https://dc.lft.to/lastmile_qr_scan"}, "is_reserved": 0, "fusion_lon": 0.0, "fusion_lat": 0.0, "lon": -77.03205266666667, "name": "8c17242a98167134fbc9389ebe8321c3"}, {"bike_id": "7e8af8ebaf72bd56ebfe13410f822513", "type": "electric_scooter", "is_disabled": 0, "lat": 38.90037566666667, "rental_uris": {"ios": "https://dc.lft.to/lastmile_qr_scan", "android": "https://dc.lft.to/lastmile_qr_scan"}, "is_reserved": 0, "fusion_lon": 0.0, "fusion_lat": 0.0, "lon": -77.0351075, "name": "7e8af8ebaf72bd56ebfe13410f822513"}, {"bike_id": "d1dfd881db04ba1340fc4e448cf82081", "type": "electric_scooter", "is_disabled": 0, "lat": 38.901313333333334, "rental_uris": {"ios": "https://dc.lft.to/lastmile_qr_scan", "android": "https://dc.lft.to/lastmile_qr_scan"}, "is_reserved": 0, "fusion_lon": 0.0, "fusion_lat": 0.0, "lon": -77.0404005, "name": "d1dfd881db04ba1340fc4e448cf82081"}, {"bike_id": "b7b152de2ce8d07ad5969dc7ab25cf86", "type": "electric_scooter", "is_disabled": 0, "lat": 38.907139, "rental_uris": {"ios": "https://dc.lft.to/lastmile_qr_scan", "android": "https://dc.lft.to/lastmile_qr_scan"}, "is_reserved": 0, "fusion_lon": 0.0, "fusion_lat": 0.0, "lon": -77.04184783333334, "name": "b7b152de2ce8d07ad5969dc7ab25cf86"}, {"bike_id": "470448b6d998ca8cf7ba9685908a7f97", "type": "electric_scooter", "is_disabled": 0, "lat": 38.92868433333334, "rental_uris": {"ios": "https://dc.lft.to/lastmile_qr_scan", "android": "https://dc.lft.to/lastmile_qr_scan"}, "is_reserved": 0, "fusion_lon": 0.0, "fusion_lat": 0.0, "lon": -77.03236083333333, "name": "470448b6d998ca8cf7ba9685908a7f97"}, {"bike_id": "63c9a722121d4ae7d6fc179b9306b46d", "type": "electric_scooter", "is_disabled": 0, "lat": 38.90278383333333, "rental_uris": {"ios": "https://dc.lft.to/lastmile_qr_scan", "android": "https://dc.lft.to/lastmile_qr_scan"}, "is_reserved": 0, "fusion_lon": 0.0, "fusion_lat": 0.0, "lon": -77.03871316666667, "name": "63c9a722121d4ae7d6fc179b9306b46d"}, {"bike_id": "0ef8c614f0186a7376be59095f0bbbca", "type": "electric_scooter", "is_disabled": 0, "lat": 38.905789166666665, "rental_uris": {"ios": "https://dc.lft.to/lastmile_qr_scan", "android": "https://dc.lft.to/lastmile_qr_scan"}, "is_reserved": 0, "fusion_lon": 0.0, "fusion_lat": 0.0, "lon": -77.03043283333334, "name": "0ef8c614f0186a7376be59095f0bbbca"}, {"bike_id": "7926b0d9c443a06f597b2f3b54baa8a3", "type": "electric_scooter", "is_disabled": 0, "lat": 38.89255133333333, "rental_uris": {"ios": "https://dc.lft.to/lastmile_qr_scan", "android": "https://dc.lft.to/lastmile_qr_scan"}, "is_reserved": 0, "fusion_lon": 0.0, "fusion_lat": 0.0, "lon": -77.046758, "name": "7926b0d9c443a06f597b2f3b54baa8a3"}, {"bike_id": "591bc9982472537292295b3d271308ba", "type": "electric_scooter", "is_disabled": 0, "lat": 38.922712833333335, "rental_uris": {"ios": "https://dc.lft.to/lastmile_qr_scan", "android": "https://dc.lft.to/lastmile_qr_scan"}, "is_reserved": 0, "fusion_lon": 0.0, "fusion_lat": 0.0, "lon": -77.03394716666666, "name": "591bc9982472537292295b3d271308ba"}, {"bike_id": "3fda874b2d7a733dc53400a9b37d683e", "type": "electric_scooter", "is_disabled": 0, "lat": 38.91153083333333, "rental_uris": {"ios": "https://dc.lft.to/lastmile_qr_scan", "android": "https://dc.lft.to/lastmile_qr_scan"}, "is_reserved": 0, "fusion_lon": 0.0, "fusion_lat": 0.0, "lon": -77.0237685, "name": "3fda874b2d7a733dc53400a9b37d683e"}, {"bike_id": "7af7eed7ba8963c2bd069b6f30cc7729", "type": "electric_scooter", "is_disabled": 0, "lat": 38.942923, "rental_uris": {"ios": "https://dc.lft.to/lastmile_qr_scan", "android": "https://dc.lft.to/lastmile_qr_scan"}, "is_reserved": 0, "fusion_lon": 0.0, "fusion_lat": 0.0, "lon": -77.02174383333333, "name": "7af7eed7ba8963c2bd069b6f30cc7729"}, {"bike_id": "a6c9ab5cc47705d3b5c742142c2b3182", "type": "electric_scooter", "is_disabled": 0, "lat": 38.89589133333333, "rental_uris": {"ios": "https://dc.lft.to/lastmile_qr_scan", "android": "https://dc.lft.to/lastmile_qr_scan"}, "is_reserved": 0, "fusion_lon": 0.0, "fusion_lat": 0.0, "lon": -77.0050445, "name": "a6c9ab5cc47705d3b5c742142c2b3182"}, {"bike_id": "62d5d1af7bf770922b7f868f60c3cf40", "type": "electric_scooter", "is_disabled": 0, "lat": 38.927937, "rental_uris": {"ios": "https://dc.lft.to/lastmile_qr_scan", "android": "https://dc.lft.to/lastmile_qr_scan"}, "is_reserved": 0, "fusion_lon": 0.0, "fusion_lat": 0.0, "lon": -77.02208083333333, "name": "62d5d1af7bf770922b7f868f60c3cf40"}, {"bike_id": "03c70b64fdd11f905218215d6e10cc3b", "type": "electric_scooter", "is_disabled": 0, "lat": 38.906675166666666, "rental_uris": {"ios": "https://dc.lft.to/lastmile_qr_scan", "android": "https://dc.lft.to/lastmile_qr_scan"}, "is_reserved": 0, "fusion_lon": 0.0, "fusion_lat": 0.0, "lon": -77.0270945, "name": "03c70b64fdd11f905218215d6e10cc3b"}, {"bike_id": "37089b63ba7f5d3be01269571514d19f", "type": "electric_scooter", "is_disabled": 0, "lat": 38.90557033333333, "rental_uris": {"ios": "https://dc.lft.to/lastmile_qr_scan", "android": "https://dc.lft.to/lastmile_qr_scan"}, "is_reserved": 0, "fusion_lon": 0.0, "fusion_lat": 0.0, "lon": -77.04648116666667, "name": "37089b63ba7f5d3be01269571514d19f"}, {"bike_id": "884c3456352c805be2d0b683229cf093", "type": "electric_scooter", "is_disabled": 0, "lat": 38.91693266666667, "rental_uris": {"ios": "https://dc.lft.to/lastmile_qr_scan", "android": "https://dc.lft.to/lastmile_qr_scan"}, "is_reserved": 0, "fusion_lon": 0.0, "fusion_lat": 0.0, "lon": -77.02597733333333, "name": "884c3456352c805be2d0b683229cf093"}, {"bike_id": "c82967bcea5c9ca1c9ca0f99e1fa9c34", "type": "electric_scooter", "is_disabled": 0, "lat": 38.928554166666665, "rental_uris": {"ios": "https://dc.lft.to/lastmile_qr_scan", "android": "https://dc.lft.to/lastmile_qr_scan"}, "is_reserved": 0, "fusion_lon": 0.0, "fusion_lat": 0.0, "lon": -77.0326545, "name": "c82967bcea5c9ca1c9ca0f99e1fa9c34"}, {"bike_id": "5903f9254dfc1067f1d9b446d283c20e", "type": "electric_scooter", "is_disabled": 0, "lat": 38.92151483333333, "rental_uris": {"ios": "https://dc.lft.to/lastmile_qr_scan", "android": "https://dc.lft.to/lastmile_qr_scan"}, "is_reserved": 0, "fusion_lon": 0.0, "fusion_lat": 0.0, "lon": -77.0353105, "name": "5903f9254dfc1067f1d9b446d283c20e"}, {"bike_id": "faf2e56a22d48f4d28ee63822df13478", "type": "electric_scooter", "is_disabled": 0, "lat": 38.927491, "rental_uris": {"ios": "https://dc.lft.to/lastmile_qr_scan", "android": "https://dc.lft.to/lastmile_qr_scan"}, "is_reserved": 0, "fusion_lon": 0.0, "fusion_lat": 0.0, "lon": -77.02537533333333, "name": "faf2e56a22d48f4d28ee63822df13478"}, {"bike_id": "1a3977bccb04920295c0b1638f7bdb1d", "type": "electric_bike", "is_disabled": 0, "lat": 38.85352116666667, "rental_uris": {"ios": "https://dc.lft.to/lastmile_qr_scan", "android": "https://dc.lft.to/lastmile_qr_scan"}, "is_reserved": 0, "fusion_lon": 0.0, "fusion_lat": 0.0, "lon": -77.13469666666667, "name": "1a3977bccb04920295c0b1638f7bdb1d"}, {"bike_id": "fb9bd4f613232c41eef5051855d5f6ff", "type": "electric_bike", "is_disabled": 0, "lat": 38.807094166666666, "rental_uris": {"ios": "https://dc.lft.to/lastmile_qr_scan", "android": "https://dc.lft.to/lastmile_qr_scan"}, "is_reserved": 0, "fusion_lon": 0.0, "fusion_lat": 0.0, "lon": -77.0617125, "name": "fb9bd4f613232c41eef5051855d5f6ff"}, {"bike_id": "0a902f3ea9d4073fffb19b742d4a1d36", "type": "electric_scooter", "is_disabled": 0, "lat": 38.905526, "rental_uris": {"ios": "https://dc.lft.to/lastmile_qr_scan", "android": "https://dc.lft.to/lastmile_qr_scan"}, "is_reserved": 0, "fusion_lon": 0.0, "fusion_lat": 0.0, "lon": -76.99621216666667, "name": "0a902f3ea9d4073fffb19b742d4a1d36"}, {"bike_id": "78ac96c06998881ae6f2538f6f04cbd2", "type": "electric_bike", "is_disabled": 0, "lat": 38.804134833333336, "rental_uris": {"ios": "https://dc.lft.to/lastmile_qr_scan", "android": "https://dc.lft.to/lastmile_qr_scan"}, "is_reserved": 0, "fusion_lon": 0.0, "fusion_lat": 0.0, "lon": -77.05553666666667, "name": "78ac96c06998881ae6f2538f6f04cbd2"}, {"bike_id": "c7f87474d2a2f369ae4a1e1c4c03010b", "type": "electric_scooter", "is_disabled": 0, "lat": 38.90499766666667, "rental_uris": {"ios": "https://dc.lft.to/lastmile_qr_scan", "android": "https://dc.lft.to/lastmile_qr_scan"}, "is_reserved": 0, "fusion_lon": 0.0, "fusion_lat": 0.0, "lon": -77.0200105, "name": "c7f87474d2a2f369ae4a1e1c4c03010b"}, {"bike_id": "84d0b55fef0dfc3a27896602413eaaeb", "type": "electric_scooter", "is_disabled": 0, "lat": 38.92254283333333, "rental_uris": {"ios": "https://dc.lft.to/lastmile_qr_scan", "android": "https://dc.lft.to/lastmile_qr_scan"}, "is_reserved": 0, "fusion_lon": 0.0, "fusion_lat": 0.0, "lon": -77.03897833333333, "name": "84d0b55fef0dfc3a27896602413eaaeb"}, {"bike_id": "89caa268fad3da6c7302bfe3e14ce48e", "type": "electric_scooter", "is_disabled": 0, "lat": 38.9183575, "rental_uris": {"ios": "https://dc.lft.to/lastmile_qr_scan", "android": "https://dc.lft.to/lastmile_qr_scan"}, "is_reserved": 0, "fusion_lon": 0.0, "fusion_lat": 0.0, "lon": -77.031988, "name": "89caa268fad3da6c7302bfe3e14ce48e"}, {"bike_id": "c4f4bdd653dbcde756fe35d7487d77d9", "type": "electric_scooter", "is_disabled": 0, "lat": 38.92252, "rental_uris": {"ios": "https://dc.lft.to/lastmile_qr_scan", "android": "https://dc.lft.to/lastmile_qr_scan"}, "is_reserved": 0, "fusion_lon": 0.0, "fusion_lat": 0.0, "lon": -77.029622, "name": "c4f4bdd653dbcde756fe35d7487d77d9"}, {"bike_id": "71dfe5c348ae47e4d68ae102b4958247", "type": "electric_scooter", "is_disabled": 0, "lat": 38.92267616666667, "rental_uris": {"ios": "https://dc.lft.to/lastmile_qr_scan", "android": "https://dc.lft.to/lastmile_qr_scan"}, "is_reserved": 0, "fusion_lon": 0.0, "fusion_lat": 0.0, "lon": -76.99466316666667, "name": "71dfe5c348ae47e4d68ae102b4958247"}, {"bike_id": "e561ae39bb182527bd40a36a97cce6bc", "type": "electric_bike", "is_disabled": 0, "lat": 38.939424333333335, "rental_uris": {"ios": "https://dc.lft.to/lastmile_qr_scan", "android": "https://dc.lft.to/lastmile_qr_scan"}, "is_reserved": 0, "fusion_lon": 0.0, "fusion_lat": 0.0, "lon": -76.96332416666667, "name": "e561ae39bb182527bd40a36a97cce6bc"}, {"bike_id": "5127599bc3fa69767481460bdf5e35f0", "type": "electric_scooter", "is_disabled": 0, "lat": 38.895496333333334, "rental_uris": {"ios": "https://dc.lft.to/lastmile_qr_scan", "android": "https://dc.lft.to/lastmile_qr_scan"}, "is_reserved": 0, "fusion_lon": 0.0, "fusion_lat": 0.0, "lon": -77.0112565, "name": "5127599bc3fa69767481460bdf5e35f0"}, {"bike_id": "9e31264247132fcfde47fd9ec421f27f", "type": "electric_scooter", "is_disabled": 0, "lat": 38.88432916666667, "rental_uris": {"ios": "https://dc.lft.to/lastmile_qr_scan", "android": "https://dc.lft.to/lastmile_qr_scan"}, "is_reserved": 0, "fusion_lon": 0.0, "fusion_lat": 0.0, "lon": -76.957571, "name": "9e31264247132fcfde47fd9ec421f27f"}, {"bike_id": "5ecab628c37db100c8eb38e1c4226102", "type": "electric_scooter", "is_disabled": 0, "lat": 38.8892975, "rental_uris": {"ios": "https://dc.lft.to/lastmile_qr_scan", "android": "https://dc.lft.to/lastmile_qr_scan"}, "is_reserved": 0, "fusion_lon": 0.0, "fusion_lat": 0.0, "lon": -77.01506416666666, "name": "5ecab628c37db100c8eb38e1c4226102"}, {"bike_id": "0579bc17f46a96ee34c7731babff3d01", "type": "electric_scooter", "is_disabled": 0, "lat": 38.9284115, "rental_uris": {"ios": "https://dc.lft.to/lastmile_qr_scan", "android": "https://dc.lft.to/lastmile_qr_scan"}, "is_reserved": 0, "fusion_lon": 0.0, "fusion_lat": 0.0, "lon": -77.0275085, "name": "0579bc17f46a96ee34c7731babff3d01"}, {"bike_id": "c91994301f5ac7ff4b04b9f50f2d46ac", "type": "electric_scooter", "is_disabled": 0, "lat": 38.92338783333334, "rental_uris": {"ios": "https://dc.lft.to/lastmile_qr_scan", "android": "https://dc.lft.to/lastmile_qr_scan"}, "is_reserved": 0, "fusion_lon": 0.0, "fusion_lat": 0.0, "lon": -77.0019195, "name": "c91994301f5ac7ff4b04b9f50f2d46ac"}, {"bike_id": "629e262a26ed4eefb56027fbddbd6c4c", "type": "electric_bike", "is_disabled": 0, "lat": 38.92807833333333, "rental_uris": {"ios": "https://dc.lft.to/lastmile_qr_scan", "android": "https://dc.lft.to/lastmile_qr_scan"}, "is_reserved": 0, "fusion_lon": 0.0, "fusion_lat": 0.0, "lon": -77.043704, "name": "629e262a26ed4eefb56027fbddbd6c4c"}, {"bike_id": "f7c75570e283511d007135acdae1c1e2", "type": "electric_bike", "is_disabled": 0, "lat": 38.952174, "rental_uris": {"ios": "https://dc.lft.to/lastmile_qr_scan", "android": "https://dc.lft.to/lastmile_qr_scan"}, "is_reserved": 0, "fusion_lon": 0.0, "fusion_lat": 0.0, "lon": -77.00241266666667, "name": "f7c75570e283511d007135acdae1c1e2"}, {"bike_id": "b9464ec3bdf9b42205c066d36b1ca0d3", "type": "electric_scooter", "is_disabled": 0, "lat": 38.9236375, "rental_uris": {"ios": "https://dc.lft.to/lastmile_qr_scan", "android": "https://dc.lft.to/lastmile_qr_scan"}, "is_reserved": 0, "fusion_lon": 0.0, "fusion_lat": 0.0, "lon": -77.05135766666666, "name": "b9464ec3bdf9b42205c066d36b1ca0d3"}, {"bike_id": "eb3464da7439397308aa87511adaf319", "type": "electric_scooter", "is_disabled": 0, "lat": 38.91150616666667, "rental_uris": {"ios": "https://dc.lft.to/lastmile_qr_scan", "android": "https://dc.lft.to/lastmile_qr_scan"}, "is_reserved": 0, "fusion_lon": 0.0, "fusion_lat": 0.0, "lon": -77.04451133333333, "name": "eb3464da7439397308aa87511adaf319"}, {"bike_id": "96728eb76afa2c747953252956d3ba32", "type": "electric_scooter", "is_disabled": 0, "lat": 38.8876435, "rental_uris": {"ios": "https://dc.lft.to/lastmile_qr_scan", "android": "https://dc.lft.to/lastmile_qr_scan"}, "is_reserved": 0, "fusion_lon": 0.0, "fusion_lat": 0.0, "lon": -76.95597883333333, "name": "96728eb76afa2c747953252956d3ba32"}, {"bike_id": "4515a7f2f1c094f124410adcc99b9612", "type": "electric_scooter", "is_disabled": 0, "lat": 38.950197, "rental_uris": {"ios": "https://dc.lft.to/lastmile_qr_scan", "android": "https://dc.lft.to/lastmile_qr_scan"}, "is_reserved": 0, "fusion_lon": 0.0, "fusion_lat": 0.0, "lon": -77.00876566666666, "name": "4515a7f2f1c094f124410adcc99b9612"}, {"bike_id": "7c9f15dfd1e81ca25cc67b8d5722db48", "type": "electric_bike", "is_disabled": 0, "lat": 38.845279833333336, "rental_uris": {"ios": "https://dc.lft.to/lastmile_qr_scan", "android": "https://dc.lft.to/lastmile_qr_scan"}, "is_reserved": 0, "fusion_lon": 0.0, "fusion_lat": 0.0, "lon": -76.973991, "name": "7c9f15dfd1e81ca25cc67b8d5722db48"}, {"bike_id": "5b23e55c106b682f46fb2a39f1e85971", "type": "electric_scooter", "is_disabled": 0, "lat": 38.92887616666667, "rental_uris": {"ios": "https://dc.lft.to/lastmile_qr_scan", "android": "https://dc.lft.to/lastmile_qr_scan"}, "is_reserved": 0, "fusion_lon": 0.0, "fusion_lat": 0.0, "lon": -77.0326375, "name": "5b23e55c106b682f46fb2a39f1e85971"}, {"bike_id": "e815ed227ca4507dcec54fec7713e802", "type": "electric_scooter", "is_disabled": 0, "lat": 38.9232205, "rental_uris": {"ios": "https://dc.lft.to/lastmile_qr_scan", "android": "https://dc.lft.to/lastmile_qr_scan"}, "is_reserved": 0, "fusion_lon": 0.0, "fusion_lat": 0.0, "lon": -77.02143816666667, "name": "e815ed227ca4507dcec54fec7713e802"}, {"bike_id": "33458e4bb1391d7a1e8e9ba99bbc8cfe", "type": "electric_scooter", "is_disabled": 0, "lat": 38.93213, "rental_uris": {"ios": "https://dc.lft.to/lastmile_qr_scan", "android": "https://dc.lft.to/lastmile_qr_scan"}, "is_reserved": 0, "fusion_lon": 0.0, "fusion_lat": 0.0, "lon": -77.03514433333333, "name": "33458e4bb1391d7a1e8e9ba99bbc8cfe"}, {"bike_id": "b029f83e0ddf20ccab33f08a0f517581", "type": "electric_scooter", "is_disabled": 0, "lat": 38.9026095, "rental_uris": {"ios": "https://dc.lft.to/lastmile_qr_scan", "android": "https://dc.lft.to/lastmile_qr_scan"}, "is_reserved": 0, "fusion_lon": 0.0, "fusion_lat": 0.0, "lon": -77.0476395, "name": "b029f83e0ddf20ccab33f08a0f517581"}, {"bike_id": "2dada844780a2e814faa2d5e2afab240", "type": "electric_scooter", "is_disabled": 0, "lat": 38.89842733333333, "rental_uris": {"ios": "https://dc.lft.to/lastmile_qr_scan", "android": "https://dc.lft.to/lastmile_qr_scan"}, "is_reserved": 0, "fusion_lon": 0.0, "fusion_lat": 0.0, "lon": -77.04069166666666, "name": "2dada844780a2e814faa2d5e2afab240"}, {"bike_id": "eb6a1b253912f5ccb9c38cbcfd9ec943", "type": "electric_scooter", "is_disabled": 0, "lat": 38.905649833333335, "rental_uris": {"ios": "https://dc.lft.to/lastmile_qr_scan", "android": "https://dc.lft.to/lastmile_qr_scan"}, "is_reserved": 0, "fusion_lon": 0.0, "fusion_lat": 0.0, "lon": -77.00476716666667, "name": "eb6a1b253912f5ccb9c38cbcfd9ec943"}, {"bike_id": "204a7fa3ed9c3d454f38290991f4ddc1", "type": "electric_scooter", "is_disabled": 0, "lat": 38.9106165, "rental_uris": {"ios": "https://dc.lft.to/lastmile_qr_scan", "android": "https://dc.lft.to/lastmile_qr_scan"}, "is_reserved": 0, "fusion_lon": 0.0, "fusion_lat": 0.0, "lon": -77.03089516666667, "name": "204a7fa3ed9c3d454f38290991f4ddc1"}, {"bike_id": "e15a1563abbd315f083b486f6047e4d0", "type": "electric_scooter", "is_disabled": 0, "lat": 38.89202983333333, "rental_uris": {"ios": "https://dc.lft.to/lastmile_qr_scan", "android": "https://dc.lft.to/lastmile_qr_scan"}, "is_reserved": 0, "fusion_lon": 0.0, "fusion_lat": 0.0, "lon": -76.99934133333333, "name": "e15a1563abbd315f083b486f6047e4d0"}, {"bike_id": "fbce57e2d4b871bae2fa90a2ef37bf83", "type": "electric_scooter", "is_disabled": 0, "lat": 38.914616333333335, "rental_uris": {"ios": "https://dc.lft.to/lastmile_qr_scan", "android": "https://dc.lft.to/lastmile_qr_scan"}, "is_reserved": 0, "fusion_lon": 0.0, "fusion_lat": 0.0, "lon": -77.00215316666667, "name": "fbce57e2d4b871bae2fa90a2ef37bf83"}, {"bike_id": "8049f4f41efcd699706dfa2a19584825", "type": "electric_scooter", "is_disabled": 0, "lat": 38.90852733333333, "rental_uris": {"ios": "https://dc.lft.to/lastmile_qr_scan", "android": "https://dc.lft.to/lastmile_qr_scan"}, "is_reserved": 0, "fusion_lon": 0.0, "fusion_lat": 0.0, "lon": -77.0476695, "name": "8049f4f41efcd699706dfa2a19584825"}, {"bike_id": "da3dba5c7f60081b34806626027ee05c", "type": "electric_scooter", "is_disabled": 0, "lat": 38.904849166666665, "rental_uris": {"ios": "https://dc.lft.to/lastmile_qr_scan", "android": "https://dc.lft.to/lastmile_qr_scan"}, "is_reserved": 0, "fusion_lon": 0.0, "fusion_lat": 0.0, "lon": -76.98983416666667, "name": "da3dba5c7f60081b34806626027ee05c"}, {"bike_id": "e42a6538ac42fe8ece47a7838fbde7fd", "type": "electric_scooter", "is_disabled": 0, "lat": 38.9023605, "rental_uris": {"ios": "https://dc.lft.to/lastmile_qr_scan", "android": "https://dc.lft.to/lastmile_qr_scan"}, "is_reserved": 0, "fusion_lon": 0.0, "fusion_lat": 0.0, "lon": -77.0020775, "name": "e42a6538ac42fe8ece47a7838fbde7fd"}, {"bike_id": "c38ee232d2bfcddc39a62354d58d465a", "type": "electric_scooter", "is_disabled": 0, "lat": 38.8996455, "rental_uris": {"ios": "https://dc.lft.to/lastmile_qr_scan", "android": "https://dc.lft.to/lastmile_qr_scan"}, "is_reserved": 0, "fusion_lon": 0.0, "fusion_lat": 0.0, "lon": -76.9829955, "name": "c38ee232d2bfcddc39a62354d58d465a"}, {"bike_id": "f9b8fc12e887199f898e2caaa79a628b", "type": "electric_scooter", "is_disabled": 0, "lat": 38.91569883333333, "rental_uris": {"ios": "https://dc.lft.to/lastmile_qr_scan", "android": "https://dc.lft.to/lastmile_qr_scan"}, "is_reserved": 0, "fusion_lon": 0.0, "fusion_lat": 0.0, "lon": -77.02186966666666, "name": "f9b8fc12e887199f898e2caaa79a628b"}, {"bike_id": "53fd86365e6fcaf3ce46383e0887dec1", "type": "electric_scooter", "is_disabled": 0, "lat": 38.92151783333333, "rental_uris": {"ios": "https://dc.lft.to/lastmile_qr_scan", "android": "https://dc.lft.to/lastmile_qr_scan"}, "is_reserved": 0, "fusion_lon": 0.0, "fusion_lat": 0.0, "lon": -77.031983, "name": "53fd86365e6fcaf3ce46383e0887dec1"}, {"bike_id": "28ea51f4e649bdad125d4ed236d6411a", "type": "electric_scooter", "is_disabled": 0, "lat": 38.915743166666665, "rental_uris": {"ios": "https://dc.lft.to/lastmile_qr_scan", "android": "https://dc.lft.to/lastmile_qr_scan"}, "is_reserved": 0, "fusion_lon": 0.0, "fusion_lat": 0.0, "lon": -77.03198566666667, "name": "28ea51f4e649bdad125d4ed236d6411a"}, {"bike_id": "ab609805b30eb397172b3ccfd979cee0", "type": "electric_bike", "is_disabled": 0, "lat": 38.871034, "rental_uris": {"ios": "https://dc.lft.to/lastmile_qr_scan", "android": "https://dc.lft.to/lastmile_qr_scan"}, "is_reserved": 0, "fusion_lon": 0.0, "fusion_lat": 0.0, "lon": -77.01217766666667, "name": "ab609805b30eb397172b3ccfd979cee0"}, {"bike_id": "c0e65c9ab4b60b48825c1002812bba43", "type": "electric_scooter", "is_disabled": 0, "lat": 38.945575, "rental_uris": {"ios": "https://dc.lft.to/lastmile_qr_scan", "android": "https://dc.lft.to/lastmile_qr_scan"}, "is_reserved": 0, "fusion_lon": 0.0, "fusion_lat": 0.0, "lon": -77.07126866666667, "name": "c0e65c9ab4b60b48825c1002812bba43"}, {"bike_id": "86a58b7c89c2a300ab70e18d63d667b0", "type": "electric_scooter", "is_disabled": 0, "lat": 38.884524666666664, "rental_uris": {"ios": "https://dc.lft.to/lastmile_qr_scan", "android": "https://dc.lft.to/lastmile_qr_scan"}, "is_reserved": 0, "fusion_lon": 0.0, "fusion_lat": 0.0, "lon": -76.95097833333334, "name": "86a58b7c89c2a300ab70e18d63d667b0"}, {"bike_id": "cfb727a8f6b29d4b2250650b2497af21", "type": "electric_bike", "is_disabled": 0, "lat": 38.858946833333334, "rental_uris": {"ios": "https://dc.lft.to/lastmile_qr_scan", "android": "https://dc.lft.to/lastmile_qr_scan"}, "is_reserved": 0, "fusion_lon": 0.0, "fusion_lat": 0.0, "lon": -77.1186195, "name": "cfb727a8f6b29d4b2250650b2497af21"}, {"bike_id": "c25837cd6b3dba4b727f7fc230788788", "type": "electric_scooter", "is_disabled": 0, "lat": 38.88501766666667, "rental_uris": {"ios": "https://dc.lft.to/lastmile_qr_scan", "android": "https://dc.lft.to/lastmile_qr_scan"}, "is_reserved": 0, "fusion_lon": 0.0, "fusion_lat": 0.0, "lon": -76.99842433333333, "name": "c25837cd6b3dba4b727f7fc230788788"}, {"bike_id": "10a97764ec2df94932316f077ce21b34", "type": "electric_scooter", "is_disabled": 0, "lat": 38.90973416666667, "rental_uris": {"ios": "https://dc.lft.to/lastmile_qr_scan", "android": "https://dc.lft.to/lastmile_qr_scan"}, "is_reserved": 0, "fusion_lon": 0.0, "fusion_lat": 0.0, "lon": -77.03441833333333, "name": "10a97764ec2df94932316f077ce21b34"}, {"bike_id": "36af99af9629740ea40d872075f2f46b", "type": "electric_scooter", "is_disabled": 0, "lat": 38.91574683333333, "rental_uris": {"ios": "https://dc.lft.to/lastmile_qr_scan", "android": "https://dc.lft.to/lastmile_qr_scan"}, "is_reserved": 0, "fusion_lon": 0.0, "fusion_lat": 0.0, "lon": -77.01998283333333, "name": "36af99af9629740ea40d872075f2f46b"}, {"bike_id": "8a22ae7c32d55e3fd7dd58eb76c9131d", "type": "electric_scooter", "is_disabled": 0, "lat": 38.91574, "rental_uris": {"ios": "https://dc.lft.to/lastmile_qr_scan", "android": "https://dc.lft.to/lastmile_qr_scan"}, "is_reserved": 0, "fusion_lon": 0.0, "fusion_lat": 0.0, "lon": -77.02056066666667, "name": "8a22ae7c32d55e3fd7dd58eb76c9131d"}, {"bike_id": "04c7f4108a3b5120dcb42de5873c12f4", "type": "electric_scooter", "is_disabled": 0, "lat": 38.9068465, "rental_uris": {"ios": "https://dc.lft.to/lastmile_qr_scan", "android": "https://dc.lft.to/lastmile_qr_scan"}, "is_reserved": 0, "fusion_lon": 0.0, "fusion_lat": 0.0, "lon": -77.02695666666666, "name": "04c7f4108a3b5120dcb42de5873c12f4"}, {"bike_id": "b8e8f08409c4edbab1325672853da0c3", "type": "electric_scooter", "is_disabled": 0, "lat": 38.8953695, "rental_uris": {"ios": "https://dc.lft.to/lastmile_qr_scan", "android": "https://dc.lft.to/lastmile_qr_scan"}, "is_reserved": 0, "fusion_lon": 0.0, "fusion_lat": 0.0, "lon": -77.01135, "name": "b8e8f08409c4edbab1325672853da0c3"}, {"bike_id": "3007b90bcb09a5601994411981dfb443", "type": "electric_scooter", "is_disabled": 0, "lat": 38.911139, "rental_uris": {"ios": "https://dc.lft.to/lastmile_qr_scan", "android": "https://dc.lft.to/lastmile_qr_scan"}, "is_reserved": 0, "fusion_lon": 0.0, "fusion_lat": 0.0, "lon": -77.0448125, "name": "3007b90bcb09a5601994411981dfb443"}, {"bike_id": "93c555d278bff4f997d4c2fd12ab9a51", "type": "electric_scooter", "is_disabled": 0, "lat": 38.902763, "rental_uris": {"ios": "https://dc.lft.to/lastmile_qr_scan", "android": "https://dc.lft.to/lastmile_qr_scan"}, "is_reserved": 0, "fusion_lon": 0.0, "fusion_lat": 0.0, "lon": -77.01903383333334, "name": "93c555d278bff4f997d4c2fd12ab9a51"}, {"bike_id": "505e6123c33f758ea92d2ffa89e8085f", "type": "electric_scooter", "is_disabled": 0, "lat": 38.91767933333333, "rental_uris": {"ios": "https://dc.lft.to/lastmile_qr_scan", "android": "https://dc.lft.to/lastmile_qr_scan"}, "is_reserved": 0, "fusion_lon": 0.0, "fusion_lat": 0.0, "lon": -77.04770716666667, "name": "505e6123c33f758ea92d2ffa89e8085f"}, {"bike_id": "d81a948e05bdd8b180c52e17ec57a8d8", "type": "electric_scooter", "is_disabled": 0, "lat": 38.90157633333333, "rental_uris": {"ios": "https://dc.lft.to/lastmile_qr_scan", "android": "https://dc.lft.to/lastmile_qr_scan"}, "is_reserved": 0, "fusion_lon": 0.0, "fusion_lat": 0.0, "lon": -77.05904083333333, "name": "d81a948e05bdd8b180c52e17ec57a8d8"}, {"bike_id": "27523a468d2fd2345d7479c973c9c1a3", "type": "electric_scooter", "is_disabled": 0, "lat": 38.900069, "rental_uris": {"ios": "https://dc.lft.to/lastmile_qr_scan", "android": "https://dc.lft.to/lastmile_qr_scan"}, "is_reserved": 0, "fusion_lon": 0.0, "fusion_lat": 0.0, "lon": -77.0465845, "name": "27523a468d2fd2345d7479c973c9c1a3"}, {"bike_id": "bbd11c269ecdb3ba1514313fa1f0d621", "type": "electric_scooter", "is_disabled": 0, "lat": 38.9030325, "rental_uris": {"ios": "https://dc.lft.to/lastmile_qr_scan", "android": "https://dc.lft.to/lastmile_qr_scan"}, "is_reserved": 0, "fusion_lon": 0.0, "fusion_lat": 0.0, "lon": -77.023772, "name": "bbd11c269ecdb3ba1514313fa1f0d621"}, {"bike_id": "3cb5a347b18ac991e980060a746e2d1e", "type": "electric_scooter", "is_disabled": 0, "lat": 38.91352, "rental_uris": {"ios": "https://dc.lft.to/lastmile_qr_scan", "android": "https://dc.lft.to/lastmile_qr_scan"}, "is_reserved": 0, "fusion_lon": 0.0, "fusion_lat": 0.0, "lon": -77.0256905, "name": "3cb5a347b18ac991e980060a746e2d1e"}, {"bike_id": "1970fa517f8aa0c2a083de938184c8a9", "type": "electric_scooter", "is_disabled": 0, "lat": 38.896159833333336, "rental_uris": {"ios": "https://dc.lft.to/lastmile_qr_scan", "android": "https://dc.lft.to/lastmile_qr_scan"}, "is_reserved": 0, "fusion_lon": 0.0, "fusion_lat": 0.0, "lon": -76.98163883333334, "name": "1970fa517f8aa0c2a083de938184c8a9"}, {"bike_id": "1691aed4847cb0adc7388024aab5da0f", "type": "electric_scooter", "is_disabled": 0, "lat": 38.915692666666665, "rental_uris": {"ios": "https://dc.lft.to/lastmile_qr_scan", "android": "https://dc.lft.to/lastmile_qr_scan"}, "is_reserved": 0, "fusion_lon": 0.0, "fusion_lat": 0.0, "lon": -77.04282833333333, "name": "1691aed4847cb0adc7388024aab5da0f"}, {"bike_id": "1775aeb46acc38575305a87d775fa3fb", "type": "electric_scooter", "is_disabled": 0, "lat": 38.91658733333333, "rental_uris": {"ios": "https://dc.lft.to/lastmile_qr_scan", "android": "https://dc.lft.to/lastmile_qr_scan"}, "is_reserved": 0, "fusion_lon": 0.0, "fusion_lat": 0.0, "lon": -77.02887483333333, "name": "1775aeb46acc38575305a87d775fa3fb"}, {"bike_id": "65d7c1a0edab4129c6df049b1c91d15e", "type": "electric_scooter", "is_disabled": 0, "lat": 38.892350666666665, "rental_uris": {"ios": "https://dc.lft.to/lastmile_qr_scan", "android": "https://dc.lft.to/lastmile_qr_scan"}, "is_reserved": 0, "fusion_lon": 0.0, "fusion_lat": 0.0, "lon": -77.03179266666666, "name": "65d7c1a0edab4129c6df049b1c91d15e"}, {"bike_id": "4aca73d6ae6641b4b379eb9610fdcf4e", "type": "electric_scooter", "is_disabled": 0, "lat": 38.888547333333335, "rental_uris": {"ios": "https://dc.lft.to/lastmile_qr_scan", "android": "https://dc.lft.to/lastmile_qr_scan"}, "is_reserved": 0, "fusion_lon": 0.0, "fusion_lat": 0.0, "lon": -77.00053166666666, "name": "4aca73d6ae6641b4b379eb9610fdcf4e"}, {"bike_id": "0ff74caddef7e80d3442bf790b6abcec", "type": "electric_scooter", "is_disabled": 0, "lat": 38.9243475, "rental_uris": {"ios": "https://dc.lft.to/lastmile_qr_scan", "android": "https://dc.lft.to/lastmile_qr_scan"}, "is_reserved": 0, "fusion_lon": 0.0, "fusion_lat": 0.0, "lon": -77.05221133333333, "name": "0ff74caddef7e80d3442bf790b6abcec"}, {"bike_id": "2a331b42b1cc7cfa9ad306929483ba1d", "type": "electric_scooter", "is_disabled": 0, "lat": 38.922642333333336, "rental_uris": {"ios": "https://dc.lft.to/lastmile_qr_scan", "android": "https://dc.lft.to/lastmile_qr_scan"}, "is_reserved": 0, "fusion_lon": 0.0, "fusion_lat": 0.0, "lon": -77.041943, "name": "2a331b42b1cc7cfa9ad306929483ba1d"}, {"bike_id": "b9cb9d70b5ab6e311a30df95812908a7", "type": "electric_scooter", "is_disabled": 0, "lat": 38.91791216666667, "rental_uris": {"ios": "https://dc.lft.to/lastmile_qr_scan", "android": "https://dc.lft.to/lastmile_qr_scan"}, "is_reserved": 0, "fusion_lon": 0.0, "fusion_lat": 0.0, "lon": -77.02713616666666, "name": "b9cb9d70b5ab6e311a30df95812908a7"}, {"bike_id": "9dd62693148fa5a85855a3e2e7222c15", "type": "electric_scooter", "is_disabled": 0, "lat": 38.8805275, "rental_uris": {"ios": "https://dc.lft.to/lastmile_qr_scan", "android": "https://dc.lft.to/lastmile_qr_scan"}, "is_reserved": 0, "fusion_lon": 0.0, "fusion_lat": 0.0, "lon": -76.93215466666666, "name": "9dd62693148fa5a85855a3e2e7222c15"}, {"bike_id": "727de510872b9d849a73671768b27cf1", "type": "electric_scooter", "is_disabled": 0, "lat": 38.921267, "rental_uris": {"ios": "https://dc.lft.to/lastmile_qr_scan", "android": "https://dc.lft.to/lastmile_qr_scan"}, "is_reserved": 0, "fusion_lon": 0.0, "fusion_lat": 0.0, "lon": -77.043709, "name": "727de510872b9d849a73671768b27cf1"}, {"bike_id": "80ad2373bf02fb220913d9ae4eea0371", "type": "electric_scooter", "is_disabled": 0, "lat": 38.92271683333333, "rental_uris": {"ios": "https://dc.lft.to/lastmile_qr_scan", "android": "https://dc.lft.to/lastmile_qr_scan"}, "is_reserved": 0, "fusion_lon": 0.0, "fusion_lat": 0.0, "lon": -77.02244316666666, "name": "80ad2373bf02fb220913d9ae4eea0371"}, {"bike_id": "d022cfef6191988f41269e6b33b09206", "type": "electric_scooter", "is_disabled": 0, "lat": 38.931769, "rental_uris": {"ios": "https://dc.lft.to/lastmile_qr_scan", "android": "https://dc.lft.to/lastmile_qr_scan"}, "is_reserved": 0, "fusion_lon": 0.0, "fusion_lat": 0.0, "lon": -76.99486233333333, "name": "d022cfef6191988f41269e6b33b09206"}, {"bike_id": "e1c35df2b85da52d3957e0e9989c2e52", "type": "electric_scooter", "is_disabled": 0, "lat": 38.91113266666667, "rental_uris": {"ios": "https://dc.lft.to/lastmile_qr_scan", "android": "https://dc.lft.to/lastmile_qr_scan"}, "is_reserved": 0, "fusion_lon": 0.0, "fusion_lat": 0.0, "lon": -77.03290966666667, "name": "e1c35df2b85da52d3957e0e9989c2e52"}, {"bike_id": "bb4ad9f6597b68e2bb82424ed26a94d5", "type": "electric_scooter", "is_disabled": 0, "lat": 38.90738616666667, "rental_uris": {"ios": "https://dc.lft.to/lastmile_qr_scan", "android": "https://dc.lft.to/lastmile_qr_scan"}, "is_reserved": 0, "fusion_lon": 0.0, "fusion_lat": 0.0, "lon": -77.0422985, "name": "bb4ad9f6597b68e2bb82424ed26a94d5"}, {"bike_id": "95e0cb1ccd3410ac58b72808f6767dc8", "type": "electric_scooter", "is_disabled": 0, "lat": 38.909748666666665, "rental_uris": {"ios": "https://dc.lft.to/lastmile_qr_scan", "android": "https://dc.lft.to/lastmile_qr_scan"}, "is_reserved": 0, "fusion_lon": 0.0, "fusion_lat": 0.0, "lon": -77.02184683333333, "name": "95e0cb1ccd3410ac58b72808f6767dc8"}, {"bike_id": "99bd0d5c9e28a889d8de70735e815bc2", "type": "electric_bike", "is_disabled": 0, "lat": 38.908271, "rental_uris": {"ios": "https://dc.lft.to/lastmile_qr_scan", "android": "https://dc.lft.to/lastmile_qr_scan"}, "is_reserved": 0, "fusion_lon": 0.0, "fusion_lat": 0.0, "lon": -76.94157183333333, "name": "99bd0d5c9e28a889d8de70735e815bc2"}, {"bike_id": "9c4c0979c3161f1deb3cfbc102709126", "type": "electric_scooter", "is_disabled": 0, "lat": 38.9287945, "rental_uris": {"ios": "https://dc.lft.to/lastmile_qr_scan", "android": "https://dc.lft.to/lastmile_qr_scan"}, "is_reserved": 0, "fusion_lon": 0.0, "fusion_lat": 0.0, "lon": -77.013614, "name": "9c4c0979c3161f1deb3cfbc102709126"}, {"bike_id": "993e07bb8a162bde8a8bc0a65f3cfcfe", "type": "electric_bike", "is_disabled": 0, "lat": 39.03744183333333, "rental_uris": {"ios": "https://dc.lft.to/lastmile_qr_scan", "android": "https://dc.lft.to/lastmile_qr_scan"}, "is_reserved": 0, "fusion_lon": 0.0, "fusion_lat": 0.0, "lon": -77.05477833333333, "name": "993e07bb8a162bde8a8bc0a65f3cfcfe"}, {"bike_id": "d13084c1f8a91135862d3b4448c07924", "type": "electric_bike", "is_disabled": 0, "lat": 39.054962, "rental_uris": {"ios": "https://dc.lft.to/lastmile_qr_scan", "android": "https://dc.lft.to/lastmile_qr_scan"}, "is_reserved": 0, "fusion_lon": 0.0, "fusion_lat": 0.0, "lon": -77.11789633333333, "name": "d13084c1f8a91135862d3b4448c07924"}, {"bike_id": "14a8a6ddfc9ca71d97d43b7007758f37", "type": "electric_scooter", "is_disabled": 0, "lat": 38.904030166666665, "rental_uris": {"ios": "https://dc.lft.to/lastmile_qr_scan", "android": "https://dc.lft.to/lastmile_qr_scan"}, "is_reserved": 0, "fusion_lon": 0.0, "fusion_lat": 0.0, "lon": -77.005799, "name": "14a8a6ddfc9ca71d97d43b7007758f37"}, {"bike_id": "a1ca63e7c27e517e625644dfc50e01bd", "type": "electric_scooter", "is_disabled": 0, "lat": 38.90543683333333, "rental_uris": {"ios": "https://dc.lft.to/lastmile_qr_scan", "android": "https://dc.lft.to/lastmile_qr_scan"}, "is_reserved": 0, "fusion_lon": 0.0, "fusion_lat": 0.0, "lon": -77.06887466666667, "name": "a1ca63e7c27e517e625644dfc50e01bd"}, {"bike_id": "4f366b8d5cfb3dc7b98171451491937e", "type": "electric_scooter", "is_disabled": 0, "lat": 38.887482166666665, "rental_uris": {"ios": "https://dc.lft.to/lastmile_qr_scan", "android": "https://dc.lft.to/lastmile_qr_scan"}, "is_reserved": 0, "fusion_lon": 0.0, "fusion_lat": 0.0, "lon": -76.99623833333334, "name": "4f366b8d5cfb3dc7b98171451491937e"}, {"bike_id": "8bae589083ec476c8f843baa878f41d9", "type": "electric_scooter", "is_disabled": 0, "lat": 38.91008, "rental_uris": {"ios": "https://dc.lft.to/lastmile_qr_scan", "android": "https://dc.lft.to/lastmile_qr_scan"}, "is_reserved": 0, "fusion_lon": 0.0, "fusion_lat": 0.0, "lon": -77.04925016666667, "name": "8bae589083ec476c8f843baa878f41d9"}, {"bike_id": "e5c5870c987e14332b69b24420ac7f22", "type": "electric_bike", "is_disabled": 0, "lat": 38.83610316666667, "rental_uris": {"ios": "https://dc.lft.to/lastmile_qr_scan", "android": "https://dc.lft.to/lastmile_qr_scan"}, "is_reserved": 0, "fusion_lon": 0.0, "fusion_lat": 0.0, "lon": -77.00383766666667, "name": "e5c5870c987e14332b69b24420ac7f22"}, {"bike_id": "08ff7446e3ca63037e90fa56a381200a", "type": "electric_scooter", "is_disabled": 0, "lat": 38.90792033333334, "rental_uris": {"ios": "https://dc.lft.to/lastmile_qr_scan", "android": "https://dc.lft.to/lastmile_qr_scan"}, "is_reserved": 0, "fusion_lon": 0.0, "fusion_lat": 0.0, "lon": -77.0642525, "name": "08ff7446e3ca63037e90fa56a381200a"}, {"bike_id": "ebace8d4967202365a94617de7fd826b", "type": "electric_bike", "is_disabled": 0, "lat": 38.871371, "rental_uris": {"ios": "https://dc.lft.to/lastmile_qr_scan", "android": "https://dc.lft.to/lastmile_qr_scan"}, "is_reserved": 0, "fusion_lon": 0.0, "fusion_lat": 0.0, "lon": -77.100277, "name": "ebace8d4967202365a94617de7fd826b"}, {"bike_id": "2a425b6a3d541f8e4e3f836eeff1b895", "type": "electric_scooter", "is_disabled": 0, "lat": 38.9266835, "rental_uris": {"ios": "https://dc.lft.to/lastmile_qr_scan", "android": "https://dc.lft.to/lastmile_qr_scan"}, "is_reserved": 0, "fusion_lon": 0.0, "fusion_lat": 0.0, "lon": -77.02285866666666, "name": "2a425b6a3d541f8e4e3f836eeff1b895"}, {"bike_id": "7de44c6ec366361f111199ebf9f0a726", "type": "electric_scooter", "is_disabled": 0, "lat": 38.93031233333333, "rental_uris": {"ios": "https://dc.lft.to/lastmile_qr_scan", "android": "https://dc.lft.to/lastmile_qr_scan"}, "is_reserved": 0, "fusion_lon": 0.0, "fusion_lat": 0.0, "lon": -77.03803366666666, "name": "7de44c6ec366361f111199ebf9f0a726"}, {"bike_id": "e7e2f92c47a50d2ea4f4f04bdc621cde", "type": "electric_scooter", "is_disabled": 0, "lat": 38.89618566666667, "rental_uris": {"ios": "https://dc.lft.to/lastmile_qr_scan", "android": "https://dc.lft.to/lastmile_qr_scan"}, "is_reserved": 0, "fusion_lon": 0.0, "fusion_lat": 0.0, "lon": -77.0002265, "name": "e7e2f92c47a50d2ea4f4f04bdc621cde"}, {"bike_id": "7b3a33455dc65fea6e17201115b53bd5", "type": "electric_scooter", "is_disabled": 0, "lat": 38.92601916666667, "rental_uris": {"ios": "https://dc.lft.to/lastmile_qr_scan", "android": "https://dc.lft.to/lastmile_qr_scan"}, "is_reserved": 0, "fusion_lon": 0.0, "fusion_lat": 0.0, "lon": -77.021573, "name": "7b3a33455dc65fea6e17201115b53bd5"}, {"bike_id": "8846b0902764147dd7e4aa259fbf4604", "type": "electric_scooter", "is_disabled": 0, "lat": 38.920330166666666, "rental_uris": {"ios": "https://dc.lft.to/lastmile_qr_scan", "android": "https://dc.lft.to/lastmile_qr_scan"}, "is_reserved": 0, "fusion_lon": 0.0, "fusion_lat": 0.0, "lon": -77.02803566666667, "name": "8846b0902764147dd7e4aa259fbf4604"}, {"bike_id": "e81d8efd1917fb7f786e19eed2676e50", "type": "electric_scooter", "is_disabled": 0, "lat": 38.91100466666666, "rental_uris": {"ios": "https://dc.lft.to/lastmile_qr_scan", "android": "https://dc.lft.to/lastmile_qr_scan"}, "is_reserved": 0, "fusion_lon": 0.0, "fusion_lat": 0.0, "lon": -77.03445433333333, "name": "e81d8efd1917fb7f786e19eed2676e50"}, {"bike_id": "ab454bace04ececb1443a9942033f077", "type": "electric_bike", "is_disabled": 0, "lat": 38.8323875, "rental_uris": {"ios": "https://dc.lft.to/lastmile_qr_scan", "android": "https://dc.lft.to/lastmile_qr_scan"}, "is_reserved": 0, "fusion_lon": 0.0, "fusion_lat": 0.0, "lon": -76.94622683333333, "name": "ab454bace04ececb1443a9942033f077"}, {"bike_id": "cde027c7154df0737706ce3e93bf9fcb", "type": "electric_scooter", "is_disabled": 0, "lat": 38.91044016666667, "rental_uris": {"ios": "https://dc.lft.to/lastmile_qr_scan", "android": "https://dc.lft.to/lastmile_qr_scan"}, "is_reserved": 0, "fusion_lon": 0.0, "fusion_lat": 0.0, "lon": -77.04260183333334, "name": "cde027c7154df0737706ce3e93bf9fcb"}, {"bike_id": "af3f510d6000bb521242c9b3d74b38d2", "type": "electric_scooter", "is_disabled": 0, "lat": 38.87630983333333, "rental_uris": {"ios": "https://dc.lft.to/lastmile_qr_scan", "android": "https://dc.lft.to/lastmile_qr_scan"}, "is_reserved": 0, "fusion_lon": 0.0, "fusion_lat": 0.0, "lon": -77.00950133333333, "name": "af3f510d6000bb521242c9b3d74b38d2"}, {"bike_id": "423c5871f067d6dbc9498e796f27e60c", "type": "electric_scooter", "is_disabled": 0, "lat": 38.89003, "rental_uris": {"ios": "https://dc.lft.to/lastmile_qr_scan", "android": "https://dc.lft.to/lastmile_qr_scan"}, "is_reserved": 0, "fusion_lon": 0.0, "fusion_lat": 0.0, "lon": -76.93744116666667, "name": "423c5871f067d6dbc9498e796f27e60c"}, {"bike_id": "912b6232b1365d956a135d021d27efae", "type": "electric_scooter", "is_disabled": 0, "lat": 38.919372, "rental_uris": {"ios": "https://dc.lft.to/lastmile_qr_scan", "android": "https://dc.lft.to/lastmile_qr_scan"}, "is_reserved": 0, "fusion_lon": 0.0, "fusion_lat": 0.0, "lon": -77.02480666666666, "name": "912b6232b1365d956a135d021d27efae"}, {"bike_id": "ce8a1e8c0cadec2d06414b4069b46dbe", "type": "electric_scooter", "is_disabled": 0, "lat": 38.92333133333333, "rental_uris": {"ios": "https://dc.lft.to/lastmile_qr_scan", "android": "https://dc.lft.to/lastmile_qr_scan"}, "is_reserved": 0, "fusion_lon": 0.0, "fusion_lat": 0.0, "lon": -77.03512366666666, "name": "ce8a1e8c0cadec2d06414b4069b46dbe"}, {"bike_id": "c91b3da03cf8314bb63346ef51092a24", "type": "electric_scooter", "is_disabled": 0, "lat": 38.906691333333335, "rental_uris": {"ios": "https://dc.lft.to/lastmile_qr_scan", "android": "https://dc.lft.to/lastmile_qr_scan"}, "is_reserved": 0, "fusion_lon": 0.0, "fusion_lat": 0.0, "lon": -77.027094, "name": "c91b3da03cf8314bb63346ef51092a24"}, {"bike_id": "fa56bfbf33e781b9c84cd996e645ee6b", "type": "electric_scooter", "is_disabled": 0, "lat": 38.90023566666667, "rental_uris": {"ios": "https://dc.lft.to/lastmile_qr_scan", "android": "https://dc.lft.to/lastmile_qr_scan"}, "is_reserved": 0, "fusion_lon": 0.0, "fusion_lat": 0.0, "lon": -77.0467495, "name": "fa56bfbf33e781b9c84cd996e645ee6b"}, {"bike_id": "fd8f4c3f1f3f37e6331273725d2cf462", "type": "electric_scooter", "is_disabled": 0, "lat": 38.914162833333336, "rental_uris": {"ios": "https://dc.lft.to/lastmile_qr_scan", "android": "https://dc.lft.to/lastmile_qr_scan"}, "is_reserved": 0, "fusion_lon": 0.0, "fusion_lat": 0.0, "lon": -77.0298595, "name": "fd8f4c3f1f3f37e6331273725d2cf462"}, {"bike_id": "3671cef203642d411c39b90e0cf728c2", "type": "electric_scooter", "is_disabled": 0, "lat": 38.893955166666665, "rental_uris": {"ios": "https://dc.lft.to/lastmile_qr_scan", "android": "https://dc.lft.to/lastmile_qr_scan"}, "is_reserved": 0, "fusion_lon": 0.0, "fusion_lat": 0.0, "lon": -77.02785083333333, "name": "3671cef203642d411c39b90e0cf728c2"}, {"bike_id": "e3942445c036830c2295d279c4d49aeb", "type": "electric_scooter", "is_disabled": 0, "lat": 38.9001045, "rental_uris": {"ios": "https://dc.lft.to/lastmile_qr_scan", "android": "https://dc.lft.to/lastmile_qr_scan"}, "is_reserved": 0, "fusion_lon": 0.0, "fusion_lat": 0.0, "lon": -77.04493166666667, "name": "e3942445c036830c2295d279c4d49aeb"}, {"bike_id": "b09578e330c0ae0ca915569d2e27f714", "type": "electric_scooter", "is_disabled": 0, "lat": 38.92365566666667, "rental_uris": {"ios": "https://dc.lft.to/lastmile_qr_scan", "android": "https://dc.lft.to/lastmile_qr_scan"}, "is_reserved": 0, "fusion_lon": 0.0, "fusion_lat": 0.0, "lon": -77.05126433333334, "name": "b09578e330c0ae0ca915569d2e27f714"}, {"bike_id": "3f13457847ea0e5a5b1e2046e6ba2763", "type": "electric_scooter", "is_disabled": 0, "lat": 38.90411016666667, "rental_uris": {"ios": "https://dc.lft.to/lastmile_qr_scan", "android": "https://dc.lft.to/lastmile_qr_scan"}, "is_reserved": 0, "fusion_lon": 0.0, "fusion_lat": 0.0, "lon": -76.97333166666667, "name": "3f13457847ea0e5a5b1e2046e6ba2763"}, {"bike_id": "183902592bc27792959f3f1eb0f13342", "type": "electric_scooter", "is_disabled": 0, "lat": 38.93236066666667, "rental_uris": {"ios": "https://dc.lft.to/lastmile_qr_scan", "android": "https://dc.lft.to/lastmile_qr_scan"}, "is_reserved": 0, "fusion_lon": 0.0, "fusion_lat": 0.0, "lon": -77.03858716666667, "name": "183902592bc27792959f3f1eb0f13342"}, {"bike_id": "a37bae7aec6dd71a0553fd9a786edc24", "type": "electric_bike", "is_disabled": 0, "lat": 39.050553, "rental_uris": {"ios": "https://dc.lft.to/lastmile_qr_scan", "android": "https://dc.lft.to/lastmile_qr_scan"}, "is_reserved": 0, "fusion_lon": 0.0, "fusion_lat": 0.0, "lon": -77.05150066666667, "name": "a37bae7aec6dd71a0553fd9a786edc24"}, {"bike_id": "7563a6467f2279b2f2edc645c9e4e969", "type": "electric_scooter", "is_disabled": 0, "lat": 38.89721433333333, "rental_uris": {"ios": "https://dc.lft.to/lastmile_qr_scan", "android": "https://dc.lft.to/lastmile_qr_scan"}, "is_reserved": 0, "fusion_lon": 0.0, "fusion_lat": 0.0, "lon": -77.026196, "name": "7563a6467f2279b2f2edc645c9e4e969"}, {"bike_id": "f26972151ae8b7a4e79514c09389068a", "type": "electric_scooter", "is_disabled": 0, "lat": 38.903986833333335, "rental_uris": {"ios": "https://dc.lft.to/lastmile_qr_scan", "android": "https://dc.lft.to/lastmile_qr_scan"}, "is_reserved": 0, "fusion_lon": 0.0, "fusion_lat": 0.0, "lon": -77.0651125, "name": "f26972151ae8b7a4e79514c09389068a"}, {"bike_id": "1fc884d791422add6b3d24088b56b267", "type": "electric_scooter", "is_disabled": 0, "lat": 38.94293016666666, "rental_uris": {"ios": "https://dc.lft.to/lastmile_qr_scan", "android": "https://dc.lft.to/lastmile_qr_scan"}, "is_reserved": 0, "fusion_lon": 0.0, "fusion_lat": 0.0, "lon": -77.00492183333333, "name": "1fc884d791422add6b3d24088b56b267"}, {"bike_id": "73d56974843fd5e3dab0c49a0da3dafe", "type": "electric_scooter", "is_disabled": 0, "lat": 38.91019516666667, "rental_uris": {"ios": "https://dc.lft.to/lastmile_qr_scan", "android": "https://dc.lft.to/lastmile_qr_scan"}, "is_reserved": 0, "fusion_lon": 0.0, "fusion_lat": 0.0, "lon": -77.0528745, "name": "73d56974843fd5e3dab0c49a0da3dafe"}, {"bike_id": "0b36d3c3caf504256930d3d2f22f8343", "type": "electric_scooter", "is_disabled": 0, "lat": 38.916044166666666, "rental_uris": {"ios": "https://dc.lft.to/lastmile_qr_scan", "android": "https://dc.lft.to/lastmile_qr_scan"}, "is_reserved": 0, "fusion_lon": 0.0, "fusion_lat": 0.0, "lon": -77.01546383333333, "name": "0b36d3c3caf504256930d3d2f22f8343"}, {"bike_id": "b93118abd0431e4d69025f4e0eafa6ca", "type": "electric_scooter", "is_disabled": 0, "lat": 38.87348083333333, "rental_uris": {"ios": "https://dc.lft.to/lastmile_qr_scan", "android": "https://dc.lft.to/lastmile_qr_scan"}, "is_reserved": 0, "fusion_lon": 0.0, "fusion_lat": 0.0, "lon": -77.00053633333333, "name": "b93118abd0431e4d69025f4e0eafa6ca"}, {"bike_id": "134ed85634589fbf96e773a1d4131747", "type": "electric_scooter", "is_disabled": 0, "lat": 38.8932305, "rental_uris": {"ios": "https://dc.lft.to/lastmile_qr_scan", "android": "https://dc.lft.to/lastmile_qr_scan"}, "is_reserved": 0, "fusion_lon": 0.0, "fusion_lat": 0.0, "lon": -77.048772, "name": "134ed85634589fbf96e773a1d4131747"}, {"bike_id": "1677ad24150c9a6346d4ba96514d38c9", "type": "electric_scooter", "is_disabled": 0, "lat": 38.93195433333333, "rental_uris": {"ios": "https://dc.lft.to/lastmile_qr_scan", "android": "https://dc.lft.to/lastmile_qr_scan"}, "is_reserved": 0, "fusion_lon": 0.0, "fusion_lat": 0.0, "lon": -77.02018866666667, "name": "1677ad24150c9a6346d4ba96514d38c9"}, {"bike_id": "31b07e1e89c38087d32f147e0832bcdd", "type": "electric_scooter", "is_disabled": 0, "lat": 38.888858666666664, "rental_uris": {"ios": "https://dc.lft.to/lastmile_qr_scan", "android": "https://dc.lft.to/lastmile_qr_scan"}, "is_reserved": 0, "fusion_lon": 0.0, "fusion_lat": 0.0, "lon": -77.03327733333333, "name": "31b07e1e89c38087d32f147e0832bcdd"}, {"bike_id": "86d0a1db9558ee750d6224855b6fae69", "type": "electric_scooter", "is_disabled": 0, "lat": 38.91705066666667, "rental_uris": {"ios": "https://dc.lft.to/lastmile_qr_scan", "android": "https://dc.lft.to/lastmile_qr_scan"}, "is_reserved": 0, "fusion_lon": 0.0, "fusion_lat": 0.0, "lon": -77.04194066666666, "name": "86d0a1db9558ee750d6224855b6fae69"}, {"bike_id": "ffcff2f5e319b612f98599d81e021ad0", "type": "electric_scooter", "is_disabled": 0, "lat": 38.94987283333333, "rental_uris": {"ios": "https://dc.lft.to/lastmile_qr_scan", "android": "https://dc.lft.to/lastmile_qr_scan"}, "is_reserved": 0, "fusion_lon": 0.0, "fusion_lat": 0.0, "lon": -77.02706966666666, "name": "ffcff2f5e319b612f98599d81e021ad0"}, {"bike_id": "ba3eafa492ebcf8eb534fb7ce1ab47bc", "type": "electric_scooter", "is_disabled": 0, "lat": 38.91118066666667, "rental_uris": {"ios": "https://dc.lft.to/lastmile_qr_scan", "android": "https://dc.lft.to/lastmile_qr_scan"}, "is_reserved": 0, "fusion_lon": 0.0, "fusion_lat": 0.0, "lon": -77.04476733333334, "name": "ba3eafa492ebcf8eb534fb7ce1ab47bc"}, {"bike_id": "666585b4088e56f441dbaa3fb8486d8e", "type": "electric_scooter", "is_disabled": 0, "lat": 38.904119666666666, "rental_uris": {"ios": "https://dc.lft.to/lastmile_qr_scan", "android": "https://dc.lft.to/lastmile_qr_scan"}, "is_reserved": 0, "fusion_lon": 0.0, "fusion_lat": 0.0, "lon": -76.9733235, "name": "666585b4088e56f441dbaa3fb8486d8e"}, {"bike_id": "a8323059bdcdf0a241fa6513d327629a", "type": "electric_scooter", "is_disabled": 0, "lat": 38.907306166666665, "rental_uris": {"ios": "https://dc.lft.to/lastmile_qr_scan", "android": "https://dc.lft.to/lastmile_qr_scan"}, "is_reserved": 0, "fusion_lon": 0.0, "fusion_lat": 0.0, "lon": -77.0386955, "name": "a8323059bdcdf0a241fa6513d327629a"}, {"bike_id": "a500c2c51a6e5609bfc43d88eabc2ee6", "type": "electric_bike", "is_disabled": 0, "lat": 38.93879116666667, "rental_uris": {"ios": "https://dc.lft.to/lastmile_qr_scan", "android": "https://dc.lft.to/lastmile_qr_scan"}, "is_reserved": 0, "fusion_lon": 0.0, "fusion_lat": 0.0, "lon": -77.02478683333334, "name": "a500c2c51a6e5609bfc43d88eabc2ee6"}, {"bike_id": "4e208cb3dcbb7e5d2617b6c1756a7ee9", "type": "electric_scooter", "is_disabled": 0, "lat": 38.92456083333333, "rental_uris": {"ios": "https://dc.lft.to/lastmile_qr_scan", "android": "https://dc.lft.to/lastmile_qr_scan"}, "is_reserved": 0, "fusion_lon": 0.0, "fusion_lat": 0.0, "lon": -76.99912166666667, "name": "4e208cb3dcbb7e5d2617b6c1756a7ee9"}, {"bike_id": "c387eac965661b58e674c1cb73260597", "type": "electric_scooter", "is_disabled": 0, "lat": 38.94104316666667, "rental_uris": {"ios": "https://dc.lft.to/lastmile_qr_scan", "android": "https://dc.lft.to/lastmile_qr_scan"}, "is_reserved": 0, "fusion_lon": 0.0, "fusion_lat": 0.0, "lon": -77.07725516666666, "name": "c387eac965661b58e674c1cb73260597"}, {"bike_id": "6f127492f2aa3cd2363d7b87912525e5", "type": "electric_bike", "is_disabled": 0, "lat": 38.873004333333334, "rental_uris": {"ios": "https://dc.lft.to/lastmile_qr_scan", "android": "https://dc.lft.to/lastmile_qr_scan"}, "is_reserved": 0, "fusion_lon": 0.0, "fusion_lat": 0.0, "lon": -76.96980566666667, "name": "6f127492f2aa3cd2363d7b87912525e5"}, {"bike_id": "ecdb4996f01f94dab64da9e588b92cf6", "type": "electric_bike", "is_disabled": 0, "lat": 38.95624983333333, "rental_uris": {"ios": "https://dc.lft.to/lastmile_qr_scan", "android": "https://dc.lft.to/lastmile_qr_scan"}, "is_reserved": 0, "fusion_lon": 0.0, "fusion_lat": 0.0, "lon": -77.02593133333333, "name": "ecdb4996f01f94dab64da9e588b92cf6"}, {"bike_id": "565a6a6a65e0934ab609c8262aae559e", "type": "electric_scooter", "is_disabled": 0, "lat": 38.91371816666667, "rental_uris": {"ios": "https://dc.lft.to/lastmile_qr_scan", "android": "https://dc.lft.to/lastmile_qr_scan"}, "is_reserved": 0, "fusion_lon": 0.0, "fusion_lat": 0.0, "lon": -77.03016816666667, "name": "565a6a6a65e0934ab609c8262aae559e"}, {"bike_id": "c2ef3304e758df0e026792cbd4420331", "type": "electric_scooter", "is_disabled": 0, "lat": 38.905971666666666, "rental_uris": {"ios": "https://dc.lft.to/lastmile_qr_scan", "android": "https://dc.lft.to/lastmile_qr_scan"}, "is_reserved": 0, "fusion_lon": 0.0, "fusion_lat": 0.0, "lon": -77.06300116666667, "name": "c2ef3304e758df0e026792cbd4420331"}, {"bike_id": "8a58cbd9161d00e63d4b8b6672b7ecac", "type": "electric_scooter", "is_disabled": 0, "lat": 38.86217233333333, "rental_uris": {"ios": "https://dc.lft.to/lastmile_qr_scan", "android": "https://dc.lft.to/lastmile_qr_scan"}, "is_reserved": 0, "fusion_lon": 0.0, "fusion_lat": 0.0, "lon": -76.9948305, "name": "8a58cbd9161d00e63d4b8b6672b7ecac"}, {"bike_id": "4a0d8347f23498314ddc9ad751d8f720", "type": "electric_scooter", "is_disabled": 0, "lat": 38.900006, "rental_uris": {"ios": "https://dc.lft.to/lastmile_qr_scan", "android": "https://dc.lft.to/lastmile_qr_scan"}, "is_reserved": 0, "fusion_lon": 0.0, "fusion_lat": 0.0, "lon": -77.00681466666667, "name": "4a0d8347f23498314ddc9ad751d8f720"}, {"bike_id": "ce2bd0e011824925057c56b2d8159364", "type": "electric_scooter", "is_disabled": 0, "lat": 38.8874145, "rental_uris": {"ios": "https://dc.lft.to/lastmile_qr_scan", "android": "https://dc.lft.to/lastmile_qr_scan"}, "is_reserved": 0, "fusion_lon": 0.0, "fusion_lat": 0.0, "lon": -77.03209316666667, "name": "ce2bd0e011824925057c56b2d8159364"}, {"bike_id": "dedb20dbaae1ba6c31ab3d1e4a5961b1", "type": "electric_scooter", "is_disabled": 0, "lat": 38.9159395, "rental_uris": {"ios": "https://dc.lft.to/lastmile_qr_scan", "android": "https://dc.lft.to/lastmile_qr_scan"}, "is_reserved": 0, "fusion_lon": 0.0, "fusion_lat": 0.0, "lon": -77.045225, "name": "dedb20dbaae1ba6c31ab3d1e4a5961b1"}, {"bike_id": "3b339e319e041bb4393ef40da750840a", "type": "electric_scooter", "is_disabled": 0, "lat": 38.897789833333334, "rental_uris": {"ios": "https://dc.lft.to/lastmile_qr_scan", "android": "https://dc.lft.to/lastmile_qr_scan"}, "is_reserved": 0, "fusion_lon": 0.0, "fusion_lat": 0.0, "lon": -76.925736, "name": "3b339e319e041bb4393ef40da750840a"}, {"bike_id": "33f435af5f3f1380ae968ad02115bf89", "type": "electric_scooter", "is_disabled": 0, "lat": 38.877242333333335, "rental_uris": {"ios": "https://dc.lft.to/lastmile_qr_scan", "android": "https://dc.lft.to/lastmile_qr_scan"}, "is_reserved": 0, "fusion_lon": 0.0, "fusion_lat": 0.0, "lon": -77.01763983333333, "name": "33f435af5f3f1380ae968ad02115bf89"}, {"bike_id": "71ba76989b1dfff45e882660dc4ea38f", "type": "electric_scooter", "is_disabled": 0, "lat": 38.9236675, "rental_uris": {"ios": "https://dc.lft.to/lastmile_qr_scan", "android": "https://dc.lft.to/lastmile_qr_scan"}, "is_reserved": 0, "fusion_lon": 0.0, "fusion_lat": 0.0, "lon": -77.05122033333333, "name": "71ba76989b1dfff45e882660dc4ea38f"}, {"bike_id": "58f62abdb1bdb923d354c9ecec3a497b", "type": "electric_scooter", "is_disabled": 0, "lat": 38.913339, "rental_uris": {"ios": "https://dc.lft.to/lastmile_qr_scan", "android": "https://dc.lft.to/lastmile_qr_scan"}, "is_reserved": 0, "fusion_lon": 0.0, "fusion_lat": 0.0, "lon": -77.01524366666666, "name": "58f62abdb1bdb923d354c9ecec3a497b"}, {"bike_id": "b37971e5131dc048d00ad0b9f0206ff9", "type": "electric_scooter", "is_disabled": 0, "lat": 38.928321, "rental_uris": {"ios": "https://dc.lft.to/lastmile_qr_scan", "android": "https://dc.lft.to/lastmile_qr_scan"}, "is_reserved": 0, "fusion_lon": 0.0, "fusion_lat": 0.0, "lon": -77.04346816666667, "name": "b37971e5131dc048d00ad0b9f0206ff9"}, {"bike_id": "9649fcf4e804f314c169e9c472b12e89", "type": "electric_scooter", "is_disabled": 0, "lat": 38.924888333333335, "rental_uris": {"ios": "https://dc.lft.to/lastmile_qr_scan", "android": "https://dc.lft.to/lastmile_qr_scan"}, "is_reserved": 0, "fusion_lon": 0.0, "fusion_lat": 0.0, "lon": -77.05755866666667, "name": "9649fcf4e804f314c169e9c472b12e89"}, {"bike_id": "7bd9a691ae528584b499cf663a25c4d3", "type": "electric_scooter", "is_disabled": 0, "lat": 38.91476683333333, "rental_uris": {"ios": "https://dc.lft.to/lastmile_qr_scan", "android": "https://dc.lft.to/lastmile_qr_scan"}, "is_reserved": 0, "fusion_lon": 0.0, "fusion_lat": 0.0, "lon": -77.03210633333333, "name": "7bd9a691ae528584b499cf663a25c4d3"}, {"bike_id": "959a472215fa12dbbb78ea0c6c77f215", "type": "electric_scooter", "is_disabled": 0, "lat": 38.90973616666667, "rental_uris": {"ios": "https://dc.lft.to/lastmile_qr_scan", "android": "https://dc.lft.to/lastmile_qr_scan"}, "is_reserved": 0, "fusion_lon": 0.0, "fusion_lat": 0.0, "lon": -77.0337975, "name": "959a472215fa12dbbb78ea0c6c77f215"}, {"bike_id": "1efb6289a6b4cbacacb2b903d7d2d31c", "type": "electric_scooter", "is_disabled": 0, "lat": 38.906443833333334, "rental_uris": {"ios": "https://dc.lft.to/lastmile_qr_scan", "android": "https://dc.lft.to/lastmile_qr_scan"}, "is_reserved": 0, "fusion_lon": 0.0, "fusion_lat": 0.0, "lon": -77.01730483333333, "name": "1efb6289a6b4cbacacb2b903d7d2d31c"}, {"bike_id": "96a8b7d4babd49024c0fda7aad8cc83a", "type": "electric_scooter", "is_disabled": 0, "lat": 38.91239, "rental_uris": {"ios": "https://dc.lft.to/lastmile_qr_scan", "android": "https://dc.lft.to/lastmile_qr_scan"}, "is_reserved": 0, "fusion_lon": 0.0, "fusion_lat": 0.0, "lon": -77.03870383333333, "name": "96a8b7d4babd49024c0fda7aad8cc83a"}, {"bike_id": "9ec24e4066ef2d5e1f9b2e5a51a625b2", "type": "electric_bike", "is_disabled": 0, "lat": 38.924530833333336, "rental_uris": {"ios": "https://dc.lft.to/lastmile_qr_scan", "android": "https://dc.lft.to/lastmile_qr_scan"}, "is_reserved": 0, "fusion_lon": 0.0, "fusion_lat": 0.0, "lon": -77.2255955, "name": "9ec24e4066ef2d5e1f9b2e5a51a625b2"}, {"bike_id": "9b693c0c531e070d5460b052c94bebe8", "type": "electric_scooter", "is_disabled": 0, "lat": 38.892182166666665, "rental_uris": {"ios": "https://dc.lft.to/lastmile_qr_scan", "android": "https://dc.lft.to/lastmile_qr_scan"}, "is_reserved": 0, "fusion_lon": 0.0, "fusion_lat": 0.0, "lon": -77.017286, "name": "9b693c0c531e070d5460b052c94bebe8"}, {"bike_id": "20562c291e9db0a9172efcdf6f7f9b6d", "type": "electric_scooter", "is_disabled": 0, "lat": 38.9354235, "rental_uris": {"ios": "https://dc.lft.to/lastmile_qr_scan", "android": "https://dc.lft.to/lastmile_qr_scan"}, "is_reserved": 0, "fusion_lon": 0.0, "fusion_lat": 0.0, "lon": -77.05825483333334, "name": "20562c291e9db0a9172efcdf6f7f9b6d"}, {"bike_id": "23242a4472c6b435a7c1030b228ac062", "type": "electric_bike", "is_disabled": 0, "lat": 38.83671316666667, "rental_uris": {"ios": "https://dc.lft.to/lastmile_qr_scan", "android": "https://dc.lft.to/lastmile_qr_scan"}, "is_reserved": 0, "fusion_lon": 0.0, "fusion_lat": 0.0, "lon": -76.99360533333333, "name": "23242a4472c6b435a7c1030b228ac062"}, {"bike_id": "7eee9c43e6810b0bdd576f02458a5036", "type": "electric_scooter", "is_disabled": 0, "lat": 38.901403333333334, "rental_uris": {"ios": "https://dc.lft.to/lastmile_qr_scan", "android": "https://dc.lft.to/lastmile_qr_scan"}, "is_reserved": 0, "fusion_lon": 0.0, "fusion_lat": 0.0, "lon": -77.0285155, "name": "7eee9c43e6810b0bdd576f02458a5036"}, {"bike_id": "25b88871d7b6bf052514164f9adf88b0", "type": "electric_scooter", "is_disabled": 0, "lat": 38.93475883333333, "rental_uris": {"ios": "https://dc.lft.to/lastmile_qr_scan", "android": "https://dc.lft.to/lastmile_qr_scan"}, "is_reserved": 0, "fusion_lon": 0.0, "fusion_lat": 0.0, "lon": -77.02610716666666, "name": "25b88871d7b6bf052514164f9adf88b0"}, {"bike_id": "c0e78988a89d1f009b9162a5e502a9f4", "type": "electric_scooter", "is_disabled": 0, "lat": 38.90073683333333, "rental_uris": {"ios": "https://dc.lft.to/lastmile_qr_scan", "android": "https://dc.lft.to/lastmile_qr_scan"}, "is_reserved": 0, "fusion_lon": 0.0, "fusion_lat": 0.0, "lon": -77.03086416666666, "name": "c0e78988a89d1f009b9162a5e502a9f4"}, {"bike_id": "cc547a41a58b8e7e412a2683dd70035a", "type": "electric_scooter", "is_disabled": 0, "lat": 38.914003666666666, "rental_uris": {"ios": "https://dc.lft.to/lastmile_qr_scan", "android": "https://dc.lft.to/lastmile_qr_scan"}, "is_reserved": 0, "fusion_lon": 0.0, "fusion_lat": 0.0, "lon": -77.031483, "name": "cc547a41a58b8e7e412a2683dd70035a"}, {"bike_id": "5091f8ffb4d7190652dda7ec8632c3a9", "type": "electric_scooter", "is_disabled": 0, "lat": 38.91877016666667, "rental_uris": {"ios": "https://dc.lft.to/lastmile_qr_scan", "android": "https://dc.lft.to/lastmile_qr_scan"}, "is_reserved": 0, "fusion_lon": 0.0, "fusion_lat": 0.0, "lon": -77.0295355, "name": "5091f8ffb4d7190652dda7ec8632c3a9"}, {"bike_id": "c9affcc9c760d0e308f8cbb673171446", "type": "electric_scooter", "is_disabled": 0, "lat": 38.899391, "rental_uris": {"ios": "https://dc.lft.to/lastmile_qr_scan", "android": "https://dc.lft.to/lastmile_qr_scan"}, "is_reserved": 0, "fusion_lon": 0.0, "fusion_lat": 0.0, "lon": -77.0478345, "name": "c9affcc9c760d0e308f8cbb673171446"}, {"bike_id": "de864afe150f5c16cd663c446771c5ad", "type": "electric_scooter", "is_disabled": 0, "lat": 38.90445716666667, "rental_uris": {"ios": "https://dc.lft.to/lastmile_qr_scan", "android": "https://dc.lft.to/lastmile_qr_scan"}, "is_reserved": 0, "fusion_lon": 0.0, "fusion_lat": 0.0, "lon": -77.03462516666667, "name": "de864afe150f5c16cd663c446771c5ad"}, {"bike_id": "7734ffd54468e2503c578e52104924a1", "type": "electric_scooter", "is_disabled": 0, "lat": 38.902684, "rental_uris": {"ios": "https://dc.lft.to/lastmile_qr_scan", "android": "https://dc.lft.to/lastmile_qr_scan"}, "is_reserved": 0, "fusion_lon": 0.0, "fusion_lat": 0.0, "lon": -77.03389766666666, "name": "7734ffd54468e2503c578e52104924a1"}, {"bike_id": "dd2b3f3b4037559a7677963e61a9fa47", "type": "electric_scooter", "is_disabled": 0, "lat": 38.918816166666666, "rental_uris": {"ios": "https://dc.lft.to/lastmile_qr_scan", "android": "https://dc.lft.to/lastmile_qr_scan"}, "is_reserved": 0, "fusion_lon": 0.0, "fusion_lat": 0.0, "lon": -77.04038583333333, "name": "dd2b3f3b4037559a7677963e61a9fa47"}, {"bike_id": "d1041da763bc0da4cb3984c2414be42c", "type": "electric_scooter", "is_disabled": 0, "lat": 38.88565, "rental_uris": {"ios": "https://dc.lft.to/lastmile_qr_scan", "android": "https://dc.lft.to/lastmile_qr_scan"}, "is_reserved": 0, "fusion_lon": 0.0, "fusion_lat": 0.0, "lon": -77.00208833333333, "name": "d1041da763bc0da4cb3984c2414be42c"}, {"bike_id": "b9b49ee65e2246e808a66b44399809a4", "type": "electric_scooter", "is_disabled": 0, "lat": 38.91157833333333, "rental_uris": {"ios": "https://dc.lft.to/lastmile_qr_scan", "android": "https://dc.lft.to/lastmile_qr_scan"}, "is_reserved": 0, "fusion_lon": 0.0, "fusion_lat": 0.0, "lon": -77.02379733333333, "name": "b9b49ee65e2246e808a66b44399809a4"}, {"bike_id": "ad183d4fbac704d1525dc45e52c3a178", "type": "electric_scooter", "is_disabled": 0, "lat": 38.90081133333333, "rental_uris": {"ios": "https://dc.lft.to/lastmile_qr_scan", "android": "https://dc.lft.to/lastmile_qr_scan"}, "is_reserved": 0, "fusion_lon": 0.0, "fusion_lat": 0.0, "lon": -77.04745283333334, "name": "ad183d4fbac704d1525dc45e52c3a178"}, {"bike_id": "42f4c811183e85b2dda83f17461d8cc7", "type": "electric_scooter", "is_disabled": 0, "lat": 38.942901, "rental_uris": {"ios": "https://dc.lft.to/lastmile_qr_scan", "android": "https://dc.lft.to/lastmile_qr_scan"}, "is_reserved": 0, "fusion_lon": 0.0, "fusion_lat": 0.0, "lon": -77.02171566666667, "name": "42f4c811183e85b2dda83f17461d8cc7"}, {"bike_id": "855d0e99d9ad07c97da76da635059cb5", "type": "electric_scooter", "is_disabled": 0, "lat": 38.920677, "rental_uris": {"ios": "https://dc.lft.to/lastmile_qr_scan", "android": "https://dc.lft.to/lastmile_qr_scan"}, "is_reserved": 0, "fusion_lon": 0.0, "fusion_lat": 0.0, "lon": -77.0221155, "name": "855d0e99d9ad07c97da76da635059cb5"}, {"bike_id": "80c5724dbc2cc32ac7a27f9efe0e5abf", "type": "electric_scooter", "is_disabled": 0, "lat": 38.91384166666667, "rental_uris": {"ios": "https://dc.lft.to/lastmile_qr_scan", "android": "https://dc.lft.to/lastmile_qr_scan"}, "is_reserved": 0, "fusion_lon": 0.0, "fusion_lat": 0.0, "lon": -77.04139283333333, "name": "80c5724dbc2cc32ac7a27f9efe0e5abf"}, {"bike_id": "cd9d92705e9686914a5a1c628a81f3e3", "type": "electric_scooter", "is_disabled": 0, "lat": 38.91246683333333, "rental_uris": {"ios": "https://dc.lft.to/lastmile_qr_scan", "android": "https://dc.lft.to/lastmile_qr_scan"}, "is_reserved": 0, "fusion_lon": 0.0, "fusion_lat": 0.0, "lon": -77.02221316666666, "name": "cd9d92705e9686914a5a1c628a81f3e3"}, {"bike_id": "a63c167f7a97aac2ad56e02beac818a0", "type": "electric_scooter", "is_disabled": 0, "lat": 38.903809333333335, "rental_uris": {"ios": "https://dc.lft.to/lastmile_qr_scan", "android": "https://dc.lft.to/lastmile_qr_scan"}, "is_reserved": 0, "fusion_lon": 0.0, "fusion_lat": 0.0, "lon": -77.007438, "name": "a63c167f7a97aac2ad56e02beac818a0"}, {"bike_id": "e76a91fb8c51a0c5b2137683d669b6fc", "type": "electric_bike", "is_disabled": 0, "lat": 38.9647195, "rental_uris": {"ios": "https://dc.lft.to/lastmile_qr_scan", "android": "https://dc.lft.to/lastmile_qr_scan"}, "is_reserved": 0, "fusion_lon": 0.0, "fusion_lat": 0.0, "lon": -77.03568566666667, "name": "e76a91fb8c51a0c5b2137683d669b6fc"}, {"bike_id": "47a0dbaaed4435a0e574b10766241245", "type": "electric_scooter", "is_disabled": 0, "lat": 38.87948, "rental_uris": {"ios": "https://dc.lft.to/lastmile_qr_scan", "android": "https://dc.lft.to/lastmile_qr_scan"}, "is_reserved": 0, "fusion_lon": 0.0, "fusion_lat": 0.0, "lon": -77.02355216666666, "name": "47a0dbaaed4435a0e574b10766241245"}, {"bike_id": "135da18e16cbba98433a20bff45ddc50", "type": "electric_scooter", "is_disabled": 0, "lat": 38.888573, "rental_uris": {"ios": "https://dc.lft.to/lastmile_qr_scan", "android": "https://dc.lft.to/lastmile_qr_scan"}, "is_reserved": 0, "fusion_lon": 0.0, "fusion_lat": 0.0, "lon": -77.0005685, "name": "135da18e16cbba98433a20bff45ddc50"}, {"bike_id": "c0da5bf0d053bee03875fe21974d93c4", "type": "electric_bike", "is_disabled": 0, "lat": 38.8824575, "rental_uris": {"ios": "https://dc.lft.to/lastmile_qr_scan", "android": "https://dc.lft.to/lastmile_qr_scan"}, "is_reserved": 0, "fusion_lon": 0.0, "fusion_lat": 0.0, "lon": -76.96253516666667, "name": "c0da5bf0d053bee03875fe21974d93c4"}, {"bike_id": "10ffb3ff5f7e07dbac50f850453467a4", "type": "electric_scooter", "is_disabled": 0, "lat": 38.893599333333334, "rental_uris": {"ios": "https://dc.lft.to/lastmile_qr_scan", "android": "https://dc.lft.to/lastmile_qr_scan"}, "is_reserved": 0, "fusion_lon": 0.0, "fusion_lat": 0.0, "lon": -76.94935383333333, "name": "10ffb3ff5f7e07dbac50f850453467a4"}, {"bike_id": "c952a076c7dc36e262de06a693a7fd8e", "type": "electric_scooter", "is_disabled": 0, "lat": 38.89606916666666, "rental_uris": {"ios": "https://dc.lft.to/lastmile_qr_scan", "android": "https://dc.lft.to/lastmile_qr_scan"}, "is_reserved": 0, "fusion_lon": 0.0, "fusion_lat": 0.0, "lon": -77.0543905, "name": "c952a076c7dc36e262de06a693a7fd8e"}, {"bike_id": "0f66987e9882ac0df32809bb2d5d11fb", "type": "electric_scooter", "is_disabled": 0, "lat": 38.8443495, "rental_uris": {"ios": "https://dc.lft.to/lastmile_qr_scan", "android": "https://dc.lft.to/lastmile_qr_scan"}, "is_reserved": 0, "fusion_lon": 0.0, "fusion_lat": 0.0, "lon": -76.99779, "name": "0f66987e9882ac0df32809bb2d5d11fb"}, {"bike_id": "5effab5f877a329c2829bad14e1dee6a", "type": "electric_scooter", "is_disabled": 0, "lat": 38.928065833333335, "rental_uris": {"ios": "https://dc.lft.to/lastmile_qr_scan", "android": "https://dc.lft.to/lastmile_qr_scan"}, "is_reserved": 0, "fusion_lon": 0.0, "fusion_lat": 0.0, "lon": -77.0318455, "name": "5effab5f877a329c2829bad14e1dee6a"}, {"bike_id": "be73d4c0423c3af1df6cc68c3d516021", "type": "electric_scooter", "is_disabled": 0, "lat": 38.9286985, "rental_uris": {"ios": "https://dc.lft.to/lastmile_qr_scan", "android": "https://dc.lft.to/lastmile_qr_scan"}, "is_reserved": 0, "fusion_lon": 0.0, "fusion_lat": 0.0, "lon": -77.03444016666667, "name": "be73d4c0423c3af1df6cc68c3d516021"}, {"bike_id": "2860bc45eae5c10295af753765c38912", "type": "electric_scooter", "is_disabled": 0, "lat": 38.915761, "rental_uris": {"ios": "https://dc.lft.to/lastmile_qr_scan", "android": "https://dc.lft.to/lastmile_qr_scan"}, "is_reserved": 0, "fusion_lon": 0.0, "fusion_lat": 0.0, "lon": -77.050121, "name": "2860bc45eae5c10295af753765c38912"}, {"bike_id": "d0b83a2775660edcc54aeeadd5aface6", "type": "electric_scooter", "is_disabled": 0, "lat": 38.915429, "rental_uris": {"ios": "https://dc.lft.to/lastmile_qr_scan", "android": "https://dc.lft.to/lastmile_qr_scan"}, "is_reserved": 0, "fusion_lon": 0.0, "fusion_lat": 0.0, "lon": -76.97014283333333, "name": "d0b83a2775660edcc54aeeadd5aface6"}, {"bike_id": "91c39da3043638e3cceb34908bb6e184", "type": "electric_scooter", "is_disabled": 0, "lat": 38.899498333333334, "rental_uris": {"ios": "https://dc.lft.to/lastmile_qr_scan", "android": "https://dc.lft.to/lastmile_qr_scan"}, "is_reserved": 0, "fusion_lon": 0.0, "fusion_lat": 0.0, "lon": -77.0479105, "name": "91c39da3043638e3cceb34908bb6e184"}, {"bike_id": "01c7cf3041c7468784e2af5b71430b81", "type": "electric_bike", "is_disabled": 0, "lat": 39.0430965, "rental_uris": {"ios": "https://dc.lft.to/lastmile_qr_scan", "android": "https://dc.lft.to/lastmile_qr_scan"}, "is_reserved": 0, "fusion_lon": 0.0, "fusion_lat": 0.0, "lon": -77.05158416666667, "name": "01c7cf3041c7468784e2af5b71430b81"}, {"bike_id": "f543cd139084f7574e8db74c2d77ab2f", "type": "electric_scooter", "is_disabled": 0, "lat": 38.9006595, "rental_uris": {"ios": "https://dc.lft.to/lastmile_qr_scan", "android": "https://dc.lft.to/lastmile_qr_scan"}, "is_reserved": 0, "fusion_lon": 0.0, "fusion_lat": 0.0, "lon": -77.04538933333333, "name": "f543cd139084f7574e8db74c2d77ab2f"}, {"bike_id": "ee62dfc1060b1b81d622e806ce1671f4", "type": "electric_scooter", "is_disabled": 0, "lat": 38.920357, "rental_uris": {"ios": "https://dc.lft.to/lastmile_qr_scan", "android": "https://dc.lft.to/lastmile_qr_scan"}, "is_reserved": 0, "fusion_lon": 0.0, "fusion_lat": 0.0, "lon": -76.978045, "name": "ee62dfc1060b1b81d622e806ce1671f4"}, {"bike_id": "1ffee004303aa1982b85140010e46aab", "type": "electric_bike", "is_disabled": 0, "lat": 38.9227535, "rental_uris": {"ios": "https://dc.lft.to/lastmile_qr_scan", "android": "https://dc.lft.to/lastmile_qr_scan"}, "is_reserved": 0, "fusion_lon": 0.0, "fusion_lat": 0.0, "lon": -77.022421, "name": "1ffee004303aa1982b85140010e46aab"}, {"bike_id": "10aac3dbe4e154465eff872143ecb9ab", "type": "electric_bike", "is_disabled": 0, "lat": 38.823802, "rental_uris": {"ios": "https://dc.lft.to/lastmile_qr_scan", "android": "https://dc.lft.to/lastmile_qr_scan"}, "is_reserved": 0, "fusion_lon": 0.0, "fusion_lat": 0.0, "lon": -77.00227516666666, "name": "10aac3dbe4e154465eff872143ecb9ab"}, {"bike_id": "b6e4d2724a02248fd59defe0f6269c03", "type": "electric_scooter", "is_disabled": 0, "lat": 38.923612166666665, "rental_uris": {"ios": "https://dc.lft.to/lastmile_qr_scan", "android": "https://dc.lft.to/lastmile_qr_scan"}, "is_reserved": 0, "fusion_lon": 0.0, "fusion_lat": 0.0, "lon": -77.05277366666667, "name": "b6e4d2724a02248fd59defe0f6269c03"}, {"bike_id": "3589eb2ce11bcfc0f4ac8420dae2530d", "type": "electric_scooter", "is_disabled": 0, "lat": 38.924693166666664, "rental_uris": {"ios": "https://dc.lft.to/lastmile_qr_scan", "android": "https://dc.lft.to/lastmile_qr_scan"}, "is_reserved": 0, "fusion_lon": 0.0, "fusion_lat": 0.0, "lon": -77.05203266666666, "name": "3589eb2ce11bcfc0f4ac8420dae2530d"}, {"bike_id": "de99a6abe36cdbfefd2ae8fdcd03b1a1", "type": "electric_scooter", "is_disabled": 0, "lat": 38.93294816666667, "rental_uris": {"ios": "https://dc.lft.to/lastmile_qr_scan", "android": "https://dc.lft.to/lastmile_qr_scan"}, "is_reserved": 0, "fusion_lon": 0.0, "fusion_lat": 0.0, "lon": -77.035426, "name": "de99a6abe36cdbfefd2ae8fdcd03b1a1"}, {"bike_id": "1bd7ff75a88284ce2d0c50c51362ef2b", "type": "electric_scooter", "is_disabled": 0, "lat": 38.9047425, "rental_uris": {"ios": "https://dc.lft.to/lastmile_qr_scan", "android": "https://dc.lft.to/lastmile_qr_scan"}, "is_reserved": 0, "fusion_lon": 0.0, "fusion_lat": 0.0, "lon": -77.03225, "name": "1bd7ff75a88284ce2d0c50c51362ef2b"}, {"bike_id": "b9cec92fd540236f3920de424540dab1", "type": "electric_scooter", "is_disabled": 0, "lat": 38.9107455, "rental_uris": {"ios": "https://dc.lft.to/lastmile_qr_scan", "android": "https://dc.lft.to/lastmile_qr_scan"}, "is_reserved": 0, "fusion_lon": 0.0, "fusion_lat": 0.0, "lon": -77.03854383333334, "name": "b9cec92fd540236f3920de424540dab1"}, {"bike_id": "0efffce0151c82cfb02253cce5e363e3", "type": "electric_scooter", "is_disabled": 0, "lat": 38.909023166666664, "rental_uris": {"ios": "https://dc.lft.to/lastmile_qr_scan", "android": "https://dc.lft.to/lastmile_qr_scan"}, "is_reserved": 0, "fusion_lon": 0.0, "fusion_lat": 0.0, "lon": -77.02310833333334, "name": "0efffce0151c82cfb02253cce5e363e3"}, {"bike_id": "2c8f84d73a9333738563dafcf090fd0c", "type": "electric_scooter", "is_disabled": 0, "lat": 38.86686133333333, "rental_uris": {"ios": "https://dc.lft.to/lastmile_qr_scan", "android": "https://dc.lft.to/lastmile_qr_scan"}, "is_reserved": 0, "fusion_lon": 0.0, "fusion_lat": 0.0, "lon": -76.98572816666666, "name": "2c8f84d73a9333738563dafcf090fd0c"}, {"bike_id": "179d56884ee81bed9d42e89b74ef4d6a", "type": "electric_scooter", "is_disabled": 0, "lat": 38.905643, "rental_uris": {"ios": "https://dc.lft.to/lastmile_qr_scan", "android": "https://dc.lft.to/lastmile_qr_scan"}, "is_reserved": 0, "fusion_lon": 0.0, "fusion_lat": 0.0, "lon": -77.0283335, "name": "179d56884ee81bed9d42e89b74ef4d6a"}, {"bike_id": "1a9f5dad75a7047d8f56980bf9bc032e", "type": "electric_scooter", "is_disabled": 0, "lat": 38.92471533333333, "rental_uris": {"ios": "https://dc.lft.to/lastmile_qr_scan", "android": "https://dc.lft.to/lastmile_qr_scan"}, "is_reserved": 0, "fusion_lon": 0.0, "fusion_lat": 0.0, "lon": -77.05206766666667, "name": "1a9f5dad75a7047d8f56980bf9bc032e"}, {"bike_id": "e35c05f4dbd97b720286ca09f2f76a47", "type": "electric_scooter", "is_disabled": 0, "lat": 38.87381466666667, "rental_uris": {"ios": "https://dc.lft.to/lastmile_qr_scan", "android": "https://dc.lft.to/lastmile_qr_scan"}, "is_reserved": 0, "fusion_lon": 0.0, "fusion_lat": 0.0, "lon": -77.043361, "name": "e35c05f4dbd97b720286ca09f2f76a47"}, {"bike_id": "42d09aff899a0119e457314f1ea1251d", "type": "electric_scooter", "is_disabled": 0, "lat": 38.91415166666667, "rental_uris": {"ios": "https://dc.lft.to/lastmile_qr_scan", "android": "https://dc.lft.to/lastmile_qr_scan"}, "is_reserved": 0, "fusion_lon": 0.0, "fusion_lat": 0.0, "lon": -77.0400185, "name": "42d09aff899a0119e457314f1ea1251d"}, {"bike_id": "5dd4a56b03cd4affff98e205dd95908b", "type": "electric_scooter", "is_disabled": 0, "lat": 38.90951833333333, "rental_uris": {"ios": "https://dc.lft.to/lastmile_qr_scan", "android": "https://dc.lft.to/lastmile_qr_scan"}, "is_reserved": 0, "fusion_lon": 0.0, "fusion_lat": 0.0, "lon": -77.033669, "name": "5dd4a56b03cd4affff98e205dd95908b"}, {"bike_id": "0de38ae3b33d43529ef2942adac19597", "type": "electric_scooter", "is_disabled": 0, "lat": 38.94485983333333, "rental_uris": {"ios": "https://dc.lft.to/lastmile_qr_scan", "android": "https://dc.lft.to/lastmile_qr_scan"}, "is_reserved": 0, "fusion_lon": 0.0, "fusion_lat": 0.0, "lon": -77.06408466666667, "name": "0de38ae3b33d43529ef2942adac19597"}, {"bike_id": "e8d32af36290be5197433ea68d8e9bde", "type": "electric_scooter", "is_disabled": 0, "lat": 38.90308866666667, "rental_uris": {"ios": "https://dc.lft.to/lastmile_qr_scan", "android": "https://dc.lft.to/lastmile_qr_scan"}, "is_reserved": 0, "fusion_lon": 0.0, "fusion_lat": 0.0, "lon": -76.98358066666667, "name": "e8d32af36290be5197433ea68d8e9bde"}, {"bike_id": "f1704c15390c05d24892146108884ad8", "type": "electric_scooter", "is_disabled": 0, "lat": 38.907714666666664, "rental_uris": {"ios": "https://dc.lft.to/lastmile_qr_scan", "android": "https://dc.lft.to/lastmile_qr_scan"}, "is_reserved": 0, "fusion_lon": 0.0, "fusion_lat": 0.0, "lon": -77.01220683333334, "name": "f1704c15390c05d24892146108884ad8"}, {"bike_id": "1719f18f0823b43fa4e49d2097ebd476", "type": "electric_scooter", "is_disabled": 0, "lat": 38.92753583333333, "rental_uris": {"ios": "https://dc.lft.to/lastmile_qr_scan", "android": "https://dc.lft.to/lastmile_qr_scan"}, "is_reserved": 0, "fusion_lon": 0.0, "fusion_lat": 0.0, "lon": -77.02430683333333, "name": "1719f18f0823b43fa4e49d2097ebd476"}, {"bike_id": "5d26fe169180444974cff819de38c8dc", "type": "electric_scooter", "is_disabled": 0, "lat": 38.93617483333333, "rental_uris": {"ios": "https://dc.lft.to/lastmile_qr_scan", "android": "https://dc.lft.to/lastmile_qr_scan"}, "is_reserved": 0, "fusion_lon": 0.0, "fusion_lat": 0.0, "lon": -77.06756866666667, "name": "5d26fe169180444974cff819de38c8dc"}, {"bike_id": "4a9ac406c77f14526c3f70a51a07c795", "type": "electric_scooter", "is_disabled": 0, "lat": 38.91542716666667, "rental_uris": {"ios": "https://dc.lft.to/lastmile_qr_scan", "android": "https://dc.lft.to/lastmile_qr_scan"}, "is_reserved": 0, "fusion_lon": 0.0, "fusion_lat": 0.0, "lon": -77.012724, "name": "4a9ac406c77f14526c3f70a51a07c795"}, {"bike_id": "ef06b6be1fca01a294c6257fce0864bb", "type": "electric_scooter", "is_disabled": 0, "lat": 38.936849, "rental_uris": {"ios": "https://dc.lft.to/lastmile_qr_scan", "android": "https://dc.lft.to/lastmile_qr_scan"}, "is_reserved": 0, "fusion_lon": 0.0, "fusion_lat": 0.0, "lon": -77.01942833333334, "name": "ef06b6be1fca01a294c6257fce0864bb"}, {"bike_id": "ff650d8f8078da8afd3826b07d7563ee", "type": "electric_scooter", "is_disabled": 0, "lat": 38.93621733333333, "rental_uris": {"ios": "https://dc.lft.to/lastmile_qr_scan", "android": "https://dc.lft.to/lastmile_qr_scan"}, "is_reserved": 0, "fusion_lon": 0.0, "fusion_lat": 0.0, "lon": -77.03811716666667, "name": "ff650d8f8078da8afd3826b07d7563ee"}, {"bike_id": "bfa9ebbb333df6d7fe1fa47cbdd8c26c", "type": "electric_scooter", "is_disabled": 0, "lat": 38.924138166666665, "rental_uris": {"ios": "https://dc.lft.to/lastmile_qr_scan", "android": "https://dc.lft.to/lastmile_qr_scan"}, "is_reserved": 0, "fusion_lon": 0.0, "fusion_lat": 0.0, "lon": -77.0200855, "name": "bfa9ebbb333df6d7fe1fa47cbdd8c26c"}, {"bike_id": "76d1a3dc5ef72a6ba1665fc10b6d309a", "type": "electric_bike", "is_disabled": 0, "lat": 38.9262035, "rental_uris": {"ios": "https://dc.lft.to/lastmile_qr_scan", "android": "https://dc.lft.to/lastmile_qr_scan"}, "is_reserved": 0, "fusion_lon": 0.0, "fusion_lat": 0.0, "lon": -77.04327166666667, "name": "76d1a3dc5ef72a6ba1665fc10b6d309a"}, {"bike_id": "71faac5eda553c79de04ab570e675f9d", "type": "electric_scooter", "is_disabled": 0, "lat": 38.8988335, "rental_uris": {"ios": "https://dc.lft.to/lastmile_qr_scan", "android": "https://dc.lft.to/lastmile_qr_scan"}, "is_reserved": 0, "fusion_lon": 0.0, "fusion_lat": 0.0, "lon": -77.0215865, "name": "71faac5eda553c79de04ab570e675f9d"}, {"bike_id": "84c6ac53d7cb427c4fd30549a487afed", "type": "electric_scooter", "is_disabled": 0, "lat": 38.905553166666664, "rental_uris": {"ios": "https://dc.lft.to/lastmile_qr_scan", "android": "https://dc.lft.to/lastmile_qr_scan"}, "is_reserved": 0, "fusion_lon": 0.0, "fusion_lat": 0.0, "lon": -77.00558883333333, "name": "84c6ac53d7cb427c4fd30549a487afed"}, {"bike_id": "a109b2a093f4caf6e629500c91f728b4", "type": "electric_bike", "is_disabled": 0, "lat": 38.87294116666666, "rental_uris": {"ios": "https://dc.lft.to/lastmile_qr_scan", "android": "https://dc.lft.to/lastmile_qr_scan"}, "is_reserved": 0, "fusion_lon": 0.0, "fusion_lat": 0.0, "lon": -77.13927016666666, "name": "a109b2a093f4caf6e629500c91f728b4"}, {"bike_id": "e1c817d72efc64d1f1f8a60c7a190e07", "type": "electric_scooter", "is_disabled": 0, "lat": 38.88264733333333, "rental_uris": {"ios": "https://dc.lft.to/lastmile_qr_scan", "android": "https://dc.lft.to/lastmile_qr_scan"}, "is_reserved": 0, "fusion_lon": 0.0, "fusion_lat": 0.0, "lon": -76.995031, "name": "e1c817d72efc64d1f1f8a60c7a190e07"}, {"bike_id": "44f72c0f1fded70ccfa3d5160b735651", "type": "electric_scooter", "is_disabled": 0, "lat": 38.9182915, "rental_uris": {"ios": "https://dc.lft.to/lastmile_qr_scan", "android": "https://dc.lft.to/lastmile_qr_scan"}, "is_reserved": 0, "fusion_lon": 0.0, "fusion_lat": 0.0, "lon": -77.0456225, "name": "44f72c0f1fded70ccfa3d5160b735651"}, {"bike_id": "faa89ddf7cd580fca3d229ca7aa2a87b", "type": "electric_scooter", "is_disabled": 0, "lat": 38.926408333333335, "rental_uris": {"ios": "https://dc.lft.to/lastmile_qr_scan", "android": "https://dc.lft.to/lastmile_qr_scan"}, "is_reserved": 0, "fusion_lon": 0.0, "fusion_lat": 0.0, "lon": -77.021746, "name": "faa89ddf7cd580fca3d229ca7aa2a87b"}, {"bike_id": "b445165f55eca2f808ba8d281fcf093b", "type": "electric_scooter", "is_disabled": 0, "lat": 38.927898666666664, "rental_uris": {"ios": "https://dc.lft.to/lastmile_qr_scan", "android": "https://dc.lft.to/lastmile_qr_scan"}, "is_reserved": 0, "fusion_lon": 0.0, "fusion_lat": 0.0, "lon": -77.05262016666667, "name": "b445165f55eca2f808ba8d281fcf093b"}, {"bike_id": "9adc0ba32d47d7a83306744b3c87a390", "type": "electric_scooter", "is_disabled": 0, "lat": 38.9251245, "rental_uris": {"ios": "https://dc.lft.to/lastmile_qr_scan", "android": "https://dc.lft.to/lastmile_qr_scan"}, "is_reserved": 0, "fusion_lon": 0.0, "fusion_lat": 0.0, "lon": -77.00887283333333, "name": "9adc0ba32d47d7a83306744b3c87a390"}, {"bike_id": "172707570d75ec27463bdf36c7675ef2", "type": "electric_scooter", "is_disabled": 0, "lat": 38.911045666666666, "rental_uris": {"ios": "https://dc.lft.to/lastmile_qr_scan", "android": "https://dc.lft.to/lastmile_qr_scan"}, "is_reserved": 0, "fusion_lon": 0.0, "fusion_lat": 0.0, "lon": -77.02446916666666, "name": "172707570d75ec27463bdf36c7675ef2"}, {"bike_id": "ca79798c803c4e101956acba59abfc52", "type": "electric_scooter", "is_disabled": 0, "lat": 38.94358066666667, "rental_uris": {"ios": "https://dc.lft.to/lastmile_qr_scan", "android": "https://dc.lft.to/lastmile_qr_scan"}, "is_reserved": 0, "fusion_lon": 0.0, "fusion_lat": 0.0, "lon": -77.061403, "name": "ca79798c803c4e101956acba59abfc52"}, {"bike_id": "3b2c705618919511aa7845920128476e", "type": "electric_scooter", "is_disabled": 0, "lat": 38.92782233333333, "rental_uris": {"ios": "https://dc.lft.to/lastmile_qr_scan", "android": "https://dc.lft.to/lastmile_qr_scan"}, "is_reserved": 0, "fusion_lon": 0.0, "fusion_lat": 0.0, "lon": -77.0540565, "name": "3b2c705618919511aa7845920128476e"}, {"bike_id": "33d618f1065c1102025c8e4cd50d360c", "type": "electric_scooter", "is_disabled": 0, "lat": 38.902637166666665, "rental_uris": {"ios": "https://dc.lft.to/lastmile_qr_scan", "android": "https://dc.lft.to/lastmile_qr_scan"}, "is_reserved": 0, "fusion_lon": 0.0, "fusion_lat": 0.0, "lon": -77.017522, "name": "33d618f1065c1102025c8e4cd50d360c"}, {"bike_id": "09f712c8cdd1d557c6ed49467610d954", "type": "electric_scooter", "is_disabled": 0, "lat": 38.866958333333336, "rental_uris": {"ios": "https://dc.lft.to/lastmile_qr_scan", "android": "https://dc.lft.to/lastmile_qr_scan"}, "is_reserved": 0, "fusion_lon": 0.0, "fusion_lat": 0.0, "lon": -76.98711233333333, "name": "09f712c8cdd1d557c6ed49467610d954"}, {"bike_id": "cf563aa03537ce49a37944d18055606c", "type": "electric_scooter", "is_disabled": 0, "lat": 38.906423, "rental_uris": {"ios": "https://dc.lft.to/lastmile_qr_scan", "android": "https://dc.lft.to/lastmile_qr_scan"}, "is_reserved": 0, "fusion_lon": 0.0, "fusion_lat": 0.0, "lon": -77.00592066666667, "name": "cf563aa03537ce49a37944d18055606c"}, {"bike_id": "b5ef589cff7eeb3bf7d55a4c18cf225c", "type": "electric_scooter", "is_disabled": 0, "lat": 38.913407166666666, "rental_uris": {"ios": "https://dc.lft.to/lastmile_qr_scan", "android": "https://dc.lft.to/lastmile_qr_scan"}, "is_reserved": 0, "fusion_lon": 0.0, "fusion_lat": 0.0, "lon": -77.0317085, "name": "b5ef589cff7eeb3bf7d55a4c18cf225c"}, {"bike_id": "fc81a259d37eee268b008101ecf4f253", "type": "electric_scooter", "is_disabled": 0, "lat": 38.862063, "rental_uris": {"ios": "https://dc.lft.to/lastmile_qr_scan", "android": "https://dc.lft.to/lastmile_qr_scan"}, "is_reserved": 0, "fusion_lon": 0.0, "fusion_lat": 0.0, "lon": -76.9946695, "name": "fc81a259d37eee268b008101ecf4f253"}, {"bike_id": "2dadab72243471ddccd9573872daabfd", "type": "electric_scooter", "is_disabled": 0, "lat": 38.92874583333333, "rental_uris": {"ios": "https://dc.lft.to/lastmile_qr_scan", "android": "https://dc.lft.to/lastmile_qr_scan"}, "is_reserved": 0, "fusion_lon": 0.0, "fusion_lat": 0.0, "lon": -77.0330115, "name": "2dadab72243471ddccd9573872daabfd"}, {"bike_id": "46bbd72674979cf968cab78f5d4e267f", "type": "electric_scooter", "is_disabled": 0, "lat": 38.92362, "rental_uris": {"ios": "https://dc.lft.to/lastmile_qr_scan", "android": "https://dc.lft.to/lastmile_qr_scan"}, "is_reserved": 0, "fusion_lon": 0.0, "fusion_lat": 0.0, "lon": -77.05134816666667, "name": "46bbd72674979cf968cab78f5d4e267f"}, {"bike_id": "0131ecc4295ad85800ed0d2817b1e4ab", "type": "electric_scooter", "is_disabled": 0, "lat": 38.86678166666667, "rental_uris": {"ios": "https://dc.lft.to/lastmile_qr_scan", "android": "https://dc.lft.to/lastmile_qr_scan"}, "is_reserved": 0, "fusion_lon": 0.0, "fusion_lat": 0.0, "lon": -76.9853875, "name": "0131ecc4295ad85800ed0d2817b1e4ab"}, {"bike_id": "8f5b3996bc16fedeff16a28f52dd00ab", "type": "electric_scooter", "is_disabled": 0, "lat": 38.907335333333336, "rental_uris": {"ios": "https://dc.lft.to/lastmile_qr_scan", "android": "https://dc.lft.to/lastmile_qr_scan"}, "is_reserved": 0, "fusion_lon": 0.0, "fusion_lat": 0.0, "lon": -77.043386, "name": "8f5b3996bc16fedeff16a28f52dd00ab"}, {"bike_id": "81e5af7f0dd58f72a562ff439a1419a9", "type": "electric_scooter", "is_disabled": 0, "lat": 38.9471345, "rental_uris": {"ios": "https://dc.lft.to/lastmile_qr_scan", "android": "https://dc.lft.to/lastmile_qr_scan"}, "is_reserved": 0, "fusion_lon": 0.0, "fusion_lat": 0.0, "lon": -77.02777883333333, "name": "81e5af7f0dd58f72a562ff439a1419a9"}, {"bike_id": "06692dcac68f479e5441f60e845fce03", "type": "electric_scooter", "is_disabled": 0, "lat": 38.897188166666666, "rental_uris": {"ios": "https://dc.lft.to/lastmile_qr_scan", "android": "https://dc.lft.to/lastmile_qr_scan"}, "is_reserved": 0, "fusion_lon": 0.0, "fusion_lat": 0.0, "lon": -77.00896916666666, "name": "06692dcac68f479e5441f60e845fce03"}, {"bike_id": "e51c5ee4425b99e96241a6815c23e580", "type": "electric_bike", "is_disabled": 0, "lat": 38.84026133333333, "rental_uris": {"ios": "https://dc.lft.to/lastmile_qr_scan", "android": "https://dc.lft.to/lastmile_qr_scan"}, "is_reserved": 0, "fusion_lon": 0.0, "fusion_lat": 0.0, "lon": -76.975779, "name": "e51c5ee4425b99e96241a6815c23e580"}, {"bike_id": "c53571f995deb90f7e868b671ac09e0c", "type": "electric_scooter", "is_disabled": 0, "lat": 38.918375166666664, "rental_uris": {"ios": "https://dc.lft.to/lastmile_qr_scan", "android": "https://dc.lft.to/lastmile_qr_scan"}, "is_reserved": 0, "fusion_lon": 0.0, "fusion_lat": 0.0, "lon": -77.032043, "name": "c53571f995deb90f7e868b671ac09e0c"}, {"bike_id": "b0e44167c21f9072f97e3bc12f9bcf11", "type": "electric_scooter", "is_disabled": 0, "lat": 38.93379766666666, "rental_uris": {"ios": "https://dc.lft.to/lastmile_qr_scan", "android": "https://dc.lft.to/lastmile_qr_scan"}, "is_reserved": 0, "fusion_lon": 0.0, "fusion_lat": 0.0, "lon": -77.02391, "name": "b0e44167c21f9072f97e3bc12f9bcf11"}, {"bike_id": "ce6477ef23da9d9ba8727d3e2b225cc2", "type": "electric_bike", "is_disabled": 0, "lat": 38.85439133333333, "rental_uris": {"ios": "https://dc.lft.to/lastmile_qr_scan", "android": "https://dc.lft.to/lastmile_qr_scan"}, "is_reserved": 0, "fusion_lon": 0.0, "fusion_lat": 0.0, "lon": -77.0830685, "name": "ce6477ef23da9d9ba8727d3e2b225cc2"}, {"bike_id": "b42cb84e2af082b308fac64a240586f0", "type": "electric_scooter", "is_disabled": 0, "lat": 38.92484433333333, "rental_uris": {"ios": "https://dc.lft.to/lastmile_qr_scan", "android": "https://dc.lft.to/lastmile_qr_scan"}, "is_reserved": 0, "fusion_lon": 0.0, "fusion_lat": 0.0, "lon": -77.027137, "name": "b42cb84e2af082b308fac64a240586f0"}, {"bike_id": "e48110196d0b5fb506f05da38b436777", "type": "electric_scooter", "is_disabled": 0, "lat": 38.93114833333333, "rental_uris": {"ios": "https://dc.lft.to/lastmile_qr_scan", "android": "https://dc.lft.to/lastmile_qr_scan"}, "is_reserved": 0, "fusion_lon": 0.0, "fusion_lat": 0.0, "lon": -77.037908, "name": "e48110196d0b5fb506f05da38b436777"}, {"bike_id": "30ebe42dec286d4d4164dbc6690a2a9a", "type": "electric_scooter", "is_disabled": 0, "lat": 38.928639, "rental_uris": {"ios": "https://dc.lft.to/lastmile_qr_scan", "android": "https://dc.lft.to/lastmile_qr_scan"}, "is_reserved": 0, "fusion_lon": 0.0, "fusion_lat": 0.0, "lon": -77.02175833333334, "name": "30ebe42dec286d4d4164dbc6690a2a9a"}, {"bike_id": "36d0c8b676714633b8e369a080e4e0ba", "type": "electric_scooter", "is_disabled": 0, "lat": 38.9480355, "rental_uris": {"ios": "https://dc.lft.to/lastmile_qr_scan", "android": "https://dc.lft.to/lastmile_qr_scan"}, "is_reserved": 0, "fusion_lon": 0.0, "fusion_lat": 0.0, "lon": -77.07910966666667, "name": "36d0c8b676714633b8e369a080e4e0ba"}, {"bike_id": "40c4fd00b6bf8e90e1c8160140ab8a49", "type": "electric_scooter", "is_disabled": 0, "lat": 38.9050235, "rental_uris": {"ios": "https://dc.lft.to/lastmile_qr_scan", "android": "https://dc.lft.to/lastmile_qr_scan"}, "is_reserved": 0, "fusion_lon": 0.0, "fusion_lat": 0.0, "lon": -77.0603155, "name": "40c4fd00b6bf8e90e1c8160140ab8a49"}, {"bike_id": "fb7fbaf7339646b5418dc6df82c2563c", "type": "electric_scooter", "is_disabled": 0, "lat": 38.8747435, "rental_uris": {"ios": "https://dc.lft.to/lastmile_qr_scan", "android": "https://dc.lft.to/lastmile_qr_scan"}, "is_reserved": 0, "fusion_lon": 0.0, "fusion_lat": 0.0, "lon": -77.01890683333333, "name": "fb7fbaf7339646b5418dc6df82c2563c"}, {"bike_id": "31ff9e0d48f0cd0df67963180d56e9e9", "type": "electric_scooter", "is_disabled": 0, "lat": 38.90194733333333, "rental_uris": {"ios": "https://dc.lft.to/lastmile_qr_scan", "android": "https://dc.lft.to/lastmile_qr_scan"}, "is_reserved": 0, "fusion_lon": 0.0, "fusion_lat": 0.0, "lon": -77.03922833333333, "name": "31ff9e0d48f0cd0df67963180d56e9e9"}, {"bike_id": "23a84e037722f07383413a5f241a5870", "type": "electric_scooter", "is_disabled": 0, "lat": 38.93073316666667, "rental_uris": {"ios": "https://dc.lft.to/lastmile_qr_scan", "android": "https://dc.lft.to/lastmile_qr_scan"}, "is_reserved": 0, "fusion_lon": 0.0, "fusion_lat": 0.0, "lon": -77.0558055, "name": "23a84e037722f07383413a5f241a5870"}, {"bike_id": "20e30d7c7a88a0fb9042b40870541b7f", "type": "electric_scooter", "is_disabled": 0, "lat": 38.9187945, "rental_uris": {"ios": "https://dc.lft.to/lastmile_qr_scan", "android": "https://dc.lft.to/lastmile_qr_scan"}, "is_reserved": 0, "fusion_lon": 0.0, "fusion_lat": 0.0, "lon": -77.03480566666667, "name": "20e30d7c7a88a0fb9042b40870541b7f"}, {"bike_id": "d8133197b1724653ecad3b63ddb949df", "type": "electric_scooter", "is_disabled": 0, "lat": 38.929615166666665, "rental_uris": {"ios": "https://dc.lft.to/lastmile_qr_scan", "android": "https://dc.lft.to/lastmile_qr_scan"}, "is_reserved": 0, "fusion_lon": 0.0, "fusion_lat": 0.0, "lon": -77.031406, "name": "d8133197b1724653ecad3b63ddb949df"}, {"bike_id": "03e45443f6773a708dc67224fd1185fe", "type": "electric_scooter", "is_disabled": 0, "lat": 38.903251, "rental_uris": {"ios": "https://dc.lft.to/lastmile_qr_scan", "android": "https://dc.lft.to/lastmile_qr_scan"}, "is_reserved": 0, "fusion_lon": 0.0, "fusion_lat": 0.0, "lon": -76.9828935, "name": "03e45443f6773a708dc67224fd1185fe"}, {"bike_id": "0da7941dd4ce9de4ccab8614a539b4a2", "type": "electric_scooter", "is_disabled": 0, "lat": 38.91403316666667, "rental_uris": {"ios": "https://dc.lft.to/lastmile_qr_scan", "android": "https://dc.lft.to/lastmile_qr_scan"}, "is_reserved": 0, "fusion_lon": 0.0, "fusion_lat": 0.0, "lon": -77.03451, "name": "0da7941dd4ce9de4ccab8614a539b4a2"}, {"bike_id": "f512602b733e810890c701f6ab81236c", "type": "electric_bike", "is_disabled": 0, "lat": 38.80761116666667, "rental_uris": {"ios": "https://dc.lft.to/lastmile_qr_scan", "android": "https://dc.lft.to/lastmile_qr_scan"}, "is_reserved": 0, "fusion_lon": 0.0, "fusion_lat": 0.0, "lon": -77.09467166666667, "name": "f512602b733e810890c701f6ab81236c"}, {"bike_id": "f00f4443a7c2943f753ff9b4b8e2408d", "type": "electric_scooter", "is_disabled": 0, "lat": 38.86504766666667, "rental_uris": {"ios": "https://dc.lft.to/lastmile_qr_scan", "android": "https://dc.lft.to/lastmile_qr_scan"}, "is_reserved": 0, "fusion_lon": 0.0, "fusion_lat": 0.0, "lon": -76.99001516666667, "name": "f00f4443a7c2943f753ff9b4b8e2408d"}, {"bike_id": "bcdf7f8e5e2cd6522d9d3e1970c756bb", "type": "electric_scooter", "is_disabled": 0, "lat": 38.93578, "rental_uris": {"ios": "https://dc.lft.to/lastmile_qr_scan", "android": "https://dc.lft.to/lastmile_qr_scan"}, "is_reserved": 0, "fusion_lon": 0.0, "fusion_lat": 0.0, "lon": -77.03365, "name": "bcdf7f8e5e2cd6522d9d3e1970c756bb"}, {"bike_id": "5f1293fae669ee45a4cf8423e2bdc318", "type": "electric_scooter", "is_disabled": 0, "lat": 38.9231925, "rental_uris": {"ios": "https://dc.lft.to/lastmile_qr_scan", "android": "https://dc.lft.to/lastmile_qr_scan"}, "is_reserved": 0, "fusion_lon": 0.0, "fusion_lat": 0.0, "lon": -77.04039866666666, "name": "5f1293fae669ee45a4cf8423e2bdc318"}, {"bike_id": "d1a3f14148bcd97b554bf6c972ac27d0", "type": "electric_bike", "is_disabled": 0, "lat": 38.99347233333334, "rental_uris": {"ios": "https://dc.lft.to/lastmile_qr_scan", "android": "https://dc.lft.to/lastmile_qr_scan"}, "is_reserved": 0, "fusion_lon": 0.0, "fusion_lat": 0.0, "lon": -77.11580666666667, "name": "d1a3f14148bcd97b554bf6c972ac27d0"}, {"bike_id": "a67cc5bbd5d342dad300c75f31465b0e", "type": "electric_scooter", "is_disabled": 0, "lat": 38.87809266666667, "rental_uris": {"ios": "https://dc.lft.to/lastmile_qr_scan", "android": "https://dc.lft.to/lastmile_qr_scan"}, "is_reserved": 0, "fusion_lon": 0.0, "fusion_lat": 0.0, "lon": -77.01763233333334, "name": "a67cc5bbd5d342dad300c75f31465b0e"}, {"bike_id": "c4728327f128280219c8e3a60e55085b", "type": "electric_scooter", "is_disabled": 0, "lat": 38.91610816666667, "rental_uris": {"ios": "https://dc.lft.to/lastmile_qr_scan", "android": "https://dc.lft.to/lastmile_qr_scan"}, "is_reserved": 0, "fusion_lon": 0.0, "fusion_lat": 0.0, "lon": -77.03375033333333, "name": "c4728327f128280219c8e3a60e55085b"}, {"bike_id": "f693aa07259d1d5755cb66c16efbfb88", "type": "electric_scooter", "is_disabled": 0, "lat": 38.92443566666667, "rental_uris": {"ios": "https://dc.lft.to/lastmile_qr_scan", "android": "https://dc.lft.to/lastmile_qr_scan"}, "is_reserved": 0, "fusion_lon": 0.0, "fusion_lat": 0.0, "lon": -77.033528, "name": "f693aa07259d1d5755cb66c16efbfb88"}, {"bike_id": "acf64dc84270038184f1aabe564e9100", "type": "electric_scooter", "is_disabled": 0, "lat": 38.9142175, "rental_uris": {"ios": "https://dc.lft.to/lastmile_qr_scan", "android": "https://dc.lft.to/lastmile_qr_scan"}, "is_reserved": 0, "fusion_lon": 0.0, "fusion_lat": 0.0, "lon": -77.0481365, "name": "acf64dc84270038184f1aabe564e9100"}, {"bike_id": "b803f46d76bba1c28107838919480629", "type": "electric_bike", "is_disabled": 0, "lat": 38.88060866666667, "rental_uris": {"ios": "https://dc.lft.to/lastmile_qr_scan", "android": "https://dc.lft.to/lastmile_qr_scan"}, "is_reserved": 0, "fusion_lon": 0.0, "fusion_lat": 0.0, "lon": -76.96242983333333, "name": "b803f46d76bba1c28107838919480629"}, {"bike_id": "58d165db3763219494b9c031b0964065", "type": "electric_scooter", "is_disabled": 0, "lat": 38.94451433333333, "rental_uris": {"ios": "https://dc.lft.to/lastmile_qr_scan", "android": "https://dc.lft.to/lastmile_qr_scan"}, "is_reserved": 0, "fusion_lon": 0.0, "fusion_lat": 0.0, "lon": -77.028029, "name": "58d165db3763219494b9c031b0964065"}, {"bike_id": "1997f83d9f2638c3a7875ec08ca0e395", "type": "electric_scooter", "is_disabled": 0, "lat": 38.913694166666666, "rental_uris": {"ios": "https://dc.lft.to/lastmile_qr_scan", "android": "https://dc.lft.to/lastmile_qr_scan"}, "is_reserved": 0, "fusion_lon": 0.0, "fusion_lat": 0.0, "lon": -77.072719, "name": "1997f83d9f2638c3a7875ec08ca0e395"}, {"bike_id": "dbe8c8d9fef6c352a0d9f9155c185c0b", "type": "electric_scooter", "is_disabled": 0, "lat": 38.91912516666667, "rental_uris": {"ios": "https://dc.lft.to/lastmile_qr_scan", "android": "https://dc.lft.to/lastmile_qr_scan"}, "is_reserved": 0, "fusion_lon": 0.0, "fusion_lat": 0.0, "lon": -77.01416366666666, "name": "dbe8c8d9fef6c352a0d9f9155c185c0b"}, {"bike_id": "4e9cd21c2b60e7bded2e77e9cc746d90", "type": "electric_bike", "is_disabled": 0, "lat": 38.91016783333333, "rental_uris": {"ios": "https://dc.lft.to/lastmile_qr_scan", "android": "https://dc.lft.to/lastmile_qr_scan"}, "is_reserved": 0, "fusion_lon": 0.0, "fusion_lat": 0.0, "lon": -77.22799233333333, "name": "4e9cd21c2b60e7bded2e77e9cc746d90"}, {"bike_id": "c7a813b30accb20ffd445e4a996bb3fb", "type": "electric_scooter", "is_disabled": 0, "lat": 38.9215085, "rental_uris": {"ios": "https://dc.lft.to/lastmile_qr_scan", "android": "https://dc.lft.to/lastmile_qr_scan"}, "is_reserved": 0, "fusion_lon": 0.0, "fusion_lat": 0.0, "lon": -77.0353015, "name": "c7a813b30accb20ffd445e4a996bb3fb"}, {"bike_id": "e411095c28ee482de27a177b970e1273", "type": "electric_scooter", "is_disabled": 0, "lat": 38.914068, "rental_uris": {"ios": "https://dc.lft.to/lastmile_qr_scan", "android": "https://dc.lft.to/lastmile_qr_scan"}, "is_reserved": 0, "fusion_lon": 0.0, "fusion_lat": 0.0, "lon": -77.01555983333333, "name": "e411095c28ee482de27a177b970e1273"}, {"bike_id": "8ee36222c75b12c75c48af3e8850c9dd", "type": "electric_scooter", "is_disabled": 0, "lat": 38.906989333333335, "rental_uris": {"ios": "https://dc.lft.to/lastmile_qr_scan", "android": "https://dc.lft.to/lastmile_qr_scan"}, "is_reserved": 0, "fusion_lon": 0.0, "fusion_lat": 0.0, "lon": -77.0358525, "name": "8ee36222c75b12c75c48af3e8850c9dd"}, {"bike_id": "1fdfd995b92361d4fb69e0463fab3a44", "type": "electric_scooter", "is_disabled": 0, "lat": 38.91678016666667, "rental_uris": {"ios": "https://dc.lft.to/lastmile_qr_scan", "android": "https://dc.lft.to/lastmile_qr_scan"}, "is_reserved": 0, "fusion_lon": 0.0, "fusion_lat": 0.0, "lon": -77.03200116666666, "name": "1fdfd995b92361d4fb69e0463fab3a44"}, {"bike_id": "1c64e3ef2b374f90b6463747eabdaffa", "type": "electric_scooter", "is_disabled": 0, "lat": 38.86977383333333, "rental_uris": {"ios": "https://dc.lft.to/lastmile_qr_scan", "android": "https://dc.lft.to/lastmile_qr_scan"}, "is_reserved": 0, "fusion_lon": 0.0, "fusion_lat": 0.0, "lon": -76.98172383333333, "name": "1c64e3ef2b374f90b6463747eabdaffa"}, {"bike_id": "bfad5c9af889a5f8265c634860ca3939", "type": "electric_bike", "is_disabled": 0, "lat": 38.9240625, "rental_uris": {"ios": "https://dc.lft.to/lastmile_qr_scan", "android": "https://dc.lft.to/lastmile_qr_scan"},