{"data": {"bikes": [{"rental_uris": {"android": "https://dc.lft.to/lastmile_qr_scan", "ios": "https://dc.lft.to/lastmile_qr_scan"}, "type": "electric_scooter", "lon": -77.04040733333333, "name": "75489ea305461153c461b9f3127506fb", "bike_id": "75489ea305461153c461b9f3127506fb", "fusion_lat": 0.0, "is_reserved": 0, "lat": 38.90549433333333, "fusion_lon": 0.0, "is_disabled": 0}, {"rental_uris": {"android": "https://dc.lft.to/lastmile_qr_scan", "ios": "https://dc.lft.to/lastmile_qr_scan"}, "type": "electric_scooter", "lon": -77.02106483333333, "name": "b577c2e7ec180bcc0aa2c4780bc6d92a", "bike_id": "b577c2e7ec180bcc0aa2c4780bc6d92a", "fusion_lat": 0.0, "is_reserved": 0, "lat": 38.9409885, "fusion_lon": 0.0, "is_disabled": 0}, {"rental_uris": {"android": "https://dc.lft.to/lastmile_qr_scan", "ios": "https://dc.lft.to/lastmile_qr_scan"}, "type": "electric_scooter", "lon": -76.99946466666667, "name": "eb6d3ad5600a6d87b808a0a766432804", "bike_id": "eb6d3ad5600a6d87b808a0a766432804", "fusion_lat": 0.0, "is_reserved": 0, "lat": 38.842895, "fusion_lon": 0.0, "is_disabled": 0}, {"rental_uris": {"android": "https://dc.lft.to/lastmile_qr_scan", "ios": "https://dc.lft.to/lastmile_qr_scan"}, "type": "electric_scooter", "lon": -77.00069533333334, "name": "e933d3656b451db7e3bbf1a6dae6908a", "bike_id": "e933d3656b451db7e3bbf1a6dae6908a", "fusion_lat": 0.0, "is_reserved": 0, "lat": 38.9190955, "fusion_lon": 0.0, "is_disabled": 0}, {"rental_uris": {"android": "https://dc.lft.to/lastmile_qr_scan", "ios": "https://dc.lft.to/lastmile_qr_scan"}, "type": "electric_scooter", "lon": -77.01240216666666, "name": "6e2dc621ff6dc7dab2567334de26364d", "bike_id": "6e2dc621ff6dc7dab2567334de26364d", "fusion_lat": 0.0, "is_reserved": 0, "lat": 38.8719765, "fusion_lon": 0.0, "is_disabled": 0}, {"rental_uris": {"android": "https://dc.lft.to/lastmile_qr_scan", "ios": "https://dc.lft.to/lastmile_qr_scan"}, "type": "electric_scooter", "lon": -77.02694516666666, "name": "b2b213632fc3308d3eee8a556539de54", "bike_id": "b2b213632fc3308d3eee8a556539de54", "fusion_lat": 0.0, "is_reserved": 0, "lat": 38.90842266666667, "fusion_lon": 0.0, "is_disabled": 0}, {"rental_uris": {"android": "https://dc.lft.to/lastmile_qr_scan", "ios": "https://dc.lft.to/lastmile_qr_scan"}, "type": "electric_scooter", "lon": -77.01792866666666, "name": "78d86922d9fbcdf026dde37c14c3ef3f", "bike_id": "78d86922d9fbcdf026dde37c14c3ef3f", "fusion_lat": 0.0, "is_reserved": 0, "lat": 38.9210515, "fusion_lon": 0.0, "is_disabled": 0}, {"rental_uris": {"android": "https://dc.lft.to/lastmile_qr_scan", "ios": "https://dc.lft.to/lastmile_qr_scan"}, "type": "electric_scooter", "lon": -77.06514733333333, "name": "6333e4c5c9d66c15e34d450e1c019e55", "bike_id": "6333e4c5c9d66c15e34d450e1c019e55", "fusion_lat": 0.0, "is_reserved": 0, "lat": 38.90522283333333, "fusion_lon": 0.0, "is_disabled": 0}, {"rental_uris": {"android": "https://dc.lft.to/lastmile_qr_scan", "ios": "https://dc.lft.to/lastmile_qr_scan"}, "type": "electric_scooter", "lon": -77.00634116666667, "name": "27e803e53820433a0507677a7f0ce611", "bike_id": "27e803e53820433a0507677a7f0ce611", "fusion_lat": 0.0, "is_reserved": 0, "lat": 38.88326766666667, "fusion_lon": 0.0, "is_disabled": 0}, {"rental_uris": {"android": "https://dc.lft.to/lastmile_qr_scan", "ios": "https://dc.lft.to/lastmile_qr_scan"}, "type": "electric_scooter", "lon": -77.0318355, "name": "db8cf91d40f1d68d9fa7ca6f9bebcff5", "bike_id": "db8cf91d40f1d68d9fa7ca6f9bebcff5", "fusion_lat": 0.0, "is_reserved": 0, "lat": 38.92973533333333, "fusion_lon": 0.0, "is_disabled": 0}, {"rental_uris": {"android": "https://dc.lft.to/lastmile_qr_scan", "ios": "https://dc.lft.to/lastmile_qr_scan"}, "type": "electric_scooter", "lon": -77.0383795, "name": "a0562e429ff226ee7ae16b80b456d0b3", "bike_id": "a0562e429ff226ee7ae16b80b456d0b3", "fusion_lat": 0.0, "is_reserved": 0, "lat": 38.902809166666664, "fusion_lon": 0.0, "is_disabled": 0}, {"rental_uris": {"android": "https://dc.lft.to/lastmile_qr_scan", "ios": "https://dc.lft.to/lastmile_qr_scan"}, "type": "electric_scooter", "lon": -77.014482, "name": "ec8cfa1bc7229661b17e68c2a4e566af", "bike_id": "ec8cfa1bc7229661b17e68c2a4e566af", "fusion_lat": 0.0, "is_reserved": 0, "lat": 38.92683816666667, "fusion_lon": 0.0, "is_disabled": 0}, {"rental_uris": {"android": "https://dc.lft.to/lastmile_qr_scan", "ios": "https://dc.lft.to/lastmile_qr_scan"}, "type": "electric_scooter", "lon": -77.02090316666667, "name": "6e9f92e1a4619a2753af1a16d5066e6e", "bike_id": "6e9f92e1a4619a2753af1a16d5066e6e", "fusion_lat": 0.0, "is_reserved": 0, "lat": 38.92911316666667, "fusion_lon": 0.0, "is_disabled": 0}, {"rental_uris": {"android": "https://dc.lft.to/lastmile_qr_scan", "ios": "https://dc.lft.to/lastmile_qr_scan"}, "type": "electric_scooter", "lon": -77.01811983333333, "name": "df8d197a9cf5001b6601205c0aa2aec5", "bike_id": "df8d197a9cf5001b6601205c0aa2aec5", "fusion_lat": 0.0, "is_reserved": 0, "lat": 38.877174833333335, "fusion_lon": 0.0, "is_disabled": 0}, {"rental_uris": {"android": "https://dc.lft.to/lastmile_qr_scan", "ios": "https://dc.lft.to/lastmile_qr_scan"}, "type": "electric_scooter", "lon": -77.034161, "name": "4c7af9d57afd06ab2ce38c4c1bd6db64", "bike_id": "4c7af9d57afd06ab2ce38c4c1bd6db64", "fusion_lat": 0.0, "is_reserved": 0, "lat": 38.924278, "fusion_lon": 0.0, "is_disabled": 0}, {"rental_uris": {"android": "https://dc.lft.to/lastmile_qr_scan", "ios": "https://dc.lft.to/lastmile_qr_scan"}, "type": "electric_scooter", "lon": -77.03979583333333, "name": "3d3677907b75852b72d34fc8e04246b8", "bike_id": "3d3677907b75852b72d34fc8e04246b8", "fusion_lat": 0.0, "is_reserved": 0, "lat": 38.909321166666665, "fusion_lon": 0.0, "is_disabled": 0}, {"rental_uris": {"android": "https://dc.lft.to/lastmile_qr_scan", "ios": "https://dc.lft.to/lastmile_qr_scan"}, "type": "electric_scooter", "lon": -76.99389033333334, "name": "13bfd21cb70e27b52d6cbedc78dfbe14", "bike_id": "13bfd21cb70e27b52d6cbedc78dfbe14", "fusion_lat": 0.0, "is_reserved": 0, "lat": 38.884454833333336, "fusion_lon": 0.0, "is_disabled": 0}, {"rental_uris": {"android": "https://dc.lft.to/lastmile_qr_scan", "ios": "https://dc.lft.to/lastmile_qr_scan"}, "type": "electric_scooter", "lon": -77.04672, "name": "f81c06420c7fa4880c052997dff15fcc", "bike_id": "f81c06420c7fa4880c052997dff15fcc", "fusion_lat": 0.0, "is_reserved": 0, "lat": 38.89555283333333, "fusion_lon": 0.0, "is_disabled": 0}, {"rental_uris": {"android": "https://dc.lft.to/lastmile_qr_scan", "ios": "https://dc.lft.to/lastmile_qr_scan"}, "type": "electric_scooter", "lon": -77.03849233333334, "name": "a616945c8cebfc90eca22f30f7551eb3", "bike_id": "a616945c8cebfc90eca22f30f7551eb3", "fusion_lat": 0.0, "is_reserved": 0, "lat": 38.91328933333333, "fusion_lon": 0.0, "is_disabled": 0}, {"rental_uris": {"android": "https://dc.lft.to/lastmile_qr_scan", "ios": "https://dc.lft.to/lastmile_qr_scan"}, "type": "electric_scooter", "lon": -77.03258516666666, "name": "e0480bf2c5c18d085c7e5356107e03c9", "bike_id": "e0480bf2c5c18d085c7e5356107e03c9", "fusion_lat": 0.0, "is_reserved": 0, "lat": 38.93662916666667, "fusion_lon": 0.0, "is_disabled": 0}, {"rental_uris": {"android": "https://dc.lft.to/lastmile_qr_scan", "ios": "https://dc.lft.to/lastmile_qr_scan"}, "type": "electric_scooter", "lon": -77.042598, "name": "dd999a46a42350fac573ecb09ba15e00", "bike_id": "dd999a46a42350fac573ecb09ba15e00", "fusion_lat": 0.0, "is_reserved": 0, "lat": 38.90982966666667, "fusion_lon": 0.0, "is_disabled": 0}, {"rental_uris": {"android": "https://dc.lft.to/lastmile_qr_scan", "ios": "https://dc.lft.to/lastmile_qr_scan"}, "type": "electric_scooter", "lon": -77.06020683333334, "name": "d045292c6af7b343e2231da5881bee61", "bike_id": "d045292c6af7b343e2231da5881bee61", "fusion_lat": 0.0, "is_reserved": 0, "lat": 38.939158, "fusion_lon": 0.0, "is_disabled": 0}, {"rental_uris": {"android": "https://dc.lft.to/lastmile_qr_scan", "ios": "https://dc.lft.to/lastmile_qr_scan"}, "type": "electric_bike", "lon": -77.0210645, "name": "351693adb50e4fa61a01371ccf614705", "bike_id": "351693adb50e4fa61a01371ccf614705", "fusion_lat": 0.0, "is_reserved": 0, "lat": 39.022965, "fusion_lon": 0.0, "is_disabled": 0}, {"rental_uris": {"android": "https://dc.lft.to/lastmile_qr_scan", "ios": "https://dc.lft.to/lastmile_qr_scan"}, "type": "electric_bike", "lon": -77.12902233333334, "name": "add3f6e41aff72889c61cc34fa8878b1", "bike_id": "add3f6e41aff72889c61cc34fa8878b1", "fusion_lat": 0.0, "is_reserved": 0, "lat": 38.863752166666664, "fusion_lon": 0.0, "is_disabled": 0}, {"rental_uris": {"android": "https://dc.lft.to/lastmile_qr_scan", "ios": "https://dc.lft.to/lastmile_qr_scan"}, "type": "electric_scooter", "lon": -77.005827, "name": "5d1860074dd6c72e16767d04f216b728", "bike_id": "5d1860074dd6c72e16767d04f216b728", "fusion_lat": 0.0, "is_reserved": 0, "lat": 38.883653333333335, "fusion_lon": 0.0, "is_disabled": 0}, {"rental_uris": {"android": "https://dc.lft.to/lastmile_qr_scan", "ios": "https://dc.lft.to/lastmile_qr_scan"}, "type": "electric_scooter", "lon": -77.07422483333333, "name": "8a4b1f1a331cbf8a1acbaa6ee7f50de7", "bike_id": "8a4b1f1a331cbf8a1acbaa6ee7f50de7", "fusion_lat": 0.0, "is_reserved": 0, "lat": 38.91095466666667, "fusion_lon": 0.0, "is_disabled": 0}, {"rental_uris": {"android": "https://dc.lft.to/lastmile_qr_scan", "ios": "https://dc.lft.to/lastmile_qr_scan"}, "type": "electric_scooter", "lon": -77.02925533333334, "name": "c6dc85ec525ec3016a13fb394f9d9fa8", "bike_id": "c6dc85ec525ec3016a13fb394f9d9fa8", "fusion_lat": 0.0, "is_reserved": 0, "lat": 38.942800166666665, "fusion_lon": 0.0, "is_disabled": 0}, {"rental_uris": {"android": "https://dc.lft.to/lastmile_qr_scan", "ios": "https://dc.lft.to/lastmile_qr_scan"}, "type": "electric_scooter", "lon": -77.051063, "name": "1505448a5415e4eafbe215646bb52363", "bike_id": "1505448a5415e4eafbe215646bb52363", "fusion_lat": 0.0, "is_reserved": 0, "lat": 38.905169666666666, "fusion_lon": 0.0, "is_disabled": 0}, {"rental_uris": {"android": "https://dc.lft.to/lastmile_qr_scan", "ios": "https://dc.lft.to/lastmile_qr_scan"}, "type": "electric_scooter", "lon": -77.00586683333333, "name": "2283e10fc53782b4b6bd955b86425f1b", "bike_id": "2283e10fc53782b4b6bd955b86425f1b", "fusion_lat": 0.0, "is_reserved": 0, "lat": 38.88524, "fusion_lon": 0.0, "is_disabled": 0}, {"rental_uris": {"android": "https://dc.lft.to/lastmile_qr_scan", "ios": "https://dc.lft.to/lastmile_qr_scan"}, "type": "electric_scooter", "lon": -77.0463935, "name": "2f024ebac55ecfc63861ad31259e0711", "bike_id": "2f024ebac55ecfc63861ad31259e0711", "fusion_lat": 0.0, "is_reserved": 0, "lat": 38.922261166666665, "fusion_lon": 0.0, "is_disabled": 0}, {"rental_uris": {"android": "https://dc.lft.to/lastmile_qr_scan", "ios": "https://dc.lft.to/lastmile_qr_scan"}, "type": "electric_scooter", "lon": -77.029607, "name": "09121afc728367b12e5fe2cfc57ecce5", "bike_id": "09121afc728367b12e5fe2cfc57ecce5", "fusion_lat": 0.0, "is_reserved": 0, "lat": 38.90043583333333, "fusion_lon": 0.0, "is_disabled": 0}, {"rental_uris": {"android": "https://dc.lft.to/lastmile_qr_scan", "ios": "https://dc.lft.to/lastmile_qr_scan"}, "type": "electric_scooter", "lon": -76.99010866666667, "name": "9433ac17eec2901cdd42153ee7f3c601", "bike_id": "9433ac17eec2901cdd42153ee7f3c601", "fusion_lat": 0.0, "is_reserved": 0, "lat": 38.91136633333333, "fusion_lon": 0.0, "is_disabled": 0}, {"rental_uris": {"android": "https://dc.lft.to/lastmile_qr_scan", "ios": "https://dc.lft.to/lastmile_qr_scan"}, "type": "electric_scooter", "lon": -77.03674266666667, "name": "859c23da964faff569fb7566dff2ccad", "bike_id": "859c23da964faff569fb7566dff2ccad", "fusion_lat": 0.0, "is_reserved": 0, "lat": 38.902511, "fusion_lon": 0.0, "is_disabled": 0}, {"rental_uris": {"android": "https://dc.lft.to/lastmile_qr_scan", "ios": "https://dc.lft.to/lastmile_qr_scan"}, "type": "electric_bike", "lon": -76.91124916666666, "name": "413f4d12d7adb9f50f98711d31ef585d", "bike_id": "413f4d12d7adb9f50f98711d31ef585d", "fusion_lat": 0.0, "is_reserved": 0, "lat": 39.0103445, "fusion_lon": 0.0, "is_disabled": 0}, {"rental_uris": {"android": "https://dc.lft.to/lastmile_qr_scan", "ios": "https://dc.lft.to/lastmile_qr_scan"}, "type": "electric_scooter", "lon": -76.97902500000001, "name": "be7f99a5efca1c3a4f922f2b5e24de21", "bike_id": "be7f99a5efca1c3a4f922f2b5e24de21", "fusion_lat": 0.0, "is_reserved": 0, "lat": 38.903847666666664, "fusion_lon": 0.0, "is_disabled": 0}, {"rental_uris": {"android": "https://dc.lft.to/lastmile_qr_scan", "ios": "https://dc.lft.to/lastmile_qr_scan"}, "type": "electric_scooter", "lon": -77.01041216666667, "name": "04d5bc47eebbf1f6aba689bbd8a47428", "bike_id": "04d5bc47eebbf1f6aba689bbd8a47428", "fusion_lat": 0.0, "is_reserved": 0, "lat": 38.884473666666665, "fusion_lon": 0.0, "is_disabled": 0}, {"rental_uris": {"android": "https://dc.lft.to/lastmile_qr_scan", "ios": "https://dc.lft.to/lastmile_qr_scan"}, "type": "electric_scooter", "lon": -77.047921, "name": "4fada411bde5ed0893c2f9eec5d584c1", "bike_id": "4fada411bde5ed0893c2f9eec5d584c1", "fusion_lat": 0.0, "is_reserved": 0, "lat": 38.89369416666667, "fusion_lon": 0.0, "is_disabled": 0}, {"rental_uris": {"android": "https://dc.lft.to/lastmile_qr_scan", "ios": "https://dc.lft.to/lastmile_qr_scan"}, "type": "electric_scooter", "lon": -77.01356, "name": "7b58b87cb177522753f854e8f36c0cd2", "bike_id": "7b58b87cb177522753f854e8f36c0cd2", "fusion_lat": 0.0, "is_reserved": 0, "lat": 38.9038615, "fusion_lon": 0.0, "is_disabled": 0}, {"rental_uris": {"android": "https://dc.lft.to/lastmile_qr_scan", "ios": "https://dc.lft.to/lastmile_qr_scan"}, "type": "electric_scooter", "lon": -77.03854283333334, "name": "7dcecdadc9d26fe88f2b1751b74b741d", "bike_id": "7dcecdadc9d26fe88f2b1751b74b741d", "fusion_lat": 0.0, "is_reserved": 0, "lat": 38.911927166666665, "fusion_lon": 0.0, "is_disabled": 0}, {"rental_uris": {"android": "https://dc.lft.to/lastmile_qr_scan", "ios": "https://dc.lft.to/lastmile_qr_scan"}, "type": "electric_scooter", "lon": -76.94299316666667, "name": "4c22c6db8ad9caee99a3360078ab2b0e", "bike_id": "4c22c6db8ad9caee99a3360078ab2b0e", "fusion_lat": 0.0, "is_reserved": 0, "lat": 38.89091366666667, "fusion_lon": 0.0, "is_disabled": 0}, {"rental_uris": {"android": "https://dc.lft.to/lastmile_qr_scan", "ios": "https://dc.lft.to/lastmile_qr_scan"}, "type": "electric_scooter", "lon": -76.999572, "name": "fdc6a8bc910e48667dda19c980ec871e", "bike_id": "fdc6a8bc910e48667dda19c980ec871e", "fusion_lat": 0.0, "is_reserved": 0, "lat": 38.889904666666666, "fusion_lon": 0.0, "is_disabled": 0}, {"rental_uris": {"android": "https://dc.lft.to/lastmile_qr_scan", "ios": "https://dc.lft.to/lastmile_qr_scan"}, "type": "electric_scooter", "lon": -77.0305975, "name": "45487961e19e1bfe9ed57644b4b59e36", "bike_id": "45487961e19e1bfe9ed57644b4b59e36", "fusion_lat": 0.0, "is_reserved": 0, "lat": 38.9237535, "fusion_lon": 0.0, "is_disabled": 0}, {"rental_uris": {"android": "https://dc.lft.to/lastmile_qr_scan", "ios": "https://dc.lft.to/lastmile_qr_scan"}, "type": "electric_bike", "lon": -77.02414166666667, "name": "6a41183b21820450583df0d187f2a311", "bike_id": "6a41183b21820450583df0d187f2a311", "fusion_lat": 0.0, "is_reserved": 0, "lat": 38.94905683333333, "fusion_lon": 0.0, "is_disabled": 0}, {"rental_uris": {"android": "https://dc.lft.to/lastmile_qr_scan", "ios": "https://dc.lft.to/lastmile_qr_scan"}, "type": "electric_scooter", "lon": -77.04198883333333, "name": "43c5af5d915668d36260d1c510654a24", "bike_id": "43c5af5d915668d36260d1c510654a24", "fusion_lat": 0.0, "is_reserved": 0, "lat": 38.89222866666667, "fusion_lon": 0.0, "is_disabled": 0}, {"rental_uris": {"android": "https://dc.lft.to/lastmile_qr_scan", "ios": "https://dc.lft.to/lastmile_qr_scan"}, "type": "electric_scooter", "lon": -77.00597833333333, "name": "ab46a6f5a25d9fc5393e406643390f79", "bike_id": "ab46a6f5a25d9fc5393e406643390f79", "fusion_lat": 0.0, "is_reserved": 0, "lat": 38.905441, "fusion_lon": 0.0, "is_disabled": 0}, {"rental_uris": {"android": "https://dc.lft.to/lastmile_qr_scan", "ios": "https://dc.lft.to/lastmile_qr_scan"}, "type": "electric_scooter", "lon": -76.98815266666666, "name": "550e791506f1686fe4201aaa26044c3f", "bike_id": "550e791506f1686fe4201aaa26044c3f", "fusion_lat": 0.0, "is_reserved": 0, "lat": 38.880347, "fusion_lon": 0.0, "is_disabled": 0}, {"rental_uris": {"android": "https://dc.lft.to/lastmile_qr_scan", "ios": "https://dc.lft.to/lastmile_qr_scan"}, "type": "electric_scooter", "lon": -77.02639916666666, "name": "fc28b6813fdb0d93d8fc4c5de68fd751", "bike_id": "fc28b6813fdb0d93d8fc4c5de68fd751", "fusion_lat": 0.0, "is_reserved": 0, "lat": 38.88103783333333, "fusion_lon": 0.0, "is_disabled": 0}, {"rental_uris": {"android": "https://dc.lft.to/lastmile_qr_scan", "ios": "https://dc.lft.to/lastmile_qr_scan"}, "type": "electric_scooter", "lon": -76.97454266666666, "name": "934077228025e8bc6bed7dc3e9733b42", "bike_id": "934077228025e8bc6bed7dc3e9733b42", "fusion_lat": 0.0, "is_reserved": 0, "lat": 38.86371366666667, "fusion_lon": 0.0, "is_disabled": 0}, {"rental_uris": {"android": "https://dc.lft.to/lastmile_qr_scan", "ios": "https://dc.lft.to/lastmile_qr_scan"}, "type": "electric_scooter", "lon": -77.0346285, "name": "00331b8172ee904d75e85cb250a62963", "bike_id": "00331b8172ee904d75e85cb250a62963", "fusion_lat": 0.0, "is_reserved": 0, "lat": 38.902903, "fusion_lon": 0.0, "is_disabled": 0}, {"rental_uris": {"android": "https://dc.lft.to/lastmile_qr_scan", "ios": "https://dc.lft.to/lastmile_qr_scan"}, "type": "electric_scooter", "lon": -77.0422165, "name": "831d00511a7a54cd9daabd0894aff416", "bike_id": "831d00511a7a54cd9daabd0894aff416", "fusion_lat": 0.0, "is_reserved": 0, "lat": 38.911044833333335, "fusion_lon": 0.0, "is_disabled": 0}, {"rental_uris": {"android": "https://dc.lft.to/lastmile_qr_scan", "ios": "https://dc.lft.to/lastmile_qr_scan"}, "type": "electric_scooter", "lon": -77.04188933333333, "name": "f4c748987d5b3f82f0295f1da88f03e2", "bike_id": "f4c748987d5b3f82f0295f1da88f03e2", "fusion_lat": 0.0, "is_reserved": 0, "lat": 38.920575666666664, "fusion_lon": 0.0, "is_disabled": 0}, {"rental_uris": {"android": "https://dc.lft.to/lastmile_qr_scan", "ios": "https://dc.lft.to/lastmile_qr_scan"}, "type": "electric_scooter", "lon": -77.03305833333333, "name": "abba2462a82fcba118acf26d28aa4506", "bike_id": "abba2462a82fcba118acf26d28aa4506", "fusion_lat": 0.0, "is_reserved": 0, "lat": 38.898301333333336, "fusion_lon": 0.0, "is_disabled": 0}, {"rental_uris": {"android": "https://dc.lft.to/lastmile_qr_scan", "ios": "https://dc.lft.to/lastmile_qr_scan"}, "type": "electric_scooter", "lon": -77.04487833333333, "name": "9e1c76f8d4533da3025820937eb1af5e", "bike_id": "9e1c76f8d4533da3025820937eb1af5e", "fusion_lat": 0.0, "is_reserved": 0, "lat": 38.912377666666664, "fusion_lon": 0.0, "is_disabled": 0}, {"rental_uris": {"android": "https://dc.lft.to/lastmile_qr_scan", "ios": "https://dc.lft.to/lastmile_qr_scan"}, "type": "electric_scooter", "lon": -77.044651, "name": "241fed6f1c86b4cd3c29249024322fcb", "bike_id": "241fed6f1c86b4cd3c29249024322fcb", "fusion_lat": 0.0, "is_reserved": 0, "lat": 38.91931233333333, "fusion_lon": 0.0, "is_disabled": 0}, {"rental_uris": {"android": "https://dc.lft.to/lastmile_qr_scan", "ios": "https://dc.lft.to/lastmile_qr_scan"}, "type": "electric_scooter", "lon": -76.98454416666667, "name": "ab062bdf9629bd55d23ea65a90b5be9b", "bike_id": "ab062bdf9629bd55d23ea65a90b5be9b", "fusion_lat": 0.0, "is_reserved": 0, "lat": 38.88003233333333, "fusion_lon": 0.0, "is_disabled": 0}, {"rental_uris": {"android": "https://dc.lft.to/lastmile_qr_scan", "ios": "https://dc.lft.to/lastmile_qr_scan"}, "type": "electric_scooter", "lon": -76.9949175, "name": "5a50a322b912ed183274afc640a6ca4d", "bike_id": "5a50a322b912ed183274afc640a6ca4d", "fusion_lat": 0.0, "is_reserved": 0, "lat": 38.862454, "fusion_lon": 0.0, "is_disabled": 0}, {"rental_uris": {"android": "https://dc.lft.to/lastmile_qr_scan", "ios": "https://dc.lft.to/lastmile_qr_scan"}, "type": "electric_scooter", "lon": -77.03241166666666, "name": "f059bb3b59268849d151a70b66c8388d", "bike_id": "f059bb3b59268849d151a70b66c8388d", "fusion_lat": 0.0, "is_reserved": 0, "lat": 38.929879166666666, "fusion_lon": 0.0, "is_disabled": 0}, {"rental_uris": {"android": "https://dc.lft.to/lastmile_qr_scan", "ios": "https://dc.lft.to/lastmile_qr_scan"}, "type": "electric_scooter", "lon": -77.02641133333333, "name": "defcc0eded3f298cd97b9d403e7afc2f", "bike_id": "defcc0eded3f298cd97b9d403e7afc2f", "fusion_lat": 0.0, "is_reserved": 0, "lat": 38.90120483333333, "fusion_lon": 0.0, "is_disabled": 0}, {"rental_uris": {"android": "https://dc.lft.to/lastmile_qr_scan", "ios": "https://dc.lft.to/lastmile_qr_scan"}, "type": "electric_bike", "lon": -76.97501933333334, "name": "f009796d05816e20f991129885793c5e", "bike_id": "f009796d05816e20f991129885793c5e", "fusion_lat": 0.0, "is_reserved": 0, "lat": 38.91937083333333, "fusion_lon": 0.0, "is_disabled": 0}, {"rental_uris": {"android": "https://dc.lft.to/lastmile_qr_scan", "ios": "https://dc.lft.to/lastmile_qr_scan"}, "type": "electric_bike", "lon": -77.083694, "name": "f6e7770a4f5959c3db67d682bf9a6a8c", "bike_id": "f6e7770a4f5959c3db67d682bf9a6a8c", "fusion_lat": 0.0, "is_reserved": 0, "lat": 38.80840833333333, "fusion_lon": 0.0, "is_disabled": 0}, {"rental_uris": {"android": "https://dc.lft.to/lastmile_qr_scan", "ios": "https://dc.lft.to/lastmile_qr_scan"}, "type": "electric_scooter", "lon": -76.97558, "name": "c7c0b23179164f4c0981112ef8a5b802", "bike_id": "c7c0b23179164f4c0981112ef8a5b802", "fusion_lat": 0.0, "is_reserved": 0, "lat": 38.9044005, "fusion_lon": 0.0, "is_disabled": 0}, {"rental_uris": {"android": "https://dc.lft.to/lastmile_qr_scan", "ios": "https://dc.lft.to/lastmile_qr_scan"}, "type": "electric_scooter", "lon": -76.99940116666667, "name": "daff85796345aeb979988535363ecfcc", "bike_id": "daff85796345aeb979988535363ecfcc", "fusion_lat": 0.0, "is_reserved": 0, "lat": 38.90858983333333, "fusion_lon": 0.0, "is_disabled": 0}, {"rental_uris": {"android": "https://dc.lft.to/lastmile_qr_scan", "ios": "https://dc.lft.to/lastmile_qr_scan"}, "type": "electric_scooter", "lon": -76.98217416666667, "name": "5d1916f08039ee19722a4cf44723763b", "bike_id": "5d1916f08039ee19722a4cf44723763b", "fusion_lat": 0.0, "is_reserved": 0, "lat": 38.901773666666664, "fusion_lon": 0.0, "is_disabled": 0}, {"rental_uris": {"android": "https://dc.lft.to/lastmile_qr_scan", "ios": "https://dc.lft.to/lastmile_qr_scan"}, "type": "electric_scooter", "lon": -77.018129, "name": "df9d3ac35364d9501fbb3759f614111f", "bike_id": "df9d3ac35364d9501fbb3759f614111f", "fusion_lat": 0.0, "is_reserved": 0, "lat": 38.88604216666667, "fusion_lon": 0.0, "is_disabled": 0}, {"rental_uris": {"android": "https://dc.lft.to/lastmile_qr_scan", "ios": "https://dc.lft.to/lastmile_qr_scan"}, "type": "electric_scooter", "lon": -77.04155766666666, "name": "ab7600f04b9bb20e3e23a5aece34d4b4", "bike_id": "ab7600f04b9bb20e3e23a5aece34d4b4", "fusion_lat": 0.0, "is_reserved": 0, "lat": 38.91930083333333, "fusion_lon": 0.0, "is_disabled": 0}, {"rental_uris": {"android": "https://dc.lft.to/lastmile_qr_scan", "ios": "https://dc.lft.to/lastmile_qr_scan"}, "type": "electric_scooter", "lon": -77.04256566666666, "name": "e4daac4571e948b9a79ff449cfa54a02", "bike_id": "e4daac4571e948b9a79ff449cfa54a02", "fusion_lat": 0.0, "is_reserved": 0, "lat": 38.908384833333336, "fusion_lon": 0.0, "is_disabled": 0}, {"rental_uris": {"android": "https://dc.lft.to/lastmile_qr_scan", "ios": "https://dc.lft.to/lastmile_qr_scan"}, "type": "electric_bike", "lon": -77.10926433333333, "name": "3ee646c1a4a5e0bed00738bc9f86b1f7", "bike_id": "3ee646c1a4a5e0bed00738bc9f86b1f7", "fusion_lat": 0.0, "is_reserved": 0, "lat": 39.052037166666665, "fusion_lon": 0.0, "is_disabled": 0}, {"rental_uris": {"android": "https://dc.lft.to/lastmile_qr_scan", "ios": "https://dc.lft.to/lastmile_qr_scan"}, "type": "electric_scooter", "lon": -77.04357083333333, "name": "6278098bb78141b30368ed26a5c03d43", "bike_id": "6278098bb78141b30368ed26a5c03d43", "fusion_lat": 0.0, "is_reserved": 0, "lat": 38.90508766666667, "fusion_lon": 0.0, "is_disabled": 0}, {"rental_uris": {"android": "https://dc.lft.to/lastmile_qr_scan", "ios": "https://dc.lft.to/lastmile_qr_scan"}, "type": "electric_scooter", "lon": -77.04901966666667, "name": "fde63023a382820ed21c5420026327b8", "bike_id": "fde63023a382820ed21c5420026327b8", "fusion_lat": 0.0, "is_reserved": 0, "lat": 38.892498833333335, "fusion_lon": 0.0, "is_disabled": 0}, {"rental_uris": {"android": "https://dc.lft.to/lastmile_qr_scan", "ios": "https://dc.lft.to/lastmile_qr_scan"}, "type": "electric_scooter", "lon": -77.0342945, "name": "a9489614a35ef3f2a316ccebaf42d1c8", "bike_id": "a9489614a35ef3f2a316ccebaf42d1c8", "fusion_lat": 0.0, "is_reserved": 0, "lat": 38.90239316666667, "fusion_lon": 0.0, "is_disabled": 0}, {"rental_uris": {"android": "https://dc.lft.to/lastmile_qr_scan", "ios": "https://dc.lft.to/lastmile_qr_scan"}, "type": "electric_scooter", "lon": -77.04326133333333, "name": "fc8740ffa1e01847c3daace4b4b483e7", "bike_id": "fc8740ffa1e01847c3daace4b4b483e7", "fusion_lat": 0.0, "is_reserved": 0, "lat": 38.904056833333335, "fusion_lon": 0.0, "is_disabled": 0}, {"rental_uris": {"android": "https://dc.lft.to/lastmile_qr_scan", "ios": "https://dc.lft.to/lastmile_qr_scan"}, "type": "electric_scooter", "lon": -77.04386916666667, "name": "f40b5c4bc19a6f408ee1924c256ed0fb", "bike_id": "f40b5c4bc19a6f408ee1924c256ed0fb", "fusion_lat": 0.0, "is_reserved": 0, "lat": 38.92273466666666, "fusion_lon": 0.0, "is_disabled": 0}, {"rental_uris": {"android": "https://dc.lft.to/lastmile_qr_scan", "ios": "https://dc.lft.to/lastmile_qr_scan"}, "type": "electric_scooter", "lon": -77.01182283333333, "name": "4b45d60dce4684ab02740461d3ca8a91", "bike_id": "4b45d60dce4684ab02740461d3ca8a91", "fusion_lat": 0.0, "is_reserved": 0, "lat": 38.90025333333333, "fusion_lon": 0.0, "is_disabled": 0}, {"rental_uris": {"android": "https://dc.lft.to/lastmile_qr_scan", "ios": "https://dc.lft.to/lastmile_qr_scan"}, "type": "electric_scooter", "lon": -77.0237255, "name": "83de083a9039cdd5a94d3c5a887f7f43", "bike_id": "83de083a9039cdd5a94d3c5a887f7f43", "fusion_lat": 0.0, "is_reserved": 0, "lat": 38.892207666666664, "fusion_lon": 0.0, "is_disabled": 0}, {"rental_uris": {"android": "https://dc.lft.to/lastmile_qr_scan", "ios": "https://dc.lft.to/lastmile_qr_scan"}, "type": "electric_scooter", "lon": -77.04343716666666, "name": "90707576b922aabc13a91fa7bf6c1ed4", "bike_id": "90707576b922aabc13a91fa7bf6c1ed4", "fusion_lat": 0.0, "is_reserved": 0, "lat": 38.903462, "fusion_lon": 0.0, "is_disabled": 0}, {"rental_uris": {"android": "https://dc.lft.to/lastmile_qr_scan", "ios": "https://dc.lft.to/lastmile_qr_scan"}, "type": "electric_scooter", "lon": -76.9650695, "name": "6ffd99e05ea8900df0eb30657ac1d7a9", "bike_id": "6ffd99e05ea8900df0eb30657ac1d7a9", "fusion_lat": 0.0, "is_reserved": 0, "lat": 38.87646733333333, "fusion_lon": 0.0, "is_disabled": 0}, {"rental_uris": {"android": "https://dc.lft.to/lastmile_qr_scan", "ios": "https://dc.lft.to/lastmile_qr_scan"}, "type": "electric_scooter", "lon": -77.01826033333333, "name": "8a4409ff49a97143a1fb4420e76c0914", "bike_id": "8a4409ff49a97143a1fb4420e76c0914", "fusion_lat": 0.0, "is_reserved": 0, "lat": 38.90813566666667, "fusion_lon": 0.0, "is_disabled": 0}, {"rental_uris": {"android": "https://dc.lft.to/lastmile_qr_scan", "ios": "https://dc.lft.to/lastmile_qr_scan"}, "type": "electric_scooter", "lon": -77.00809416666667, "name": "2ee68dc2b258ce2096da761c6d9a94db", "bike_id": "2ee68dc2b258ce2096da761c6d9a94db", "fusion_lat": 0.0, "is_reserved": 0, "lat": 38.8765805, "fusion_lon": 0.0, "is_disabled": 0}, {"rental_uris": {"android": "https://dc.lft.to/lastmile_qr_scan", "ios": "https://dc.lft.to/lastmile_qr_scan"}, "type": "electric_scooter", "lon": -77.00307933333333, "name": "c57a8cfbf3b304334c333a1d4ee74ae8", "bike_id": "c57a8cfbf3b304334c333a1d4ee74ae8", "fusion_lat": 0.0, "is_reserved": 0, "lat": 38.923391333333335, "fusion_lon": 0.0, "is_disabled": 0}, {"rental_uris": {"android": "https://dc.lft.to/lastmile_qr_scan", "ios": "https://dc.lft.to/lastmile_qr_scan"}, "type": "electric_scooter", "lon": -76.99034716666667, "name": "751dca8a232e47b26136594bcbbe2e5b", "bike_id": "751dca8a232e47b26136594bcbbe2e5b", "fusion_lat": 0.0, "is_reserved": 0, "lat": 38.858683166666665, "fusion_lon": 0.0, "is_disabled": 0}, {"rental_uris": {"android": "https://dc.lft.to/lastmile_qr_scan", "ios": "https://dc.lft.to/lastmile_qr_scan"}, "type": "electric_bike", "lon": -76.99566166666666, "name": "944bfa535afb4a4f8cd1a764d81abbe6", "bike_id": "944bfa535afb4a4f8cd1a764d81abbe6", "fusion_lat": 0.0, "is_reserved": 0, "lat": 39.00787483333333, "fusion_lon": 0.0, "is_disabled": 0}, {"rental_uris": {"android": "https://dc.lft.to/lastmile_qr_scan", "ios": "https://dc.lft.to/lastmile_qr_scan"}, "type": "electric_scooter", "lon": -76.98709416666667, "name": "e6e0d4842e72f639fdca6307dcd0d026", "bike_id": "e6e0d4842e72f639fdca6307dcd0d026", "fusion_lat": 0.0, "is_reserved": 0, "lat": 38.86696883333333, "fusion_lon": 0.0, "is_disabled": 0}, {"rental_uris": {"android": "https://dc.lft.to/lastmile_qr_scan", "ios": "https://dc.lft.to/lastmile_qr_scan"}, "type": "electric_bike", "lon": -77.12501916666666, "name": "b2762309a361f68eb53740d4997edc05", "bike_id": "b2762309a361f68eb53740d4997edc05", "fusion_lat": 0.0, "is_reserved": 0, "lat": 39.02422266666667, "fusion_lon": 0.0, "is_disabled": 0}, {"rental_uris": {"android": "https://dc.lft.to/lastmile_qr_scan", "ios": "https://dc.lft.to/lastmile_qr_scan"}, "type": "electric_scooter", "lon": -77.04345683333334, "name": "f4aaa2e495e6815173820be79be487a8", "bike_id": "f4aaa2e495e6815173820be79be487a8", "fusion_lat": 0.0, "is_reserved": 0, "lat": 38.908777666666666, "fusion_lon": 0.0, "is_disabled": 0}, {"rental_uris": {"android": "https://dc.lft.to/lastmile_qr_scan", "ios": "https://dc.lft.to/lastmile_qr_scan"}, "type": "electric_scooter", "lon": -77.00449216666667, "name": "d68b2903fc7e7859d256fd8c750bbc6d", "bike_id": "d68b2903fc7e7859d256fd8c750bbc6d", "fusion_lat": 0.0, "is_reserved": 0, "lat": 38.89710783333334, "fusion_lon": 0.0, "is_disabled": 0}, {"rental_uris": {"android": "https://dc.lft.to/lastmile_qr_scan", "ios": "https://dc.lft.to/lastmile_qr_scan"}, "type": "electric_scooter", "lon": -77.00167733333333, "name": "8798c9fb0ea5930dff33b133e0eed037", "bike_id": "8798c9fb0ea5930dff33b133e0eed037", "fusion_lat": 0.0, "is_reserved": 0, "lat": 38.90515583333333, "fusion_lon": 0.0, "is_disabled": 0}, {"rental_uris": {"android": "https://dc.lft.to/lastmile_qr_scan", "ios": "https://dc.lft.to/lastmile_qr_scan"}, "type": "electric_scooter", "lon": -77.07160033333334, "name": "d58ef58b716afcb2571feedbed8561de", "bike_id": "d58ef58b716afcb2571feedbed8561de", "fusion_lat": 0.0, "is_reserved": 0, "lat": 38.958398833333334, "fusion_lon": 0.0, "is_disabled": 0}, {"rental_uris": {"android": "https://dc.lft.to/lastmile_qr_scan", "ios": "https://dc.lft.to/lastmile_qr_scan"}, "type": "electric_scooter", "lon": -77.0450525, "name": "490e5b29c85e60f2ae597764dd0cea67", "bike_id": "490e5b29c85e60f2ae597764dd0cea67", "fusion_lat": 0.0, "is_reserved": 0, "lat": 38.8922095, "fusion_lon": 0.0, "is_disabled": 0}, {"rental_uris": {"android": "https://dc.lft.to/lastmile_qr_scan", "ios": "https://dc.lft.to/lastmile_qr_scan"}, "type": "electric_scooter", "lon": -77.01090266666667, "name": "bc8931acd62a79e315d8ac06ca4d3838", "bike_id": "bc8931acd62a79e315d8ac06ca4d3838", "fusion_lat": 0.0, "is_reserved": 0, "lat": 38.89486566666667, "fusion_lon": 0.0, "is_disabled": 0}, {"rental_uris": {"android": "https://dc.lft.to/lastmile_qr_scan", "ios": "https://dc.lft.to/lastmile_qr_scan"}, "type": "electric_scooter", "lon": -77.01800433333334, "name": "b21b79f0c161ffbc5782079457b0162d", "bike_id": "b21b79f0c161ffbc5782079457b0162d", "fusion_lat": 0.0, "is_reserved": 0, "lat": 38.92166233333333, "fusion_lon": 0.0, "is_disabled": 0}, {"rental_uris": {"android": "https://dc.lft.to/lastmile_qr_scan", "ios": "https://dc.lft.to/lastmile_qr_scan"}, "type": "electric_scooter", "lon": -77.04346533333333, "name": "2525e8b166ca6734ca043acd3802ed71", "bike_id": "2525e8b166ca6734ca043acd3802ed71", "fusion_lat": 0.0, "is_reserved": 0, "lat": 38.90540766666667, "fusion_lon": 0.0, "is_disabled": 0}, {"rental_uris": {"android": "https://dc.lft.to/lastmile_qr_scan", "ios": "https://dc.lft.to/lastmile_qr_scan"}, "type": "electric_scooter", "lon": -77.0456655, "name": "af322be89dfe1a21038c2e09535235a8", "bike_id": "af322be89dfe1a21038c2e09535235a8", "fusion_lat": 0.0, "is_reserved": 0, "lat": 38.90861316666667, "fusion_lon": 0.0, "is_disabled": 0}, {"rental_uris": {"android": "https://dc.lft.to/lastmile_qr_scan", "ios": "https://dc.lft.to/lastmile_qr_scan"}, "type": "electric_scooter", "lon": -77.00930533333333, "name": "d3bc49bbd04c4929eb1b1a1b74de9018", "bike_id": "d3bc49bbd04c4929eb1b1a1b74de9018", "fusion_lat": 0.0, "is_reserved": 0, "lat": 38.91250633333333, "fusion_lon": 0.0, "is_disabled": 0}, {"rental_uris": {"android": "https://dc.lft.to/lastmile_qr_scan", "ios": "https://dc.lft.to/lastmile_qr_scan"}, "type": "electric_scooter", "lon": -77.00562166666667, "name": "77b63955cdd798d8b12367e4bba4ac05", "bike_id": "77b63955cdd798d8b12367e4bba4ac05", "fusion_lat": 0.0, "is_reserved": 0, "lat": 38.90561433333333, "fusion_lon": 0.0, "is_disabled": 0}, {"rental_uris": {"android": "https://dc.lft.to/lastmile_qr_scan", "ios": "https://dc.lft.to/lastmile_qr_scan"}, "type": "electric_bike", "lon": -77.1295975, "name": "ce6fafe60fe5b9d5260b08fe6875b344", "bike_id": "ce6fafe60fe5b9d5260b08fe6875b344", "fusion_lat": 0.0, "is_reserved": 0, "lat": 38.8521875, "fusion_lon": 0.0, "is_disabled": 0}, {"rental_uris": {"android": "https://dc.lft.to/lastmile_qr_scan", "ios": "https://dc.lft.to/lastmile_qr_scan"}, "type": "electric_scooter", "lon": -76.99514416666666, "name": "843a366feff9a34c9a87f052549ee9ed", "bike_id": "843a366feff9a34c9a87f052549ee9ed", "fusion_lat": 0.0, "is_reserved": 0, "lat": 38.894821666666665, "fusion_lon": 0.0, "is_disabled": 0}, {"rental_uris": {"android": "https://dc.lft.to/lastmile_qr_scan", "ios": "https://dc.lft.to/lastmile_qr_scan"}, "type": "electric_scooter", "lon": -77.0022445, "name": "4eaf52776ddbebde83944b0f8fc11afc", "bike_id": "4eaf52776ddbebde83944b0f8fc11afc", "fusion_lat": 0.0, "is_reserved": 0, "lat": 38.957255, "fusion_lon": 0.0, "is_disabled": 0}, {"rental_uris": {"android": "https://dc.lft.to/lastmile_qr_scan", "ios": "https://dc.lft.to/lastmile_qr_scan"}, "type": "electric_scooter", "lon": -77.02553666666667, "name": "2b06370a6fa2e4d4c51c1ee84b72517c", "bike_id": "2b06370a6fa2e4d4c51c1ee84b72517c", "fusion_lat": 0.0, "is_reserved": 0, "lat": 38.91703283333333, "fusion_lon": 0.0, "is_disabled": 0}, {"rental_uris": {"android": "https://dc.lft.to/lastmile_qr_scan", "ios": "https://dc.lft.to/lastmile_qr_scan"}, "type": "electric_bike", "lon": -76.93228633333334, "name": "b64c2bcb76f609afd9c0a2d2b8bfa5e8", "bike_id": "b64c2bcb76f609afd9c0a2d2b8bfa5e8", "fusion_lat": 0.0, "is_reserved": 0, "lat": 38.865994, "fusion_lon": 0.0, "is_disabled": 0}, {"rental_uris": {"android": "https://dc.lft.to/lastmile_qr_scan", "ios": "https://dc.lft.to/lastmile_qr_scan"}, "type": "electric_scooter", "lon": -77.029647, "name": "60c12be94b6829e088fd9d7824e3dd17", "bike_id": "60c12be94b6829e088fd9d7824e3dd17", "fusion_lat": 0.0, "is_reserved": 0, "lat": 38.91683866666666, "fusion_lon": 0.0, "is_disabled": 0}, {"rental_uris": {"android": "https://dc.lft.to/lastmile_qr_scan", "ios": "https://dc.lft.to/lastmile_qr_scan"}, "type": "electric_scooter", "lon": -77.0382185, "name": "bafad91930465e1d94fe8845883b38df", "bike_id": "bafad91930465e1d94fe8845883b38df", "fusion_lat": 0.0, "is_reserved": 0, "lat": 38.907126, "fusion_lon": 0.0, "is_disabled": 0}, {"rental_uris": {"android": "https://dc.lft.to/lastmile_qr_scan", "ios": "https://dc.lft.to/lastmile_qr_scan"}, "type": "electric_scooter", "lon": -77.03242566666667, "name": "0c6d748afcf4a7f377c4a051305fd7bd", "bike_id": "0c6d748afcf4a7f377c4a051305fd7bd", "fusion_lat": 0.0, "is_reserved": 0, "lat": 38.90943466666667, "fusion_lon": 0.0, "is_disabled": 0}, {"rental_uris": {"android": "https://dc.lft.to/lastmile_qr_scan", "ios": "https://dc.lft.to/lastmile_qr_scan"}, "type": "electric_scooter", "lon": -77.00588016666667, "name": "9a84e6d5bba6d66e96d8506e0185239a", "bike_id": "9a84e6d5bba6d66e96d8506e0185239a", "fusion_lat": 0.0, "is_reserved": 0, "lat": 38.87462033333333, "fusion_lon": 0.0, "is_disabled": 0}, {"rental_uris": {"android": "https://dc.lft.to/lastmile_qr_scan", "ios": "https://dc.lft.to/lastmile_qr_scan"}, "type": "electric_scooter", "lon": -77.02647233333333, "name": "3656fb370129e400b495ef6d06cd643b", "bike_id": "3656fb370129e400b495ef6d06cd643b", "fusion_lat": 0.0, "is_reserved": 0, "lat": 38.897337666666665, "fusion_lon": 0.0, "is_disabled": 0}, {"rental_uris": {"android": "https://dc.lft.to/lastmile_qr_scan", "ios": "https://dc.lft.to/lastmile_qr_scan"}, "type": "electric_scooter", "lon": -77.0920605, "name": "5a602460a4ef639a5b8e0fea57d4f056", "bike_id": "5a602460a4ef639a5b8e0fea57d4f056", "fusion_lat": 0.0, "is_reserved": 0, "lat": 38.941307, "fusion_lon": 0.0, "is_disabled": 0}, {"rental_uris": {"android": "https://dc.lft.to/lastmile_qr_scan", "ios": "https://dc.lft.to/lastmile_qr_scan"}, "type": "electric_scooter", "lon": -77.0455005, "name": "dcdce65a1a3dff32088fe31eb8e66037", "bike_id": "dcdce65a1a3dff32088fe31eb8e66037", "fusion_lat": 0.0, "is_reserved": 0, "lat": 38.91474616666667, "fusion_lon": 0.0, "is_disabled": 0}, {"rental_uris": {"android": "https://dc.lft.to/lastmile_qr_scan", "ios": "https://dc.lft.to/lastmile_qr_scan"}, "type": "electric_scooter", "lon": -77.02687666666667, "name": "052101932040a50d641ac39d6814789b", "bike_id": "052101932040a50d641ac39d6814789b", "fusion_lat": 0.0, "is_reserved": 0, "lat": 38.89646833333333, "fusion_lon": 0.0, "is_disabled": 0}, {"rental_uris": {"android": "https://dc.lft.to/lastmile_qr_scan", "ios": "https://dc.lft.to/lastmile_qr_scan"}, "type": "electric_bike", "lon": -77.2329775, "name": "20161bfe084c5ebf4578eb1f928c658f", "bike_id": "20161bfe084c5ebf4578eb1f928c658f", "fusion_lat": 0.0, "is_reserved": 0, "lat": 38.92514333333333, "fusion_lon": 0.0, "is_disabled": 0}, {"rental_uris": {"android": "https://dc.lft.to/lastmile_qr_scan", "ios": "https://dc.lft.to/lastmile_qr_scan"}, "type": "electric_scooter", "lon": -77.0420545, "name": "b08f7d894115b3173b02805099a96f80", "bike_id": "b08f7d894115b3173b02805099a96f80", "fusion_lat": 0.0, "is_reserved": 0, "lat": 38.903720166666666, "fusion_lon": 0.0, "is_disabled": 0}, {"rental_uris": {"android": "https://dc.lft.to/lastmile_qr_scan", "ios": "https://dc.lft.to/lastmile_qr_scan"}, "type": "electric_scooter", "lon": -77.0412095, "name": "42ba37eccd238a8b5c2e102a9e4eceb6", "bike_id": "42ba37eccd238a8b5c2e102a9e4eceb6", "fusion_lat": 0.0, "is_reserved": 0, "lat": 38.89841833333333, "fusion_lon": 0.0, "is_disabled": 0}, {"rental_uris": {"android": "https://dc.lft.to/lastmile_qr_scan", "ios": "https://dc.lft.to/lastmile_qr_scan"}, "type": "electric_scooter", "lon": -76.95408033333334, "name": "3bf898eb60a4261e34e4217888df6dc9", "bike_id": "3bf898eb60a4261e34e4217888df6dc9", "fusion_lat": 0.0, "is_reserved": 0, "lat": 38.8915425, "fusion_lon": 0.0, "is_disabled": 0}, {"rental_uris": {"android": "https://dc.lft.to/lastmile_qr_scan", "ios": "https://dc.lft.to/lastmile_qr_scan"}, "type": "electric_scooter", "lon": -77.02569816666667, "name": "5bad417d204b952feaa4d896fc8f7eba", "bike_id": "5bad417d204b952feaa4d896fc8f7eba", "fusion_lat": 0.0, "is_reserved": 0, "lat": 38.92506133333333, "fusion_lon": 0.0, "is_disabled": 0}, {"rental_uris": {"android": "https://dc.lft.to/lastmile_qr_scan", "ios": "https://dc.lft.to/lastmile_qr_scan"}, "type": "electric_bike", "lon": -77.1226725, "name": "51dc8cddcc20da46c56bcdedaad2f4dd", "bike_id": "51dc8cddcc20da46c56bcdedaad2f4dd", "fusion_lat": 0.0, "is_reserved": 0, "lat": 38.897330833333335, "fusion_lon": 0.0, "is_disabled": 0}, {"rental_uris": {"android": "https://dc.lft.to/lastmile_qr_scan", "ios": "https://dc.lft.to/lastmile_qr_scan"}, "type": "electric_scooter", "lon": -77.04011466666667, "name": "88968b07f8d7a02ad9ec071fa9e37440", "bike_id": "88968b07f8d7a02ad9ec071fa9e37440", "fusion_lat": 0.0, "is_reserved": 0, "lat": 38.9130355, "fusion_lon": 0.0, "is_disabled": 0}, {"rental_uris": {"android": "https://dc.lft.to/lastmile_qr_scan", "ios": "https://dc.lft.to/lastmile_qr_scan"}, "type": "electric_scooter", "lon": -77.04359366666667, "name": "90caf65a903845aeae623a525027a5e6", "bike_id": "90caf65a903845aeae623a525027a5e6", "fusion_lat": 0.0, "is_reserved": 0, "lat": 38.906217833333336, "fusion_lon": 0.0, "is_disabled": 0}, {"rental_uris": {"android": "https://dc.lft.to/lastmile_qr_scan", "ios": "https://dc.lft.to/lastmile_qr_scan"}, "type": "electric_scooter", "lon": -77.07341466666666, "name": "f57eb7b9a5736e43ddaa62ef51b4fa7c", "bike_id": "f57eb7b9a5736e43ddaa62ef51b4fa7c", "fusion_lat": 0.0, "is_reserved": 0, "lat": 38.9109475, "fusion_lon": 0.0, "is_disabled": 0}, {"rental_uris": {"android": "https://dc.lft.to/lastmile_qr_scan", "ios": "https://dc.lft.to/lastmile_qr_scan"}, "type": "electric_bike", "lon": -76.9165535, "name": "a81232667a910634c587ed4e0cf2769c", "bike_id": "a81232667a910634c587ed4e0cf2769c", "fusion_lat": 0.0, "is_reserved": 0, "lat": 38.86857966666667, "fusion_lon": 0.0, "is_disabled": 0}, {"rental_uris": {"android": "https://dc.lft.to/lastmile_qr_scan", "ios": "https://dc.lft.to/lastmile_qr_scan"}, "type": "electric_scooter", "lon": -77.0327895, "name": "2277b95e13851d82b4787c93cf44c2b0", "bike_id": "2277b95e13851d82b4787c93cf44c2b0", "fusion_lat": 0.0, "is_reserved": 0, "lat": 38.898761666666665, "fusion_lon": 0.0, "is_disabled": 0}, {"rental_uris": {"android": "https://dc.lft.to/lastmile_qr_scan", "ios": "https://dc.lft.to/lastmile_qr_scan"}, "type": "electric_scooter", "lon": -77.03541366666667, "name": "48dff991e85db55ffe82c1776ea1dae8", "bike_id": "48dff991e85db55ffe82c1776ea1dae8", "fusion_lat": 0.0, "is_reserved": 0, "lat": 38.923512333333335, "fusion_lon": 0.0, "is_disabled": 0}, {"rental_uris": {"android": "https://dc.lft.to/lastmile_qr_scan", "ios": "https://dc.lft.to/lastmile_qr_scan"}, "type": "electric_scooter", "lon": -77.00335333333334, "name": "0cffd5ed10c415b05fbf5937aa5d0e9e", "bike_id": "0cffd5ed10c415b05fbf5937aa5d0e9e", "fusion_lat": 0.0, "is_reserved": 0, "lat": 38.893526666666666, "fusion_lon": 0.0, "is_disabled": 0}, {"rental_uris": {"android": "https://dc.lft.to/lastmile_qr_scan", "ios": "https://dc.lft.to/lastmile_qr_scan"}, "type": "electric_bike", "lon": -76.94874616666667, "name": "cc2428a748899d8c8b8269c5249752b6", "bike_id": "cc2428a748899d8c8b8269c5249752b6", "fusion_lat": 0.0, "is_reserved": 0, "lat": 38.88959916666667, "fusion_lon": 0.0, "is_disabled": 0}, {"rental_uris": {"android": "https://dc.lft.to/lastmile_qr_scan", "ios": "https://dc.lft.to/lastmile_qr_scan"}, "type": "electric_bike", "lon": -77.10719933333333, "name": "1eda84558e7040fbfa3206878fd77306", "bike_id": "1eda84558e7040fbfa3206878fd77306", "fusion_lat": 0.0, "is_reserved": 0, "lat": 38.85543933333334, "fusion_lon": 0.0, "is_disabled": 0}, {"rental_uris": {"android": "https://dc.lft.to/lastmile_qr_scan", "ios": "https://dc.lft.to/lastmile_qr_scan"}, "type": "electric_bike", "lon": -76.9638825, "name": "9e10ea444c933e81cbc16800149d1bf7", "bike_id": "9e10ea444c933e81cbc16800149d1bf7", "fusion_lat": 0.0, "is_reserved": 0, "lat": 38.975763, "fusion_lon": 0.0, "is_disabled": 0}, {"rental_uris": {"android": "https://dc.lft.to/lastmile_qr_scan", "ios": "https://dc.lft.to/lastmile_qr_scan"}, "type": "electric_bike", "lon": -76.98525383333333, "name": "d571dd44e68abe0721a4056b502c40b8", "bike_id": "d571dd44e68abe0721a4056b502c40b8", "fusion_lat": 0.0, "is_reserved": 0, "lat": 38.91988166666667, "fusion_lon": 0.0, "is_disabled": 0}, {"rental_uris": {"android": "https://dc.lft.to/lastmile_qr_scan", "ios": "https://dc.lft.to/lastmile_qr_scan"}, "type": "electric_scooter", "lon": -77.02807616666666, "name": "578bc58db6e18f5cadc843bade240514", "bike_id": "578bc58db6e18f5cadc843bade240514", "fusion_lat": 0.0, "is_reserved": 0, "lat": 38.89825833333333, "fusion_lon": 0.0, "is_disabled": 0}, {"rental_uris": {"android": "https://dc.lft.to/lastmile_qr_scan", "ios": "https://dc.lft.to/lastmile_qr_scan"}, "type": "electric_bike", "lon": -76.9946725, "name": "43713a978c06173b24bcd267f8fb02fe", "bike_id": "43713a978c06173b24bcd267f8fb02fe", "fusion_lat": 0.0, "is_reserved": 0, "lat": 38.8626515, "fusion_lon": 0.0, "is_disabled": 0}, {"rental_uris": {"android": "https://dc.lft.to/lastmile_qr_scan", "ios": "https://dc.lft.to/lastmile_qr_scan"}, "type": "electric_scooter", "lon": -76.9877935, "name": "00468f361ff424a69cd6a04dc824c604", "bike_id": "00468f361ff424a69cd6a04dc824c604", "fusion_lat": 0.0, "is_reserved": 0, "lat": 38.90022466666667, "fusion_lon": 0.0, "is_disabled": 0}, {"rental_uris": {"android": "https://dc.lft.to/lastmile_qr_scan", "ios": "https://dc.lft.to/lastmile_qr_scan"}, "type": "electric_scooter", "lon": -76.987762, "name": "74e475488d5ad3fde9ca8e7100cf6a6b", "bike_id": "74e475488d5ad3fde9ca8e7100cf6a6b", "fusion_lat": 0.0, "is_reserved": 0, "lat": 38.900238333333334, "fusion_lon": 0.0, "is_disabled": 0}, {"rental_uris": {"android": "https://dc.lft.to/lastmile_qr_scan", "ios": "https://dc.lft.to/lastmile_qr_scan"}, "type": "electric_scooter", "lon": -77.03988933333333, "name": "0729eae166b4adcdf9dd1729a123cab4", "bike_id": "0729eae166b4adcdf9dd1729a123cab4", "fusion_lat": 0.0, "is_reserved": 0, "lat": 38.9011725, "fusion_lon": 0.0, "is_disabled": 0}, {"rental_uris": {"android": "https://dc.lft.to/lastmile_qr_scan", "ios": "https://dc.lft.to/lastmile_qr_scan"}, "type": "electric_scooter", "lon": -77.03791616666666, "name": "b3216a6af0bf3b6daf47f2606fa237dd", "bike_id": "b3216a6af0bf3b6daf47f2606fa237dd", "fusion_lat": 0.0, "is_reserved": 0, "lat": 38.926287, "fusion_lon": 0.0, "is_disabled": 0}, {"rental_uris": {"android": "https://dc.lft.to/lastmile_qr_scan", "ios": "https://dc.lft.to/lastmile_qr_scan"}, "type": "electric_bike", "lon": -77.05190883333333, "name": "c7cf2ecf164cddfb7868577f617d88d9", "bike_id": "c7cf2ecf164cddfb7868577f617d88d9", "fusion_lat": 0.0, "is_reserved": 0, "lat": 38.90309166666667, "fusion_lon": 0.0, "is_disabled": 0}, {"rental_uris": {"android": "https://dc.lft.to/lastmile_qr_scan", "ios": "https://dc.lft.to/lastmile_qr_scan"}, "type": "electric_bike", "lon": -76.87773866666667, "name": "968e97a0b30d625cab78ac3653766618", "bike_id": "968e97a0b30d625cab78ac3653766618", "fusion_lat": 0.0, "is_reserved": 0, "lat": 38.992254, "fusion_lon": 0.0, "is_disabled": 0}, {"rental_uris": {"android": "https://dc.lft.to/lastmile_qr_scan", "ios": "https://dc.lft.to/lastmile_qr_scan"}, "type": "electric_scooter", "lon": -77.02469166666667, "name": "ce5c50f045091a72d7ec6a6a6108fda9", "bike_id": "ce5c50f045091a72d7ec6a6a6108fda9", "fusion_lat": 0.0, "is_reserved": 0, "lat": 38.90646233333333, "fusion_lon": 0.0, "is_disabled": 0}, {"rental_uris": {"android": "https://dc.lft.to/lastmile_qr_scan", "ios": "https://dc.lft.to/lastmile_qr_scan"}, "type": "electric_scooter", "lon": -77.067895, "name": "241ed598556c846627e7d594f40a79c4", "bike_id": "241ed598556c846627e7d594f40a79c4", "fusion_lat": 0.0, "is_reserved": 0, "lat": 38.910771, "fusion_lon": 0.0, "is_disabled": 0}, {"rental_uris": {"android": "https://dc.lft.to/lastmile_qr_scan", "ios": "https://dc.lft.to/lastmile_qr_scan"}, "type": "electric_bike", "lon": -77.04900983333333, "name": "7689ab56f2db8c1fce8dc82d413cdf26", "bike_id": "7689ab56f2db8c1fce8dc82d413cdf26", "fusion_lat": 0.0, "is_reserved": 0, "lat": 38.87493, "fusion_lon": 0.0, "is_disabled": 0}, {"rental_uris": {"android": "https://dc.lft.to/lastmile_qr_scan", "ios": "https://dc.lft.to/lastmile_qr_scan"}, "type": "electric_scooter", "lon": -77.03197516666667, "name": "954b2bea4a8d789c8e7f22fd4e15b0be", "bike_id": "954b2bea4a8d789c8e7f22fd4e15b0be", "fusion_lat": 0.0, "is_reserved": 0, "lat": 38.91680483333333, "fusion_lon": 0.0, "is_disabled": 0}, {"rental_uris": {"android": "https://dc.lft.to/lastmile_qr_scan", "ios": "https://dc.lft.to/lastmile_qr_scan"}, "type": "electric_scooter", "lon": -77.01890516666667, "name": "17807e2a7c4bd866c1b7085f2c18fbef", "bike_id": "17807e2a7c4bd866c1b7085f2c18fbef", "fusion_lat": 0.0, "is_reserved": 0, "lat": 38.923382, "fusion_lon": 0.0, "is_disabled": 0}, {"rental_uris": {"android": "https://dc.lft.to/lastmile_qr_scan", "ios": "https://dc.lft.to/lastmile_qr_scan"}, "type": "electric_scooter", "lon": -77.01598666666666, "name": "96a5a399080114f3fe05b5fe84701c42", "bike_id": "96a5a399080114f3fe05b5fe84701c42", "fusion_lat": 0.0, "is_reserved": 0, "lat": 38.89347033333333, "fusion_lon": 0.0, "is_disabled": 0}, {"rental_uris": {"android": "https://dc.lft.to/lastmile_qr_scan", "ios": "https://dc.lft.to/lastmile_qr_scan"}, "type": "electric_scooter", "lon": -77.02965866666666, "name": "826bb2a6d9f6b4af9c921d1cac71683b", "bike_id": "826bb2a6d9f6b4af9c921d1cac71683b", "fusion_lat": 0.0, "is_reserved": 0, "lat": 38.92913516666667, "fusion_lon": 0.0, "is_disabled": 0}, {"rental_uris": {"android": "https://dc.lft.to/lastmile_qr_scan", "ios": "https://dc.lft.to/lastmile_qr_scan"}, "type": "electric_scooter", "lon": -77.00333883333333, "name": "3045b5a5fd0eaf1ebe892714e460ac3f", "bike_id": "3045b5a5fd0eaf1ebe892714e460ac3f", "fusion_lat": 0.0, "is_reserved": 0, "lat": 38.8935005, "fusion_lon": 0.0, "is_disabled": 0}, {"rental_uris": {"android": "https://dc.lft.to/lastmile_qr_scan", "ios": "https://dc.lft.to/lastmile_qr_scan"}, "type": "electric_scooter", "lon": -77.024222, "name": "4930f55463cf8fe7270b2761dcd87bed", "bike_id": "4930f55463cf8fe7270b2761dcd87bed", "fusion_lat": 0.0, "is_reserved": 0, "lat": 38.922427166666665, "fusion_lon": 0.0, "is_disabled": 0}, {"rental_uris": {"android": "https://dc.lft.to/lastmile_qr_scan", "ios": "https://dc.lft.to/lastmile_qr_scan"}, "type": "electric_scooter", "lon": -77.02557616666667, "name": "8053726d48ae9bc504bbf956b73fc43f", "bike_id": "8053726d48ae9bc504bbf956b73fc43f", "fusion_lat": 0.0, "is_reserved": 0, "lat": 38.91635333333333, "fusion_lon": 0.0, "is_disabled": 0}, {"rental_uris": {"android": "https://dc.lft.to/lastmile_qr_scan", "ios": "https://dc.lft.to/lastmile_qr_scan"}, "type": "electric_scooter", "lon": -77.0215965, "name": "2dda7c87d733cf615f9e114eaec9426c", "bike_id": "2dda7c87d733cf615f9e114eaec9426c", "fusion_lat": 0.0, "is_reserved": 0, "lat": 38.926108, "fusion_lon": 0.0, "is_disabled": 0}, {"rental_uris": {"android": "https://dc.lft.to/lastmile_qr_scan", "ios": "https://dc.lft.to/lastmile_qr_scan"}, "type": "electric_scooter", "lon": -77.03876283333334, "name": "0678edaf495f8d814ec0b6f4398c9d62", "bike_id": "0678edaf495f8d814ec0b6f4398c9d62", "fusion_lat": 0.0, "is_reserved": 0, "lat": 38.91403366666667, "fusion_lon": 0.0, "is_disabled": 0}, {"rental_uris": {"android": "https://dc.lft.to/lastmile_qr_scan", "ios": "https://dc.lft.to/lastmile_qr_scan"}, "type": "electric_scooter", "lon": -77.02480433333334, "name": "0a5dc18bf27eecb508829a30f0e8a576", "bike_id": "0a5dc18bf27eecb508829a30f0e8a576", "fusion_lat": 0.0, "is_reserved": 0, "lat": 38.938772666666665, "fusion_lon": 0.0, "is_disabled": 0}, {"rental_uris": {"android": "https://dc.lft.to/lastmile_qr_scan", "ios": "https://dc.lft.to/lastmile_qr_scan"}, "type": "electric_scooter", "lon": -77.009227, "name": "e94c601f0b19ff99174d16e9c5b1e150", "bike_id": "e94c601f0b19ff99174d16e9c5b1e150", "fusion_lat": 0.0, "is_reserved": 0, "lat": 38.89884333333333, "fusion_lon": 0.0, "is_disabled": 0}, {"rental_uris": {"android": "https://dc.lft.to/lastmile_qr_scan", "ios": "https://dc.lft.to/lastmile_qr_scan"}, "type": "electric_scooter", "lon": -77.043731, "name": "0afc31e6a4d6141201e1208af78b6bf6", "bike_id": "0afc31e6a4d6141201e1208af78b6bf6", "fusion_lat": 0.0, "is_reserved": 0, "lat": 38.9009055, "fusion_lon": 0.0, "is_disabled": 0}, {"rental_uris": {"android": "https://dc.lft.to/lastmile_qr_scan", "ios": "https://dc.lft.to/lastmile_qr_scan"}, "type": "electric_bike", "lon": -77.10026683333334, "name": "47f7450d609e003bb1d676f4fd261c55", "bike_id": "47f7450d609e003bb1d676f4fd261c55", "fusion_lat": 0.0, "is_reserved": 0, "lat": 38.990589166666666, "fusion_lon": 0.0, "is_disabled": 0}, {"rental_uris": {"android": "https://dc.lft.to/lastmile_qr_scan", "ios": "https://dc.lft.to/lastmile_qr_scan"}, "type": "electric_scooter", "lon": -77.02656083333333, "name": "495ce3c67afdc1dbff173fac37a39a1c", "bike_id": "495ce3c67afdc1dbff173fac37a39a1c", "fusion_lat": 0.0, "is_reserved": 0, "lat": 38.938651, "fusion_lon": 0.0, "is_disabled": 0}, {"rental_uris": {"android": "https://dc.lft.to/lastmile_qr_scan", "ios": "https://dc.lft.to/lastmile_qr_scan"}, "type": "electric_scooter", "lon": -77.03039283333334, "name": "07c42fef78bfb3e1492a9054237d5048", "bike_id": "07c42fef78bfb3e1492a9054237d5048", "fusion_lat": 0.0, "is_reserved": 0, "lat": 38.883868666666665, "fusion_lon": 0.0, "is_disabled": 0}, {"rental_uris": {"android": "https://dc.lft.to/lastmile_qr_scan", "ios": "https://dc.lft.to/lastmile_qr_scan"}, "type": "electric_scooter", "lon": -77.032035, "name": "d24684ebbcced86142518c34a54b0050", "bike_id": "d24684ebbcced86142518c34a54b0050", "fusion_lat": 0.0, "is_reserved": 0, "lat": 38.912037833333336, "fusion_lon": 0.0, "is_disabled": 0}, {"rental_uris": {"android": "https://dc.lft.to/lastmile_qr_scan", "ios": "https://dc.lft.to/lastmile_qr_scan"}, "type": "electric_scooter", "lon": -77.03170616666667, "name": "4ead797e9b998ed93ba209266b20284b", "bike_id": "4ead797e9b998ed93ba209266b20284b", "fusion_lat": 0.0, "is_reserved": 0, "lat": 38.919053, "fusion_lon": 0.0, "is_disabled": 0}, {"rental_uris": {"android": "https://dc.lft.to/lastmile_qr_scan", "ios": "https://dc.lft.to/lastmile_qr_scan"}, "type": "electric_scooter", "lon": -76.98570783333334, "name": "fab85ed6ffac1726cab0fc33a4da7f31", "bike_id": "fab85ed6ffac1726cab0fc33a4da7f31", "fusion_lat": 0.0, "is_reserved": 0, "lat": 38.89885916666667, "fusion_lon": 0.0, "is_disabled": 0}, {"rental_uris": {"android": "https://dc.lft.to/lastmile_qr_scan", "ios": "https://dc.lft.to/lastmile_qr_scan"}, "type": "electric_scooter", "lon": -76.9421275, "name": "c568719c98d671db8e22d4e270cd92fc", "bike_id": "c568719c98d671db8e22d4e270cd92fc", "fusion_lat": 0.0, "is_reserved": 0, "lat": 38.896664, "fusion_lon": 0.0, "is_disabled": 0}, {"rental_uris": {"android": "https://dc.lft.to/lastmile_qr_scan", "ios": "https://dc.lft.to/lastmile_qr_scan"}, "type": "electric_scooter", "lon": -77.01568333333333, "name": "96e922a84ce62705b604411b35515544", "bike_id": "96e922a84ce62705b604411b35515544", "fusion_lat": 0.0, "is_reserved": 0, "lat": 38.876280333333334, "fusion_lon": 0.0, "is_disabled": 0}, {"rental_uris": {"android": "https://dc.lft.to/lastmile_qr_scan", "ios": "https://dc.lft.to/lastmile_qr_scan"}, "type": "electric_scooter", "lon": -77.00959283333333, "name": "ebaed3244423513c142ac351b916b954", "bike_id": "ebaed3244423513c142ac351b916b954", "fusion_lat": 0.0, "is_reserved": 0, "lat": 38.921349166666666, "fusion_lon": 0.0, "is_disabled": 0}, {"rental_uris": {"android": "https://dc.lft.to/lastmile_qr_scan", "ios": "https://dc.lft.to/lastmile_qr_scan"}, "type": "electric_bike", "lon": -77.11216533333334, "name": "f6c69e5c43f3a074d47221562ea3a3db", "bike_id": "f6c69e5c43f3a074d47221562ea3a3db", "fusion_lat": 0.0, "is_reserved": 0, "lat": 38.828754, "fusion_lon": 0.0, "is_disabled": 0}, {"rental_uris": {"android": "https://dc.lft.to/lastmile_qr_scan", "ios": "https://dc.lft.to/lastmile_qr_scan"}, "type": "electric_scooter", "lon": -77.0345115, "name": "ed67ba4642b5cb3caaa951c9c62a0d00", "bike_id": "ed67ba4642b5cb3caaa951c9c62a0d00", "fusion_lat": 0.0, "is_reserved": 0, "lat": 38.9052495, "fusion_lon": 0.0, "is_disabled": 0}, {"rental_uris": {"android": "https://dc.lft.to/lastmile_qr_scan", "ios": "https://dc.lft.to/lastmile_qr_scan"}, "type": "electric_bike", "lon": -76.87496066666667, "name": "e855e8d4b80b442d8cf153bb7c1ff1b1", "bike_id": "e855e8d4b80b442d8cf153bb7c1ff1b1", "fusion_lat": 0.0, "is_reserved": 0, "lat": 38.9908955, "fusion_lon": 0.0, "is_disabled": 0}, {"rental_uris": {"android": "https://dc.lft.to/lastmile_qr_scan", "ios": "https://dc.lft.to/lastmile_qr_scan"}, "type": "electric_scooter", "lon": -77.03843783333333, "name": "96b911d4071be14b25c7c1f7550921a3", "bike_id": "96b911d4071be14b25c7c1f7550921a3", "fusion_lat": 0.0, "is_reserved": 0, "lat": 38.912078, "fusion_lon": 0.0, "is_disabled": 0}, {"rental_uris": {"android": "https://dc.lft.to/lastmile_qr_scan", "ios": "https://dc.lft.to/lastmile_qr_scan"}, "type": "electric_scooter", "lon": -76.9315885, "name": "17cdaec3c6551459cd2f5af7f25ce795", "bike_id": "17cdaec3c6551459cd2f5af7f25ce795", "fusion_lat": 0.0, "is_reserved": 0, "lat": 38.89882716666666, "fusion_lon": 0.0, "is_disabled": 0}, {"rental_uris": {"android": "https://dc.lft.to/lastmile_qr_scan", "ios": "https://dc.lft.to/lastmile_qr_scan"}, "type": "electric_scooter", "lon": -77.00595816666667, "name": "98389d235e0f9077e3678ba69ceaf739", "bike_id": "98389d235e0f9077e3678ba69ceaf739", "fusion_lat": 0.0, "is_reserved": 0, "lat": 38.88516466666667, "fusion_lon": 0.0, "is_disabled": 0}, {"rental_uris": {"android": "https://dc.lft.to/lastmile_qr_scan", "ios": "https://dc.lft.to/lastmile_qr_scan"}, "type": "electric_scooter", "lon": -77.0230355, "name": "5d34d9642a7c3a61fd49fd3fac41f5e2", "bike_id": "5d34d9642a7c3a61fd49fd3fac41f5e2", "fusion_lat": 0.0, "is_reserved": 0, "lat": 38.91617566666667, "fusion_lon": 0.0, "is_disabled": 0}, {"rental_uris": {"android": "https://dc.lft.to/lastmile_qr_scan", "ios": "https://dc.lft.to/lastmile_qr_scan"}, "type": "electric_bike", "lon": -77.0464655, "name": "f0e5a9353d33a26b132cfffc7e731f4b", "bike_id": "f0e5a9353d33a26b132cfffc7e731f4b", "fusion_lat": 0.0, "is_reserved": 0, "lat": 38.90062133333333, "fusion_lon": 0.0, "is_disabled": 0}, {"rental_uris": {"android": "https://dc.lft.to/lastmile_qr_scan", "ios": "https://dc.lft.to/lastmile_qr_scan"}, "type": "electric_scooter", "lon": -77.00568733333333, "name": "f349b78e12fdf5d3120fdfdd6e089539", "bike_id": "f349b78e12fdf5d3120fdfdd6e089539", "fusion_lat": 0.0, "is_reserved": 0, "lat": 38.8850505, "fusion_lon": 0.0, "is_disabled": 0}, {"rental_uris": {"android": "https://dc.lft.to/lastmile_qr_scan", "ios": "https://dc.lft.to/lastmile_qr_scan"}, "type": "electric_scooter", "lon": -77.026304, "name": "f76d975da2e6e8fafa02983e5a2be8b5", "bike_id": "f76d975da2e6e8fafa02983e5a2be8b5", "fusion_lat": 0.0, "is_reserved": 0, "lat": 38.898098, "fusion_lon": 0.0, "is_disabled": 0}, {"rental_uris": {"android": "https://dc.lft.to/lastmile_qr_scan", "ios": "https://dc.lft.to/lastmile_qr_scan"}, "type": "electric_scooter", "lon": -77.026165, "name": "85fae9fc15a011c47eb3fd5d87897ba5", "bike_id": "85fae9fc15a011c47eb3fd5d87897ba5", "fusion_lat": 0.0, "is_reserved": 0, "lat": 38.900127, "fusion_lon": 0.0, "is_disabled": 0}, {"rental_uris": {"android": "https://dc.lft.to/lastmile_qr_scan", "ios": "https://dc.lft.to/lastmile_qr_scan"}, "type": "electric_scooter", "lon": -77.01780366666667, "name": "5de0074bd048d1e0038e1e11e8d68c23", "bike_id": "5de0074bd048d1e0038e1e11e8d68c23", "fusion_lat": 0.0, "is_reserved": 0, "lat": 38.919601166666666, "fusion_lon": 0.0, "is_disabled": 0}, {"rental_uris": {"android": "https://dc.lft.to/lastmile_qr_scan", "ios": "https://dc.lft.to/lastmile_qr_scan"}, "type": "electric_scooter", "lon": -77.028191, "name": "0dee7b67b9ce57f6c64a6aa49c714680", "bike_id": "0dee7b67b9ce57f6c64a6aa49c714680", "fusion_lat": 0.0, "is_reserved": 0, "lat": 38.9508725, "fusion_lon": 0.0, "is_disabled": 0}, {"rental_uris": {"android": "https://dc.lft.to/lastmile_qr_scan", "ios": "https://dc.lft.to/lastmile_qr_scan"}, "type": "electric_scooter", "lon": -77.00273266666666, "name": "8ef704397625a4f9b5432438f5892de1", "bike_id": "8ef704397625a4f9b5432438f5892de1", "fusion_lat": 0.0, "is_reserved": 0, "lat": 38.903744833333334, "fusion_lon": 0.0, "is_disabled": 0}, {"rental_uris": {"android": "https://dc.lft.to/lastmile_qr_scan", "ios": "https://dc.lft.to/lastmile_qr_scan"}, "type": "electric_scooter", "lon": -77.036379, "name": "c571a670437166af5480457fe1943304", "bike_id": "c571a670437166af5480457fe1943304", "fusion_lat": 0.0, "is_reserved": 0, "lat": 38.902766, "fusion_lon": 0.0, "is_disabled": 0}, {"rental_uris": {"android": "https://dc.lft.to/lastmile_qr_scan", "ios": "https://dc.lft.to/lastmile_qr_scan"}, "type": "electric_scooter", "lon": -77.0436015, "name": "452cc5deb645c4ffd28f5a28df293a32", "bike_id": "452cc5deb645c4ffd28f5a28df293a32", "fusion_lat": 0.0, "is_reserved": 0, "lat": 38.89235583333333, "fusion_lon": 0.0, "is_disabled": 0}, {"rental_uris": {"android": "https://dc.lft.to/lastmile_qr_scan", "ios": "https://dc.lft.to/lastmile_qr_scan"}, "type": "electric_scooter", "lon": -77.02723366666666, "name": "ffb1413a39b6d33c254abb4f8da25246", "bike_id": "ffb1413a39b6d33c254abb4f8da25246", "fusion_lat": 0.0, "is_reserved": 0, "lat": 38.951296, "fusion_lon": 0.0, "is_disabled": 0}, {"rental_uris": {"android": "https://dc.lft.to/lastmile_qr_scan", "ios": "https://dc.lft.to/lastmile_qr_scan"}, "type": "electric_scooter", "lon": -77.04671416666666, "name": "2a2643b079f39726b5ed52ad17a6e413", "bike_id": "2a2643b079f39726b5ed52ad17a6e413", "fusion_lat": 0.0, "is_reserved": 0, "lat": 38.89501966666667, "fusion_lon": 0.0, "is_disabled": 0}, {"rental_uris": {"android": "https://dc.lft.to/lastmile_qr_scan", "ios": "https://dc.lft.to/lastmile_qr_scan"}, "type": "electric_scooter", "lon": -77.03789433333333, "name": "74519c20753457cd37565d14552ca359", "bike_id": "74519c20753457cd37565d14552ca359", "fusion_lat": 0.0, "is_reserved": 0, "lat": 38.9332005, "fusion_lon": 0.0, "is_disabled": 0}, {"rental_uris": {"android": "https://dc.lft.to/lastmile_qr_scan", "ios": "https://dc.lft.to/lastmile_qr_scan"}, "type": "electric_scooter", "lon": -77.02570616666667, "name": "9c2e283379d4629650e8e4e109413fab", "bike_id": "9c2e283379d4629650e8e4e109413fab", "fusion_lat": 0.0, "is_reserved": 0, "lat": 38.92507883333333, "fusion_lon": 0.0, "is_disabled": 0}, {"rental_uris": {"android": "https://dc.lft.to/lastmile_qr_scan", "ios": "https://dc.lft.to/lastmile_qr_scan"}, "type": "electric_scooter", "lon": -76.98766033333334, "name": "ffb7461df3c7732d814b0e3427eb8a50", "bike_id": "ffb7461df3c7732d814b0e3427eb8a50", "fusion_lat": 0.0, "is_reserved": 0, "lat": 38.88325616666667, "fusion_lon": 0.0, "is_disabled": 0}, {"rental_uris": {"android": "https://dc.lft.to/lastmile_qr_scan", "ios": "https://dc.lft.to/lastmile_qr_scan"}, "type": "electric_scooter", "lon": -77.04879433333333, "name": "f7cb3aa0a90a884a6b3a3d76c6363ba4", "bike_id": "f7cb3aa0a90a884a6b3a3d76c6363ba4", "fusion_lat": 0.0, "is_reserved": 0, "lat": 38.90311783333333, "fusion_lon": 0.0, "is_disabled": 0}, {"rental_uris": {"android": "https://dc.lft.to/lastmile_qr_scan", "ios": "https://dc.lft.to/lastmile_qr_scan"}, "type": "electric_scooter", "lon": -77.0414945, "name": "4b4dde7487b553166f4f91b82997b554", "bike_id": "4b4dde7487b553166f4f91b82997b554", "fusion_lat": 0.0, "is_reserved": 0, "lat": 38.92356483333333, "fusion_lon": 0.0, "is_disabled": 0}, {"rental_uris": {"android": "https://dc.lft.to/lastmile_qr_scan", "ios": "https://dc.lft.to/lastmile_qr_scan"}, "type": "electric_scooter", "lon": -77.02783216666667, "name": "cb2f5e4defef3657b3e61566a249fd94", "bike_id": "cb2f5e4defef3657b3e61566a249fd94", "fusion_lat": 0.0, "is_reserved": 0, "lat": 38.90412, "fusion_lon": 0.0, "is_disabled": 0}, {"rental_uris": {"android": "https://dc.lft.to/lastmile_qr_scan", "ios": "https://dc.lft.to/lastmile_qr_scan"}, "type": "electric_scooter", "lon": -77.01375433333334, "name": "db8406883d77597c497e1fed73f491a4", "bike_id": "db8406883d77597c497e1fed73f491a4", "fusion_lat": 0.0, "is_reserved": 0, "lat": 38.928400333333336, "fusion_lon": 0.0, "is_disabled": 0}, {"rental_uris": {"android": "https://dc.lft.to/lastmile_qr_scan", "ios": "https://dc.lft.to/lastmile_qr_scan"}, "type": "electric_scooter", "lon": -77.03262366666667, "name": "7ba711cd5fa03875f9228c7b6485c518", "bike_id": "7ba711cd5fa03875f9228c7b6485c518", "fusion_lat": 0.0, "is_reserved": 0, "lat": 38.928444666666664, "fusion_lon": 0.0, "is_disabled": 0}, {"rental_uris": {"android": "https://dc.lft.to/lastmile_qr_scan", "ios": "https://dc.lft.to/lastmile_qr_scan"}, "type": "electric_scooter", "lon": -77.0329915, "name": "2ef9af90f5a63146efce2aafaeb35503", "bike_id": "2ef9af90f5a63146efce2aafaeb35503", "fusion_lat": 0.0, "is_reserved": 0, "lat": 38.956369, "fusion_lon": 0.0, "is_disabled": 0}, {"rental_uris": {"android": "https://dc.lft.to/lastmile_qr_scan", "ios": "https://dc.lft.to/lastmile_qr_scan"}, "type": "electric_scooter", "lon": -77.04661383333334, "name": "70935b30b16c7a243f6f2f076523165e", "bike_id": "70935b30b16c7a243f6f2f076523165e", "fusion_lat": 0.0, "is_reserved": 0, "lat": 38.90505266666667, "fusion_lon": 0.0, "is_disabled": 0}, {"rental_uris": {"android": "https://dc.lft.to/lastmile_qr_scan", "ios": "https://dc.lft.to/lastmile_qr_scan"}, "type": "electric_scooter", "lon": -77.03440133333334, "name": "da3202e53afe5f579782bbf452d31d25", "bike_id": "da3202e53afe5f579782bbf452d31d25", "fusion_lat": 0.0, "is_reserved": 0, "lat": 38.903209, "fusion_lon": 0.0, "is_disabled": 0}, {"rental_uris": {"android": "https://dc.lft.to/lastmile_qr_scan", "ios": "https://dc.lft.to/lastmile_qr_scan"}, "type": "electric_scooter", "lon": -77.0499135, "name": "e5cec61a19a7291250f385257416878d", "bike_id": "e5cec61a19a7291250f385257416878d", "fusion_lat": 0.0, "is_reserved": 0, "lat": 38.90068466666666, "fusion_lon": 0.0, "is_disabled": 0}, {"rental_uris": {"android": "https://dc.lft.to/lastmile_qr_scan", "ios": "https://dc.lft.to/lastmile_qr_scan"}, "type": "electric_scooter", "lon": -77.0321285, "name": "181a5653a7c63779bc924747329ccd12", "bike_id": "181a5653a7c63779bc924747329ccd12", "fusion_lat": 0.0, "is_reserved": 0, "lat": 38.92264566666667, "fusion_lon": 0.0, "is_disabled": 0}, {"rental_uris": {"android": "https://dc.lft.to/lastmile_qr_scan", "ios": "https://dc.lft.to/lastmile_qr_scan"}, "type": "electric_scooter", "lon": -77.00910083333333, "name": "78082b24876f988e5c108ccb07987aa3", "bike_id": "78082b24876f988e5c108ccb07987aa3", "fusion_lat": 0.0, "is_reserved": 0, "lat": 38.8956065, "fusion_lon": 0.0, "is_disabled": 0}, {"rental_uris": {"android": "https://dc.lft.to/lastmile_qr_scan", "ios": "https://dc.lft.to/lastmile_qr_scan"}, "type": "electric_scooter", "lon": -77.039872, "name": "057c142ab0bf52770e7303029898711b", "bike_id": "057c142ab0bf52770e7303029898711b", "fusion_lat": 0.0, "is_reserved": 0, "lat": 38.92582983333333, "fusion_lon": 0.0, "is_disabled": 0}, {"rental_uris": {"android": "https://dc.lft.to/lastmile_qr_scan", "ios": "https://dc.lft.to/lastmile_qr_scan"}, "type": "electric_scooter", "lon": -77.031954, "name": "13bfaf4e08b72e388e9ca39d5f97ecd6", "bike_id": "13bfaf4e08b72e388e9ca39d5f97ecd6", "fusion_lat": 0.0, "is_reserved": 0, "lat": 38.90918466666667, "fusion_lon": 0.0, "is_disabled": 0}, {"rental_uris": {"android": "https://dc.lft.to/lastmile_qr_scan", "ios": "https://dc.lft.to/lastmile_qr_scan"}, "type": "electric_scooter", "lon": -77.02293983333334, "name": "7a9015bd2e9811c0657142e12b8a55ab", "bike_id": "7a9015bd2e9811c0657142e12b8a55ab", "fusion_lat": 0.0, "is_reserved": 0, "lat": 38.917259666666666, "fusion_lon": 0.0, "is_disabled": 0}, {"rental_uris": {"android": "https://dc.lft.to/lastmile_qr_scan", "ios": "https://dc.lft.to/lastmile_qr_scan"}, "type": "electric_scooter", "lon": -77.02719683333333, "name": "857fbac4d91eae472049dbe62a2ce089", "bike_id": "857fbac4d91eae472049dbe62a2ce089", "fusion_lat": 0.0, "is_reserved": 0, "lat": 38.93403816666667, "fusion_lon": 0.0, "is_disabled": 0}, {"rental_uris": {"android": "https://dc.lft.to/lastmile_qr_scan", "ios": "https://dc.lft.to/lastmile_qr_scan"}, "type": "electric_scooter", "lon": -77.05627966666667, "name": "a522e07c6538646f5a3e4c84818d02b2", "bike_id": "a522e07c6538646f5a3e4c84818d02b2", "fusion_lat": 0.0, "is_reserved": 0, "lat": 38.92430566666667, "fusion_lon": 0.0, "is_disabled": 0}, {"rental_uris": {"android": "https://dc.lft.to/lastmile_qr_scan", "ios": "https://dc.lft.to/lastmile_qr_scan"}, "type": "electric_scooter", "lon": -77.091991, "name": "f921d42bafe39bf693c7581b5a8d586c", "bike_id": "f921d42bafe39bf693c7581b5a8d586c", "fusion_lat": 0.0, "is_reserved": 0, "lat": 38.917141, "fusion_lon": 0.0, "is_disabled": 0}, {"rental_uris": {"android": "https://dc.lft.to/lastmile_qr_scan", "ios": "https://dc.lft.to/lastmile_qr_scan"}, "type": "electric_scooter", "lon": -77.02938133333333, "name": "0f3d959201600f84ff14fd5854ae676e", "bike_id": "0f3d959201600f84ff14fd5854ae676e", "fusion_lat": 0.0, "is_reserved": 0, "lat": 38.90487983333333, "fusion_lon": 0.0, "is_disabled": 0}, {"rental_uris": {"android": "https://dc.lft.to/lastmile_qr_scan", "ios": "https://dc.lft.to/lastmile_qr_scan"}, "type": "electric_scooter", "lon": -77.00450083333334, "name": "feecd88906abc65acc39e2ee7d1b3c0b", "bike_id": "feecd88906abc65acc39e2ee7d1b3c0b", "fusion_lat": 0.0, "is_reserved": 0, "lat": 38.92896133333333, "fusion_lon": 0.0, "is_disabled": 0}, {"rental_uris": {"android": "https://dc.lft.to/lastmile_qr_scan", "ios": "https://dc.lft.to/lastmile_qr_scan"}, "type": "electric_scooter", "lon": -77.0328435, "name": "bb86cadd4c965439da834f58357ec61a", "bike_id": "bb86cadd4c965439da834f58357ec61a", "fusion_lat": 0.0, "is_reserved": 0, "lat": 38.93987583333333, "fusion_lon": 0.0, "is_disabled": 0}, {"rental_uris": {"android": "https://dc.lft.to/lastmile_qr_scan", "ios": "https://dc.lft.to/lastmile_qr_scan"}, "type": "electric_scooter", "lon": -77.02246083333333, "name": "04380640cfa98c8403a40208eb657e78", "bike_id": "04380640cfa98c8403a40208eb657e78", "fusion_lat": 0.0, "is_reserved": 0, "lat": 38.9135905, "fusion_lon": 0.0, "is_disabled": 0}, {"rental_uris": {"android": "https://dc.lft.to/lastmile_qr_scan", "ios": "https://dc.lft.to/lastmile_qr_scan"}, "type": "electric_scooter", "lon": -77.04707983333333, "name": "b8798ec05b1aacfe6ce5fc6fa0ae22ac", "bike_id": "b8798ec05b1aacfe6ce5fc6fa0ae22ac", "fusion_lat": 0.0, "is_reserved": 0, "lat": 38.9125295, "fusion_lon": 0.0, "is_disabled": 0}, {"rental_uris": {"android": "https://dc.lft.to/lastmile_qr_scan", "ios": "https://dc.lft.to/lastmile_qr_scan"}, "type": "electric_scooter", "lon": -77.03950033333334, "name": "c899937e3b52a015c3070e58c14abd3f", "bike_id": "c899937e3b52a015c3070e58c14abd3f", "fusion_lat": 0.0, "is_reserved": 0, "lat": 38.904282333333335, "fusion_lon": 0.0, "is_disabled": 0}, {"rental_uris": {"android": "https://dc.lft.to/lastmile_qr_scan", "ios": "https://dc.lft.to/lastmile_qr_scan"}, "type": "electric_scooter", "lon": -77.04498116666667, "name": "c8ba661dad488d0699548193241e21b9", "bike_id": "c8ba661dad488d0699548193241e21b9", "fusion_lat": 0.0, "is_reserved": 0, "lat": 38.903771166666665, "fusion_lon": 0.0, "is_disabled": 0}, {"rental_uris": {"android": "https://dc.lft.to/lastmile_qr_scan", "ios": "https://dc.lft.to/lastmile_qr_scan"}, "type": "electric_scooter", "lon": -77.05295616666666, "name": "3e1773717184d9c874f6e05b55f467aa", "bike_id": "3e1773717184d9c874f6e05b55f467aa", "fusion_lat": 0.0, "is_reserved": 0, "lat": 38.89879483333333, "fusion_lon": 0.0, "is_disabled": 0}, {"rental_uris": {"android": "https://dc.lft.to/lastmile_qr_scan", "ios": "https://dc.lft.to/lastmile_qr_scan"}, "type": "electric_scooter", "lon": -76.99410716666667, "name": "df387f653b61df7682472ef0f9d30039", "bike_id": "df387f653b61df7682472ef0f9d30039", "fusion_lat": 0.0, "is_reserved": 0, "lat": 38.877825, "fusion_lon": 0.0, "is_disabled": 0}, {"rental_uris": {"android": "https://dc.lft.to/lastmile_qr_scan", "ios": "https://dc.lft.to/lastmile_qr_scan"}, "type": "electric_scooter", "lon": -76.986046, "name": "066c88617efda8194991bb5927a584a0", "bike_id": "066c88617efda8194991bb5927a584a0", "fusion_lat": 0.0, "is_reserved": 0, "lat": 38.89916633333333, "fusion_lon": 0.0, "is_disabled": 0}, {"rental_uris": {"android": "https://dc.lft.to/lastmile_qr_scan", "ios": "https://dc.lft.to/lastmile_qr_scan"}, "type": "electric_scooter", "lon": -77.038914, "name": "48ee08ab7efc29945f86a694990c082e", "bike_id": "48ee08ab7efc29945f86a694990c082e", "fusion_lat": 0.0, "is_reserved": 0, "lat": 38.933656166666665, "fusion_lon": 0.0, "is_disabled": 0}, {"rental_uris": {"android": "https://dc.lft.to/lastmile_qr_scan", "ios": "https://dc.lft.to/lastmile_qr_scan"}, "type": "electric_scooter", "lon": -77.02691666666666, "name": "4b804483bb583f11fe50dcfff3af34ae", "bike_id": "4b804483bb583f11fe50dcfff3af34ae", "fusion_lat": 0.0, "is_reserved": 0, "lat": 38.918186666666664, "fusion_lon": 0.0, "is_disabled": 0}, {"rental_uris": {"android": "https://dc.lft.to/lastmile_qr_scan", "ios": "https://dc.lft.to/lastmile_qr_scan"}, "type": "electric_scooter", "lon": -77.03539316666667, "name": "1dd011a1be2c309a621472de9c56f780", "bike_id": "1dd011a1be2c309a621472de9c56f780", "fusion_lat": 0.0, "is_reserved": 0, "lat": 38.92346916666666, "fusion_lon": 0.0, "is_disabled": 0}, {"rental_uris": {"android": "https://dc.lft.to/lastmile_qr_scan", "ios": "https://dc.lft.to/lastmile_qr_scan"}, "type": "electric_scooter", "lon": -77.033592, "name": "e33d8423ba0ab4be2a6130738fdac1ee", "bike_id": "e33d8423ba0ab4be2a6130738fdac1ee", "fusion_lat": 0.0, "is_reserved": 0, "lat": 38.9280715, "fusion_lon": 0.0, "is_disabled": 0}, {"rental_uris": {"android": "https://dc.lft.to/lastmile_qr_scan", "ios": "https://dc.lft.to/lastmile_qr_scan"}, "type": "electric_scooter", "lon": -77.035803, "name": "c838b5b6a09193c82382247c63461145", "bike_id": "c838b5b6a09193c82382247c63461145", "fusion_lat": 0.0, "is_reserved": 0, "lat": 38.934732, "fusion_lon": 0.0, "is_disabled": 0}, {"rental_uris": {"android": "https://dc.lft.to/lastmile_qr_scan", "ios": "https://dc.lft.to/lastmile_qr_scan"}, "type": "electric_scooter", "lon": -77.03440033333334, "name": "05a46db273c9df5f5eb1ddde75922735", "bike_id": "05a46db273c9df5f5eb1ddde75922735", "fusion_lat": 0.0, "is_reserved": 0, "lat": 38.934349, "fusion_lon": 0.0, "is_disabled": 0}, {"rental_uris": {"android": "https://dc.lft.to/lastmile_qr_scan", "ios": "https://dc.lft.to/lastmile_qr_scan"}, "type": "electric_scooter", "lon": -77.03289966666667, "name": "60265af666eac96da4082474b1df88eb", "bike_id": "60265af666eac96da4082474b1df88eb", "fusion_lat": 0.0, "is_reserved": 0, "lat": 38.922040333333335, "fusion_lon": 0.0, "is_disabled": 0}, {"rental_uris": {"android": "https://dc.lft.to/lastmile_qr_scan", "ios": "https://dc.lft.to/lastmile_qr_scan"}, "type": "electric_scooter", "lon": -77.014149, "name": "a9ff8d4178742c1f1ee7dec2a4226686", "bike_id": "a9ff8d4178742c1f1ee7dec2a4226686", "fusion_lat": 0.0, "is_reserved": 0, "lat": 38.87891783333333, "fusion_lon": 0.0, "is_disabled": 0}, {"rental_uris": {"android": "https://dc.lft.to/lastmile_qr_scan", "ios": "https://dc.lft.to/lastmile_qr_scan"}, "type": "electric_scooter", "lon": -77.04030816666666, "name": "08f2fd536e55ab289950778e4149aabb", "bike_id": "08f2fd536e55ab289950778e4149aabb", "fusion_lat": 0.0, "is_reserved": 0, "lat": 38.90004616666667, "fusion_lon": 0.0, "is_disabled": 0}, {"rental_uris": {"android": "https://dc.lft.to/lastmile_qr_scan", "ios": "https://dc.lft.to/lastmile_qr_scan"}, "type": "electric_bike", "lon": -77.013762, "name": "6d1662ec9febe57147c936bcc649bc80", "bike_id": "6d1662ec9febe57147c936bcc649bc80", "fusion_lat": 0.0, "is_reserved": 0, "lat": 38.89225916666667, "fusion_lon": 0.0, "is_disabled": 0}, {"rental_uris": {"android": "https://dc.lft.to/lastmile_qr_scan", "ios": "https://dc.lft.to/lastmile_qr_scan"}, "type": "electric_scooter", "lon": -77.03181733333334, "name": "fe1742d586b373258c66fb8fe9766515", "bike_id": "fe1742d586b373258c66fb8fe9766515", "fusion_lat": 0.0, "is_reserved": 0, "lat": 38.920479666666665, "fusion_lon": 0.0, "is_disabled": 0}, {"rental_uris": {"android": "https://dc.lft.to/lastmile_qr_scan", "ios": "https://dc.lft.to/lastmile_qr_scan"}, "type": "electric_scooter", "lon": -77.02118266666666, "name": "c563b07d3ebb9c8d3d4a5150e63ba8dd", "bike_id": "c563b07d3ebb9c8d3d4a5150e63ba8dd", "fusion_lat": 0.0, "is_reserved": 0, "lat": 38.917378166666666, "fusion_lon": 0.0, "is_disabled": 0}, {"rental_uris": {"android": "https://dc.lft.to/lastmile_qr_scan", "ios": "https://dc.lft.to/lastmile_qr_scan"}, "type": "electric_scooter", "lon": -77.00112433333334, "name": "8d299e33191b94def8d4c84da4290d95", "bike_id": "8d299e33191b94def8d4c84da4290d95", "fusion_lat": 0.0, "is_reserved": 0, "lat": 38.877895333333335, "fusion_lon": 0.0, "is_disabled": 0}, {"rental_uris": {"android": "https://dc.lft.to/lastmile_qr_scan", "ios": "https://dc.lft.to/lastmile_qr_scan"}, "type": "electric_scooter", "lon": -77.03790683333334, "name": "31cab01e3eaa239186fb1a76dc805a37", "bike_id": "31cab01e3eaa239186fb1a76dc805a37", "fusion_lat": 0.0, "is_reserved": 0, "lat": 38.9057845, "fusion_lon": 0.0, "is_disabled": 0}, {"rental_uris": {"android": "https://dc.lft.to/lastmile_qr_scan", "ios": "https://dc.lft.to/lastmile_qr_scan"}, "type": "electric_scooter", "lon": -76.9962295, "name": "7d7fa46fde06b3f1144ef2083dad0a81", "bike_id": "7d7fa46fde06b3f1144ef2083dad0a81", "fusion_lat": 0.0, "is_reserved": 0, "lat": 38.9003335, "fusion_lon": 0.0, "is_disabled": 0}, {"rental_uris": {"android": "https://dc.lft.to/lastmile_qr_scan", "ios": "https://dc.lft.to/lastmile_qr_scan"}, "type": "electric_scooter", "lon": -77.02977566666667, "name": "81847f28bd57f30e1b426a864797c9e2", "bike_id": "81847f28bd57f30e1b426a864797c9e2", "fusion_lat": 0.0, "is_reserved": 0, "lat": 38.9406335, "fusion_lon": 0.0, "is_disabled": 0}, {"rental_uris": {"android": "https://dc.lft.to/lastmile_qr_scan", "ios": "https://dc.lft.to/lastmile_qr_scan"}, "type": "electric_scooter", "lon": -77.021701, "name": "93d0d770426ee40f6354be2e5d801d59", "bike_id": "93d0d770426ee40f6354be2e5d801d59", "fusion_lat": 0.0, "is_reserved": 0, "lat": 38.94290183333333, "fusion_lon": 0.0, "is_disabled": 0}, {"rental_uris": {"android": "https://dc.lft.to/lastmile_qr_scan", "ios": "https://dc.lft.to/lastmile_qr_scan"}, "type": "electric_scooter", "lon": -77.02938383333333, "name": "beb9665852721b3920584d34d8cc0ad4", "bike_id": "beb9665852721b3920584d34d8cc0ad4", "fusion_lat": 0.0, "is_reserved": 0, "lat": 38.90485916666667, "fusion_lon": 0.0, "is_disabled": 0}, {"rental_uris": {"android": "https://dc.lft.to/lastmile_qr_scan", "ios": "https://dc.lft.to/lastmile_qr_scan"}, "type": "electric_scooter", "lon": -76.929528, "name": "e1acb4e566d05705333c1f5af6a00050", "bike_id": "e1acb4e566d05705333c1f5af6a00050", "fusion_lat": 0.0, "is_reserved": 0, "lat": 38.89882016666667, "fusion_lon": 0.0, "is_disabled": 0}, {"rental_uris": {"android": "https://dc.lft.to/lastmile_qr_scan", "ios": "https://dc.lft.to/lastmile_qr_scan"}, "type": "electric_scooter", "lon": -77.03417483333334, "name": "62dd7774c782a92fb7dc5bf966ae1c4b", "bike_id": "62dd7774c782a92fb7dc5bf966ae1c4b", "fusion_lat": 0.0, "is_reserved": 0, "lat": 38.929407, "fusion_lon": 0.0, "is_disabled": 0}, {"rental_uris": {"android": "https://dc.lft.to/lastmile_qr_scan", "ios": "https://dc.lft.to/lastmile_qr_scan"}, "type": "electric_scooter", "lon": -77.043414, "name": "fc77f698df5a14e31d528216ea3bceb2", "bike_id": "fc77f698df5a14e31d528216ea3bceb2", "fusion_lat": 0.0, "is_reserved": 0, "lat": 38.9040385, "fusion_lon": 0.0, "is_disabled": 0}, {"rental_uris": {"android": "https://dc.lft.to/lastmile_qr_scan", "ios": "https://dc.lft.to/lastmile_qr_scan"}, "type": "electric_scooter", "lon": -77.04666483333334, "name": "bd6e93a684379871b86062bc7a6363a2", "bike_id": "bd6e93a684379871b86062bc7a6363a2", "fusion_lat": 0.0, "is_reserved": 0, "lat": 38.91574716666667, "fusion_lon": 0.0, "is_disabled": 0}, {"rental_uris": {"android": "https://dc.lft.to/lastmile_qr_scan", "ios": "https://dc.lft.to/lastmile_qr_scan"}, "type": "electric_bike", "lon": -77.13179466666666, "name": "8a7bbc9a7e2e5886b68e07fa8ccf7b51", "bike_id": "8a7bbc9a7e2e5886b68e07fa8ccf7b51", "fusion_lat": 0.0, "is_reserved": 0, "lat": 38.86909583333333, "fusion_lon": 0.0, "is_disabled": 0}, {"rental_uris": {"android": "https://dc.lft.to/lastmile_qr_scan", "ios": "https://dc.lft.to/lastmile_qr_scan"}, "type": "electric_scooter", "lon": -77.03763616666667, "name": "385a3d2449a14e897fc7f04fb88b774e", "bike_id": "385a3d2449a14e897fc7f04fb88b774e", "fusion_lat": 0.0, "is_reserved": 0, "lat": 38.916801666666665, "fusion_lon": 0.0, "is_disabled": 0}, {"rental_uris": {"android": "https://dc.lft.to/lastmile_qr_scan", "ios": "https://dc.lft.to/lastmile_qr_scan"}, "type": "electric_scooter", "lon": -77.02624316666666, "name": "fea343ea3d953c3ae7bca6b544bbdf68", "bike_id": "fea343ea3d953c3ae7bca6b544bbdf68", "fusion_lat": 0.0, "is_reserved": 0, "lat": 38.897103666666666, "fusion_lon": 0.0, "is_disabled": 0}, {"rental_uris": {"android": "https://dc.lft.to/lastmile_qr_scan", "ios": "https://dc.lft.to/lastmile_qr_scan"}, "type": "electric_scooter", "lon": -77.0347475, "name": "654397e95bda8396b8da4e4df9718153", "bike_id": "654397e95bda8396b8da4e4df9718153", "fusion_lat": 0.0, "is_reserved": 0, "lat": 38.9025455, "fusion_lon": 0.0, "is_disabled": 0}, {"rental_uris": {"android": "https://dc.lft.to/lastmile_qr_scan", "ios": "https://dc.lft.to/lastmile_qr_scan"}, "type": "electric_scooter", "lon": -77.00382433333333, "name": "7e0c5bf861f475be76cf872057882485", "bike_id": "7e0c5bf861f475be76cf872057882485", "fusion_lat": 0.0, "is_reserved": 0, "lat": 38.897306666666665, "fusion_lon": 0.0, "is_disabled": 0}, {"rental_uris": {"android": "https://dc.lft.to/lastmile_qr_scan", "ios": "https://dc.lft.to/lastmile_qr_scan"}, "type": "electric_scooter", "lon": -77.0120655, "name": "7e5a4652288d1f7700e6ce183c4d77a2", "bike_id": "7e5a4652288d1f7700e6ce183c4d77a2", "fusion_lat": 0.0, "is_reserved": 0, "lat": 38.893298, "fusion_lon": 0.0, "is_disabled": 0}, {"rental_uris": {"android": "https://dc.lft.to/lastmile_qr_scan", "ios": "https://dc.lft.to/lastmile_qr_scan"}, "type": "electric_scooter", "lon": -77.03184683333333, "name": "0c6ebc205f7c01320937ccc23eb1d208", "bike_id": "0c6ebc205f7c01320937ccc23eb1d208", "fusion_lat": 0.0, "is_reserved": 0, "lat": 38.91091383333333, "fusion_lon": 0.0, "is_disabled": 0}, {"rental_uris": {"android": "https://dc.lft.to/lastmile_qr_scan", "ios": "https://dc.lft.to/lastmile_qr_scan"}, "type": "electric_scooter", "lon": -77.04777133333333, "name": "4c0e3335573b4317551e8c536cd43f78", "bike_id": "4c0e3335573b4317551e8c536cd43f78", "fusion_lat": 0.0, "is_reserved": 0, "lat": 38.90503866666667, "fusion_lon": 0.0, "is_disabled": 0}, {"rental_uris": {"android": "https://dc.lft.to/lastmile_qr_scan", "ios": "https://dc.lft.to/lastmile_qr_scan"}, "type": "electric_scooter", "lon": -77.03067433333334, "name": "589ce23035f17db04a69cba32f5d47c8", "bike_id": "589ce23035f17db04a69cba32f5d47c8", "fusion_lat": 0.0, "is_reserved": 0, "lat": 38.8804435, "fusion_lon": 0.0, "is_disabled": 0}, {"rental_uris": {"android": "https://dc.lft.to/lastmile_qr_scan", "ios": "https://dc.lft.to/lastmile_qr_scan"}, "type": "electric_scooter", "lon": -77.04336633333334, "name": "4d81976e5b932941c09f50da0285efd4", "bike_id": "4d81976e5b932941c09f50da0285efd4", "fusion_lat": 0.0, "is_reserved": 0, "lat": 38.91042933333333, "fusion_lon": 0.0, "is_disabled": 0}, {"rental_uris": {"android": "https://dc.lft.to/lastmile_qr_scan", "ios": "https://dc.lft.to/lastmile_qr_scan"}, "type": "electric_scooter", "lon": -77.02596366666667, "name": "6a8887ff2a48a320c496614ec2af9a33", "bike_id": "6a8887ff2a48a320c496614ec2af9a33", "fusion_lat": 0.0, "is_reserved": 0, "lat": 38.89725516666667, "fusion_lon": 0.0, "is_disabled": 0}, {"rental_uris": {"android": "https://dc.lft.to/lastmile_qr_scan", "ios": "https://dc.lft.to/lastmile_qr_scan"}, "type": "electric_scooter", "lon": -76.99159016666667, "name": "5c9b7b3f707cd205e2e789cb7ed060d5", "bike_id": "5c9b7b3f707cd205e2e789cb7ed060d5", "fusion_lat": 0.0, "is_reserved": 0, "lat": 38.879060833333334, "fusion_lon": 0.0, "is_disabled": 0}, {"rental_uris": {"android": "https://dc.lft.to/lastmile_qr_scan", "ios": "https://dc.lft.to/lastmile_qr_scan"}, "type": "electric_scooter", "lon": -77.0033465, "name": "79826d87352d65b1e0f387c06a54ee63", "bike_id": "79826d87352d65b1e0f387c06a54ee63", "fusion_lat": 0.0, "is_reserved": 0, "lat": 38.89183166666667, "fusion_lon": 0.0, "is_disabled": 0}, {"rental_uris": {"android": "https://dc.lft.to/lastmile_qr_scan", "ios": "https://dc.lft.to/lastmile_qr_scan"}, "type": "electric_scooter", "lon": -77.01139616666667, "name": "36081427ca000781c45599ad386bb3f5", "bike_id": "36081427ca000781c45599ad386bb3f5", "fusion_lat": 0.0, "is_reserved": 0, "lat": 38.9063555, "fusion_lon": 0.0, "is_disabled": 0}, {"rental_uris": {"android": "https://dc.lft.to/lastmile_qr_scan", "ios": "https://dc.lft.to/lastmile_qr_scan"}, "type": "electric_scooter", "lon": -77.02298966666666, "name": "9d23c88dbb17a93594bfb0ba756f3029", "bike_id": "9d23c88dbb17a93594bfb0ba756f3029", "fusion_lat": 0.0, "is_reserved": 0, "lat": 38.91780933333333, "fusion_lon": 0.0, "is_disabled": 0}, {"rental_uris": {"android": "https://dc.lft.to/lastmile_qr_scan", "ios": "https://dc.lft.to/lastmile_qr_scan"}, "type": "electric_scooter", "lon": -76.99778266666667, "name": "54d12d66dec668932045619df27321c2", "bike_id": "54d12d66dec668932045619df27321c2", "fusion_lat": 0.0, "is_reserved": 0, "lat": 38.8442355, "fusion_lon": 0.0, "is_disabled": 0}, {"rental_uris": {"android": "https://dc.lft.to/lastmile_qr_scan", "ios": "https://dc.lft.to/lastmile_qr_scan"}, "type": "electric_scooter", "lon": -76.93464883333333, "name": "a8477de500fce0f55efaec8e50b9539b", "bike_id": "a8477de500fce0f55efaec8e50b9539b", "fusion_lat": 0.0, "is_reserved": 0, "lat": 38.9018265, "fusion_lon": 0.0, "is_disabled": 0}, {"rental_uris": {"android": "https://dc.lft.to/lastmile_qr_scan", "ios": "https://dc.lft.to/lastmile_qr_scan"}, "type": "electric_bike", "lon": -76.934567, "name": "252c0fe9abe8d884824c9cd3358112f9", "bike_id": "252c0fe9abe8d884824c9cd3358112f9", "fusion_lat": 0.0, "is_reserved": 0, "lat": 38.96966233333333, "fusion_lon": 0.0, "is_disabled": 0}, {"rental_uris": {"android": "https://dc.lft.to/lastmile_qr_scan", "ios": "https://dc.lft.to/lastmile_qr_scan"}, "type": "electric_scooter", "lon": -77.01942916666667, "name": "f6bb4781b531c98248993371d7200234", "bike_id": "f6bb4781b531c98248993371d7200234", "fusion_lat": 0.0, "is_reserved": 0, "lat": 38.92411083333333, "fusion_lon": 0.0, "is_disabled": 0}, {"rental_uris": {"android": "https://dc.lft.to/lastmile_qr_scan", "ios": "https://dc.lft.to/lastmile_qr_scan"}, "type": "electric_bike", "lon": -76.98748666666667, "name": "d021b1a5ccf3f0f6ec80937a07f32b39", "bike_id": "d021b1a5ccf3f0f6ec80937a07f32b39", "fusion_lat": 0.0, "is_reserved": 0, "lat": 38.988277833333335, "fusion_lon": 0.0, "is_disabled": 0}, {"rental_uris": {"android": "https://dc.lft.to/lastmile_qr_scan", "ios": "https://dc.lft.to/lastmile_qr_scan"}, "type": "electric_scooter", "lon": -76.99630316666666, "name": "a17bd3241d0eac50aefc2789ba5c86ca", "bike_id": "a17bd3241d0eac50aefc2789ba5c86ca", "fusion_lat": 0.0, "is_reserved": 0, "lat": 38.8461785, "fusion_lon": 0.0, "is_disabled": 0}, {"rental_uris": {"android": "https://dc.lft.to/lastmile_qr_scan", "ios": "https://dc.lft.to/lastmile_qr_scan"}, "type": "electric_scooter", "lon": -77.02902583333334, "name": "9257858a7c917583fcaabeb45221004d", "bike_id": "9257858a7c917583fcaabeb45221004d", "fusion_lat": 0.0, "is_reserved": 0, "lat": 38.95841983333333, "fusion_lon": 0.0, "is_disabled": 0}, {"rental_uris": {"android": "https://dc.lft.to/lastmile_qr_scan", "ios": "https://dc.lft.to/lastmile_qr_scan"}, "type": "electric_scooter", "lon": -77.0381945, "name": "bde4c352b98dae343206eefee248405f", "bike_id": "bde4c352b98dae343206eefee248405f", "fusion_lat": 0.0, "is_reserved": 0, "lat": 38.91415716666667, "fusion_lon": 0.0, "is_disabled": 0}, {"rental_uris": {"android": "https://dc.lft.to/lastmile_qr_scan", "ios": "https://dc.lft.to/lastmile_qr_scan"}, "type": "electric_scooter", "lon": -77.01348516666667, "name": "a55b1443b60515bc4f6f0f02eaa4a101", "bike_id": "a55b1443b60515bc4f6f0f02eaa4a101", "fusion_lat": 0.0, "is_reserved": 0, "lat": 38.90063133333334, "fusion_lon": 0.0, "is_disabled": 0}, {"rental_uris": {"android": "https://dc.lft.to/lastmile_qr_scan", "ios": "https://dc.lft.to/lastmile_qr_scan"}, "type": "electric_scooter", "lon": -77.02347733333333, "name": "eecc71f85f8373fa0495620d4cf5542d", "bike_id": "eecc71f85f8373fa0495620d4cf5542d", "fusion_lat": 0.0, "is_reserved": 0, "lat": 38.884818833333334, "fusion_lon": 0.0, "is_disabled": 0}, {"rental_uris": {"android": "https://dc.lft.to/lastmile_qr_scan", "ios": "https://dc.lft.to/lastmile_qr_scan"}, "type": "electric_scooter", "lon": -77.03871616666666, "name": "bbb16503e0a1f0b2abdd5cff40ee53fc", "bike_id": "bbb16503e0a1f0b2abdd5cff40ee53fc", "fusion_lat": 0.0, "is_reserved": 0, "lat": 38.9126765, "fusion_lon": 0.0, "is_disabled": 0}, {"rental_uris": {"android": "https://dc.lft.to/lastmile_qr_scan", "ios": "https://dc.lft.to/lastmile_qr_scan"}, "type": "electric_scooter", "lon": -76.94154366666666, "name": "c6e666d97fca196be5d7fbc7657a4a57", "bike_id": "c6e666d97fca196be5d7fbc7657a4a57", "fusion_lat": 0.0, "is_reserved": 0, "lat": 38.883619, "fusion_lon": 0.0, "is_disabled": 0}, {"rental_uris": {"android": "https://dc.lft.to/lastmile_qr_scan", "ios": "https://dc.lft.to/lastmile_qr_scan"}, "type": "electric_bike", "lon": -77.0882075, "name": "ba197fda8f82a8c1962514f4d83a557e", "bike_id": "ba197fda8f82a8c1962514f4d83a557e", "fusion_lat": 0.0, "is_reserved": 0, "lat": 38.90972333333333, "fusion_lon": 0.0, "is_disabled": 0}, {"rental_uris": {"android": "https://dc.lft.to/lastmile_qr_scan", "ios": "https://dc.lft.to/lastmile_qr_scan"}, "type": "electric_scooter", "lon": -77.03618883333333, "name": "7bb97dacdeaeff66025b58e4bf38bac0", "bike_id": "7bb97dacdeaeff66025b58e4bf38bac0", "fusion_lat": 0.0, "is_reserved": 0, "lat": 38.936723666666666, "fusion_lon": 0.0, "is_disabled": 0}, {"rental_uris": {"android": "https://dc.lft.to/lastmile_qr_scan", "ios": "https://dc.lft.to/lastmile_qr_scan"}, "type": "electric_scooter", "lon": -77.02977516666667, "name": "9df5a0cc201b986ff0bddd7aa6b938a7", "bike_id": "9df5a0cc201b986ff0bddd7aa6b938a7", "fusion_lat": 0.0, "is_reserved": 0, "lat": 38.9469935, "fusion_lon": 0.0, "is_disabled": 0}, {"rental_uris": {"android": "https://dc.lft.to/lastmile_qr_scan", "ios": "https://dc.lft.to/lastmile_qr_scan"}, "type": "electric_scooter", "lon": -77.04074966666667, "name": "e87547d9524a62f6843931ebabad0071", "bike_id": "e87547d9524a62f6843931ebabad0071", "fusion_lat": 0.0, "is_reserved": 0, "lat": 38.907256, "fusion_lon": 0.0, "is_disabled": 0}, {"rental_uris": {"android": "https://dc.lft.to/lastmile_qr_scan", "ios": "https://dc.lft.to/lastmile_qr_scan"}, "type": "electric_scooter", "lon": -76.987323, "name": "32668d4a86a41813e75b9d13831de14f", "bike_id": "32668d4a86a41813e75b9d13831de14f", "fusion_lat": 0.0, "is_reserved": 0, "lat": 38.86707, "fusion_lon": 0.0, "is_disabled": 0}, {"rental_uris": {"android": "https://dc.lft.to/lastmile_qr_scan", "ios": "https://dc.lft.to/lastmile_qr_scan"}, "type": "electric_scooter", "lon": -77.02732416666667, "name": "7f801d274b252640a83562cf4b948b38", "bike_id": "7f801d274b252640a83562cf4b948b38", "fusion_lat": 0.0, "is_reserved": 0, "lat": 38.92761, "fusion_lon": 0.0, "is_disabled": 0}, {"rental_uris": {"android": "https://dc.lft.to/lastmile_qr_scan", "ios": "https://dc.lft.to/lastmile_qr_scan"}, "type": "electric_scooter", "lon": -77.05180283333333, "name": "80545b791d6113a10b53828ccc134812", "bike_id": "80545b791d6113a10b53828ccc134812", "fusion_lat": 0.0, "is_reserved": 0, "lat": 38.92423266666667, "fusion_lon": 0.0, "is_disabled": 0}, {"rental_uris": {"android": "https://dc.lft.to/lastmile_qr_scan", "ios": "https://dc.lft.to/lastmile_qr_scan"}, "type": "electric_scooter", "lon": -77.02567183333333, "name": "1efbd10fe8cc9717055e3abb09a80576", "bike_id": "1efbd10fe8cc9717055e3abb09a80576", "fusion_lat": 0.0, "is_reserved": 0, "lat": 38.8858985, "fusion_lon": 0.0, "is_disabled": 0}, {"rental_uris": {"android": "https://dc.lft.to/lastmile_qr_scan", "ios": "https://dc.lft.to/lastmile_qr_scan"}, "type": "electric_scooter", "lon": -77.01180333333333, "name": "7a5ad530b9812d2cc8ab10426845b3c7", "bike_id": "7a5ad530b9812d2cc8ab10426845b3c7", "fusion_lat": 0.0, "is_reserved": 0, "lat": 38.90018166666667, "fusion_lon": 0.0, "is_disabled": 0}, {"rental_uris": {"android": "https://dc.lft.to/lastmile_qr_scan", "ios": "https://dc.lft.to/lastmile_qr_scan"}, "type": "electric_scooter", "lon": -77.01866266666667, "name": "965681870d0419491617d9f2a50d8739", "bike_id": "965681870d0419491617d9f2a50d8739", "fusion_lat": 0.0, "is_reserved": 0, "lat": 38.94888316666667, "fusion_lon": 0.0, "is_disabled": 0}, {"rental_uris": {"android": "https://dc.lft.to/lastmile_qr_scan", "ios": "https://dc.lft.to/lastmile_qr_scan"}, "type": "electric_scooter", "lon": -77.029265, "name": "567825df234851dd74c7d564e066c0d1", "bike_id": "567825df234851dd74c7d564e066c0d1", "fusion_lat": 0.0, "is_reserved": 0, "lat": 38.882147333333336, "fusion_lon": 0.0, "is_disabled": 0}, {"rental_uris": {"android": "https://dc.lft.to/lastmile_qr_scan", "ios": "https://dc.lft.to/lastmile_qr_scan"}, "type": "electric_scooter", "lon": -77.041033, "name": "addfc186f18f2fc2823d2d77e1f39d57", "bike_id": "addfc186f18f2fc2823d2d77e1f39d57", "fusion_lat": 0.0, "is_reserved": 0, "lat": 38.92089333333333, "fusion_lon": 0.0, "is_disabled": 0}, {"rental_uris": {"android": "https://dc.lft.to/lastmile_qr_scan", "ios": "https://dc.lft.to/lastmile_qr_scan"}, "type": "electric_bike", "lon": -76.9815065, "name": "d8f246b7eaa0fd67c31f9191aa8930af", "bike_id": "d8f246b7eaa0fd67c31f9191aa8930af", "fusion_lat": 0.0, "is_reserved": 0, "lat": 38.95961716666667, "fusion_lon": 0.0, "is_disabled": 0}, {"rental_uris": {"android": "https://dc.lft.to/lastmile_qr_scan", "ios": "https://dc.lft.to/lastmile_qr_scan"}, "type": "electric_scooter", "lon": -77.00936066666667, "name": "18017648fb82b3030337bf0ed99b7add", "bike_id": "18017648fb82b3030337bf0ed99b7add", "fusion_lat": 0.0, "is_reserved": 0, "lat": 38.87626933333333, "fusion_lon": 0.0, "is_disabled": 0}, {"rental_uris": {"android": "https://dc.lft.to/lastmile_qr_scan", "ios": "https://dc.lft.to/lastmile_qr_scan"}, "type": "electric_scooter", "lon": -77.0034675, "name": "a0baafea9477200e43f4f997472c6643", "bike_id": "a0baafea9477200e43f4f997472c6643", "fusion_lat": 0.0, "is_reserved": 0, "lat": 38.894606833333334, "fusion_lon": 0.0, "is_disabled": 0}, {"rental_uris": {"android": "https://dc.lft.to/lastmile_qr_scan", "ios": "https://dc.lft.to/lastmile_qr_scan"}, "type": "electric_scooter", "lon": -77.0424525, "name": "fbc4acbbf12ae07a34871fcaf4b286e5", "bike_id": "fbc4acbbf12ae07a34871fcaf4b286e5", "fusion_lat": 0.0, "is_reserved": 0, "lat": 38.922331666666665, "fusion_lon": 0.0, "is_disabled": 0}, {"rental_uris": {"android": "https://dc.lft.to/lastmile_qr_scan", "ios": "https://dc.lft.to/lastmile_qr_scan"}, "type": "electric_scooter", "lon": -77.00007916666667, "name": "dcb197f42bee6564a21e80cce2ce6975", "bike_id": "dcb197f42bee6564a21e80cce2ce6975", "fusion_lat": 0.0, "is_reserved": 0, "lat": 38.90003133333333, "fusion_lon": 0.0, "is_disabled": 0}, {"rental_uris": {"android": "https://dc.lft.to/lastmile_qr_scan", "ios": "https://dc.lft.to/lastmile_qr_scan"}, "type": "electric_scooter", "lon": -77.03175516666667, "name": "3a78b5a885ca3c0bfa19f5f271a4c8b0", "bike_id": "3a78b5a885ca3c0bfa19f5f271a4c8b0", "fusion_lat": 0.0, "is_reserved": 0, "lat": 38.91915066666667, "fusion_lon": 0.0, "is_disabled": 0}, {"rental_uris": {"android": "https://dc.lft.to/lastmile_qr_scan", "ios": "https://dc.lft.to/lastmile_qr_scan"}, "type": "electric_scooter", "lon": -77.00223666666666, "name": "e771de73f8e2fe110f0e9191dac5096b", "bike_id": "e771de73f8e2fe110f0e9191dac5096b", "fusion_lat": 0.0, "is_reserved": 0, "lat": 38.95728616666667, "fusion_lon": 0.0, "is_disabled": 0}, {"rental_uris": {"android": "https://dc.lft.to/lastmile_qr_scan", "ios": "https://dc.lft.to/lastmile_qr_scan"}, "type": "electric_scooter", "lon": -77.01200883333334, "name": "4724a50f55a784147ebd93040a522123", "bike_id": "4724a50f55a784147ebd93040a522123", "fusion_lat": 0.0, "is_reserved": 0, "lat": 38.89639966666667, "fusion_lon": 0.0, "is_disabled": 0}, {"rental_uris": {"android": "https://dc.lft.to/lastmile_qr_scan", "ios": "https://dc.lft.to/lastmile_qr_scan"}, "type": "electric_scooter", "lon": -77.05299616666667, "name": "57c4cce3ac1e58277524e126df49cafd", "bike_id": "57c4cce3ac1e58277524e126df49cafd", "fusion_lat": 0.0, "is_reserved": 0, "lat": 38.9169405, "fusion_lon": 0.0, "is_disabled": 0}, {"rental_uris": {"android": "https://dc.lft.to/lastmile_qr_scan", "ios": "https://dc.lft.to/lastmile_qr_scan"}, "type": "electric_bike", "lon": -77.0885295, "name": "6497224082beda5c3d06920ece9711e3", "bike_id": "6497224082beda5c3d06920ece9711e3", "fusion_lat": 0.0, "is_reserved": 0, "lat": 38.896913833333336, "fusion_lon": 0.0, "is_disabled": 0}, {"rental_uris": {"android": "https://dc.lft.to/lastmile_qr_scan", "ios": "https://dc.lft.to/lastmile_qr_scan"}, "type": "electric_bike", "lon": -77.00599166666667, "name": "fb64c332c21c450fe67452dfcb027e76", "bike_id": "fb64c332c21c450fe67452dfcb027e76", "fusion_lat": 0.0, "is_reserved": 0, "lat": 38.898025833333335, "fusion_lon": 0.0, "is_disabled": 0}, {"rental_uris": {"android": "https://dc.lft.to/lastmile_qr_scan", "ios": "https://dc.lft.to/lastmile_qr_scan"}, "type": "electric_scooter", "lon": -76.91925166666667, "name": "684f4eab3b468dbf122da8f50722e480", "bike_id": "684f4eab3b468dbf122da8f50722e480", "fusion_lat": 0.0, "is_reserved": 0, "lat": 38.89070983333333, "fusion_lon": 0.0, "is_disabled": 0}, {"rental_uris": {"android": "https://dc.lft.to/lastmile_qr_scan", "ios": "https://dc.lft.to/lastmile_qr_scan"}, "type": "electric_scooter", "lon": -77.04706116666667, "name": "806ecfefdec1edc22bde0f2b1c786c7d", "bike_id": "806ecfefdec1edc22bde0f2b1c786c7d", "fusion_lat": 0.0, "is_reserved": 0, "lat": 38.9125605, "fusion_lon": 0.0, "is_disabled": 0}, {"rental_uris": {"android": "https://dc.lft.to/lastmile_qr_scan", "ios": "https://dc.lft.to/lastmile_qr_scan"}, "type": "electric_scooter", "lon": -77.03814516666667, "name": "80de8252478781afa9e96a8a273af102", "bike_id": "80de8252478781afa9e96a8a273af102", "fusion_lat": 0.0, "is_reserved": 0, "lat": 38.920574, "fusion_lon": 0.0, "is_disabled": 0}, {"rental_uris": {"android": "https://dc.lft.to/lastmile_qr_scan", "ios": "https://dc.lft.to/lastmile_qr_scan"}, "type": "electric_scooter", "lon": -77.0446205, "name": "b19187b0e98c38d7353628ff53d083c4", "bike_id": "b19187b0e98c38d7353628ff53d083c4", "fusion_lat": 0.0, "is_reserved": 0, "lat": 38.90271533333333, "fusion_lon": 0.0, "is_disabled": 0}, {"rental_uris": {"android": "https://dc.lft.to/lastmile_qr_scan", "ios": "https://dc.lft.to/lastmile_qr_scan"}, "type": "electric_scooter", "lon": -77.03449816666667, "name": "d7a72e1a8a02e92dedb12a3ee2bf0e81", "bike_id": "d7a72e1a8a02e92dedb12a3ee2bf0e81", "fusion_lat": 0.0, "is_reserved": 0, "lat": 38.90432583333333, "fusion_lon": 0.0, "is_disabled": 0}, {"rental_uris": {"android": "https://dc.lft.to/lastmile_qr_scan", "ios": "https://dc.lft.to/lastmile_qr_scan"}, "type": "electric_scooter", "lon": -77.01653816666666, "name": "d8bbe71ad6916d4c3f9ba673bb855290", "bike_id": "d8bbe71ad6916d4c3f9ba673bb855290", "fusion_lat": 0.0, "is_reserved": 0, "lat": 38.87715816666667, "fusion_lon": 0.0, "is_disabled": 0}, {"rental_uris": {"android": "https://dc.lft.to/lastmile_qr_scan", "ios": "https://dc.lft.to/lastmile_qr_scan"},