{"data": {"bikes": [{"lon": -77.02959666666666, "is_disabled": 0, "lat": 38.93449183333333, "fusion_lat": 0.0, "is_reserved": 0, "rental_uris": {"ios": "https://dc.lft.to/lastmile_qr_scan", "android": "https://dc.lft.to/lastmile_qr_scan"}, "fusion_lon": 0.0, "type": "electric_scooter", "bike_id": "2332bce8c04bbb96167813c2246f9758", "name": "2332bce8c04bbb96167813c2246f9758"}, {"lon": -77.033445, "is_disabled": 0, "lat": 38.900201333333335, "fusion_lat": 0.0, "is_reserved": 0, "rental_uris": {"ios": "https://dc.lft.to/lastmile_qr_scan", "android": "https://dc.lft.to/lastmile_qr_scan"}, "fusion_lon": 0.0, "type": "electric_scooter", "bike_id": "505afabe7ac72dc9a78bde70640b49c8", "name": "505afabe7ac72dc9a78bde70640b49c8"}, {"lon": -76.9464035, "is_disabled": 0, "lat": 38.89870833333333, "fusion_lat": 0.0, "is_reserved": 0, "rental_uris": {"ios": "https://dc.lft.to/lastmile_qr_scan", "android": "https://dc.lft.to/lastmile_qr_scan"}, "fusion_lon": 0.0, "type": "electric_scooter", "bike_id": "5ad62f6ac6029f2a8bdda7fe5888d84c", "name": "5ad62f6ac6029f2a8bdda7fe5888d84c"}, {"lon": -76.98715866666667, "is_disabled": 0, "lat": 38.867055, "fusion_lat": 0.0, "is_reserved": 0, "rental_uris": {"ios": "https://dc.lft.to/lastmile_qr_scan", "android": "https://dc.lft.to/lastmile_qr_scan"}, "fusion_lon": 0.0, "type": "electric_scooter", "bike_id": "5bc34f9426f05e125c80f339911f0a4c", "name": "5bc34f9426f05e125c80f339911f0a4c"}, {"lon": -77.03089666666666, "is_disabled": 0, "lat": 38.9026755, "fusion_lat": 0.0, "is_reserved": 0, "rental_uris": {"ios": "https://dc.lft.to/lastmile_qr_scan", "android": "https://dc.lft.to/lastmile_qr_scan"}, "fusion_lon": 0.0, "type": "electric_scooter", "bike_id": "41cf15aaa0d727d7ac763dcaf3b984d5", "name": "41cf15aaa0d727d7ac763dcaf3b984d5"}, {"lon": -76.94050633333333, "is_disabled": 0, "lat": 38.978600666666665, "fusion_lat": 0.0, "is_reserved": 0, "rental_uris": {"ios": "https://dc.lft.to/lastmile_qr_scan", "android": "https://dc.lft.to/lastmile_qr_scan"}, "fusion_lon": 0.0, "type": "electric_bike", "bike_id": "58b5a19f1869520c80f7dbc5afa90090", "name": "58b5a19f1869520c80f7dbc5afa90090"}, {"lon": -77.04495533333333, "is_disabled": 0, "lat": 38.903756666666666, "fusion_lat": 0.0, "is_reserved": 0, "rental_uris": {"ios": "https://dc.lft.to/lastmile_qr_scan", "android": "https://dc.lft.to/lastmile_qr_scan"}, "fusion_lon": 0.0, "type": "electric_scooter", "bike_id": "83d95df201bd27d8a26d1f8db406e396", "name": "83d95df201bd27d8a26d1f8db406e396"}, {"lon": -77.0240475, "is_disabled": 0, "lat": 38.9155195, "fusion_lat": 0.0, "is_reserved": 0, "rental_uris": {"ios": "https://dc.lft.to/lastmile_qr_scan", "android": "https://dc.lft.to/lastmile_qr_scan"}, "fusion_lon": 0.0, "type": "electric_scooter", "bike_id": "46a88813c65742b9a142b99c228ebe6e", "name": "46a88813c65742b9a142b99c228ebe6e"}, {"lon": -77.0284215, "is_disabled": 0, "lat": 38.8866575, "fusion_lat": 0.0, "is_reserved": 0, "rental_uris": {"ios": "https://dc.lft.to/lastmile_qr_scan", "android": "https://dc.lft.to/lastmile_qr_scan"}, "fusion_lon": 0.0, "type": "electric_scooter", "bike_id": "abd98eab90c076f93d80fbb4efddd0ba", "name": "abd98eab90c076f93d80fbb4efddd0ba"}, {"lon": -77.02482416666666, "is_disabled": 0, "lat": 38.93880766666667, "fusion_lat": 0.0, "is_reserved": 0, "rental_uris": {"ios": "https://dc.lft.to/lastmile_qr_scan", "android": "https://dc.lft.to/lastmile_qr_scan"}, "fusion_lon": 0.0, "type": "electric_scooter", "bike_id": "99f1e6956a880dceffe58b89dee32dc7", "name": "99f1e6956a880dceffe58b89dee32dc7"}, {"lon": -77.0376575, "is_disabled": 0, "lat": 38.91567416666667, "fusion_lat": 0.0, "is_reserved": 0, "rental_uris": {"ios": "https://dc.lft.to/lastmile_qr_scan", "android": "https://dc.lft.to/lastmile_qr_scan"}, "fusion_lon": 0.0, "type": "electric_scooter", "bike_id": "c893dbf778779ad634cd72ac6425173d", "name": "c893dbf778779ad634cd72ac6425173d"}, {"lon": -77.01425733333333, "is_disabled": 0, "lat": 38.915822666666664, "fusion_lat": 0.0, "is_reserved": 0, "rental_uris": {"ios": "https://dc.lft.to/lastmile_qr_scan", "android": "https://dc.lft.to/lastmile_qr_scan"}, "fusion_lon": 0.0, "type": "electric_scooter", "bike_id": "f8f0bad609ba2c0d51038fba051a3646", "name": "f8f0bad609ba2c0d51038fba051a3646"}, {"lon": -77.0386105, "is_disabled": 0, "lat": 38.90274333333333, "fusion_lat": 0.0, "is_reserved": 0, "rental_uris": {"ios": "https://dc.lft.to/lastmile_qr_scan", "android": "https://dc.lft.to/lastmile_qr_scan"}, "fusion_lon": 0.0, "type": "electric_scooter", "bike_id": "ce2793db85732f12007a2fe6bbc19097", "name": "ce2793db85732f12007a2fe6bbc19097"}, {"lon": -77.06948733333333, "is_disabled": 0, "lat": 38.995344333333335, "fusion_lat": 0.0, "is_reserved": 0, "rental_uris": {"ios": "https://dc.lft.to/lastmile_qr_scan", "android": "https://dc.lft.to/lastmile_qr_scan"}, "fusion_lon": 0.0, "type": "electric_bike", "bike_id": "7c53e6bd77daca8f9537ad7a8d7c9efc", "name": "7c53e6bd77daca8f9537ad7a8d7c9efc"}, {"lon": -77.036614, "is_disabled": 0, "lat": 38.9419645, "fusion_lat": 0.0, "is_reserved": 0, "rental_uris": {"ios": "https://dc.lft.to/lastmile_qr_scan", "android": "https://dc.lft.to/lastmile_qr_scan"}, "fusion_lon": 0.0, "type": "electric_scooter", "bike_id": "9ba901b130cf746aac372f89f15f392c", "name": "9ba901b130cf746aac372f89f15f392c"}, {"lon": -77.03333166666667, "is_disabled": 0, "lat": 38.8985115, "fusion_lat": 0.0, "is_reserved": 0, "rental_uris": {"ios": "https://dc.lft.to/lastmile_qr_scan", "android": "https://dc.lft.to/lastmile_qr_scan"}, "fusion_lon": 0.0, "type": "electric_scooter", "bike_id": "59a65f1fa0b8d5157133df9ba2f0b214", "name": "59a65f1fa0b8d5157133df9ba2f0b214"}, {"lon": -77.00066283333334, "is_disabled": 0, "lat": 38.8388745, "fusion_lat": 0.0, "is_reserved": 0, "rental_uris": {"ios": "https://dc.lft.to/lastmile_qr_scan", "android": "https://dc.lft.to/lastmile_qr_scan"}, "fusion_lon": 0.0, "type": "electric_scooter", "bike_id": "5b99c49ccf93ab0bae46f2466dcf4690", "name": "5b99c49ccf93ab0bae46f2466dcf4690"}, {"lon": -77.00715666666666, "is_disabled": 0, "lat": 38.8849235, "fusion_lat": 0.0, "is_reserved": 0, "rental_uris": {"ios": "https://dc.lft.to/lastmile_qr_scan", "android": "https://dc.lft.to/lastmile_qr_scan"}, "fusion_lon": 0.0, "type": "electric_scooter", "bike_id": "d0b813f70195fc309acb039b6dfee90b", "name": "d0b813f70195fc309acb039b6dfee90b"}, {"lon": -76.93765783333333, "is_disabled": 0, "lat": 38.90247466666667, "fusion_lat": 0.0, "is_reserved": 0, "rental_uris": {"ios": "https://dc.lft.to/lastmile_qr_scan", "android": "https://dc.lft.to/lastmile_qr_scan"}, "fusion_lon": 0.0, "type": "electric_scooter", "bike_id": "78e4dfdfc304597fe54c93edbbb51cdb", "name": "78e4dfdfc304597fe54c93edbbb51cdb"}, {"lon": -77.032611, "is_disabled": 0, "lat": 38.93579483333333, "fusion_lat": 0.0, "is_reserved": 0, "rental_uris": {"ios": "https://dc.lft.to/lastmile_qr_scan", "android": "https://dc.lft.to/lastmile_qr_scan"}, "fusion_lon": 0.0, "type": "electric_scooter", "bike_id": "9967a026594ae0ef5ae96fbb408363cb", "name": "9967a026594ae0ef5ae96fbb408363cb"}, {"lon": -77.04656083333333, "is_disabled": 0, "lat": 38.898823, "fusion_lat": 0.0, "is_reserved": 0, "rental_uris": {"ios": "https://dc.lft.to/lastmile_qr_scan", "android": "https://dc.lft.to/lastmile_qr_scan"}, "fusion_lon": 0.0, "type": "electric_scooter", "bike_id": "026954063ab2f928d7b3145fd100b796", "name": "026954063ab2f928d7b3145fd100b796"}, {"lon": -77.00195583333333, "is_disabled": 0, "lat": 38.902671166666664, "fusion_lat": 0.0, "is_reserved": 0, "rental_uris": {"ios": "https://dc.lft.to/lastmile_qr_scan", "android": "https://dc.lft.to/lastmile_qr_scan"}, "fusion_lon": 0.0, "type": "electric_scooter", "bike_id": "497a8390e40f5035138bc554c2af1a97", "name": "497a8390e40f5035138bc554c2af1a97"}, {"lon": -77.00337016666667, "is_disabled": 0, "lat": 38.8874505, "fusion_lat": 0.0, "is_reserved": 0, "rental_uris": {"ios": "https://dc.lft.to/lastmile_qr_scan", "android": "https://dc.lft.to/lastmile_qr_scan"}, "fusion_lon": 0.0, "type": "electric_scooter", "bike_id": "97440225367093eedcdfe04797859f4d", "name": "97440225367093eedcdfe04797859f4d"}, {"lon": -76.95416416666667, "is_disabled": 0, "lat": 38.884062, "fusion_lat": 0.0, "is_reserved": 0, "rental_uris": {"ios": "https://dc.lft.to/lastmile_qr_scan", "android": "https://dc.lft.to/lastmile_qr_scan"}, "fusion_lon": 0.0, "type": "electric_bike", "bike_id": "415b36bd73091cbb31682d7927443c92", "name": "415b36bd73091cbb31682d7927443c92"}, {"lon": -77.02152266666667, "is_disabled": 0, "lat": 38.879242833333336, "fusion_lat": 0.0, "is_reserved": 0, "rental_uris": {"ios": "https://dc.lft.to/lastmile_qr_scan", "android": "https://dc.lft.to/lastmile_qr_scan"}, "fusion_lon": 0.0, "type": "electric_scooter", "bike_id": "97faaadde706d43a11aba9729c565bad", "name": "97faaadde706d43a11aba9729c565bad"}, {"lon": -76.997831, "is_disabled": 0, "lat": 38.908741166666665, "fusion_lat": 0.0, "is_reserved": 0, "rental_uris": {"ios": "https://dc.lft.to/lastmile_qr_scan", "android": "https://dc.lft.to/lastmile_qr_scan"}, "fusion_lon": 0.0, "type": "electric_scooter", "bike_id": "4825ebcb67535ed81d6ceeb3822b9e73", "name": "4825ebcb67535ed81d6ceeb3822b9e73"}, {"lon": -76.98060966666667, "is_disabled": 0, "lat": 38.901172333333335, "fusion_lat": 0.0, "is_reserved": 0, "rental_uris": {"ios": "https://dc.lft.to/lastmile_qr_scan", "android": "https://dc.lft.to/lastmile_qr_scan"}, "fusion_lon": 0.0, "type": "electric_bike", "bike_id": "f8dc38c29bc954b5da647834d90ce857", "name": "f8dc38c29bc954b5da647834d90ce857"}, {"lon": -77.06186066666666, "is_disabled": 0, "lat": 38.9033825, "fusion_lat": 0.0, "is_reserved": 0, "rental_uris": {"ios": "https://dc.lft.to/lastmile_qr_scan", "android": "https://dc.lft.to/lastmile_qr_scan"}, "fusion_lon": 0.0, "type": "electric_scooter", "bike_id": "25372de5a15cfa2c708bb8a9cec97cce", "name": "25372de5a15cfa2c708bb8a9cec97cce"}, {"lon": -77.02681433333333, "is_disabled": 0, "lat": 38.90955733333333, "fusion_lat": 0.0, "is_reserved": 0, "rental_uris": {"ios": "https://dc.lft.to/lastmile_qr_scan", "android": "https://dc.lft.to/lastmile_qr_scan"}, "fusion_lon": 0.0, "type": "electric_scooter", "bike_id": "db785d439bd72a1b5605d46a4be35a91", "name": "db785d439bd72a1b5605d46a4be35a91"}, {"lon": -77.03271416666666, "is_disabled": 0, "lat": 38.90969466666667, "fusion_lat": 0.0, "is_reserved": 0, "rental_uris": {"ios": "https://dc.lft.to/lastmile_qr_scan", "android": "https://dc.lft.to/lastmile_qr_scan"}, "fusion_lon": 0.0, "type": "electric_scooter", "bike_id": "da286522ada07a9f16213a4dce7b85fe", "name": "da286522ada07a9f16213a4dce7b85fe"}, {"lon": -77.05333716666667, "is_disabled": 0, "lat": 38.904962, "fusion_lat": 0.0, "is_reserved": 0, "rental_uris": {"ios": "https://dc.lft.to/lastmile_qr_scan", "android": "https://dc.lft.to/lastmile_qr_scan"}, "fusion_lon": 0.0, "type": "electric_scooter", "bike_id": "151c5e481c33cfa95ebcf750b86efe5b", "name": "151c5e481c33cfa95ebcf750b86efe5b"}, {"lon": -77.00066066666666, "is_disabled": 0, "lat": 38.8769095, "fusion_lat": 0.0, "is_reserved": 0, "rental_uris": {"ios": "https://dc.lft.to/lastmile_qr_scan", "android": "https://dc.lft.to/lastmile_qr_scan"}, "fusion_lon": 0.0, "type": "electric_scooter", "bike_id": "938290125b36095107b7fd394c0c4ebc", "name": "938290125b36095107b7fd394c0c4ebc"}, {"lon": -77.03184366666666, "is_disabled": 0, "lat": 38.909818, "fusion_lat": 0.0, "is_reserved": 0, "rental_uris": {"ios": "https://dc.lft.to/lastmile_qr_scan", "android": "https://dc.lft.to/lastmile_qr_scan"}, "fusion_lon": 0.0, "type": "electric_scooter", "bike_id": "a4ce7da8d8ba259690500e3c032d704a", "name": "a4ce7da8d8ba259690500e3c032d704a"}, {"lon": -77.0292645, "is_disabled": 0, "lat": 38.901651333333334, "fusion_lat": 0.0, "is_reserved": 0, "rental_uris": {"ios": "https://dc.lft.to/lastmile_qr_scan", "android": "https://dc.lft.to/lastmile_qr_scan"}, "fusion_lon": 0.0, "type": "electric_scooter", "bike_id": "2ceb2bbffd3f0486ed6ee6fe5e9705cc", "name": "2ceb2bbffd3f0486ed6ee6fe5e9705cc"}, {"lon": -77.04029783333333, "is_disabled": 0, "lat": 38.90390133333333, "fusion_lat": 0.0, "is_reserved": 0, "rental_uris": {"ios": "https://dc.lft.to/lastmile_qr_scan", "android": "https://dc.lft.to/lastmile_qr_scan"}, "fusion_lon": 0.0, "type": "electric_scooter", "bike_id": "b1fe226a08f866b89162631e123e316d", "name": "b1fe226a08f866b89162631e123e316d"}, {"lon": -77.04167016666666, "is_disabled": 0, "lat": 38.905647333333334, "fusion_lat": 0.0, "is_reserved": 0, "rental_uris": {"ios": "https://dc.lft.to/lastmile_qr_scan", "android": "https://dc.lft.to/lastmile_qr_scan"}, "fusion_lon": 0.0, "type": "electric_scooter", "bike_id": "7dd9b54ee66f0e8e9595100e006ca749", "name": "7dd9b54ee66f0e8e9595100e006ca749"}, {"lon": -76.932191, "is_disabled": 0, "lat": 38.896703333333335, "fusion_lat": 0.0, "is_reserved": 0, "rental_uris": {"ios": "https://dc.lft.to/lastmile_qr_scan", "android": "https://dc.lft.to/lastmile_qr_scan"}, "fusion_lon": 0.0, "type": "electric_scooter", "bike_id": "924e4dc1dbd5933ef09ec758c5405997", "name": "924e4dc1dbd5933ef09ec758c5405997"}, {"lon": -77.0272795, "is_disabled": 0, "lat": 38.89995966666667, "fusion_lat": 0.0, "is_reserved": 0, "rental_uris": {"ios": "https://dc.lft.to/lastmile_qr_scan", "android": "https://dc.lft.to/lastmile_qr_scan"}, "fusion_lon": 0.0, "type": "electric_scooter", "bike_id": "d4594fda36fefcdd2716f9849797c5eb", "name": "d4594fda36fefcdd2716f9849797c5eb"}, {"lon": -77.0195855, "is_disabled": 0, "lat": 38.924256166666666, "fusion_lat": 0.0, "is_reserved": 0, "rental_uris": {"ios": "https://dc.lft.to/lastmile_qr_scan", "android": "https://dc.lft.to/lastmile_qr_scan"}, "fusion_lon": 0.0, "type": "electric_scooter", "bike_id": "a1f8f6a127fe20f97c6cda322829828b", "name": "a1f8f6a127fe20f97c6cda322829828b"}, {"lon": -77.017718, "is_disabled": 0, "lat": 38.920585833333334, "fusion_lat": 0.0, "is_reserved": 0, "rental_uris": {"ios": "https://dc.lft.to/lastmile_qr_scan", "android": "https://dc.lft.to/lastmile_qr_scan"}, "fusion_lon": 0.0, "type": "electric_scooter", "bike_id": "1d723b6d5904e8bc9d9c4cc1da555fe5", "name": "1d723b6d5904e8bc9d9c4cc1da555fe5"}, {"lon": -76.99742633333334, "is_disabled": 0, "lat": 38.901354, "fusion_lat": 0.0, "is_reserved": 0, "rental_uris": {"ios": "https://dc.lft.to/lastmile_qr_scan", "android": "https://dc.lft.to/lastmile_qr_scan"}, "fusion_lon": 0.0, "type": "electric_scooter", "bike_id": "0e67f705ca54698a73d90f50f25e5ca4", "name": "0e67f705ca54698a73d90f50f25e5ca4"}, {"lon": -77.032154, "is_disabled": 0, "lat": 38.918510833333336, "fusion_lat": 0.0, "is_reserved": 0, "rental_uris": {"ios": "https://dc.lft.to/lastmile_qr_scan", "android": "https://dc.lft.to/lastmile_qr_scan"}, "fusion_lon": 0.0, "type": "electric_scooter", "bike_id": "013025cbe70199ac64eae556020fc62c", "name": "013025cbe70199ac64eae556020fc62c"}, {"lon": -77.0415365, "is_disabled": 0, "lat": 38.906533333333336, "fusion_lat": 0.0, "is_reserved": 0, "rental_uris": {"ios": "https://dc.lft.to/lastmile_qr_scan", "android": "https://dc.lft.to/lastmile_qr_scan"}, "fusion_lon": 0.0, "type": "electric_scooter", "bike_id": "e238698d07b55d55ca976833b2f84919", "name": "e238698d07b55d55ca976833b2f84919"}, {"lon": -77.02084616666667, "is_disabled": 0, "lat": 38.921559, "fusion_lat": 0.0, "is_reserved": 0, "rental_uris": {"ios": "https://dc.lft.to/lastmile_qr_scan", "android": "https://dc.lft.to/lastmile_qr_scan"}, "fusion_lon": 0.0, "type": "electric_scooter", "bike_id": "cb82d0e782ba869a94972c2af1155f64", "name": "cb82d0e782ba869a94972c2af1155f64"}, {"lon": -76.99633116666666, "is_disabled": 0, "lat": 38.900666, "fusion_lat": 0.0, "is_reserved": 0, "rental_uris": {"ios": "https://dc.lft.to/lastmile_qr_scan", "android": "https://dc.lft.to/lastmile_qr_scan"}, "fusion_lon": 0.0, "type": "electric_scooter", "bike_id": "a44556d33927105614ba5cbbc55b310e", "name": "a44556d33927105614ba5cbbc55b310e"}, {"lon": -77.0279065, "is_disabled": 0, "lat": 38.92971216666667, "fusion_lat": 0.0, "is_reserved": 0, "rental_uris": {"ios": "https://dc.lft.to/lastmile_qr_scan", "android": "https://dc.lft.to/lastmile_qr_scan"}, "fusion_lon": 0.0, "type": "electric_scooter", "bike_id": "a0e53476e3eb35b0c9ccacb596e4b690", "name": "a0e53476e3eb35b0c9ccacb596e4b690"}, {"lon": -77.01700983333333, "is_disabled": 0, "lat": 38.91383033333334, "fusion_lat": 0.0, "is_reserved": 0, "rental_uris": {"ios": "https://dc.lft.to/lastmile_qr_scan", "android": "https://dc.lft.to/lastmile_qr_scan"}, "fusion_lon": 0.0, "type": "electric_scooter", "bike_id": "c475549c30409ba2147a1279b3e4c5f6", "name": "c475549c30409ba2147a1279b3e4c5f6"}, {"lon": -77.08633716666667, "is_disabled": 0, "lat": 38.93823883333334, "fusion_lat": 0.0, "is_reserved": 0, "rental_uris": {"ios": "https://dc.lft.to/lastmile_qr_scan", "android": "https://dc.lft.to/lastmile_qr_scan"}, "fusion_lon": 0.0, "type": "electric_scooter", "bike_id": "a179a83b64db473e9506bcd801679d40", "name": "a179a83b64db473e9506bcd801679d40"}, {"lon": -77.00490883333333, "is_disabled": 0, "lat": 38.87472183333333, "fusion_lat": 0.0, "is_reserved": 0, "rental_uris": {"ios": "https://dc.lft.to/lastmile_qr_scan", "android": "https://dc.lft.to/lastmile_qr_scan"}, "fusion_lon": 0.0, "type": "electric_scooter", "bike_id": "a6cce466802a4933ffa68b5b0872de72", "name": "a6cce466802a4933ffa68b5b0872de72"}, {"lon": -76.98544466666667, "is_disabled": 0, "lat": 38.866902833333334, "fusion_lat": 0.0, "is_reserved": 0, "rental_uris": {"ios": "https://dc.lft.to/lastmile_qr_scan", "android": "https://dc.lft.to/lastmile_qr_scan"}, "fusion_lon": 0.0, "type": "electric_scooter", "bike_id": "949cd0b3e35b495ec1e9c03663ebd194", "name": "949cd0b3e35b495ec1e9c03663ebd194"}, {"lon": -77.021812, "is_disabled": 0, "lat": 38.919912, "fusion_lat": 0.0, "is_reserved": 0, "rental_uris": {"ios": "https://dc.lft.to/lastmile_qr_scan", "android": "https://dc.lft.to/lastmile_qr_scan"}, "fusion_lon": 0.0, "type": "electric_scooter", "bike_id": "e7f7fabc9b32cb72323aded0a4e1f14c", "name": "e7f7fabc9b32cb72323aded0a4e1f14c"}, {"lon": -77.0344975, "is_disabled": 0, "lat": 38.90893966666667, "fusion_lat": 0.0, "is_reserved": 0, "rental_uris": {"ios": "https://dc.lft.to/lastmile_qr_scan", "android": "https://dc.lft.to/lastmile_qr_scan"}, "fusion_lon": 0.0, "type": "electric_scooter", "bike_id": "60bca0d75a72f21067c952132bb2cff6", "name": "60bca0d75a72f21067c952132bb2cff6"}, {"lon": -77.03187566666666, "is_disabled": 0, "lat": 38.91744883333333, "fusion_lat": 0.0, "is_reserved": 0, "rental_uris": {"ios": "https://dc.lft.to/lastmile_qr_scan", "android": "https://dc.lft.to/lastmile_qr_scan"}, "fusion_lon": 0.0, "type": "electric_scooter", "bike_id": "c2d1a6d12881d7b46e993b64f964932a", "name": "c2d1a6d12881d7b46e993b64f964932a"}, {"lon": -77.0401815, "is_disabled": 0, "lat": 38.9001725, "fusion_lat": 0.0, "is_reserved": 0, "rental_uris": {"ios": "https://dc.lft.to/lastmile_qr_scan", "android": "https://dc.lft.to/lastmile_qr_scan"}, "fusion_lon": 0.0, "type": "electric_scooter", "bike_id": "0e7da1db459017ec261747bde7dc7fbb", "name": "0e7da1db459017ec261747bde7dc7fbb"}, {"lon": -77.01951916666667, "is_disabled": 0, "lat": 38.922740166666664, "fusion_lat": 0.0, "is_reserved": 0, "rental_uris": {"ios": "https://dc.lft.to/lastmile_qr_scan", "android": "https://dc.lft.to/lastmile_qr_scan"}, "fusion_lon": 0.0, "type": "electric_scooter", "bike_id": "f56c2af73dc67975c7ee37c1cdc33239", "name": "f56c2af73dc67975c7ee37c1cdc33239"}, {"lon": -77.02512883333333, "is_disabled": 0, "lat": 38.88033983333333, "fusion_lat": 0.0, "is_reserved": 0, "rental_uris": {"ios": "https://dc.lft.to/lastmile_qr_scan", "android": "https://dc.lft.to/lastmile_qr_scan"}, "fusion_lon": 0.0, "type": "electric_scooter", "bike_id": "2b3668159ef4ed38730a27a308ac5893", "name": "2b3668159ef4ed38730a27a308ac5893"}, {"lon": -77.00233183333333, "is_disabled": 0, "lat": 38.8851415, "fusion_lat": 0.0, "is_reserved": 0, "rental_uris": {"ios": "https://dc.lft.to/lastmile_qr_scan", "android": "https://dc.lft.to/lastmile_qr_scan"}, "fusion_lon": 0.0, "type": "electric_scooter", "bike_id": "53c69ef530535b928913aa303c2b3d9f", "name": "53c69ef530535b928913aa303c2b3d9f"}, {"lon": -77.024068, "is_disabled": 0, "lat": 38.89539033333333, "fusion_lat": 0.0, "is_reserved": 0, "rental_uris": {"ios": "https://dc.lft.to/lastmile_qr_scan", "android": "https://dc.lft.to/lastmile_qr_scan"}, "fusion_lon": 0.0, "type": "electric_scooter", "bike_id": "1d1f679293be616d2b7761670c2b4e31", "name": "1d1f679293be616d2b7761670c2b4e31"}, {"lon": -77.032449, "is_disabled": 0, "lat": 38.90148816666667, "fusion_lat": 0.0, "is_reserved": 0, "rental_uris": {"ios": "https://dc.lft.to/lastmile_qr_scan", "android": "https://dc.lft.to/lastmile_qr_scan"}, "fusion_lon": 0.0, "type": "electric_scooter", "bike_id": "7e8f41dd1ef9ba3b273857aba61378d1", "name": "7e8f41dd1ef9ba3b273857aba61378d1"}, {"lon": -77.11862983333333, "is_disabled": 0, "lat": 38.858945166666665, "fusion_lat": 0.0, "is_reserved": 0, "rental_uris": {"ios": "https://dc.lft.to/lastmile_qr_scan", "android": "https://dc.lft.to/lastmile_qr_scan"}, "fusion_lon": 0.0, "type": "electric_bike", "bike_id": "db20a31017dde7422140162ebc69c87b", "name": "db20a31017dde7422140162ebc69c87b"}, {"lon": -76.99494566666667, "is_disabled": 0, "lat": 38.88360216666667, "fusion_lat": 0.0, "is_reserved": 0, "rental_uris": {"ios": "https://dc.lft.to/lastmile_qr_scan", "android": "https://dc.lft.to/lastmile_qr_scan"}, "fusion_lon": 0.0, "type": "electric_bike", "bike_id": "530961205546fd88a9078bda12805c12", "name": "530961205546fd88a9078bda12805c12"}, {"lon": -77.02212383333334, "is_disabled": 0, "lat": 38.897511333333334, "fusion_lat": 0.0, "is_reserved": 0, "rental_uris": {"ios": "https://dc.lft.to/lastmile_qr_scan", "android": "https://dc.lft.to/lastmile_qr_scan"}, "fusion_lon": 0.0, "type": "electric_scooter", "bike_id": "07f11aeee90222fd4fe863d3670bff18", "name": "07f11aeee90222fd4fe863d3670bff18"}, {"lon": -77.04525333333333, "is_disabled": 0, "lat": 38.8996245, "fusion_lat": 0.0, "is_reserved": 0, "rental_uris": {"ios": "https://dc.lft.to/lastmile_qr_scan", "android": "https://dc.lft.to/lastmile_qr_scan"}, "fusion_lon": 0.0, "type": "electric_scooter", "bike_id": "135009d365272b18f7fd2895b564e491", "name": "135009d365272b18f7fd2895b564e491"}, {"lon": -77.04401183333333, "is_disabled": 0, "lat": 38.923525166666664, "fusion_lat": 0.0, "is_reserved": 0, "rental_uris": {"ios": "https://dc.lft.to/lastmile_qr_scan", "android": "https://dc.lft.to/lastmile_qr_scan"}, "fusion_lon": 0.0, "type": "electric_scooter", "bike_id": "a1d11c170cbfa5305a5a9506aceefd9b", "name": "a1d11c170cbfa5305a5a9506aceefd9b"}, {"lon": -77.0253245, "is_disabled": 0, "lat": 38.90653183333333, "fusion_lat": 0.0, "is_reserved": 0, "rental_uris": {"ios": "https://dc.lft.to/lastmile_qr_scan", "android": "https://dc.lft.to/lastmile_qr_scan"}, "fusion_lon": 0.0, "type": "electric_scooter", "bike_id": "5933d09c7c89f5a659c06e20df165924", "name": "5933d09c7c89f5a659c06e20df165924"}, {"lon": -77.03828816666666, "is_disabled": 0, "lat": 38.90333483333333, "fusion_lat": 0.0, "is_reserved": 0, "rental_uris": {"ios": "https://dc.lft.to/lastmile_qr_scan", "android": "https://dc.lft.to/lastmile_qr_scan"}, "fusion_lon": 0.0, "type": "electric_scooter", "bike_id": "57701b7f15c83b07d2e38c3f8c530991", "name": "57701b7f15c83b07d2e38c3f8c530991"}, {"lon": -77.03230366666666, "is_disabled": 0, "lat": 38.89728933333333, "fusion_lat": 0.0, "is_reserved": 0, "rental_uris": {"ios": "https://dc.lft.to/lastmile_qr_scan", "android": "https://dc.lft.to/lastmile_qr_scan"}, "fusion_lon": 0.0, "type": "electric_scooter", "bike_id": "d36faa497e35a4ad13a9d1b47d5ccc10", "name": "d36faa497e35a4ad13a9d1b47d5ccc10"}, {"lon": -77.05596433333334, "is_disabled": 0, "lat": 38.93703033333333, "fusion_lat": 0.0, "is_reserved": 0, "rental_uris": {"ios": "https://dc.lft.to/lastmile_qr_scan", "android": "https://dc.lft.to/lastmile_qr_scan"}, "fusion_lon": 0.0, "type": "electric_bike", "bike_id": "7acf3a8cbb3e2d5ed1a6b40c39be86af", "name": "7acf3a8cbb3e2d5ed1a6b40c39be86af"}, {"lon": -77.02300033333333, "is_disabled": 0, "lat": 38.914451, "fusion_lat": 0.0, "is_reserved": 0, "rental_uris": {"ios": "https://dc.lft.to/lastmile_qr_scan", "android": "https://dc.lft.to/lastmile_qr_scan"}, "fusion_lon": 0.0, "type": "electric_scooter", "bike_id": "2153429758cebfbddb98140cc4c731f3", "name": "2153429758cebfbddb98140cc4c731f3"}, {"lon": -77.00842183333333, "is_disabled": 0, "lat": 38.83169016666667, "fusion_lat": 0.0, "is_reserved": 0, "rental_uris": {"ios": "https://dc.lft.to/lastmile_qr_scan", "android": "https://dc.lft.to/lastmile_qr_scan"}, "fusion_lon": 0.0, "type": "electric_scooter", "bike_id": "4c4b16fb28162aff405cdc763c55d57d", "name": "4c4b16fb28162aff405cdc763c55d57d"}, {"lon": -76.96016433333334, "is_disabled": 0, "lat": 38.869341166666665, "fusion_lat": 0.0, "is_reserved": 0, "rental_uris": {"ios": "https://dc.lft.to/lastmile_qr_scan", "android": "https://dc.lft.to/lastmile_qr_scan"}, "fusion_lon": 0.0, "type": "electric_scooter", "bike_id": "a946d162decff8089becbced1f3bb2f4", "name": "a946d162decff8089becbced1f3bb2f4"}, {"lon": -77.019186, "is_disabled": 0, "lat": 38.9226105, "fusion_lat": 0.0, "is_reserved": 0, "rental_uris": {"ios": "https://dc.lft.to/lastmile_qr_scan", "android": "https://dc.lft.to/lastmile_qr_scan"}, "fusion_lon": 0.0, "type": "electric_scooter", "bike_id": "a0f3963b74a1a6c2322968cb0e5a9a7d", "name": "a0f3963b74a1a6c2322968cb0e5a9a7d"}, {"lon": -77.0039155, "is_disabled": 0, "lat": 38.84853116666667, "fusion_lat": 0.0, "is_reserved": 0, "rental_uris": {"ios": "https://dc.lft.to/lastmile_qr_scan", "android": "https://dc.lft.to/lastmile_qr_scan"}, "fusion_lon": 0.0, "type": "electric_scooter", "bike_id": "0142c67cc314ccc2969830d9e9865f70", "name": "0142c67cc314ccc2969830d9e9865f70"}, {"lon": -77.03429866666667, "is_disabled": 0, "lat": 38.927446833333335, "fusion_lat": 0.0, "is_reserved": 0, "rental_uris": {"ios": "https://dc.lft.to/lastmile_qr_scan", "android": "https://dc.lft.to/lastmile_qr_scan"}, "fusion_lon": 0.0, "type": "electric_scooter", "bike_id": "a3fe10dd60a9a9e64c21e9fe242c6699", "name": "a3fe10dd60a9a9e64c21e9fe242c6699"}, {"lon": -77.03882783333333, "is_disabled": 0, "lat": 38.9215505, "fusion_lat": 0.0, "is_reserved": 0, "rental_uris": {"ios": "https://dc.lft.to/lastmile_qr_scan", "android": "https://dc.lft.to/lastmile_qr_scan"}, "fusion_lon": 0.0, "type": "electric_scooter", "bike_id": "aac6fdce4b511ec45e44c325d06c434b", "name": "aac6fdce4b511ec45e44c325d06c434b"}, {"lon": -77.03461883333334, "is_disabled": 0, "lat": 38.917096, "fusion_lat": 0.0, "is_reserved": 0, "rental_uris": {"ios": "https://dc.lft.to/lastmile_qr_scan", "android": "https://dc.lft.to/lastmile_qr_scan"}, "fusion_lon": 0.0, "type": "electric_scooter", "bike_id": "aef05180ef2df7966742480c2b9b8e34", "name": "aef05180ef2df7966742480c2b9b8e34"}, {"lon": -77.03335816666667, "is_disabled": 0, "lat": 38.920574333333334, "fusion_lat": 0.0, "is_reserved": 0, "rental_uris": {"ios": "https://dc.lft.to/lastmile_qr_scan", "android": "https://dc.lft.to/lastmile_qr_scan"}, "fusion_lon": 0.0, "type": "electric_scooter", "bike_id": "f8e461eefc85c0864c061118ce64df50", "name": "f8e461eefc85c0864c061118ce64df50"}, {"lon": -77.03835016666666, "is_disabled": 0, "lat": 38.9106115, "fusion_lat": 0.0, "is_reserved": 0, "rental_uris": {"ios": "https://dc.lft.to/lastmile_qr_scan", "android": "https://dc.lft.to/lastmile_qr_scan"}, "fusion_lon": 0.0, "type": "electric_scooter", "bike_id": "035530599b69c3b63a60a9b00aed7c6e", "name": "035530599b69c3b63a60a9b00aed7c6e"}, {"lon": -77.04529133333334, "is_disabled": 0, "lat": 38.89471866666667, "fusion_lat": 0.0, "is_reserved": 0, "rental_uris": {"ios": "https://dc.lft.to/lastmile_qr_scan", "android": "https://dc.lft.to/lastmile_qr_scan"}, "fusion_lon": 0.0, "type": "electric_scooter", "bike_id": "813f80aaed70d22058a02fc70c5645c3", "name": "813f80aaed70d22058a02fc70c5645c3"}, {"lon": -77.03260483333334, "is_disabled": 0, "lat": 38.9292045, "fusion_lat": 0.0, "is_reserved": 0, "rental_uris": {"ios": "https://dc.lft.to/lastmile_qr_scan", "android": "https://dc.lft.to/lastmile_qr_scan"}, "fusion_lon": 0.0, "type": "electric_scooter", "bike_id": "8a3159aa38024d6dd2e72a0cfca3d62e", "name": "8a3159aa38024d6dd2e72a0cfca3d62e"}, {"lon": -77.01316266666667, "is_disabled": 0, "lat": 38.897116833333335, "fusion_lat": 0.0, "is_reserved": 0, "rental_uris": {"ios": "https://dc.lft.to/lastmile_qr_scan", "android": "https://dc.lft.to/lastmile_qr_scan"}, "fusion_lon": 0.0, "type": "electric_bike", "bike_id": "a25adfb4bbe4d0d119465f8df52e07db", "name": "a25adfb4bbe4d0d119465f8df52e07db"}, {"lon": -77.03951, "is_disabled": 0, "lat": 38.8985775, "fusion_lat": 0.0, "is_reserved": 0, "rental_uris": {"ios": "https://dc.lft.to/lastmile_qr_scan", "android": "https://dc.lft.to/lastmile_qr_scan"}, "fusion_lon": 0.0, "type": "electric_scooter", "bike_id": "85bfd7bed5ed2b33a8bf6ac67c125c28", "name": "85bfd7bed5ed2b33a8bf6ac67c125c28"}, {"lon": -77.05888483333334, "is_disabled": 0, "lat": 38.93637583333334, "fusion_lat": 0.0, "is_reserved": 0, "rental_uris": {"ios": "https://dc.lft.to/lastmile_qr_scan", "android": "https://dc.lft.to/lastmile_qr_scan"}, "fusion_lon": 0.0, "type": "electric_scooter", "bike_id": "ee606179f0c1d72ea0d5bcd7b7f08b43", "name": "ee606179f0c1d72ea0d5bcd7b7f08b43"}, {"lon": -77.086507, "is_disabled": 0, "lat": 38.80906933333333, "fusion_lat": 0.0, "is_reserved": 0, "rental_uris": {"ios": "https://dc.lft.to/lastmile_qr_scan", "android": "https://dc.lft.to/lastmile_qr_scan"}, "fusion_lon": 0.0, "type": "electric_bike", "bike_id": "3f768a4eb4d338b3d33a8e952b4ea596", "name": "3f768a4eb4d338b3d33a8e952b4ea596"}, {"lon": -77.04071283333333, "is_disabled": 0, "lat": 38.90254733333333, "fusion_lat": 0.0, "is_reserved": 0, "rental_uris": {"ios": "https://dc.lft.to/lastmile_qr_scan", "android": "https://dc.lft.to/lastmile_qr_scan"}, "fusion_lon": 0.0, "type": "electric_scooter", "bike_id": "90a0a81665f9f9b3f2535b35dc07f574", "name": "90a0a81665f9f9b3f2535b35dc07f574"}, {"lon": -76.98337966666666, "is_disabled": 0, "lat": 38.90096916666667, "fusion_lat": 0.0, "is_reserved": 0, "rental_uris": {"ios": "https://dc.lft.to/lastmile_qr_scan", "android": "https://dc.lft.to/lastmile_qr_scan"}, "fusion_lon": 0.0, "type": "electric_scooter", "bike_id": "bc791f5e3d9c6e0fdedf22cfe53d9544", "name": "bc791f5e3d9c6e0fdedf22cfe53d9544"}, {"lon": -77.0189375, "is_disabled": 0, "lat": 38.917621, "fusion_lat": 0.0, "is_reserved": 0, "rental_uris": {"ios": "https://dc.lft.to/lastmile_qr_scan", "android": "https://dc.lft.to/lastmile_qr_scan"}, "fusion_lon": 0.0, "type": "electric_bike", "bike_id": "0306bb98bb8c1f0d946de62d59fbaa3b", "name": "0306bb98bb8c1f0d946de62d59fbaa3b"}, {"lon": -77.04402816666666, "is_disabled": 0, "lat": 38.897528333333334, "fusion_lat": 0.0, "is_reserved": 0, "rental_uris": {"ios": "https://dc.lft.to/lastmile_qr_scan", "android": "https://dc.lft.to/lastmile_qr_scan"}, "fusion_lon": 0.0, "type": "electric_scooter", "bike_id": "d251b3bb13c604f481b78ab94e00264c", "name": "d251b3bb13c604f481b78ab94e00264c"}, {"lon": -76.95332683333334, "is_disabled": 0, "lat": 38.89243233333333, "fusion_lat": 0.0, "is_reserved": 0, "rental_uris": {"ios": "https://dc.lft.to/lastmile_qr_scan", "android": "https://dc.lft.to/lastmile_qr_scan"}, "fusion_lon": 0.0, "type": "electric_scooter", "bike_id": "a68a1ec8a57f63cd8b7fa58e5a4edc2b", "name": "a68a1ec8a57f63cd8b7fa58e5a4edc2b"}, {"lon": -77.01906683333333, "is_disabled": 0, "lat": 38.92342766666667, "fusion_lat": 0.0, "is_reserved": 0, "rental_uris": {"ios": "https://dc.lft.to/lastmile_qr_scan", "android": "https://dc.lft.to/lastmile_qr_scan"}, "fusion_lon": 0.0, "type": "electric_scooter", "bike_id": "72867bd026d9325d6697b2d375c9305b", "name": "72867bd026d9325d6697b2d375c9305b"}, {"lon": -76.9900835, "is_disabled": 0, "lat": 38.865054, "fusion_lat": 0.0, "is_reserved": 0, "rental_uris": {"ios": "https://dc.lft.to/lastmile_qr_scan", "android": "https://dc.lft.to/lastmile_qr_scan"}, "fusion_lon": 0.0, "type": "electric_scooter", "bike_id": "1ea555cc8efbef5baf2ff65eb216efc1", "name": "1ea555cc8efbef5baf2ff65eb216efc1"}, {"lon": -77.027786, "is_disabled": 0, "lat": 38.896234, "fusion_lat": 0.0, "is_reserved": 0, "rental_uris": {"ios": "https://dc.lft.to/lastmile_qr_scan", "android": "https://dc.lft.to/lastmile_qr_scan"}, "fusion_lon": 0.0, "type": "electric_scooter", "bike_id": "bda745ab60a18e546c2198c4dd4972c7", "name": "bda745ab60a18e546c2198c4dd4972c7"}, {"lon": -77.02168866666666, "is_disabled": 0, "lat": 38.914796, "fusion_lat": 0.0, "is_reserved": 0, "rental_uris": {"ios": "https://dc.lft.to/lastmile_qr_scan", "android": "https://dc.lft.to/lastmile_qr_scan"}, "fusion_lon": 0.0, "type": "electric_scooter", "bike_id": "085ae2418b352b3ef88fa434fb6935a7", "name": "085ae2418b352b3ef88fa434fb6935a7"}, {"lon": -77.05516066666667, "is_disabled": 0, "lat": 38.9153, "fusion_lat": 0.0, "is_reserved": 0, "rental_uris": {"ios": "https://dc.lft.to/lastmile_qr_scan", "android": "https://dc.lft.to/lastmile_qr_scan"}, "fusion_lon": 0.0, "type": "electric_scooter", "bike_id": "e4040eb8367cc888bca227d42ab32afd", "name": "e4040eb8367cc888bca227d42ab32afd"}, {"lon": -77.01231866666667, "is_disabled": 0, "lat": 38.87505183333333, "fusion_lat": 0.0, "is_reserved": 0, "rental_uris": {"ios": "https://dc.lft.to/lastmile_qr_scan", "android": "https://dc.lft.to/lastmile_qr_scan"}, "fusion_lon": 0.0, "type": "electric_scooter", "bike_id": "a7a4cd835453f27e33aee2632fb384bf", "name": "a7a4cd835453f27e33aee2632fb384bf"}, {"lon": -77.03159366666667, "is_disabled": 0, "lat": 38.918328333333335, "fusion_lat": 0.0, "is_reserved": 0, "rental_uris": {"ios": "https://dc.lft.to/lastmile_qr_scan", "android": "https://dc.lft.to/lastmile_qr_scan"}, "fusion_lon": 0.0, "type": "electric_scooter", "bike_id": "752a4da4998ea31384d7b7740618b8e4", "name": "752a4da4998ea31384d7b7740618b8e4"}, {"lon": -77.03394266666666, "is_disabled": 0, "lat": 38.938443666666664, "fusion_lat": 0.0, "is_reserved": 0, "rental_uris": {"ios": "https://dc.lft.to/lastmile_qr_scan", "android": "https://dc.lft.to/lastmile_qr_scan"}, "fusion_lon": 0.0, "type": "electric_scooter", "bike_id": "95436167cadcf9804d1e3deab011c8fa", "name": "95436167cadcf9804d1e3deab011c8fa"}, {"lon": -76.98054716666667, "is_disabled": 0, "lat": 38.88537066666667, "fusion_lat": 0.0, "is_reserved": 0, "rental_uris": {"ios": "https://dc.lft.to/lastmile_qr_scan", "android": "https://dc.lft.to/lastmile_qr_scan"}, "fusion_lon": 0.0, "type": "electric_scooter", "bike_id": "ead8b7b84b07de51031f7e07fc8cab15", "name": "ead8b7b84b07de51031f7e07fc8cab15"}, {"lon": -77.027636, "is_disabled": 0, "lat": 38.8959575, "fusion_lat": 0.0, "is_reserved": 0, "rental_uris": {"ios": "https://dc.lft.to/lastmile_qr_scan", "android": "https://dc.lft.to/lastmile_qr_scan"}, "fusion_lon": 0.0, "type": "electric_scooter", "bike_id": "e4ce83abc0792c2e7bc94d4790f67f6d", "name": "e4ce83abc0792c2e7bc94d4790f67f6d"}, {"lon": -77.04202516666666, "is_disabled": 0, "lat": 38.90383683333334, "fusion_lat": 0.0, "is_reserved": 0, "rental_uris": {"ios": "https://dc.lft.to/lastmile_qr_scan", "android": "https://dc.lft.to/lastmile_qr_scan"}, "fusion_lon": 0.0, "type": "electric_scooter", "bike_id": "6346c9f79320e2cfdd153fcace556818", "name": "6346c9f79320e2cfdd153fcace556818"}, {"lon": -77.045402, "is_disabled": 0, "lat": 38.9346325, "fusion_lat": 0.0, "is_reserved": 0, "rental_uris": {"ios": "https://dc.lft.to/lastmile_qr_scan", "android": "https://dc.lft.to/lastmile_qr_scan"}, "fusion_lon": 0.0, "type": "electric_scooter", "bike_id": "32e86b921ef5f953697005e85e88b55f", "name": "32e86b921ef5f953697005e85e88b55f"}, {"lon": -76.97224366666667, "is_disabled": 0, "lat": 38.90035983333333, "fusion_lat": 0.0, "is_reserved": 0, "rental_uris": {"ios": "https://dc.lft.to/lastmile_qr_scan", "android": "https://dc.lft.to/lastmile_qr_scan"}, "fusion_lon": 0.0, "type": "electric_bike", "bike_id": "36c57f379b09b47d39a7f9555b113f8b", "name": "36c57f379b09b47d39a7f9555b113f8b"}, {"lon": -77.04216433333333, "is_disabled": 0, "lat": 38.907342166666666, "fusion_lat": 0.0, "is_reserved": 0, "rental_uris": {"ios": "https://dc.lft.to/lastmile_qr_scan", "android": "https://dc.lft.to/lastmile_qr_scan"}, "fusion_lon": 0.0, "type": "electric_scooter", "bike_id": "267989a205ed91cb5a6efa317d9dc8c8", "name": "267989a205ed91cb5a6efa317d9dc8c8"}, {"lon": -77.03832616666666, "is_disabled": 0, "lat": 38.91966466666667, "fusion_lat": 0.0, "is_reserved": 0, "rental_uris": {"ios": "https://dc.lft.to/lastmile_qr_scan", "android": "https://dc.lft.to/lastmile_qr_scan"}, "fusion_lon": 0.0, "type": "electric_scooter", "bike_id": "85076aa82d3b5feea99adb4225e65982", "name": "85076aa82d3b5feea99adb4225e65982"}, {"lon": -76.94769916666667, "is_disabled": 0, "lat": 38.89627383333333, "fusion_lat": 0.0, "is_reserved": 0, "rental_uris": {"ios": "https://dc.lft.to/lastmile_qr_scan", "android": "https://dc.lft.to/lastmile_qr_scan"}, "fusion_lon": 0.0, "type": "electric_scooter", "bike_id": "5a92c298e6808d55c425db06fcd51cb4", "name": "5a92c298e6808d55c425db06fcd51cb4"}, {"lon": -77.04205333333333, "is_disabled": 0, "lat": 38.9225175, "fusion_lat": 0.0, "is_reserved": 0, "rental_uris": {"ios": "https://dc.lft.to/lastmile_qr_scan", "android": "https://dc.lft.to/lastmile_qr_scan"}, "fusion_lon": 0.0, "type": "electric_scooter", "bike_id": "04eb37e7dc3b59b19bebd985b6f6616a", "name": "04eb37e7dc3b59b19bebd985b6f6616a"}, {"lon": -77.0239635, "is_disabled": 0, "lat": 38.9070405, "fusion_lat": 0.0, "is_reserved": 0, "rental_uris": {"ios": "https://dc.lft.to/lastmile_qr_scan", "android": "https://dc.lft.to/lastmile_qr_scan"}, "fusion_lon": 0.0, "type": "electric_scooter", "bike_id": "c813980e3a4a9392f390648752f9213d", "name": "c813980e3a4a9392f390648752f9213d"}, {"lon": -77.02290733333334, "is_disabled": 0, "lat": 38.89518733333333, "fusion_lat": 0.0, "is_reserved": 0, "rental_uris": {"ios": "https://dc.lft.to/lastmile_qr_scan", "android": "https://dc.lft.to/lastmile_qr_scan"}, "fusion_lon": 0.0, "type": "electric_scooter", "bike_id": "d81edfa0ff184ef36a75f4e14b78c407", "name": "d81edfa0ff184ef36a75f4e14b78c407"}, {"lon": -77.03166483333334, "is_disabled": 0, "lat": 38.887451666666664, "fusion_lat": 0.0, "is_reserved": 0, "rental_uris": {"ios": "https://dc.lft.to/lastmile_qr_scan", "android": "https://dc.lft.to/lastmile_qr_scan"}, "fusion_lon": 0.0, "type": "electric_scooter", "bike_id": "8ab2ffde326dfcbbe7878eb14ad2c8b9", "name": "8ab2ffde326dfcbbe7878eb14ad2c8b9"}, {"lon": -77.04496516666667, "is_disabled": 0, "lat": 38.898323500000004, "fusion_lat": 0.0, "is_reserved": 0, "rental_uris": {"ios": "https://dc.lft.to/lastmile_qr_scan", "android": "https://dc.lft.to/lastmile_qr_scan"}, "fusion_lon": 0.0, "type": "electric_scooter", "bike_id": "e9a696ca951320bee621232f39b20a9f", "name": "e9a696ca951320bee621232f39b20a9f"}, {"lon": -77.0616495, "is_disabled": 0, "lat": 38.90530833333333, "fusion_lat": 0.0, "is_reserved": 0, "rental_uris": {"ios": "https://dc.lft.to/lastmile_qr_scan", "android": "https://dc.lft.to/lastmile_qr_scan"}, "fusion_lon": 0.0, "type": "electric_scooter", "bike_id": "ce50ed6736f7d4ce662d9076bc35c913", "name": "ce50ed6736f7d4ce662d9076bc35c913"}, {"lon": -77.02211183333333, "is_disabled": 0, "lat": 38.896194333333334, "fusion_lat": 0.0, "is_reserved": 0, "rental_uris": {"ios": "https://dc.lft.to/lastmile_qr_scan", "android": "https://dc.lft.to/lastmile_qr_scan"}, "fusion_lon": 0.0, "type": "electric_scooter", "bike_id": "ab31c75483b2401fde496f7b16db6366", "name": "ab31c75483b2401fde496f7b16db6366"}, {"lon": -77.02229483333333, "is_disabled": 0, "lat": 38.880288, "fusion_lat": 0.0, "is_reserved": 0, "rental_uris": {"ios": "https://dc.lft.to/lastmile_qr_scan", "android": "https://dc.lft.to/lastmile_qr_scan"}, "fusion_lon": 0.0, "type": "electric_scooter", "bike_id": "b3e085b0838d1d617f7e64520ad0fc9f", "name": "b3e085b0838d1d617f7e64520ad0fc9f"}, {"lon": -77.04989266666666, "is_disabled": 0, "lat": 38.89838433333333, "fusion_lat": 0.0, "is_reserved": 0, "rental_uris": {"ios": "https://dc.lft.to/lastmile_qr_scan", "android": "https://dc.lft.to/lastmile_qr_scan"}, "fusion_lon": 0.0, "type": "electric_scooter", "bike_id": "3debf4c40e1ab24adf9c7f0a1f472d59", "name": "3debf4c40e1ab24adf9c7f0a1f472d59"}, {"lon": -77.01256083333334, "is_disabled": 0, "lat": 38.908555166666666, "fusion_lat": 0.0, "is_reserved": 0, "rental_uris": {"ios": "https://dc.lft.to/lastmile_qr_scan", "android": "https://dc.lft.to/lastmile_qr_scan"}, "fusion_lon": 0.0, "type": "electric_scooter", "bike_id": "a188b5b29f89c7d245265187c36e06b6", "name": "a188b5b29f89c7d245265187c36e06b6"}, {"lon": -77.04381066666667, "is_disabled": 0, "lat": 38.92108133333333, "fusion_lat": 0.0, "is_reserved": 0, "rental_uris": {"ios": "https://dc.lft.to/lastmile_qr_scan", "android": "https://dc.lft.to/lastmile_qr_scan"}, "fusion_lon": 0.0, "type": "electric_scooter", "bike_id": "0476a8d66580d535d2d8c1311b0f0afd", "name": "0476a8d66580d535d2d8c1311b0f0afd"}, {"lon": -77.02484166666666, "is_disabled": 0, "lat": 38.93880983333333, "fusion_lat": 0.0, "is_reserved": 0, "rental_uris": {"ios": "https://dc.lft.to/lastmile_qr_scan", "android": "https://dc.lft.to/lastmile_qr_scan"}, "fusion_lon": 0.0, "type": "electric_scooter", "bike_id": "ec020f92bfd925b8979772d7d2cd8edc", "name": "ec020f92bfd925b8979772d7d2cd8edc"}, {"lon": -76.97630283333334, "is_disabled": 0, "lat": 38.90158066666667, "fusion_lat": 0.0, "is_reserved": 0, "rental_uris": {"ios": "https://dc.lft.to/lastmile_qr_scan", "android": "https://dc.lft.to/lastmile_qr_scan"}, "fusion_lon": 0.0, "type": "electric_scooter", "bike_id": "f1fcb5ad6903581859a18888f55d29ec", "name": "f1fcb5ad6903581859a18888f55d29ec"}, {"lon": -77.0175675, "is_disabled": 0, "lat": 38.8771615, "fusion_lat": 0.0, "is_reserved": 0, "rental_uris": {"ios": "https://dc.lft.to/lastmile_qr_scan", "android": "https://dc.lft.to/lastmile_qr_scan"}, "fusion_lon": 0.0, "type": "electric_scooter", "bike_id": "9af30fe88389a234e180ad2798eef957", "name": "9af30fe88389a234e180ad2798eef957"}, {"lon": -76.97969883333333, "is_disabled": 0, "lat": 38.953754333333336, "fusion_lat": 0.0, "is_reserved": 0, "rental_uris": {"ios": "https://dc.lft.to/lastmile_qr_scan", "android": "https://dc.lft.to/lastmile_qr_scan"}, "fusion_lon": 0.0, "type": "electric_bike", "bike_id": "51681f00884fe2fc3f7b89001dd8b0e6", "name": "51681f00884fe2fc3f7b89001dd8b0e6"}, {"lon": -77.03292766666667, "is_disabled": 0, "lat": 38.90965883333333, "fusion_lat": 0.0, "is_reserved": 0, "rental_uris": {"ios": "https://dc.lft.to/lastmile_qr_scan", "android": "https://dc.lft.to/lastmile_qr_scan"}, "fusion_lon": 0.0, "type": "electric_scooter", "bike_id": "5c577703978e614b3d77fd9d2dbbcb1a", "name": "5c577703978e614b3d77fd9d2dbbcb1a"}, {"lon": -77.00727066666667, "is_disabled": 0, "lat": 38.884948, "fusion_lat": 0.0, "is_reserved": 0, "rental_uris": {"ios": "https://dc.lft.to/lastmile_qr_scan", "android": "https://dc.lft.to/lastmile_qr_scan"}, "fusion_lon": 0.0, "type": "electric_scooter", "bike_id": "0957b7e1593379cd5b84e6a6cae32c10", "name": "0957b7e1593379cd5b84e6a6cae32c10"}, {"lon": -77.041012, "is_disabled": 0, "lat": 38.90881016666667, "fusion_lat": 0.0, "is_reserved": 0, "rental_uris": {"ios": "https://dc.lft.to/lastmile_qr_scan", "android": "https://dc.lft.to/lastmile_qr_scan"}, "fusion_lon": 0.0, "type": "electric_scooter", "bike_id": "6e357a8086975bfc128c839f0caa58e2", "name": "6e357a8086975bfc128c839f0caa58e2"}, {"lon": -76.96908033333334, "is_disabled": 0, "lat": 38.87296116666667, "fusion_lat": 0.0, "is_reserved": 0, "rental_uris": {"ios": "https://dc.lft.to/lastmile_qr_scan", "android": "https://dc.lft.to/lastmile_qr_scan"}, "fusion_lon": 0.0, "type": "electric_scooter", "bike_id": "ec6b151b2c433f8538aa82d160c1a707", "name": "ec6b151b2c433f8538aa82d160c1a707"}, {"lon": -77.0195165, "is_disabled": 0, "lat": 38.9225485, "fusion_lat": 0.0, "is_reserved": 0, "rental_uris": {"ios": "https://dc.lft.to/lastmile_qr_scan", "android": "https://dc.lft.to/lastmile_qr_scan"}, "fusion_lon": 0.0, "type": "electric_scooter", "bike_id": "a712200884bcb4f7d694ea7e77d9edfd", "name": "a712200884bcb4f7d694ea7e77d9edfd"}, {"lon": -77.04403966666666, "is_disabled": 0, "lat": 38.911219333333335, "fusion_lat": 0.0, "is_reserved": 0, "rental_uris": {"ios": "https://dc.lft.to/lastmile_qr_scan", "android": "https://dc.lft.to/lastmile_qr_scan"}, "fusion_lon": 0.0, "type": "electric_scooter", "bike_id": "cdfb1b3a9fe864638707299171e9c8bf", "name": "cdfb1b3a9fe864638707299171e9c8bf"}, {"lon": -77.0465035, "is_disabled": 0, "lat": 38.89829966666667, "fusion_lat": 0.0, "is_reserved": 0, "rental_uris": {"ios": "https://dc.lft.to/lastmile_qr_scan", "android": "https://dc.lft.to/lastmile_qr_scan"}, "fusion_lon": 0.0, "type": "electric_scooter", "bike_id": "9a7dea09590de1069413d698f0a0407b", "name": "9a7dea09590de1069413d698f0a0407b"}, {"lon": -77.0328965, "is_disabled": 0, "lat": 38.923645, "fusion_lat": 0.0, "is_reserved": 0, "rental_uris": {"ios": "https://dc.lft.to/lastmile_qr_scan", "android": "https://dc.lft.to/lastmile_qr_scan"}, "fusion_lon": 0.0, "type": "electric_scooter", "bike_id": "b09d09078ecf10f017399a154aa8feea", "name": "b09d09078ecf10f017399a154aa8feea"}, {"lon": -77.04533033333334, "is_disabled": 0, "lat": 38.9006825, "fusion_lat": 0.0, "is_reserved": 0, "rental_uris": {"ios": "https://dc.lft.to/lastmile_qr_scan", "android": "https://dc.lft.to/lastmile_qr_scan"}, "fusion_lon": 0.0, "type": "electric_scooter", "bike_id": "cf242ca3e355250cf8c0374c289385e3", "name": "cf242ca3e355250cf8c0374c289385e3"}, {"lon": -77.02200916666666, "is_disabled": 0, "lat": 38.911296666666665, "fusion_lat": 0.0, "is_reserved": 0, "rental_uris": {"ios": "https://dc.lft.to/lastmile_qr_scan", "android": "https://dc.lft.to/lastmile_qr_scan"}, "fusion_lon": 0.0, "type": "electric_scooter", "bike_id": "1cc01a9b3a3f09f552cf12142117c827", "name": "1cc01a9b3a3f09f552cf12142117c827"}, {"lon": -76.99630416666666, "is_disabled": 0, "lat": 38.900670166666664, "fusion_lat": 0.0, "is_reserved": 0, "rental_uris": {"ios": "https://dc.lft.to/lastmile_qr_scan", "android": "https://dc.lft.to/lastmile_qr_scan"}, "fusion_lon": 0.0, "type": "electric_scooter", "bike_id": "1c178a85f3993d3d9130e65ea23061cf", "name": "1c178a85f3993d3d9130e65ea23061cf"}, {"lon": -76.99636383333333, "is_disabled": 0, "lat": 38.9054005, "fusion_lat": 0.0, "is_reserved": 0, "rental_uris": {"ios": "https://dc.lft.to/lastmile_qr_scan", "android": "https://dc.lft.to/lastmile_qr_scan"}, "fusion_lon": 0.0, "type": "electric_scooter", "bike_id": "d88f371ee68dc0201747f1be0f7d68cb", "name": "d88f371ee68dc0201747f1be0f7d68cb"}, {"lon": -77.034675, "is_disabled": 0, "lat": 38.908780666666665, "fusion_lat": 0.0, "is_reserved": 0, "rental_uris": {"ios": "https://dc.lft.to/lastmile_qr_scan", "android": "https://dc.lft.to/lastmile_qr_scan"}, "fusion_lon": 0.0, "type": "electric_scooter", "bike_id": "4679ffb383f4ba8850582e710ee6b07c", "name": "4679ffb383f4ba8850582e710ee6b07c"}, {"lon": -76.99739266666667, "is_disabled": 0, "lat": 39.042365, "fusion_lat": 0.0, "is_reserved": 0, "rental_uris": {"ios": "https://dc.lft.to/lastmile_qr_scan", "android": "https://dc.lft.to/lastmile_qr_scan"}, "fusion_lon": 0.0, "type": "electric_bike", "bike_id": "12045170051c19bb352e20654a35f3e7", "name": "12045170051c19bb352e20654a35f3e7"}, {"lon": -77.01780966666666, "is_disabled": 0, "lat": 38.87708966666667, "fusion_lat": 0.0, "is_reserved": 0, "rental_uris": {"ios": "https://dc.lft.to/lastmile_qr_scan", "android": "https://dc.lft.to/lastmile_qr_scan"}, "fusion_lon": 0.0, "type": "electric_scooter", "bike_id": "a348db938c43df53aad3660b153ef21d", "name": "a348db938c43df53aad3660b153ef21d"}, {"lon": -77.03182433333333, "is_disabled": 0, "lat": 38.91742566666667, "fusion_lat": 0.0, "is_reserved": 0, "rental_uris": {"ios": "https://dc.lft.to/lastmile_qr_scan", "android": "https://dc.lft.to/lastmile_qr_scan"}, "fusion_lon": 0.0, "type": "electric_scooter", "bike_id": "8749eccbb41c1bd283c308f7f57ff3ed", "name": "8749eccbb41c1bd283c308f7f57ff3ed"}, {"lon": -77.00577516666667, "is_disabled": 0, "lat": 38.90035683333333, "fusion_lat": 0.0, "is_reserved": 0, "rental_uris": {"ios": "https://dc.lft.to/lastmile_qr_scan", "android": "https://dc.lft.to/lastmile_qr_scan"}, "fusion_lon": 0.0, "type": "electric_scooter", "bike_id": "d39c0157c721a152ac3f80667fad2bcc", "name": "d39c0157c721a152ac3f80667fad2bcc"}, {"lon": -77.02135833333334, "is_disabled": 0, "lat": 38.923413333333336, "fusion_lat": 0.0, "is_reserved": 0, "rental_uris": {"ios": "https://dc.lft.to/lastmile_qr_scan", "android": "https://dc.lft.to/lastmile_qr_scan"}, "fusion_lon": 0.0, "type": "electric_scooter", "bike_id": "914a1022ecfe0385030a3d1230dc2d7e", "name": "914a1022ecfe0385030a3d1230dc2d7e"}, {"lon": -77.011948, "is_disabled": 0, "lat": 38.9157495, "fusion_lat": 0.0, "is_reserved": 0, "rental_uris": {"ios": "https://dc.lft.to/lastmile_qr_scan", "android": "https://dc.lft.to/lastmile_qr_scan"}, "fusion_lon": 0.0, "type": "electric_scooter", "bike_id": "1fee2001dc0bf1592395d4cbb2926109", "name": "1fee2001dc0bf1592395d4cbb2926109"}, {"lon": -77.03406166666667, "is_disabled": 0, "lat": 38.9111445, "fusion_lat": 0.0, "is_reserved": 0, "rental_uris": {"ios": "https://dc.lft.to/lastmile_qr_scan", "android": "https://dc.lft.to/lastmile_qr_scan"}, "fusion_lon": 0.0, "type": "electric_scooter", "bike_id": "4c664e61f16536cbde2b1282d737f5e9", "name": "4c664e61f16536cbde2b1282d737f5e9"}, {"lon": -77.06045566666667, "is_disabled": 0, "lat": 38.939256666666665, "fusion_lat": 0.0, "is_reserved": 0, "rental_uris": {"ios": "https://dc.lft.to/lastmile_qr_scan", "android": "https://dc.lft.to/lastmile_qr_scan"}, "fusion_lon": 0.0, "type": "electric_scooter", "bike_id": "a38a83a428269b2121115ef9780731e2", "name": "a38a83a428269b2121115ef9780731e2"}, {"lon": -77.0285805, "is_disabled": 0, "lat": 39.037017166666665, "fusion_lat": 0.0, "is_reserved": 0, "rental_uris": {"ios": "https://dc.lft.to/lastmile_qr_scan", "android": "https://dc.lft.to/lastmile_qr_scan"}, "fusion_lon": 0.0, "type": "electric_bike", "bike_id": "30e1303e4b6ab344d45ee5b4e609e067", "name": "30e1303e4b6ab344d45ee5b4e609e067"}, {"lon": -77.019095, "is_disabled": 0, "lat": 38.9377695, "fusion_lat": 0.0, "is_reserved": 0, "rental_uris": {"ios": "https://dc.lft.to/lastmile_qr_scan", "android": "https://dc.lft.to/lastmile_qr_scan"}, "fusion_lon": 0.0, "type": "electric_bike", "bike_id": "27a8970a1d9bfe696f55f505618e5af9", "name": "27a8970a1d9bfe696f55f505618e5af9"}, {"lon": -77.08096316666666, "is_disabled": 0, "lat": 38.95100866666667, "fusion_lat": 0.0, "is_reserved": 0, "rental_uris": {"ios": "https://dc.lft.to/lastmile_qr_scan", "android": "https://dc.lft.to/lastmile_qr_scan"}, "fusion_lon": 0.0, "type": "electric_bike", "bike_id": "3f111ab9001f45e86df415fb396b4495", "name": "3f111ab9001f45e86df415fb396b4495"}, {"lon": -76.9878985, "is_disabled": 0, "lat": 38.9123615, "fusion_lat": 0.0, "is_reserved": 0, "rental_uris": {"ios": "https://dc.lft.to/lastmile_qr_scan", "android": "https://dc.lft.to/lastmile_qr_scan"}, "fusion_lon": 0.0, "type": "electric_scooter", "bike_id": "a07d50fc47af8c80661cdc8e2efd99a6", "name": "a07d50fc47af8c80661cdc8e2efd99a6"}, {"lon": -77.02614116666666, "is_disabled": 0, "lat": 38.9141385, "fusion_lat": 0.0, "is_reserved": 0, "rental_uris": {"ios": "https://dc.lft.to/lastmile_qr_scan", "android": "https://dc.lft.to/lastmile_qr_scan"}, "fusion_lon": 0.0, "type": "electric_scooter", "bike_id": "21b6708e1617833cbd0f30d06f4ccb05", "name": "21b6708e1617833cbd0f30d06f4ccb05"}, {"lon": -77.04835416666667, "is_disabled": 0, "lat": 38.89841666666667, "fusion_lat": 0.0, "is_reserved": 0, "rental_uris": {"ios": "https://dc.lft.to/lastmile_qr_scan", "android": "https://dc.lft.to/lastmile_qr_scan"}, "fusion_lon": 0.0, "type": "electric_scooter", "bike_id": "aeaa901823bcf2d75a21104dd60c47bf", "name": "aeaa901823bcf2d75a21104dd60c47bf"}, {"lon": -77.006426, "is_disabled": 0, "lat": 38.9009895, "fusion_lat": 0.0, "is_reserved": 0, "rental_uris": {"ios": "https://dc.lft.to/lastmile_qr_scan", "android": "https://dc.lft.to/lastmile_qr_scan"}, "fusion_lon": 0.0, "type": "electric_scooter", "bike_id": "6938d1ec6d0b1234069409457e50f117", "name": "6938d1ec6d0b1234069409457e50f117"}, {"lon": -77.01615533333333, "is_disabled": 0, "lat": 38.89919966666667, "fusion_lat": 0.0, "is_reserved": 0, "rental_uris": {"ios": "https://dc.lft.to/lastmile_qr_scan", "android": "https://dc.lft.to/lastmile_qr_scan"}, "fusion_lon": 0.0, "type": "electric_scooter", "bike_id": "4920eb8b3c6720daed89f98b6751a92a", "name": "4920eb8b3c6720daed89f98b6751a92a"}, {"lon": -77.02292316666667, "is_disabled": 0, "lat": 38.915925666666666, "fusion_lat": 0.0, "is_reserved": 0, "rental_uris": {"ios": "https://dc.lft.to/lastmile_qr_scan", "android": "https://dc.lft.to/lastmile_qr_scan"}, "fusion_lon": 0.0, "type": "electric_scooter", "bike_id": "4b74d740d0ccd3418087d5eab520a969", "name": "4b74d740d0ccd3418087d5eab520a969"}, {"lon": -77.06400216666667, "is_disabled": 0, "lat": 38.944218166666666, "fusion_lat": 0.0, "is_reserved": 0, "rental_uris": {"ios": "https://dc.lft.to/lastmile_qr_scan", "android": "https://dc.lft.to/lastmile_qr_scan"}, "fusion_lon": 0.0, "type": "electric_scooter", "bike_id": "113aeb37bbcfbf1f54a3df2b97445314", "name": "113aeb37bbcfbf1f54a3df2b97445314"}, {"lon": -77.00067683333333, "is_disabled": 0, "lat": 38.90040333333334, "fusion_lat": 0.0, "is_reserved": 0, "rental_uris": {"ios": "https://dc.lft.to/lastmile_qr_scan", "android": "https://dc.lft.to/lastmile_qr_scan"}, "fusion_lon": 0.0, "type": "electric_scooter", "bike_id": "0355249b802b4c6ae1676d9b745d3beb", "name": "0355249b802b4c6ae1676d9b745d3beb"}, {"lon": -76.98236383333334, "is_disabled": 0, "lat": 38.9088855, "fusion_lat": 0.0, "is_reserved": 0, "rental_uris": {"ios": "https://dc.lft.to/lastmile_qr_scan", "android": "https://dc.lft.to/lastmile_qr_scan"}, "fusion_lon": 0.0, "type": "electric_scooter", "bike_id": "2c40e12dd48295891133e9be0d5d184e", "name": "2c40e12dd48295891133e9be0d5d184e"}, {"lon": -77.03832566666667, "is_disabled": 0, "lat": 38.91115033333333, "fusion_lat": 0.0, "is_reserved": 0, "rental_uris": {"ios": "https://dc.lft.to/lastmile_qr_scan", "android": "https://dc.lft.to/lastmile_qr_scan"}, "fusion_lon": 0.0, "type": "electric_scooter", "bike_id": "6ba73a9f72c19abb3f826c9bf31103a5", "name": "6ba73a9f72c19abb3f826c9bf31103a5"}, {"lon": -77.02756266666667, "is_disabled": 0, "lat": 38.917040666666665, "fusion_lat": 0.0, "is_reserved": 0, "rental_uris": {"ios": "https://dc.lft.to/lastmile_qr_scan", "android": "https://dc.lft.to/lastmile_qr_scan"}, "fusion_lon": 0.0, "type": "electric_scooter", "bike_id": "bf641a6e14d3f356d986b7c9afbff568", "name": "bf641a6e14d3f356d986b7c9afbff568"}, {"lon": -77.00717466666667, "is_disabled": 0, "lat": 38.8849365, "fusion_lat": 0.0, "is_reserved": 0, "rental_uris": {"ios": "https://dc.lft.to/lastmile_qr_scan", "android": "https://dc.lft.to/lastmile_qr_scan"}, "fusion_lon": 0.0, "type": "electric_scooter", "bike_id": "25c3f0bfbc99755170bd5f205a1c4f3d", "name": "25c3f0bfbc99755170bd5f205a1c4f3d"}, {"lon": -77.01885983333334, "is_disabled": 0, "lat": 38.93990566666667, "fusion_lat": 0.0, "is_reserved": 0, "rental_uris": {"ios": "https://dc.lft.to/lastmile_qr_scan", "android": "https://dc.lft.to/lastmile_qr_scan"}, "fusion_lon": 0.0, "type": "electric_scooter", "bike_id": "d8bf64046ffac4399a8e2823b48d965c", "name": "d8bf64046ffac4399a8e2823b48d965c"}, {"lon": -77.024084, "is_disabled": 0, "lat": 38.91403733333333, "fusion_lat": 0.0, "is_reserved": 0, "rental_uris": {"ios": "https://dc.lft.to/lastmile_qr_scan", "android": "https://dc.lft.to/lastmile_qr_scan"}, "fusion_lon": 0.0, "type": "electric_scooter", "bike_id": "95f96216d6c70bd5e4304ec09c295d4f", "name": "95f96216d6c70bd5e4304ec09c295d4f"}, {"lon": -77.0062535, "is_disabled": 0, "lat": 38.871742, "fusion_lat": 0.0, "is_reserved": 0, "rental_uris": {"ios": "https://dc.lft.to/lastmile_qr_scan", "android": "https://dc.lft.to/lastmile_qr_scan"}, "fusion_lon": 0.0, "type": "electric_scooter", "bike_id": "62edb6e398ac74a3be7a78bfcd9d6045", "name": "62edb6e398ac74a3be7a78bfcd9d6045"}, {"lon": -77.03176166666667, "is_disabled": 0, "lat": 38.914180333333334, "fusion_lat": 0.0, "is_reserved": 0, "rental_uris": {"ios": "https://dc.lft.to/lastmile_qr_scan", "android": "https://dc.lft.to/lastmile_qr_scan"}, "fusion_lon": 0.0, "type": "electric_scooter", "bike_id": "4de04666e9da526a76b11651265dab06", "name": "4de04666e9da526a76b11651265dab06"}, {"lon": -77.03973666666667, "is_disabled": 0, "lat": 38.90205683333333, "fusion_lat": 0.0, "is_reserved": 0, "rental_uris": {"ios": "https://dc.lft.to/lastmile_qr_scan", "android": "https://dc.lft.to/lastmile_qr_scan"}, "fusion_lon": 0.0, "type": "electric_bike", "bike_id": "9eea644a044a74a90a37f8564830899a", "name": "9eea644a044a74a90a37f8564830899a"}, {"lon": -76.95186766666667, "is_disabled": 0, "lat": 38.8913475, "fusion_lat": 0.0, "is_reserved": 0, "rental_uris": {"ios": "https://dc.lft.to/lastmile_qr_scan", "android": "https://dc.lft.to/lastmile_qr_scan"}, "fusion_lon": 0.0, "type": "electric_scooter", "bike_id": "ec0968c84a23d8232e214496310e7f98", "name": "ec0968c84a23d8232e214496310e7f98"}, {"lon": -77.00940516666667, "is_disabled": 0, "lat": 38.8965255, "fusion_lat": 0.0, "is_reserved": 0, "rental_uris": {"ios": "https://dc.lft.to/lastmile_qr_scan", "android": "https://dc.lft.to/lastmile_qr_scan"}, "fusion_lon": 0.0, "type": "electric_scooter", "bike_id": "c5361da9df315220992869c60d0ba89f", "name": "c5361da9df315220992869c60d0ba89f"}, {"lon": -77.02955283333333, "is_disabled": 0, "lat": 38.922604666666665, "fusion_lat": 0.0, "is_reserved": 0, "rental_uris": {"ios": "https://dc.lft.to/lastmile_qr_scan", "android": "https://dc.lft.to/lastmile_qr_scan"}, "fusion_lon": 0.0, "type": "electric_scooter", "bike_id": "252e6bab17b73864cb3cd0dba435ff8f", "name": "252e6bab17b73864cb3cd0dba435ff8f"}, {"lon": -77.04292383333333, "is_disabled": 0, "lat": 38.9065645, "fusion_lat": 0.0, "is_reserved": 0, "rental_uris": {"ios": "https://dc.lft.to/lastmile_qr_scan", "android": "https://dc.lft.to/lastmile_qr_scan"}, "fusion_lon": 0.0, "type": "electric_scooter", "bike_id": "65fa506bcf076968fe37983c665b6d73", "name": "65fa506bcf076968fe37983c665b6d73"}, {"lon": -77.04034533333333, "is_disabled": 0, "lat": 38.90597316666667, "fusion_lat": 0.0, "is_reserved": 0, "rental_uris": {"ios": "https://dc.lft.to/lastmile_qr_scan", "android": "https://dc.lft.to/lastmile_qr_scan"}, "fusion_lon": 0.0, "type": "electric_scooter", "bike_id": "93e46321c13ea116b1f5cc77150c9b98", "name": "93e46321c13ea116b1f5cc77150c9b98"}, {"lon": -77.05089033333333, "is_disabled": 0, "lat": 38.923558666666665, "fusion_lat": 0.0, "is_reserved": 0, "rental_uris": {"ios": "https://dc.lft.to/lastmile_qr_scan", "android": "https://dc.lft.to/lastmile_qr_scan"}, "fusion_lon": 0.0, "type": "electric_scooter", "bike_id": "979acc1c1a1efa34869b06802993c585", "name": "979acc1c1a1efa34869b06802993c585"}, {"lon": -77.0337465, "is_disabled": 0, "lat": 38.92162783333333, "fusion_lat": 0.0, "is_reserved": 0, "rental_uris": {"ios": "https://dc.lft.to/lastmile_qr_scan", "android": "https://dc.lft.to/lastmile_qr_scan"}, "fusion_lon": 0.0, "type": "electric_scooter", "bike_id": "a66364a665f63d0edacd27f2687732ab", "name": "a66364a665f63d0edacd27f2687732ab"}, {"lon": -77.00066483333333, "is_disabled": 0, "lat": 38.8769, "fusion_lat": 0.0, "is_reserved": 0, "rental_uris": {"ios": "https://dc.lft.to/lastmile_qr_scan", "android": "https://dc.lft.to/lastmile_qr_scan"}, "fusion_lon": 0.0, "type": "electric_scooter", "bike_id": "15f32e02281532462a69bdd874699956", "name": "15f32e02281532462a69bdd874699956"}, {"lon": -77.04453583333333, "is_disabled": 0, "lat": 38.897333833333334, "fusion_lat": 0.0, "is_reserved": 0, "rental_uris": {"ios": "https://dc.lft.to/lastmile_qr_scan", "android": "https://dc.lft.to/lastmile_qr_scan"}, "fusion_lon": 0.0, "type": "electric_scooter", "bike_id": "3244654dca5783aa323b780790466298", "name": "3244654dca5783aa323b780790466298"}, {"lon": -77.0344375, "is_disabled": 0, "lat": 38.904526, "fusion_lat": 0.0, "is_reserved": 0, "rental_uris": {"ios": "https://dc.lft.to/lastmile_qr_scan", "android": "https://dc.lft.to/lastmile_qr_scan"}, "fusion_lon": 0.0, "type": "electric_scooter", "bike_id": "b5bd4754487dda13ee167df4013d932f", "name": "b5bd4754487dda13ee167df4013d932f"}, {"lon": -77.02390333333334, "is_disabled": 0, "lat": 38.91146, "fusion_lat": 0.0, "is_reserved": 0, "rental_uris": {"ios": "https://dc.lft.to/lastmile_qr_scan", "android": "https://dc.lft.to/lastmile_qr_scan"}, "fusion_lon": 0.0, "type": "electric_scooter", "bike_id": "8ed73b9c0d9a0ed163101080de6ae812", "name": "8ed73b9c0d9a0ed163101080de6ae812"}, {"lon": -77.02399833333334, "is_disabled": 0, "lat": 38.898495, "fusion_lat": 0.0, "is_reserved": 0, "rental_uris": {"ios": "https://dc.lft.to/lastmile_qr_scan", "android": "https://dc.lft.to/lastmile_qr_scan"}, "fusion_lon": 0.0, "type": "electric_scooter", "bike_id": "27dfc6c0ccd4a2b498c541f9aa123b3e", "name": "27dfc6c0ccd4a2b498c541f9aa123b3e"}, {"lon": -77.003385, "is_disabled": 0, "lat": 38.89364116666667, "fusion_lat": 0.0, "is_reserved": 0, "rental_uris": {"ios": "https://dc.lft.to/lastmile_qr_scan", "android": "https://dc.lft.to/lastmile_qr_scan"}, "fusion_lon": 0.0, "type": "electric_scooter", "bike_id": "450119f0a74d60b12d83c959a89e4826", "name": "450119f0a74d60b12d83c959a89e4826"}, {"lon": -77.04141, "is_disabled": 0, "lat": 38.91684933333333, "fusion_lat": 0.0, "is_reserved": 0, "rental_uris": {"ios": "https://dc.lft.to/lastmile_qr_scan", "android": "https://dc.lft.to/lastmile_qr_scan"}, "fusion_lon": 0.0, "type": "electric_scooter", "bike_id": "e375ad7908564cb9c9e4ed20aa196c4d", "name": "e375ad7908564cb9c9e4ed20aa196c4d"}, {"lon": -77.07271016666667, "is_disabled": 0, "lat": 38.934845, "fusion_lat": 0.0, "is_reserved": 0, "rental_uris": {"ios": "https://dc.lft.to/lastmile_qr_scan", "android": "https://dc.lft.to/lastmile_qr_scan"}, "fusion_lon": 0.0, "type": "electric_scooter", "bike_id": "47164f167b3070462ac11f5045a91df5", "name": "47164f167b3070462ac11f5045a91df5"}, {"lon": -77.02160333333333, "is_disabled": 0, "lat": 38.92512166666667, "fusion_lat": 0.0, "is_reserved": 0, "rental_uris": {"ios": "https://dc.lft.to/lastmile_qr_scan", "android": "https://dc.lft.to/lastmile_qr_scan"}, "fusion_lon": 0.0, "type": "electric_scooter", "bike_id": "1551dede02d1b99a3d82a60fc4252cd1", "name": "1551dede02d1b99a3d82a60fc4252cd1"}, {"lon": -77.02503233333333, "is_disabled": 0, "lat": 38.941864333333335, "fusion_lat": 0.0, "is_reserved": 0, "rental_uris": {"ios": "https://dc.lft.to/lastmile_qr_scan", "android": "https://dc.lft.to/lastmile_qr_scan"}, "fusion_lon": 0.0, "type": "electric_scooter", "bike_id": "74aade255a846ac3e5f9ab57a6572da3", "name": "74aade255a846ac3e5f9ab57a6572da3"}, {"lon": -76.995013, "is_disabled": 0, "lat": 38.86248783333333, "fusion_lat": 0.0, "is_reserved": 0, "rental_uris": {"ios": "https://dc.lft.to/lastmile_qr_scan", "android": "https://dc.lft.to/lastmile_qr_scan"}, "fusion_lon": 0.0, "type": "electric_scooter", "bike_id": "4bef92d2e3fea08280dcbf1bfeb8fda2", "name": "4bef92d2e3fea08280dcbf1bfeb8fda2"}, {"lon": -77.03554983333333, "is_disabled": 0, "lat": 38.91276366666666, "fusion_lat": 0.0, "is_reserved": 0, "rental_uris": {"ios": "https://dc.lft.to/lastmile_qr_scan", "android": "https://dc.lft.to/lastmile_qr_scan"}, "fusion_lon": 0.0, "type": "electric_scooter", "bike_id": "72882358df0ab79c35be728ac437b6ec", "name": "72882358df0ab79c35be728ac437b6ec"}, {"lon": -77.02387516666667, "is_disabled": 0, "lat": 38.9069405, "fusion_lat": 0.0, "is_reserved": 0, "rental_uris": {"ios": "https://dc.lft.to/lastmile_qr_scan", "android": "https://dc.lft.to/lastmile_qr_scan"}, "fusion_lon": 0.0, "type": "electric_scooter", "bike_id": "ba92f551f3ea2d6f960bb93b5c73eca7", "name": "ba92f551f3ea2d6f960bb93b5c73eca7"}, {"lon": -77.00681933333334, "is_disabled": 0, "lat": 38.87174666666667, "fusion_lat": 0.0, "is_reserved": 0, "rental_uris": {"ios": "https://dc.lft.to/lastmile_qr_scan", "android": "https://dc.lft.to/lastmile_qr_scan"}, "fusion_lon": 0.0, "type": "electric_scooter", "bike_id": "d5aec6a7ce63c9e33e096601eeb8754f", "name": "d5aec6a7ce63c9e33e096601eeb8754f"}, {"lon": -77.0453915, "is_disabled": 0, "lat": 38.907485333333334, "fusion_lat": 0.0, "is_reserved": 0, "rental_uris": {"ios": "https://dc.lft.to/lastmile_qr_scan", "android": "https://dc.lft.to/lastmile_qr_scan"}, "fusion_lon": 0.0, "type": "electric_scooter", "bike_id": "2cc2fff1eaa3bf0f5088f952881712cb", "name": "2cc2fff1eaa3bf0f5088f952881712cb"}, {"lon": -76.99304183333334, "is_disabled": 0, "lat": 38.9076835, "fusion_lat": 0.0, "is_reserved": 0, "rental_uris": {"ios": "https://dc.lft.to/lastmile_qr_scan", "android": "https://dc.lft.to/lastmile_qr_scan"}, "fusion_lon": 0.0, "type": "electric_scooter", "bike_id": "3c9a19c9ea1a239db284714ba63b434f", "name": "3c9a19c9ea1a239db284714ba63b434f"}, {"lon": -77.02389483333333, "is_disabled": 0, "lat": 38.894555833333335, "fusion_lat": 0.0, "is_reserved": 0, "rental_uris": {"ios": "https://dc.lft.to/lastmile_qr_scan", "android": "https://dc.lft.to/lastmile_qr_scan"}, "fusion_lon": 0.0, "type": "electric_scooter", "bike_id": "e0779c1c7bcf10e3bcedef92ad385350", "name": "e0779c1c7bcf10e3bcedef92ad385350"}, {"lon": -77.0368035, "is_disabled": 0, "lat": 38.922653833333335, "fusion_lat": 0.0, "is_reserved": 0, "rental_uris": {"ios": "https://dc.lft.to/lastmile_qr_scan", "android": "https://dc.lft.to/lastmile_qr_scan"}, "fusion_lon": 0.0, "type": "electric_scooter", "bike_id": "1d87bdc1d94504d88c15018a3a0c8c21", "name": "1d87bdc1d94504d88c15018a3a0c8c21"}, {"lon": -77.02417583333333, "is_disabled": 0, "lat": 38.909732, "fusion_lat": 0.0, "is_reserved": 0, "rental_uris": {"ios": "https://dc.lft.to/lastmile_qr_scan", "android": "https://dc.lft.to/lastmile_qr_scan"}, "fusion_lon": 0.0, "type": "electric_scooter", "bike_id": "f032a438e84801ded2ef9270602cdfbf", "name": "f032a438e84801ded2ef9270602cdfbf"}, {"lon": -77.04045433333333, "is_disabled": 0, "lat": 38.908737, "fusion_lat": 0.0, "is_reserved": 0, "rental_uris": {"ios": "https://dc.lft.to/lastmile_qr_scan", "android": "https://dc.lft.to/lastmile_qr_scan"}, "fusion_lon": 0.0, "type": "electric_scooter", "bike_id": "3063ab2501d778ca0d251158836b2247", "name": "3063ab2501d778ca0d251158836b2247"}, {"lon": -77.00632733333333, "is_disabled": 0, "lat": 38.87179, "fusion_lat": 0.0, "is_reserved": 0, "rental_uris": {"ios": "https://dc.lft.to/lastmile_qr_scan", "android": "https://dc.lft.to/lastmile_qr_scan"}, "fusion_lon": 0.0, "type": "electric_scooter", "bike_id": "2c7a7669d6da15d53bf5180cd0a75a41", "name": "2c7a7669d6da15d53bf5180cd0a75a41"}, {"lon": -76.9761285, "is_disabled": 0, "lat": 38.90344783333333, "fusion_lat": 0.0, "is_reserved": 0, "rental_uris": {"ios": "https://dc.lft.to/lastmile_qr_scan", "android": "https://dc.lft.to/lastmile_qr_scan"}, "fusion_lon": 0.0, "type": "electric_scooter", "bike_id": "0a5124beb3c66466fc0f0046253ed0f9", "name": "0a5124beb3c66466fc0f0046253ed0f9"}, {"lon": -77.03403933333334, "is_disabled": 0, "lat": 38.92441766666666, "fusion_lat": 0.0, "is_reserved": 0, "rental_uris": {"ios": "https://dc.lft.to/lastmile_qr_scan", "android": "https://dc.lft.to/lastmile_qr_scan"}, "fusion_lon": 0.0, "type": "electric_scooter", "bike_id": "3f25717657848512d558238ec8ac580a", "name": "3f25717657848512d558238ec8ac580a"}, {"lon": -77.139339, "is_disabled": 0, "lat": 38.873057333333335, "fusion_lat": 0.0, "is_reserved": 0, "rental_uris": {"ios": "https://dc.lft.to/lastmile_qr_scan", "android": "https://dc.lft.to/lastmile_qr_scan"}, "fusion_lon": 0.0, "type": "electric_bike", "bike_id": "0916c1e5b6df8c1911c4519c0f054c19", "name": "0916c1e5b6df8c1911c4519c0f054c19"}, {"lon": -77.04835483333333, "is_disabled": 0, "lat": 38.898368, "fusion_lat": 0.0, "is_reserved": 0, "rental_uris": {"ios": "https://dc.lft.to/lastmile_qr_scan", "android": "https://dc.lft.to/lastmile_qr_scan"}, "fusion_lon": 0.0, "type": "electric_scooter", "bike_id": "c0a1cf14b6bbab76759fbfcd475f1590", "name": "c0a1cf14b6bbab76759fbfcd475f1590"}, {"lon": -77.0602005, "is_disabled": 0, "lat": 38.90507866666667, "fusion_lat": 0.0, "is_reserved": 0, "rental_uris": {"ios": "https://dc.lft.to/lastmile_qr_scan", "android": "https://dc.lft.to/lastmile_qr_scan"}, "fusion_lon": 0.0, "type": "electric_bike", "bike_id": "7b9523d1f2c34966ec9bb1655dbbb0d2", "name": "7b9523d1f2c34966ec9bb1655dbbb0d2"}, {"lon": -77.0254155, "is_disabled": 0, "lat": 38.892305, "fusion_lat": 0.0, "is_reserved": 0, "rental_uris": {"ios": "https://dc.lft.to/lastmile_qr_scan", "android": "https://dc.lft.to/lastmile_qr_scan"}, "fusion_lon": 0.0, "type": "electric_scooter", "bike_id": "c7f52b84865b9458b9c370d1614129b1", "name": "c7f52b84865b9458b9c370d1614129b1"}, {"lon": -77.027284, "is_disabled": 0, "lat": 38.899838833333334, "fusion_lat": 0.0, "is_reserved": 0, "rental_uris": {"ios": "https://dc.lft.to/lastmile_qr_scan", "android": "https://dc.lft.to/lastmile_qr_scan"}, "fusion_lon": 0.0, "type": "electric_scooter", "bike_id": "cc59a1c7f790d4c734272d8168f9b01d", "name": "cc59a1c7f790d4c734272d8168f9b01d"}, {"lon": -77.00090633333333, "is_disabled": 0, "lat": 38.92558483333333, "fusion_lat": 0.0, "is_reserved": 0, "rental_uris": {"ios": "https://dc.lft.to/lastmile_qr_scan", "android": "https://dc.lft.to/lastmile_qr_scan"}, "fusion_lon": 0.0, "type": "electric_scooter", "bike_id": "4593bdedb2c799427deaef8c052e5f91", "name": "4593bdedb2c799427deaef8c052e5f91"}, {"lon": -77.045487, "is_disabled": 0, "lat": 38.916312833333336, "fusion_lat": 0.0, "is_reserved": 0, "rental_uris": {"ios": "https://dc.lft.to/lastmile_qr_scan", "android": "https://dc.lft.to/lastmile_qr_scan"}, "fusion_lon": 0.0, "type": "electric_scooter", "bike_id": "f27e2299b150262d171c8d96765f04f9", "name": "f27e2299b150262d171c8d96765f04f9"}, {"lon": -77.0444305, "is_disabled": 0, "lat": 38.896181166666665, "fusion_lat": 0.0, "is_reserved": 0, "rental_uris": {"ios": "https://dc.lft.to/lastmile_qr_scan", "android": "https://dc.lft.to/lastmile_qr_scan"}, "fusion_lon": 0.0, "type": "electric_scooter", "bike_id": "188b786477241d2a92c52a14f70200a3", "name": "188b786477241d2a92c52a14f70200a3"}, {"lon": -76.9947155, "is_disabled": 0, "lat": 38.90515833333333, "fusion_lat": 0.0, "is_reserved": 0, "rental_uris": {"ios": "https://dc.lft.to/lastmile_qr_scan", "android": "https://dc.lft.to/lastmile_qr_scan"}, "fusion_lon": 0.0, "type": "electric_scooter", "bike_id": "364e720b393c06b9509f9569d0ef7bfe", "name": "364e720b393c06b9509f9569d0ef7bfe"}, {"lon": -76.99012566666667, "is_disabled": 0, "lat": 38.911404833333336, "fusion_lat": 0.0, "is_reserved": 0, "rental_uris": {"ios": "https://dc.lft.to/lastmile_qr_scan", "android": "https://dc.lft.to/lastmile_qr_scan"}, "fusion_lon": 0.0, "type": "electric_scooter", "bike_id": "bb2dd2543e4518a79d69421f99c8babe", "name": "bb2dd2543e4518a79d69421f99c8babe"}, {"lon": -77.02873383333333, "is_disabled": 0, "lat": 38.914093333333334, "fusion_lat": 0.0, "is_reserved": 0, "rental_uris": {"ios": "https://dc.lft.to/lastmile_qr_scan", "android": "https://dc.lft.to/lastmile_qr_scan"}, "fusion_lon": 0.0, "type": "electric_scooter", "bike_id": "a8ce98b681cb886ef2d126239b33cc02", "name": "a8ce98b681cb886ef2d126239b33cc02"}, {"lon": -77.028429, "is_disabled": 0, "lat": 38.89634183333333, "fusion_lat": 0.0, "is_reserved": 0, "rental_uris": {"ios": "https://dc.lft.to/lastmile_qr_scan", "android": "https://dc.lft.to/lastmile_qr_scan"}, "fusion_lon": 0.0, "type": "electric_scooter", "bike_id": "9626ce636aebfb0fcd501b2f27e48dc5", "name": "9626ce636aebfb0fcd501b2f27e48dc5"}, {"lon": -77.22924983333333, "is_disabled": 0, "lat": 38.931951, "fusion_lat": 0.0, "is_reserved": 0, "rental_uris": {"ios": "https://dc.lft.to/lastmile_qr_scan", "android": "https://dc.lft.to/lastmile_qr_scan"}, "fusion_lon": 0.0, "type": "electric_bike", "bike_id": "b814ebecb0ee4938655981a9e67ccd2f", "name": "b814ebecb0ee4938655981a9e67ccd2f"}, {"lon": -77.02027583333333, "is_disabled": 0, "lat": 38.92171316666666, "fusion_lat": 0.0, "is_reserved": 0, "rental_uris": {"ios": "https://dc.lft.to/lastmile_qr_scan", "android": "https://dc.lft.to/lastmile_qr_scan"}, "fusion_lon": 0.0, "type": "electric_scooter", "bike_id": "0d032e107e63468d762939789b1e950a", "name": "0d032e107e63468d762939789b1e950a"}, {"lon": -76.9916295, "is_disabled": 0, "lat": 38.90042783333333, "fusion_lat": 0.0, "is_reserved": 0, "rental_uris": {"ios": "https://dc.lft.to/lastmile_qr_scan", "android": "https://dc.lft.to/lastmile_qr_scan"}, "fusion_lon": 0.0, "type": "electric_scooter", "bike_id": "c9f0474888bf8a48e1b988263a3dc2a2", "name": "c9f0474888bf8a48e1b988263a3dc2a2"}, {"lon": -77.02437933333333, "is_disabled": 0, "lat": 38.9237245, "fusion_lat": 0.0, "is_reserved": 0, "rental_uris": {"ios": "https://dc.lft.to/lastmile_qr_scan", "android": "https://dc.lft.to/lastmile_qr_scan"}, "fusion_lon": 0.0, "type": "electric_scooter", "bike_id": "b064e918ea6b29b7ee229d40f0d7f57b", "name": "b064e918ea6b29b7ee229d40f0d7f57b"}, {"lon": -77.02727566666667, "is_disabled": 0, "lat": 38.955864, "fusion_lat": 0.0, "is_reserved": 0, "rental_uris": {"ios": "https://dc.lft.to/lastmile_qr_scan", "android": "https://dc.lft.to/lastmile_qr_scan"}, "fusion_lon": 0.0, "type": "electric_scooter", "bike_id": "f86403ea0c96279bd333c7368d5518de", "name": "f86403ea0c96279bd333c7368d5518de"}, {"lon": -77.027252, "is_disabled": 0, "lat": 38.8984975, "fusion_lat": 0.0, "is_reserved": 0, "rental_uris": {"ios": "https://dc.lft.to/lastmile_qr_scan", "android": "https://dc.lft.to/lastmile_qr_scan"}, "fusion_lon": 0.0, "type": "electric_scooter", "bike_id": "7e9f8a5b0b095f006f422d760c44d782", "name": "7e9f8a5b0b095f006f422d760c44d782"}, {"lon": -76.990073, "is_disabled": 0, "lat": 38.86506283333333, "fusion_lat": 0.0, "is_reserved": 0, "rental_uris": {"ios": "https://dc.lft.to/lastmile_qr_scan", "android": "https://dc.lft.to/lastmile_qr_scan"}, "fusion_lon": 0.0, "type": "electric_scooter", "bike_id": "fea7c93309575925de1fd1ffa5459a59", "name": "fea7c93309575925de1fd1ffa5459a59"}, {"lon": -77.02610783333333, "is_disabled": 0, "lat": 38.91414966666667, "fusion_lat": 0.0, "is_reserved": 0, "rental_uris": {"ios": "https://dc.lft.to/lastmile_qr_scan", "android": "https://dc.lft.to/lastmile_qr_scan"}, "fusion_lon": 0.0, "type": "electric_scooter", "bike_id": "c62594c63271eaff91ee56911bde11ce", "name": "c62594c63271eaff91ee56911bde11ce"}, {"lon": -77.08306566666667, "is_disabled": 0, "lat": 38.85436116666666, "fusion_lat": 0.0, "is_reserved": 0, "rental_uris": {"ios": "https://dc.lft.to/lastmile_qr_scan", "android": "https://dc.lft.to/lastmile_qr_scan"}, "fusion_lon": 0.0, "type": "electric_bike", "bike_id": "25be24ff0b574163b777a2e1f12be168", "name": "25be24ff0b574163b777a2e1f12be168"}, {"lon": -77.04477833333333, "is_disabled": 0, "lat": 38.9002065, "fusion_lat": 0.0, "is_reserved": 0, "rental_uris": {"ios": "https://dc.lft.to/lastmile_qr_scan", "android": "https://dc.lft.to/lastmile_qr_scan"}, "fusion_lon": 0.0, "type": "electric_scooter", "bike_id": "cc018a9d89189837066cb20ba7c0a9ce", "name": "cc018a9d89189837066cb20ba7c0a9ce"}, {"lon": -77.03634816666667, "is_disabled": 0, "lat": 38.9305775, "fusion_lat": 0.0, "is_reserved": 0, "rental_uris": {"ios": "https://dc.lft.to/lastmile_qr_scan", "android": "https://dc.lft.to/lastmile_qr_scan"}, "fusion_lon": 0.0, "type": "electric_scooter", "bike_id": "bd40771145de181a4d376c8a07275180", "name": "bd40771145de181a4d376c8a07275180"}, {"lon": -77.0385405, "is_disabled": 0, "lat": 38.906437833333335, "fusion_lat": 0.0, "is_reserved": 0, "rental_uris": {"ios": "https://dc.lft.to/lastmile_qr_scan", "android": "https://dc.lft.to/lastmile_qr_scan"}, "fusion_lon": 0.0, "type": "electric_scooter", "bike_id": "f01dec6e155b26f8a1acd7322f4a631f", "name": "f01dec6e155b26f8a1acd7322f4a631f"}, {"lon": -77.0332865, "is_disabled": 0, "lat": 38.8982875, "fusion_lat": 0.0, "is_reserved": 0, "rental_uris": {"ios": "https://dc.lft.to/lastmile_qr_scan", "android": "https://dc.lft.to/lastmile_qr_scan"}, "fusion_lon": 0.0, "type": "electric_scooter", "bike_id": "b81ae697f89c21229300c71efb0491b4", "name": "b81ae697f89c21229300c71efb0491b4"}, {"lon": -77.04651966666667, "is_disabled": 0, "lat": 38.90560983333334, "fusion_lat": 0.0, "is_reserved": 0, "rental_uris": {"ios": "https://dc.lft.to/lastmile_qr_scan", "android": "https://dc.lft.to/lastmile_qr_scan"}, "fusion_lon": 0.0, "type": "electric_scooter", "bike_id": "99f371bfe0d1ee92a71cce3b1c35a1c7", "name": "99f371bfe0d1ee92a71cce3b1c35a1c7"}, {"lon": -77.03405266666667, "is_disabled": 0, "lat": 38.924483333333335, "fusion_lat": 0.0, "is_reserved": 0, "rental_uris": {"ios": "https://dc.lft.to/lastmile_qr_scan", "android": "https://dc.lft.to/lastmile_qr_scan"}, "fusion_lon": 0.0, "type": "electric_scooter", "bike_id": "948898246ded06d5cd875c17fd8c9b62", "name": "948898246ded06d5cd875c17fd8c9b62"}, {"lon": -77.1146665, "is_disabled": 0, "lat": 38.8414885, "fusion_lat": 0.0, "is_reserved": 0, "rental_uris": {"ios": "https://dc.lft.to/lastmile_qr_scan", "android": "https://dc.lft.to/lastmile_qr_scan"}, "fusion_lon": 0.0, "type": "electric_bike", "bike_id": "204b5bca761d16568dfad995d4ab618c", "name": "204b5bca761d16568dfad995d4ab618c"}, {"lon": -76.99874383333334, "is_disabled": 0, "lat": 38.89205316666666, "fusion_lat": 0.0, "is_reserved": 0, "rental_uris": {"ios": "https://dc.lft.to/lastmile_qr_scan", "android": "https://dc.lft.to/lastmile_qr_scan"}, "fusion_lon": 0.0, "type": "electric_scooter", "bike_id": "3b015f07f056e25dee27cb847d02f906", "name": "3b015f07f056e25dee27cb847d02f906"}, {"lon": -77.1202305, "is_disabled": 0, "lat": 38.857863, "fusion_lat": 0.0, "is_reserved": 0, "rental_uris": {"ios": "https://dc.lft.to/lastmile_qr_scan", "android": "https://dc.lft.to/lastmile_qr_scan"}, "fusion_lon": 0.0, "type": "electric_bike", "bike_id": "1f6f8462826e380571e5b4e3bdec2e03", "name": "1f6f8462826e380571e5b4e3bdec2e03"}, {"lon": -77.03513783333334, "is_disabled": 0, "lat": 38.921717666666666, "fusion_lat": 0.0, "is_reserved": 0, "rental_uris": {"ios": "https://dc.lft.to/lastmile_qr_scan", "android": "https://dc.lft.to/lastmile_qr_scan"}, "fusion_lon": 0.0, "type": "electric_scooter", "bike_id": "2a0228a1cb20345cd926af078f363a20", "name": "2a0228a1cb20345cd926af078f363a20"}, {"lon": -77.0200285, "is_disabled": 0, "lat": 38.9141125, "fusion_lat": 0.0, "is_reserved": 0, "rental_uris": {"ios": "https://dc.lft.to/lastmile_qr_scan", "android": "https://dc.lft.to/lastmile_qr_scan"}, "fusion_lon": 0.0, "type": "electric_scooter", "bike_id": "ee0b8a11b1a601ebbac6d1156309766e", "name": "ee0b8a11b1a601ebbac6d1156309766e"}, {"lon": -77.02206683333333, "is_disabled": 0, "lat": 38.93403216666667, "fusion_lat": 0.0, "is_reserved": 0, "rental_uris": {"ios": "https://dc.lft.to/lastmile_qr_scan", "android": "https://dc.lft.to/lastmile_qr_scan"}, "fusion_lon": 0.0, "type": "electric_scooter", "bike_id": "f6d816e67cf603f0a51d92d6be714cdf", "name": "f6d816e67cf603f0a51d92d6be714cdf"}, {"lon": -76.94411833333334, "is_disabled": 0, "lat": 38.9922995, "fusion_lat": 0.0, "is_reserved": 0, "rental_uris": {"ios": "https://dc.lft.to/lastmile_qr_scan", "android": "https://dc.lft.to/lastmile_qr_scan"}, "fusion_lon": 0.0, "type": "electric_bike", "bike_id": "6932a8843c9e6a2b7f02addadd90d763", "name": "6932a8843c9e6a2b7f02addadd90d763"}, {"lon": -77.01956666666666, "is_disabled": 0, "lat": 38.92268133333334, "fusion_lat": 0.0, "is_reserved": 0, "rental_uris": {"ios": "https://dc.lft.to/lastmile_qr_scan", "android": "https://dc.lft.to/lastmile_qr_scan"}, "fusion_lon": 0.0, "type": "electric_scooter", "bike_id": "8338729bad043fcb3a9139a9fca25add", "name": "8338729bad043fcb3a9139a9fca25add"}, {"lon": -77.0365535, "is_disabled": 0, "lat": 38.9080145, "fusion_lat": 0.0, "is_reserved": 0, "rental_uris": {"ios": "https://dc.lft.to/lastmile_qr_scan", "android": "https://dc.lft.to/lastmile_qr_scan"}, "fusion_lon": 0.0, "type": "electric_scooter", "bike_id": "8687a37eba4b4d6a2ec3659b7ecb05fc", "name": "8687a37eba4b4d6a2ec3659b7ecb05fc"}, {"lon": -77.0466305, "is_disabled": 0, "lat": 38.901881333333336, "fusion_lat": 0.0, "is_reserved": 0, "rental_uris": {"ios": "https://dc.lft.to/lastmile_qr_scan", "android": "https://dc.lft.to/lastmile_qr_scan"}, "fusion_lon": 0.0, "type": "electric_scooter", "bike_id": "d989905dfa10d4eebc4cefe43d331b91", "name": "d989905dfa10d4eebc4cefe43d331b91"}, {"lon": -77.038567, "is_disabled": 0, "lat": 38.9071985, "fusion_lat": 0.0, "is_reserved": 0, "rental_uris": {"ios": "https://dc.lft.to/lastmile_qr_scan", "android": "https://dc.lft.to/lastmile_qr_scan"}, "fusion_lon": 0.0, "type": "electric_scooter", "bike_id": "2e4343516c3e77b46103f57f77ea8feb", "name": "2e4343516c3e77b46103f57f77ea8feb"}, {"lon": -77.114132, "is_disabled": 0, "lat": 38.85530166666667, "fusion_lat": 0.0, "is_reserved": 0, "rental_uris": {"ios": "https://dc.lft.to/lastmile_qr_scan", "android": "https://dc.lft.to/lastmile_qr_scan"}, "fusion_lon": 0.0, "type": "electric_bike", "bike_id": "cd481178fea81d22dd650d2629d882f7", "name": "cd481178fea81d22dd650d2629d882f7"}, {"lon": -77.04335916666666, "is_disabled": 0, "lat": 38.90732966666667, "fusion_lat": 0.0, "is_reserved": 0, "rental_uris": {"ios": "https://dc.lft.to/lastmile_qr_scan", "android": "https://dc.lft.to/lastmile_qr_scan"}, "fusion_lon": 0.0, "type": "electric_scooter", "bike_id": "def1dcc48cb9da17052bd0cea7f67f5f", "name": "def1dcc48cb9da17052bd0cea7f67f5f"}, {"lon": -77.0182925, "is_disabled": 0, "lat": 38.92270533333333, "fusion_lat": 0.0, "is_reserved": 0, "rental_uris": {"ios": "https://dc.lft.to/lastmile_qr_scan", "android": "https://dc.lft.to/lastmile_qr_scan"}, "fusion_lon": 0.0, "type": "electric_scooter", "bike_id": "515792b516f13d3c8bacdc45fe30bbb4", "name": "515792b516f13d3c8bacdc45fe30bbb4"}, {"lon": -77.03392266666667, "is_disabled": 0, "lat": 38.93878683333333, "fusion_lat": 0.0, "is_reserved": 0, "rental_uris": {"ios": "https://dc.lft.to/lastmile_qr_scan", "android": "https://dc.lft.to/lastmile_qr_scan"}, "fusion_lon": 0.0, "type": "electric_scooter", "bike_id": "6e306631235d2c89440ce5a0c4f73c1d", "name": "6e306631235d2c89440ce5a0c4f73c1d"}, {"lon": -76.9313055, "is_disabled": 0, "lat": 38.876541333333336, "fusion_lat": 0.0, "is_reserved": 0, "rental_uris": {"ios": "https://dc.lft.to/lastmile_qr_scan", "android": "https://dc.lft.to/lastmile_qr_scan"}, "fusion_lon": 0.0, "type": "electric_scooter", "bike_id": "235146d56ccc226377211fdc54f4e672", "name": "235146d56ccc226377211fdc54f4e672"}, {"lon": -77.022486, "is_disabled": 0, "lat": 38.89617833333333, "fusion_lat": 0.0, "is_reserved": 0, "rental_uris": {"ios": "https://dc.lft.to/lastmile_qr_scan", "android": "https://dc.lft.to/lastmile_qr_scan"}, "fusion_lon": 0.0, "type": "electric_scooter", "bike_id": "13817a567fb78d6700dc0c25b200be0b", "name": "13817a567fb78d6700dc0c25b200be0b"}, {"lon": -77.02214133333334, "is_disabled": 0, "lat": 38.92472166666667, "fusion_lat": 0.0, "is_reserved": 0, "rental_uris": {"ios": "https://dc.lft.to/lastmile_qr_scan", "android": "https://dc.lft.to/lastmile_qr_scan"}, "fusion_lon": 0.0, "type": "electric_scooter", "bike_id": "bc53ddf6966da3fb120d3a1d9476031d", "name": "bc53ddf6966da3fb120d3a1d9476031d"}, {"lon": -77.00466516666667, "is_disabled": 0, "lat": 38.87659433333334, "fusion_lat": 0.0, "is_reserved": 0, "rental_uris": {"ios": "https://dc.lft.to/lastmile_qr_scan", "android": "https://dc.lft.to/lastmile_qr_scan"}, "fusion_lon": 0.0, "type": "electric_scooter", "bike_id": "cdb8acf2af344a444095b07dd992eada", "name": "cdb8acf2af344a444095b07dd992eada"}, {"lon": -77.0237465, "is_disabled": 0, "lat": 38.907322666666666, "fusion_lat": 0.0, "is_reserved": 0, "rental_uris": {"ios": "https://dc.lft.to/lastmile_qr_scan", "android": "https://dc.lft.to/lastmile_qr_scan"}, "fusion_lon": 0.0, "type": "electric_scooter", "bike_id": "e4bedc25b98589b7d02ddd893c9114f9", "name": "e4bedc25b98589b7d02ddd893c9114f9"}, {"lon": -77.0237275, "is_disabled": 0, "lat": 38.90731266666667, "fusion_lat": 0.0, "is_reserved": 0, "rental_uris": {"ios": "https://dc.lft.to/lastmile_qr_scan", "android": "https://dc.lft.to/lastmile_qr_scan"}, "fusion_lon": 0.0, "type": "electric_scooter", "bike_id": "e961f539cdaf5a6f2b229de653a82834", "name": "e961f539cdaf5a6f2b229de653a82834"}, {"lon": -77.05706116666667, "is_disabled": 0, "lat": 38.905875, "fusion_lat": 0.0, "is_reserved": 0, "rental_uris": {"ios": "https://dc.lft.to/lastmile_qr_scan", "android": "https://dc.lft.to/lastmile_qr_scan"}, "fusion_lon": 0.0, "type": "electric_scooter", "bike_id": "4378f012256157dc1ffe6728c8217076", "name": "4378f012256157dc1ffe6728c8217076"}, {"lon": -77.02719166666667, "is_disabled": 0, "lat": 38.906716333333335, "fusion_lat": 0.0, "is_reserved": 0, "rental_uris": {"ios": "https://dc.lft.to/lastmile_qr_scan", "android": "https://dc.lft.to/lastmile_qr_scan"}, "fusion_lon": 0.0, "type": "electric_scooter", "bike_id": "b33d9e91aba6c4c2af4c7a191739f1f8", "name": "b33d9e91aba6c4c2af4c7a191739f1f8"}, {"lon": -76.99800766666667, "is_disabled": 0, "lat": 38.908573, "fusion_lat": 0.0, "is_reserved": 0, "rental_uris": {"ios": "https://dc.lft.to/lastmile_qr_scan", "android": "https://dc.lft.to/lastmile_qr_scan"}, "fusion_lon": 0.0, "type": "electric_scooter", "bike_id": "48697b7a1fa7e0bf8d024e9d9c0d5393", "name": "48697b7a1fa7e0bf8d024e9d9c0d5393"}, {"lon": -77.03184316666666, "is_disabled": 0, "lat": 38.91573566666667, "fusion_lat": 0.0, "is_reserved": 0, "rental_uris": {"ios": "https://dc.lft.to/lastmile_qr_scan", "android": "https://dc.lft.to/lastmile_qr_scan"}, "fusion_lon": 0.0, "type": "electric_scooter", "bike_id": "0436c89b598ed08e2fe188375ca0acae", "name": "0436c89b598ed08e2fe188375ca0acae"}, {"lon": -77.000409, "is_disabled": 0, "lat": 38.875488833333335, "fusion_lat": 0.0, "is_reserved": 0, "rental_uris": {"ios": "https://dc.lft.to/lastmile_qr_scan", "android": "https://dc.lft.to/lastmile_qr_scan"}, "fusion_lon": 0.0, "type": "electric_scooter", "bike_id": "1a8d87d9966afe816cce1d137ba52018", "name": "1a8d87d9966afe816cce1d137ba52018"}, {"lon": -77.029825, "is_disabled": 0, "lat": 38.9344545, "fusion_lat": 0.0, "is_reserved": 0, "rental_uris": {"ios": "https://dc.lft.to/lastmile_qr_scan", "android": "https://dc.lft.to/lastmile_qr_scan"}, "fusion_lon": 0.0, "type": "electric_scooter", "bike_id": "1eec7319e5910f4ecd3bde206721d6c0", "name": "1eec7319e5910f4ecd3bde206721d6c0"}, {"lon": -76.99696183333333, "is_disabled": 0, "lat": 38.88424916666666, "fusion_lat": 0.0, "is_reserved": 0, "rental_uris": {"ios": "https://dc.lft.to/lastmile_qr_scan", "android": "https://dc.lft.to/lastmile_qr_scan"}, "fusion_lon": 0.0, "type": "electric_scooter", "bike_id": "64014ce652e33efd2f09323da65e961b", "name": "64014ce652e33efd2f09323da65e961b"}, {"lon": -76.933387, "is_disabled": 0, "lat": 38.908691, "fusion_lat": 0.0, "is_reserved": 0, "rental_uris": {"ios": "https://dc.lft.to/lastmile_qr_scan", "android": "https://dc.lft.to/lastmile_qr_scan"}, "fusion_lon": 0.0, "type": "electric_scooter", "bike_id": "c4d60bed09c0d7ed33d5e8ffe97dd42d", "name": "c4d60bed09c0d7ed33d5e8ffe97dd42d"}, {"lon": -76.99662, "is_disabled": 0, "lat": 38.8600675, "fusion_lat": 0.0, "is_reserved": 0, "rental_uris": {"ios": "https://dc.lft.to/lastmile_qr_scan", "android": "https://dc.lft.to/lastmile_qr_scan"}, "fusion_lon": 0.0, "type": "electric_scooter", "bike_id": "9d624960231fe26c9de5fef07de58b94", "name": "9d624960231fe26c9de5fef07de58b94"}, {"lon": -77.03845116666666, "is_disabled": 0, "lat": 38.941947166666665, "fusion_lat": 0.0, "is_reserved": 0, "rental_uris": {"ios": "https://dc.lft.to/lastmile_qr_scan", "android": "https://dc.lft.to/lastmile_qr_scan"}, "fusion_lon": 0.0, "type": "electric_scooter", "bike_id": "268196892ff2597a8a9801a84b746634", "name": "268196892ff2597a8a9801a84b746634"}, {"lon": -77.02846383333333, "is_disabled": 0, "lat": 38.886608333333335, "fusion_lat": 0.0, "is_reserved": 0, "rental_uris": {"ios": "https://dc.lft.to/lastmile_qr_scan", "android": "https://dc.lft.to/lastmile_qr_scan"}, "fusion_lon": 0.0, "type": "electric_scooter", "bike_id": "79cef25d897153ad56456d9735318d6a", "name": "79cef25d897153ad56456d9735318d6a"}, {"lon": -77.03826366666667, "is_disabled": 0, "lat": 38.931337, "fusion_lat": 0.0, "is_reserved": 0, "rental_uris": {"ios": "https://dc.lft.to/lastmile_qr_scan", "android": "https://dc.lft.to/lastmile_qr_scan"}, "fusion_lon": 0.0, "type": "electric_scooter", "bike_id": "087d1535665d2ef66b251997566e1a28", "name": "087d1535665d2ef66b251997566e1a28"}, {"lon": -77.01754383333333, "is_disabled": 0, "lat": 38.876876833333334, "fusion_lat": 0.0, "is_reserved": 0, "rental_uris": {"ios": "https://dc.lft.to/lastmile_qr_scan", "android": "https://dc.lft.to/lastmile_qr_scan"}, "fusion_lon": 0.0, "type": "electric_scooter", "bike_id": "c58ee37254e0ca86153008f0c66ea351", "name": "c58ee37254e0ca86153008f0c66ea351"}, {"lon": -77.02224683333333, "is_disabled": 0, "lat": 38.8922355, "fusion_lat": 0.0, "is_reserved": 0, "rental_uris": {"ios": "https://dc.lft.to/lastmile_qr_scan", "android": "https://dc.lft.to/lastmile_qr_scan"}, "fusion_lon": 0.0, "type": "electric_scooter", "bike_id": "f636ba89318dfffe3f6d007ef5d01cb7", "name": "f636ba89318dfffe3f6d007ef5d01cb7"}, {"lon": -77.0060475, "is_disabled": 0, "lat": 38.875979666666666, "fusion_lat": 0.0, "is_reserved": 0, "rental_uris": {"ios": "https://dc.lft.to/lastmile_qr_scan", "android": "https://dc.lft.to/lastmile_qr_scan"}, "fusion_lon": 0.0, "type": "electric_scooter", "bike_id": "7add8ce931741b8ef54670e462d21b4a", "name": "7add8ce931741b8ef54670e462d21b4a"}, {"lon": -77.02392533333334, "is_disabled": 0, "lat": 38.90700233333333, "fusion_lat": 0.0, "is_reserved": 0, "rental_uris": {"ios": "https://dc.lft.to/lastmile_qr_scan", "android": "https://dc.lft.to/lastmile_qr_scan"}, "fusion_lon": 0.0, "type": "electric_scooter", "bike_id": "719f8628721cd01ca9fb54f468420c77", "name": "719f8628721cd01ca9fb54f468420c77"}, {"lon": -77.05910966666667, "is_disabled": 0, "lat": 38.902817166666665, "fusion_lat": 0.0, "is_reserved": 0, "rental_uris": {"ios": "https://dc.lft.to/lastmile_qr_scan", "android": "https://dc.lft.to/lastmile_qr_scan"}, "fusion_lon": 0.0, "type": "electric_scooter", "bike_id": "1b88797921e08a573af6b5d20f707468", "name": "1b88797921e08a573af6b5d20f707468"}, {"lon": -77.03384333333334, "is_disabled": 0, "lat": 38.89911466666667, "fusion_lat": 0.0, "is_reserved": 0, "rental_uris": {"ios": "https://dc.lft.to/lastmile_qr_scan", "android": "https://dc.lft.to/lastmile_qr_scan"}, "fusion_lon": 0.0, "type": "electric_scooter", "bike_id": "7b51f74b8c2ff2d1bb311b620aabefee", "name": "7b51f74b8c2ff2d1bb311b620aabefee"}, {"lon": -77.062701, "is_disabled": 0, "lat": 38.905757, "fusion_lat": 0.0, "is_reserved": 0, "rental_uris": {"ios": "https://dc.lft.to/lastmile_qr_scan", "android": "https://dc.lft.to/lastmile_qr_scan"}, "fusion_lon": 0.0, "type": "electric_scooter", "bike_id": "5db80a3eb9c2e600d5ec2c47274b19c2", "name": "5db80a3eb9c2e600d5ec2c47274b19c2"}, {"lon": -77.02869733333333, "is_disabled": 0, "lat": 38.89348366666667, "fusion_lat": 0.0, "is_reserved": 0, "rental_uris": {"ios": "https://dc.lft.to/lastmile_qr_scan", "android": "https://dc.lft.to/lastmile_qr_scan"}, "fusion_lon": 0.0, "type": "electric_scooter", "bike_id": "f2519660bfbfba49104f0c6e3709b15d", "name": "f2519660bfbfba49104f0c6e3709b15d"}, {"lon": -77.03189783333333, "is_disabled": 0, "lat": 38.91717833333333, "fusion_lat": 0.0, "is_reserved": 0, "rental_uris": {"ios": "https://dc.lft.to/lastmile_qr_scan", "android": "https://dc.lft.to/lastmile_qr_scan"}, "fusion_lon": 0.0, "type": "electric_scooter", "bike_id": "1d41678f3860d7d8516a84fad82557b0", "name": "1d41678f3860d7d8516a84fad82557b0"}, {"lon": -77.0178005, "is_disabled": 0, "lat": 38.9150515, "fusion_lat": 0.0, "is_reserved": 0, "rental_uris": {"ios": "https://dc.lft.to/lastmile_qr_scan", "android": "https://dc.lft.to/lastmile_qr_scan"}, "fusion_lon": 0.0, "type": "electric_scooter", "bike_id": "c7b3217fc761e65dc1d88d8320fcd4ec", "name": "c7b3217fc761e65dc1d88d8320fcd4ec"}, {"lon": -76.9653695, "is_disabled": 0, "lat": 38.874839, "fusion_lat": 0.0, "is_reserved": 0, "rental_uris": {"ios": "https://dc.lft.to/lastmile_qr_scan", "android": "https://dc.lft.to/lastmile_qr_scan"}, "fusion_lon": 0.0, "type": "electric_bike", "bike_id": "327e262269445303682d5d56a2039932", "name": "327e262269445303682d5d56a2039932"}, {"lon": -77.06307383333333, "is_disabled": 0, "lat": 38.798560333333334, "fusion_lat": 0.0, "is_reserved": 0, "rental_uris": {"ios": "https://dc.lft.to/lastmile_qr_scan", "android": "https://dc.lft.to/lastmile_qr_scan"}, "fusion_lon": 0.0, "type": "electric_bike", "bike_id": "7f70fbffcb33d145560aa10113f62909", "name": "7f70fbffcb33d145560aa10113f62909"}, {"lon": -77.05443033333333, "is_disabled": 0, "lat": 38.896066833333336, "fusion_lat": 0.0, "is_reserved": 0, "rental_uris": {"ios": "https://dc.lft.to/lastmile_qr_scan", "android": "https://dc.lft.to/lastmile_qr_scan"}, "fusion_lon": 0.0, "type": "electric_scooter", "bike_id": "c6b3419df8886f1fb26c2dd6b4088eae", "name": "c6b3419df8886f1fb26c2dd6b4088eae"}, {"lon": -77.00335083333333, "is_disabled": 0, "lat": 38.893582333333335, "fusion_lat": 0.0, "is_reserved": 0, "rental_uris": {"ios": "https://dc.lft.to/lastmile_qr_scan", "android": "https://dc.lft.to/lastmile_qr_scan"}, "fusion_lon": 0.0, "type": "electric_scooter", "bike_id": "9bfa003fd5b3ce6e8b0e143954b8e61c", "name": "9bfa003fd5b3ce6e8b0e143954b8e61c"}, {"lon": -77.02285866666666, "is_disabled": 0, "lat": 38.895186333333335, "fusion_lat": 0.0, "is_reserved": 0, "rental_uris": {"ios": "https://dc.lft.to/lastmile_qr_scan", "android": "https://dc.lft.to/lastmile_qr_scan"}, "fusion_lon": 0.0, "type": "electric_scooter", "bike_id": "5462b2b9ee92ffc1176db144733db71c", "name": "5462b2b9ee92ffc1176db144733db71c"}, {"lon": -76.9301945, "is_disabled": 0, "lat": 38.90170466666667, "fusion_lat": 0.0, "is_reserved": 0, "rental_uris": {"ios": "https://dc.lft.to/lastmile_qr_scan", "android": "https://dc.lft.to/lastmile_qr_scan"}, "fusion_lon": 0.0, "type": "electric_scooter", "bike_id": "96b4457deec4be6c4aecb46eda49801e", "name": "96b4457deec4be6c4aecb46eda49801e"}, {"lon": -77.024533, "is_disabled": 0, "lat": 38.9436455, "fusion_lat": 0.0, "is_reserved": 0, "rental_uris": {"ios": "https://dc.lft.to/lastmile_qr_scan", "android": "https://dc.lft.to/lastmile_qr_scan"}, "fusion_lon": 0.0, "type": "electric_scooter", "bike_id": "b73d7b00eec8b21c3e2dd7c313f158cb", "name": "b73d7b00eec8b21c3e2dd7c313f158cb"}, {"lon": -77.02012516666667, "is_disabled": 0, "lat": 38.9241975, "fusion_lat": 0.0, "is_reserved": 0, "rental_uris": {"ios": "https://dc.lft.to/lastmile_qr_scan", "android": "https://dc.lft.to/lastmile_qr_scan"}, "fusion_lon": 0.0, "type": "electric_scooter", "bike_id": "dd77962a0319c5b5ed151dd579ff1f53", "name": "dd77962a0319c5b5ed151dd579ff1f53"}, {"lon": -77.05151716666667, "is_disabled": 0, "lat": 38.92381533333333, "fusion_lat": 0.0, "is_reserved": 0, "rental_uris": {"ios": "https://dc.lft.to/lastmile_qr_scan", "android": "https://dc.lft.to/lastmile_qr_scan"}, "fusion_lon": 0.0, "type": "electric_scooter", "bike_id": "9962ea0e79fb667b6da08ff86f94dc22", "name": "9962ea0e79fb667b6da08ff86f94dc22"}, {"lon": -77.011514, "is_disabled": 0, "lat": 38.956376666666664, "fusion_lat": 0.0, "is_reserved": 0, "rental_uris": {"ios": "https://dc.lft.to/lastmile_qr_scan", "android": "https://dc.lft.to/lastmile_qr_scan"}, "fusion_lon": 0.0, "type": "electric_scooter", "bike_id": "6cea3b6d76656e79792f75e7f06a2335", "name": "6cea3b6d76656e79792f75e7f06a2335"}, {"lon": -77.01148833333333, "is_disabled": 0, "lat": 38.92960183333334, "fusion_lat": 0.0, "is_reserved": 0, "rental_uris": {"ios": "https://dc.lft.to/lastmile_qr_scan", "android": "https://dc.lft.to/lastmile_qr_scan"}, "fusion_lon": 0.0, "type": "electric_scooter", "bike_id": "fc6d1054548fe9efa91df2d93e9fa7c8", "name": "fc6d1054548fe9efa91df2d93e9fa7c8"}, {"lon": -77.01001833333333, "is_disabled": 0, "lat": 38.956545166666665, "fusion_lat": 0.0, "is_reserved": 0, "rental_uris": {"ios": "https://dc.lft.to/lastmile_qr_scan", "android": "https://dc.lft.to/lastmile_qr_scan"}, "fusion_lon": 0.0, "type": "electric_scooter", "bike_id": "6b278d3222eb037f0ce9194c803a585e", "name": "6b278d3222eb037f0ce9194c803a585e"}, {"lon": -77.03183016666667, "is_disabled": 0, "lat": 38.91325766666667, "fusion_lat": 0.0, "is_reserved": 0, "rental_uris": {"ios": "https://dc.lft.to/lastmile_qr_scan", "android": "https://dc.lft.to/lastmile_qr_scan"}, "fusion_lon": 0.0, "type": "electric_scooter", "bike_id": "f286b0404a1637c3c0474da88262abd3", "name": "f286b0404a1637c3c0474da88262abd3"}, {"lon": -77.02114616666667, "is_disabled": 0, "lat": 38.91739416666667, "fusion_lat": 0.0, "is_reserved": 0, "rental_uris": {"ios": "https://dc.lft.to/lastmile_qr_scan", "android": "https://dc.lft.to/lastmile_qr_scan"}, "fusion_lon": 0.0, "type": "electric_scooter", "bike_id": "873cc2abfc6d0d020319c532e46a4332", "name": "873cc2abfc6d0d020319c532e46a4332"}, {"lon": -77.0011695, "is_disabled": 0, "lat": 38.886556, "fusion_lat": 0.0, "is_reserved": 0, "rental_uris": {"ios": "https://dc.lft.to/lastmile_qr_scan", "android": "https://dc.lft.to/lastmile_qr_scan"}, "fusion_lon": 0.0, "type": "electric_scooter", "bike_id": "3ac3be4ce4dbe9b8c2ce3a82157fa6e3", "name": "3ac3be4ce4dbe9b8c2ce3a82157fa6e3"}, {"lon": -77.02104516666667, "is_disabled": 0, "lat": 38.902171333333335, "fusion_lat": 0.0, "is_reserved": 0, "rental_uris": {"ios": "https://dc.lft.to/lastmile_qr_scan", "android": "https://dc.lft.to/lastmile_qr_scan"}, "fusion_lon": 0.0, "type": "electric_scooter", "bike_id": "6577420a07e3bb9709df1ff6303bf9bf", "name": "6577420a07e3bb9709df1ff6303bf9bf"}, {"lon": -77.022961, "is_disabled": 0, "lat": 38.9089585, "fusion_lat": 0.0, "is_reserved": 0, "rental_uris": {"ios": "https://dc.lft.to/lastmile_qr_scan", "android": "https://dc.lft.to/lastmile_qr_scan"}, "fusion_lon": 0.0, "type": "electric_scooter", "bike_id": "f6f422a06487ced379a6b1f76ce70914", "name": "f6f422a06487ced379a6b1f76ce70914"}, {"lon": -77.04349866666666, "is_disabled": 0, "lat": 38.908427, "fusion_lat": 0.0, "is_reserved": 0, "rental_uris": {"ios": "https://dc.lft.to/lastmile_qr_scan", "android": "https://dc.lft.to/lastmile_qr_scan"}, "fusion_lon": 0.0, "type": "electric_scooter", "bike_id": "b60c3bc32945bcb773910ea2123bf5d4", "name": "b60c3bc32945bcb773910ea2123bf5d4"}, {"lon": -77.0120685, "is_disabled": 0, "lat": 38.90618816666667, "fusion_lat": 0.0, "is_reserved": 0, "rental_uris": {"ios": "https://dc.lft.to/lastmile_qr_scan", "android": "https://dc.lft.to/lastmile_qr_scan"}, "fusion_lon": 0.0, "type": "electric_scooter", "bike_id": "3bc5fd5adeda71e8781e7ec20ebb9ada", "name": "3bc5fd5adeda71e8781e7ec20ebb9ada"}, {"lon": -77.04564916666666, "is_disabled": 0, "lat": 38.913201666666666, "fusion_lat": 0.0, "is_reserved": 0, "rental_uris": {"ios": "https://dc.lft.to/lastmile_qr_scan", "android": "https://dc.lft.to/lastmile_qr_scan"}, "fusion_lon": 0.0, "type": "electric_scooter", "bike_id": "20787bd22e87eef0afb0a082133a2564", "name": "20787bd22e87eef0afb0a082133a2564"}, {"lon": -77.015119, "is_disabled": 0, "lat": 38.9267315, "fusion_lat": 0.0, "is_reserved": 0, "rental_uris": {"ios": "https://dc.lft.to/lastmile_qr_scan", "android": "https://dc.lft.to/lastmile_qr_scan"}, "fusion_lon": 0.0, "type": "electric_scooter", "bike_id": "a3bc57c74caadd2b56a66ca0feae9be3", "name": "a3bc57c74caadd2b56a66ca0feae9be3"},