{"data": {"bikes": [{"lon": -77.03853983333333, "rental_uris": {"android": "https://dc.lft.to/lastmile_qr_scan", "ios": "https://dc.lft.to/lastmile_qr_scan"}, "fusion_lon": 0.0, "is_reserved": 0, "is_disabled": 0, "fusion_lat": 0.0, "type": "electric_scooter", "name": "4018cbc37a0cc8ba6cc9f7390b4a21ac", "lat": 38.9166725, "bike_id": "4018cbc37a0cc8ba6cc9f7390b4a21ac"}, {"lon": -77.01916366666667, "rental_uris": {"android": "https://dc.lft.to/lastmile_qr_scan", "ios": "https://dc.lft.to/lastmile_qr_scan"}, "fusion_lon": 0.0, "is_reserved": 0, "is_disabled": 0, "fusion_lat": 0.0, "type": "electric_scooter", "name": "1543a5ad34bb4dbcd604004312fcf858", "lat": 38.9201635, "bike_id": "1543a5ad34bb4dbcd604004312fcf858"}, {"lon": -77.07235966666667, "rental_uris": {"android": "https://dc.lft.to/lastmile_qr_scan", "ios": "https://dc.lft.to/lastmile_qr_scan"}, "fusion_lon": 0.0, "is_reserved": 0, "is_disabled": 0, "fusion_lat": 0.0, "type": "electric_scooter", "name": "dd09a2ea5cc287ecc12fa622f0806c4e", "lat": 38.93846583333333, "bike_id": "dd09a2ea5cc287ecc12fa622f0806c4e"}, {"lon": -77.05744216666666, "rental_uris": {"android": "https://dc.lft.to/lastmile_qr_scan", "ios": "https://dc.lft.to/lastmile_qr_scan"}, "fusion_lon": 0.0, "is_reserved": 0, "is_disabled": 0, "fusion_lat": 0.0, "type": "electric_scooter", "name": "2222757674be5a277e96f48b6d10aa8e", "lat": 38.935359, "bike_id": "2222757674be5a277e96f48b6d10aa8e"}, {"lon": -77.07472366666667, "rental_uris": {"android": "https://dc.lft.to/lastmile_qr_scan", "ios": "https://dc.lft.to/lastmile_qr_scan"}, "fusion_lon": 0.0, "is_reserved": 0, "is_disabled": 0, "fusion_lat": 0.0, "type": "electric_bike", "name": "ee2af6fd852904ee8489db06e98464a1", "lat": 38.920754333333335, "bike_id": "ee2af6fd852904ee8489db06e98464a1"}, {"lon": -77.02748616666666, "rental_uris": {"android": "https://dc.lft.to/lastmile_qr_scan", "ios": "https://dc.lft.to/lastmile_qr_scan"}, "fusion_lon": 0.0, "is_reserved": 0, "is_disabled": 0, "fusion_lat": 0.0, "type": "electric_scooter", "name": "7d2595e941ebfdab5f8f303ec93c81b7", "lat": 38.966096666666665, "bike_id": "7d2595e941ebfdab5f8f303ec93c81b7"}, {"lon": -77.0218015, "rental_uris": {"android": "https://dc.lft.to/lastmile_qr_scan", "ios": "https://dc.lft.to/lastmile_qr_scan"}, "fusion_lon": 0.0, "is_reserved": 0, "is_disabled": 0, "fusion_lat": 0.0, "type": "electric_scooter", "name": "1b9c185a880c26b1a8e1979cd5c61e0d", "lat": 38.91884233333333, "bike_id": "1b9c185a880c26b1a8e1979cd5c61e0d"}, {"lon": -76.9889445, "rental_uris": {"android": "https://dc.lft.to/lastmile_qr_scan", "ios": "https://dc.lft.to/lastmile_qr_scan"}, "fusion_lon": 0.0, "is_reserved": 0, "is_disabled": 0, "fusion_lat": 0.0, "type": "electric_scooter", "name": "3b925092b8a1c7bf49cc6692a5e70006", "lat": 38.86116833333333, "bike_id": "3b925092b8a1c7bf49cc6692a5e70006"}, {"lon": -77.00453883333333, "rental_uris": {"android": "https://dc.lft.to/lastmile_qr_scan", "ios": "https://dc.lft.to/lastmile_qr_scan"}, "fusion_lon": 0.0, "is_reserved": 0, "is_disabled": 0, "fusion_lat": 0.0, "type": "electric_scooter", "name": "489abcb194295c74e973bc4ece210eb5", "lat": 38.83785433333333, "bike_id": "489abcb194295c74e973bc4ece210eb5"}, {"lon": -77.02979816666667, "rental_uris": {"android": "https://dc.lft.to/lastmile_qr_scan", "ios": "https://dc.lft.to/lastmile_qr_scan"}, "fusion_lon": 0.0, "is_reserved": 0, "is_disabled": 0, "fusion_lat": 0.0, "type": "electric_scooter", "name": "b470925f22470b38adc5133c20ce095f", "lat": 38.9110805, "bike_id": "b470925f22470b38adc5133c20ce095f"}, {"lon": -77.04482983333334, "rental_uris": {"android": "https://dc.lft.to/lastmile_qr_scan", "ios": "https://dc.lft.to/lastmile_qr_scan"}, "fusion_lon": 0.0, "is_reserved": 0, "is_disabled": 0, "fusion_lat": 0.0, "type": "electric_scooter", "name": "337eb0c9b7a88dedd398c93ef839ecf8", "lat": 38.90318583333333, "bike_id": "337eb0c9b7a88dedd398c93ef839ecf8"}, {"lon": -77.02982283333333, "rental_uris": {"android": "https://dc.lft.to/lastmile_qr_scan", "ios": "https://dc.lft.to/lastmile_qr_scan"}, "fusion_lon": 0.0, "is_reserved": 0, "is_disabled": 0, "fusion_lat": 0.0, "type": "electric_scooter", "name": "b8df76cae312ee54ba24ed5e685d787b", "lat": 38.922529833333336, "bike_id": "b8df76cae312ee54ba24ed5e685d787b"}, {"lon": -76.99505866666667, "rental_uris": {"android": "https://dc.lft.to/lastmile_qr_scan", "ios": "https://dc.lft.to/lastmile_qr_scan"}, "fusion_lon": 0.0, "is_reserved": 0, "is_disabled": 0, "fusion_lat": 0.0, "type": "electric_scooter", "name": "15f67ba77e4b4163f0b0be55918ebee1", "lat": 38.904672, "bike_id": "15f67ba77e4b4163f0b0be55918ebee1"}, {"lon": -77.019505, "rental_uris": {"android": "https://dc.lft.to/lastmile_qr_scan", "ios": "https://dc.lft.to/lastmile_qr_scan"}, "fusion_lon": 0.0, "is_reserved": 0, "is_disabled": 0, "fusion_lat": 0.0, "type": "electric_scooter", "name": "a3d8cdebc4ae1cd7b818f374b1e38c0f", "lat": 38.92414216666667, "bike_id": "a3d8cdebc4ae1cd7b818f374b1e38c0f"}, {"lon": -77.0123095, "rental_uris": {"android": "https://dc.lft.to/lastmile_qr_scan", "ios": "https://dc.lft.to/lastmile_qr_scan"}, "fusion_lon": 0.0, "is_reserved": 0, "is_disabled": 0, "fusion_lat": 0.0, "type": "electric_scooter", "name": "9d176e59c7ee6b63f4948cfd9e8a5adf", "lat": 38.89816783333333, "bike_id": "9d176e59c7ee6b63f4948cfd9e8a5adf"}, {"lon": -77.03440383333333, "rental_uris": {"android": "https://dc.lft.to/lastmile_qr_scan", "ios": "https://dc.lft.to/lastmile_qr_scan"}, "fusion_lon": 0.0, "is_reserved": 0, "is_disabled": 0, "fusion_lat": 0.0, "type": "electric_scooter", "name": "5393b6b97920a27a0c2f22eb5641ae73", "lat": 38.902698666666666, "bike_id": "5393b6b97920a27a0c2f22eb5641ae73"}, {"lon": -77.0167685, "rental_uris": {"android": "https://dc.lft.to/lastmile_qr_scan", "ios": "https://dc.lft.to/lastmile_qr_scan"}, "fusion_lon": 0.0, "is_reserved": 0, "is_disabled": 0, "fusion_lat": 0.0, "type": "electric_scooter", "name": "bffa3033db9d1ec0db514b0775a8e307", "lat": 38.91262533333333, "bike_id": "bffa3033db9d1ec0db514b0775a8e307"}, {"lon": -77.04334133333333, "rental_uris": {"android": "https://dc.lft.to/lastmile_qr_scan", "ios": "https://dc.lft.to/lastmile_qr_scan"}, "fusion_lon": 0.0, "is_reserved": 0, "is_disabled": 0, "fusion_lat": 0.0, "type": "electric_scooter", "name": "64b8bc213ca95f7f17d0e151174893a5", "lat": 38.89219083333333, "bike_id": "64b8bc213ca95f7f17d0e151174893a5"}, {"lon": -77.04014916666667, "rental_uris": {"android": "https://dc.lft.to/lastmile_qr_scan", "ios": "https://dc.lft.to/lastmile_qr_scan"}, "fusion_lon": 0.0, "is_reserved": 0, "is_disabled": 0, "fusion_lat": 0.0, "type": "electric_scooter", "name": "3e67616f3448866b7c06672f87b84cf1", "lat": 38.90327033333333, "bike_id": "3e67616f3448866b7c06672f87b84cf1"}, {"lon": -77.04250033333334, "rental_uris": {"android": "https://dc.lft.to/lastmile_qr_scan", "ios": "https://dc.lft.to/lastmile_qr_scan"}, "fusion_lon": 0.0, "is_reserved": 0, "is_disabled": 0, "fusion_lat": 0.0, "type": "electric_scooter", "name": "1f2b6ae4e956564fb4fac1ac67d19a9d", "lat": 38.92179516666667, "bike_id": "1f2b6ae4e956564fb4fac1ac67d19a9d"}, {"lon": -76.92658583333333, "rental_uris": {"android": "https://dc.lft.to/lastmile_qr_scan", "ios": "https://dc.lft.to/lastmile_qr_scan"}, "fusion_lon": 0.0, "is_reserved": 0, "is_disabled": 0, "fusion_lat": 0.0, "type": "electric_scooter", "name": "e0eb99c059e8785012c15d6defd510f5", "lat": 38.89170716666667, "bike_id": "e0eb99c059e8785012c15d6defd510f5"}, {"lon": -77.00026883333334, "rental_uris": {"android": "https://dc.lft.to/lastmile_qr_scan", "ios": "https://dc.lft.to/lastmile_qr_scan"}, "fusion_lon": 0.0, "is_reserved": 0, "is_disabled": 0, "fusion_lat": 0.0, "type": "electric_scooter", "name": "60f479c9993b7ebd2ff68073f236bbd6", "lat": 38.8749215, "bike_id": "60f479c9993b7ebd2ff68073f236bbd6"}, {"lon": -76.99820516666666, "rental_uris": {"android": "https://dc.lft.to/lastmile_qr_scan", "ios": "https://dc.lft.to/lastmile_qr_scan"}, "fusion_lon": 0.0, "is_reserved": 0, "is_disabled": 0, "fusion_lat": 0.0, "type": "electric_bike", "name": "2c272d1ae39be3ab94ebd46ab2204d9b", "lat": 38.81958316666667, "bike_id": "2c272d1ae39be3ab94ebd46ab2204d9b"}, {"lon": -77.04131233333334, "rental_uris": {"android": "https://dc.lft.to/lastmile_qr_scan", "ios": "https://dc.lft.to/lastmile_qr_scan"}, "fusion_lon": 0.0, "is_reserved": 0, "is_disabled": 0, "fusion_lat": 0.0, "type": "electric_scooter", "name": "5bb827aacbb43d2d214fc70c5cec6351", "lat": 38.899953, "bike_id": "5bb827aacbb43d2d214fc70c5cec6351"}, {"lon": -77.05035833333334, "rental_uris": {"android": "https://dc.lft.to/lastmile_qr_scan", "ios": "https://dc.lft.to/lastmile_qr_scan"}, "fusion_lon": 0.0, "is_reserved": 0, "is_disabled": 0, "fusion_lat": 0.0, "type": "electric_scooter", "name": "b6823aaef35c6b2bdf49e8ea2faf9da8", "lat": 38.90370933333333, "bike_id": "b6823aaef35c6b2bdf49e8ea2faf9da8"}, {"lon": -77.05039366666666, "rental_uris": {"android": "https://dc.lft.to/lastmile_qr_scan", "ios": "https://dc.lft.to/lastmile_qr_scan"}, "fusion_lon": 0.0, "is_reserved": 0, "is_disabled": 0, "fusion_lat": 0.0, "type": "electric_scooter", "name": "1742593483cade906e711bbce0cbffe0", "lat": 38.9251735, "bike_id": "1742593483cade906e711bbce0cbffe0"}, {"lon": -76.98984383333334, "rental_uris": {"android": "https://dc.lft.to/lastmile_qr_scan", "ios": "https://dc.lft.to/lastmile_qr_scan"}, "fusion_lon": 0.0, "is_reserved": 0, "is_disabled": 0, "fusion_lat": 0.0, "type": "electric_scooter", "name": "592222f101ce005415dae76d1fa86d46", "lat": 38.924391166666666, "bike_id": "592222f101ce005415dae76d1fa86d46"}, {"lon": -77.0322905, "rental_uris": {"android": "https://dc.lft.to/lastmile_qr_scan", "ios": "https://dc.lft.to/lastmile_qr_scan"}, "fusion_lon": 0.0, "is_reserved": 0, "is_disabled": 0, "fusion_lat": 0.0, "type": "electric_scooter", "name": "f7213cd4c6c4913845c7b2d93357ab4d", "lat": 38.90014883333333, "bike_id": "f7213cd4c6c4913845c7b2d93357ab4d"}, {"lon": -77.0344075, "rental_uris": {"android": "https://dc.lft.to/lastmile_qr_scan", "ios": "https://dc.lft.to/lastmile_qr_scan"}, "fusion_lon": 0.0, "is_reserved": 0, "is_disabled": 0, "fusion_lat": 0.0, "type": "electric_scooter", "name": "2943405f19fd1017a732d917f163f997", "lat": 38.90947933333333, "bike_id": "2943405f19fd1017a732d917f163f997"}, {"lon": -76.98773583333333, "rental_uris": {"android": "https://dc.lft.to/lastmile_qr_scan", "ios": "https://dc.lft.to/lastmile_qr_scan"}, "fusion_lon": 0.0, "is_reserved": 0, "is_disabled": 0, "fusion_lat": 0.0, "type": "electric_scooter", "name": "435ce26b6ff82e17ba116b01090d2d53", "lat": 38.911984, "bike_id": "435ce26b6ff82e17ba116b01090d2d53"}, {"lon": -77.05262416666666, "rental_uris": {"android": "https://dc.lft.to/lastmile_qr_scan", "ios": "https://dc.lft.to/lastmile_qr_scan"}, "fusion_lon": 0.0, "is_reserved": 0, "is_disabled": 0, "fusion_lat": 0.0, "type": "electric_scooter", "name": "302b7efed80f2a846bcd1808e75a6852", "lat": 38.927640833333335, "bike_id": "302b7efed80f2a846bcd1808e75a6852"}, {"lon": -77.117793, "rental_uris": {"android": "https://dc.lft.to/lastmile_qr_scan", "ios": "https://dc.lft.to/lastmile_qr_scan"}, "fusion_lon": 0.0, "is_reserved": 0, "is_disabled": 0, "fusion_lat": 0.0, "type": "electric_bike", "name": "5a434d901d74d245d01d6a513e2f7d13", "lat": 38.81245666666667, "bike_id": "5a434d901d74d245d01d6a513e2f7d13"}, {"lon": -77.04182, "rental_uris": {"android": "https://dc.lft.to/lastmile_qr_scan", "ios": "https://dc.lft.to/lastmile_qr_scan"}, "fusion_lon": 0.0, "is_reserved": 0, "is_disabled": 0, "fusion_lat": 0.0, "type": "electric_scooter", "name": "93d5bd14e789747635adaad8e8927fff", "lat": 38.911317833333335, "bike_id": "93d5bd14e789747635adaad8e8927fff"}, {"lon": -77.01769466666667, "rental_uris": {"android": "https://dc.lft.to/lastmile_qr_scan", "ios": "https://dc.lft.to/lastmile_qr_scan"}, "fusion_lon": 0.0, "is_reserved": 0, "is_disabled": 0, "fusion_lat": 0.0, "type": "electric_scooter", "name": "d011dbea47314db626ab026bcc81ecf6", "lat": 38.921143, "bike_id": "d011dbea47314db626ab026bcc81ecf6"}, {"lon": -77.00688166666667, "rental_uris": {"android": "https://dc.lft.to/lastmile_qr_scan", "ios": "https://dc.lft.to/lastmile_qr_scan"}, "fusion_lon": 0.0, "is_reserved": 0, "is_disabled": 0, "fusion_lat": 0.0, "type": "electric_scooter", "name": "627c6f044db19083db724360a678d4f7", "lat": 38.87141733333333, "bike_id": "627c6f044db19083db724360a678d4f7"}, {"lon": -76.97012983333333, "rental_uris": {"android": "https://dc.lft.to/lastmile_qr_scan", "ios": "https://dc.lft.to/lastmile_qr_scan"}, "fusion_lon": 0.0, "is_reserved": 0, "is_disabled": 0, "fusion_lat": 0.0, "type": "electric_bike", "name": "49dd9ee8b08762b3c07963f58e034512", "lat": 38.863673, "bike_id": "49dd9ee8b08762b3c07963f58e034512"}, {"lon": -77.0374195, "rental_uris": {"android": "https://dc.lft.to/lastmile_qr_scan", "ios": "https://dc.lft.to/lastmile_qr_scan"}, "fusion_lon": 0.0, "is_reserved": 0, "is_disabled": 0, "fusion_lat": 0.0, "type": "electric_scooter", "name": "b42a364636ac2d1ff2b86c7b6688a031", "lat": 38.90759633333333, "bike_id": "b42a364636ac2d1ff2b86c7b6688a031"}, {"lon": -77.03427916666666, "rental_uris": {"android": "https://dc.lft.to/lastmile_qr_scan", "ios": "https://dc.lft.to/lastmile_qr_scan"}, "fusion_lon": 0.0, "is_reserved": 0, "is_disabled": 0, "fusion_lat": 0.0, "type": "electric_scooter", "name": "835be026098a164ec0bb3c18f1ab95d4", "lat": 38.902535666666665, "bike_id": "835be026098a164ec0bb3c18f1ab95d4"}, {"lon": -77.04245083333333, "rental_uris": {"android": "https://dc.lft.to/lastmile_qr_scan", "ios": "https://dc.lft.to/lastmile_qr_scan"}, "fusion_lon": 0.0, "is_reserved": 0, "is_disabled": 0, "fusion_lat": 0.0, "type": "electric_scooter", "name": "f915c70f9eccf7ed197bf6f633946016", "lat": 38.9243505, "bike_id": "f915c70f9eccf7ed197bf6f633946016"}, {"lon": -76.98362033333333, "rental_uris": {"android": "https://dc.lft.to/lastmile_qr_scan", "ios": "https://dc.lft.to/lastmile_qr_scan"}, "fusion_lon": 0.0, "is_reserved": 0, "is_disabled": 0, "fusion_lat": 0.0, "type": "electric_scooter", "name": "1939e1d106889462faa32ca8fabe2b44", "lat": 38.91544183333333, "bike_id": "1939e1d106889462faa32ca8fabe2b44"}, {"lon": -77.04197633333334, "rental_uris": {"android": "https://dc.lft.to/lastmile_qr_scan", "ios": "https://dc.lft.to/lastmile_qr_scan"}, "fusion_lon": 0.0, "is_reserved": 0, "is_disabled": 0, "fusion_lat": 0.0, "type": "electric_scooter", "name": "3891617f218072300aaac0651a375912", "lat": 38.92623483333333, "bike_id": "3891617f218072300aaac0651a375912"}, {"lon": -77.04411533333334, "rental_uris": {"android": "https://dc.lft.to/lastmile_qr_scan", "ios": "https://dc.lft.to/lastmile_qr_scan"}, "fusion_lon": 0.0, "is_reserved": 0, "is_disabled": 0, "fusion_lat": 0.0, "type": "electric_scooter", "name": "5c0bd7301d43d0313035e7a3c2dc080a", "lat": 38.92018316666667, "bike_id": "5c0bd7301d43d0313035e7a3c2dc080a"}, {"lon": -77.03661116666666, "rental_uris": {"android": "https://dc.lft.to/lastmile_qr_scan", "ios": "https://dc.lft.to/lastmile_qr_scan"}, "fusion_lon": 0.0, "is_reserved": 0, "is_disabled": 0, "fusion_lat": 0.0, "type": "electric_scooter", "name": "c6bc453f9a0e4bf2b6862984c660d41e", "lat": 38.9211805, "bike_id": "c6bc453f9a0e4bf2b6862984c660d41e"}, {"lon": -77.00584966666666, "rental_uris": {"android": "https://dc.lft.to/lastmile_qr_scan", "ios": "https://dc.lft.to/lastmile_qr_scan"}, "fusion_lon": 0.0, "is_reserved": 0, "is_disabled": 0, "fusion_lat": 0.0, "type": "electric_scooter", "name": "5f563ce4deffe384fd553e19104ce373", "lat": 38.872336833333335, "bike_id": "5f563ce4deffe384fd553e19104ce373"}, {"lon": -77.04522066666667, "rental_uris": {"android": "https://dc.lft.to/lastmile_qr_scan", "ios": "https://dc.lft.to/lastmile_qr_scan"}, "fusion_lon": 0.0, "is_reserved": 0, "is_disabled": 0, "fusion_lat": 0.0, "type": "electric_scooter", "name": "0df0b9e8c19277fe2b6dbe03295f3542", "lat": 38.90601383333333, "bike_id": "0df0b9e8c19277fe2b6dbe03295f3542"}, {"lon": -77.0254455, "rental_uris": {"android": "https://dc.lft.to/lastmile_qr_scan", "ios": "https://dc.lft.to/lastmile_qr_scan"}, "fusion_lon": 0.0, "is_reserved": 0, "is_disabled": 0, "fusion_lat": 0.0, "type": "electric_scooter", "name": "ab68f440404bc25bb38c4d3f48e4c183", "lat": 38.930947333333336, "bike_id": "ab68f440404bc25bb38c4d3f48e4c183"}, {"lon": -77.01860516666666, "rental_uris": {"android": "https://dc.lft.to/lastmile_qr_scan", "ios": "https://dc.lft.to/lastmile_qr_scan"}, "fusion_lon": 0.0, "is_reserved": 0, "is_disabled": 0, "fusion_lat": 0.0, "type": "electric_scooter", "name": "3acbc2a1f0fd6c5c2c6c54463ea107e5", "lat": 38.9542805, "bike_id": "3acbc2a1f0fd6c5c2c6c54463ea107e5"}, {"lon": -77.0779035, "rental_uris": {"android": "https://dc.lft.to/lastmile_qr_scan", "ios": "https://dc.lft.to/lastmile_qr_scan"}, "fusion_lon": 0.0, "is_reserved": 0, "is_disabled": 0, "fusion_lat": 0.0, "type": "electric_bike", "name": "f62905ebbbfd1851cdd14351cca4e452", "lat": 38.9949165, "bike_id": "f62905ebbbfd1851cdd14351cca4e452"}, {"lon": -77.04354833333333, "rental_uris": {"android": "https://dc.lft.to/lastmile_qr_scan", "ios": "https://dc.lft.to/lastmile_qr_scan"}, "fusion_lon": 0.0, "is_reserved": 0, "is_disabled": 0, "fusion_lat": 0.0, "type": "electric_scooter", "name": "5c119fd12819c9a696b1148d0938ef01", "lat": 38.9214695, "bike_id": "5c119fd12819c9a696b1148d0938ef01"}, {"lon": -77.03874016666667, "rental_uris": {"android": "https://dc.lft.to/lastmile_qr_scan", "ios": "https://dc.lft.to/lastmile_qr_scan"}, "fusion_lon": 0.0, "is_reserved": 0, "is_disabled": 0, "fusion_lat": 0.0, "type": "electric_scooter", "name": "7c028e4398977449c63ed5530cc6f7b3", "lat": 38.902823166666664, "bike_id": "7c028e4398977449c63ed5530cc6f7b3"}, {"lon": -77.042681, "rental_uris": {"android": "https://dc.lft.to/lastmile_qr_scan", "ios": "https://dc.lft.to/lastmile_qr_scan"}, "fusion_lon": 0.0, "is_reserved": 0, "is_disabled": 0, "fusion_lat": 0.0, "type": "electric_scooter", "name": "e7d9bbbe5fb1ec1ebb14678761653693", "lat": 38.9234875, "bike_id": "e7d9bbbe5fb1ec1ebb14678761653693"}, {"lon": -77.02647566666667, "rental_uris": {"android": "https://dc.lft.to/lastmile_qr_scan", "ios": "https://dc.lft.to/lastmile_qr_scan"}, "fusion_lon": 0.0, "is_reserved": 0, "is_disabled": 0, "fusion_lat": 0.0, "type": "electric_scooter", "name": "cd6c398af0c83c946ca4d94df44c3505", "lat": 38.94102483333333, "bike_id": "cd6c398af0c83c946ca4d94df44c3505"}, {"lon": -77.04097166666666, "rental_uris": {"android": "https://dc.lft.to/lastmile_qr_scan", "ios": "https://dc.lft.to/lastmile_qr_scan"}, "fusion_lon": 0.0, "is_reserved": 0, "is_disabled": 0, "fusion_lat": 0.0, "type": "electric_scooter", "name": "6713c154779ab4b6de39053ddac4f3ed", "lat": 38.8982895, "bike_id": "6713c154779ab4b6de39053ddac4f3ed"}, {"lon": -77.03062483333333, "rental_uris": {"android": "https://dc.lft.to/lastmile_qr_scan", "ios": "https://dc.lft.to/lastmile_qr_scan"}, "fusion_lon": 0.0, "is_reserved": 0, "is_disabled": 0, "fusion_lat": 0.0, "type": "electric_scooter", "name": "cfc8b276f9f913b32f704a449a4f596f", "lat": 38.92249916666667, "bike_id": "cfc8b276f9f913b32f704a449a4f596f"}, {"lon": -76.96915116666666, "rental_uris": {"android": "https://dc.lft.to/lastmile_qr_scan", "ios": "https://dc.lft.to/lastmile_qr_scan"}, "fusion_lon": 0.0, "is_reserved": 0, "is_disabled": 0, "fusion_lat": 0.0, "type": "electric_bike", "name": "640b706f81d42aedd3eda5b5326f7617", "lat": 38.8460665, "bike_id": "640b706f81d42aedd3eda5b5326f7617"}, {"lon": -77.02007566666667, "rental_uris": {"android": "https://dc.lft.to/lastmile_qr_scan", "ios": "https://dc.lft.to/lastmile_qr_scan"}, "fusion_lon": 0.0, "is_reserved": 0, "is_disabled": 0, "fusion_lat": 0.0, "type": "electric_scooter", "name": "0f8d1e1c0d440f5bbde2bba6d674821d", "lat": 38.9242115, "bike_id": "0f8d1e1c0d440f5bbde2bba6d674821d"}, {"lon": -77.0209615, "rental_uris": {"android": "https://dc.lft.to/lastmile_qr_scan", "ios": "https://dc.lft.to/lastmile_qr_scan"}, "fusion_lon": 0.0, "is_reserved": 0, "is_disabled": 0, "fusion_lat": 0.0, "type": "electric_scooter", "name": "4bf0b154e1c8f33333105166536d910e", "lat": 38.894135166666665, "bike_id": "4bf0b154e1c8f33333105166536d910e"}, {"lon": -77.043262, "rental_uris": {"android": "https://dc.lft.to/lastmile_qr_scan", "ios": "https://dc.lft.to/lastmile_qr_scan"}, "fusion_lon": 0.0, "is_reserved": 0, "is_disabled": 0, "fusion_lat": 0.0, "type": "electric_scooter", "name": "c8e1887b1387646d5b84e278ccfce95d", "lat": 38.8922055, "bike_id": "c8e1887b1387646d5b84e278ccfce95d"}, {"lon": -76.98600416666666, "rental_uris": {"android": "https://dc.lft.to/lastmile_qr_scan", "ios": "https://dc.lft.to/lastmile_qr_scan"}, "fusion_lon": 0.0, "is_reserved": 0, "is_disabled": 0, "fusion_lat": 0.0, "type": "electric_scooter", "name": "19029fe5c511243eaabc7694ebb69276", "lat": 38.8947425, "bike_id": "19029fe5c511243eaabc7694ebb69276"}, {"lon": -77.03324933333333, "rental_uris": {"android": "https://dc.lft.to/lastmile_qr_scan", "ios": "https://dc.lft.to/lastmile_qr_scan"}, "fusion_lon": 0.0, "is_reserved": 0, "is_disabled": 0, "fusion_lat": 0.0, "type": "electric_scooter", "name": "a299785ce171797437e0dafdbfd9fbe8", "lat": 38.90245633333333, "bike_id": "a299785ce171797437e0dafdbfd9fbe8"}, {"lon": -77.03431283333333, "rental_uris": {"android": "https://dc.lft.to/lastmile_qr_scan", "ios": "https://dc.lft.to/lastmile_qr_scan"}, "fusion_lon": 0.0, "is_reserved": 0, "is_disabled": 0, "fusion_lat": 0.0, "type": "electric_scooter", "name": "207194c788590d8103e83b970bbbbb3b", "lat": 38.90958283333333, "bike_id": "207194c788590d8103e83b970bbbbb3b"}, {"lon": -77.0029295, "rental_uris": {"android": "https://dc.lft.to/lastmile_qr_scan", "ios": "https://dc.lft.to/lastmile_qr_scan"}, "fusion_lon": 0.0, "is_reserved": 0, "is_disabled": 0, "fusion_lat": 0.0, "type": "electric_scooter", "name": "328720b2d37ff464faeac704830dfdac", "lat": 38.891928, "bike_id": "328720b2d37ff464faeac704830dfdac"}, {"lon": -76.97340033333333, "rental_uris": {"android": "https://dc.lft.to/lastmile_qr_scan", "ios": "https://dc.lft.to/lastmile_qr_scan"}, "fusion_lon": 0.0, "is_reserved": 0, "is_disabled": 0, "fusion_lat": 0.0, "type": "electric_bike", "name": "a7c0219f079bb74974891b8d790855fe", "lat": 38.89723466666667, "bike_id": "a7c0219f079bb74974891b8d790855fe"}, {"lon": -77.000636, "rental_uris": {"android": "https://dc.lft.to/lastmile_qr_scan", "ios": "https://dc.lft.to/lastmile_qr_scan"}, "fusion_lon": 0.0, "is_reserved": 0, "is_disabled": 0, "fusion_lat": 0.0, "type": "electric_scooter", "name": "d10b60826ae7de1f5ba5d18b2a87a72c", "lat": 38.873684, "bike_id": "d10b60826ae7de1f5ba5d18b2a87a72c"}, {"lon": -76.97796733333334, "rental_uris": {"android": "https://dc.lft.to/lastmile_qr_scan", "ios": "https://dc.lft.to/lastmile_qr_scan"}, "fusion_lon": 0.0, "is_reserved": 0, "is_disabled": 0, "fusion_lat": 0.0, "type": "electric_scooter", "name": "e6d415a7f9e20717237b0da94088a188", "lat": 38.903123666666666, "bike_id": "e6d415a7f9e20717237b0da94088a188"}, {"lon": -77.0113405, "rental_uris": {"android": "https://dc.lft.to/lastmile_qr_scan", "ios": "https://dc.lft.to/lastmile_qr_scan"}, "fusion_lon": 0.0, "is_reserved": 0, "is_disabled": 0, "fusion_lat": 0.0, "type": "electric_scooter", "name": "ef7ae5838372f2012105abcdcdf34892", "lat": 38.895444, "bike_id": "ef7ae5838372f2012105abcdcdf34892"}, {"lon": -77.06358966666667, "rental_uris": {"android": "https://dc.lft.to/lastmile_qr_scan", "ios": "https://dc.lft.to/lastmile_qr_scan"}, "fusion_lon": 0.0, "is_reserved": 0, "is_disabled": 0, "fusion_lat": 0.0, "type": "electric_scooter", "name": "24ddc749c8c57b377218fe22131dbd22", "lat": 38.94449866666667, "bike_id": "24ddc749c8c57b377218fe22131dbd22"}, {"lon": -77.02240133333333, "rental_uris": {"android": "https://dc.lft.to/lastmile_qr_scan", "ios": "https://dc.lft.to/lastmile_qr_scan"}, "fusion_lon": 0.0, "is_reserved": 0, "is_disabled": 0, "fusion_lat": 0.0, "type": "electric_scooter", "name": "0c42cc84bf63b055221ecd50b6474bb9", "lat": 38.91416233333333, "bike_id": "0c42cc84bf63b055221ecd50b6474bb9"}, {"lon": -77.0249775, "rental_uris": {"android": "https://dc.lft.to/lastmile_qr_scan", "ios": "https://dc.lft.to/lastmile_qr_scan"}, "fusion_lon": 0.0, "is_reserved": 0, "is_disabled": 0, "fusion_lat": 0.0, "type": "electric_scooter", "name": "9f2b36cfb448bb2a958f251d62993b67", "lat": 38.9039005, "bike_id": "9f2b36cfb448bb2a958f251d62993b67"}, {"lon": -77.03973033333334, "rental_uris": {"android": "https://dc.lft.to/lastmile_qr_scan", "ios": "https://dc.lft.to/lastmile_qr_scan"}, "fusion_lon": 0.0, "is_reserved": 0, "is_disabled": 0, "fusion_lat": 0.0, "type": "electric_scooter", "name": "f83ee422b57ee610f2820e3cfecadcf2", "lat": 38.9061125, "bike_id": "f83ee422b57ee610f2820e3cfecadcf2"}, {"lon": -77.00895033333333, "rental_uris": {"android": "https://dc.lft.to/lastmile_qr_scan", "ios": "https://dc.lft.to/lastmile_qr_scan"}, "fusion_lon": 0.0, "is_reserved": 0, "is_disabled": 0, "fusion_lat": 0.0, "type": "electric_scooter", "name": "542d89b8b4a59bcd82e3a96ecf053df1", "lat": 38.885032333333335, "bike_id": "542d89b8b4a59bcd82e3a96ecf053df1"}, {"lon": -77.03426366666666, "rental_uris": {"android": "https://dc.lft.to/lastmile_qr_scan", "ios": "https://dc.lft.to/lastmile_qr_scan"}, "fusion_lon": 0.0, "is_reserved": 0, "is_disabled": 0, "fusion_lat": 0.0, "type": "electric_scooter", "name": "9a20d01cd4910d9dcb76658ff9279767", "lat": 38.90387916666667, "bike_id": "9a20d01cd4910d9dcb76658ff9279767"}, {"lon": -77.021607, "rental_uris": {"android": "https://dc.lft.to/lastmile_qr_scan", "ios": "https://dc.lft.to/lastmile_qr_scan"}, "fusion_lon": 0.0, "is_reserved": 0, "is_disabled": 0, "fusion_lat": 0.0, "type": "electric_scooter", "name": "fe60974651ebcd2f4bfaab31b174e112", "lat": 38.92609916666667, "bike_id": "fe60974651ebcd2f4bfaab31b174e112"}, {"lon": -77.04919033333333, "rental_uris": {"android": "https://dc.lft.to/lastmile_qr_scan", "ios": "https://dc.lft.to/lastmile_qr_scan"}, "fusion_lon": 0.0, "is_reserved": 0, "is_disabled": 0, "fusion_lat": 0.0, "type": "electric_scooter", "name": "4ab1bfda719f444a49190e5f1e064e8d", "lat": 38.898314, "bike_id": "4ab1bfda719f444a49190e5f1e064e8d"}, {"lon": -76.99705383333334, "rental_uris": {"android": "https://dc.lft.to/lastmile_qr_scan", "ios": "https://dc.lft.to/lastmile_qr_scan"}, "fusion_lon": 0.0, "is_reserved": 0, "is_disabled": 0, "fusion_lat": 0.0, "type": "electric_bike", "name": "01990c3c4e6285e07156f10b9d873515", "lat": 38.838727666666664, "bike_id": "01990c3c4e6285e07156f10b9d873515"}, {"lon": -77.04673933333333, "rental_uris": {"android": "https://dc.lft.to/lastmile_qr_scan", "ios": "https://dc.lft.to/lastmile_qr_scan"}, "fusion_lon": 0.0, "is_reserved": 0, "is_disabled": 0, "fusion_lat": 0.0, "type": "electric_scooter", "name": "c9e1396779b7a6a5b35289276ba3393a", "lat": 38.90029916666667, "bike_id": "c9e1396779b7a6a5b35289276ba3393a"}, {"lon": -77.06605733333333, "rental_uris": {"android": "https://dc.lft.to/lastmile_qr_scan", "ios": "https://dc.lft.to/lastmile_qr_scan"}, "fusion_lon": 0.0, "is_reserved": 0, "is_disabled": 0, "fusion_lat": 0.0, "type": "electric_scooter", "name": "2769b7f2b5c7fc101929a1ed65bab92e", "lat": 38.90474016666667, "bike_id": "2769b7f2b5c7fc101929a1ed65bab92e"}, {"lon": -76.998092, "rental_uris": {"android": "https://dc.lft.to/lastmile_qr_scan", "ios": "https://dc.lft.to/lastmile_qr_scan"}, "fusion_lon": 0.0, "is_reserved": 0, "is_disabled": 0, "fusion_lat": 0.0, "type": "electric_scooter", "name": "6beb7d22b2785b05cee2178dc0355a93", "lat": 38.876354666666664, "bike_id": "6beb7d22b2785b05cee2178dc0355a93"}, {"lon": -76.98338, "rental_uris": {"android": "https://dc.lft.to/lastmile_qr_scan", "ios": "https://dc.lft.to/lastmile_qr_scan"}, "fusion_lon": 0.0, "is_reserved": 0, "is_disabled": 0, "fusion_lat": 0.0, "type": "electric_scooter", "name": "9e30a988f2617ee7df92ee556e5d54c0", "lat": 38.89540083333333, "bike_id": "9e30a988f2617ee7df92ee556e5d54c0"}, {"lon": -77.00386016666667, "rental_uris": {"android": "https://dc.lft.to/lastmile_qr_scan", "ios": "https://dc.lft.to/lastmile_qr_scan"}, "fusion_lon": 0.0, "is_reserved": 0, "is_disabled": 0, "fusion_lat": 0.0, "type": "electric_scooter", "name": "2be2bc61ae27f9dc65e1564e6791f8c2", "lat": 38.8764235, "bike_id": "2be2bc61ae27f9dc65e1564e6791f8c2"}, {"lon": -77.049951, "rental_uris": {"android": "https://dc.lft.to/lastmile_qr_scan", "ios": "https://dc.lft.to/lastmile_qr_scan"}, "fusion_lon": 0.0, "is_reserved": 0, "is_disabled": 0, "fusion_lat": 0.0, "type": "electric_scooter", "name": "663f3193dbd4e13e1ff3bbeeb968221c", "lat": 38.901164, "bike_id": "663f3193dbd4e13e1ff3bbeeb968221c"}, {"lon": -77.14096683333334, "rental_uris": {"android": "https://dc.lft.to/lastmile_qr_scan", "ios": "https://dc.lft.to/lastmile_qr_scan"}, "fusion_lon": 0.0, "is_reserved": 0, "is_disabled": 0, "fusion_lat": 0.0, "type": "electric_bike", "name": "a956b9541f8ccd03bfd8f79eeb54685d", "lat": 38.987787833333336, "bike_id": "a956b9541f8ccd03bfd8f79eeb54685d"}, {"lon": -77.02957883333333, "rental_uris": {"android": "https://dc.lft.to/lastmile_qr_scan", "ios": "https://dc.lft.to/lastmile_qr_scan"}, "fusion_lon": 0.0, "is_reserved": 0, "is_disabled": 0, "fusion_lat": 0.0, "type": "electric_scooter", "name": "e39c52faa5bd240ce44fc3741677d035", "lat": 38.91721883333334, "bike_id": "e39c52faa5bd240ce44fc3741677d035"}, {"lon": -76.99489683333333, "rental_uris": {"android": "https://dc.lft.to/lastmile_qr_scan", "ios": "https://dc.lft.to/lastmile_qr_scan"}, "fusion_lon": 0.0, "is_reserved": 0, "is_disabled": 0, "fusion_lat": 0.0, "type": "electric_bike", "name": "929199725c1ab7b8061b498b0ee926be", "lat": 38.8620355, "bike_id": "929199725c1ab7b8061b498b0ee926be"}, {"lon": -77.02218733333333, "rental_uris": {"android": "https://dc.lft.to/lastmile_qr_scan", "ios": "https://dc.lft.to/lastmile_qr_scan"}, "fusion_lon": 0.0, "is_reserved": 0, "is_disabled": 0, "fusion_lat": 0.0, "type": "electric_scooter", "name": "5bfb6a6cb84bc162d47a0e3b3bfe2a41", "lat": 38.92466366666667, "bike_id": "5bfb6a6cb84bc162d47a0e3b3bfe2a41"}, {"lon": -77.02821083333333, "rental_uris": {"android": "https://dc.lft.to/lastmile_qr_scan", "ios": "https://dc.lft.to/lastmile_qr_scan"}, "fusion_lon": 0.0, "is_reserved": 0, "is_disabled": 0, "fusion_lat": 0.0, "type": "electric_scooter", "name": "1c3a725d7cbf5637a28a4ef39a9f4d9d", "lat": 38.895162166666665, "bike_id": "1c3a725d7cbf5637a28a4ef39a9f4d9d"}, {"lon": -77.00205933333334, "rental_uris": {"android": "https://dc.lft.to/lastmile_qr_scan", "ios": "https://dc.lft.to/lastmile_qr_scan"}, "fusion_lon": 0.0, "is_reserved": 0, "is_disabled": 0, "fusion_lat": 0.0, "type": "electric_scooter", "name": "494515d8e46600cbe8716bdf4ca58630", "lat": 38.9003665, "bike_id": "494515d8e46600cbe8716bdf4ca58630"}, {"lon": -77.05250866666667, "rental_uris": {"android": "https://dc.lft.to/lastmile_qr_scan", "ios": "https://dc.lft.to/lastmile_qr_scan"}, "fusion_lon": 0.0, "is_reserved": 0, "is_disabled": 0, "fusion_lat": 0.0, "type": "electric_scooter", "name": "815ef4697342e27ea659e0130ec9db6b", "lat": 38.925476333333336, "bike_id": "815ef4697342e27ea659e0130ec9db6b"}, {"lon": -77.04571133333333, "rental_uris": {"android": "https://dc.lft.to/lastmile_qr_scan", "ios": "https://dc.lft.to/lastmile_qr_scan"}, "fusion_lon": 0.0, "is_reserved": 0, "is_disabled": 0, "fusion_lat": 0.0, "type": "electric_scooter", "name": "33443787bf5216a77c88441ef819bb06", "lat": 38.913031, "bike_id": "33443787bf5216a77c88441ef819bb06"}, {"lon": -77.03577166666666, "rental_uris": {"android": "https://dc.lft.to/lastmile_qr_scan", "ios": "https://dc.lft.to/lastmile_qr_scan"}, "fusion_lon": 0.0, "is_reserved": 0, "is_disabled": 0, "fusion_lat": 0.0, "type": "electric_scooter", "name": "09387c8d2de0d2068ff35a5f8b863f2a", "lat": 38.90837466666667, "bike_id": "09387c8d2de0d2068ff35a5f8b863f2a"}, {"lon": -76.98376166666667, "rental_uris": {"android": "https://dc.lft.to/lastmile_qr_scan", "ios": "https://dc.lft.to/lastmile_qr_scan"}, "fusion_lon": 0.0, "is_reserved": 0, "is_disabled": 0, "fusion_lat": 0.0, "type": "electric_scooter", "name": "752e3b55aa9acd5b903f4fd9151f6cee", "lat": 38.889930166666666, "bike_id": "752e3b55aa9acd5b903f4fd9151f6cee"}, {"lon": -77.041543, "rental_uris": {"android": "https://dc.lft.to/lastmile_qr_scan", "ios": "https://dc.lft.to/lastmile_qr_scan"}, "fusion_lon": 0.0, "is_reserved": 0, "is_disabled": 0, "fusion_lat": 0.0, "type": "electric_scooter", "name": "8c86cc46644856f7fb5d140d75b0e466", "lat": 38.9073265, "bike_id": "8c86cc46644856f7fb5d140d75b0e466"}, {"lon": -77.01556133333334, "rental_uris": {"android": "https://dc.lft.to/lastmile_qr_scan", "ios": "https://dc.lft.to/lastmile_qr_scan"}, "fusion_lon": 0.0, "is_reserved": 0, "is_disabled": 0, "fusion_lat": 0.0, "type": "electric_scooter", "name": "5c6e54d613c82eeda1210cc41abb2fc5", "lat": 38.89173183333333, "bike_id": "5c6e54d613c82eeda1210cc41abb2fc5"}, {"lon": -77.07101733333333, "rental_uris": {"android": "https://dc.lft.to/lastmile_qr_scan", "ios": "https://dc.lft.to/lastmile_qr_scan"}, "fusion_lon": 0.0, "is_reserved": 0, "is_disabled": 0, "fusion_lat": 0.0, "type": "electric_scooter", "name": "fb9936c24102fa77bbd49ac7fcf61bd1", "lat": 38.91972916666667, "bike_id": "fb9936c24102fa77bbd49ac7fcf61bd1"}, {"lon": -77.00537233333333, "rental_uris": {"android": "https://dc.lft.to/lastmile_qr_scan", "ios": "https://dc.lft.to/lastmile_qr_scan"}, "fusion_lon": 0.0, "is_reserved": 0, "is_disabled": 0, "fusion_lat": 0.0, "type": "electric_scooter", "name": "46c41d4b6f42ca014605ab0e8a50030c", "lat": 38.875435, "bike_id": "46c41d4b6f42ca014605ab0e8a50030c"}, {"lon": -76.9461695, "rental_uris": {"android": "https://dc.lft.to/lastmile_qr_scan", "ios": "https://dc.lft.to/lastmile_qr_scan"}, "fusion_lon": 0.0, "is_reserved": 0, "is_disabled": 0, "fusion_lat": 0.0, "type": "electric_scooter", "name": "e1d1f622988ae27b1ee29ca0976c2c32", "lat": 38.89823633333334, "bike_id": "e1d1f622988ae27b1ee29ca0976c2c32"}, {"lon": -77.005843, "rental_uris": {"android": "https://dc.lft.to/lastmile_qr_scan", "ios": "https://dc.lft.to/lastmile_qr_scan"}, "fusion_lon": 0.0, "is_reserved": 0, "is_disabled": 0, "fusion_lat": 0.0, "type": "electric_scooter", "name": "909cd3916416b7a999ba57e228043ae5", "lat": 38.8756115, "bike_id": "909cd3916416b7a999ba57e228043ae5"}, {"lon": -77.02548083333333, "rental_uris": {"android": "https://dc.lft.to/lastmile_qr_scan", "ios": "https://dc.lft.to/lastmile_qr_scan"}, "fusion_lon": 0.0, "is_reserved": 0, "is_disabled": 0, "fusion_lat": 0.0, "type": "electric_scooter", "name": "eb2dd63f0fd555809e5c5d302b2f1b20", "lat": 38.900689, "bike_id": "eb2dd63f0fd555809e5c5d302b2f1b20"}, {"lon": -77.01484483333333, "rental_uris": {"android": "https://dc.lft.to/lastmile_qr_scan", "ios": "https://dc.lft.to/lastmile_qr_scan"}, "fusion_lon": 0.0, "is_reserved": 0, "is_disabled": 0, "fusion_lat": 0.0, "type": "electric_scooter", "name": "981bf57b616e0f7b43c7d3aa8c41cfaa", "lat": 38.915926, "bike_id": "981bf57b616e0f7b43c7d3aa8c41cfaa"}, {"lon": -76.982939, "rental_uris": {"android": "https://dc.lft.to/lastmile_qr_scan", "ios": "https://dc.lft.to/lastmile_qr_scan"}, "fusion_lon": 0.0, "is_reserved": 0, "is_disabled": 0, "fusion_lat": 0.0, "type": "electric_scooter", "name": "06dc2edd51fdbb45ba1c0333020963d5", "lat": 38.88757283333333, "bike_id": "06dc2edd51fdbb45ba1c0333020963d5"}, {"lon": -77.02808466666667, "rental_uris": {"android": "https://dc.lft.to/lastmile_qr_scan", "ios": "https://dc.lft.to/lastmile_qr_scan"}, "fusion_lon": 0.0, "is_reserved": 0, "is_disabled": 0, "fusion_lat": 0.0, "type": "electric_scooter", "name": "3550350862d9a68ac5fed9c06e88b8d3", "lat": 38.904875833333335, "bike_id": "3550350862d9a68ac5fed9c06e88b8d3"}, {"lon": -77.04205733333333, "rental_uris": {"android": "https://dc.lft.to/lastmile_qr_scan", "ios": "https://dc.lft.to/lastmile_qr_scan"}, "fusion_lon": 0.0, "is_reserved": 0, "is_disabled": 0, "fusion_lat": 0.0, "type": "electric_scooter", "name": "00a96a7a9cc66fdc489bf96731b4c606", "lat": 38.89805966666667, "bike_id": "00a96a7a9cc66fdc489bf96731b4c606"}, {"lon": -77.03275266666667, "rental_uris": {"android": "https://dc.lft.to/lastmile_qr_scan", "ios": "https://dc.lft.to/lastmile_qr_scan"}, "fusion_lon": 0.0, "is_reserved": 0, "is_disabled": 0, "fusion_lat": 0.0, "type": "electric_scooter", "name": "77b96b059a6cb6a1a47ed5661eaad03d", "lat": 38.92982683333334, "bike_id": "77b96b059a6cb6a1a47ed5661eaad03d"}, {"lon": -77.035753, "rental_uris": {"android": "https://dc.lft.to/lastmile_qr_scan", "ios": "https://dc.lft.to/lastmile_qr_scan"}, "fusion_lon": 0.0, "is_reserved": 0, "is_disabled": 0, "fusion_lat": 0.0, "type": "electric_scooter", "name": "19a40cba30d9d1000680a45d7ea58416", "lat": 38.907154166666665, "bike_id": "19a40cba30d9d1000680a45d7ea58416"}, {"lon": -77.03866583333334, "rental_uris": {"android": "https://dc.lft.to/lastmile_qr_scan", "ios": "https://dc.lft.to/lastmile_qr_scan"}, "fusion_lon": 0.0, "is_reserved": 0, "is_disabled": 0, "fusion_lat": 0.0, "type": "electric_scooter", "name": "99a55d0b969950f2103bee117fa68e63", "lat": 38.9064995, "bike_id": "99a55d0b969950f2103bee117fa68e63"}, {"lon": -76.97425766666667, "rental_uris": {"android": "https://dc.lft.to/lastmile_qr_scan", "ios": "https://dc.lft.to/lastmile_qr_scan"}, "fusion_lon": 0.0, "is_reserved": 0, "is_disabled": 0, "fusion_lat": 0.0, "type": "electric_scooter", "name": "b59fc343b8fc6cd540a13479287286b6", "lat": 38.90203133333333, "bike_id": "b59fc343b8fc6cd540a13479287286b6"}, {"lon": -77.034231, "rental_uris": {"android": "https://dc.lft.to/lastmile_qr_scan", "ios": "https://dc.lft.to/lastmile_qr_scan"}, "fusion_lon": 0.0, "is_reserved": 0, "is_disabled": 0, "fusion_lat": 0.0, "type": "electric_scooter", "name": "70436e287e720c0bc28df8a0f49ade80", "lat": 38.90555366666667, "bike_id": "70436e287e720c0bc28df8a0f49ade80"}, {"lon": -76.98666833333333, "rental_uris": {"android": "https://dc.lft.to/lastmile_qr_scan", "ios": "https://dc.lft.to/lastmile_qr_scan"}, "fusion_lon": 0.0, "is_reserved": 0, "is_disabled": 0, "fusion_lat": 0.0, "type": "electric_scooter", "name": "ecbcb9599b5a35ccdea4a5db70b7c2f8", "lat": 38.90612866666667, "bike_id": "ecbcb9599b5a35ccdea4a5db70b7c2f8"}, {"lon": -77.02656266666666, "rental_uris": {"android": "https://dc.lft.to/lastmile_qr_scan", "ios": "https://dc.lft.to/lastmile_qr_scan"}, "fusion_lon": 0.0, "is_reserved": 0, "is_disabled": 0, "fusion_lat": 0.0, "type": "electric_scooter", "name": "82dc7a0ab5b4323d95583e1a9507c464", "lat": 38.892116, "bike_id": "82dc7a0ab5b4323d95583e1a9507c464"}, {"lon": -77.027029, "rental_uris": {"android": "https://dc.lft.to/lastmile_qr_scan", "ios": "https://dc.lft.to/lastmile_qr_scan"}, "fusion_lon": 0.0, "is_reserved": 0, "is_disabled": 0, "fusion_lat": 0.0, "type": "electric_bike", "name": "4b1bf0cc28093a35b3b5d2123d7579b2", "lat": 38.910677166666666, "bike_id": "4b1bf0cc28093a35b3b5d2123d7579b2"}, {"lon": -76.9805705, "rental_uris": {"android": "https://dc.lft.to/lastmile_qr_scan", "ios": "https://dc.lft.to/lastmile_qr_scan"}, "fusion_lon": 0.0, "is_reserved": 0, "is_disabled": 0, "fusion_lat": 0.0, "type": "electric_scooter", "name": "fe0c36fce8b3e7b65463f926359010df", "lat": 38.884888333333336, "bike_id": "fe0c36fce8b3e7b65463f926359010df"}, {"lon": -77.07555016666667, "rental_uris": {"android": "https://dc.lft.to/lastmile_qr_scan", "ios": "https://dc.lft.to/lastmile_qr_scan"}, "fusion_lon": 0.0, "is_reserved": 0, "is_disabled": 0, "fusion_lat": 0.0, "type": "electric_scooter", "name": "e779e550738ebd52dfe22a38e78e4f90", "lat": 38.920898333333334, "bike_id": "e779e550738ebd52dfe22a38e78e4f90"}, {"lon": -77.02210883333333, "rental_uris": {"android": "https://dc.lft.to/lastmile_qr_scan", "ios": "https://dc.lft.to/lastmile_qr_scan"}, "fusion_lon": 0.0, "is_reserved": 0, "is_disabled": 0, "fusion_lat": 0.0, "type": "electric_scooter", "name": "e2b69efcf64c312369f1c57cad84d15e", "lat": 38.886147666666666, "bike_id": "e2b69efcf64c312369f1c57cad84d15e"}, {"lon": -77.00795666666667, "rental_uris": {"android": "https://dc.lft.to/lastmile_qr_scan", "ios": "https://dc.lft.to/lastmile_qr_scan"}, "fusion_lon": 0.0, "is_reserved": 0, "is_disabled": 0, "fusion_lat": 0.0, "type": "electric_scooter", "name": "e10104ef3564a6b164f1dc64102ae6ae", "lat": 38.89717433333333, "bike_id": "e10104ef3564a6b164f1dc64102ae6ae"}, {"lon": -76.94197666666666, "rental_uris": {"android": "https://dc.lft.to/lastmile_qr_scan", "ios": "https://dc.lft.to/lastmile_qr_scan"}, "fusion_lon": 0.0, "is_reserved": 0, "is_disabled": 0, "fusion_lat": 0.0, "type": "electric_scooter", "name": "f9335b131b56c4ea6a91d5afe8ac3f4e", "lat": 38.90222583333333, "bike_id": "f9335b131b56c4ea6a91d5afe8ac3f4e"}, {"lon": -76.9947805, "rental_uris": {"android": "https://dc.lft.to/lastmile_qr_scan", "ios": "https://dc.lft.to/lastmile_qr_scan"}, "fusion_lon": 0.0, "is_reserved": 0, "is_disabled": 0, "fusion_lat": 0.0, "type": "electric_scooter", "name": "1fb73a8285af6332629ffa143fb8ad1e", "lat": 38.9054605, "bike_id": "1fb73a8285af6332629ffa143fb8ad1e"}, {"lon": -76.95290483333333, "rental_uris": {"android": "https://dc.lft.to/lastmile_qr_scan", "ios": "https://dc.lft.to/lastmile_qr_scan"}, "fusion_lon": 0.0, "is_reserved": 0, "is_disabled": 0, "fusion_lat": 0.0, "type": "electric_scooter", "name": "57eb88ecc394b7a943ad3edc376b203f", "lat": 38.885103666666666, "bike_id": "57eb88ecc394b7a943ad3edc376b203f"}, {"lon": -77.02195366666666, "rental_uris": {"android": "https://dc.lft.to/lastmile_qr_scan", "ios": "https://dc.lft.to/lastmile_qr_scan"}, "fusion_lon": 0.0, "is_reserved": 0, "is_disabled": 0, "fusion_lat": 0.0, "type": "electric_scooter", "name": "8ea5b231a802fb638fa04728e6ff60e6", "lat": 38.90200766666667, "bike_id": "8ea5b231a802fb638fa04728e6ff60e6"}, {"lon": -76.99632966666667, "rental_uris": {"android": "https://dc.lft.to/lastmile_qr_scan", "ios": "https://dc.lft.to/lastmile_qr_scan"}, "fusion_lon": 0.0, "is_reserved": 0, "is_disabled": 0, "fusion_lat": 0.0, "type": "electric_scooter", "name": "a6fb35cca99e9bc594dc6cad5fa767bb", "lat": 38.92520066666667, "bike_id": "a6fb35cca99e9bc594dc6cad5fa767bb"}, {"lon": -77.0334105, "rental_uris": {"android": "https://dc.lft.to/lastmile_qr_scan", "ios": "https://dc.lft.to/lastmile_qr_scan"}, "fusion_lon": 0.0, "is_reserved": 0, "is_disabled": 0, "fusion_lat": 0.0, "type": "electric_scooter", "name": "41a0d974ccca07a6163fa2407d9d0df6", "lat": 38.928743833333336, "bike_id": "41a0d974ccca07a6163fa2407d9d0df6"}, {"lon": -77.023901, "rental_uris": {"android": "https://dc.lft.to/lastmile_qr_scan", "ios": "https://dc.lft.to/lastmile_qr_scan"}, "fusion_lon": 0.0, "is_reserved": 0, "is_disabled": 0, "fusion_lat": 0.0, "type": "electric_scooter", "name": "29fb808f63c321cfc4bbbfe4985029ab", "lat": 38.92002166666666, "bike_id": "29fb808f63c321cfc4bbbfe4985029ab"}, {"lon": -77.04004483333334, "rental_uris": {"android": "https://dc.lft.to/lastmile_qr_scan", "ios": "https://dc.lft.to/lastmile_qr_scan"}, "fusion_lon": 0.0, "is_reserved": 0, "is_disabled": 0, "fusion_lat": 0.0, "type": "electric_scooter", "name": "c75ca01a03bdc15430c17f06178edb94", "lat": 38.899358666666664, "bike_id": "c75ca01a03bdc15430c17f06178edb94"}, {"lon": -77.04035083333333, "rental_uris": {"android": "https://dc.lft.to/lastmile_qr_scan", "ios": "https://dc.lft.to/lastmile_qr_scan"}, "fusion_lon": 0.0, "is_reserved": 0, "is_disabled": 0, "fusion_lat": 0.0, "type": "electric_scooter", "name": "72aa9ccd27de50bc057090ead8f96a9c", "lat": 38.92459316666667, "bike_id": "72aa9ccd27de50bc057090ead8f96a9c"}, {"lon": -77.03453383333333, "rental_uris": {"android": "https://dc.lft.to/lastmile_qr_scan", "ios": "https://dc.lft.to/lastmile_qr_scan"}, "fusion_lon": 0.0, "is_reserved": 0, "is_disabled": 0, "fusion_lat": 0.0, "type": "electric_scooter", "name": "110cb76b842479a60dc4676eb8f162a9", "lat": 38.90412583333333, "bike_id": "110cb76b842479a60dc4676eb8f162a9"}, {"lon": -76.995038, "rental_uris": {"android": "https://dc.lft.to/lastmile_qr_scan", "ios": "https://dc.lft.to/lastmile_qr_scan"}, "fusion_lon": 0.0, "is_reserved": 0, "is_disabled": 0, "fusion_lat": 0.0, "type": "electric_scooter", "name": "1ec7be80acd9dfe6a84c36e90cccdd42", "lat": 38.878903333333334, "bike_id": "1ec7be80acd9dfe6a84c36e90cccdd42"}, {"lon": -77.0034665, "rental_uris": {"android": "https://dc.lft.to/lastmile_qr_scan", "ios": "https://dc.lft.to/lastmile_qr_scan"}, "fusion_lon": 0.0, "is_reserved": 0, "is_disabled": 0, "fusion_lat": 0.0, "type": "electric_scooter", "name": "c81b3becaa3c50a1ce0815cbad4b174e", "lat": 38.89526216666667, "bike_id": "c81b3becaa3c50a1ce0815cbad4b174e"}, {"lon": -77.03282233333333, "rental_uris": {"android": "https://dc.lft.to/lastmile_qr_scan", "ios": "https://dc.lft.to/lastmile_qr_scan"}, "fusion_lon": 0.0, "is_reserved": 0, "is_disabled": 0, "fusion_lat": 0.0, "type": "electric_scooter", "name": "fcc39562a1326eaf06007eaa5f49b23d", "lat": 38.928537, "bike_id": "fcc39562a1326eaf06007eaa5f49b23d"}, {"lon": -77.10126416666667, "rental_uris": {"android": "https://dc.lft.to/lastmile_qr_scan", "ios": "https://dc.lft.to/lastmile_qr_scan"}, "fusion_lon": 0.0, "is_reserved": 0, "is_disabled": 0, "fusion_lat": 0.0, "type": "electric_bike", "name": "46dc738f1058925967d30097a66783a8", "lat": 38.9890645, "bike_id": "46dc738f1058925967d30097a66783a8"}, {"lon": -77.03440016666667, "rental_uris": {"android": "https://dc.lft.to/lastmile_qr_scan", "ios": "https://dc.lft.to/lastmile_qr_scan"}, "fusion_lon": 0.0, "is_reserved": 0, "is_disabled": 0, "fusion_lat": 0.0, "type": "electric_scooter", "name": "ff4c293b74517cc85e033cabbb58c2d3", "lat": 38.90570433333333, "bike_id": "ff4c293b74517cc85e033cabbb58c2d3"}, {"lon": -76.99514133333334, "rental_uris": {"android": "https://dc.lft.to/lastmile_qr_scan", "ios": "https://dc.lft.to/lastmile_qr_scan"}, "fusion_lon": 0.0, "is_reserved": 0, "is_disabled": 0, "fusion_lat": 0.0, "type": "electric_scooter", "name": "64442f792bae450637136412a3e9350b", "lat": 38.883600666666666, "bike_id": "64442f792bae450637136412a3e9350b"}, {"lon": -77.03852183333333, "rental_uris": {"android": "https://dc.lft.to/lastmile_qr_scan", "ios": "https://dc.lft.to/lastmile_qr_scan"}, "fusion_lon": 0.0, "is_reserved": 0, "is_disabled": 0, "fusion_lat": 0.0, "type": "electric_scooter", "name": "df45eff5eda9c0f1c500d26da92e8d97", "lat": 38.90779233333333, "bike_id": "df45eff5eda9c0f1c500d26da92e8d97"}, {"lon": -77.0233935, "rental_uris": {"android": "https://dc.lft.to/lastmile_qr_scan", "ios": "https://dc.lft.to/lastmile_qr_scan"}, "fusion_lon": 0.0, "is_reserved": 0, "is_disabled": 0, "fusion_lat": 0.0, "type": "electric_scooter", "name": "0349d95b27aeb9dd884b09dfbd826e52", "lat": 38.94503183333333, "bike_id": "0349d95b27aeb9dd884b09dfbd826e52"}, {"lon": -77.02574416666667, "rental_uris": {"android": "https://dc.lft.to/lastmile_qr_scan", "ios": "https://dc.lft.to/lastmile_qr_scan"}, "fusion_lon": 0.0, "is_reserved": 0, "is_disabled": 0, "fusion_lat": 0.0, "type": "electric_scooter", "name": "6fc2548268e678c4ba698b81b6123cf6", "lat": 38.887382833333334, "bike_id": "6fc2548268e678c4ba698b81b6123cf6"}, {"lon": -77.01741416666667, "rental_uris": {"android": "https://dc.lft.to/lastmile_qr_scan", "ios": "https://dc.lft.to/lastmile_qr_scan"}, "fusion_lon": 0.0, "is_reserved": 0, "is_disabled": 0, "fusion_lat": 0.0, "type": "electric_scooter", "name": "8041c67042d4a7b8cf2911f45f800620", "lat": 38.9751685, "bike_id": "8041c67042d4a7b8cf2911f45f800620"}, {"lon": -77.03944766666666, "rental_uris": {"android": "https://dc.lft.to/lastmile_qr_scan", "ios": "https://dc.lft.to/lastmile_qr_scan"}, "fusion_lon": 0.0, "is_reserved": 0, "is_disabled": 0, "fusion_lat": 0.0, "type": "electric_scooter", "name": "1c3bb5d9a984af0da5ce12f742f65296", "lat": 38.93057433333333, "bike_id": "1c3bb5d9a984af0da5ce12f742f65296"}, {"lon": -77.03442783333334, "rental_uris": {"android": "https://dc.lft.to/lastmile_qr_scan", "ios": "https://dc.lft.to/lastmile_qr_scan"}, "fusion_lon": 0.0, "is_reserved": 0, "is_disabled": 0, "fusion_lat": 0.0, "type": "electric_scooter", "name": "51fe5c080bc3c279433e477f98ca8939", "lat": 38.908316666666664, "bike_id": "51fe5c080bc3c279433e477f98ca8939"}, {"lon": -77.043526, "rental_uris": {"android": "https://dc.lft.to/lastmile_qr_scan", "ios": "https://dc.lft.to/lastmile_qr_scan"}, "fusion_lon": 0.0, "is_reserved": 0, "is_disabled": 0, "fusion_lat": 0.0, "type": "electric_scooter", "name": "26b5657c45cded5736e13136b7fccd0b", "lat": 38.9213125, "bike_id": "26b5657c45cded5736e13136b7fccd0b"}, {"lon": -77.00309016666667, "rental_uris": {"android": "https://dc.lft.to/lastmile_qr_scan", "ios": "https://dc.lft.to/lastmile_qr_scan"}, "fusion_lon": 0.0, "is_reserved": 0, "is_disabled": 0, "fusion_lat": 0.0, "type": "electric_scooter", "name": "b150ce88909f6df6d9d3cccc51ccc816", "lat": 38.89220816666667, "bike_id": "b150ce88909f6df6d9d3cccc51ccc816"}, {"lon": -77.06953783333333, "rental_uris": {"android": "https://dc.lft.to/lastmile_qr_scan", "ios": "https://dc.lft.to/lastmile_qr_scan"}, "fusion_lon": 0.0, "is_reserved": 0, "is_disabled": 0, "fusion_lat": 0.0, "type": "electric_bike", "name": "fe71d2c7976f70f4201786eca01cdaa0", "lat": 38.8362535, "bike_id": "fe71d2c7976f70f4201786eca01cdaa0"}, {"lon": -77.00345083333333, "rental_uris": {"android": "https://dc.lft.to/lastmile_qr_scan", "ios": "https://dc.lft.to/lastmile_qr_scan"}, "fusion_lon": 0.0, "is_reserved": 0, "is_disabled": 0, "fusion_lat": 0.0, "type": "electric_scooter", "name": "ad2ee550078773de8e83c8888a39667e", "lat": 38.896168833333334, "bike_id": "ad2ee550078773de8e83c8888a39667e"}, {"lon": -77.03181783333333, "rental_uris": {"android": "https://dc.lft.to/lastmile_qr_scan", "ios": "https://dc.lft.to/lastmile_qr_scan"}, "fusion_lon": 0.0, "is_reserved": 0, "is_disabled": 0, "fusion_lat": 0.0, "type": "electric_scooter", "name": "72d9cac51c5a0df0029ba67289799b5e", "lat": 38.89183966666667, "bike_id": "72d9cac51c5a0df0029ba67289799b5e"}, {"lon": -76.97443133333333, "rental_uris": {"android": "https://dc.lft.to/lastmile_qr_scan", "ios": "https://dc.lft.to/lastmile_qr_scan"}, "fusion_lon": 0.0, "is_reserved": 0, "is_disabled": 0, "fusion_lat": 0.0, "type": "electric_scooter", "name": "93ef37b1d69b30e4e24ec1116478e752", "lat": 38.90258983333333, "bike_id": "93ef37b1d69b30e4e24ec1116478e752"}, {"lon": -76.96467116666666, "rental_uris": {"android": "https://dc.lft.to/lastmile_qr_scan", "ios": "https://dc.lft.to/lastmile_qr_scan"}, "fusion_lon": 0.0, "is_reserved": 0, "is_disabled": 0, "fusion_lat": 0.0, "type": "electric_bike", "name": "853d65a3180f898cbdad953571a47e7c", "lat": 38.91871583333333, "bike_id": "853d65a3180f898cbdad953571a47e7c"}, {"lon": -77.04710816666666, "rental_uris": {"android": "https://dc.lft.to/lastmile_qr_scan", "ios": "https://dc.lft.to/lastmile_qr_scan"}, "fusion_lon": 0.0, "is_reserved": 0, "is_disabled": 0, "fusion_lat": 0.0, "type": "electric_scooter", "name": "8d4c8cb544532b502fa64072ad1e2bd1", "lat": 38.909393, "bike_id": "8d4c8cb544532b502fa64072ad1e2bd1"}, {"lon": -76.99715333333333, "rental_uris": {"android": "https://dc.lft.to/lastmile_qr_scan", "ios": "https://dc.lft.to/lastmile_qr_scan"}, "fusion_lon": 0.0, "is_reserved": 0, "is_disabled": 0, "fusion_lat": 0.0, "type": "electric_scooter", "name": "ef84c6e52bf41d1eb87f8f057df31ec1", "lat": 38.93434533333333, "bike_id": "ef84c6e52bf41d1eb87f8f057df31ec1"}, {"lon": -77.03034166666667, "rental_uris": {"android": "https://dc.lft.to/lastmile_qr_scan", "ios": "https://dc.lft.to/lastmile_qr_scan"}, "fusion_lon": 0.0, "is_reserved": 0, "is_disabled": 0, "fusion_lat": 0.0, "type": "electric_scooter", "name": "f00d1ec94ba6d1d4e7e6fd4e8c76a640", "lat": 38.916926833333335, "bike_id": "f00d1ec94ba6d1d4e7e6fd4e8c76a640"}, {"lon": -77.03451466666667, "rental_uris": {"android": "https://dc.lft.to/lastmile_qr_scan", "ios": "https://dc.lft.to/lastmile_qr_scan"}, "fusion_lon": 0.0, "is_reserved": 0, "is_disabled": 0, "fusion_lat": 0.0, "type": "electric_scooter", "name": "7579ea3ee4f3adbc839cc7915ef7bed5", "lat": 38.905768333333334, "bike_id": "7579ea3ee4f3adbc839cc7915ef7bed5"}, {"lon": -77.02427516666667, "rental_uris": {"android": "https://dc.lft.to/lastmile_qr_scan", "ios": "https://dc.lft.to/lastmile_qr_scan"}, "fusion_lon": 0.0, "is_reserved": 0, "is_disabled": 0, "fusion_lat": 0.0, "type": "electric_scooter", "name": "89529d51a7b5b0de6c2fc32b06c3bee9", "lat": 38.93715366666667, "bike_id": "89529d51a7b5b0de6c2fc32b06c3bee9"}, {"lon": -77.04159266666667, "rental_uris": {"android": "https://dc.lft.to/lastmile_qr_scan", "ios": "https://dc.lft.to/lastmile_qr_scan"}, "fusion_lon": 0.0, "is_reserved": 0, "is_disabled": 0, "fusion_lat": 0.0, "type": "electric_scooter", "name": "5a446169475495f7941b958a5a3eb1b4", "lat": 38.89231733333333, "bike_id": "5a446169475495f7941b958a5a3eb1b4"}, {"lon": -77.0175845, "rental_uris": {"android": "https://dc.lft.to/lastmile_qr_scan", "ios": "https://dc.lft.to/lastmile_qr_scan"}, "fusion_lon": 0.0, "is_reserved": 0, "is_disabled": 0, "fusion_lat": 0.0, "type": "electric_scooter", "name": "49945d5f839a449054b34e29a9373ea8", "lat": 38.877216833333335, "bike_id": "49945d5f839a449054b34e29a9373ea8"}, {"lon": -77.00108733333333, "rental_uris": {"android": "https://dc.lft.to/lastmile_qr_scan", "ios": "https://dc.lft.to/lastmile_qr_scan"}, "fusion_lon": 0.0, "is_reserved": 0, "is_disabled": 0, "fusion_lat": 0.0, "type": "electric_scooter", "name": "eebb2bda712d5aefe2089fe2014cba05", "lat": 38.873901333333336, "bike_id": "eebb2bda712d5aefe2089fe2014cba05"}, {"lon": -77.0336055, "rental_uris": {"android": "https://dc.lft.to/lastmile_qr_scan", "ios": "https://dc.lft.to/lastmile_qr_scan"}, "fusion_lon": 0.0, "is_reserved": 0, "is_disabled": 0, "fusion_lat": 0.0, "type": "electric_scooter", "name": "7dc22135fe66bc429767e56b18355d4c", "lat": 38.902845166666665, "bike_id": "7dc22135fe66bc429767e56b18355d4c"}, {"lon": -77.03212416666666, "rental_uris": {"android": "https://dc.lft.to/lastmile_qr_scan", "ios": "https://dc.lft.to/lastmile_qr_scan"}, "fusion_lon": 0.0, "is_reserved": 0, "is_disabled": 0, "fusion_lat": 0.0, "type": "electric_scooter", "name": "7fba74c23b49a2a4394be7c6d3c282f0", "lat": 38.917868, "bike_id": "7fba74c23b49a2a4394be7c6d3c282f0"}, {"lon": -77.05265666666666, "rental_uris": {"android": "https://dc.lft.to/lastmile_qr_scan", "ios": "https://dc.lft.to/lastmile_qr_scan"}, "fusion_lon": 0.0, "is_reserved": 0, "is_disabled": 0, "fusion_lat": 0.0, "type": "electric_bike", "name": "d16bb2afd43ee7f96169e2c410ea5f5c", "lat": 38.96180833333333, "bike_id": "d16bb2afd43ee7f96169e2c410ea5f5c"}, {"lon": -77.040329, "rental_uris": {"android": "https://dc.lft.to/lastmile_qr_scan", "ios": "https://dc.lft.to/lastmile_qr_scan"}, "fusion_lon": 0.0, "is_reserved": 0, "is_disabled": 0, "fusion_lat": 0.0, "type": "electric_scooter", "name": "105a80eaf24a87233f4b9747af2cd8a6", "lat": 38.924592, "bike_id": "105a80eaf24a87233f4b9747af2cd8a6"}, {"lon": -77.07144983333333, "rental_uris": {"android": "https://dc.lft.to/lastmile_qr_scan", "ios": "https://dc.lft.to/lastmile_qr_scan"}, "fusion_lon": 0.0, "is_reserved": 0, "is_disabled": 0, "fusion_lat": 0.0, "type": "electric_scooter", "name": "b9527a0170d277916c719452934299ea", "lat": 38.920292333333336, "bike_id": "b9527a0170d277916c719452934299ea"}, {"lon": -77.006037, "rental_uris": {"android": "https://dc.lft.to/lastmile_qr_scan", "ios": "https://dc.lft.to/lastmile_qr_scan"}, "fusion_lon": 0.0, "is_reserved": 0, "is_disabled": 0, "fusion_lat": 0.0, "type": "electric_scooter", "name": "33c3f4ff76a9d736a923ac1316310ef4", "lat": 38.9056435, "bike_id": "33c3f4ff76a9d736a923ac1316310ef4"}, {"lon": -77.04282466666666, "rental_uris": {"android": "https://dc.lft.to/lastmile_qr_scan", "ios": "https://dc.lft.to/lastmile_qr_scan"}, "fusion_lon": 0.0, "is_reserved": 0, "is_disabled": 0, "fusion_lat": 0.0, "type": "electric_scooter", "name": "dbad97e634ef8bf7f42922ab4a1c1ad2", "lat": 38.908431, "bike_id": "dbad97e634ef8bf7f42922ab4a1c1ad2"}, {"lon": -77.033071, "rental_uris": {"android": "https://dc.lft.to/lastmile_qr_scan", "ios": "https://dc.lft.to/lastmile_qr_scan"}, "fusion_lon": 0.0, "is_reserved": 0, "is_disabled": 0, "fusion_lat": 0.0, "type": "electric_scooter", "name": "5decc960d4e07df48f1b145acfce3587", "lat": 38.92856583333333, "bike_id": "5decc960d4e07df48f1b145acfce3587"}, {"lon": -77.0211015, "rental_uris": {"android": "https://dc.lft.to/lastmile_qr_scan", "ios": "https://dc.lft.to/lastmile_qr_scan"}, "fusion_lon": 0.0, "is_reserved": 0, "is_disabled": 0, "fusion_lat": 0.0, "type": "electric_scooter", "name": "0a825081738bfdd7f52f3f634c9c5430", "lat": 38.904867333333335, "bike_id": "0a825081738bfdd7f52f3f634c9c5430"}, {"lon": -77.022261, "rental_uris": {"android": "https://dc.lft.to/lastmile_qr_scan", "ios": "https://dc.lft.to/lastmile_qr_scan"}, "fusion_lon": 0.0, "is_reserved": 0, "is_disabled": 0, "fusion_lat": 0.0, "type": "electric_scooter", "name": "3960899e5fd2d0b9e30b54bc6af9fde6", "lat": 38.89218733333333, "bike_id": "3960899e5fd2d0b9e30b54bc6af9fde6"}, {"lon": -77.03313133333333, "rental_uris": {"android": "https://dc.lft.to/lastmile_qr_scan", "ios": "https://dc.lft.to/lastmile_qr_scan"}, "fusion_lon": 0.0, "is_reserved": 0, "is_disabled": 0, "fusion_lat": 0.0, "type": "electric_scooter", "name": "bae86bacec6fdb755f3d535fb9dfa5f3", "lat": 38.903677, "bike_id": "bae86bacec6fdb755f3d535fb9dfa5f3"}, {"lon": -77.04346666666666, "rental_uris": {"android": "https://dc.lft.to/lastmile_qr_scan", "ios": "https://dc.lft.to/lastmile_qr_scan"}, "fusion_lon": 0.0, "is_reserved": 0, "is_disabled": 0, "fusion_lat": 0.0, "type": "electric_scooter", "name": "01c29a2e3dc564c36628e3859b48b562", "lat": 38.90541266666666, "bike_id": "01c29a2e3dc564c36628e3859b48b562"}, {"lon": -77.02513666666667, "rental_uris": {"android": "https://dc.lft.to/lastmile_qr_scan", "ios": "https://dc.lft.to/lastmile_qr_scan"}, "fusion_lon": 0.0, "is_reserved": 0, "is_disabled": 0, "fusion_lat": 0.0, "type": "electric_scooter", "name": "25728a7f448517591f90292a1fee9a65", "lat": 38.91922866666667, "bike_id": "25728a7f448517591f90292a1fee9a65"}, {"lon": -77.03765383333334, "rental_uris": {"android": "https://dc.lft.to/lastmile_qr_scan", "ios": "https://dc.lft.to/lastmile_qr_scan"}, "fusion_lon": 0.0, "is_reserved": 0, "is_disabled": 0, "fusion_lat": 0.0, "type": "electric_scooter", "name": "89046cb7801b57239c84b85d00a03b43", "lat": 38.9023655, "bike_id": "89046cb7801b57239c84b85d00a03b43"}, {"lon": -77.0087435, "rental_uris": {"android": "https://dc.lft.to/lastmile_qr_scan", "ios": "https://dc.lft.to/lastmile_qr_scan"}, "fusion_lon": 0.0, "is_reserved": 0, "is_disabled": 0, "fusion_lat": 0.0, "type": "electric_scooter", "name": "b5b58e632f87190002a68eae4aa601c1", "lat": 38.90576033333333, "bike_id": "b5b58e632f87190002a68eae4aa601c1"}, {"lon": -77.003161, "rental_uris": {"android": "https://dc.lft.to/lastmile_qr_scan", "ios": "https://dc.lft.to/lastmile_qr_scan"}, "fusion_lon": 0.0, "is_reserved": 0, "is_disabled": 0, "fusion_lat": 0.0, "type": "electric_scooter", "name": "8e5d59f255ac0e949523fa886d3e73b0", "lat": 38.876672666666664, "bike_id": "8e5d59f255ac0e949523fa886d3e73b0"}, {"lon": -77.033938, "rental_uris": {"android": "https://dc.lft.to/lastmile_qr_scan", "ios": "https://dc.lft.to/lastmile_qr_scan"}, "fusion_lon": 0.0, "is_reserved": 0, "is_disabled": 0, "fusion_lat": 0.0, "type": "electric_scooter", "name": "06fa1dd3a903eaa76df98e30c306b1dc", "lat": 38.93838683333333, "bike_id": "06fa1dd3a903eaa76df98e30c306b1dc"}, {"lon": -77.017631, "rental_uris": {"android": "https://dc.lft.to/lastmile_qr_scan", "ios": "https://dc.lft.to/lastmile_qr_scan"}, "fusion_lon": 0.0, "is_reserved": 0, "is_disabled": 0, "fusion_lat": 0.0, "type": "electric_scooter", "name": "ed2899710831d6b88583f10f83cce4a8", "lat": 38.87713183333334, "bike_id": "ed2899710831d6b88583f10f83cce4a8"}, {"lon": -77.07277016666667, "rental_uris": {"android": "https://dc.lft.to/lastmile_qr_scan", "ios": "https://dc.lft.to/lastmile_qr_scan"}, "fusion_lon": 0.0, "is_reserved": 0, "is_disabled": 0, "fusion_lat": 0.0, "type": "electric_scooter", "name": "78c9f7fefba1b7222542b4f6fe32bdb1", "lat": 38.90914866666667, "bike_id": "78c9f7fefba1b7222542b4f6fe32bdb1"}, {"lon": -76.98722933333333, "rental_uris": {"android": "https://dc.lft.to/lastmile_qr_scan", "ios": "https://dc.lft.to/lastmile_qr_scan"}, "fusion_lon": 0.0, "is_reserved": 0, "is_disabled": 0, "fusion_lat": 0.0, "type": "electric_bike", "name": "060c38ae0842f079312fcec2d45e1046", "lat": 38.863187833333335, "bike_id": "060c38ae0842f079312fcec2d45e1046"}, {"lon": -77.05316116666667, "rental_uris": {"android": "https://dc.lft.to/lastmile_qr_scan", "ios": "https://dc.lft.to/lastmile_qr_scan"}, "fusion_lon": 0.0, "is_reserved": 0, "is_disabled": 0, "fusion_lat": 0.0, "type": "electric_scooter", "name": "819e80f863ab5d5095e7923427fa0f4e", "lat": 38.90268666666667, "bike_id": "819e80f863ab5d5095e7923427fa0f4e"}, {"lon": -77.03363716666667, "rental_uris": {"android": "https://dc.lft.to/lastmile_qr_scan", "ios": "https://dc.lft.to/lastmile_qr_scan"}, "fusion_lon": 0.0, "is_reserved": 0, "is_disabled": 0, "fusion_lat": 0.0, "type": "electric_scooter", "name": "2fcf37c81066edf942d8268209baf64c", "lat": 38.94506633333334, "bike_id": "2fcf37c81066edf942d8268209baf64c"}, {"lon": -77.04895466666666, "rental_uris": {"android": "https://dc.lft.to/lastmile_qr_scan", "ios": "https://dc.lft.to/lastmile_qr_scan"}, "fusion_lon": 0.0, "is_reserved": 0, "is_disabled": 0, "fusion_lat": 0.0, "type": "electric_scooter", "name": "26ef5502983c5c385fdf10f2e73d864a", "lat": 38.892267, "bike_id": "26ef5502983c5c385fdf10f2e73d864a"}, {"lon": -77.02428166666667, "rental_uris": {"android": "https://dc.lft.to/lastmile_qr_scan", "ios": "https://dc.lft.to/lastmile_qr_scan"}, "fusion_lon": 0.0, "is_reserved": 0, "is_disabled": 0, "fusion_lat": 0.0, "type": "electric_scooter", "name": "d9046018e9ae9d2994ae892d055e644e", "lat": 38.956221, "bike_id": "d9046018e9ae9d2994ae892d055e644e"}, {"lon": -77.038915, "rental_uris": {"android": "https://dc.lft.to/lastmile_qr_scan", "ios": "https://dc.lft.to/lastmile_qr_scan"}, "fusion_lon": 0.0, "is_reserved": 0, "is_disabled": 0, "fusion_lat": 0.0, "type": "electric_scooter", "name": "4f07954dcf0ee2a903b67c63b1875c75", "lat": 38.90587266666667, "bike_id": "4f07954dcf0ee2a903b67c63b1875c75"}, {"lon": -77.23677033333334, "rental_uris": {"android": "https://dc.lft.to/lastmile_qr_scan", "ios": "https://dc.lft.to/lastmile_qr_scan"}, "fusion_lon": 0.0, "is_reserved": 0, "is_disabled": 0, "fusion_lat": 0.0, "type": "electric_bike", "name": "652045612603befb07061cb13fc5c92c", "lat": 38.921218, "bike_id": "652045612603befb07061cb13fc5c92c"}, {"lon": -77.00597466666666, "rental_uris": {"android": "https://dc.lft.to/lastmile_qr_scan", "ios": "https://dc.lft.to/lastmile_qr_scan"}, "fusion_lon": 0.0, "is_reserved": 0, "is_disabled": 0, "fusion_lat": 0.0, "type": "electric_scooter", "name": "25fc99cce1360d51e16e6cc3d713dcf0", "lat": 38.905635333333336, "bike_id": "25fc99cce1360d51e16e6cc3d713dcf0"}, {"lon": -77.03336833333333, "rental_uris": {"android": "https://dc.lft.to/lastmile_qr_scan", "ios": "https://dc.lft.to/lastmile_qr_scan"}, "fusion_lon": 0.0, "is_reserved": 0, "is_disabled": 0, "fusion_lat": 0.0, "type": "electric_scooter", "name": "32d16f3ada9b81117fa9934fe9652782", "lat": 38.9024335, "bike_id": "32d16f3ada9b81117fa9934fe9652782"}, {"lon": -77.00205483333333, "rental_uris": {"android": "https://dc.lft.to/lastmile_qr_scan", "ios": "https://dc.lft.to/lastmile_qr_scan"}, "fusion_lon": 0.0, "is_reserved": 0, "is_disabled": 0, "fusion_lat": 0.0, "type": "electric_scooter", "name": "b88af02ea6dbaf47058c232ddc6dca6a", "lat": 38.895232666666665, "bike_id": "b88af02ea6dbaf47058c232ddc6dca6a"}, {"lon": -77.00580733333334, "rental_uris": {"android": "https://dc.lft.to/lastmile_qr_scan", "ios": "https://dc.lft.to/lastmile_qr_scan"}, "fusion_lon": 0.0, "is_reserved": 0, "is_disabled": 0, "fusion_lat": 0.0, "type": "electric_scooter", "name": "1c4275423dbbc4c29d16ae55da0c1728", "lat": 38.88514516666667, "bike_id": "1c4275423dbbc4c29d16ae55da0c1728"}, {"lon": -76.93387166666666, "rental_uris": {"android": "https://dc.lft.to/lastmile_qr_scan", "ios": "https://dc.lft.to/lastmile_qr_scan"}, "fusion_lon": 0.0, "is_reserved": 0, "is_disabled": 0, "fusion_lat": 0.0, "type": "electric_scooter", "name": "f25a4bcc1766d2268aeb3f8bd88d5efa", "lat": 38.89909166666666, "bike_id": "f25a4bcc1766d2268aeb3f8bd88d5efa"}, {"lon": -77.02153733333333, "rental_uris": {"android": "https://dc.lft.to/lastmile_qr_scan", "ios": "https://dc.lft.to/lastmile_qr_scan"}, "fusion_lon": 0.0, "is_reserved": 0, "is_disabled": 0, "fusion_lat": 0.0, "type": "electric_scooter", "name": "9fc481650559de7c7f8d1e944a6d4898", "lat": 38.924310166666665, "bike_id": "9fc481650559de7c7f8d1e944a6d4898"}, {"lon": -77.0011125, "rental_uris": {"android": "https://dc.lft.to/lastmile_qr_scan", "ios": "https://dc.lft.to/lastmile_qr_scan"}, "fusion_lon": 0.0, "is_reserved": 0, "is_disabled": 0, "fusion_lat": 0.0, "type": "electric_scooter", "name": "afbbf2bcb4b64ed26184c15bc0b05276", "lat": 38.87629916666667, "bike_id": "afbbf2bcb4b64ed26184c15bc0b05276"}, {"lon": -76.91064516666667, "rental_uris": {"android": "https://dc.lft.to/lastmile_qr_scan", "ios": "https://dc.lft.to/lastmile_qr_scan"}, "fusion_lon": 0.0, "is_reserved": 0, "is_disabled": 0, "fusion_lat": 0.0, "type": "electric_bike", "name": "20313793926b44e0e88c4590c7983781", "lat": 39.01072533333333, "bike_id": "20313793926b44e0e88c4590c7983781"}, {"lon": -77.05088633333334, "rental_uris": {"android": "https://dc.lft.to/lastmile_qr_scan", "ios": "https://dc.lft.to/lastmile_qr_scan"}, "fusion_lon": 0.0, "is_reserved": 0, "is_disabled": 0, "fusion_lat": 0.0, "type": "electric_bike", "name": "8afc68d6757529351f2cd9df85b8551c", "lat": 38.813282, "bike_id": "8afc68d6757529351f2cd9df85b8551c"}, {"lon": -77.012506, "rental_uris": {"android": "https://dc.lft.to/lastmile_qr_scan", "ios": "https://dc.lft.to/lastmile_qr_scan"}, "fusion_lon": 0.0, "is_reserved": 0, "is_disabled": 0, "fusion_lat": 0.0, "type": "electric_scooter", "name": "56e0d1b505c9741a318a344e6fd9a477", "lat": 38.900074833333335, "bike_id": "56e0d1b505c9741a318a344e6fd9a477"}, {"lon": -77.01880066666666, "rental_uris": {"android": "https://dc.lft.to/lastmile_qr_scan", "ios": "https://dc.lft.to/lastmile_qr_scan"}, "fusion_lon": 0.0, "is_reserved": 0, "is_disabled": 0, "fusion_lat": 0.0, "type": "electric_scooter", "name": "7e086b5014e7b7b081abb2d2a0fdb2fe", "lat": 38.900038333333335, "bike_id": "7e086b5014e7b7b081abb2d2a0fdb2fe"}, {"lon": -77.03416433333334, "rental_uris": {"android": "https://dc.lft.to/lastmile_qr_scan", "ios": "https://dc.lft.to/lastmile_qr_scan"}, "fusion_lon": 0.0, "is_reserved": 0, "is_disabled": 0, "fusion_lat": 0.0, "type": "electric_scooter", "name": "34566b00a4719a656ec80c1f3e616991", "lat": 38.91916416666667, "bike_id": "34566b00a4719a656ec80c1f3e616991"}, {"lon": -77.04198983333333, "rental_uris": {"android": "https://dc.lft.to/lastmile_qr_scan", "ios": "https://dc.lft.to/lastmile_qr_scan"}, "fusion_lon": 0.0, "is_reserved": 0, "is_disabled": 0, "fusion_lat": 0.0, "type": "electric_scooter", "name": "924f845a1817c14a200f4b7af5145fc0", "lat": 38.892205833333335, "bike_id": "924f845a1817c14a200f4b7af5145fc0"}, {"lon": -77.0716265, "rental_uris": {"android": "https://dc.lft.to/lastmile_qr_scan", "ios": "https://dc.lft.to/lastmile_qr_scan"}, "fusion_lon": 0.0, "is_reserved": 0, "is_disabled": 0, "fusion_lat": 0.0, "type": "electric_bike", "name": "60b5faf9127a4cbb3e8c7f76dbeb5c43", "lat": 38.9077595, "bike_id": "60b5faf9127a4cbb3e8c7f76dbeb5c43"}, {"lon": -77.04382283333334, "rental_uris": {"android": "https://dc.lft.to/lastmile_qr_scan", "ios": "https://dc.lft.to/lastmile_qr_scan"}, "fusion_lon": 0.0, "is_reserved": 0, "is_disabled": 0, "fusion_lat": 0.0, "type": "electric_scooter", "name": "2b3c2ad258286f2a4c35e231251d00ee", "lat": 38.92097016666666, "bike_id": "2b3c2ad258286f2a4c35e231251d00ee"}, {"lon": -76.99385433333333, "rental_uris": {"android": "https://dc.lft.to/lastmile_qr_scan", "ios": "https://dc.lft.to/lastmile_qr_scan"}, "fusion_lon": 0.0, "is_reserved": 0, "is_disabled": 0, "fusion_lat": 0.0, "type": "electric_scooter", "name": "76e63599ec7ea09e16c5c43f52d25ad2", "lat": 38.89195733333333, "bike_id": "76e63599ec7ea09e16c5c43f52d25ad2"}, {"lon": -77.03198966666666, "rental_uris": {"android": "https://dc.lft.to/lastmile_qr_scan", "ios": "https://dc.lft.to/lastmile_qr_scan"}, "fusion_lon": 0.0, "is_reserved": 0, "is_disabled": 0, "fusion_lat": 0.0, "type": "electric_scooter", "name": "0f9ca19c80a1dc2f92ea38a32a74dbc6", "lat": 38.90114916666667, "bike_id": "0f9ca19c80a1dc2f92ea38a32a74dbc6"}, {"lon": -76.95755166666666, "rental_uris": {"android": "https://dc.lft.to/lastmile_qr_scan", "ios": "https://dc.lft.to/lastmile_qr_scan"}, "fusion_lon": 0.0, "is_reserved": 0, "is_disabled": 0, "fusion_lat": 0.0, "type": "electric_scooter", "name": "f2325f6465c57eadb773395bd5235893", "lat": 38.884280333333336, "bike_id": "f2325f6465c57eadb773395bd5235893"}, {"lon": -77.01258866666667, "rental_uris": {"android": "https://dc.lft.to/lastmile_qr_scan", "ios": "https://dc.lft.to/lastmile_qr_scan"}, "fusion_lon": 0.0, "is_reserved": 0, "is_disabled": 0, "fusion_lat": 0.0, "type": "electric_scooter", "name": "69cba247524bb6be7cf0c6044baca32a", "lat": 38.90843133333333, "bike_id": "69cba247524bb6be7cf0c6044baca32a"}, {"lon": -77.038413, "rental_uris": {"android": "https://dc.lft.to/lastmile_qr_scan", "ios": "https://dc.lft.to/lastmile_qr_scan"}, "fusion_lon": 0.0, "is_reserved": 0, "is_disabled": 0, "fusion_lat": 0.0, "type": "electric_scooter", "name": "b4e906af8bea3e6f167b1cbd0e8b8378", "lat": 38.941913, "bike_id": "b4e906af8bea3e6f167b1cbd0e8b8378"}, {"lon": -77.02210633333333, "rental_uris": {"android": "https://dc.lft.to/lastmile_qr_scan", "ios": "https://dc.lft.to/lastmile_qr_scan"}, "fusion_lon": 0.0, "is_reserved": 0, "is_disabled": 0, "fusion_lat": 0.0, "type": "electric_scooter", "name": "4fb9f06dd1e76c2221ae040161ef0355", "lat": 38.915427333333334, "bike_id": "4fb9f06dd1e76c2221ae040161ef0355"}, {"lon": -77.02170333333333, "rental_uris": {"android": "https://dc.lft.to/lastmile_qr_scan", "ios": "https://dc.lft.to/lastmile_qr_scan"}, "fusion_lon": 0.0, "is_reserved": 0, "is_disabled": 0, "fusion_lat": 0.0, "type": "electric_scooter", "name": "91bbdb909453300e11107e81a69ab078", "lat": 38.94285266666667, "bike_id": "91bbdb909453300e11107e81a69ab078"}, {"lon": -76.983573, "rental_uris": {"android": "https://dc.lft.to/lastmile_qr_scan", "ios": "https://dc.lft.to/lastmile_qr_scan"}, "fusion_lon": 0.0, "is_reserved": 0, "is_disabled": 0, "fusion_lat": 0.0, "type": "electric_scooter", "name": "82b4a1ab39d7809be03ffb8efbbe8896", "lat": 38.88727166666666, "bike_id": "82b4a1ab39d7809be03ffb8efbbe8896"}, {"lon": -77.020479, "rental_uris": {"android": "https://dc.lft.to/lastmile_qr_scan", "ios": "https://dc.lft.to/lastmile_qr_scan"}, "fusion_lon": 0.0, "is_reserved": 0, "is_disabled": 0, "fusion_lat": 0.0, "type": "electric_scooter", "name": "88db898d40c790e8efeedd3f9c19fe8d", "lat": 38.91903466666667, "bike_id": "88db898d40c790e8efeedd3f9c19fe8d"}, {"lon": -77.01076433333333, "rental_uris": {"android": "https://dc.lft.to/lastmile_qr_scan", "ios": "https://dc.lft.to/lastmile_qr_scan"}, "fusion_lon": 0.0, "is_reserved": 0, "is_disabled": 0, "fusion_lat": 0.0, "type": "electric_scooter", "name": "a3dad926ecf58a229426236e3a5d0df0", "lat": 38.897948166666666, "bike_id": "a3dad926ecf58a229426236e3a5d0df0"}, {"lon": -77.031539, "rental_uris": {"android": "https://dc.lft.to/lastmile_qr_scan", "ios": "https://dc.lft.to/lastmile_qr_scan"}, "fusion_lon": 0.0, "is_reserved": 0, "is_disabled": 0, "fusion_lat": 0.0, "type": "electric_scooter", "name": "740a50f2dbf1e8d80d7c3edc53fa6e46", "lat": 38.9035635, "bike_id": "740a50f2dbf1e8d80d7c3edc53fa6e46"}, {"lon": -76.96300033333333, "rental_uris": {"android": "https://dc.lft.to/lastmile_qr_scan", "ios": "https://dc.lft.to/lastmile_qr_scan"}, "fusion_lon": 0.0, "is_reserved": 0, "is_disabled": 0, "fusion_lat": 0.0, "type": "electric_bike", "name": "d88b24f7df4a3800d87d1aea7478c8b4", "lat": 38.896952, "bike_id": "d88b24f7df4a3800d87d1aea7478c8b4"}, {"lon": -76.993838, "rental_uris": {"android": "https://dc.lft.to/lastmile_qr_scan", "ios": "https://dc.lft.to/lastmile_qr_scan"}, "fusion_lon": 0.0, "is_reserved": 0, "is_disabled": 0, "fusion_lat": 0.0, "type": "electric_scooter", "name": "35dfcb0ec78cfd73fe0fe65fa014b129", "lat": 38.88930333333333, "bike_id": "35dfcb0ec78cfd73fe0fe65fa014b129"}, {"lon": -77.07606066666666, "rental_uris": {"android": "https://dc.lft.to/lastmile_qr_scan", "ios": "https://dc.lft.to/lastmile_qr_scan"}, "fusion_lon": 0.0, "is_reserved": 0, "is_disabled": 0, "fusion_lat": 0.0, "type": "electric_scooter", "name": "2447a562043ee0a000f8df5ac4b7878a", "lat": 38.90710216666667, "bike_id": "2447a562043ee0a000f8df5ac4b7878a"}, {"lon": -77.020264, "rental_uris": {"android": "https://dc.lft.to/lastmile_qr_scan", "ios": "https://dc.lft.to/lastmile_qr_scan"}, "fusion_lon": 0.0, "is_reserved": 0, "is_disabled": 0, "fusion_lat": 0.0, "type": "electric_scooter", "name": "ccf173641ac3906db5ee3d6525f2aff6", "lat": 38.92436433333334, "bike_id": "ccf173641ac3906db5ee3d6525f2aff6"}, {"lon": -77.0727465, "rental_uris": {"android": "https://dc.lft.to/lastmile_qr_scan", "ios": "https://dc.lft.to/lastmile_qr_scan"}, "fusion_lon": 0.0, "is_reserved": 0, "is_disabled": 0, "fusion_lat": 0.0, "type": "electric_scooter", "name": "531378c9f394dce183d8589103f49223", "lat": 38.93463916666666, "bike_id": "531378c9f394dce183d8589103f49223"}, {"lon": -77.02205583333334, "rental_uris": {"android": "https://dc.lft.to/lastmile_qr_scan", "ios": "https://dc.lft.to/lastmile_qr_scan"}, "fusion_lon": 0.0, "is_reserved": 0, "is_disabled": 0, "fusion_lat": 0.0, "type": "electric_scooter", "name": "2688e0b8b25331165ae7c7bd932d6840", "lat": 38.887155, "bike_id": "2688e0b8b25331165ae7c7bd932d6840"}, {"lon": -77.00877716666666, "rental_uris": {"android": "https://dc.lft.to/lastmile_qr_scan", "ios": "https://dc.lft.to/lastmile_qr_scan"}, "fusion_lon": 0.0, "is_reserved": 0, "is_disabled": 0, "fusion_lat": 0.0, "type": "electric_scooter", "name": "253e9874304b6651b56c8c763685773c", "lat": 38.91148333333334, "bike_id": "253e9874304b6651b56c8c763685773c"}, {"lon": -77.02946916666667, "rental_uris": {"android": "https://dc.lft.to/lastmile_qr_scan", "ios": "https://dc.lft.to/lastmile_qr_scan"}, "fusion_lon": 0.0, "is_reserved": 0, "is_disabled": 0, "fusion_lat": 0.0, "type": "electric_scooter", "name": "2df22bc90d7eac1047337a4cae48a8ef", "lat": 38.932471, "bike_id": "2df22bc90d7eac1047337a4cae48a8ef"}, {"lon": -77.0325215, "rental_uris": {"android": "https://dc.lft.to/lastmile_qr_scan", "ios": "https://dc.lft.to/lastmile_qr_scan"}, "fusion_lon": 0.0, "is_reserved": 0, "is_disabled": 0, "fusion_lat": 0.0, "type": "electric_scooter", "name": "d2acb31d2597211ecc2ad47276acb441", "lat": 38.902436333333334, "bike_id": "d2acb31d2597211ecc2ad47276acb441"}, {"lon": -77.0327665, "rental_uris": {"android": "https://dc.lft.to/lastmile_qr_scan", "ios": "https://dc.lft.to/lastmile_qr_scan"}, "fusion_lon": 0.0, "is_reserved": 0, "is_disabled": 0, "fusion_lat": 0.0, "type": "electric_scooter", "name": "51fc4eeb9e132e005eddc135f58d4df8", "lat": 38.89872783333333, "bike_id": "51fc4eeb9e132e005eddc135f58d4df8"}, {"lon": -76.99511566666666, "rental_uris": {"android": "https://dc.lft.to/lastmile_qr_scan", "ios": "https://dc.lft.to/lastmile_qr_scan"}, "fusion_lon": 0.0, "is_reserved": 0, "is_disabled": 0, "fusion_lat": 0.0, "type": "electric_scooter", "name": "89633a8592744c58ddacacbb5639e2d0", "lat": 38.84740633333333, "bike_id": "89633a8592744c58ddacacbb5639e2d0"}, {"lon": -77.04650166666667, "rental_uris": {"android": "https://dc.lft.to/lastmile_qr_scan", "ios": "https://dc.lft.to/lastmile_qr_scan"}, "fusion_lon": 0.0, "is_reserved": 0, "is_disabled": 0, "fusion_lat": 0.0, "type": "electric_scooter", "name": "6cee3b05a12a6b26c2ff9e85065f75a0", "lat": 38.899643166666664, "bike_id": "6cee3b05a12a6b26c2ff9e85065f75a0"}, {"lon": -76.98974016666666, "rental_uris": {"android": "https://dc.lft.to/lastmile_qr_scan", "ios": "https://dc.lft.to/lastmile_qr_scan"}, "fusion_lon": 0.0, "is_reserved": 0, "is_disabled": 0, "fusion_lat": 0.0, "type": "electric_scooter", "name": "a6cf3b8d353bc351e587d88ce121d197", "lat": 38.924340666666666, "bike_id": "a6cf3b8d353bc351e587d88ce121d197"}, {"lon": -76.95204183333334, "rental_uris": {"android": "https://dc.lft.to/lastmile_qr_scan", "ios": "https://dc.lft.to/lastmile_qr_scan"}, "fusion_lon": 0.0, "is_reserved": 0, "is_disabled": 0, "fusion_lat": 0.0, "type": "electric_scooter", "name": "620dece1070f46a75f6b747b8a8a041b", "lat": 38.904733666666665, "bike_id": "620dece1070f46a75f6b747b8a8a041b"}, {"lon": -77.02134666666667, "rental_uris": {"android": "https://dc.lft.to/lastmile_qr_scan", "ios": "https://dc.lft.to/lastmile_qr_scan"}, "fusion_lon": 0.0, "is_reserved": 0, "is_disabled": 0, "fusion_lat": 0.0, "type": "electric_scooter", "name": "e0adfd292f12aa24be953d31823f268e", "lat": 38.924439166666666, "bike_id": "e0adfd292f12aa24be953d31823f268e"}, {"lon": -76.93727833333334, "rental_uris": {"android": "https://dc.lft.to/lastmile_qr_scan", "ios": "https://dc.lft.to/lastmile_qr_scan"}, "fusion_lon": 0.0, "is_reserved": 0, "is_disabled": 0, "fusion_lat": 0.0, "type": "electric_scooter", "name": "8377e5fe36d074831040af61b644d50c", "lat": 38.890315, "bike_id": "8377e5fe36d074831040af61b644d50c"}, {"lon": -77.07277866666666, "rental_uris": {"android": "https://dc.lft.to/lastmile_qr_scan", "ios": "https://dc.lft.to/lastmile_qr_scan"}, "fusion_lon": 0.0, "is_reserved": 0, "is_disabled": 0, "fusion_lat": 0.0, "type": "electric_scooter", "name": "c5413ed7529c983049784c4aa1b40afa", "lat": 38.934705, "bike_id": "c5413ed7529c983049784c4aa1b40afa"}, {"lon": -77.03257683333334, "rental_uris": {"android": "https://dc.lft.to/lastmile_qr_scan", "ios": "https://dc.lft.to/lastmile_qr_scan"}, "fusion_lon": 0.0, "is_reserved": 0, "is_disabled": 0, "fusion_lat": 0.0, "type": "electric_scooter", "name": "36dff3b8d55e50c6bd549035f8731aa2", "lat": 38.909764833333334, "bike_id": "36dff3b8d55e50c6bd549035f8731aa2"}, {"lon": -77.0231995, "rental_uris": {"android": "https://dc.lft.to/lastmile_qr_scan", "ios": "https://dc.lft.to/lastmile_qr_scan"}, "fusion_lon": 0.0, "is_reserved": 0, "is_disabled": 0, "fusion_lat": 0.0, "type": "electric_scooter", "name": "b1252badef62fc58f6c99bee445ccd42", "lat": 38.919117166666666, "bike_id": "b1252badef62fc58f6c99bee445ccd42"}, {"lon": -77.05215983333333, "rental_uris": {"android": "https://dc.lft.to/lastmile_qr_scan", "ios": "https://dc.lft.to/lastmile_qr_scan"}, "fusion_lon": 0.0, "is_reserved": 0, "is_disabled": 0, "fusion_lat": 0.0, "type": "electric_scooter", "name": "1e49227cb158e4e7df94ce3263482120", "lat": 38.924808166666665, "bike_id": "1e49227cb158e4e7df94ce3263482120"}, {"lon": -76.99573533333333, "rental_uris": {"android": "https://dc.lft.to/lastmile_qr_scan", "ios": "https://dc.lft.to/lastmile_qr_scan"}, "fusion_lon": 0.0, "is_reserved": 0, "is_disabled": 0, "fusion_lat": 0.0, "type": "electric_scooter", "name": "1fe01f7e41c8ea4026910306b77f39c5", "lat": 38.862685166666665, "bike_id": "1fe01f7e41c8ea4026910306b77f39c5"}, {"lon": -77.08978883333333, "rental_uris": {"android": "https://dc.lft.to/lastmile_qr_scan", "ios": "https://dc.lft.to/lastmile_qr_scan"}, "fusion_lon": 0.0, "is_reserved": 0, "is_disabled": 0, "fusion_lat": 0.0, "type": "electric_scooter", "name": "3db5224b8ead75e3e24677793e1287fe", "lat": 38.93703266666667, "bike_id": "3db5224b8ead75e3e24677793e1287fe"}, {"lon": -77.02802133333333, "rental_uris": {"android": "https://dc.lft.to/lastmile_qr_scan", "ios": "https://dc.lft.to/lastmile_qr_scan"}, "fusion_lon": 0.0, "is_reserved": 0, "is_disabled": 0, "fusion_lat": 0.0, "type": "electric_scooter", "name": "8ab9839ab450b1719356d8337b9824d2", "lat": 38.89807483333333, "bike_id": "8ab9839ab450b1719356d8337b9824d2"}, {"lon": -77.12656533333333, "rental_uris": {"android": "https://dc.lft.to/lastmile_qr_scan", "ios": "https://dc.lft.to/lastmile_qr_scan"}, "fusion_lon": 0.0, "is_reserved": 0, "is_disabled": 0, "fusion_lat": 0.0, "type": "electric_bike", "name": "49833f00dd4a6482063a10e9ea9a8770", "lat": 38.819076833333334, "bike_id": "49833f00dd4a6482063a10e9ea9a8770"}, {"lon": -76.9986085, "rental_uris": {"android": "https://dc.lft.to/lastmile_qr_scan", "ios": "https://dc.lft.to/lastmile_qr_scan"}, "fusion_lon": 0.0, "is_reserved": 0, "is_disabled": 0, "fusion_lat": 0.0, "type": "electric_scooter", "name": "370678a54637ec177219a9584c2e3de7", "lat": 38.89190633333333, "bike_id": "370678a54637ec177219a9584c2e3de7"}, {"lon": -77.035317, "rental_uris": {"android": "https://dc.lft.to/lastmile_qr_scan", "ios": "https://dc.lft.to/lastmile_qr_scan"}, "fusion_lon": 0.0, "is_reserved": 0, "is_disabled": 0, "fusion_lat": 0.0, "type": "electric_scooter", "name": "689065d04d7020969509d741a8e369fe", "lat": 38.918530833333335, "bike_id": "689065d04d7020969509d741a8e369fe"}, {"lon": -77.01826966666667, "rental_uris": {"android": "https://dc.lft.to/lastmile_qr_scan", "ios": "https://dc.lft.to/lastmile_qr_scan"}, "fusion_lon": 0.0, "is_reserved": 0, "is_disabled": 0, "fusion_lat": 0.0, "type": "electric_scooter", "name": "5ad67b44bbaa075bc2f52bdb544883ea", "lat": 38.92134133333333, "bike_id": "5ad67b44bbaa075bc2f52bdb544883ea"}, {"lon": -77.0767595, "rental_uris": {"android": "https://dc.lft.to/lastmile_qr_scan", "ios": "https://dc.lft.to/lastmile_qr_scan"}, "fusion_lon": 0.0, "is_reserved": 0, "is_disabled": 0, "fusion_lat": 0.0, "type": "electric_bike", "name": "7d31c0695544e2cf1d90937d8b03da48", "lat": 38.864934166666664, "bike_id": "7d31c0695544e2cf1d90937d8b03da48"}, {"lon": -77.0189775, "rental_uris": {"android": "https://dc.lft.to/lastmile_qr_scan", "ios": "https://dc.lft.to/lastmile_qr_scan"}, "fusion_lon": 0.0, "is_reserved": 0, "is_disabled": 0, "fusion_lat": 0.0, "type": "electric_scooter", "name": "11f62de9e11cdd8a8cf67494a69a9943", "lat": 38.923409666666664, "bike_id": "11f62de9e11cdd8a8cf67494a69a9943"}, {"lon": -77.02150366666666, "rental_uris": {"android": "https://dc.lft.to/lastmile_qr_scan", "ios": "https://dc.lft.to/lastmile_qr_scan"}, "fusion_lon": 0.0, "is_reserved": 0, "is_disabled": 0, "fusion_lat": 0.0, "type": "electric_scooter", "name": "28a47f74bada735688d501db5ec436e0", "lat": 38.926017, "bike_id": "28a47f74bada735688d501db5ec436e0"}, {"lon": -77.03623333333333, "rental_uris": {"android": "https://dc.lft.to/lastmile_qr_scan", "ios": "https://dc.lft.to/lastmile_qr_scan"}, "fusion_lon": 0.0, "is_reserved": 0, "is_disabled": 0, "fusion_lat": 0.0, "type": "electric_scooter", "name": "f666d94181b29472104066bcf80cd3f7", "lat": 38.9528105, "bike_id": "f666d94181b29472104066bcf80cd3f7"}, {"lon": -77.043539, "rental_uris": {"android": "https://dc.lft.to/lastmile_qr_scan", "ios": "https://dc.lft.to/lastmile_qr_scan"}, "fusion_lon": 0.0, "is_reserved": 0, "is_disabled": 0, "fusion_lat": 0.0, "type": "electric_scooter", "name": "fb35bf7ace9a0436b9b75d0fff0153be", "lat": 38.90439416666667, "bike_id": "fb35bf7ace9a0436b9b75d0fff0153be"}, {"lon": -77.02866933333334, "rental_uris": {"android": "https://dc.lft.to/lastmile_qr_scan", "ios": "https://dc.lft.to/lastmile_qr_scan"}, "fusion_lon": 0.0, "is_reserved": 0, "is_disabled": 0, "fusion_lat": 0.0, "type": "electric_scooter", "name": "4c6f3e3a0c3dbf5b2253435da15acf67", "lat": 38.96070483333333, "bike_id": "4c6f3e3a0c3dbf5b2253435da15acf67"}, {"lon": -77.01784333333333, "rental_uris": {"android": "https://dc.lft.to/lastmile_qr_scan", "ios": "https://dc.lft.to/lastmile_qr_scan"}, "fusion_lon": 0.0, "is_reserved": 0, "is_disabled": 0, "fusion_lat": 0.0, "type": "electric_bike", "name": "74665ed22844bc54d9812d830c1c6fea", "lat": 38.919971333333336, "bike_id": "74665ed22844bc54d9812d830c1c6fea"}, {"lon": -77.033385, "rental_uris": {"android": "https://dc.lft.to/lastmile_qr_scan", "ios": "https://dc.lft.to/lastmile_qr_scan"}, "fusion_lon": 0.0, "is_reserved": 0, "is_disabled": 0, "fusion_lat": 0.0, "type": "electric_scooter", "name": "8f0370b537de0ac30b7e96b20d047b23", "lat": 38.92870633333333, "bike_id": "8f0370b537de0ac30b7e96b20d047b23"}, {"lon": -77.04472, "rental_uris": {"android": "https://dc.lft.to/lastmile_qr_scan", "ios": "https://dc.lft.to/lastmile_qr_scan"}, "fusion_lon": 0.0, "is_reserved": 0, "is_disabled": 0, "fusion_lat": 0.0, "type": "electric_scooter", "name": "aae45b665cac39386bc53365a12bdfa5", "lat": 38.8922295, "bike_id": "aae45b665cac39386bc53365a12bdfa5"}, {"lon": -77.043078, "rental_uris": {"android": "https://dc.lft.to/lastmile_qr_scan", "ios": "https://dc.lft.to/lastmile_qr_scan"}, "fusion_lon": 0.0, "is_reserved": 0, "is_disabled": 0, "fusion_lat": 0.0, "type": "electric_scooter", "name": "1aa43f3a63489bce5396d48c7443e839", "lat": 38.90575783333333, "bike_id": "1aa43f3a63489bce5396d48c7443e839"}, {"lon": -76.995356, "rental_uris": {"android": "https://dc.lft.to/lastmile_qr_scan", "ios": "https://dc.lft.to/lastmile_qr_scan"}, "fusion_lon": 0.0, "is_reserved": 0, "is_disabled": 0, "fusion_lat": 0.0, "type": "electric_scooter", "name": "930992b3100058862ec1fb7039d77bbc", "lat": 38.8626575, "bike_id": "930992b3100058862ec1fb7039d77bbc"}, {"lon": -77.03447183333333, "rental_uris": {"android": "https://dc.lft.to/lastmile_qr_scan", "ios": "https://dc.lft.to/lastmile_qr_scan"}, "fusion_lon": 0.0, "is_reserved": 0, "is_disabled": 0, "fusion_lat": 0.0, "type": "electric_scooter", "name": "e80d255dbffd76ba91f72f73e866e96c", "lat": 38.905411666666666, "bike_id": "e80d255dbffd76ba91f72f73e866e96c"}, {"lon": -77.04336616666667, "rental_uris": {"android": "https://dc.lft.to/lastmile_qr_scan", "ios": "https://dc.lft.to/lastmile_qr_scan"}, "fusion_lon": 0.0, "is_reserved": 0, "is_disabled": 0, "fusion_lat": 0.0, "type": "electric_scooter", "name": "d1308d3dcf14e9eb78360debb97c4308", "lat": 38.89220816666667, "bike_id": "d1308d3dcf14e9eb78360debb97c4308"}, {"lon": -77.04653133333333, "rental_uris": {"android": "https://dc.lft.to/lastmile_qr_scan", "ios": "https://dc.lft.to/lastmile_qr_scan"}, "fusion_lon": 0.0, "is_reserved": 0, "is_disabled": 0, "fusion_lat": 0.0, "type": "electric_scooter", "name": "630c9db64c6406c19bb0e1ea6a616b72", "lat": 38.892284333333336, "bike_id": "630c9db64c6406c19bb0e1ea6a616b72"}, {"lon": -77.00054616666667, "rental_uris": {"android": "https://dc.lft.to/lastmile_qr_scan", "ios": "https://dc.lft.to/lastmile_qr_scan"}, "fusion_lon": 0.0, "is_reserved": 0, "is_disabled": 0, "fusion_lat": 0.0, "type": "electric_scooter", "name": "a7f3ecf24fe723c29ca87298bfdf849a", "lat": 38.8737045, "bike_id": "a7f3ecf24fe723c29ca87298bfdf849a"}, {"lon": -77.05175233333334, "rental_uris": {"android": "https://dc.lft.to/lastmile_qr_scan", "ios": "https://dc.lft.to/lastmile_qr_scan"}, "fusion_lon": 0.0, "is_reserved": 0, "is_disabled": 0, "fusion_lat": 0.0, "type": "electric_scooter", "name": "4410d291e6d10588cbd93908dbf50ab9", "lat": 38.9234265, "bike_id": "4410d291e6d10588cbd93908dbf50ab9"}, {"lon": -77.02538, "rental_uris": {"android": "https://dc.lft.to/lastmile_qr_scan", "ios": "https://dc.lft.to/lastmile_qr_scan"}, "fusion_lon": 0.0, "is_reserved": 0, "is_disabled": 0, "fusion_lat": 0.0, "type": "electric_scooter", "name": "e95f8302508c334a539a89a66d845be2", "lat": 38.9408915, "bike_id": "e95f8302508c334a539a89a66d845be2"}, {"lon": -77.025795, "rental_uris": {"android": "https://dc.lft.to/lastmile_qr_scan", "ios": "https://dc.lft.to/lastmile_qr_scan"}, "fusion_lon": 0.0, "is_reserved": 0, "is_disabled": 0, "fusion_lat": 0.0, "type": "electric_scooter", "name": "bbc0bc709a426b27fd697d85fb3382a3", "lat": 38.884243833333336, "bike_id": "bbc0bc709a426b27fd697d85fb3382a3"}, {"lon": -77.03859916666667, "rental_uris": {"android": "https://dc.lft.to/lastmile_qr_scan", "ios": "https://dc.lft.to/lastmile_qr_scan"}, "fusion_lon": 0.0, "is_reserved": 0, "is_disabled": 0, "fusion_lat": 0.0, "type": "electric_scooter", "name": "2b6f4fbb17a160e77a9e8a350f555526", "lat": 38.90642483333333, "bike_id": "2b6f4fbb17a160e77a9e8a350f555526"}, {"lon": -76.99079983333333, "rental_uris": {"android": "https://dc.lft.to/lastmile_qr_scan", "ios": "https://dc.lft.to/lastmile_qr_scan"}, "fusion_lon": 0.0, "is_reserved": 0, "is_disabled": 0, "fusion_lat": 0.0, "type": "electric_bike", "name": "f78109b7bfabd0adbf9aded80d8b38fa", "lat": 38.94264116666667, "bike_id": "f78109b7bfabd0adbf9aded80d8b38fa"}, {"lon": -77.029661, "rental_uris": {"android": "https://dc.lft.to/lastmile_qr_scan", "ios": "https://dc.lft.to/lastmile_qr_scan"}, "fusion_lon": 0.0, "is_reserved": 0, "is_disabled": 0, "fusion_lat": 0.0, "type": "electric_scooter", "name": "fb66f23f113a9c20411773328f76eaf2", "lat": 38.916832, "bike_id": "fb66f23f113a9c20411773328f76eaf2"}, {"lon": -76.9728385, "rental_uris": {"android": "https://dc.lft.to/lastmile_qr_scan", "ios": "https://dc.lft.to/lastmile_qr_scan"}, "fusion_lon": 0.0, "is_reserved": 0, "is_disabled": 0, "fusion_lat": 0.0, "type": "electric_scooter", "name": "63a69cf29b5674a64b725310c8499a48", "lat": 38.91718783333334, "bike_id": "63a69cf29b5674a64b725310c8499a48"}, {"lon": -77.04865383333333, "rental_uris": {"android": "https://dc.lft.to/lastmile_qr_scan", "ios": "https://dc.lft.to/lastmile_qr_scan"}, "fusion_lon": 0.0, "is_reserved": 0, "is_disabled": 0, "fusion_lat": 0.0, "type": "electric_scooter", "name": "3a1a468d7016610c6d63b68c92d953f3", "lat": 38.9047245, "bike_id": "3a1a468d7016610c6d63b68c92d953f3"}, {"lon": -77.04172016666666, "rental_uris": {"android": "https://dc.lft.to/lastmile_qr_scan", "ios": "https://dc.lft.to/lastmile_qr_scan"}, "fusion_lon": 0.0, "is_reserved": 0, "is_disabled": 0, "fusion_lat": 0.0, "type": "electric_scooter", "name": "2dce378196c6fa152fd52a5308b728cd", "lat": 38.905311166666664, "bike_id": "2dce378196c6fa152fd52a5308b728cd"}, {"lon": -77.00922666666666, "rental_uris": {"android": "https://dc.lft.to/lastmile_qr_scan", "ios": "https://dc.lft.to/lastmile_qr_scan"}, "fusion_lon": 0.0, "is_reserved": 0, "is_disabled": 0, "fusion_lat": 0.0, "type": "electric_scooter", "name": "a80f24b3b7075690a2d0aaeeb69a1136", "lat": 38.89644833333333, "bike_id": "a80f24b3b7075690a2d0aaeeb69a1136"}, {"lon": -77.021801, "rental_uris": {"android": "https://dc.lft.to/lastmile_qr_scan", "ios": "https://dc.lft.to/lastmile_qr_scan"}, "fusion_lon": 0.0, "is_reserved": 0, "is_disabled": 0, "fusion_lat": 0.0, "type": "electric_scooter", "name": "97a205b12c606252cd9f4873a2a419c0", "lat": 38.89229316666667, "bike_id": "97a205b12c606252cd9f4873a2a419c0"}, {"lon": -77.0673525, "rental_uris": {"android": "https://dc.lft.to/lastmile_qr_scan", "ios": "https://dc.lft.to/lastmile_qr_scan"}, "fusion_lon": 0.0, "is_reserved": 0, "is_disabled": 0, "fusion_lat": 0.0, "type": "electric_scooter", "name": "1cabed07f4ffc6be47d3f41b32861d95", "lat": 38.9049855, "bike_id": "1cabed07f4ffc6be47d3f41b32861d95"}, {"lon": -77.05342566666667, "rental_uris": {"android": "https://dc.lft.to/lastmile_qr_scan", "ios": "https://dc.lft.to/lastmile_qr_scan"}, "fusion_lon": 0.0, "is_reserved": 0, "is_disabled": 0, "fusion_lat": 0.0, "type": "electric_scooter", "name": "b8277415aa6c3918f32f00e57b7b3d4a", "lat": 38.904719, "bike_id": "b8277415aa6c3918f32f00e57b7b3d4a"}, {"lon": -77.0238545, "rental_uris": {"android": "https://dc.lft.to/lastmile_qr_scan", "ios": "https://dc.lft.to/lastmile_qr_scan"}, "fusion_lon": 0.0, "is_reserved": 0, "is_disabled": 0, "fusion_lat": 0.0, "type": "electric_scooter", "name": "97d40914a2c94f2522f996ed62d2ec0a", "lat": 38.91288466666666, "bike_id": "97d40914a2c94f2522f996ed62d2ec0a"}, {"lon": -77.005623, "rental_uris": {"android": "https://dc.lft.to/lastmile_qr_scan", "ios": "https://dc.lft.to/lastmile_qr_scan"}, "fusion_lon": 0.0, "is_reserved": 0, "is_disabled": 0, "fusion_lat": 0.0, "type": "electric_scooter", "name": "fa9a4d9d1bdb1dff14258a88f737be8b", "lat": 38.90230116666667, "bike_id": "fa9a4d9d1bdb1dff14258a88f737be8b"}, {"lon": -77.0320585, "rental_uris": {"android": "https://dc.lft.to/lastmile_qr_scan", "ios": "https://dc.lft.to/lastmile_qr_scan"}, "fusion_lon": 0.0, "is_reserved": 0, "is_disabled": 0, "fusion_lat": 0.0, "type": "electric_scooter", "name": "d7651249edaa3baf70245cc122b0b273", "lat": 38.925784666666665, "bike_id": "d7651249edaa3baf70245cc122b0b273"}, {"lon": -77.05047566666667, "rental_uris": {"android": "https://dc.lft.to/lastmile_qr_scan", "ios": "https://dc.lft.to/lastmile_qr_scan"}, "fusion_lon": 0.0, "is_reserved": 0, "is_disabled": 0, "fusion_lat": 0.0, "type": "electric_scooter", "name": "4f0504cb1b2cd2f1e2341057279301e7", "lat": 38.92369516666667, "bike_id": "4f0504cb1b2cd2f1e2341057279301e7"}, {"lon": -77.01394033333334, "rental_uris": {"android": "https://dc.lft.to/lastmile_qr_scan", "ios": "https://dc.lft.to/lastmile_qr_scan"}, "fusion_lon": 0.0, "is_reserved": 0, "is_disabled": 0, "fusion_lat": 0.0, "type": "electric_scooter", "name": "93b6d6b68c332bc18bdae333d3f2474e", "lat": 38.974702666666666, "bike_id": "93b6d6b68c332bc18bdae333d3f2474e"}, {"lon": -76.99160916666666, "rental_uris": {"android": "https://dc.lft.to/lastmile_qr_scan", "ios": "https://dc.lft.to/lastmile_qr_scan"}, "fusion_lon": 0.0, "is_reserved": 0, "is_disabled": 0, "fusion_lat": 0.0, "type": "electric_scooter", "name": "34d7f2e27080780853732bc1e48e90df", "lat": 38.8977185, "bike_id": "34d7f2e27080780853732bc1e48e90df"}, {"lon": -76.91722216666666, "rental_uris": {"android": "https://dc.lft.to/lastmile_qr_scan", "ios": "https://dc.lft.to/lastmile_qr_scan"}, "fusion_lon": 0.0, "is_reserved": 0, "is_disabled": 0, "fusion_lat": 0.0, "type": "electric_bike", "name": "d11f06afca22c8f997c795c1bc444635", "lat": 38.880248, "bike_id": "d11f06afca22c8f997c795c1bc444635"}, {"lon": -77.0237185, "rental_uris": {"android": "https://dc.lft.to/lastmile_qr_scan", "ios": "https://dc.lft.to/lastmile_qr_scan"}, "fusion_lon": 0.0, "is_reserved": 0, "is_disabled": 0, "fusion_lat": 0.0, "type": "electric_scooter", "name": "834f0eb23baac1b8c56ba9a01b8f6f86", "lat": 38.892208833333335, "bike_id": "834f0eb23baac1b8c56ba9a01b8f6f86"}, {"lon": -76.99693066666667, "rental_uris": {"android": "https://dc.lft.to/lastmile_qr_scan", "ios": "https://dc.lft.to/lastmile_qr_scan"}, "fusion_lon": 0.0, "is_reserved": 0, "is_disabled": 0, "fusion_lat": 0.0, "type": "electric_scooter", "name": "88b09a48ac5e15df00b2eb0bdb1130f0", "lat": 38.87711, "bike_id": "88b09a48ac5e15df00b2eb0bdb1130f0"}, {"lon": -77.036616, "rental_uris": {"android": "https://dc.lft.to/lastmile_qr_scan", "ios": "https://dc.lft.to/lastmile_qr_scan"}, "fusion_lon": 0.0, "is_reserved": 0, "is_disabled": 0, "fusion_lat": 0.0, "type": "electric_scooter", "name": "7c1a6362ee9b80f5bbe550cfe68f15cb", "lat": 38.92382383333333, "bike_id": "7c1a6362ee9b80f5bbe550cfe68f15cb"}, {"lon": -77.02639116666667, "rental_uris": {"android": "https://dc.lft.to/lastmile_qr_scan", "ios": "https://dc.lft.to/lastmile_qr_scan"}, "fusion_lon": 0.0, "is_reserved": 0, "is_disabled": 0, "fusion_lat": 0.0, "type": "electric_scooter", "name": "3de9b2a0c05c9257c057c158a226eef9", "lat": 38.94107916666667, "bike_id": "3de9b2a0c05c9257c057c158a226eef9"}, {"lon": -77.07150666666666, "rental_uris": {"android": "https://dc.lft.to/lastmile_qr_scan", "ios": "https://dc.lft.to/lastmile_qr_scan"}, "fusion_lon": 0.0, "is_reserved": 0, "is_disabled": 0, "fusion_lat": 0.0, "type": "electric_scooter", "name": "79ac0089a2afefdde29b159de9cf70f1", "lat": 38.920267333333335, "bike_id": "79ac0089a2afefdde29b159de9cf70f1"}, {"lon": -77.0191225, "rental_uris": {"android": "https://dc.lft.to/lastmile_qr_scan", "ios": "https://dc.lft.to/lastmile_qr_scan"}, "fusion_lon": 0.0, "is_reserved": 0, "is_disabled": 0, "fusion_lat": 0.0, "type": "electric_scooter", "name": "0902bc88cf5be3c9b819902d83b596a4", "lat": 38.92247583333334, "bike_id": "0902bc88cf5be3c9b819902d83b596a4"}, {"lon": -77.006072, "rental_uris": {"android": "https://dc.lft.to/lastmile_qr_scan", "ios": "https://dc.lft.to/lastmile_qr_scan"}, "fusion_lon": 0.0, "is_reserved": 0, "is_disabled": 0, "fusion_lat": 0.0, "type": "electric_scooter", "name": "3cf56bba7d9c7438502692ad5272017f", "lat": 38.90563066666667, "bike_id": "3cf56bba7d9c7438502692ad5272017f"}, {"lon": -76.977968, "rental_uris": {"android": "https://dc.lft.to/lastmile_qr_scan", "ios": "https://dc.lft.to/lastmile_qr_scan"}, "fusion_lon": 0.0, "is_reserved": 0, "is_disabled": 0, "fusion_lat": 0.0, "type": "electric_scooter", "name": "61fcf47d1fe30b730a663b576119405d", "lat": 38.9031, "bike_id": "61fcf47d1fe30b730a663b576119405d"}, {"lon": -77.02632083333333, "rental_uris": {"android": "https://dc.lft.to/lastmile_qr_scan", "ios": "https://dc.lft.to/lastmile_qr_scan"}, "fusion_lon": 0.0, "is_reserved": 0, "is_disabled": 0, "fusion_lat": 0.0, "type": "electric_scooter", "name": "7de1b9cc0bf889c9908cc191bedd3c5c", "lat": 38.89216366666667, "bike_id": "7de1b9cc0bf889c9908cc191bedd3c5c"}, {"lon": -77.02235533333334, "rental_uris": {"android": "https://dc.lft.to/lastmile_qr_scan", "ios": "https://dc.lft.to/lastmile_qr_scan"}, "fusion_lon": 0.0, "is_reserved": 0, "is_disabled": 0, "fusion_lat": 0.0, "type": "electric_scooter", "name": "65dbcd36e6910e41dd3b4ae03a117a5a", "lat": 38.9224415, "bike_id": "65dbcd36e6910e41dd3b4ae03a117a5a"}, {"lon": -77.06813666666666, "rental_uris": {"android": "https://dc.lft.to/lastmile_qr_scan", "ios": "https://dc.lft.to/lastmile_qr_scan"}, "fusion_lon": 0.0, "is_reserved": 0, "is_disabled": 0, "fusion_lat": 0.0, "type": "electric_scooter", "name": "d3bc50cec713166a891c5bd570ce09fb", "lat": 38.904018, "bike_id": "d3bc50cec713166a891c5bd570ce09fb"}, {"lon": -77.04232716666667, "rental_uris": {"android": "https://dc.lft.to/lastmile_qr_scan", "ios": "https://dc.lft.to/lastmile_qr_scan"}, "fusion_lon": 0.0, "is_reserved": 0, "is_disabled": 0, "fusion_lat": 0.0, "type": "electric_scooter", "name": "b640e2b36e0ca8115a85fbdf238a4e03", "lat": 38.921068166666664, "bike_id": "b640e2b36e0ca8115a85fbdf238a4e03"}, {"lon": -77.02176316666667, "rental_uris": {"android": "https://dc.lft.to/lastmile_qr_scan", "ios": "https://dc.lft.to/lastmile_qr_scan"}, "fusion_lon": 0.0, "is_reserved": 0, "is_disabled": 0, "fusion_lat": 0.0, "type": "electric_scooter", "name": "baf992361e28c273b3e12d6ac0a4e58e", "lat": 38.926111, "bike_id": "baf992361e28c273b3e12d6ac0a4e58e"}, {"lon": -77.099571, "rental_uris": {"android": "https://dc.lft.to/lastmile_qr_scan", "ios": "https://dc.lft.to/lastmile_qr_scan"}, "fusion_lon": 0.0, "is_reserved": 0, "is_disabled": 0, "fusion_lat": 0.0, "type": "electric_scooter", "name": "3afd23e62d46be249d87ea3c9fa2fa2b", "lat": 38.94978483333333, "bike_id": "3afd23e62d46be249d87ea3c9fa2fa2b"}, {"lon": -77.039988, "rental_uris": {"android": "https://dc.lft.to/lastmile_qr_scan", "ios": "https://dc.lft.to/lastmile_qr_scan"}, "fusion_lon": 0.0, "is_reserved": 0, "is_disabled": 0, "fusion_lat": 0.0, "type": "electric_scooter", "name": "ff9a459eec0453e172a737d49c30881c", "lat": 38.93419033333333, "bike_id": "ff9a459eec0453e172a737d49c30881c"}, {"lon": -77.0449005, "rental_uris": {"android": "https://dc.lft.to/lastmile_qr_scan", "ios": "https://dc.lft.to/lastmile_qr_scan"}, "fusion_lon": 0.0, "is_reserved": 0, "is_disabled": 0, "fusion_lat": 0.0, "type": "electric_scooter", "name": "749b40b50e182ee0a0b95d2fbd224e5c", "lat": 38.89232833333333, "bike_id": "749b40b50e182ee0a0b95d2fbd224e5c"}, {"lon": -77.03325666666667, "rental_uris": {"android": "https://dc.lft.to/lastmile_qr_scan", "ios": "https://dc.lft.to/lastmile_qr_scan"}, "fusion_lon": 0.0, "is_reserved": 0, "is_disabled": 0, "fusion_lat": 0.0, "type": "electric_scooter", "name": "1cd208784b3ed5a8d34ca33aab5b624a", "lat": 38.89642333333333, "bike_id": "1cd208784b3ed5a8d34ca33aab5b624a"},