{"data": {"bikes": [{"lat": 38.892726833333334, "is_disabled": 0, "type": "electric_scooter", "lon": -77.02025033333334, "bike_id": "a5f583e7a8d1d14bffb69367053814ba", "fusion_lat": 0.0, "name": "a5f583e7a8d1d14bffb69367053814ba", "is_reserved": 0, "rental_uris": {"android": "https://dc.lft.to/lastmile_qr_scan", "ios": "https://dc.lft.to/lastmile_qr_scan"}, "fusion_lon": 0.0}, {"lat": 38.92458516666667, "is_disabled": 0, "type": "electric_scooter", "lon": -77.080294, "bike_id": "2a86d0117cded5f2a276b491e3d6648d", "fusion_lat": 0.0, "name": "2a86d0117cded5f2a276b491e3d6648d", "is_reserved": 0, "rental_uris": {"android": "https://dc.lft.to/lastmile_qr_scan", "ios": "https://dc.lft.to/lastmile_qr_scan"}, "fusion_lon": 0.0}, {"lat": 38.929541, "is_disabled": 0, "type": "electric_scooter", "lon": -76.99086533333333, "bike_id": "fb53297a1707d5324b834d7ce2d61663", "fusion_lat": 0.0, "name": "fb53297a1707d5324b834d7ce2d61663", "is_reserved": 0, "rental_uris": {"android": "https://dc.lft.to/lastmile_qr_scan", "ios": "https://dc.lft.to/lastmile_qr_scan"}, "fusion_lon": 0.0}, {"lat": 38.915211, "is_disabled": 0, "type": "electric_scooter", "lon": -77.03843816666667, "bike_id": "cd8de5c28e73e536d556d2d6f2d31679", "fusion_lat": 0.0, "name": "cd8de5c28e73e536d556d2d6f2d31679", "is_reserved": 0, "rental_uris": {"android": "https://dc.lft.to/lastmile_qr_scan", "ios": "https://dc.lft.to/lastmile_qr_scan"}, "fusion_lon": 0.0}, {"lat": 38.89287133333333, "is_disabled": 0, "type": "electric_scooter", "lon": -76.95853683333333, "bike_id": "12c7b82ae957229899a2699133002c44", "fusion_lat": 0.0, "name": "12c7b82ae957229899a2699133002c44", "is_reserved": 0, "rental_uris": {"android": "https://dc.lft.to/lastmile_qr_scan", "ios": "https://dc.lft.to/lastmile_qr_scan"}, "fusion_lon": 0.0}, {"lat": 38.899952166666665, "is_disabled": 0, "type": "electric_scooter", "lon": -76.99959233333334, "bike_id": "211171857afea49786fa719dc83546fb", "fusion_lat": 0.0, "name": "211171857afea49786fa719dc83546fb", "is_reserved": 0, "rental_uris": {"android": "https://dc.lft.to/lastmile_qr_scan", "ios": "https://dc.lft.to/lastmile_qr_scan"}, "fusion_lon": 0.0}, {"lat": 38.87930566666667, "is_disabled": 0, "type": "electric_scooter", "lon": -77.004141, "bike_id": "79af19fc7797d98b0e2c3dee499cfea8", "fusion_lat": 0.0, "name": "79af19fc7797d98b0e2c3dee499cfea8", "is_reserved": 0, "rental_uris": {"android": "https://dc.lft.to/lastmile_qr_scan", "ios": "https://dc.lft.to/lastmile_qr_scan"}, "fusion_lon": 0.0}, {"lat": 38.9243195, "is_disabled": 0, "type": "electric_scooter", "lon": -77.042472, "bike_id": "48294b74916f7d326f78f4ee14ef3246", "fusion_lat": 0.0, "name": "48294b74916f7d326f78f4ee14ef3246", "is_reserved": 0, "rental_uris": {"android": "https://dc.lft.to/lastmile_qr_scan", "ios": "https://dc.lft.to/lastmile_qr_scan"}, "fusion_lon": 0.0}, {"lat": 38.93090316666667, "is_disabled": 0, "type": "electric_scooter", "lon": -77.033975, "bike_id": "0910eba896e198747565d7556bd75610", "fusion_lat": 0.0, "name": "0910eba896e198747565d7556bd75610", "is_reserved": 0, "rental_uris": {"android": "https://dc.lft.to/lastmile_qr_scan", "ios": "https://dc.lft.to/lastmile_qr_scan"}, "fusion_lon": 0.0}, {"lat": 38.944553666666664, "is_disabled": 0, "type": "electric_scooter", "lon": -77.06033966666666, "bike_id": "9bc25f7e4d11e8beca79ab0911740bab", "fusion_lat": 0.0, "name": "9bc25f7e4d11e8beca79ab0911740bab", "is_reserved": 0, "rental_uris": {"android": "https://dc.lft.to/lastmile_qr_scan", "ios": "https://dc.lft.to/lastmile_qr_scan"}, "fusion_lon": 0.0}, {"lat": 38.92121816666667, "is_disabled": 0, "type": "electric_scooter", "lon": -77.0418, "bike_id": "d9e4e083f1143790452d20d9473855ed", "fusion_lat": 0.0, "name": "d9e4e083f1143790452d20d9473855ed", "is_reserved": 0, "rental_uris": {"android": "https://dc.lft.to/lastmile_qr_scan", "ios": "https://dc.lft.to/lastmile_qr_scan"}, "fusion_lon": 0.0}, {"lat": 38.8968245, "is_disabled": 0, "type": "electric_scooter", "lon": -76.93606516666667, "bike_id": "945b70f3a5b9ab974b3706f67ea644c1", "fusion_lat": 0.0, "name": "945b70f3a5b9ab974b3706f67ea644c1", "is_reserved": 0, "rental_uris": {"android": "https://dc.lft.to/lastmile_qr_scan", "ios": "https://dc.lft.to/lastmile_qr_scan"}, "fusion_lon": 0.0}, {"lat": 38.9482245, "is_disabled": 0, "type": "electric_scooter", "lon": -76.99902916666667, "bike_id": "45644f7317c639a17f5928c6641612e1", "fusion_lat": 0.0, "name": "45644f7317c639a17f5928c6641612e1", "is_reserved": 0, "rental_uris": {"android": "https://dc.lft.to/lastmile_qr_scan", "ios": "https://dc.lft.to/lastmile_qr_scan"}, "fusion_lon": 0.0}, {"lat": 38.988169, "is_disabled": 0, "type": "electric_bike", "lon": -77.02648766666667, "bike_id": "88a4d0b67c5e4f9d909e450d9fb9f6c6", "fusion_lat": 0.0, "name": "88a4d0b67c5e4f9d909e450d9fb9f6c6", "is_reserved": 0, "rental_uris": {"android": "https://dc.lft.to/lastmile_qr_scan", "ios": "https://dc.lft.to/lastmile_qr_scan"}, "fusion_lon": 0.0}, {"lat": 38.884500333333335, "is_disabled": 0, "type": "electric_scooter", "lon": -76.950986, "bike_id": "7ef03bfa5ac59116b484b726eb100c47", "fusion_lat": 0.0, "name": "7ef03bfa5ac59116b484b726eb100c47", "is_reserved": 0, "rental_uris": {"android": "https://dc.lft.to/lastmile_qr_scan", "ios": "https://dc.lft.to/lastmile_qr_scan"}, "fusion_lon": 0.0}, {"lat": 38.90127583333334, "is_disabled": 0, "type": "electric_scooter", "lon": -77.01778, "bike_id": "15ed54e644888d0782d897ba8360ef1c", "fusion_lat": 0.0, "name": "15ed54e644888d0782d897ba8360ef1c", "is_reserved": 0, "rental_uris": {"android": "https://dc.lft.to/lastmile_qr_scan", "ios": "https://dc.lft.to/lastmile_qr_scan"}, "fusion_lon": 0.0}, {"lat": 38.877343833333335, "is_disabled": 0, "type": "electric_bike", "lon": -77.11850316666667, "bike_id": "a2a5e69e1e22d5ef5e6057340fa5a3e2", "fusion_lat": 0.0, "name": "a2a5e69e1e22d5ef5e6057340fa5a3e2", "is_reserved": 0, "rental_uris": {"android": "https://dc.lft.to/lastmile_qr_scan", "ios": "https://dc.lft.to/lastmile_qr_scan"}, "fusion_lon": 0.0}, {"lat": 38.862516, "is_disabled": 0, "type": "electric_scooter", "lon": -76.98703816666666, "bike_id": "10e77fd61bfdb0d4946d646b2b895119", "fusion_lat": 0.0, "name": "10e77fd61bfdb0d4946d646b2b895119", "is_reserved": 0, "rental_uris": {"android": "https://dc.lft.to/lastmile_qr_scan", "ios": "https://dc.lft.to/lastmile_qr_scan"}, "fusion_lon": 0.0}, {"lat": 38.910493833333334, "is_disabled": 0, "type": "electric_scooter", "lon": -77.01523233333333, "bike_id": "d7b0116965e15d0e7247cfbc80723ad4", "fusion_lat": 0.0, "name": "d7b0116965e15d0e7247cfbc80723ad4", "is_reserved": 0, "rental_uris": {"android": "https://dc.lft.to/lastmile_qr_scan", "ios": "https://dc.lft.to/lastmile_qr_scan"}, "fusion_lon": 0.0}, {"lat": 38.93903266666667, "is_disabled": 0, "type": "electric_scooter", "lon": -77.024783, "bike_id": "c552b2520d4ee821c48b12458e4fb68e", "fusion_lat": 0.0, "name": "c552b2520d4ee821c48b12458e4fb68e", "is_reserved": 0, "rental_uris": {"android": "https://dc.lft.to/lastmile_qr_scan", "ios": "https://dc.lft.to/lastmile_qr_scan"}, "fusion_lon": 0.0}, {"lat": 38.86748033333333, "is_disabled": 0, "type": "electric_scooter", "lon": -76.97664933333333, "bike_id": "e470d7bac2e8ff5bd6ca35eaffcf70cd", "fusion_lat": 0.0, "name": "e470d7bac2e8ff5bd6ca35eaffcf70cd", "is_reserved": 0, "rental_uris": {"android": "https://dc.lft.to/lastmile_qr_scan", "ios": "https://dc.lft.to/lastmile_qr_scan"}, "fusion_lon": 0.0}, {"lat": 38.9038885, "is_disabled": 0, "type": "electric_scooter", "lon": -77.01640783333333, "bike_id": "546f752f75bdb1edfc81ee8cdb52ade6", "fusion_lat": 0.0, "name": "546f752f75bdb1edfc81ee8cdb52ade6", "is_reserved": 0, "rental_uris": {"android": "https://dc.lft.to/lastmile_qr_scan", "ios": "https://dc.lft.to/lastmile_qr_scan"}, "fusion_lon": 0.0}, {"lat": 38.90740783333333, "is_disabled": 0, "type": "electric_scooter", "lon": -77.04237733333333, "bike_id": "f17faca9fae2bf237cbe15979593e23a", "fusion_lat": 0.0, "name": "f17faca9fae2bf237cbe15979593e23a", "is_reserved": 0, "rental_uris": {"android": "https://dc.lft.to/lastmile_qr_scan", "ios": "https://dc.lft.to/lastmile_qr_scan"}, "fusion_lon": 0.0}, {"lat": 38.951853666666665, "is_disabled": 0, "type": "electric_bike", "lon": -76.93544633333333, "bike_id": "df096b1d8c76b825e2e2c006fe52fc33", "fusion_lat": 0.0, "name": "df096b1d8c76b825e2e2c006fe52fc33", "is_reserved": 0, "rental_uris": {"android": "https://dc.lft.to/lastmile_qr_scan", "ios": "https://dc.lft.to/lastmile_qr_scan"}, "fusion_lon": 0.0}, {"lat": 38.9066565, "is_disabled": 0, "type": "electric_scooter", "lon": -77.015402, "bike_id": "0ee5a9ea9131e7b1a95d91862bf0ad50", "fusion_lat": 0.0, "name": "0ee5a9ea9131e7b1a95d91862bf0ad50", "is_reserved": 0, "rental_uris": {"android": "https://dc.lft.to/lastmile_qr_scan", "ios": "https://dc.lft.to/lastmile_qr_scan"}, "fusion_lon": 0.0}, {"lat": 38.876327333333336, "is_disabled": 0, "type": "electric_scooter", "lon": -77.00562283333333, "bike_id": "913eee7cb0978cf0eb27c46ab4d579e4", "fusion_lat": 0.0, "name": "913eee7cb0978cf0eb27c46ab4d579e4", "is_reserved": 0, "rental_uris": {"android": "https://dc.lft.to/lastmile_qr_scan", "ios": "https://dc.lft.to/lastmile_qr_scan"}, "fusion_lon": 0.0}, {"lat": 38.962261166666664, "is_disabled": 0, "type": "electric_bike", "lon": -77.02629016666667, "bike_id": "5fdaab0d549d2b670083f500296b0a84", "fusion_lat": 0.0, "name": "5fdaab0d549d2b670083f500296b0a84", "is_reserved": 0, "rental_uris": {"android": "https://dc.lft.to/lastmile_qr_scan", "ios": "https://dc.lft.to/lastmile_qr_scan"}, "fusion_lon": 0.0}, {"lat": 38.896761166666664, "is_disabled": 0, "type": "electric_scooter", "lon": -77.005149, "bike_id": "26a2e29936c6710188540979d27f1bb4", "fusion_lat": 0.0, "name": "26a2e29936c6710188540979d27f1bb4", "is_reserved": 0, "rental_uris": {"android": "https://dc.lft.to/lastmile_qr_scan", "ios": "https://dc.lft.to/lastmile_qr_scan"}, "fusion_lon": 0.0}, {"lat": 38.916212, "is_disabled": 0, "type": "electric_scooter", "lon": -77.03737566666666, "bike_id": "0ae10f8864972e6c51596a011e427932", "fusion_lat": 0.0, "name": "0ae10f8864972e6c51596a011e427932", "is_reserved": 0, "rental_uris": {"android": "https://dc.lft.to/lastmile_qr_scan", "ios": "https://dc.lft.to/lastmile_qr_scan"}, "fusion_lon": 0.0}, {"lat": 38.9208675, "is_disabled": 0, "type": "electric_scooter", "lon": -77.025333, "bike_id": "0ba0df3aa903b7ac461059cd17f39e8f", "fusion_lat": 0.0, "name": "0ba0df3aa903b7ac461059cd17f39e8f", "is_reserved": 0, "rental_uris": {"android": "https://dc.lft.to/lastmile_qr_scan", "ios": "https://dc.lft.to/lastmile_qr_scan"}, "fusion_lon": 0.0}, {"lat": 38.94821483333333, "is_disabled": 0, "type": "electric_scooter", "lon": -76.99903716666667, "bike_id": "d9bba272b8ce800a44aab806f34e8ca9", "fusion_lat": 0.0, "name": "d9bba272b8ce800a44aab806f34e8ca9", "is_reserved": 0, "rental_uris": {"android": "https://dc.lft.to/lastmile_qr_scan", "ios": "https://dc.lft.to/lastmile_qr_scan"}, "fusion_lon": 0.0}, {"lat": 38.911929666666666, "is_disabled": 0, "type": "electric_scooter", "lon": -77.004578, "bike_id": "2df56d041014c613c314806f2b7c60ee", "fusion_lat": 0.0, "name": "2df56d041014c613c314806f2b7c60ee", "is_reserved": 0, "rental_uris": {"android": "https://dc.lft.to/lastmile_qr_scan", "ios": "https://dc.lft.to/lastmile_qr_scan"}, "fusion_lon": 0.0}, {"lat": 38.878537, "is_disabled": 0, "type": "electric_bike", "lon": -77.01766516666666, "bike_id": "657c47ad348fb3e864fb67b0835525b4", "fusion_lat": 0.0, "name": "657c47ad348fb3e864fb67b0835525b4", "is_reserved": 0, "rental_uris": {"android": "https://dc.lft.to/lastmile_qr_scan", "ios": "https://dc.lft.to/lastmile_qr_scan"}, "fusion_lon": 0.0}, {"lat": 38.86509266666667, "is_disabled": 0, "type": "electric_scooter", "lon": -76.99006483333334, "bike_id": "3b9b5a78c2b9da56509f897497c4df9e", "fusion_lat": 0.0, "name": "3b9b5a78c2b9da56509f897497c4df9e", "is_reserved": 0, "rental_uris": {"android": "https://dc.lft.to/lastmile_qr_scan", "ios": "https://dc.lft.to/lastmile_qr_scan"}, "fusion_lon": 0.0}, {"lat": 38.932361, "is_disabled": 0, "type": "electric_bike", "lon": -76.97422266666666, "bike_id": "c70e6f80341d244636dbeb693c555ef8", "fusion_lat": 0.0, "name": "c70e6f80341d244636dbeb693c555ef8", "is_reserved": 0, "rental_uris": {"android": "https://dc.lft.to/lastmile_qr_scan", "ios": "https://dc.lft.to/lastmile_qr_scan"}, "fusion_lon": 0.0}, {"lat": 38.9168475, "is_disabled": 0, "type": "electric_scooter", "lon": -77.03212966666666, "bike_id": "350e9c60fac94fb966e89a6bc6502aa8", "fusion_lat": 0.0, "name": "350e9c60fac94fb966e89a6bc6502aa8", "is_reserved": 0, "rental_uris": {"android": "https://dc.lft.to/lastmile_qr_scan", "ios": "https://dc.lft.to/lastmile_qr_scan"}, "fusion_lon": 0.0}, {"lat": 38.8486525, "is_disabled": 0, "type": "electric_scooter", "lon": -76.97690933333334, "bike_id": "eee70d77a75ac9b8b9b426581de28b2b", "fusion_lat": 0.0, "name": "eee70d77a75ac9b8b9b426581de28b2b", "is_reserved": 0, "rental_uris": {"android": "https://dc.lft.to/lastmile_qr_scan", "ios": "https://dc.lft.to/lastmile_qr_scan"}, "fusion_lon": 0.0}, {"lat": 38.896990333333335, "is_disabled": 0, "type": "electric_scooter", "lon": -77.05026916666667, "bike_id": "fa7d930a14c1e09e068ced4db9c31ac9", "fusion_lat": 0.0, "name": "fa7d930a14c1e09e068ced4db9c31ac9", "is_reserved": 0, "rental_uris": {"android": "https://dc.lft.to/lastmile_qr_scan", "ios": "https://dc.lft.to/lastmile_qr_scan"}, "fusion_lon": 0.0}, {"lat": 38.88280183333333, "is_disabled": 0, "type": "electric_bike", "lon": -76.98777766666667, "bike_id": "0da84a0c25e993f031f5ee47ce158f93", "fusion_lat": 0.0, "name": "0da84a0c25e993f031f5ee47ce158f93", "is_reserved": 0, "rental_uris": {"android": "https://dc.lft.to/lastmile_qr_scan", "ios": "https://dc.lft.to/lastmile_qr_scan"}, "fusion_lon": 0.0}, {"lat": 38.898806666666665, "is_disabled": 0, "type": "electric_scooter", "lon": -77.053374, "bike_id": "23d1f7ae7ff5bdf5b4e51cc3662f090c", "fusion_lat": 0.0, "name": "23d1f7ae7ff5bdf5b4e51cc3662f090c", "is_reserved": 0, "rental_uris": {"android": "https://dc.lft.to/lastmile_qr_scan", "ios": "https://dc.lft.to/lastmile_qr_scan"}, "fusion_lon": 0.0}, {"lat": 38.899177333333334, "is_disabled": 0, "type": "electric_scooter", "lon": -76.93378583333333, "bike_id": "9c95c852a5d2a705be9c9677a47293f8", "fusion_lat": 0.0, "name": "9c95c852a5d2a705be9c9677a47293f8", "is_reserved": 0, "rental_uris": {"android": "https://dc.lft.to/lastmile_qr_scan", "ios": "https://dc.lft.to/lastmile_qr_scan"}, "fusion_lon": 0.0}, {"lat": 38.95553, "is_disabled": 0, "type": "electric_bike", "lon": -76.93551116666667, "bike_id": "a6d676e529e5d7e0618ffeb4cbca248e", "fusion_lat": 0.0, "name": "a6d676e529e5d7e0618ffeb4cbca248e", "is_reserved": 0, "rental_uris": {"android": "https://dc.lft.to/lastmile_qr_scan", "ios": "https://dc.lft.to/lastmile_qr_scan"}, "fusion_lon": 0.0}, {"lat": 38.92678883333333, "is_disabled": 0, "type": "electric_scooter", "lon": -77.0511325, "bike_id": "e298309a760e1c22af8ef718f661436b", "fusion_lat": 0.0, "name": "e298309a760e1c22af8ef718f661436b", "is_reserved": 0, "rental_uris": {"android": "https://dc.lft.to/lastmile_qr_scan", "ios": "https://dc.lft.to/lastmile_qr_scan"}, "fusion_lon": 0.0}, {"lat": 38.9155115, "is_disabled": 0, "type": "electric_scooter", "lon": -77.02427566666667, "bike_id": "1e69bdaabf50af99532f0c356b5aee72", "fusion_lat": 0.0, "name": "1e69bdaabf50af99532f0c356b5aee72", "is_reserved": 0, "rental_uris": {"android": "https://dc.lft.to/lastmile_qr_scan", "ios": "https://dc.lft.to/lastmile_qr_scan"}, "fusion_lon": 0.0}, {"lat": 38.86346833333333, "is_disabled": 0, "type": "electric_scooter", "lon": -76.9900035, "bike_id": "3719f4ff7347578d516cac4e9bf04a53", "fusion_lat": 0.0, "name": "3719f4ff7347578d516cac4e9bf04a53", "is_reserved": 0, "rental_uris": {"android": "https://dc.lft.to/lastmile_qr_scan", "ios": "https://dc.lft.to/lastmile_qr_scan"}, "fusion_lon": 0.0}, {"lat": 38.91256166666667, "is_disabled": 0, "type": "electric_scooter", "lon": -77.071081, "bike_id": "129b1e45a21a38edff601e42c46df642", "fusion_lat": 0.0, "name": "129b1e45a21a38edff601e42c46df642", "is_reserved": 0, "rental_uris": {"android": "https://dc.lft.to/lastmile_qr_scan", "ios": "https://dc.lft.to/lastmile_qr_scan"}, "fusion_lon": 0.0}, {"lat": 38.89489716666667, "is_disabled": 0, "type": "electric_scooter", "lon": -77.00208533333333, "bike_id": "e4c591ab79f228a6c3f22fddb6387170", "fusion_lat": 0.0, "name": "e4c591ab79f228a6c3f22fddb6387170", "is_reserved": 0, "rental_uris": {"android": "https://dc.lft.to/lastmile_qr_scan", "ios": "https://dc.lft.to/lastmile_qr_scan"}, "fusion_lon": 0.0}, {"lat": 38.89743583333333, "is_disabled": 0, "type": "electric_scooter", "lon": -77.023819, "bike_id": "8a6868a300363c32c9dd1f82acea1601", "fusion_lat": 0.0, "name": "8a6868a300363c32c9dd1f82acea1601", "is_reserved": 0, "rental_uris": {"android": "https://dc.lft.to/lastmile_qr_scan", "ios": "https://dc.lft.to/lastmile_qr_scan"}, "fusion_lon": 0.0}, {"lat": 38.920293, "is_disabled": 0, "type": "electric_scooter", "lon": -77.01328716666667, "bike_id": "53a2558c668d4439a8f86d73df0b24cf", "fusion_lat": 0.0, "name": "53a2558c668d4439a8f86d73df0b24cf", "is_reserved": 0, "rental_uris": {"android": "https://dc.lft.to/lastmile_qr_scan", "ios": "https://dc.lft.to/lastmile_qr_scan"}, "fusion_lon": 0.0}, {"lat": 38.926237, "is_disabled": 0, "type": "electric_scooter", "lon": -77.0418915, "bike_id": "1fac685c741d08863b0a733ff7ad0d86", "fusion_lat": 0.0, "name": "1fac685c741d08863b0a733ff7ad0d86", "is_reserved": 0, "rental_uris": {"android": "https://dc.lft.to/lastmile_qr_scan", "ios": "https://dc.lft.to/lastmile_qr_scan"}, "fusion_lon": 0.0}, {"lat": 38.90842466666667, "is_disabled": 0, "type": "electric_scooter", "lon": -77.03468433333333, "bike_id": "752a33fc3d83e16139aa7caddbb46c8f", "fusion_lat": 0.0, "name": "752a33fc3d83e16139aa7caddbb46c8f", "is_reserved": 0, "rental_uris": {"android": "https://dc.lft.to/lastmile_qr_scan", "ios": "https://dc.lft.to/lastmile_qr_scan"}, "fusion_lon": 0.0}, {"lat": 38.91188833333333, "is_disabled": 0, "type": "electric_scooter", "lon": -77.02343166666667, "bike_id": "cd971ccedf04eb8efdfaff845672c14b", "fusion_lat": 0.0, "name": "cd971ccedf04eb8efdfaff845672c14b", "is_reserved": 0, "rental_uris": {"android": "https://dc.lft.to/lastmile_qr_scan", "ios": "https://dc.lft.to/lastmile_qr_scan"}, "fusion_lon": 0.0}, {"lat": 38.907061666666664, "is_disabled": 0, "type": "electric_scooter", "lon": -77.02949066666666, "bike_id": "252f7c35fe4f4ca1f4d1971c4d78afb7", "fusion_lat": 0.0, "name": "252f7c35fe4f4ca1f4d1971c4d78afb7", "is_reserved": 0, "rental_uris": {"android": "https://dc.lft.to/lastmile_qr_scan", "ios": "https://dc.lft.to/lastmile_qr_scan"}, "fusion_lon": 0.0}, {"lat": 38.90957866666667, "is_disabled": 0, "type": "electric_scooter", "lon": -77.02375666666667, "bike_id": "f83dbb74aad6a3e0e70236abdf84aa2f", "fusion_lat": 0.0, "name": "f83dbb74aad6a3e0e70236abdf84aa2f", "is_reserved": 0, "rental_uris": {"android": "https://dc.lft.to/lastmile_qr_scan", "ios": "https://dc.lft.to/lastmile_qr_scan"}, "fusion_lon": 0.0}, {"lat": 38.901682666666666, "is_disabled": 0, "type": "electric_scooter", "lon": -77.02497166666667, "bike_id": "6bf093395eb29a2bfbaa0cc19282d931", "fusion_lat": 0.0, "name": "6bf093395eb29a2bfbaa0cc19282d931", "is_reserved": 0, "rental_uris": {"android": "https://dc.lft.to/lastmile_qr_scan", "ios": "https://dc.lft.to/lastmile_qr_scan"}, "fusion_lon": 0.0}, {"lat": 38.907357, "is_disabled": 0, "type": "electric_scooter", "lon": -77.0093025, "bike_id": "35c5339f5a9df66d6ef7d8c54a166e0e", "fusion_lat": 0.0, "name": "35c5339f5a9df66d6ef7d8c54a166e0e", "is_reserved": 0, "rental_uris": {"android": "https://dc.lft.to/lastmile_qr_scan", "ios": "https://dc.lft.to/lastmile_qr_scan"}, "fusion_lon": 0.0}, {"lat": 38.924373833333334, "is_disabled": 0, "type": "electric_scooter", "lon": -77.03358966666667, "bike_id": "54e6588440c4a733e42a6047e79bf073", "fusion_lat": 0.0, "name": "54e6588440c4a733e42a6047e79bf073", "is_reserved": 0, "rental_uris": {"android": "https://dc.lft.to/lastmile_qr_scan", "ios": "https://dc.lft.to/lastmile_qr_scan"}, "fusion_lon": 0.0}, {"lat": 38.9242845, "is_disabled": 0, "type": "electric_scooter", "lon": -77.03422866666666, "bike_id": "a87101e96f131f40e27e111eef6d7b0a", "fusion_lat": 0.0, "name": "a87101e96f131f40e27e111eef6d7b0a", "is_reserved": 0, "rental_uris": {"android": "https://dc.lft.to/lastmile_qr_scan", "ios": "https://dc.lft.to/lastmile_qr_scan"}, "fusion_lon": 0.0}, {"lat": 38.91463866666667, "is_disabled": 0, "type": "electric_scooter", "lon": -77.06692016666666, "bike_id": "b0f86f4ead012af13f1f273130dd5ff0", "fusion_lat": 0.0, "name": "b0f86f4ead012af13f1f273130dd5ff0", "is_reserved": 0, "rental_uris": {"android": "https://dc.lft.to/lastmile_qr_scan", "ios": "https://dc.lft.to/lastmile_qr_scan"}, "fusion_lon": 0.0}, {"lat": 38.90994083333333, "is_disabled": 0, "type": "electric_scooter", "lon": -76.99739316666667, "bike_id": "e7087110154d30b4dab32f2d33415b66", "fusion_lat": 0.0, "name": "e7087110154d30b4dab32f2d33415b66", "is_reserved": 0, "rental_uris": {"android": "https://dc.lft.to/lastmile_qr_scan", "ios": "https://dc.lft.to/lastmile_qr_scan"}, "fusion_lon": 0.0}, {"lat": 38.92407983333333, "is_disabled": 0, "type": "electric_scooter", "lon": -77.0342325, "bike_id": "de6c7dbcf36b44335cc2392a28286121", "fusion_lat": 0.0, "name": "de6c7dbcf36b44335cc2392a28286121", "is_reserved": 0, "rental_uris": {"android": "https://dc.lft.to/lastmile_qr_scan", "ios": "https://dc.lft.to/lastmile_qr_scan"}, "fusion_lon": 0.0}, {"lat": 38.926572, "is_disabled": 0, "type": "electric_scooter", "lon": -77.02415633333334, "bike_id": "1a996e82956599aa820d442f989fdf17", "fusion_lat": 0.0, "name": "1a996e82956599aa820d442f989fdf17", "is_reserved": 0, "rental_uris": {"android": "https://dc.lft.to/lastmile_qr_scan", "ios": "https://dc.lft.to/lastmile_qr_scan"}, "fusion_lon": 0.0}, {"lat": 38.930259666666664, "is_disabled": 0, "type": "electric_scooter", "lon": -77.020448, "bike_id": "6f09897e9ed2c350d9eee00ee51ddad4", "fusion_lat": 0.0, "name": "6f09897e9ed2c350d9eee00ee51ddad4", "is_reserved": 0, "rental_uris": {"android": "https://dc.lft.to/lastmile_qr_scan", "ios": "https://dc.lft.to/lastmile_qr_scan"}, "fusion_lon": 0.0}, {"lat": 38.92970016666666, "is_disabled": 0, "type": "electric_scooter", "lon": -77.03212266666667, "bike_id": "f675009a0dbc40143169979f31bfdcae", "fusion_lat": 0.0, "name": "f675009a0dbc40143169979f31bfdcae", "is_reserved": 0, "rental_uris": {"android": "https://dc.lft.to/lastmile_qr_scan", "ios": "https://dc.lft.to/lastmile_qr_scan"}, "fusion_lon": 0.0}, {"lat": 38.86660233333333, "is_disabled": 0, "type": "electric_scooter", "lon": -76.98903, "bike_id": "ef052b182c058ef6b17800fa43a1de6b", "fusion_lat": 0.0, "name": "ef052b182c058ef6b17800fa43a1de6b", "is_reserved": 0, "rental_uris": {"android": "https://dc.lft.to/lastmile_qr_scan", "ios": "https://dc.lft.to/lastmile_qr_scan"}, "fusion_lon": 0.0}, {"lat": 38.96605783333333, "is_disabled": 0, "type": "electric_bike", "lon": -76.983331, "bike_id": "27f209b73e74f813cc5ec3bddcbb0624", "fusion_lat": 0.0, "name": "27f209b73e74f813cc5ec3bddcbb0624", "is_reserved": 0, "rental_uris": {"android": "https://dc.lft.to/lastmile_qr_scan", "ios": "https://dc.lft.to/lastmile_qr_scan"}, "fusion_lon": 0.0}, {"lat": 38.9310005, "is_disabled": 0, "type": "electric_scooter", "lon": -77.02563833333333, "bike_id": "58af711a691dc7bfaf28e14ff2f96284", "fusion_lat": 0.0, "name": "58af711a691dc7bfaf28e14ff2f96284", "is_reserved": 0, "rental_uris": {"android": "https://dc.lft.to/lastmile_qr_scan", "ios": "https://dc.lft.to/lastmile_qr_scan"}, "fusion_lon": 0.0}, {"lat": 38.9335925, "is_disabled": 0, "type": "electric_scooter", "lon": -77.07371833333333, "bike_id": "f4d59dedcfe18701ffc79dce3fa57870", "fusion_lat": 0.0, "name": "f4d59dedcfe18701ffc79dce3fa57870", "is_reserved": 0, "rental_uris": {"android": "https://dc.lft.to/lastmile_qr_scan", "ios": "https://dc.lft.to/lastmile_qr_scan"}, "fusion_lon": 0.0}, {"lat": 38.8924105, "is_disabled": 0, "type": "electric_scooter", "lon": -77.0488845, "bike_id": "eb59554010a0b88d0681afb9032fac0a", "fusion_lat": 0.0, "name": "eb59554010a0b88d0681afb9032fac0a", "is_reserved": 0, "rental_uris": {"android": "https://dc.lft.to/lastmile_qr_scan", "ios": "https://dc.lft.to/lastmile_qr_scan"}, "fusion_lon": 0.0}, {"lat": 38.89840516666667, "is_disabled": 0, "type": "electric_scooter", "lon": -76.9310335, "bike_id": "e9414cc2cc91dd7739ace0157bb13323", "fusion_lat": 0.0, "name": "e9414cc2cc91dd7739ace0157bb13323", "is_reserved": 0, "rental_uris": {"android": "https://dc.lft.to/lastmile_qr_scan", "ios": "https://dc.lft.to/lastmile_qr_scan"}, "fusion_lon": 0.0}, {"lat": 38.908642666666665, "is_disabled": 0, "type": "electric_bike", "lon": -76.931591, "bike_id": "471f9ca04e6d666be8d4b020026bfc27", "fusion_lat": 0.0, "name": "471f9ca04e6d666be8d4b020026bfc27", "is_reserved": 0, "rental_uris": {"android": "https://dc.lft.to/lastmile_qr_scan", "ios": "https://dc.lft.to/lastmile_qr_scan"}, "fusion_lon": 0.0}, {"lat": 38.90311283333333, "is_disabled": 0, "type": "electric_scooter", "lon": -76.98996966666667, "bike_id": "cde0f23d725bfbf884e5667ebbc7ec64", "fusion_lat": 0.0, "name": "cde0f23d725bfbf884e5667ebbc7ec64", "is_reserved": 0, "rental_uris": {"android": "https://dc.lft.to/lastmile_qr_scan", "ios": "https://dc.lft.to/lastmile_qr_scan"}, "fusion_lon": 0.0}, {"lat": 38.87455333333333, "is_disabled": 0, "type": "electric_scooter", "lon": -77.00925066666667, "bike_id": "40465950563e779b33104f3c6a7fc321", "fusion_lat": 0.0, "name": "40465950563e779b33104f3c6a7fc321", "is_reserved": 0, "rental_uris": {"android": "https://dc.lft.to/lastmile_qr_scan", "ios": "https://dc.lft.to/lastmile_qr_scan"}, "fusion_lon": 0.0}, {"lat": 38.96928466666667, "is_disabled": 0, "type": "electric_bike", "lon": -77.026214, "bike_id": "25e7a5a08c389dc9822adb7fed9c5ff6", "fusion_lat": 0.0, "name": "25e7a5a08c389dc9822adb7fed9c5ff6", "is_reserved": 0, "rental_uris": {"android": "https://dc.lft.to/lastmile_qr_scan", "ios": "https://dc.lft.to/lastmile_qr_scan"}, "fusion_lon": 0.0}, {"lat": 38.904520166666664, "is_disabled": 0, "type": "electric_scooter", "lon": -76.994592, "bike_id": "e8d3f188cc25ff3c781fd418c51cfc6f", "fusion_lat": 0.0, "name": "e8d3f188cc25ff3c781fd418c51cfc6f", "is_reserved": 0, "rental_uris": {"android": "https://dc.lft.to/lastmile_qr_scan", "ios": "https://dc.lft.to/lastmile_qr_scan"}, "fusion_lon": 0.0}, {"lat": 38.920818833333335, "is_disabled": 0, "type": "electric_bike", "lon": -76.99187616666667, "bike_id": "df0f5d85732c05b614cae8feef3e88d8", "fusion_lat": 0.0, "name": "df0f5d85732c05b614cae8feef3e88d8", "is_reserved": 0, "rental_uris": {"android": "https://dc.lft.to/lastmile_qr_scan", "ios": "https://dc.lft.to/lastmile_qr_scan"}, "fusion_lon": 0.0}, {"lat": 38.8737685, "is_disabled": 0, "type": "electric_bike", "lon": -77.11796, "bike_id": "6699764c9d8bfe9848fd32ce38417806", "fusion_lat": 0.0, "name": "6699764c9d8bfe9848fd32ce38417806", "is_reserved": 0, "rental_uris": {"android": "https://dc.lft.to/lastmile_qr_scan", "ios": "https://dc.lft.to/lastmile_qr_scan"}, "fusion_lon": 0.0}, {"lat": 38.89647083333333, "is_disabled": 0, "type": "electric_scooter", "lon": -77.046782, "bike_id": "97148e6b947f7bd8cfdd6d50a4c50f4c", "fusion_lat": 0.0, "name": "97148e6b947f7bd8cfdd6d50a4c50f4c", "is_reserved": 0, "rental_uris": {"android": "https://dc.lft.to/lastmile_qr_scan", "ios": "https://dc.lft.to/lastmile_qr_scan"}, "fusion_lon": 0.0}, {"lat": 38.832155666666665, "is_disabled": 0, "type": "electric_bike", "lon": -76.94620666666667, "bike_id": "b908997aa0768dacf3cbe53a192aa0d0", "fusion_lat": 0.0, "name": "b908997aa0768dacf3cbe53a192aa0d0", "is_reserved": 0, "rental_uris": {"android": "https://dc.lft.to/lastmile_qr_scan", "ios": "https://dc.lft.to/lastmile_qr_scan"}, "fusion_lon": 0.0}, {"lat": 38.99299233333333, "is_disabled": 0, "type": "electric_bike", "lon": -77.0327075, "bike_id": "90a6c4e5641630abde2181a73258c751", "fusion_lat": 0.0, "name": "90a6c4e5641630abde2181a73258c751", "is_reserved": 0, "rental_uris": {"android": "https://dc.lft.to/lastmile_qr_scan", "ios": "https://dc.lft.to/lastmile_qr_scan"}, "fusion_lon": 0.0}, {"lat": 38.899825166666666, "is_disabled": 0, "type": "electric_scooter", "lon": -77.05247216666666, "bike_id": "46847760d1832eb34fe7637d481d72af", "fusion_lat": 0.0, "name": "46847760d1832eb34fe7637d481d72af", "is_reserved": 0, "rental_uris": {"android": "https://dc.lft.to/lastmile_qr_scan", "ios": "https://dc.lft.to/lastmile_qr_scan"}, "fusion_lon": 0.0}, {"lat": 38.90979633333333, "is_disabled": 0, "type": "electric_scooter", "lon": -77.0270985, "bike_id": "6517b6b7b9544f88a7a5d0f50f559f79", "fusion_lat": 0.0, "name": "6517b6b7b9544f88a7a5d0f50f559f79", "is_reserved": 0, "rental_uris": {"android": "https://dc.lft.to/lastmile_qr_scan", "ios": "https://dc.lft.to/lastmile_qr_scan"}, "fusion_lon": 0.0}, {"lat": 38.873374166666665, "is_disabled": 0, "type": "electric_bike", "lon": -77.01856766666667, "bike_id": "b419782398184c7dae4c3e80c6d4c0c5", "fusion_lat": 0.0, "name": "b419782398184c7dae4c3e80c6d4c0c5", "is_reserved": 0, "rental_uris": {"android": "https://dc.lft.to/lastmile_qr_scan", "ios": "https://dc.lft.to/lastmile_qr_scan"}, "fusion_lon": 0.0}, {"lat": 38.904163833333335, "is_disabled": 0, "type": "electric_scooter", "lon": -76.99279716666666, "bike_id": "18c2fd3784682aa05ad0284361f626c6", "fusion_lat": 0.0, "name": "18c2fd3784682aa05ad0284361f626c6", "is_reserved": 0, "rental_uris": {"android": "https://dc.lft.to/lastmile_qr_scan", "ios": "https://dc.lft.to/lastmile_qr_scan"}, "fusion_lon": 0.0}, {"lat": 38.9001465, "is_disabled": 0, "type": "electric_scooter", "lon": -77.02600883333334, "bike_id": "17e497841d6caa3c44d5978f0fd38cef", "fusion_lat": 0.0, "name": "17e497841d6caa3c44d5978f0fd38cef", "is_reserved": 0, "rental_uris": {"android": "https://dc.lft.to/lastmile_qr_scan", "ios": "https://dc.lft.to/lastmile_qr_scan"}, "fusion_lon": 0.0}, {"lat": 38.88766866666667, "is_disabled": 0, "type": "electric_scooter", "lon": -77.043527, "bike_id": "d0fc0d4a2e3d002d836a3eaaf5034656", "fusion_lat": 0.0, "name": "d0fc0d4a2e3d002d836a3eaaf5034656", "is_reserved": 0, "rental_uris": {"android": "https://dc.lft.to/lastmile_qr_scan", "ios": "https://dc.lft.to/lastmile_qr_scan"}, "fusion_lon": 0.0}, {"lat": 38.89995483333333, "is_disabled": 0, "type": "electric_scooter", "lon": -77.02114283333333, "bike_id": "cd6d7d2f5a4b111096d24b81f975f178", "fusion_lat": 0.0, "name": "cd6d7d2f5a4b111096d24b81f975f178", "is_reserved": 0, "rental_uris": {"android": "https://dc.lft.to/lastmile_qr_scan", "ios": "https://dc.lft.to/lastmile_qr_scan"}, "fusion_lon": 0.0}, {"lat": 38.90014766666667, "is_disabled": 0, "type": "electric_scooter", "lon": -77.01201966666666, "bike_id": "f038aa4d2c7ea45dcc500df9ee2cdfe6", "fusion_lat": 0.0, "name": "f038aa4d2c7ea45dcc500df9ee2cdfe6", "is_reserved": 0, "rental_uris": {"android": "https://dc.lft.to/lastmile_qr_scan", "ios": "https://dc.lft.to/lastmile_qr_scan"}, "fusion_lon": 0.0}, {"lat": 38.884682166666664, "is_disabled": 0, "type": "electric_scooter", "lon": -77.02414533333334, "bike_id": "9c3cc466c23193aefc6f25d98c6289e2", "fusion_lat": 0.0, "name": "9c3cc466c23193aefc6f25d98c6289e2", "is_reserved": 0, "rental_uris": {"android": "https://dc.lft.to/lastmile_qr_scan", "ios": "https://dc.lft.to/lastmile_qr_scan"}, "fusion_lon": 0.0}, {"lat": 38.90084566666667, "is_disabled": 0, "type": "electric_scooter", "lon": -77.05055, "bike_id": "e1a3ca94b73a8abc455d2425c8229aca", "fusion_lat": 0.0, "name": "e1a3ca94b73a8abc455d2425c8229aca", "is_reserved": 0, "rental_uris": {"android": "https://dc.lft.to/lastmile_qr_scan", "ios": "https://dc.lft.to/lastmile_qr_scan"}, "fusion_lon": 0.0}, {"lat": 38.9491545, "is_disabled": 0, "type": "electric_bike", "lon": -77.00795366666667, "bike_id": "ab1c77bc41be1bf1d3685339648f3fc6", "fusion_lat": 0.0, "name": "ab1c77bc41be1bf1d3685339648f3fc6", "is_reserved": 0, "rental_uris": {"android": "https://dc.lft.to/lastmile_qr_scan", "ios": "https://dc.lft.to/lastmile_qr_scan"}, "fusion_lon": 0.0}, {"lat": 38.881137, "is_disabled": 0, "type": "electric_scooter", "lon": -77.01655783333334, "bike_id": "18031b4cf0870bc422a5ff9025774b3a", "fusion_lat": 0.0, "name": "18031b4cf0870bc422a5ff9025774b3a", "is_reserved": 0, "rental_uris": {"android": "https://dc.lft.to/lastmile_qr_scan", "ios": "https://dc.lft.to/lastmile_qr_scan"}, "fusion_lon": 0.0}, {"lat": 38.86509216666666, "is_disabled": 0, "type": "electric_scooter", "lon": -76.990069, "bike_id": "804df28fba72415df5e5488aef357b4a", "fusion_lat": 0.0, "name": "804df28fba72415df5e5488aef357b4a", "is_reserved": 0, "rental_uris": {"android": "https://dc.lft.to/lastmile_qr_scan", "ios": "https://dc.lft.to/lastmile_qr_scan"}, "fusion_lon": 0.0}, {"lat": 38.86710933333333, "is_disabled": 0, "type": "electric_scooter", "lon": -76.987259, "bike_id": "2c1fb36744898efe39f53701f68dfab2", "fusion_lat": 0.0, "name": "2c1fb36744898efe39f53701f68dfab2", "is_reserved": 0, "rental_uris": {"android": "https://dc.lft.to/lastmile_qr_scan", "ios": "https://dc.lft.to/lastmile_qr_scan"}, "fusion_lon": 0.0}, {"lat": 38.925018333333334, "is_disabled": 0, "type": "electric_scooter", "lon": -76.98232183333333, "bike_id": "b356fbf41debf82d8665fb2a55c3b4ec", "fusion_lat": 0.0, "name": "b356fbf41debf82d8665fb2a55c3b4ec", "is_reserved": 0, "rental_uris": {"android": "https://dc.lft.to/lastmile_qr_scan", "ios": "https://dc.lft.to/lastmile_qr_scan"}, "fusion_lon": 0.0}, {"lat": 38.9052745, "is_disabled": 0, "type": "electric_scooter", "lon": -77.04893933333334, "bike_id": "613fb4dd09457a39966767cf10951da0", "fusion_lat": 0.0, "name": "613fb4dd09457a39966767cf10951da0", "is_reserved": 0, "rental_uris": {"android": "https://dc.lft.to/lastmile_qr_scan", "ios": "https://dc.lft.to/lastmile_qr_scan"}, "fusion_lon": 0.0}, {"lat": 38.87140866666667, "is_disabled": 0, "type": "electric_bike", "lon": -76.93708066666667, "bike_id": "6fc1518980c1eb7b812fec648cfce249", "fusion_lat": 0.0, "name": "6fc1518980c1eb7b812fec648cfce249", "is_reserved": 0, "rental_uris": {"android": "https://dc.lft.to/lastmile_qr_scan", "ios": "https://dc.lft.to/lastmile_qr_scan"}, "fusion_lon": 0.0}, {"lat": 38.93664316666667, "is_disabled": 0, "type": "electric_scooter", "lon": -77.05934066666667, "bike_id": "244b2921d46040b0d56933f3ca98f484", "fusion_lat": 0.0, "name": "244b2921d46040b0d56933f3ca98f484", "is_reserved": 0, "rental_uris": {"android": "https://dc.lft.to/lastmile_qr_scan", "ios": "https://dc.lft.to/lastmile_qr_scan"}, "fusion_lon": 0.0}, {"lat": 38.84567083333334, "is_disabled": 0, "type": "electric_bike", "lon": -77.096229, "bike_id": "f9a407ded6e4914c38f82fa671d78157", "fusion_lat": 0.0, "name": "f9a407ded6e4914c38f82fa671d78157", "is_reserved": 0, "rental_uris": {"android": "https://dc.lft.to/lastmile_qr_scan", "ios": "https://dc.lft.to/lastmile_qr_scan"}, "fusion_lon": 0.0}, {"lat": 38.867089166666666, "is_disabled": 0, "type": "electric_scooter", "lon": -76.9872175, "bike_id": "53cc38060f9510e7bac4fe8eb50ba544", "fusion_lat": 0.0, "name": "53cc38060f9510e7bac4fe8eb50ba544", "is_reserved": 0, "rental_uris": {"android": "https://dc.lft.to/lastmile_qr_scan", "ios": "https://dc.lft.to/lastmile_qr_scan"}, "fusion_lon": 0.0}, {"lat": 38.927071, "is_disabled": 0, "type": "electric_scooter", "lon": -77.02087033333333, "bike_id": "52d4d102d9cdbc515ca8d6dbe20b0f13", "fusion_lat": 0.0, "name": "52d4d102d9cdbc515ca8d6dbe20b0f13", "is_reserved": 0, "rental_uris": {"android": "https://dc.lft.to/lastmile_qr_scan", "ios": "https://dc.lft.to/lastmile_qr_scan"}, "fusion_lon": 0.0}, {"lat": 38.90079033333333, "is_disabled": 0, "type": "electric_scooter", "lon": -77.05059016666667, "bike_id": "cf264d4a7ecc6da202af82520b527425", "fusion_lat": 0.0, "name": "cf264d4a7ecc6da202af82520b527425", "is_reserved": 0, "rental_uris": {"android": "https://dc.lft.to/lastmile_qr_scan", "ios": "https://dc.lft.to/lastmile_qr_scan"}, "fusion_lon": 0.0}, {"lat": 38.903598333333335, "is_disabled": 0, "type": "electric_scooter", "lon": -77.0163925, "bike_id": "eb1405ace73bd7ce823a2efdcc309d16", "fusion_lat": 0.0, "name": "eb1405ace73bd7ce823a2efdcc309d16", "is_reserved": 0, "rental_uris": {"android": "https://dc.lft.to/lastmile_qr_scan", "ios": "https://dc.lft.to/lastmile_qr_scan"}, "fusion_lon": 0.0}, {"lat": 38.836917, "is_disabled": 0, "type": "electric_scooter", "lon": -77.10309816666667, "bike_id": "586b0fab45bc098076aed2c5d0b4f9e1", "fusion_lat": 0.0, "name": "586b0fab45bc098076aed2c5d0b4f9e1", "is_reserved": 0, "rental_uris": {"android": "https://dc.lft.to/lastmile_qr_scan", "ios": "https://dc.lft.to/lastmile_qr_scan"}, "fusion_lon": 0.0}, {"lat": 38.88112133333333, "is_disabled": 0, "type": "electric_scooter", "lon": -76.9833405, "bike_id": "02bcb1675773d77ee4925734897557c2", "fusion_lat": 0.0, "name": "02bcb1675773d77ee4925734897557c2", "is_reserved": 0, "rental_uris": {"android": "https://dc.lft.to/lastmile_qr_scan", "ios": "https://dc.lft.to/lastmile_qr_scan"}, "fusion_lon": 0.0}, {"lat": 38.91630516666667, "is_disabled": 0, "type": "electric_scooter", "lon": -77.03284183333334, "bike_id": "6890302ffb916f14c3e7b65a61a6c618", "fusion_lat": 0.0, "name": "6890302ffb916f14c3e7b65a61a6c618", "is_reserved": 0, "rental_uris": {"android": "https://dc.lft.to/lastmile_qr_scan", "ios": "https://dc.lft.to/lastmile_qr_scan"}, "fusion_lon": 0.0}, {"lat": 39.01590566666667, "is_disabled": 0, "type": "electric_bike", "lon": -77.04427966666667, "bike_id": "66da03fb26e44186aa58a4855f02dfe4", "fusion_lat": 0.0, "name": "66da03fb26e44186aa58a4855f02dfe4", "is_reserved": 0, "rental_uris": {"android": "https://dc.lft.to/lastmile_qr_scan", "ios": "https://dc.lft.to/lastmile_qr_scan"}, "fusion_lon": 0.0}, {"lat": 38.96097416666667, "is_disabled": 0, "type": "electric_scooter", "lon": -77.08283466666667, "bike_id": "06117b1379e2d1df2ce7c0387ae087bc", "fusion_lat": 0.0, "name": "06117b1379e2d1df2ce7c0387ae087bc", "is_reserved": 0, "rental_uris": {"android": "https://dc.lft.to/lastmile_qr_scan", "ios": "https://dc.lft.to/lastmile_qr_scan"}, "fusion_lon": 0.0}, {"lat": 38.891226333333336, "is_disabled": 0, "type": "electric_scooter", "lon": -76.94092133333334, "bike_id": "0c41fbbdba5f01149ae5bc8d134a3eb0", "fusion_lat": 0.0, "name": "0c41fbbdba5f01149ae5bc8d134a3eb0", "is_reserved": 0, "rental_uris": {"android": "https://dc.lft.to/lastmile_qr_scan", "ios": "https://dc.lft.to/lastmile_qr_scan"}, "fusion_lon": 0.0}, {"lat": 38.93652866666667, "is_disabled": 0, "type": "electric_bike", "lon": -77.0559295, "bike_id": "cf191e44f87fff5369ff87a86744f805", "fusion_lat": 0.0, "name": "cf191e44f87fff5369ff87a86744f805", "is_reserved": 0, "rental_uris": {"android": "https://dc.lft.to/lastmile_qr_scan", "ios": "https://dc.lft.to/lastmile_qr_scan"}, "fusion_lon": 0.0}, {"lat": 38.91971983333333, "is_disabled": 0, "type": "electric_scooter", "lon": -77.04307783333333, "bike_id": "19e93d8b7baaf97632c0eb2bd8bd1f85", "fusion_lat": 0.0, "name": "19e93d8b7baaf97632c0eb2bd8bd1f85", "is_reserved": 0, "rental_uris": {"android": "https://dc.lft.to/lastmile_qr_scan", "ios": "https://dc.lft.to/lastmile_qr_scan"}, "fusion_lon": 0.0}, {"lat": 38.9026115, "is_disabled": 0, "type": "electric_scooter", "lon": -77.01918416666666, "bike_id": "eee0c443b9f3ecaa7e44c0af4a16fa34", "fusion_lat": 0.0, "name": "eee0c443b9f3ecaa7e44c0af4a16fa34", "is_reserved": 0, "rental_uris": {"android": "https://dc.lft.to/lastmile_qr_scan", "ios": "https://dc.lft.to/lastmile_qr_scan"}, "fusion_lon": 0.0}, {"lat": 38.924482833333336, "is_disabled": 0, "type": "electric_scooter", "lon": -77.0419735, "bike_id": "f27de86df3c1d5a1b0667d374a96ad67", "fusion_lat": 0.0, "name": "f27de86df3c1d5a1b0667d374a96ad67", "is_reserved": 0, "rental_uris": {"android": "https://dc.lft.to/lastmile_qr_scan", "ios": "https://dc.lft.to/lastmile_qr_scan"}, "fusion_lon": 0.0}, {"lat": 38.90135683333333, "is_disabled": 0, "type": "electric_scooter", "lon": -77.00068533333334, "bike_id": "4b7e3bd73ce3bccfe85279bce20a0fec", "fusion_lat": 0.0, "name": "4b7e3bd73ce3bccfe85279bce20a0fec", "is_reserved": 0, "rental_uris": {"android": "https://dc.lft.to/lastmile_qr_scan", "ios": "https://dc.lft.to/lastmile_qr_scan"}, "fusion_lon": 0.0}, {"lat": 38.905219833333334, "is_disabled": 0, "type": "electric_scooter", "lon": -77.0272275, "bike_id": "1d60af88118cb10a93719cbbe61944d9", "fusion_lat": 0.0, "name": "1d60af88118cb10a93719cbbe61944d9", "is_reserved": 0, "rental_uris": {"android": "https://dc.lft.to/lastmile_qr_scan", "ios": "https://dc.lft.to/lastmile_qr_scan"}, "fusion_lon": 0.0}, {"lat": 38.922016, "is_disabled": 0, "type": "electric_scooter", "lon": -77.03283583333334, "bike_id": "bb2cc4a94679130dd66540b00b5dc44d", "fusion_lat": 0.0, "name": "bb2cc4a94679130dd66540b00b5dc44d", "is_reserved": 0, "rental_uris": {"android": "https://dc.lft.to/lastmile_qr_scan", "ios": "https://dc.lft.to/lastmile_qr_scan"}, "fusion_lon": 0.0}, {"lat": 38.90005933333333, "is_disabled": 0, "type": "electric_scooter", "lon": -76.9985455, "bike_id": "e98e32382a96a9ed6a6159e6dd908b2c", "fusion_lat": 0.0, "name": "e98e32382a96a9ed6a6159e6dd908b2c", "is_reserved": 0, "rental_uris": {"android": "https://dc.lft.to/lastmile_qr_scan", "ios": "https://dc.lft.to/lastmile_qr_scan"}, "fusion_lon": 0.0}, {"lat": 38.92239333333333, "is_disabled": 0, "type": "electric_scooter", "lon": -77.02987766666666, "bike_id": "010cab5f92425eab16ab1f4958847cb4", "fusion_lat": 0.0, "name": "010cab5f92425eab16ab1f4958847cb4", "is_reserved": 0, "rental_uris": {"android": "https://dc.lft.to/lastmile_qr_scan", "ios": "https://dc.lft.to/lastmile_qr_scan"}, "fusion_lon": 0.0}, {"lat": 38.931883, "is_disabled": 0, "type": "electric_scooter", "lon": -77.0386595, "bike_id": "cd0a17a92aeb236132de8580e9fa6522", "fusion_lat": 0.0, "name": "cd0a17a92aeb236132de8580e9fa6522", "is_reserved": 0, "rental_uris": {"android": "https://dc.lft.to/lastmile_qr_scan", "ios": "https://dc.lft.to/lastmile_qr_scan"}, "fusion_lon": 0.0}, {"lat": 38.921151, "is_disabled": 0, "type": "electric_scooter", "lon": -77.04211616666667, "bike_id": "d543d98480dc07012df6222622ccf361", "fusion_lat": 0.0, "name": "d543d98480dc07012df6222622ccf361", "is_reserved": 0, "rental_uris": {"android": "https://dc.lft.to/lastmile_qr_scan", "ios": "https://dc.lft.to/lastmile_qr_scan"}, "fusion_lon": 0.0}, {"lat": 38.93862983333333, "is_disabled": 0, "type": "electric_scooter", "lon": -77.02588866666666, "bike_id": "ef3bd5ebd16cd559cac1d1da4a8e3689", "fusion_lat": 0.0, "name": "ef3bd5ebd16cd559cac1d1da4a8e3689", "is_reserved": 0, "rental_uris": {"android": "https://dc.lft.to/lastmile_qr_scan", "ios": "https://dc.lft.to/lastmile_qr_scan"}, "fusion_lon": 0.0}, {"lat": 38.91257783333333, "is_disabled": 0, "type": "electric_scooter", "lon": -77.03034433333333, "bike_id": "ca8f693519299511d3aa575587aa1d1c", "fusion_lat": 0.0, "name": "ca8f693519299511d3aa575587aa1d1c", "is_reserved": 0, "rental_uris": {"android": "https://dc.lft.to/lastmile_qr_scan", "ios": "https://dc.lft.to/lastmile_qr_scan"}, "fusion_lon": 0.0}, {"lat": 38.810554, "is_disabled": 0, "type": "electric_bike", "lon": -77.08509383333333, "bike_id": "18fff87c74ce298a91518c131debf41f", "fusion_lat": 0.0, "name": "18fff87c74ce298a91518c131debf41f", "is_reserved": 0, "rental_uris": {"android": "https://dc.lft.to/lastmile_qr_scan", "ios": "https://dc.lft.to/lastmile_qr_scan"}, "fusion_lon": 0.0}, {"lat": 38.904864333333336, "is_disabled": 0, "type": "electric_scooter", "lon": -76.995401, "bike_id": "5d6e77b0eca84fffe744e293b6cca331", "fusion_lat": 0.0, "name": "5d6e77b0eca84fffe744e293b6cca331", "is_reserved": 0, "rental_uris": {"android": "https://dc.lft.to/lastmile_qr_scan", "ios": "https://dc.lft.to/lastmile_qr_scan"}, "fusion_lon": 0.0}, {"lat": 38.854202666666666, "is_disabled": 0, "type": "electric_bike", "lon": -76.90969216666667, "bike_id": "fdfa2bef648108689cbb71a76673d7e6", "fusion_lat": 0.0, "name": "fdfa2bef648108689cbb71a76673d7e6", "is_reserved": 0, "rental_uris": {"android": "https://dc.lft.to/lastmile_qr_scan", "ios": "https://dc.lft.to/lastmile_qr_scan"}, "fusion_lon": 0.0}, {"lat": 38.93424566666667, "is_disabled": 0, "type": "electric_scooter", "lon": -77.0283955, "bike_id": "8d8585bb5c9f2947f0efd9e144523d05", "fusion_lat": 0.0, "name": "8d8585bb5c9f2947f0efd9e144523d05", "is_reserved": 0, "rental_uris": {"android": "https://dc.lft.to/lastmile_qr_scan", "ios": "https://dc.lft.to/lastmile_qr_scan"}, "fusion_lon": 0.0}, {"lat": 38.945971666666665, "is_disabled": 0, "type": "electric_scooter", "lon": -77.07038383333334, "bike_id": "d95f11e48c595569f76921edf71f7a75", "fusion_lat": 0.0, "name": "d95f11e48c595569f76921edf71f7a75", "is_reserved": 0, "rental_uris": {"android": "https://dc.lft.to/lastmile_qr_scan", "ios": "https://dc.lft.to/lastmile_qr_scan"}, "fusion_lon": 0.0}, {"lat": 38.923862666666665, "is_disabled": 0, "type": "electric_scooter", "lon": -77.02760233333333, "bike_id": "65cffc8879cc0699d1dbf8eefa6707aa", "fusion_lat": 0.0, "name": "65cffc8879cc0699d1dbf8eefa6707aa", "is_reserved": 0, "rental_uris": {"android": "https://dc.lft.to/lastmile_qr_scan", "ios": "https://dc.lft.to/lastmile_qr_scan"}, "fusion_lon": 0.0}, {"lat": 38.91546433333333, "is_disabled": 0, "type": "electric_scooter", "lon": -77.00975966666667, "bike_id": "c3f17fcd41770e170cbc57a313c4ac7f", "fusion_lat": 0.0, "name": "c3f17fcd41770e170cbc57a313c4ac7f", "is_reserved": 0, "rental_uris": {"android": "https://dc.lft.to/lastmile_qr_scan", "ios": "https://dc.lft.to/lastmile_qr_scan"}, "fusion_lon": 0.0}, {"lat": 38.93421433333334, "is_disabled": 0, "type": "electric_scooter", "lon": -77.02841966666666, "bike_id": "9774bb49e13bf7be891b9e3176e0d284", "fusion_lat": 0.0, "name": "9774bb49e13bf7be891b9e3176e0d284", "is_reserved": 0, "rental_uris": {"android": "https://dc.lft.to/lastmile_qr_scan", "ios": "https://dc.lft.to/lastmile_qr_scan"}, "fusion_lon": 0.0}, {"lat": 38.844320833333335, "is_disabled": 0, "type": "electric_scooter", "lon": -76.9981505, "bike_id": "ebac5d91ee1569254356687621237ebd", "fusion_lat": 0.0, "name": "ebac5d91ee1569254356687621237ebd", "is_reserved": 0, "rental_uris": {"android": "https://dc.lft.to/lastmile_qr_scan", "ios": "https://dc.lft.to/lastmile_qr_scan"}, "fusion_lon": 0.0}, {"lat": 38.90384816666667, "is_disabled": 0, "type": "electric_scooter", "lon": -76.98484583333334, "bike_id": "939dee45176685be770255f8548b8938", "fusion_lat": 0.0, "name": "939dee45176685be770255f8548b8938", "is_reserved": 0, "rental_uris": {"android": "https://dc.lft.to/lastmile_qr_scan", "ios": "https://dc.lft.to/lastmile_qr_scan"}, "fusion_lon": 0.0}, {"lat": 38.886892, "is_disabled": 0, "type": "electric_scooter", "lon": -77.01768616666666, "bike_id": "9ce72f7b9b3dc24b9bf4412d0b37b937", "fusion_lat": 0.0, "name": "9ce72f7b9b3dc24b9bf4412d0b37b937", "is_reserved": 0, "rental_uris": {"android": "https://dc.lft.to/lastmile_qr_scan", "ios": "https://dc.lft.to/lastmile_qr_scan"}, "fusion_lon": 0.0}, {"lat": 38.93194733333333, "is_disabled": 0, "type": "electric_scooter", "lon": -77.02352933333333, "bike_id": "19e354f311806b5abfde68cb2d018dc2", "fusion_lat": 0.0, "name": "19e354f311806b5abfde68cb2d018dc2", "is_reserved": 0, "rental_uris": {"android": "https://dc.lft.to/lastmile_qr_scan", "ios": "https://dc.lft.to/lastmile_qr_scan"}, "fusion_lon": 0.0}, {"lat": 38.89492466666667, "is_disabled": 0, "type": "electric_scooter", "lon": -77.00207366666666, "bike_id": "b6ea4208c2017f3ef7a86ec7ff90a28c", "fusion_lat": 0.0, "name": "b6ea4208c2017f3ef7a86ec7ff90a28c", "is_reserved": 0, "rental_uris": {"android": "https://dc.lft.to/lastmile_qr_scan", "ios": "https://dc.lft.to/lastmile_qr_scan"}, "fusion_lon": 0.0}, {"lat": 38.898377333333336, "is_disabled": 0, "type": "electric_scooter", "lon": -76.99503283333334, "bike_id": "078f8022f74ed018d4feae2e6fb5ba40", "fusion_lat": 0.0, "name": "078f8022f74ed018d4feae2e6fb5ba40", "is_reserved": 0, "rental_uris": {"android": "https://dc.lft.to/lastmile_qr_scan", "ios": "https://dc.lft.to/lastmile_qr_scan"}, "fusion_lon": 0.0}, {"lat": 38.92246816666667, "is_disabled": 0, "type": "electric_scooter", "lon": -77.04344316666666, "bike_id": "47e080ac90fad2803ec10ea6b6ce711a", "fusion_lat": 0.0, "name": "47e080ac90fad2803ec10ea6b6ce711a", "is_reserved": 0, "rental_uris": {"android": "https://dc.lft.to/lastmile_qr_scan", "ios": "https://dc.lft.to/lastmile_qr_scan"}, "fusion_lon": 0.0}, {"lat": 38.90830733333333, "is_disabled": 0, "type": "electric_scooter", "lon": -77.00390916666667, "bike_id": "6fc31be8ddd5067cb45875267bc2c44c", "fusion_lat": 0.0, "name": "6fc31be8ddd5067cb45875267bc2c44c", "is_reserved": 0, "rental_uris": {"android": "https://dc.lft.to/lastmile_qr_scan", "ios": "https://dc.lft.to/lastmile_qr_scan"}, "fusion_lon": 0.0}, {"lat": 38.90400366666667, "is_disabled": 0, "type": "electric_scooter", "lon": -76.98463533333333, "bike_id": "b99848d4571a348ee336b150c0a46b0a", "fusion_lat": 0.0, "name": "b99848d4571a348ee336b150c0a46b0a", "is_reserved": 0, "rental_uris": {"android": "https://dc.lft.to/lastmile_qr_scan", "ios": "https://dc.lft.to/lastmile_qr_scan"}, "fusion_lon": 0.0}, {"lat": 38.916701833333335, "is_disabled": 0, "type": "electric_scooter", "lon": -77.02386116666666, "bike_id": "2c630f9a7f2b427e70f469343581188d", "fusion_lat": 0.0, "name": "2c630f9a7f2b427e70f469343581188d", "is_reserved": 0, "rental_uris": {"android": "https://dc.lft.to/lastmile_qr_scan", "ios": "https://dc.lft.to/lastmile_qr_scan"}, "fusion_lon": 0.0}, {"lat": 38.926729333333334, "is_disabled": 0, "type": "electric_scooter", "lon": -77.00744333333333, "bike_id": "a9f5e2537e416e071be7a8981f988036", "fusion_lat": 0.0, "name": "a9f5e2537e416e071be7a8981f988036", "is_reserved": 0, "rental_uris": {"android": "https://dc.lft.to/lastmile_qr_scan", "ios": "https://dc.lft.to/lastmile_qr_scan"}, "fusion_lon": 0.0}, {"lat": 38.902261333333335, "is_disabled": 0, "type": "electric_scooter", "lon": -77.02842866666667, "bike_id": "ff96f744c43448874a1e753c040eeff8", "fusion_lat": 0.0, "name": "ff96f744c43448874a1e753c040eeff8", "is_reserved": 0, "rental_uris": {"android": "https://dc.lft.to/lastmile_qr_scan", "ios": "https://dc.lft.to/lastmile_qr_scan"}, "fusion_lon": 0.0}, {"lat": 38.893481666666666, "is_disabled": 0, "type": "electric_scooter", "lon": -77.039878, "bike_id": "dc2f5f023a2da511bcde60cb4e726c8c", "fusion_lat": 0.0, "name": "dc2f5f023a2da511bcde60cb4e726c8c", "is_reserved": 0, "rental_uris": {"android": "https://dc.lft.to/lastmile_qr_scan", "ios": "https://dc.lft.to/lastmile_qr_scan"}, "fusion_lon": 0.0}, {"lat": 38.96218483333333, "is_disabled": 0, "type": "electric_bike", "lon": -77.026289, "bike_id": "280d0f39633f245f3505515d56ab0a29", "fusion_lat": 0.0, "name": "280d0f39633f245f3505515d56ab0a29", "is_reserved": 0, "rental_uris": {"android": "https://dc.lft.to/lastmile_qr_scan", "ios": "https://dc.lft.to/lastmile_qr_scan"}, "fusion_lon": 0.0}, {"lat": 38.89218283333334, "is_disabled": 0, "type": "electric_bike", "lon": -77.107802, "bike_id": "16933547072be3a63ba29e29ae5d0788", "fusion_lat": 0.0, "name": "16933547072be3a63ba29e29ae5d0788", "is_reserved": 0, "rental_uris": {"android": "https://dc.lft.to/lastmile_qr_scan", "ios": "https://dc.lft.to/lastmile_qr_scan"}, "fusion_lon": 0.0}, {"lat": 38.91337866666667, "is_disabled": 0, "type": "electric_scooter", "lon": -77.01260416666666, "bike_id": "8370193cf991e77229ab95d2f87a9786", "fusion_lat": 0.0, "name": "8370193cf991e77229ab95d2f87a9786", "is_reserved": 0, "rental_uris": {"android": "https://dc.lft.to/lastmile_qr_scan", "ios": "https://dc.lft.to/lastmile_qr_scan"}, "fusion_lon": 0.0}, {"lat": 38.905649833333335, "is_disabled": 0, "type": "electric_scooter", "lon": -77.00708616666667, "bike_id": "ded4bb878933b13186b8b3159bb8215c", "fusion_lat": 0.0, "name": "ded4bb878933b13186b8b3159bb8215c", "is_reserved": 0, "rental_uris": {"android": "https://dc.lft.to/lastmile_qr_scan", "ios": "https://dc.lft.to/lastmile_qr_scan"}, "fusion_lon": 0.0}, {"lat": 38.927878166666666, "is_disabled": 0, "type": "electric_scooter", "lon": -77.03811716666667, "bike_id": "e62b8b2d546e6a0283509251f0a028dd", "fusion_lat": 0.0, "name": "e62b8b2d546e6a0283509251f0a028dd", "is_reserved": 0, "rental_uris": {"android": "https://dc.lft.to/lastmile_qr_scan", "ios": "https://dc.lft.to/lastmile_qr_scan"}, "fusion_lon": 0.0}, {"lat": 38.9324745, "is_disabled": 0, "type": "electric_scooter", "lon": -77.02945, "bike_id": "71221bff807d4690410035ad99fa93da", "fusion_lat": 0.0, "name": "71221bff807d4690410035ad99fa93da", "is_reserved": 0, "rental_uris": {"android": "https://dc.lft.to/lastmile_qr_scan", "ios": "https://dc.lft.to/lastmile_qr_scan"}, "fusion_lon": 0.0}, {"lat": 38.8287035, "is_disabled": 0, "type": "electric_bike", "lon": -77.11219216666667, "bike_id": "3dd2db47a1ed4ed99bc26dcabf98116d", "fusion_lat": 0.0, "name": "3dd2db47a1ed4ed99bc26dcabf98116d", "is_reserved": 0, "rental_uris": {"android": "https://dc.lft.to/lastmile_qr_scan", "ios": "https://dc.lft.to/lastmile_qr_scan"}, "fusion_lon": 0.0}, {"lat": 38.90991316666667, "is_disabled": 0, "type": "electric_scooter", "lon": -76.99738266666667, "bike_id": "b4b59855ce0a31f9301bd8c063284e85", "fusion_lat": 0.0, "name": "b4b59855ce0a31f9301bd8c063284e85", "is_reserved": 0, "rental_uris": {"android": "https://dc.lft.to/lastmile_qr_scan", "ios": "https://dc.lft.to/lastmile_qr_scan"}, "fusion_lon": 0.0}, {"lat": 38.91775, "is_disabled": 0, "type": "electric_scooter", "lon": -77.03660583333334, "bike_id": "649a0e4e2fa249e65e19b174a2ec4dea", "fusion_lat": 0.0, "name": "649a0e4e2fa249e65e19b174a2ec4dea", "is_reserved": 0, "rental_uris": {"android": "https://dc.lft.to/lastmile_qr_scan", "ios": "https://dc.lft.to/lastmile_qr_scan"}, "fusion_lon": 0.0}, {"lat": 38.893983666666664, "is_disabled": 0, "type": "electric_scooter", "lon": -77.04997116666667, "bike_id": "e09ab6966991d16d1e92869ee11c9f09", "fusion_lat": 0.0, "name": "e09ab6966991d16d1e92869ee11c9f09", "is_reserved": 0, "rental_uris": {"android": "https://dc.lft.to/lastmile_qr_scan", "ios": "https://dc.lft.to/lastmile_qr_scan"}, "fusion_lon": 0.0}, {"lat": 38.923227, "is_disabled": 0, "type": "electric_scooter", "lon": -77.02795833333333, "bike_id": "3188f2c835ee5c828b7dc77d46ce62fc", "fusion_lat": 0.0, "name": "3188f2c835ee5c828b7dc77d46ce62fc", "is_reserved": 0, "rental_uris": {"android": "https://dc.lft.to/lastmile_qr_scan", "ios": "https://dc.lft.to/lastmile_qr_scan"}, "fusion_lon": 0.0}, {"lat": 38.92868266666667, "is_disabled": 0, "type": "electric_scooter", "lon": -77.01944366666666, "bike_id": "0a16abad6e7e591609aeb2eddffcf583", "fusion_lat": 0.0, "name": "0a16abad6e7e591609aeb2eddffcf583", "is_reserved": 0, "rental_uris": {"android": "https://dc.lft.to/lastmile_qr_scan", "ios": "https://dc.lft.to/lastmile_qr_scan"}, "fusion_lon": 0.0}, {"lat": 38.900754666666664, "is_disabled": 0, "type": "electric_scooter", "lon": -77.0020555, "bike_id": "3ca1a1f80db5cc6c007f1c7632f11a45", "fusion_lat": 0.0, "name": "3ca1a1f80db5cc6c007f1c7632f11a45", "is_reserved": 0, "rental_uris": {"android": "https://dc.lft.to/lastmile_qr_scan", "ios": "https://dc.lft.to/lastmile_qr_scan"}, "fusion_lon": 0.0}, {"lat": 38.927611166666665, "is_disabled": 0, "type": "electric_scooter", "lon": -77.03253066666667, "bike_id": "b07cffa59ae13499c4272731e41c127a", "fusion_lat": 0.0, "name": "b07cffa59ae13499c4272731e41c127a", "is_reserved": 0, "rental_uris": {"android": "https://dc.lft.to/lastmile_qr_scan", "ios": "https://dc.lft.to/lastmile_qr_scan"}, "fusion_lon": 0.0}, {"lat": 38.918290999999996, "is_disabled": 0, "type": "electric_scooter", "lon": -77.024034, "bike_id": "13736a40e8add2f4e18a83ef356b545e", "fusion_lat": 0.0, "name": "13736a40e8add2f4e18a83ef356b545e", "is_reserved": 0, "rental_uris": {"android": "https://dc.lft.to/lastmile_qr_scan", "ios": "https://dc.lft.to/lastmile_qr_scan"}, "fusion_lon": 0.0}, {"lat": 39.00474966666667, "is_disabled": 0, "type": "electric_bike", "lon": -76.90131966666667, "bike_id": "1c2f4e7d46663998b087b7a4ebd50eba", "fusion_lat": 0.0, "name": "1c2f4e7d46663998b087b7a4ebd50eba", "is_reserved": 0, "rental_uris": {"android": "https://dc.lft.to/lastmile_qr_scan", "ios": "https://dc.lft.to/lastmile_qr_scan"}, "fusion_lon": 0.0}, {"lat": 38.917068666666665, "is_disabled": 0, "type": "electric_scooter", "lon": -77.038686, "bike_id": "7bdd1536a26277cc5ac7a09bedfca2da", "fusion_lat": 0.0, "name": "7bdd1536a26277cc5ac7a09bedfca2da", "is_reserved": 0, "rental_uris": {"android": "https://dc.lft.to/lastmile_qr_scan", "ios": "https://dc.lft.to/lastmile_qr_scan"}, "fusion_lon": 0.0}, {"lat": 38.882910833333334, "is_disabled": 0, "type": "electric_scooter", "lon": -77.01745283333334, "bike_id": "f1555e8ebef167b0f65101040f4ba421", "fusion_lat": 0.0, "name": "f1555e8ebef167b0f65101040f4ba421", "is_reserved": 0, "rental_uris": {"android": "https://dc.lft.to/lastmile_qr_scan", "ios": "https://dc.lft.to/lastmile_qr_scan"}, "fusion_lon": 0.0}, {"lat": 38.90507866666667, "is_disabled": 0, "type": "electric_scooter", "lon": -77.02947783333333, "bike_id": "5cb5c881eab45d6db3a64c639ae3d3d2", "fusion_lat": 0.0, "name": "5cb5c881eab45d6db3a64c639ae3d3d2", "is_reserved": 0, "rental_uris": {"android": "https://dc.lft.to/lastmile_qr_scan", "ios": "https://dc.lft.to/lastmile_qr_scan"}, "fusion_lon": 0.0}, {"lat": 38.907161333333335, "is_disabled": 0, "type": "electric_scooter", "lon": -77.04816716666667, "bike_id": "62ee914c89023f776cd41a04f539763d", "fusion_lat": 0.0, "name": "62ee914c89023f776cd41a04f539763d", "is_reserved": 0, "rental_uris": {"android": "https://dc.lft.to/lastmile_qr_scan", "ios": "https://dc.lft.to/lastmile_qr_scan"}, "fusion_lon": 0.0}, {"lat": 39.0520415, "is_disabled": 0, "type": "electric_bike", "lon": -77.109116, "bike_id": "31c290548f44367024bf88c57c6dfdcf", "fusion_lat": 0.0, "name": "31c290548f44367024bf88c57c6dfdcf", "is_reserved": 0, "rental_uris": {"android": "https://dc.lft.to/lastmile_qr_scan", "ios": "https://dc.lft.to/lastmile_qr_scan"}, "fusion_lon": 0.0}, {"lat": 38.892306833333336, "is_disabled": 0, "type": "electric_scooter", "lon": -77.05000316666667, "bike_id": "0bfe61aceb12d7c816a2c27f72be1ab3", "fusion_lat": 0.0, "name": "0bfe61aceb12d7c816a2c27f72be1ab3", "is_reserved": 0, "rental_uris": {"android": "https://dc.lft.to/lastmile_qr_scan", "ios": "https://dc.lft.to/lastmile_qr_scan"}, "fusion_lon": 0.0}, {"lat": 38.900682833333335, "is_disabled": 0, "type": "electric_scooter", "lon": -77.00203466666666, "bike_id": "9118b0e6c516e95f70e4d22cfafbf76c", "fusion_lat": 0.0, "name": "9118b0e6c516e95f70e4d22cfafbf76c", "is_reserved": 0, "rental_uris": {"android": "https://dc.lft.to/lastmile_qr_scan", "ios": "https://dc.lft.to/lastmile_qr_scan"}, "fusion_lon": 0.0}, {"lat": 38.92333683333333, "is_disabled": 0, "type": "electric_scooter", "lon": -77.02713566666667, "bike_id": "b6ee727ba082ffe11ac6ccbbc5035352", "fusion_lat": 0.0, "name": "b6ee727ba082ffe11ac6ccbbc5035352", "is_reserved": 0, "rental_uris": {"android": "https://dc.lft.to/lastmile_qr_scan", "ios": "https://dc.lft.to/lastmile_qr_scan"}, "fusion_lon": 0.0}, {"lat": 38.9019615, "is_disabled": 0, "type": "electric_scooter", "lon": -77.02367383333333, "bike_id": "76fb7856a89e954883627c4801ce1233", "fusion_lat": 0.0, "name": "76fb7856a89e954883627c4801ce1233", "is_reserved": 0, "rental_uris": {"android": "https://dc.lft.to/lastmile_qr_scan", "ios": "https://dc.lft.to/lastmile_qr_scan"}, "fusion_lon": 0.0}, {"lat": 38.899678333333334, "is_disabled": 0, "type": "electric_scooter", "lon": -76.92658616666667, "bike_id": "19519879a9bebec944f68f5181d4671d", "fusion_lat": 0.0, "name": "19519879a9bebec944f68f5181d4671d", "is_reserved": 0, "rental_uris": {"android": "https://dc.lft.to/lastmile_qr_scan", "ios": "https://dc.lft.to/lastmile_qr_scan"}, "fusion_lon": 0.0}, {"lat": 38.923214, "is_disabled": 0, "type": "electric_scooter", "lon": -77.03858583333333, "bike_id": "79384bb5e02505c3a64a3f88f606acab", "fusion_lat": 0.0, "name": "79384bb5e02505c3a64a3f88f606acab", "is_reserved": 0, "rental_uris": {"android": "https://dc.lft.to/lastmile_qr_scan", "ios": "https://dc.lft.to/lastmile_qr_scan"}, "fusion_lon": 0.0}, {"lat": 38.91550083333333, "is_disabled": 0, "type": "electric_scooter", "lon": -77.01044383333333, "bike_id": "9f3a58d4f1d685a443c923b57e706f72", "fusion_lat": 0.0, "name": "9f3a58d4f1d685a443c923b57e706f72", "is_reserved": 0, "rental_uris": {"android": "https://dc.lft.to/lastmile_qr_scan", "ios": "https://dc.lft.to/lastmile_qr_scan"}, "fusion_lon": 0.0}, {"lat": 38.9097515, "is_disabled": 0, "type": "electric_bike", "lon": -77.08822516666666, "bike_id": "2517d47d6d844fe51dee15822424c0c7", "fusion_lat": 0.0, "name": "2517d47d6d844fe51dee15822424c0c7", "is_reserved": 0, "rental_uris": {"android": "https://dc.lft.to/lastmile_qr_scan", "ios": "https://dc.lft.to/lastmile_qr_scan"}, "fusion_lon": 0.0}, {"lat": 38.932926, "is_disabled": 0, "type": "electric_scooter", "lon": -77.04531516666667, "bike_id": "403d6f3ee3ee0f22a507dfff32581fc0", "fusion_lat": 0.0, "name": "403d6f3ee3ee0f22a507dfff32581fc0", "is_reserved": 0, "rental_uris": {"android": "https://dc.lft.to/lastmile_qr_scan", "ios": "https://dc.lft.to/lastmile_qr_scan"}, "fusion_lon": 0.0}, {"lat": 38.984313, "is_disabled": 0, "type": "electric_scooter", "lon": -77.02675066666667, "bike_id": "9022d88e7487c485f28e3a64cd0454b9", "fusion_lat": 0.0, "name": "9022d88e7487c485f28e3a64cd0454b9", "is_reserved": 0, "rental_uris": {"android": "https://dc.lft.to/lastmile_qr_scan", "ios": "https://dc.lft.to/lastmile_qr_scan"}, "fusion_lon": 0.0}, {"lat": 38.92473966666667, "is_disabled": 0, "type": "electric_bike", "lon": -77.037539, "bike_id": "36c3cf9d448078a22fe157816aef3da3", "fusion_lat": 0.0, "name": "36c3cf9d448078a22fe157816aef3da3", "is_reserved": 0, "rental_uris": {"android": "https://dc.lft.to/lastmile_qr_scan", "ios": "https://dc.lft.to/lastmile_qr_scan"}, "fusion_lon": 0.0}, {"lat": 38.91465616666667, "is_disabled": 0, "type": "electric_scooter", "lon": -77.01433866666666, "bike_id": "cd4ddab11ad12f7b7dfe3203b8d80f94", "fusion_lat": 0.0, "name": "cd4ddab11ad12f7b7dfe3203b8d80f94", "is_reserved": 0, "rental_uris": {"android": "https://dc.lft.to/lastmile_qr_scan", "ios": "https://dc.lft.to/lastmile_qr_scan"}, "fusion_lon": 0.0}, {"lat": 38.877242833333334, "is_disabled": 0, "type": "electric_scooter", "lon": -77.00370283333334, "bike_id": "4fd97f6b3aee8308dc3e24d2f7deed81", "fusion_lat": 0.0, "name": "4fd97f6b3aee8308dc3e24d2f7deed81", "is_reserved": 0, "rental_uris": {"android": "https://dc.lft.to/lastmile_qr_scan", "ios": "https://dc.lft.to/lastmile_qr_scan"}, "fusion_lon": 0.0}, {"lat": 38.87073566666667, "is_disabled": 0, "type": "electric_bike", "lon": -76.978434, "bike_id": "1bf49f92364ad6be5700fbca3abc22c0", "fusion_lat": 0.0, "name": "1bf49f92364ad6be5700fbca3abc22c0", "is_reserved": 0, "rental_uris": {"android": "https://dc.lft.to/lastmile_qr_scan", "ios": "https://dc.lft.to/lastmile_qr_scan"}, "fusion_lon": 0.0}, {"lat": 38.8880085, "is_disabled": 0, "type": "electric_scooter", "lon": -76.933639, "bike_id": "9614a871a06a09c4cb0ee7e1afa2f7ea", "fusion_lat": 0.0, "name": "9614a871a06a09c4cb0ee7e1afa2f7ea", "is_reserved": 0, "rental_uris": {"android": "https://dc.lft.to/lastmile_qr_scan", "ios": "https://dc.lft.to/lastmile_qr_scan"}, "fusion_lon": 0.0}, {"lat": 38.92354, "is_disabled": 0, "type": "electric_scooter", "lon": -77.05426333333334, "bike_id": "f1ebc076edd90f0b53509366ff57d251", "fusion_lat": 0.0, "name": "f1ebc076edd90f0b53509366ff57d251", "is_reserved": 0, "rental_uris": {"android": "https://dc.lft.to/lastmile_qr_scan", "ios": "https://dc.lft.to/lastmile_qr_scan"}, "fusion_lon": 0.0}, {"lat": 38.827835666666665, "is_disabled": 0, "type": "electric_bike", "lon": -77.00916133333334, "bike_id": "ed773f8e17fb33e4e9e906473ee4250a", "fusion_lat": 0.0, "name": "ed773f8e17fb33e4e9e906473ee4250a", "is_reserved": 0, "rental_uris": {"android": "https://dc.lft.to/lastmile_qr_scan", "ios": "https://dc.lft.to/lastmile_qr_scan"}, "fusion_lon": 0.0}, {"lat": 38.8876465, "is_disabled": 0, "type": "electric_scooter", "lon": -76.95595883333333, "bike_id": "c04da24de33147dbe6c672fb62511178", "fusion_lat": 0.0, "name": "c04da24de33147dbe6c672fb62511178", "is_reserved": 0, "rental_uris": {"android": "https://dc.lft.to/lastmile_qr_scan", "ios": "https://dc.lft.to/lastmile_qr_scan"}, "fusion_lon": 0.0}, {"lat": 38.88489783333333, "is_disabled": 0, "type": "electric_scooter", "lon": -77.00711533333333, "bike_id": "af112cedb0afe38e5cae876ccea5a27b", "fusion_lat": 0.0, "name": "af112cedb0afe38e5cae876ccea5a27b", "is_reserved": 0, "rental_uris": {"android": "https://dc.lft.to/lastmile_qr_scan", "ios": "https://dc.lft.to/lastmile_qr_scan"}, "fusion_lon": 0.0}, {"lat": 38.86625433333333, "is_disabled": 0, "type": "electric_scooter", "lon": -76.98703966666666, "bike_id": "e10288a325263214fe76ad0f3c4a7331", "fusion_lat": 0.0, "name": "e10288a325263214fe76ad0f3c4a7331", "is_reserved": 0, "rental_uris": {"android": "https://dc.lft.to/lastmile_qr_scan", "ios": "https://dc.lft.to/lastmile_qr_scan"}, "fusion_lon": 0.0}, {"lat": 38.842676166666664, "is_disabled": 0, "type": "electric_bike", "lon": -76.98842716666667, "bike_id": "101cde173fbcf9ff6e84e9a93c116a34", "fusion_lat": 0.0, "name": "101cde173fbcf9ff6e84e9a93c116a34", "is_reserved": 0, "rental_uris": {"android": "https://dc.lft.to/lastmile_qr_scan", "ios": "https://dc.lft.to/lastmile_qr_scan"}, "fusion_lon": 0.0}, {"lat": 38.875725833333334, "is_disabled": 0, "type": "electric_bike", "lon": -77.10563, "bike_id": "a5f9feb1a6b6a71d8f8d6bbf7fbbbf59", "fusion_lat": 0.0, "name": "a5f9feb1a6b6a71d8f8d6bbf7fbbbf59", "is_reserved": 0, "rental_uris": {"android": "https://dc.lft.to/lastmile_qr_scan", "ios": "https://dc.lft.to/lastmile_qr_scan"}, "fusion_lon": 0.0}, {"lat": 38.93472966666667, "is_disabled": 0, "type": "electric_scooter", "lon": -77.03579383333333, "bike_id": "896ac89eadbdb75574d2421e0b6cf9b9", "fusion_lat": 0.0, "name": "896ac89eadbdb75574d2421e0b6cf9b9", "is_reserved": 0, "rental_uris": {"android": "https://dc.lft.to/lastmile_qr_scan", "ios": "https://dc.lft.to/lastmile_qr_scan"}, "fusion_lon": 0.0}, {"lat": 38.842989333333335, "is_disabled": 0, "type": "electric_scooter", "lon": -76.99936916666667, "bike_id": "82fac8e9e7170e1a0554b3e0285b6f58", "fusion_lat": 0.0, "name": "82fac8e9e7170e1a0554b3e0285b6f58", "is_reserved": 0, "rental_uris": {"android": "https://dc.lft.to/lastmile_qr_scan", "ios": "https://dc.lft.to/lastmile_qr_scan"}, "fusion_lon": 0.0}, {"lat": 38.9428915, "is_disabled": 0, "type": "electric_scooter", "lon": -77.02173283333333, "bike_id": "93a23cb825d3cb55dee5d6fb34aaeac7", "fusion_lat": 0.0, "name": "93a23cb825d3cb55dee5d6fb34aaeac7", "is_reserved": 0, "rental_uris": {"android": "https://dc.lft.to/lastmile_qr_scan", "ios": "https://dc.lft.to/lastmile_qr_scan"}, "fusion_lon": 0.0}, {"lat": 38.93228583333333, "is_disabled": 0, "type": "electric_scooter", "lon": -76.99603516666667, "bike_id": "d6ff2dc15d186afa3bd5ac21deb8c906", "fusion_lat": 0.0, "name": "d6ff2dc15d186afa3bd5ac21deb8c906", "is_reserved": 0, "rental_uris": {"android": "https://dc.lft.to/lastmile_qr_scan", "ios": "https://dc.lft.to/lastmile_qr_scan"}, "fusion_lon": 0.0}, {"lat": 38.914136666666664, "is_disabled": 0, "type": "electric_scooter", "lon": -77.03994833333333, "bike_id": "88bfe3439f10f09730c44c6e485a8c5a", "fusion_lat": 0.0, "name": "88bfe3439f10f09730c44c6e485a8c5a", "is_reserved": 0, "rental_uris": {"android": "https://dc.lft.to/lastmile_qr_scan", "ios": "https://dc.lft.to/lastmile_qr_scan"}, "fusion_lon": 0.0}, {"lat": 38.91199666666667, "is_disabled": 0, "type": "electric_scooter", "lon": -77.00205483333333, "bike_id": "df789c8edc865d90a6138ebe0fcd6110", "fusion_lat": 0.0, "name": "df789c8edc865d90a6138ebe0fcd6110", "is_reserved": 0, "rental_uris": {"android": "https://dc.lft.to/lastmile_qr_scan", "ios": "https://dc.lft.to/lastmile_qr_scan"}, "fusion_lon": 0.0}, {"lat": 38.940422833333336, "is_disabled": 0, "type": "electric_bike", "lon": -77.05160366666667, "bike_id": "e68a3ce0e6c856279f172416043410bb", "fusion_lat": 0.0, "name": "e68a3ce0e6c856279f172416043410bb", "is_reserved": 0, "rental_uris": {"android": "https://dc.lft.to/lastmile_qr_scan", "ios": "https://dc.lft.to/lastmile_qr_scan"}, "fusion_lon": 0.0}, {"lat": 38.92071883333333, "is_disabled": 0, "type": "electric_scooter", "lon": -77.0142385, "bike_id": "278fa98b1400a834df9f2e170eba76ef", "fusion_lat": 0.0, "name": "278fa98b1400a834df9f2e170eba76ef", "is_reserved": 0, "rental_uris": {"android": "https://dc.lft.to/lastmile_qr_scan", "ios": "https://dc.lft.to/lastmile_qr_scan"}, "fusion_lon": 0.0}, {"lat": 38.922481, "is_disabled": 0, "type": "electric_scooter", "lon": -77.03105066666667, "bike_id": "6ec5d08307a57b8febd067d389b0ff69", "fusion_lat": 0.0, "name": "6ec5d08307a57b8febd067d389b0ff69", "is_reserved": 0, "rental_uris": {"android": "https://dc.lft.to/lastmile_qr_scan", "ios": "https://dc.lft.to/lastmile_qr_scan"}, "fusion_lon": 0.0}, {"lat": 38.913827833333336, "is_disabled": 0, "type": "electric_scooter", "lon": -77.018952, "bike_id": "05cf50e5125ebdfc02dd635c181ba122", "fusion_lat": 0.0, "name": "05cf50e5125ebdfc02dd635c181ba122", "is_reserved": 0, "rental_uris": {"android": "https://dc.lft.to/lastmile_qr_scan", "ios": "https://dc.lft.to/lastmile_qr_scan"}, "fusion_lon": 0.0}, {"lat": 38.90282, "is_disabled": 0, "type": "electric_scooter", "lon": -77.06355466666666, "bike_id": "8c685208105baf9cbd9657c6f3440f6d", "fusion_lat": 0.0, "name": "8c685208105baf9cbd9657c6f3440f6d", "is_reserved": 0, "rental_uris": {"android": "https://dc.lft.to/lastmile_qr_scan", "ios": "https://dc.lft.to/lastmile_qr_scan"}, "fusion_lon": 0.0}, {"lat": 38.9296125, "is_disabled": 0, "type": "electric_scooter", "lon": -77.03074083333334, "bike_id": "a86682372de70899efa6026268e6fb3d", "fusion_lat": 0.0, "name": "a86682372de70899efa6026268e6fb3d", "is_reserved": 0, "rental_uris": {"android": "https://dc.lft.to/lastmile_qr_scan", "ios": "https://dc.lft.to/lastmile_qr_scan"}, "fusion_lon": 0.0}, {"lat": 38.90571383333333, "is_disabled": 0, "type": "electric_scooter", "lon": -77.02221316666666, "bike_id": "12df65098dc42aa5a6b4caa9a28d35ee", "fusion_lat": 0.0, "name": "12df65098dc42aa5a6b4caa9a28d35ee", "is_reserved": 0, "rental_uris": {"android": "https://dc.lft.to/lastmile_qr_scan", "ios": "https://dc.lft.to/lastmile_qr_scan"}, "fusion_lon": 0.0}, {"lat": 38.902754, "is_disabled": 0, "type": "electric_scooter", "lon": -77.03196666666666, "bike_id": "1409cdd98f130c4314f2f77c514dd39a", "fusion_lat": 0.0, "name": "1409cdd98f130c4314f2f77c514dd39a", "is_reserved": 0, "rental_uris": {"android": "https://dc.lft.to/lastmile_qr_scan", "ios": "https://dc.lft.to/lastmile_qr_scan"}, "fusion_lon": 0.0}, {"lat": 38.8904255, "is_disabled": 0, "type": "electric_scooter", "lon": -76.940806, "bike_id": "9a25f091af0719ff356d7ba906771989", "fusion_lat": 0.0, "name": "9a25f091af0719ff356d7ba906771989", "is_reserved": 0, "rental_uris": {"android": "https://dc.lft.to/lastmile_qr_scan", "ios": "https://dc.lft.to/lastmile_qr_scan"}, "fusion_lon": 0.0}, {"lat": 38.911688, "is_disabled": 0, "type": "electric_scooter", "lon": -77.03856116666667, "bike_id": "a96aa63c9e63684005324cd8c54511ce", "fusion_lat": 0.0, "name": "a96aa63c9e63684005324cd8c54511ce", "is_reserved": 0, "rental_uris": {"android": "https://dc.lft.to/lastmile_qr_scan", "ios": "https://dc.lft.to/lastmile_qr_scan"}, "fusion_lon": 0.0}, {"lat": 38.907377833333335, "is_disabled": 0, "type": "electric_scooter", "lon": -77.04205116666667, "bike_id": "13fc00e41a9c447a6a38207b69fd5fb3", "fusion_lat": 0.0, "name": "13fc00e41a9c447a6a38207b69fd5fb3", "is_reserved": 0, "rental_uris": {"android": "https://dc.lft.to/lastmile_qr_scan", "ios": "https://dc.lft.to/lastmile_qr_scan"}, "fusion_lon": 0.0}, {"lat": 38.958788166666665, "is_disabled": 0, "type": "electric_bike", "lon": -76.92475083333333, "bike_id": "fa5fb0e5da5bdd6d9ea2785dbe13023d", "fusion_lat": 0.0, "name": "fa5fb0e5da5bdd6d9ea2785dbe13023d", "is_reserved": 0, "rental_uris": {"android": "https://dc.lft.to/lastmile_qr_scan", "ios": "https://dc.lft.to/lastmile_qr_scan"}, "fusion_lon": 0.0}, {"lat": 38.858526833333336, "is_disabled": 0, "type": "electric_bike", "lon": -77.09751516666667, "bike_id": "c6c160ea00e1315ad17e3bacf944a810", "fusion_lat": 0.0, "name": "c6c160ea00e1315ad17e3bacf944a810", "is_reserved": 0, "rental_uris": {"android": "https://dc.lft.to/lastmile_qr_scan", "ios": "https://dc.lft.to/lastmile_qr_scan"}, "fusion_lon": 0.0}, {"lat": 38.921114, "is_disabled": 0, "type": "electric_bike", "lon": -76.985774, "bike_id": "1a299ca4f5b2e20d4219abd6353882da", "fusion_lat": 0.0, "name": "1a299ca4f5b2e20d4219abd6353882da", "is_reserved": 0, "rental_uris": {"android": "https://dc.lft.to/lastmile_qr_scan", "ios": "https://dc.lft.to/lastmile_qr_scan"}, "fusion_lon": 0.0}, {"lat": 38.91790133333333, "is_disabled": 0, "type": "electric_scooter", "lon": -77.044362, "bike_id": "732d43673811123dbd98636eca0dbf99", "fusion_lat": 0.0, "name": "732d43673811123dbd98636eca0dbf99", "is_reserved": 0, "rental_uris": {"android": "https://dc.lft.to/lastmile_qr_scan", "ios": "https://dc.lft.to/lastmile_qr_scan"}, "fusion_lon": 0.0}, {"lat": 38.93101733333334, "is_disabled": 0, "type": "electric_scooter", "lon": -77.02492733333334, "bike_id": "f9bfceda7392db8de18316e9cedd8291", "fusion_lat": 0.0, "name": "f9bfceda7392db8de18316e9cedd8291", "is_reserved": 0, "rental_uris": {"android": "https://dc.lft.to/lastmile_qr_scan", "ios": "https://dc.lft.to/lastmile_qr_scan"}, "fusion_lon": 0.0}, {"lat": 38.931207666666666, "is_disabled": 0, "type": "electric_scooter", "lon": -77.03399383333333, "bike_id": "ebd491c1c40f96bb2d6d73f81ce4f5b5", "fusion_lat": 0.0, "name": "ebd491c1c40f96bb2d6d73f81ce4f5b5", "is_reserved": 0, "rental_uris": {"android": "https://dc.lft.to/lastmile_qr_scan", "ios": "https://dc.lft.to/lastmile_qr_scan"}, "fusion_lon": 0.0}, {"lat": 38.914326333333335, "is_disabled": 0, "type": "electric_bike", "lon": -77.0171545, "bike_id": "8d6d9f0e8041d1c8431e8e930ac6a9c4", "fusion_lat": 0.0, "name": "8d6d9f0e8041d1c8431e8e930ac6a9c4", "is_reserved": 0, "rental_uris": {"android": "https://dc.lft.to/lastmile_qr_scan", "ios": "https://dc.lft.to/lastmile_qr_scan"}, "fusion_lon": 0.0}, {"lat": 38.9177845, "is_disabled": 0, "type": "electric_scooter", "lon": -77.02312583333334, "bike_id": "343a7f2d830a52d8a5050e9ea7d0ea98", "fusion_lat": 0.0, "name": "343a7f2d830a52d8a5050e9ea7d0ea98", "is_reserved": 0, "rental_uris": {"android": "https://dc.lft.to/lastmile_qr_scan", "ios": "https://dc.lft.to/lastmile_qr_scan"}, "fusion_lon": 0.0}, {"lat": 38.87062316666667, "is_disabled": 0, "type": "electric_scooter", "lon": -77.008393, "bike_id": "9abbd2c462127f8b0d3323ae60729f5a", "fusion_lat": 0.0, "name": "9abbd2c462127f8b0d3323ae60729f5a", "is_reserved": 0, "rental_uris": {"android": "https://dc.lft.to/lastmile_qr_scan", "ios": "https://dc.lft.to/lastmile_qr_scan"}, "fusion_lon": 0.0}, {"lat": 38.934370333333334, "is_disabled": 0, "type": "electric_scooter", "lon": -77.03465116666666, "bike_id": "5d9a6889c427a6aad1c646743e8edd17", "fusion_lat": 0.0, "name": "5d9a6889c427a6aad1c646743e8edd17", "is_reserved": 0, "rental_uris": {"android": "https://dc.lft.to/lastmile_qr_scan", "ios": "https://dc.lft.to/lastmile_qr_scan"}, "fusion_lon": 0.0}, {"lat": 38.86213583333333, "is_disabled": 0, "type": "electric_bike", "lon": -76.99779016666666, "bike_id": "41f924352fc00f65e83dc3ba06c43d02", "fusion_lat": 0.0, "name": "41f924352fc00f65e83dc3ba06c43d02", "is_reserved": 0, "rental_uris": {"android": "https://dc.lft.to/lastmile_qr_scan", "ios": "https://dc.lft.to/lastmile_qr_scan"}, "fusion_lon": 0.0}, {"lat": 38.866738166666664, "is_disabled": 0, "type": "electric_scooter", "lon": -76.98535966666667, "bike_id": "f7715026ae47d7256afc1457c038d4af", "fusion_lat": 0.0, "name": "f7715026ae47d7256afc1457c038d4af", "is_reserved": 0, "rental_uris": {"android": "https://dc.lft.to/lastmile_qr_scan", "ios": "https://dc.lft.to/lastmile_qr_scan"}, "fusion_lon": 0.0}, {"lat": 38.95367933333333, "is_disabled": 0, "type": "electric_bike", "lon": -76.979743, "bike_id": "a6b50f14b4a02186d0a7f09e7a09de2d", "fusion_lat": 0.0, "name": "a6b50f14b4a02186d0a7f09e7a09de2d", "is_reserved": 0, "rental_uris": {"android": "https://dc.lft.to/lastmile_qr_scan", "ios": "https://dc.lft.to/lastmile_qr_scan"}, "fusion_lon": 0.0}, {"lat": 38.9087305, "is_disabled": 0, "type": "electric_scooter", "lon": -77.04591883333333, "bike_id": "2e35082401ea0dc8ae67347eec4f2769", "fusion_lat": 0.0, "name": "2e35082401ea0dc8ae67347eec4f2769", "is_reserved": 0, "rental_uris": {"android": "https://dc.lft.to/lastmile_qr_scan", "ios": "https://dc.lft.to/lastmile_qr_scan"}, "fusion_lon": 0.0}, {"lat": 38.836791166666664, "is_disabled": 0, "type": "electric_scooter", "lon": -77.005702, "bike_id": "4ea547a33b5b61490369231a924bf95b", "fusion_lat": 0.0, "name": "4ea547a33b5b61490369231a924bf95b", "is_reserved": 0, "rental_uris": {"android": "https://dc.lft.to/lastmile_qr_scan", "ios": "https://dc.lft.to/lastmile_qr_scan"}, "fusion_lon": 0.0}, {"lat": 38.8700745, "is_disabled": 0, "type": "electric_bike", "lon": -76.9602405, "bike_id": "0651febf6d8d02b9432e0d1d7d3c605b", "fusion_lat": 0.0, "name": "0651febf6d8d02b9432e0d1d7d3c605b", "is_reserved": 0, "rental_uris": {"android": "https://dc.lft.to/lastmile_qr_scan", "ios": "https://dc.lft.to/lastmile_qr_scan"}, "fusion_lon": 0.0}, {"lat": 38.9060945, "is_disabled": 0, "type": "electric_scooter", "lon": -77.0629395, "bike_id": "2ffeb7c444cefe519883c43bcbcc2358", "fusion_lat": 0.0, "name": "2ffeb7c444cefe519883c43bcbcc2358", "is_reserved": 0, "rental_uris": {"android": "https://dc.lft.to/lastmile_qr_scan", "ios": "https://dc.lft.to/lastmile_qr_scan"}, "fusion_lon": 0.0}, {"lat": 38.900696833333335, "is_disabled": 0, "type": "electric_scooter", "lon": -77.0020725, "bike_id": "02f9bcafcdf0fd118eac2990e7f481cf", "fusion_lat": 0.0, "name": "02f9bcafcdf0fd118eac2990e7f481cf", "is_reserved": 0, "rental_uris": {"android": "https://dc.lft.to/lastmile_qr_scan", "ios": "https://dc.lft.to/lastmile_qr_scan"}, "fusion_lon": 0.0}, {"lat": 38.908567833333336, "is_disabled": 0, "type": "electric_scooter", "lon": -77.047655, "bike_id": "d503118effa7ecf69726052a0eec7449", "fusion_lat": 0.0, "name": "d503118effa7ecf69726052a0eec7449", "is_reserved": 0, "rental_uris": {"android": "https://dc.lft.to/lastmile_qr_scan", "ios": "https://dc.lft.to/lastmile_qr_scan"}, "fusion_lon": 0.0}, {"lat": 38.90434366666667, "is_disabled": 0, "type": "electric_scooter", "lon": -77.02889816666666, "bike_id": "d292a263e63fc3a39d91ac117cfc32d9", "fusion_lat": 0.0, "name": "d292a263e63fc3a39d91ac117cfc32d9", "is_reserved": 0, "rental_uris": {"android": "https://dc.lft.to/lastmile_qr_scan", "ios": "https://dc.lft.to/lastmile_qr_scan"}, "fusion_lon": 0.0}, {"lat": 38.90784816666667, "is_disabled": 0, "type": "electric_scooter", "lon": -77.00227566666666, "bike_id": "dcffda6f18f6f849177bee009e323f41", "fusion_lat": 0.0, "name": "dcffda6f18f6f849177bee009e323f41", "is_reserved": 0, "rental_uris": {"android": "https://dc.lft.to/lastmile_qr_scan", "ios": "https://dc.lft.to/lastmile_qr_scan"}, "fusion_lon": 0.0}, {"lat": 38.932955666666665, "is_disabled": 0, "type": "electric_scooter", "lon": -77.02194483333334, "bike_id": "35ccd3f5b8b27cf3bcb046f6ea1e27ad", "fusion_lat": 0.0, "name": "35ccd3f5b8b27cf3bcb046f6ea1e27ad", "is_reserved": 0, "rental_uris": {"android": "https://dc.lft.to/lastmile_qr_scan", "ios": "https://dc.lft.to/lastmile_qr_scan"}, "fusion_lon": 0.0}, {"lat": 38.898907666666666, "is_disabled": 0, "type": "electric_scooter", "lon": -77.072335, "bike_id": "82f196052dace017a08c93aa2e534131", "fusion_lat": 0.0, "name": "82f196052dace017a08c93aa2e534131", "is_reserved": 0, "rental_uris": {"android": "https://dc.lft.to/lastmile_qr_scan", "ios": "https://dc.lft.to/lastmile_qr_scan"}, "fusion_lon": 0.0}, {"lat": 38.87294633333333, "is_disabled": 0, "type": "electric_scooter", "lon": -77.0092245, "bike_id": "a96f9d2d1142a9ca2d088d3088c2d400", "fusion_lat": 0.0, "name": "a96f9d2d1142a9ca2d088d3088c2d400", "is_reserved": 0, "rental_uris": {"android": "https://dc.lft.to/lastmile_qr_scan", "ios": "https://dc.lft.to/lastmile_qr_scan"}, "fusion_lon": 0.0}, {"lat": 38.912574, "is_disabled": 0, "type": "electric_scooter", "lon": -77.04669483333333, "bike_id": "8038e052578e80bd3ee182a9563ad012", "fusion_lat": 0.0, "name": "8038e052578e80bd3ee182a9563ad012", "is_reserved": 0, "rental_uris": {"android": "https://dc.lft.to/lastmile_qr_scan", "ios": "https://dc.lft.to/lastmile_qr_scan"}, "fusion_lon": 0.0}, {"lat": 38.90127833333333, "is_disabled": 0, "type": "electric_scooter", "lon": -77.03326, "bike_id": "fa7ba1fd7b6f910ec9ce637cff797d7b", "fusion_lat": 0.0, "name": "fa7ba1fd7b6f910ec9ce637cff797d7b", "is_reserved": 0, "rental_uris": {"android": "https://dc.lft.to/lastmile_qr_scan", "ios": "https://dc.lft.to/lastmile_qr_scan"}, "fusion_lon": 0.0}, {"lat": 38.901063, "is_disabled": 0, "type": "electric_scooter", "lon": -77.059013, "bike_id": "e92c3e75bf77430549199c30004de503", "fusion_lat": 0.0, "name": "e92c3e75bf77430549199c30004de503", "is_reserved": 0, "rental_uris": {"android": "https://dc.lft.to/lastmile_qr_scan", "ios": "https://dc.lft.to/lastmile_qr_scan"}, "fusion_lon": 0.0}, {"lat": 38.91691866666667, "is_disabled": 0, "type": "electric_scooter", "lon": -77.045917, "bike_id": "b85f0e333cba89edde5d9a63242d125f", "fusion_lat": 0.0, "name": "b85f0e333cba89edde5d9a63242d125f", "is_reserved": 0, "rental_uris": {"android": "https://dc.lft.to/lastmile_qr_scan", "ios": "https://dc.lft.to/lastmile_qr_scan"}, "fusion_lon": 0.0}, {"lat": 38.92300983333333, "is_disabled": 0, "type": "electric_scooter", "lon": -77.023323, "bike_id": "90c9092afe080b00155bd6678dca886c", "fusion_lat": 0.0, "name": "90c9092afe080b00155bd6678dca886c", "is_reserved": 0, "rental_uris": {"android": "https://dc.lft.to/lastmile_qr_scan", "ios": "https://dc.lft.to/lastmile_qr_scan"}, "fusion_lon": 0.0}, {"lat": 38.93975983333333, "is_disabled": 0, "type": "electric_scooter", "lon": -77.026231, "bike_id": "043062343140951682c673780b1b9e4a", "fusion_lat": 0.0, "name": "043062343140951682c673780b1b9e4a", "is_reserved": 0, "rental_uris": {"android": "https://dc.lft.to/lastmile_qr_scan", "ios": "https://dc.lft.to/lastmile_qr_scan"}, "fusion_lon": 0.0}, {"lat": 38.90738266666666, "is_disabled": 0, "type": "electric_scooter", "lon": -77.02952516666667, "bike_id": "d435c46639fd22cb3e6c096913f0da4d", "fusion_lat": 0.0, "name": "d435c46639fd22cb3e6c096913f0da4d", "is_reserved": 0, "rental_uris": {"android": "https://dc.lft.to/lastmile_qr_scan", "ios": "https://dc.lft.to/lastmile_qr_scan"}, "fusion_lon": 0.0}, {"lat": 38.917705, "is_disabled": 0, "type": "electric_scooter", "lon": -77.02307133333333, "bike_id": "0ebe0f6f633c827becedf50b4edeaf8d", "fusion_lat": 0.0, "name": "0ebe0f6f633c827becedf50b4edeaf8d", "is_reserved": 0, "rental_uris": {"android": "https://dc.lft.to/lastmile_qr_scan", "ios": "https://dc.lft.to/lastmile_qr_scan"}, "fusion_lon": 0.0}, {"lat": 38.900925, "is_disabled": 0, "type": "electric_scooter", "lon": -77.003188, "bike_id": "44d9327de8d3603461c522db1cd716af", "fusion_lat": 0.0, "name": "44d9327de8d3603461c522db1cd716af", "is_reserved": 0, "rental_uris": {"android": "https://dc.lft.to/lastmile_qr_scan", "ios": "https://dc.lft.to/lastmile_qr_scan"}, "fusion_lon": 0.0}, {"lat": 38.921565, "is_disabled": 0, "type": "electric_scooter", "lon": -77.03380616666666, "bike_id": "0a9c1696f1b103e271b01f4a34449598", "fusion_lat": 0.0, "name": "0a9c1696f1b103e271b01f4a34449598", "is_reserved": 0, "rental_uris": {"android": "https://dc.lft.to/lastmile_qr_scan", "ios": "https://dc.lft.to/lastmile_qr_scan"}, "fusion_lon": 0.0}, {"lat": 38.90716466666667, "is_disabled": 0, "type": "electric_scooter", "lon": -76.99802466666667, "bike_id": "9adadb0160d0779991e572c793f8a660", "fusion_lat": 0.0, "name": "9adadb0160d0779991e572c793f8a660", "is_reserved": 0, "rental_uris": {"android": "https://dc.lft.to/lastmile_qr_scan", "ios": "https://dc.lft.to/lastmile_qr_scan"}, "fusion_lon": 0.0}, {"lat": 38.86697866666667, "is_disabled": 0, "type": "electric_scooter", "lon": -76.987173, "bike_id": "614bb9a41639fa854017ece1327dd448", "fusion_lat": 0.0, "name": "614bb9a41639fa854017ece1327dd448", "is_reserved": 0, "rental_uris": {"android": "https://dc.lft.to/lastmile_qr_scan", "ios": "https://dc.lft.to/lastmile_qr_scan"}, "fusion_lon": 0.0}, {"lat": 38.917863, "is_disabled": 0, "type": "electric_bike", "lon": -76.971862, "bike_id": "d2c4c1321ea3cf6ad5dd780bb2fb00be", "fusion_lat": 0.0, "name": "d2c4c1321ea3cf6ad5dd780bb2fb00be", "is_reserved": 0, "rental_uris": {"android": "https://dc.lft.to/lastmile_qr_scan", "ios": "https://dc.lft.to/lastmile_qr_scan"}, "fusion_lon": 0.0}, {"lat": 38.90573283333333, "is_disabled": 0, "type": "electric_scooter", "lon": -77.04871133333333, "bike_id": "9c0d9c4143ee9c4d704e0ba60f47b768", "fusion_lat": 0.0, "name": "9c0d9c4143ee9c4d704e0ba60f47b768", "is_reserved": 0, "rental_uris": {"android": "https://dc.lft.to/lastmile_qr_scan", "ios": "https://dc.lft.to/lastmile_qr_scan"}, "fusion_lon": 0.0}, {"lat": 38.861703166666665, "is_disabled": 0, "type": "electric_bike", "lon": -77.13144833333334, "bike_id": "eb24f6866b52104556331ec23f04390f", "fusion_lat": 0.0, "name": "eb24f6866b52104556331ec23f04390f", "is_reserved": 0, "rental_uris": {"android": "https://dc.lft.to/lastmile_qr_scan", "ios": "https://dc.lft.to/lastmile_qr_scan"}, "fusion_lon": 0.0}, {"lat": 38.937069, "is_disabled": 0, "type": "electric_scooter", "lon": -77.06099516666667, "bike_id": "ed5198d0dc973ad63e4ffe31bd7a1f76", "fusion_lat": 0.0, "name": "ed5198d0dc973ad63e4ffe31bd7a1f76", "is_reserved": 0, "rental_uris": {"android": "https://dc.lft.to/lastmile_qr_scan", "ios": "https://dc.lft.to/lastmile_qr_scan"}, "fusion_lon": 0.0}, {"lat": 38.917388333333335, "is_disabled": 0, "type": "electric_scooter", "lon": -77.025182, "bike_id": "4fca32c0f770a280ce206385c10923b9", "fusion_lat": 0.0, "name": "4fca32c0f770a280ce206385c10923b9", "is_reserved": 0, "rental_uris": {"android": "https://dc.lft.to/lastmile_qr_scan", "ios": "https://dc.lft.to/lastmile_qr_scan"}, "fusion_lon": 0.0}, {"lat": 38.92149666666667, "is_disabled": 0, "type": "electric_scooter", "lon": -77.03872966666667, "bike_id": "839e18d07b12da494893bae8be8f5531", "fusion_lat": 0.0, "name": "839e18d07b12da494893bae8be8f5531", "is_reserved": 0, "rental_uris": {"android": "https://dc.lft.to/lastmile_qr_scan", "ios": "https://dc.lft.to/lastmile_qr_scan"}, "fusion_lon": 0.0}, {"lat": 38.8985195, "is_disabled": 0, "type": "electric_bike", "lon": -76.93189233333334, "bike_id": "53a8c278a2a4cae8ffcb52f881cebccc", "fusion_lat": 0.0, "name": "53a8c278a2a4cae8ffcb52f881cebccc", "is_reserved": 0, "rental_uris": {"android": "https://dc.lft.to/lastmile_qr_scan", "ios": "https://dc.lft.to/lastmile_qr_scan"}, "fusion_lon": 0.0}, {"lat": 38.915189, "is_disabled": 0, "type": "electric_scooter", "lon": -77.03844833333333, "bike_id": "df65b7f0143505ee0481451a17c1162c", "fusion_lat": 0.0, "name": "df65b7f0143505ee0481451a17c1162c", "is_reserved": 0, "rental_uris": {"android": "https://dc.lft.to/lastmile_qr_scan", "ios": "https://dc.lft.to/lastmile_qr_scan"}, "fusion_lon": 0.0}, {"lat": 38.92773916666667, "is_disabled": 0, "type": "electric_scooter", "lon": -77.052582, "bike_id": "c44d61fe64dfe31035f72ee923ba798f", "fusion_lat": 0.0, "name": "c44d61fe64dfe31035f72ee923ba798f", "is_reserved": 0, "rental_uris": {"android": "https://dc.lft.to/lastmile_qr_scan", "ios": "https://dc.lft.to/lastmile_qr_scan"}, "fusion_lon": 0.0}, {"lat": 38.896094166666664, "is_disabled": 0, "type": "electric_scooter", "lon": -77.009286, "bike_id": "2e5fca56ef09c733e27330290f8b9a41", "fusion_lat": 0.0, "name": "2e5fca56ef09c733e27330290f8b9a41", "is_reserved": 0, "rental_uris": {"android": "https://dc.lft.to/lastmile_qr_scan", "ios": "https://dc.lft.to/lastmile_qr_scan"}, "fusion_lon": 0.0}, {"lat": 38.91761266666666, "is_disabled": 0, "type": "electric_scooter", "lon": -77.03659916666666, "bike_id": "3497f2e029e2bb152759c032f94bca7a", "fusion_lat": 0.0, "name": "3497f2e029e2bb152759c032f94bca7a", "is_reserved": 0, "rental_uris": {"android": "https://dc.lft.to/lastmile_qr_scan", "ios": "https://dc.lft.to/lastmile_qr_scan"}, "fusion_lon": 0.0}, {"lat": 38.933822166666666, "is_disabled": 0, "type": "electric_scooter", "lon": -76.99513383333333, "bike_id": "4ce2420739e31f92e4805f1df8be7245", "fusion_lat": 0.0, "name": "4ce2420739e31f92e4805f1df8be7245", "is_reserved": 0, "rental_uris": {"android": "https://dc.lft.to/lastmile_qr_scan", "ios": "https://dc.lft.to/lastmile_qr_scan"}, "fusion_lon": 0.0}, {"lat": 38.931165, "is_disabled": 0, "type": "electric_scooter", "lon": -77.03021, "bike_id": "16157ac69d7b3b7baa087559825f9df6", "fusion_lat": 0.0, "name": "16157ac69d7b3b7baa087559825f9df6", "is_reserved": 0, "rental_uris": {"android": "https://dc.lft.to/lastmile_qr_scan", "ios": "https://dc.lft.to/lastmile_qr_scan"}, "fusion_lon": 0.0}, {"lat": 38.935715, "is_disabled": 0, "type": "electric_scooter", "lon": -77.032633, "bike_id": "7b4ee52ce8bda49d15c8ca05d09d73fb", "fusion_lat": 0.0, "name": "7b4ee52ce8bda49d15c8ca05d09d73fb", "is_reserved": 0, "rental_uris": {"android": "https://dc.lft.to/lastmile_qr_scan", "ios": "https://dc.lft.to/lastmile_qr_scan"}, "fusion_lon": 0.0}, {"lat": 38.905613333333335, "is_disabled": 0, "type": "electric_scooter", "lon": -77.03623366666666, "bike_id": "1ce26cb5698d7c14cde68deb84300ff2", "fusion_lat": 0.0, "name": "1ce26cb5698d7c14cde68deb84300ff2", "is_reserved": 0, "rental_uris": {"android": "https://dc.lft.to/lastmile_qr_scan", "ios": "https://dc.lft.to/lastmile_qr_scan"}, "fusion_lon": 0.0}, {"lat": 38.915325833333334, "is_disabled": 0, "type": "electric_scooter", "lon": -77.03210216666666, "bike_id": "006799ae43d96693810a6939b6089e46", "fusion_lat": 0.0, "name": "006799ae43d96693810a6939b6089e46", "is_reserved": 0, "rental_uris": {"android": "https://dc.lft.to/lastmile_qr_scan", "ios": "https://dc.lft.to/lastmile_qr_scan"}, "fusion_lon": 0.0}, {"lat": 38.899049166666664, "is_disabled": 0, "type": "electric_scooter", "lon": -76.93354016666666, "bike_id": "d05d8d8329572ca73b66a91d0d508569", "fusion_lat": 0.0, "name": "d05d8d8329572ca73b66a91d0d508569", "is_reserved": 0, "rental_uris": {"android": "https://dc.lft.to/lastmile_qr_scan", "ios": "https://dc.lft.to/lastmile_qr_scan"}, "fusion_lon": 0.0}, {"lat": 38.93060033333333, "is_disabled": 0, "type": "electric_scooter", "lon": -77.04179816666667, "bike_id": "1f65bc6cd1bebe4e4632541acec614d0", "fusion_lat": 0.0, "name": "1f65bc6cd1bebe4e4632541acec614d0", "is_reserved": 0, "rental_uris": {"android": "https://dc.lft.to/lastmile_qr_scan", "ios": "https://dc.lft.to/lastmile_qr_scan"}, "fusion_lon": 0.0}, {"lat": 38.90051416666667, "is_disabled": 0, "type": "electric_scooter", "lon": -76.99373066666666, "bike_id": "71d94456de7772c42362f8acb74b1cf5", "fusion_lat": 0.0, "name": "71d94456de7772c42362f8acb74b1cf5", "is_reserved": 0, "rental_uris": {"android": "https://dc.lft.to/lastmile_qr_scan", "ios": "https://dc.lft.to/lastmile_qr_scan"}, "fusion_lon": 0.0}, {"lat": 38.908558, "is_disabled": 0, "type": "electric_scooter", "lon": -76.99163983333334, "bike_id": "9d866c6ce286aee2ba29df428ee8520b", "fusion_lat": 0.0, "name": "9d866c6ce286aee2ba29df428ee8520b", "is_reserved": 0, "rental_uris": {"android": "https://dc.lft.to/lastmile_qr_scan", "ios": "https://dc.lft.to/lastmile_qr_scan"}, "fusion_lon": 0.0}, {"lat": 38.906253666666665, "is_disabled": 0, "type": "electric_scooter", "lon": -76.9898075, "bike_id": "83f69ecdadaa06f57b29e969c6aa05e6", "fusion_lat": 0.0, "name": "83f69ecdadaa06f57b29e969c6aa05e6", "is_reserved": 0, "rental_uris": {"android": "https://dc.lft.to/lastmile_qr_scan", "ios": "https://dc.lft.to/lastmile_qr_scan"}, "fusion_lon": 0.0}, {"lat": 38.9196525, "is_disabled": 0, "type": "electric_scooter", "lon": -77.04286066666667, "bike_id": "453db080743fca92bb2a9c3f90c37859", "fusion_lat": 0.0, "name": "453db080743fca92bb2a9c3f90c37859", "is_reserved": 0, "rental_uris": {"android": "https://dc.lft.to/lastmile_qr_scan", "ios": "https://dc.lft.to/lastmile_qr_scan"}, "fusion_lon": 0.0}, {"lat": 38.92747, "is_disabled": 0, "type": "electric_scooter", "lon": -77.025337, "bike_id": "7287a1db35506b88f879640122202450", "fusion_lat": 0.0, "name": "7287a1db35506b88f879640122202450", "is_reserved": 0, "rental_uris": {"android": "https://dc.lft.to/lastmile_qr_scan", "ios": "https://dc.lft.to/lastmile_qr_scan"}, "fusion_lon": 0.0}, {"lat": 38.891284166666665, "is_disabled": 0, "type": "electric_scooter", "lon": -76.943871, "bike_id": "eead2d03c047eb68ea958e549d7ebe50", "fusion_lat": 0.0, "name": "eead2d03c047eb68ea958e549d7ebe50", "is_reserved": 0, "rental_uris": {"android": "https://dc.lft.to/lastmile_qr_scan", "ios": "https://dc.lft.to/lastmile_qr_scan"}, "fusion_lon": 0.0}, {"lat": 38.91101533333333, "is_disabled": 0, "type": "electric_scooter", "lon": -77.04227433333334, "bike_id": "84aaee9bc192acdba315675a755adf24", "fusion_lat": 0.0, "name": "84aaee9bc192acdba315675a755adf24", "is_reserved": 0, "rental_uris": {"android": "https://dc.lft.to/lastmile_qr_scan", "ios": "https://dc.lft.to/lastmile_qr_scan"}, "fusion_lon": 0.0}, {"lat": 38.895078166666664, "is_disabled": 0, "type": "electric_scooter", "lon": -77.028348, "bike_id": "20fb5ae8c5f8fd974a000692162db7a3", "fusion_lat": 0.0, "name": "20fb5ae8c5f8fd974a000692162db7a3", "is_reserved": 0, "rental_uris": {"android": "https://dc.lft.to/lastmile_qr_scan", "ios": "https://dc.lft.to/lastmile_qr_scan"}, "fusion_lon": 0.0}, {"lat": 38.8590555, "is_disabled": 0, "type": "electric_scooter", "lon": -76.99150716666666, "bike_id": "874ecf283a18ab3e390565435a23943d", "fusion_lat": 0.0, "name": "874ecf283a18ab3e390565435a23943d", "is_reserved": 0, "rental_uris": {"android": "https://dc.lft.to/lastmile_qr_scan", "ios": "https://dc.lft.to/lastmile_qr_scan"}, "fusion_lon": 0.0}, {"lat": 38.947406666666666, "is_disabled": 0, "type": "electric_scooter", "lon": -77.06522033333333, "bike_id": "fa18dc9a77e03a606a4c1f5eae6cb63f", "fusion_lat": 0.0, "name": "fa18dc9a77e03a606a4c1f5eae6cb63f", "is_reserved": 0, "rental_uris": {"android": "https://dc.lft.to/lastmile_qr_scan", "ios": "https://dc.lft.to/lastmile_qr_scan"}, "fusion_lon": 0.0}, {"lat": 38.8664585, "is_disabled": 0, "type": "electric_scooter", "lon": -76.98883033333334, "bike_id": "e899a463bffd6610771d9b746d50de8d", "fusion_lat": 0.0, "name": "e899a463bffd6610771d9b746d50de8d", "is_reserved": 0, "rental_uris": {"android": "https://dc.lft.to/lastmile_qr_scan", "ios": "https://dc.lft.to/lastmile_qr_scan"}, "fusion_lon": 0.0}, {"lat": 38.90030083333333, "is_disabled": 0, "type": "electric_scooter", "lon": -76.997338, "bike_id": "37a1290f45d7975c837f79ff59a6cfb7", "fusion_lat": 0.0, "name": "37a1290f45d7975c837f79ff59a6cfb7", "is_reserved": 0, "rental_uris": {"android": "https://dc.lft.to/lastmile_qr_scan", "ios": "https://dc.lft.to/lastmile_qr_scan"}, "fusion_lon": 0.0}, {"lat": 38.92329566666667, "is_disabled": 0, "type": "electric_scooter", "lon": -77.03576166666667, "bike_id": "fc8d10b2d37aeca13df4a6bcaaba9b83", "fusion_lat": 0.0, "name": "fc8d10b2d37aeca13df4a6bcaaba9b83", "is_reserved": 0, "rental_uris": {"android": "https://dc.lft.to/lastmile_qr_scan", "ios": "https://dc.lft.to/lastmile_qr_scan"}, "fusion_lon": 0.0}, {"lat": 38.8951255, "is_disabled": 0, "type": "electric_scooter", "lon": -76.94899216666667, "bike_id": "365af355cdd8794fe215c8d34094ba11", "fusion_lat": 0.0, "name": "365af355cdd8794fe215c8d34094ba11", "is_reserved": 0, "rental_uris": {"android": "https://dc.lft.to/lastmile_qr_scan", "ios": "https://dc.lft.to/lastmile_qr_scan"}, "fusion_lon": 0.0}, {"lat": 38.910093, "is_disabled": 0, "type": "electric_scooter", "lon": -77.02690433333333, "bike_id": "68f2e5e786ddd9cb0da6cfd2368e03f4", "fusion_lat": 0.0, "name": "68f2e5e786ddd9cb0da6cfd2368e03f4", "is_reserved": 0, "rental_uris": {"android": "https://dc.lft.to/lastmile_qr_scan", "ios": "https://dc.lft.to/lastmile_qr_scan"}, "fusion_lon": 0.0}, {"lat": 38.913000833333335, "is_disabled": 0, "type": "electric_scooter", "lon": -77.04014033333333, "bike_id": "b0f7fc35842d440424d902bde3c413eb", "fusion_lat": 0.0, "name": "b0f7fc35842d440424d902bde3c413eb", "is_reserved": 0, "rental_uris": {"android": "https://dc.lft.to/lastmile_qr_scan", "ios": "https://dc.lft.to/lastmile_qr_scan"}, "fusion_lon": 0.0}, {"lat": 38.91706683333334, "is_disabled": 0, "type": "electric_scooter", "lon": -77.0347085, "bike_id": "9c40b1d4b8cd3af78229492fdd1dbee0", "fusion_lat": 0.0, "name": "9c40b1d4b8cd3af78229492fdd1dbee0", "is_reserved": 0, "rental_uris": {"android": "https://dc.lft.to/lastmile_qr_scan", "ios": "https://dc.lft.to/lastmile_qr_scan"}, "fusion_lon": 0.0}, {"lat": 38.9708915, "is_disabled": 0, "type": "electric_bike", "lon": -77.0696435, "bike_id": "e540956e907a462353a2c519de842874", "fusion_lat": 0.0, "name": "e540956e907a462353a2c519de842874", "is_reserved": 0, "rental_uris": {"android": "https://dc.lft.to/lastmile_qr_scan", "ios": "https://dc.lft.to/lastmile_qr_scan"}, "fusion_lon": 0.0}, {"lat": 38.926739833333336, "is_disabled": 0, "type": "electric_scooter", "lon": -77.02859733333334, "bike_id": "16f0a032d50805754fb5f611ef6bee97", "fusion_lat": 0.0, "name": "16f0a032d50805754fb5f611ef6bee97", "is_reserved": 0, "rental_uris": {"android": "https://dc.lft.to/lastmile_qr_scan", "ios": "https://dc.lft.to/lastmile_qr_scan"}, "fusion_lon": 0.0}, {"lat": 38.852066666666666, "is_disabled": 0, "type": "electric_bike", "lon": -77.1012525, "bike_id": "c7d152fbf74253ed4749c38c221188cd", "fusion_lat": 0.0, "name": "c7d152fbf74253ed4749c38c221188cd", "is_reserved": 0, "rental_uris": {"android": "https://dc.lft.to/lastmile_qr_scan", "ios": "https://dc.lft.to/lastmile_qr_scan"}, "fusion_lon": 0.0}, {"lat": 38.91999883333333, "is_disabled": 0, "type": "electric_scooter", "lon": -77.02392916666666, "bike_id": "4802916fd32f3eb16f7f18185eff0f99", "fusion_lat": 0.0, "name": "4802916fd32f3eb16f7f18185eff0f99", "is_reserved": 0, "rental_uris": {"android": "https://dc.lft.to/lastmile_qr_scan", "ios": "https://dc.lft.to/lastmile_qr_scan"}, "fusion_lon": 0.0}, {"lat": 38.90431683333333, "is_disabled": 0, "type": "electric_scooter", "lon": -77.02508233333333, "bike_id": "f2100134798b5c271413a66bc8e0b52c", "fusion_lat": 0.0, "name": "f2100134798b5c271413a66bc8e0b52c", "is_reserved": 0, "rental_uris": {"android": "https://dc.lft.to/lastmile_qr_scan", "ios": "https://dc.lft.to/lastmile_qr_scan"}, "fusion_lon": 0.0}, {"lat": 38.88403183333333, "is_disabled": 0, "type": "electric_bike", "lon": -76.96059983333333, "bike_id": "1708e9a6118de04504d2f9e4ddf328b0", "fusion_lat": 0.0, "name": "1708e9a6118de04504d2f9e4ddf328b0", "is_reserved": 0, "rental_uris": {"android": "https://dc.lft.to/lastmile_qr_scan", "ios": "https://dc.lft.to/lastmile_qr_scan"}, "fusion_lon": 0.0}, {"lat": 38.92403916666667, "is_disabled": 0, "type": "electric_scooter", "lon": -77.05248983333334, "bike_id": "e7ad2ca1a57a48104413a3bcac6424ea", "fusion_lat": 0.0, "name": "e7ad2ca1a57a48104413a3bcac6424ea", "is_reserved": 0, "rental_uris": {"android": "https://dc.lft.to/lastmile_qr_scan", "ios": "https://dc.lft.to/lastmile_qr_scan"}, "fusion_lon": 0.0}, {"lat": 38.8810915, "is_disabled": 0, "type": "electric_scooter", "lon": -77.01647816666667, "bike_id": "95501b339c9438cff94262a0e6bdf1a7", "fusion_lat": 0.0, "name": "95501b339c9438cff94262a0e6bdf1a7", "is_reserved": 0, "rental_uris": {"android": "https://dc.lft.to/lastmile_qr_scan", "ios": "https://dc.lft.to/lastmile_qr_scan"}, "fusion_lon": 0.0},