{"data": {"bikes": [{"lat": 38.883707, "lon": -77.019584, "is_disabled": 0, "fusion_lon": 0.0, "is_reserved": 0, "name": "94b765249958a1edf497e9b575f7ee77", "type": "electric_scooter", "bike_id": "94b765249958a1edf497e9b575f7ee77", "rental_uris": {"ios": "https://dc.lft.to/lastmile_qr_scan", "android": "https://dc.lft.to/lastmile_qr_scan"}, "fusion_lat": 0.0}, {"lat": 38.8776555, "lon": -77.0104845, "is_disabled": 0, "fusion_lon": 0.0, "is_reserved": 0, "name": "4e0c851a09af9ff522a97589533cdf58", "type": "electric_bike", "bike_id": "4e0c851a09af9ff522a97589533cdf58", "rental_uris": {"ios": "https://dc.lft.to/lastmile_qr_scan", "android": "https://dc.lft.to/lastmile_qr_scan"}, "fusion_lat": 0.0}, {"lat": 38.91705233333333, "lon": -77.04027366666666, "is_disabled": 0, "fusion_lon": 0.0, "is_reserved": 0, "name": "8e4592f041c5c165bb8bcd349852ac3a", "type": "electric_scooter", "bike_id": "8e4592f041c5c165bb8bcd349852ac3a", "rental_uris": {"ios": "https://dc.lft.to/lastmile_qr_scan", "android": "https://dc.lft.to/lastmile_qr_scan"}, "fusion_lat": 0.0}, {"lat": 38.907786, "lon": -77.04508866666667, "is_disabled": 0, "fusion_lon": 0.0, "is_reserved": 0, "name": "e83ee45d6e5862bc9d84f2065251e7a7", "type": "electric_scooter", "bike_id": "e83ee45d6e5862bc9d84f2065251e7a7", "rental_uris": {"ios": "https://dc.lft.to/lastmile_qr_scan", "android": "https://dc.lft.to/lastmile_qr_scan"}, "fusion_lat": 0.0}, {"lat": 38.877916166666665, "lon": -76.9994095, "is_disabled": 0, "fusion_lon": 0.0, "is_reserved": 0, "name": "317eee8c947c1a23cac5b874ed6104ba", "type": "electric_scooter", "bike_id": "317eee8c947c1a23cac5b874ed6104ba", "rental_uris": {"ios": "https://dc.lft.to/lastmile_qr_scan", "android": "https://dc.lft.to/lastmile_qr_scan"}, "fusion_lat": 0.0}, {"lat": 38.91928516666667, "lon": -77.03418033333334, "is_disabled": 0, "fusion_lon": 0.0, "is_reserved": 0, "name": "4046c9805f12fb8ee8229a54caa05cd9", "type": "electric_scooter", "bike_id": "4046c9805f12fb8ee8229a54caa05cd9", "rental_uris": {"ios": "https://dc.lft.to/lastmile_qr_scan", "android": "https://dc.lft.to/lastmile_qr_scan"}, "fusion_lat": 0.0}, {"lat": 38.9018795, "lon": -77.050791, "is_disabled": 0, "fusion_lon": 0.0, "is_reserved": 0, "name": "c89c8fb5a2ca40e4264620b8d9817d06", "type": "electric_scooter", "bike_id": "c89c8fb5a2ca40e4264620b8d9817d06", "rental_uris": {"ios": "https://dc.lft.to/lastmile_qr_scan", "android": "https://dc.lft.to/lastmile_qr_scan"}, "fusion_lat": 0.0}, {"lat": 38.923459333333334, "lon": -77.0516925, "is_disabled": 0, "fusion_lon": 0.0, "is_reserved": 0, "name": "89e87436ff9959bd30a8729e15c22adf", "type": "electric_scooter", "bike_id": "89e87436ff9959bd30a8729e15c22adf", "rental_uris": {"ios": "https://dc.lft.to/lastmile_qr_scan", "android": "https://dc.lft.to/lastmile_qr_scan"}, "fusion_lat": 0.0}, {"lat": 38.930796, "lon": -77.02795583333334, "is_disabled": 0, "fusion_lon": 0.0, "is_reserved": 0, "name": "bd544f8e764911a273c51673f0c04c14", "type": "electric_scooter", "bike_id": "bd544f8e764911a273c51673f0c04c14", "rental_uris": {"ios": "https://dc.lft.to/lastmile_qr_scan", "android": "https://dc.lft.to/lastmile_qr_scan"}, "fusion_lat": 0.0}, {"lat": 38.837561, "lon": -77.09301016666667, "is_disabled": 0, "fusion_lon": 0.0, "is_reserved": 0, "name": "262825a20f63fb5ca86de90268b579bd", "type": "electric_bike", "bike_id": "262825a20f63fb5ca86de90268b579bd", "rental_uris": {"ios": "https://dc.lft.to/lastmile_qr_scan", "android": "https://dc.lft.to/lastmile_qr_scan"}, "fusion_lat": 0.0}, {"lat": 38.97888, "lon": -77.06035866666667, "is_disabled": 0, "fusion_lon": 0.0, "is_reserved": 0, "name": "5a58278aea1448479f614b2ccf445531", "type": "electric_bike", "bike_id": "5a58278aea1448479f614b2ccf445531", "rental_uris": {"ios": "https://dc.lft.to/lastmile_qr_scan", "android": "https://dc.lft.to/lastmile_qr_scan"}, "fusion_lat": 0.0}, {"lat": 38.920452, "lon": -77.02575183333333, "is_disabled": 0, "fusion_lon": 0.0, "is_reserved": 0, "name": "d2227e970b2f961dae98870239d197b4", "type": "electric_scooter", "bike_id": "d2227e970b2f961dae98870239d197b4", "rental_uris": {"ios": "https://dc.lft.to/lastmile_qr_scan", "android": "https://dc.lft.to/lastmile_qr_scan"}, "fusion_lat": 0.0}, {"lat": 38.91697683333334, "lon": -77.0286885, "is_disabled": 0, "fusion_lon": 0.0, "is_reserved": 0, "name": "a99061d36c518f6b8dec4db8443298c8", "type": "electric_scooter", "bike_id": "a99061d36c518f6b8dec4db8443298c8", "rental_uris": {"ios": "https://dc.lft.to/lastmile_qr_scan", "android": "https://dc.lft.to/lastmile_qr_scan"}, "fusion_lat": 0.0}, {"lat": 38.92395116666667, "lon": -77.02655533333333, "is_disabled": 0, "fusion_lon": 0.0, "is_reserved": 0, "name": "ad20af594c097df34b3969c2363fd0cf", "type": "electric_scooter", "bike_id": "ad20af594c097df34b3969c2363fd0cf", "rental_uris": {"ios": "https://dc.lft.to/lastmile_qr_scan", "android": "https://dc.lft.to/lastmile_qr_scan"}, "fusion_lat": 0.0}, {"lat": 38.91344816666667, "lon": -77.0399605, "is_disabled": 0, "fusion_lon": 0.0, "is_reserved": 0, "name": "9558cd8047b253eac98748a5fce9daf9", "type": "electric_scooter", "bike_id": "9558cd8047b253eac98748a5fce9daf9", "rental_uris": {"ios": "https://dc.lft.to/lastmile_qr_scan", "android": "https://dc.lft.to/lastmile_qr_scan"}, "fusion_lat": 0.0}, {"lat": 38.92599516666667, "lon": -77.03213466666666, "is_disabled": 0, "fusion_lon": 0.0, "is_reserved": 0, "name": "c3c235a518b1c43154818e526f914042", "type": "electric_scooter", "bike_id": "c3c235a518b1c43154818e526f914042", "rental_uris": {"ios": "https://dc.lft.to/lastmile_qr_scan", "android": "https://dc.lft.to/lastmile_qr_scan"}, "fusion_lat": 0.0}, {"lat": 38.9126945, "lon": -77.04706933333334, "is_disabled": 0, "fusion_lon": 0.0, "is_reserved": 0, "name": "fb0127560a5f6868167ce8cab0cad057", "type": "electric_scooter", "bike_id": "fb0127560a5f6868167ce8cab0cad057", "rental_uris": {"ios": "https://dc.lft.to/lastmile_qr_scan", "android": "https://dc.lft.to/lastmile_qr_scan"}, "fusion_lat": 0.0}, {"lat": 38.9124275, "lon": -77.03837283333333, "is_disabled": 0, "fusion_lon": 0.0, "is_reserved": 0, "name": "7be11c6c089abbb0f9c2d3eccd334780", "type": "electric_scooter", "bike_id": "7be11c6c089abbb0f9c2d3eccd334780", "rental_uris": {"ios": "https://dc.lft.to/lastmile_qr_scan", "android": "https://dc.lft.to/lastmile_qr_scan"}, "fusion_lat": 0.0}, {"lat": 38.90473016666667, "lon": -77.01869916666666, "is_disabled": 0, "fusion_lon": 0.0, "is_reserved": 0, "name": "7c9df5f9e46d4f31f1c413e776573d92", "type": "electric_scooter", "bike_id": "7c9df5f9e46d4f31f1c413e776573d92", "rental_uris": {"ios": "https://dc.lft.to/lastmile_qr_scan", "android": "https://dc.lft.to/lastmile_qr_scan"}, "fusion_lat": 0.0}, {"lat": 38.90676216666667, "lon": -77.03643416666667, "is_disabled": 0, "fusion_lon": 0.0, "is_reserved": 0, "name": "ea4adaa01938a1f45f029488af2779cd", "type": "electric_scooter", "bike_id": "ea4adaa01938a1f45f029488af2779cd", "rental_uris": {"ios": "https://dc.lft.to/lastmile_qr_scan", "android": "https://dc.lft.to/lastmile_qr_scan"}, "fusion_lat": 0.0}, {"lat": 38.92120233333333, "lon": -77.02688533333334, "is_disabled": 0, "fusion_lon": 0.0, "is_reserved": 0, "name": "fa223a9769760b317f71137ce4d9921e", "type": "electric_scooter", "bike_id": "fa223a9769760b317f71137ce4d9921e", "rental_uris": {"ios": "https://dc.lft.to/lastmile_qr_scan", "android": "https://dc.lft.to/lastmile_qr_scan"}, "fusion_lat": 0.0}, {"lat": 38.93679066666667, "lon": -77.03628783333333, "is_disabled": 0, "fusion_lon": 0.0, "is_reserved": 0, "name": "16e00aabc271024fb6e444dc037dac06", "type": "electric_scooter", "bike_id": "16e00aabc271024fb6e444dc037dac06", "rental_uris": {"ios": "https://dc.lft.to/lastmile_qr_scan", "android": "https://dc.lft.to/lastmile_qr_scan"}, "fusion_lat": 0.0}, {"lat": 38.916368, "lon": -77.05067683333333, "is_disabled": 0, "fusion_lon": 0.0, "is_reserved": 0, "name": "24014ce606c95cc4d4517c08a0d88c07", "type": "electric_scooter", "bike_id": "24014ce606c95cc4d4517c08a0d88c07", "rental_uris": {"ios": "https://dc.lft.to/lastmile_qr_scan", "android": "https://dc.lft.to/lastmile_qr_scan"}, "fusion_lat": 0.0}, {"lat": 38.920191833333334, "lon": -77.0440065, "is_disabled": 0, "fusion_lon": 0.0, "is_reserved": 0, "name": "4fd1af1d2f0c7b4e2bbc385869bc16fe", "type": "electric_scooter", "bike_id": "4fd1af1d2f0c7b4e2bbc385869bc16fe", "rental_uris": {"ios": "https://dc.lft.to/lastmile_qr_scan", "android": "https://dc.lft.to/lastmile_qr_scan"}, "fusion_lat": 0.0}, {"lat": 38.9240865, "lon": -77.02543433333334, "is_disabled": 0, "fusion_lon": 0.0, "is_reserved": 0, "name": "35e5e2f7a7af76d7ac01b4133ae06b10", "type": "electric_scooter", "bike_id": "35e5e2f7a7af76d7ac01b4133ae06b10", "rental_uris": {"ios": "https://dc.lft.to/lastmile_qr_scan", "android": "https://dc.lft.to/lastmile_qr_scan"}, "fusion_lat": 0.0}, {"lat": 38.857690166666664, "lon": -76.98759616666666, "is_disabled": 0, "fusion_lon": 0.0, "is_reserved": 0, "name": "edb4b9caefbf7b1345b02a8f5dbb1974", "type": "electric_bike", "bike_id": "edb4b9caefbf7b1345b02a8f5dbb1974", "rental_uris": {"ios": "https://dc.lft.to/lastmile_qr_scan", "android": "https://dc.lft.to/lastmile_qr_scan"}, "fusion_lat": 0.0}, {"lat": 38.91272516666667, "lon": -77.03141266666667, "is_disabled": 0, "fusion_lon": 0.0, "is_reserved": 0, "name": "9f6f45ff5754daa748ce862ea70c3c21", "type": "electric_scooter", "bike_id": "9f6f45ff5754daa748ce862ea70c3c21", "rental_uris": {"ios": "https://dc.lft.to/lastmile_qr_scan", "android": "https://dc.lft.to/lastmile_qr_scan"}, "fusion_lat": 0.0}, {"lat": 38.887495, "lon": -77.02773066666667, "is_disabled": 0, "fusion_lon": 0.0, "is_reserved": 0, "name": "3cfeb176e09b7fc5b83c43bfa3cffb15", "type": "electric_scooter", "bike_id": "3cfeb176e09b7fc5b83c43bfa3cffb15", "rental_uris": {"ios": "https://dc.lft.to/lastmile_qr_scan", "android": "https://dc.lft.to/lastmile_qr_scan"}, "fusion_lat": 0.0}, {"lat": 38.93603566666667, "lon": -77.037825, "is_disabled": 0, "fusion_lon": 0.0, "is_reserved": 0, "name": "134c711c23588ef045263b8783e40fc8", "type": "electric_scooter", "bike_id": "134c711c23588ef045263b8783e40fc8", "rental_uris": {"ios": "https://dc.lft.to/lastmile_qr_scan", "android": "https://dc.lft.to/lastmile_qr_scan"}, "fusion_lat": 0.0}, {"lat": 38.905271, "lon": -77.050558, "is_disabled": 0, "fusion_lon": 0.0, "is_reserved": 0, "name": "b5e4fb53685859ac67f8508d8214bc68", "type": "electric_scooter", "bike_id": "b5e4fb53685859ac67f8508d8214bc68", "rental_uris": {"ios": "https://dc.lft.to/lastmile_qr_scan", "android": "https://dc.lft.to/lastmile_qr_scan"}, "fusion_lat": 0.0}, {"lat": 38.90732916666666, "lon": -77.00756166666666, "is_disabled": 0, "fusion_lon": 0.0, "is_reserved": 0, "name": "90006e2789ad3c77420d717c84116112", "type": "electric_scooter", "bike_id": "90006e2789ad3c77420d717c84116112", "rental_uris": {"ios": "https://dc.lft.to/lastmile_qr_scan", "android": "https://dc.lft.to/lastmile_qr_scan"}, "fusion_lat": 0.0}, {"lat": 38.92885366666667, "lon": -77.037358, "is_disabled": 0, "fusion_lon": 0.0, "is_reserved": 0, "name": "081e79d108aef2b77080d82b6b93d5f7", "type": "electric_scooter", "bike_id": "081e79d108aef2b77080d82b6b93d5f7", "rental_uris": {"ios": "https://dc.lft.to/lastmile_qr_scan", "android": "https://dc.lft.to/lastmile_qr_scan"}, "fusion_lat": 0.0}, {"lat": 38.93679983333333, "lon": -77.036314, "is_disabled": 0, "fusion_lon": 0.0, "is_reserved": 0, "name": "d30dfcfe1efd8a67c79f3d5ef136031c", "type": "electric_scooter", "bike_id": "d30dfcfe1efd8a67c79f3d5ef136031c", "rental_uris": {"ios": "https://dc.lft.to/lastmile_qr_scan", "android": "https://dc.lft.to/lastmile_qr_scan"}, "fusion_lat": 0.0}, {"lat": 38.8996505, "lon": -77.02457433333333, "is_disabled": 0, "fusion_lon": 0.0, "is_reserved": 0, "name": "b78796d02284db5103d63af3e2dd825e", "type": "electric_scooter", "bike_id": "b78796d02284db5103d63af3e2dd825e", "rental_uris": {"ios": "https://dc.lft.to/lastmile_qr_scan", "android": "https://dc.lft.to/lastmile_qr_scan"}, "fusion_lat": 0.0}, {"lat": 38.913896333333334, "lon": -76.984149, "is_disabled": 0, "fusion_lon": 0.0, "is_reserved": 0, "name": "d0797966dcfa929fc2801ee71bf49031", "type": "electric_scooter", "bike_id": "d0797966dcfa929fc2801ee71bf49031", "rental_uris": {"ios": "https://dc.lft.to/lastmile_qr_scan", "android": "https://dc.lft.to/lastmile_qr_scan"}, "fusion_lat": 0.0}, {"lat": 38.9242125, "lon": -76.997358, "is_disabled": 0, "fusion_lon": 0.0, "is_reserved": 0, "name": "1a1fe9539755ad664f88df197c2a3515", "type": "electric_scooter", "bike_id": "1a1fe9539755ad664f88df197c2a3515", "rental_uris": {"ios": "https://dc.lft.to/lastmile_qr_scan", "android": "https://dc.lft.to/lastmile_qr_scan"}, "fusion_lat": 0.0}, {"lat": 38.9735495, "lon": -77.027883, "is_disabled": 0, "fusion_lon": 0.0, "is_reserved": 0, "name": "d8852709883f312a06bb90f00ebe9e47", "type": "electric_scooter", "bike_id": "d8852709883f312a06bb90f00ebe9e47", "rental_uris": {"ios": "https://dc.lft.to/lastmile_qr_scan", "android": "https://dc.lft.to/lastmile_qr_scan"}, "fusion_lat": 0.0}, {"lat": 38.90972716666667, "lon": -77.05186516666667, "is_disabled": 0, "fusion_lon": 0.0, "is_reserved": 0, "name": "ec1b6d1d40b06d934d38838d6ea46efd", "type": "electric_scooter", "bike_id": "ec1b6d1d40b06d934d38838d6ea46efd", "rental_uris": {"ios": "https://dc.lft.to/lastmile_qr_scan", "android": "https://dc.lft.to/lastmile_qr_scan"}, "fusion_lat": 0.0}, {"lat": 38.86394683333333, "lon": -77.20110616666666, "is_disabled": 0, "fusion_lon": 0.0, "is_reserved": 0, "name": "94184c8d191b59637683043174243cdf", "type": "electric_bike", "bike_id": "94184c8d191b59637683043174243cdf", "rental_uris": {"ios": "https://dc.lft.to/lastmile_qr_scan", "android": "https://dc.lft.to/lastmile_qr_scan"}, "fusion_lat": 0.0}, {"lat": 38.887449833333335, "lon": -77.02129783333334, "is_disabled": 0, "fusion_lon": 0.0, "is_reserved": 0, "name": "8f7f395d34ad2beb40ae4254a53cea3b", "type": "electric_scooter", "bike_id": "8f7f395d34ad2beb40ae4254a53cea3b", "rental_uris": {"ios": "https://dc.lft.to/lastmile_qr_scan", "android": "https://dc.lft.to/lastmile_qr_scan"}, "fusion_lat": 0.0}, {"lat": 38.8419455, "lon": -77.06758483333333, "is_disabled": 0, "fusion_lon": 0.0, "is_reserved": 0, "name": "16058cec4b8b41fc5e6d43e16711e7e0", "type": "electric_bike", "bike_id": "16058cec4b8b41fc5e6d43e16711e7e0", "rental_uris": {"ios": "https://dc.lft.to/lastmile_qr_scan", "android": "https://dc.lft.to/lastmile_qr_scan"}, "fusion_lat": 0.0}, {"lat": 38.918023833333336, "lon": -77.02486066666667, "is_disabled": 0, "fusion_lon": 0.0, "is_reserved": 0, "name": "ac8e41bb0a3d5e55f0473624aec39d52", "type": "electric_scooter", "bike_id": "ac8e41bb0a3d5e55f0473624aec39d52", "rental_uris": {"ios": "https://dc.lft.to/lastmile_qr_scan", "android": "https://dc.lft.to/lastmile_qr_scan"}, "fusion_lat": 0.0}, {"lat": 38.89360633333333, "lon": -77.00336616666667, "is_disabled": 0, "fusion_lon": 0.0, "is_reserved": 0, "name": "d7420c4da8f3c54b6d2b7c64da0d30fc", "type": "electric_scooter", "bike_id": "d7420c4da8f3c54b6d2b7c64da0d30fc", "rental_uris": {"ios": "https://dc.lft.to/lastmile_qr_scan", "android": "https://dc.lft.to/lastmile_qr_scan"}, "fusion_lat": 0.0}, {"lat": 38.96591433333333, "lon": -77.01593916666667, "is_disabled": 0, "fusion_lon": 0.0, "is_reserved": 0, "name": "23a38a2fbf238b705ccb69f66fd485b7", "type": "electric_scooter", "bike_id": "23a38a2fbf238b705ccb69f66fd485b7", "rental_uris": {"ios": "https://dc.lft.to/lastmile_qr_scan", "android": "https://dc.lft.to/lastmile_qr_scan"}, "fusion_lat": 0.0}, {"lat": 38.907323166666664, "lon": -77.0570865, "is_disabled": 0, "fusion_lon": 0.0, "is_reserved": 0, "name": "bb3f9836d6c9669f206c8ddebafd9524", "type": "electric_scooter", "bike_id": "bb3f9836d6c9669f206c8ddebafd9524", "rental_uris": {"ios": "https://dc.lft.to/lastmile_qr_scan", "android": "https://dc.lft.to/lastmile_qr_scan"}, "fusion_lat": 0.0}, {"lat": 38.936219333333334, "lon": -77.036779, "is_disabled": 0, "fusion_lon": 0.0, "is_reserved": 0, "name": "4701017305f75eacdc7eebec2e8ba67e", "type": "electric_bike", "bike_id": "4701017305f75eacdc7eebec2e8ba67e", "rental_uris": {"ios": "https://dc.lft.to/lastmile_qr_scan", "android": "https://dc.lft.to/lastmile_qr_scan"}, "fusion_lat": 0.0}, {"lat": 38.91706516666667, "lon": -77.0349925, "is_disabled": 0, "fusion_lon": 0.0, "is_reserved": 0, "name": "8bada37f9000da9932698032258c0e8a", "type": "electric_scooter", "bike_id": "8bada37f9000da9932698032258c0e8a", "rental_uris": {"ios": "https://dc.lft.to/lastmile_qr_scan", "android": "https://dc.lft.to/lastmile_qr_scan"}, "fusion_lat": 0.0}, {"lat": 38.902329333333334, "lon": -77.02599133333334, "is_disabled": 0, "fusion_lon": 0.0, "is_reserved": 0, "name": "cd63d3087e8a96a33d9f0c10825a98d9", "type": "electric_scooter", "bike_id": "cd63d3087e8a96a33d9f0c10825a98d9", "rental_uris": {"ios": "https://dc.lft.to/lastmile_qr_scan", "android": "https://dc.lft.to/lastmile_qr_scan"}, "fusion_lat": 0.0}, {"lat": 38.9028225, "lon": -77.02781833333333, "is_disabled": 0, "fusion_lon": 0.0, "is_reserved": 0, "name": "af4886b526586c183f95141e0ba3449e", "type": "electric_scooter", "bike_id": "af4886b526586c183f95141e0ba3449e", "rental_uris": {"ios": "https://dc.lft.to/lastmile_qr_scan", "android": "https://dc.lft.to/lastmile_qr_scan"}, "fusion_lat": 0.0}, {"lat": 38.875558833333336, "lon": -77.00622266666667, "is_disabled": 0, "fusion_lon": 0.0, "is_reserved": 0, "name": "b11ee07a44cf89b96b0cbcf3e5e44e7c", "type": "electric_scooter", "bike_id": "b11ee07a44cf89b96b0cbcf3e5e44e7c", "rental_uris": {"ios": "https://dc.lft.to/lastmile_qr_scan", "android": "https://dc.lft.to/lastmile_qr_scan"}, "fusion_lat": 0.0}, {"lat": 38.923520833333335, "lon": -77.051708, "is_disabled": 0, "fusion_lon": 0.0, "is_reserved": 0, "name": "227b1b37935808fe483d5cda8d9270a7", "type": "electric_scooter", "bike_id": "227b1b37935808fe483d5cda8d9270a7", "rental_uris": {"ios": "https://dc.lft.to/lastmile_qr_scan", "android": "https://dc.lft.to/lastmile_qr_scan"}, "fusion_lat": 0.0}, {"lat": 38.90894083333333, "lon": -77.0321145, "is_disabled": 0, "fusion_lon": 0.0, "is_reserved": 0, "name": "1b4e56fb9aec95db373c21dd009888a3", "type": "electric_bike", "bike_id": "1b4e56fb9aec95db373c21dd009888a3", "rental_uris": {"ios": "https://dc.lft.to/lastmile_qr_scan", "android": "https://dc.lft.to/lastmile_qr_scan"}, "fusion_lat": 0.0}, {"lat": 38.884199, "lon": -76.9420675, "is_disabled": 0, "fusion_lon": 0.0, "is_reserved": 0, "name": "7ec5b16c9e681ce319cba3b132f45178", "type": "electric_scooter", "bike_id": "7ec5b16c9e681ce319cba3b132f45178", "rental_uris": {"ios": "https://dc.lft.to/lastmile_qr_scan", "android": "https://dc.lft.to/lastmile_qr_scan"}, "fusion_lat": 0.0}, {"lat": 38.89523833333333, "lon": -77.04485083333333, "is_disabled": 0, "fusion_lon": 0.0, "is_reserved": 0, "name": "876949c56539e2f259d5b5ea3e5b4ba4", "type": "electric_scooter", "bike_id": "876949c56539e2f259d5b5ea3e5b4ba4", "rental_uris": {"ios": "https://dc.lft.to/lastmile_qr_scan", "android": "https://dc.lft.to/lastmile_qr_scan"}, "fusion_lat": 0.0}, {"lat": 38.92292366666667, "lon": -77.03194333333333, "is_disabled": 0, "fusion_lon": 0.0, "is_reserved": 0, "name": "93aeddc12dd2cb805f6e6945a79ab8fc", "type": "electric_scooter", "bike_id": "93aeddc12dd2cb805f6e6945a79ab8fc", "rental_uris": {"ios": "https://dc.lft.to/lastmile_qr_scan", "android": "https://dc.lft.to/lastmile_qr_scan"}, "fusion_lat": 0.0}, {"lat": 38.933297833333334, "lon": -77.0326985, "is_disabled": 0, "fusion_lon": 0.0, "is_reserved": 0, "name": "f73cb60725a740231a6ff50095d19456", "type": "electric_scooter", "bike_id": "f73cb60725a740231a6ff50095d19456", "rental_uris": {"ios": "https://dc.lft.to/lastmile_qr_scan", "android": "https://dc.lft.to/lastmile_qr_scan"}, "fusion_lat": 0.0}, {"lat": 38.91854716666667, "lon": -77.03670333333334, "is_disabled": 0, "fusion_lon": 0.0, "is_reserved": 0, "name": "f256500f5d99e04d7723671d732f7e71", "type": "electric_scooter", "bike_id": "f256500f5d99e04d7723671d732f7e71", "rental_uris": {"ios": "https://dc.lft.to/lastmile_qr_scan", "android": "https://dc.lft.to/lastmile_qr_scan"}, "fusion_lat": 0.0}, {"lat": 38.926023, "lon": -77.02157666666666, "is_disabled": 0, "fusion_lon": 0.0, "is_reserved": 0, "name": "acc58b61dc43583af2f1c4239858fd36", "type": "electric_scooter", "bike_id": "acc58b61dc43583af2f1c4239858fd36", "rental_uris": {"ios": "https://dc.lft.to/lastmile_qr_scan", "android": "https://dc.lft.to/lastmile_qr_scan"}, "fusion_lat": 0.0}, {"lat": 38.908363666666666, "lon": -76.99971766666667, "is_disabled": 0, "fusion_lon": 0.0, "is_reserved": 0, "name": "0ad76b95bf0732c910b8557b39ccdcda", "type": "electric_scooter", "bike_id": "0ad76b95bf0732c910b8557b39ccdcda", "rental_uris": {"ios": "https://dc.lft.to/lastmile_qr_scan", "android": "https://dc.lft.to/lastmile_qr_scan"}, "fusion_lat": 0.0}, {"lat": 38.887343333333334, "lon": -76.98357433333334, "is_disabled": 0, "fusion_lon": 0.0, "is_reserved": 0, "name": "9a4794c4c5cf001778e8501c43526560", "type": "electric_scooter", "bike_id": "9a4794c4c5cf001778e8501c43526560", "rental_uris": {"ios": "https://dc.lft.to/lastmile_qr_scan", "android": "https://dc.lft.to/lastmile_qr_scan"}, "fusion_lat": 0.0}, {"lat": 38.9750415, "lon": -77.016774, "is_disabled": 0, "fusion_lon": 0.0, "is_reserved": 0, "name": "44ed4c50e23a0c54654fde695907191f", "type": "electric_scooter", "bike_id": "44ed4c50e23a0c54654fde695907191f", "rental_uris": {"ios": "https://dc.lft.to/lastmile_qr_scan", "android": "https://dc.lft.to/lastmile_qr_scan"}, "fusion_lat": 0.0}, {"lat": 38.903875166666666, "lon": -77.05141816666666, "is_disabled": 0, "fusion_lon": 0.0, "is_reserved": 0, "name": "eefc5fe6908ef41b2743402388f432d1", "type": "electric_scooter", "bike_id": "eefc5fe6908ef41b2743402388f432d1", "rental_uris": {"ios": "https://dc.lft.to/lastmile_qr_scan", "android": "https://dc.lft.to/lastmile_qr_scan"}, "fusion_lat": 0.0}, {"lat": 38.91219133333333, "lon": -77.03838733333333, "is_disabled": 0, "fusion_lon": 0.0, "is_reserved": 0, "name": "3bb7425069489c65530b12830f4ad095", "type": "electric_scooter", "bike_id": "3bb7425069489c65530b12830f4ad095", "rental_uris": {"ios": "https://dc.lft.to/lastmile_qr_scan", "android": "https://dc.lft.to/lastmile_qr_scan"}, "fusion_lat": 0.0}, {"lat": 38.910559166666665, "lon": -77.0218445, "is_disabled": 0, "fusion_lon": 0.0, "is_reserved": 0, "name": "bb545bed230b2056114156d170f1eec9", "type": "electric_scooter", "bike_id": "bb545bed230b2056114156d170f1eec9", "rental_uris": {"ios": "https://dc.lft.to/lastmile_qr_scan", "android": "https://dc.lft.to/lastmile_qr_scan"}, "fusion_lat": 0.0}, {"lat": 38.9262355, "lon": -77.032131, "is_disabled": 0, "fusion_lon": 0.0, "is_reserved": 0, "name": "506d8031a8c4f65499e8d1ef8c5851de", "type": "electric_scooter", "bike_id": "506d8031a8c4f65499e8d1ef8c5851de", "rental_uris": {"ios": "https://dc.lft.to/lastmile_qr_scan", "android": "https://dc.lft.to/lastmile_qr_scan"}, "fusion_lat": 0.0}, {"lat": 38.912082833333336, "lon": -77.01180883333333, "is_disabled": 0, "fusion_lon": 0.0, "is_reserved": 0, "name": "341b108ddb7906d00b2c62b19de9dafb", "type": "electric_scooter", "bike_id": "341b108ddb7906d00b2c62b19de9dafb", "rental_uris": {"ios": "https://dc.lft.to/lastmile_qr_scan", "android": "https://dc.lft.to/lastmile_qr_scan"}, "fusion_lat": 0.0}, {"lat": 38.918272333333334, "lon": -77.02417816666667, "is_disabled": 0, "fusion_lon": 0.0, "is_reserved": 0, "name": "a42b226ad155eab4e2c7caf2ea6cd0e4", "type": "electric_scooter", "bike_id": "a42b226ad155eab4e2c7caf2ea6cd0e4", "rental_uris": {"ios": "https://dc.lft.to/lastmile_qr_scan", "android": "https://dc.lft.to/lastmile_qr_scan"}, "fusion_lat": 0.0}, {"lat": 38.91129166666666, "lon": -77.02198033333333, "is_disabled": 0, "fusion_lon": 0.0, "is_reserved": 0, "name": "ea4cab72c1918430520d53022f6cdeab", "type": "electric_scooter", "bike_id": "ea4cab72c1918430520d53022f6cdeab", "rental_uris": {"ios": "https://dc.lft.to/lastmile_qr_scan", "android": "https://dc.lft.to/lastmile_qr_scan"}, "fusion_lat": 0.0}, {"lat": 38.89991766666667, "lon": -77.01640983333333, "is_disabled": 0, "fusion_lon": 0.0, "is_reserved": 0, "name": "f5594b2a4f817c9c44f2ccb81df720e8", "type": "electric_scooter", "bike_id": "f5594b2a4f817c9c44f2ccb81df720e8", "rental_uris": {"ios": "https://dc.lft.to/lastmile_qr_scan", "android": "https://dc.lft.to/lastmile_qr_scan"}, "fusion_lat": 0.0}, {"lat": 38.9082055, "lon": -77.03401583333333, "is_disabled": 0, "fusion_lon": 0.0, "is_reserved": 0, "name": "501f8350bb5770e4ab67a8664594ce30", "type": "electric_scooter", "bike_id": "501f8350bb5770e4ab67a8664594ce30", "rental_uris": {"ios": "https://dc.lft.to/lastmile_qr_scan", "android": "https://dc.lft.to/lastmile_qr_scan"}, "fusion_lat": 0.0}, {"lat": 38.9085905, "lon": -77.0224355, "is_disabled": 0, "fusion_lon": 0.0, "is_reserved": 0, "name": "1694e361aaf121276d9d879deb7ab895", "type": "electric_scooter", "bike_id": "1694e361aaf121276d9d879deb7ab895", "rental_uris": {"ios": "https://dc.lft.to/lastmile_qr_scan", "android": "https://dc.lft.to/lastmile_qr_scan"}, "fusion_lat": 0.0}, {"lat": 38.9166275, "lon": -77.031708, "is_disabled": 0, "fusion_lon": 0.0, "is_reserved": 0, "name": "5929b210d83d49bca9236da4a7b932b2", "type": "electric_scooter", "bike_id": "5929b210d83d49bca9236da4a7b932b2", "rental_uris": {"ios": "https://dc.lft.to/lastmile_qr_scan", "android": "https://dc.lft.to/lastmile_qr_scan"}, "fusion_lat": 0.0}, {"lat": 38.901098, "lon": -76.93034983333334, "is_disabled": 0, "fusion_lon": 0.0, "is_reserved": 0, "name": "92fc549b0d09433ab27d24bc06d5c740", "type": "electric_scooter", "bike_id": "92fc549b0d09433ab27d24bc06d5c740", "rental_uris": {"ios": "https://dc.lft.to/lastmile_qr_scan", "android": "https://dc.lft.to/lastmile_qr_scan"}, "fusion_lat": 0.0}, {"lat": 38.86014766666667, "lon": -76.96705316666667, "is_disabled": 0, "fusion_lon": 0.0, "is_reserved": 0, "name": "1a952f123e4e6e97ca53fff69dcb0402", "type": "electric_scooter", "bike_id": "1a952f123e4e6e97ca53fff69dcb0402", "rental_uris": {"ios": "https://dc.lft.to/lastmile_qr_scan", "android": "https://dc.lft.to/lastmile_qr_scan"}, "fusion_lat": 0.0}, {"lat": 38.92733833333333, "lon": -77.02282266666667, "is_disabled": 0, "fusion_lon": 0.0, "is_reserved": 0, "name": "1eef208a9defdfaf486dc2c3753e8c92", "type": "electric_scooter", "bike_id": "1eef208a9defdfaf486dc2c3753e8c92", "rental_uris": {"ios": "https://dc.lft.to/lastmile_qr_scan", "android": "https://dc.lft.to/lastmile_qr_scan"}, "fusion_lat": 0.0}, {"lat": 38.921111, "lon": -77.04687883333334, "is_disabled": 0, "fusion_lon": 0.0, "is_reserved": 0, "name": "d3db8e1a0e0073133ad1cb6deb6ee59f", "type": "electric_scooter", "bike_id": "d3db8e1a0e0073133ad1cb6deb6ee59f", "rental_uris": {"ios": "https://dc.lft.to/lastmile_qr_scan", "android": "https://dc.lft.to/lastmile_qr_scan"}, "fusion_lat": 0.0}, {"lat": 38.88718033333333, "lon": -77.02821016666667, "is_disabled": 0, "fusion_lon": 0.0, "is_reserved": 0, "name": "a693f6565f2501c6db94ed73a71a0e1e", "type": "electric_scooter", "bike_id": "a693f6565f2501c6db94ed73a71a0e1e", "rental_uris": {"ios": "https://dc.lft.to/lastmile_qr_scan", "android": "https://dc.lft.to/lastmile_qr_scan"}, "fusion_lat": 0.0}, {"lat": 38.89795, "lon": -77.04893883333334, "is_disabled": 0, "fusion_lon": 0.0, "is_reserved": 0, "name": "6bcd7122bec027aa8e44bc7ff3cab03a", "type": "electric_scooter", "bike_id": "6bcd7122bec027aa8e44bc7ff3cab03a", "rental_uris": {"ios": "https://dc.lft.to/lastmile_qr_scan", "android": "https://dc.lft.to/lastmile_qr_scan"}, "fusion_lat": 0.0}, {"lat": 38.911092833333335, "lon": -77.0241805, "is_disabled": 0, "fusion_lon": 0.0, "is_reserved": 0, "name": "d01cf4762bc12be1b01198d5d2a486f9", "type": "electric_scooter", "bike_id": "d01cf4762bc12be1b01198d5d2a486f9", "rental_uris": {"ios": "https://dc.lft.to/lastmile_qr_scan", "android": "https://dc.lft.to/lastmile_qr_scan"}, "fusion_lat": 0.0}, {"lat": 38.905538666666665, "lon": -77.0424835, "is_disabled": 0, "fusion_lon": 0.0, "is_reserved": 0, "name": "b85313d3372df90ad0f841b779f7a53f", "type": "electric_scooter", "bike_id": "b85313d3372df90ad0f841b779f7a53f", "rental_uris": {"ios": "https://dc.lft.to/lastmile_qr_scan", "android": "https://dc.lft.to/lastmile_qr_scan"}, "fusion_lat": 0.0}, {"lat": 38.934077, "lon": -77.04310783333334, "is_disabled": 0, "fusion_lon": 0.0, "is_reserved": 0, "name": "292148c4f38dd115abcaf91a606d7dd1", "type": "electric_bike", "bike_id": "292148c4f38dd115abcaf91a606d7dd1", "rental_uris": {"ios": "https://dc.lft.to/lastmile_qr_scan", "android": "https://dc.lft.to/lastmile_qr_scan"}, "fusion_lat": 0.0}, {"lat": 38.85724116666667, "lon": -76.97771816666666, "is_disabled": 0, "fusion_lon": 0.0, "is_reserved": 0, "name": "25f25c7ad12d028b9017299fc0924897", "type": "electric_bike", "bike_id": "25f25c7ad12d028b9017299fc0924897", "rental_uris": {"ios": "https://dc.lft.to/lastmile_qr_scan", "android": "https://dc.lft.to/lastmile_qr_scan"}, "fusion_lat": 0.0}, {"lat": 38.90651583333333, "lon": -77.0065555, "is_disabled": 0, "fusion_lon": 0.0, "is_reserved": 0, "name": "2a36803bf7701047e792aaa83e21eaa7", "type": "electric_scooter", "bike_id": "2a36803bf7701047e792aaa83e21eaa7", "rental_uris": {"ios": "https://dc.lft.to/lastmile_qr_scan", "android": "https://dc.lft.to/lastmile_qr_scan"}, "fusion_lat": 0.0}, {"lat": 38.90249333333333, "lon": -77.01917533333334, "is_disabled": 0, "fusion_lon": 0.0, "is_reserved": 0, "name": "a645bc74d626132d2efa615c42a941b8", "type": "electric_scooter", "bike_id": "a645bc74d626132d2efa615c42a941b8", "rental_uris": {"ios": "https://dc.lft.to/lastmile_qr_scan", "android": "https://dc.lft.to/lastmile_qr_scan"}, "fusion_lat": 0.0}, {"lat": 38.917060166666666, "lon": -77.0321315, "is_disabled": 0, "fusion_lon": 0.0, "is_reserved": 0, "name": "80041a1117b9ee101237e01710817542", "type": "electric_scooter", "bike_id": "80041a1117b9ee101237e01710817542", "rental_uris": {"ios": "https://dc.lft.to/lastmile_qr_scan", "android": "https://dc.lft.to/lastmile_qr_scan"}, "fusion_lat": 0.0}, {"lat": 38.907289, "lon": -77.03475183333333, "is_disabled": 0, "fusion_lon": 0.0, "is_reserved": 0, "name": "03144ba318d6cd516918a40361420566", "type": "electric_scooter", "bike_id": "03144ba318d6cd516918a40361420566", "rental_uris": {"ios": "https://dc.lft.to/lastmile_qr_scan", "android": "https://dc.lft.to/lastmile_qr_scan"}, "fusion_lat": 0.0}, {"lat": 38.903466333333334, "lon": -77.007317, "is_disabled": 0, "fusion_lon": 0.0, "is_reserved": 0, "name": "fa8e830bdcb298dec91d08c37e30f8ee", "type": "electric_scooter", "bike_id": "fa8e830bdcb298dec91d08c37e30f8ee", "rental_uris": {"ios": "https://dc.lft.to/lastmile_qr_scan", "android": "https://dc.lft.to/lastmile_qr_scan"}, "fusion_lat": 0.0}, {"lat": 38.848276166666665, "lon": -77.079063, "is_disabled": 0, "fusion_lon": 0.0, "is_reserved": 0, "name": "516f49124fa2038ee7a94f268eb911b6", "type": "electric_bike", "bike_id": "516f49124fa2038ee7a94f268eb911b6", "rental_uris": {"ios": "https://dc.lft.to/lastmile_qr_scan", "android": "https://dc.lft.to/lastmile_qr_scan"}, "fusion_lat": 0.0}, {"lat": 38.8632955, "lon": -76.98930666666666, "is_disabled": 0, "fusion_lon": 0.0, "is_reserved": 0, "name": "7322f2603778006c722e3c5561dc112f", "type": "electric_scooter", "bike_id": "7322f2603778006c722e3c5561dc112f", "rental_uris": {"ios": "https://dc.lft.to/lastmile_qr_scan", "android": "https://dc.lft.to/lastmile_qr_scan"}, "fusion_lat": 0.0}, {"lat": 38.9099135, "lon": -77.0383415, "is_disabled": 0, "fusion_lon": 0.0, "is_reserved": 0, "name": "be38e955830c8c08fa8bdf20a1bbbe49", "type": "electric_scooter", "bike_id": "be38e955830c8c08fa8bdf20a1bbbe49", "rental_uris": {"ios": "https://dc.lft.to/lastmile_qr_scan", "android": "https://dc.lft.to/lastmile_qr_scan"}, "fusion_lat": 0.0}, {"lat": 38.91697216666667, "lon": -77.0243495, "is_disabled": 0, "fusion_lon": 0.0, "is_reserved": 0, "name": "1d035245053e96cda695cb2a7eb890fd", "type": "electric_scooter", "bike_id": "1d035245053e96cda695cb2a7eb890fd", "rental_uris": {"ios": "https://dc.lft.to/lastmile_qr_scan", "android": "https://dc.lft.to/lastmile_qr_scan"}, "fusion_lat": 0.0}, {"lat": 38.90555783333333, "lon": -77.04657766666666, "is_disabled": 0, "fusion_lon": 0.0, "is_reserved": 0, "name": "ae8225302b8ee85b9b84cd249f26c475", "type": "electric_scooter", "bike_id": "ae8225302b8ee85b9b84cd249f26c475", "rental_uris": {"ios": "https://dc.lft.to/lastmile_qr_scan", "android": "https://dc.lft.to/lastmile_qr_scan"}, "fusion_lat": 0.0}, {"lat": 38.941822333333334, "lon": -77.02533166666667, "is_disabled": 0, "fusion_lon": 0.0, "is_reserved": 0, "name": "29d7deb991ec4d4eb78813e98ca1e0ad", "type": "electric_scooter", "bike_id": "29d7deb991ec4d4eb78813e98ca1e0ad", "rental_uris": {"ios": "https://dc.lft.to/lastmile_qr_scan", "android": "https://dc.lft.to/lastmile_qr_scan"}, "fusion_lat": 0.0}, {"lat": 38.9176215, "lon": -77.031925, "is_disabled": 0, "fusion_lon": 0.0, "is_reserved": 0, "name": "7edbe1447b0daa2297600acc30f74d11", "type": "electric_scooter", "bike_id": "7edbe1447b0daa2297600acc30f74d11", "rental_uris": {"ios": "https://dc.lft.to/lastmile_qr_scan", "android": "https://dc.lft.to/lastmile_qr_scan"}, "fusion_lat": 0.0}, {"lat": 38.9181285, "lon": -77.02681766666667, "is_disabled": 0, "fusion_lon": 0.0, "is_reserved": 0, "name": "6419338966564f6ae9d62092058d95ec", "type": "electric_scooter", "bike_id": "6419338966564f6ae9d62092058d95ec", "rental_uris": {"ios": "https://dc.lft.to/lastmile_qr_scan", "android": "https://dc.lft.to/lastmile_qr_scan"}, "fusion_lat": 0.0}, {"lat": 38.90014883333333, "lon": -76.989128, "is_disabled": 0, "fusion_lon": 0.0, "is_reserved": 0, "name": "06ff10cd0cc7792f5e96724b1a55b23c", "type": "electric_scooter", "bike_id": "06ff10cd0cc7792f5e96724b1a55b23c", "rental_uris": {"ios": "https://dc.lft.to/lastmile_qr_scan", "android": "https://dc.lft.to/lastmile_qr_scan"}, "fusion_lat": 0.0}, {"lat": 38.9149255, "lon": -77.041596, "is_disabled": 0, "fusion_lon": 0.0, "is_reserved": 0, "name": "92db0b3bfb08cb825d975e2b22d26341", "type": "electric_scooter", "bike_id": "92db0b3bfb08cb825d975e2b22d26341", "rental_uris": {"ios": "https://dc.lft.to/lastmile_qr_scan", "android": "https://dc.lft.to/lastmile_qr_scan"}, "fusion_lat": 0.0}, {"lat": 38.911220166666666, "lon": -77.04475333333333, "is_disabled": 0, "fusion_lon": 0.0, "is_reserved": 0, "name": "fbb818a40c416e708d90ce6b234688be", "type": "electric_scooter", "bike_id": "fbb818a40c416e708d90ce6b234688be", "rental_uris": {"ios": "https://dc.lft.to/lastmile_qr_scan", "android": "https://dc.lft.to/lastmile_qr_scan"}, "fusion_lat": 0.0}, {"lat": 38.907346, "lon": -77.03173016666666, "is_disabled": 0, "fusion_lon": 0.0, "is_reserved": 0, "name": "e5edbeac73647d13c4b80810416d38dc", "type": "electric_scooter", "bike_id": "e5edbeac73647d13c4b80810416d38dc", "rental_uris": {"ios": "https://dc.lft.to/lastmile_qr_scan", "android": "https://dc.lft.to/lastmile_qr_scan"}, "fusion_lat": 0.0}, {"lat": 38.9096325, "lon": -77.034266, "is_disabled": 0, "fusion_lon": 0.0, "is_reserved": 0, "name": "981e67842917a18a282ddc12177c542d", "type": "electric_scooter", "bike_id": "981e67842917a18a282ddc12177c542d", "rental_uris": {"ios": "https://dc.lft.to/lastmile_qr_scan", "android": "https://dc.lft.to/lastmile_qr_scan"}, "fusion_lat": 0.0}, {"lat": 38.936110166666666, "lon": -77.05863133333334, "is_disabled": 0, "fusion_lon": 0.0, "is_reserved": 0, "name": "259559925d2e2f9b36b4f4588af71730", "type": "electric_scooter", "bike_id": "259559925d2e2f9b36b4f4588af71730", "rental_uris": {"ios": "https://dc.lft.to/lastmile_qr_scan", "android": "https://dc.lft.to/lastmile_qr_scan"}, "fusion_lat": 0.0}, {"lat": 38.8874925, "lon": -77.01778683333333, "is_disabled": 0, "fusion_lon": 0.0, "is_reserved": 0, "name": "70b3a5f47cd11614b925843b0a8cd448", "type": "electric_scooter", "bike_id": "70b3a5f47cd11614b925843b0a8cd448", "rental_uris": {"ios": "https://dc.lft.to/lastmile_qr_scan", "android": "https://dc.lft.to/lastmile_qr_scan"}, "fusion_lat": 0.0}, {"lat": 38.88996816666667, "lon": -76.95436116666667, "is_disabled": 0, "fusion_lon": 0.0, "is_reserved": 0, "name": "b012db98643d4ea677d54698e4c6ef89", "type": "electric_scooter", "bike_id": "b012db98643d4ea677d54698e4c6ef89", "rental_uris": {"ios": "https://dc.lft.to/lastmile_qr_scan", "android": "https://dc.lft.to/lastmile_qr_scan"}, "fusion_lat": 0.0}, {"lat": 38.900892166666665, "lon": -77.04756233333333, "is_disabled": 0, "fusion_lon": 0.0, "is_reserved": 0, "name": "f3911da713025b2091773224db25217b", "type": "electric_scooter", "bike_id": "f3911da713025b2091773224db25217b", "rental_uris": {"ios": "https://dc.lft.to/lastmile_qr_scan", "android": "https://dc.lft.to/lastmile_qr_scan"}, "fusion_lat": 0.0}, {"lat": 38.91122816666667, "lon": -77.011594, "is_disabled": 0, "fusion_lon": 0.0, "is_reserved": 0, "name": "a6feff73175b13f4b9a6755117e504c0", "type": "electric_scooter", "bike_id": "a6feff73175b13f4b9a6755117e504c0", "rental_uris": {"ios": "https://dc.lft.to/lastmile_qr_scan", "android": "https://dc.lft.to/lastmile_qr_scan"}, "fusion_lat": 0.0}, {"lat": 38.89869266666667, "lon": -77.02772516666667, "is_disabled": 0, "fusion_lon": 0.0, "is_reserved": 0, "name": "dc1a207ae26e67dd28a0776e7970b4b0", "type": "electric_scooter", "bike_id": "dc1a207ae26e67dd28a0776e7970b4b0", "rental_uris": {"ios": "https://dc.lft.to/lastmile_qr_scan", "android": "https://dc.lft.to/lastmile_qr_scan"}, "fusion_lat": 0.0}, {"lat": 38.91403283333333, "lon": -77.01412333333333, "is_disabled": 0, "fusion_lon": 0.0, "is_reserved": 0, "name": "f367f6d12053ea33e600b51bac1adb57", "type": "electric_scooter", "bike_id": "f367f6d12053ea33e600b51bac1adb57", "rental_uris": {"ios": "https://dc.lft.to/lastmile_qr_scan", "android": "https://dc.lft.to/lastmile_qr_scan"}, "fusion_lat": 0.0}, {"lat": 38.820430333333334, "lon": -77.05352383333333, "is_disabled": 0, "fusion_lon": 0.0, "is_reserved": 0, "name": "3ac7951afa657f27c619d90921d6da85", "type": "electric_bike", "bike_id": "3ac7951afa657f27c619d90921d6da85", "rental_uris": {"ios": "https://dc.lft.to/lastmile_qr_scan", "android": "https://dc.lft.to/lastmile_qr_scan"}, "fusion_lat": 0.0}, {"lat": 38.917865166666665, "lon": -77.04333883333334, "is_disabled": 0, "fusion_lon": 0.0, "is_reserved": 0, "name": "2df15dc4b9911adee04cebe3523fc04b", "type": "electric_scooter", "bike_id": "2df15dc4b9911adee04cebe3523fc04b", "rental_uris": {"ios": "https://dc.lft.to/lastmile_qr_scan", "android": "https://dc.lft.to/lastmile_qr_scan"}, "fusion_lat": 0.0}, {"lat": 38.91681916666667, "lon": -77.022815, "is_disabled": 0, "fusion_lon": 0.0, "is_reserved": 0, "name": "4fb0db40bb9bd2fd1c65addd10d8cf30", "type": "electric_scooter", "bike_id": "4fb0db40bb9bd2fd1c65addd10d8cf30", "rental_uris": {"ios": "https://dc.lft.to/lastmile_qr_scan", "android": "https://dc.lft.to/lastmile_qr_scan"}, "fusion_lat": 0.0}, {"lat": 38.835196, "lon": -76.98671266666666, "is_disabled": 0, "fusion_lon": 0.0, "is_reserved": 0, "name": "a3a75cfbcabccfd3c5647248afda55c6", "type": "electric_bike", "bike_id": "a3a75cfbcabccfd3c5647248afda55c6", "rental_uris": {"ios": "https://dc.lft.to/lastmile_qr_scan", "android": "https://dc.lft.to/lastmile_qr_scan"}, "fusion_lat": 0.0}, {"lat": 38.890129333333334, "lon": -76.93698616666667, "is_disabled": 0, "fusion_lon": 0.0, "is_reserved": 0, "name": "a9688c00c28488276d6ac2ebe118c6d5", "type": "electric_scooter", "bike_id": "a9688c00c28488276d6ac2ebe118c6d5", "rental_uris": {"ios": "https://dc.lft.to/lastmile_qr_scan", "android": "https://dc.lft.to/lastmile_qr_scan"}, "fusion_lat": 0.0}, {"lat": 38.90038583333333, "lon": -77.017722, "is_disabled": 0, "fusion_lon": 0.0, "is_reserved": 0, "name": "7b63a7a2017f941ef54826e1666ed4c5", "type": "electric_scooter", "bike_id": "7b63a7a2017f941ef54826e1666ed4c5", "rental_uris": {"ios": "https://dc.lft.to/lastmile_qr_scan", "android": "https://dc.lft.to/lastmile_qr_scan"}, "fusion_lat": 0.0}, {"lat": 38.914085666666665, "lon": -77.02981433333333, "is_disabled": 0, "fusion_lon": 0.0, "is_reserved": 0, "name": "2a280be43075245a3e169b87ad753a37", "type": "electric_scooter", "bike_id": "2a280be43075245a3e169b87ad753a37", "rental_uris": {"ios": "https://dc.lft.to/lastmile_qr_scan", "android": "https://dc.lft.to/lastmile_qr_scan"}, "fusion_lat": 0.0}, {"lat": 38.87209583333333, "lon": -77.01388816666666, "is_disabled": 0, "fusion_lon": 0.0, "is_reserved": 0, "name": "5cb98bdebfea07a0584e24d61f85db58", "type": "electric_scooter", "bike_id": "5cb98bdebfea07a0584e24d61f85db58", "rental_uris": {"ios": "https://dc.lft.to/lastmile_qr_scan", "android": "https://dc.lft.to/lastmile_qr_scan"}, "fusion_lat": 0.0}, {"lat": 38.920784166666664, "lon": -77.0231615, "is_disabled": 0, "fusion_lon": 0.0, "is_reserved": 0, "name": "d3a8e5d682b4e9467beb14ef3d5110ac", "type": "electric_scooter", "bike_id": "d3a8e5d682b4e9467beb14ef3d5110ac", "rental_uris": {"ios": "https://dc.lft.to/lastmile_qr_scan", "android": "https://dc.lft.to/lastmile_qr_scan"}, "fusion_lat": 0.0}, {"lat": 38.87825566666667, "lon": -76.99609283333334, "is_disabled": 0, "fusion_lon": 0.0, "is_reserved": 0, "name": "4897292d4d45562ed4383259d13a9f46", "type": "electric_scooter", "bike_id": "4897292d4d45562ed4383259d13a9f46", "rental_uris": {"ios": "https://dc.lft.to/lastmile_qr_scan", "android": "https://dc.lft.to/lastmile_qr_scan"}, "fusion_lat": 0.0}, {"lat": 38.88734133333333, "lon": -77.023822, "is_disabled": 0, "fusion_lon": 0.0, "is_reserved": 0, "name": "4b559cca3492146fbb5682fadf79a078", "type": "electric_scooter", "bike_id": "4b559cca3492146fbb5682fadf79a078", "rental_uris": {"ios": "https://dc.lft.to/lastmile_qr_scan", "android": "https://dc.lft.to/lastmile_qr_scan"}, "fusion_lat": 0.0}, {"lat": 38.92027866666667, "lon": -77.071621, "is_disabled": 0, "fusion_lon": 0.0, "is_reserved": 0, "name": "d82a603a7872c86e2f59b7ddb803289c", "type": "electric_scooter", "bike_id": "d82a603a7872c86e2f59b7ddb803289c", "rental_uris": {"ios": "https://dc.lft.to/lastmile_qr_scan", "android": "https://dc.lft.to/lastmile_qr_scan"}, "fusion_lat": 0.0}, {"lat": 38.91120383333333, "lon": -77.0382855, "is_disabled": 0, "fusion_lon": 0.0, "is_reserved": 0, "name": "e5e5162becce22597cb7211027dcb8b3", "type": "electric_scooter", "bike_id": "e5e5162becce22597cb7211027dcb8b3", "rental_uris": {"ios": "https://dc.lft.to/lastmile_qr_scan", "android": "https://dc.lft.to/lastmile_qr_scan"}, "fusion_lat": 0.0}, {"lat": 38.831598166666666, "lon": -76.99573416666667, "is_disabled": 0, "fusion_lon": 0.0, "is_reserved": 0, "name": "30422d2fb9ffed326c4a1a618df23d08", "type": "electric_bike", "bike_id": "30422d2fb9ffed326c4a1a618df23d08", "rental_uris": {"ios": "https://dc.lft.to/lastmile_qr_scan", "android": "https://dc.lft.to/lastmile_qr_scan"}, "fusion_lat": 0.0}, {"lat": 38.918261666666666, "lon": -77.01208733333333, "is_disabled": 0, "fusion_lon": 0.0, "is_reserved": 0, "name": "d2780bff5ca9f55facf5f5a94f014e35", "type": "electric_scooter", "bike_id": "d2780bff5ca9f55facf5f5a94f014e35", "rental_uris": {"ios": "https://dc.lft.to/lastmile_qr_scan", "android": "https://dc.lft.to/lastmile_qr_scan"}, "fusion_lat": 0.0}, {"lat": 38.87403483333333, "lon": -77.00211266666666, "is_disabled": 0, "fusion_lon": 0.0, "is_reserved": 0, "name": "cff0aa1d1124db402b70930d6083d6bd", "type": "electric_scooter", "bike_id": "cff0aa1d1124db402b70930d6083d6bd", "rental_uris": {"ios": "https://dc.lft.to/lastmile_qr_scan", "android": "https://dc.lft.to/lastmile_qr_scan"}, "fusion_lat": 0.0}, {"lat": 38.907248, "lon": -77.029873, "is_disabled": 0, "fusion_lon": 0.0, "is_reserved": 0, "name": "863977bcddc725da5ac04fb1e2d2657d", "type": "electric_scooter", "bike_id": "863977bcddc725da5ac04fb1e2d2657d", "rental_uris": {"ios": "https://dc.lft.to/lastmile_qr_scan", "android": "https://dc.lft.to/lastmile_qr_scan"}, "fusion_lat": 0.0}, {"lat": 38.91607283333333, "lon": -77.04905883333333, "is_disabled": 0, "fusion_lon": 0.0, "is_reserved": 0, "name": "aeb07a021334b8447555e9ada01af3fa", "type": "electric_scooter", "bike_id": "aeb07a021334b8447555e9ada01af3fa", "rental_uris": {"ios": "https://dc.lft.to/lastmile_qr_scan", "android": "https://dc.lft.to/lastmile_qr_scan"}, "fusion_lat": 0.0}, {"lat": 38.92833916666667, "lon": -77.054223, "is_disabled": 0, "fusion_lon": 0.0, "is_reserved": 0, "name": "b87a8fc360877ab80cde1ce583b3635c", "type": "electric_scooter", "bike_id": "b87a8fc360877ab80cde1ce583b3635c", "rental_uris": {"ios": "https://dc.lft.to/lastmile_qr_scan", "android": "https://dc.lft.to/lastmile_qr_scan"}, "fusion_lat": 0.0}, {"lat": 38.90693983333333, "lon": -77.00545783333334, "is_disabled": 0, "fusion_lon": 0.0, "is_reserved": 0, "name": "598382db09621c361da087f005ad720f", "type": "electric_scooter", "bike_id": "598382db09621c361da087f005ad720f", "rental_uris": {"ios": "https://dc.lft.to/lastmile_qr_scan", "android": "https://dc.lft.to/lastmile_qr_scan"}, "fusion_lat": 0.0}, {"lat": 38.9184785, "lon": -76.96545133333333, "is_disabled": 0, "fusion_lon": 0.0, "is_reserved": 0, "name": "e5e0c70efcee35a97d2b38a40aad6f78", "type": "electric_scooter", "bike_id": "e5e0c70efcee35a97d2b38a40aad6f78", "rental_uris": {"ios": "https://dc.lft.to/lastmile_qr_scan", "android": "https://dc.lft.to/lastmile_qr_scan"}, "fusion_lat": 0.0}, {"lat": 38.87715733333334, "lon": -77.01721866666666, "is_disabled": 0, "fusion_lon": 0.0, "is_reserved": 0, "name": "51c76333f7f8c5540f754a8443db062f", "type": "electric_scooter", "bike_id": "51c76333f7f8c5540f754a8443db062f", "rental_uris": {"ios": "https://dc.lft.to/lastmile_qr_scan", "android": "https://dc.lft.to/lastmile_qr_scan"}, "fusion_lat": 0.0}, {"lat": 38.91881766666667, "lon": -77.035009, "is_disabled": 0, "fusion_lon": 0.0, "is_reserved": 0, "name": "287591bef039008af1ed4522e6598b6c", "type": "electric_scooter", "bike_id": "287591bef039008af1ed4522e6598b6c", "rental_uris": {"ios": "https://dc.lft.to/lastmile_qr_scan", "android": "https://dc.lft.to/lastmile_qr_scan"}, "fusion_lat": 0.0}, {"lat": 38.957379333333336, "lon": -77.024053, "is_disabled": 0, "fusion_lon": 0.0, "is_reserved": 0, "name": "de9c762d932ddcda39c028c2d6677a66", "type": "electric_scooter", "bike_id": "de9c762d932ddcda39c028c2d6677a66", "rental_uris": {"ios": "https://dc.lft.to/lastmile_qr_scan", "android": "https://dc.lft.to/lastmile_qr_scan"}, "fusion_lat": 0.0}, {"lat": 38.916629666666665, "lon": -77.038564, "is_disabled": 0, "fusion_lon": 0.0, "is_reserved": 0, "name": "cc2d7a976817123c3a8467408c9b4bf2", "type": "electric_scooter", "bike_id": "cc2d7a976817123c3a8467408c9b4bf2", "rental_uris": {"ios": "https://dc.lft.to/lastmile_qr_scan", "android": "https://dc.lft.to/lastmile_qr_scan"}, "fusion_lat": 0.0}, {"lat": 39.003127166666665, "lon": -76.903168, "is_disabled": 0, "fusion_lon": 0.0, "is_reserved": 0, "name": "1686531d616049883baf6e4138516fcd", "type": "electric_bike", "bike_id": "1686531d616049883baf6e4138516fcd", "rental_uris": {"ios": "https://dc.lft.to/lastmile_qr_scan", "android": "https://dc.lft.to/lastmile_qr_scan"}, "fusion_lat": 0.0}, {"lat": 38.902482, "lon": -77.02671, "is_disabled": 0, "fusion_lon": 0.0, "is_reserved": 0, "name": "bff73da670082e55ce407183c36f3b54", "type": "electric_scooter", "bike_id": "bff73da670082e55ce407183c36f3b54", "rental_uris": {"ios": "https://dc.lft.to/lastmile_qr_scan", "android": "https://dc.lft.to/lastmile_qr_scan"}, "fusion_lat": 0.0}, {"lat": 38.918111333333336, "lon": -77.014224, "is_disabled": 0, "fusion_lon": 0.0, "is_reserved": 0, "name": "07b2e72f3ad26bf77148277345a64d4c", "type": "electric_scooter", "bike_id": "07b2e72f3ad26bf77148277345a64d4c", "rental_uris": {"ios": "https://dc.lft.to/lastmile_qr_scan", "android": "https://dc.lft.to/lastmile_qr_scan"}, "fusion_lat": 0.0}, {"lat": 38.90203733333333, "lon": -77.023778, "is_disabled": 0, "fusion_lon": 0.0, "is_reserved": 0, "name": "145de57f0cc530a5d2756d71a5bccf01", "type": "electric_scooter", "bike_id": "145de57f0cc530a5d2756d71a5bccf01", "rental_uris": {"ios": "https://dc.lft.to/lastmile_qr_scan", "android": "https://dc.lft.to/lastmile_qr_scan"}, "fusion_lat": 0.0}, {"lat": 38.91037166666667, "lon": -77.064995, "is_disabled": 0, "fusion_lon": 0.0, "is_reserved": 0, "name": "e93a60b830ad229844990fe4b0005f5d", "type": "electric_scooter", "bike_id": "e93a60b830ad229844990fe4b0005f5d", "rental_uris": {"ios": "https://dc.lft.to/lastmile_qr_scan", "android": "https://dc.lft.to/lastmile_qr_scan"}, "fusion_lat": 0.0}, {"lat": 38.9073775, "lon": -77.023864, "is_disabled": 0, "fusion_lon": 0.0, "is_reserved": 0, "name": "b7d5adae75aad92b428fcbefa834e7a1", "type": "electric_scooter", "bike_id": "b7d5adae75aad92b428fcbefa834e7a1", "rental_uris": {"ios": "https://dc.lft.to/lastmile_qr_scan", "android": "https://dc.lft.to/lastmile_qr_scan"}, "fusion_lat": 0.0}, {"lat": 38.9168715, "lon": -77.01578683333334, "is_disabled": 0, "fusion_lon": 0.0, "is_reserved": 0, "name": "c8c5b559dbf2e9747ef7bae428596ef0", "type": "electric_scooter", "bike_id": "c8c5b559dbf2e9747ef7bae428596ef0", "rental_uris": {"ios": "https://dc.lft.to/lastmile_qr_scan", "android": "https://dc.lft.to/lastmile_qr_scan"}, "fusion_lat": 0.0}, {"lat": 38.945015, "lon": -77.03834016666667, "is_disabled": 0, "fusion_lon": 0.0, "is_reserved": 0, "name": "652880eba04d6b4f0911c04e745d2dc5", "type": "electric_scooter", "bike_id": "652880eba04d6b4f0911c04e745d2dc5", "rental_uris": {"ios": "https://dc.lft.to/lastmile_qr_scan", "android": "https://dc.lft.to/lastmile_qr_scan"}, "fusion_lat": 0.0}, {"lat": 38.931762, "lon": -77.03106816666667, "is_disabled": 0, "fusion_lon": 0.0, "is_reserved": 0, "name": "c746361dafbf086534db70e7463f2267", "type": "electric_scooter", "bike_id": "c746361dafbf086534db70e7463f2267", "rental_uris": {"ios": "https://dc.lft.to/lastmile_qr_scan", "android": "https://dc.lft.to/lastmile_qr_scan"}, "fusion_lat": 0.0}, {"lat": 38.907371499999996, "lon": -77.02389283333333, "is_disabled": 0, "fusion_lon": 0.0, "is_reserved": 0, "name": "19ebabaa24b890e8389862978f6a9c71", "type": "electric_scooter", "bike_id": "19ebabaa24b890e8389862978f6a9c71", "rental_uris": {"ios": "https://dc.lft.to/lastmile_qr_scan", "android": "https://dc.lft.to/lastmile_qr_scan"}, "fusion_lat": 0.0}, {"lat": 38.92891766666666, "lon": -77.03275183333334, "is_disabled": 0, "fusion_lon": 0.0, "is_reserved": 0, "name": "5e70508b997b4f5e9286d96de80eb7aa", "type": "electric_scooter", "bike_id": "5e70508b997b4f5e9286d96de80eb7aa", "rental_uris": {"ios": "https://dc.lft.to/lastmile_qr_scan", "android": "https://dc.lft.to/lastmile_qr_scan"}, "fusion_lat": 0.0}, {"lat": 38.928873, "lon": -77.03620033333333, "is_disabled": 0, "fusion_lon": 0.0, "is_reserved": 0, "name": "71b9c54036a90ffb337e62229fd593d9", "type": "electric_bike", "bike_id": "71b9c54036a90ffb337e62229fd593d9", "rental_uris": {"ios": "https://dc.lft.to/lastmile_qr_scan", "android": "https://dc.lft.to/lastmile_qr_scan"}, "fusion_lat": 0.0}, {"lat": 38.9735435, "lon": -77.02786833333333, "is_disabled": 0, "fusion_lon": 0.0, "is_reserved": 0, "name": "fe702cad330dd4ef0db8669a41037b11", "type": "electric_scooter", "bike_id": "fe702cad330dd4ef0db8669a41037b11", "rental_uris": {"ios": "https://dc.lft.to/lastmile_qr_scan", "android": "https://dc.lft.to/lastmile_qr_scan"}, "fusion_lat": 0.0}, {"lat": 38.88195366666667, "lon": -77.00372233333333, "is_disabled": 0, "fusion_lon": 0.0, "is_reserved": 0, "name": "1294f343b30d8ada971ad90aecfa8aa4", "type": "electric_scooter", "bike_id": "1294f343b30d8ada971ad90aecfa8aa4", "rental_uris": {"ios": "https://dc.lft.to/lastmile_qr_scan", "android": "https://dc.lft.to/lastmile_qr_scan"}, "fusion_lat": 0.0}, {"lat": 38.927706, "lon": -77.02789116666666, "is_disabled": 0, "fusion_lon": 0.0, "is_reserved": 0, "name": "043cfa4c562497d498672e3291a5324a", "type": "electric_scooter", "bike_id": "043cfa4c562497d498672e3291a5324a", "rental_uris": {"ios": "https://dc.lft.to/lastmile_qr_scan", "android": "https://dc.lft.to/lastmile_qr_scan"}, "fusion_lat": 0.0}, {"lat": 38.91798883333333, "lon": -77.031901, "is_disabled": 0, "fusion_lon": 0.0, "is_reserved": 0, "name": "53fd85b55f98910f237e55574b29b1ae", "type": "electric_scooter", "bike_id": "53fd85b55f98910f237e55574b29b1ae", "rental_uris": {"ios": "https://dc.lft.to/lastmile_qr_scan", "android": "https://dc.lft.to/lastmile_qr_scan"}, "fusion_lat": 0.0}, {"lat": 38.93604416666667, "lon": -77.03653916666667, "is_disabled": 0, "fusion_lon": 0.0, "is_reserved": 0, "name": "af6e0e5eba576c20fbe6f637d7f49623", "type": "electric_scooter", "bike_id": "af6e0e5eba576c20fbe6f637d7f49623", "rental_uris": {"ios": "https://dc.lft.to/lastmile_qr_scan", "android": "https://dc.lft.to/lastmile_qr_scan"}, "fusion_lat": 0.0}, {"lat": 38.9312195, "lon": -77.03034416666667, "is_disabled": 0, "fusion_lon": 0.0, "is_reserved": 0, "name": "e61fbfdf8081ca480d6cbbf95a4bd193", "type": "electric_scooter", "bike_id": "e61fbfdf8081ca480d6cbbf95a4bd193", "rental_uris": {"ios": "https://dc.lft.to/lastmile_qr_scan", "android": "https://dc.lft.to/lastmile_qr_scan"}, "fusion_lat": 0.0}, {"lat": 38.92639333333333, "lon": -77.04197266666667, "is_disabled": 0, "fusion_lon": 0.0, "is_reserved": 0, "name": "536a62f2ce544aa8a40bbc8c88d617de", "type": "electric_scooter", "bike_id": "536a62f2ce544aa8a40bbc8c88d617de", "rental_uris": {"ios": "https://dc.lft.to/lastmile_qr_scan", "android": "https://dc.lft.to/lastmile_qr_scan"}, "fusion_lat": 0.0}, {"lat": 38.9191165, "lon": -77.02370516666667, "is_disabled": 0, "fusion_lon": 0.0, "is_reserved": 0, "name": "ccfc0c3db202700037174d3420855822", "type": "electric_scooter", "bike_id": "ccfc0c3db202700037174d3420855822", "rental_uris": {"ios": "https://dc.lft.to/lastmile_qr_scan", "android": "https://dc.lft.to/lastmile_qr_scan"}, "fusion_lat": 0.0}, {"lat": 38.919159666666665, "lon": -77.02409816666666, "is_disabled": 0, "fusion_lon": 0.0, "is_reserved": 0, "name": "f963ecbce23cee76a0ac2c63f3fd33a8", "type": "electric_scooter", "bike_id": "f963ecbce23cee76a0ac2c63f3fd33a8", "rental_uris": {"ios": "https://dc.lft.to/lastmile_qr_scan", "android": "https://dc.lft.to/lastmile_qr_scan"}, "fusion_lat": 0.0}, {"lat": 38.89830833333333, "lon": -77.031599, "is_disabled": 0, "fusion_lon": 0.0, "is_reserved": 0, "name": "d9f16641f83932f9f6e27e42cbe5bc0d", "type": "electric_scooter", "bike_id": "d9f16641f83932f9f6e27e42cbe5bc0d", "rental_uris": {"ios": "https://dc.lft.to/lastmile_qr_scan", "android": "https://dc.lft.to/lastmile_qr_scan"}, "fusion_lat": 0.0}, {"lat": 38.97501833333333, "lon": -77.016643, "is_disabled": 0, "fusion_lon": 0.0, "is_reserved": 0, "name": "7984d8e14032049809fcc4a8ca4b6375", "type": "electric_scooter", "bike_id": "7984d8e14032049809fcc4a8ca4b6375", "rental_uris": {"ios": "https://dc.lft.to/lastmile_qr_scan", "android": "https://dc.lft.to/lastmile_qr_scan"}, "fusion_lat": 0.0}, {"lat": 38.85071116666667, "lon": -76.95714116666667, "is_disabled": 0, "fusion_lon": 0.0, "is_reserved": 0, "name": "247be0905a203080be1f4b2d4adb484a", "type": "electric_bike", "bike_id": "247be0905a203080be1f4b2d4adb484a", "rental_uris": {"ios": "https://dc.lft.to/lastmile_qr_scan", "android": "https://dc.lft.to/lastmile_qr_scan"}, "fusion_lat": 0.0}, {"lat": 38.91199366666667, "lon": -77.04134533333334, "is_disabled": 0, "fusion_lon": 0.0, "is_reserved": 0, "name": "8c29bb1293c863391c735ab2237bc76b", "type": "electric_scooter", "bike_id": "8c29bb1293c863391c735ab2237bc76b", "rental_uris": {"ios": "https://dc.lft.to/lastmile_qr_scan", "android": "https://dc.lft.to/lastmile_qr_scan"}, "fusion_lat": 0.0}, {"lat": 38.93077, "lon": -77.02163933333334, "is_disabled": 0, "fusion_lon": 0.0, "is_reserved": 0, "name": "e5622ee8db56b5c5da2cd726649081a9", "type": "electric_scooter", "bike_id": "e5622ee8db56b5c5da2cd726649081a9", "rental_uris": {"ios": "https://dc.lft.to/lastmile_qr_scan", "android": "https://dc.lft.to/lastmile_qr_scan"}, "fusion_lat": 0.0}, {"lat": 38.914739833333336, "lon": -77.038344, "is_disabled": 0, "fusion_lon": 0.0, "is_reserved": 0, "name": "bc6d4f1e7df49e04f40b90fa8f0f9fbc", "type": "electric_scooter", "bike_id": "bc6d4f1e7df49e04f40b90fa8f0f9fbc", "rental_uris": {"ios": "https://dc.lft.to/lastmile_qr_scan", "android": "https://dc.lft.to/lastmile_qr_scan"}, "fusion_lat": 0.0}, {"lat": 38.90226883333333, "lon": -77.046957, "is_disabled": 0, "fusion_lon": 0.0, "is_reserved": 0, "name": "8963568a697d99b406a928dab52f6df3", "type": "electric_scooter", "bike_id": "8963568a697d99b406a928dab52f6df3", "rental_uris": {"ios": "https://dc.lft.to/lastmile_qr_scan", "android": "https://dc.lft.to/lastmile_qr_scan"}, "fusion_lat": 0.0}, {"lat": 38.873756166666666, "lon": -77.00171, "is_disabled": 0, "fusion_lon": 0.0, "is_reserved": 0, "name": "08ebe8326b125cf1f8aa3ed8d99a8a5c", "type": "electric_scooter", "bike_id": "08ebe8326b125cf1f8aa3ed8d99a8a5c", "rental_uris": {"ios": "https://dc.lft.to/lastmile_qr_scan", "android": "https://dc.lft.to/lastmile_qr_scan"}, "fusion_lat": 0.0}, {"lat": 38.884400666666664, "lon": -77.01744133333334, "is_disabled": 0, "fusion_lon": 0.0, "is_reserved": 0, "name": "74e40e3a2a00e721b17bf677f0b3e32c", "type": "electric_scooter", "bike_id": "74e40e3a2a00e721b17bf677f0b3e32c", "rental_uris": {"ios": "https://dc.lft.to/lastmile_qr_scan", "android": "https://dc.lft.to/lastmile_qr_scan"}, "fusion_lat": 0.0}, {"lat": 38.88523266666667, "lon": -77.01131916666667, "is_disabled": 0, "fusion_lon": 0.0, "is_reserved": 0, "name": "d32be7d50a2f760af8a045672cf9c6d0", "type": "electric_scooter", "bike_id": "d32be7d50a2f760af8a045672cf9c6d0", "rental_uris": {"ios": "https://dc.lft.to/lastmile_qr_scan", "android": "https://dc.lft.to/lastmile_qr_scan"}, "fusion_lat": 0.0}, {"lat": 38.83581933333333, "lon": -77.001236, "is_disabled": 0, "fusion_lon": 0.0, "is_reserved": 0, "name": "ab206166904573c6ea12580355d61e62", "type": "electric_bike", "bike_id": "ab206166904573c6ea12580355d61e62", "rental_uris": {"ios": "https://dc.lft.to/lastmile_qr_scan", "android": "https://dc.lft.to/lastmile_qr_scan"}, "fusion_lat": 0.0}, {"lat": 38.935846, "lon": -77.03358883333334, "is_disabled": 0, "fusion_lon": 0.0, "is_reserved": 0, "name": "e8d3009420f7e0b27bd9f6c5c0277c27", "type": "electric_scooter", "bike_id": "e8d3009420f7e0b27bd9f6c5c0277c27", "rental_uris": {"ios": "https://dc.lft.to/lastmile_qr_scan", "android": "https://dc.lft.to/lastmile_qr_scan"}, "fusion_lat": 0.0}, {"lat": 38.94403883333333, "lon": -77.03908966666667, "is_disabled": 0, "fusion_lon": 0.0, "is_reserved": 0, "name": "a16fa990bb03409b67f71aea36704b14", "type": "electric_scooter", "bike_id": "a16fa990bb03409b67f71aea36704b14", "rental_uris": {"ios": "https://dc.lft.to/lastmile_qr_scan", "android": "https://dc.lft.to/lastmile_qr_scan"}, "fusion_lat": 0.0}, {"lat": 38.892472833333336, "lon": -77.02788333333334, "is_disabled": 0, "fusion_lon": 0.0, "is_reserved": 0, "name": "2da1477caa4ccd3af7a57743ecbfcfc5", "type": "electric_scooter", "bike_id": "2da1477caa4ccd3af7a57743ecbfcfc5", "rental_uris": {"ios": "https://dc.lft.to/lastmile_qr_scan", "android": "https://dc.lft.to/lastmile_qr_scan"}, "fusion_lat": 0.0}, {"lat": 38.9096465, "lon": -77.03948883333334, "is_disabled": 0, "fusion_lon": 0.0, "is_reserved": 0, "name": "8adbe9b541f1f8a27d129b6460435fd6", "type": "electric_scooter", "bike_id": "8adbe9b541f1f8a27d129b6460435fd6", "rental_uris": {"ios": "https://dc.lft.to/lastmile_qr_scan", "android": "https://dc.lft.to/lastmile_qr_scan"}, "fusion_lat": 0.0}, {"lat": 38.96181766666667, "lon": -77.0739385, "is_disabled": 0, "fusion_lon": 0.0, "is_reserved": 0, "name": "93e8757032dc748c85de8daeb9898023", "type": "electric_bike", "bike_id": "93e8757032dc748c85de8daeb9898023", "rental_uris": {"ios": "https://dc.lft.to/lastmile_qr_scan", "android": "https://dc.lft.to/lastmile_qr_scan"}, "fusion_lat": 0.0}, {"lat": 38.9133935, "lon": -77.04964266666667, "is_disabled": 0, "fusion_lon": 0.0, "is_reserved": 0, "name": "2b71a99b5ef402858b7e5dd9e102d2eb", "type": "electric_scooter", "bike_id": "2b71a99b5ef402858b7e5dd9e102d2eb", "rental_uris": {"ios": "https://dc.lft.to/lastmile_qr_scan", "android": "https://dc.lft.to/lastmile_qr_scan"}, "fusion_lat": 0.0}, {"lat": 38.90267583333333, "lon": -77.02011566666667, "is_disabled": 0, "fusion_lon": 0.0, "is_reserved": 0, "name": "c2b9c35361dd5bc5c1f9c7ec731e83e6", "type": "electric_scooter", "bike_id": "c2b9c35361dd5bc5c1f9c7ec731e83e6", "rental_uris": {"ios": "https://dc.lft.to/lastmile_qr_scan", "android": "https://dc.lft.to/lastmile_qr_scan"}, "fusion_lat": 0.0}, {"lat": 38.90572816666667, "lon": -77.02211083333333, "is_disabled": 0, "fusion_lon": 0.0, "is_reserved": 0, "name": "b8e4c1de05c13c83b19bb58e9d2bb768", "type": "electric_scooter", "bike_id": "b8e4c1de05c13c83b19bb58e9d2bb768", "rental_uris": {"ios": "https://dc.lft.to/lastmile_qr_scan", "android": "https://dc.lft.to/lastmile_qr_scan"}, "fusion_lat": 0.0}, {"lat": 38.917738166666666, "lon": -77.01484383333333, "is_disabled": 0, "fusion_lon": 0.0, "is_reserved": 0, "name": "05dd83b4cde4272e2675e029b9de9971", "type": "electric_scooter", "bike_id": "05dd83b4cde4272e2675e029b9de9971", "rental_uris": {"ios": "https://dc.lft.to/lastmile_qr_scan", "android": "https://dc.lft.to/lastmile_qr_scan"}, "fusion_lat": 0.0}, {"lat": 38.9014155, "lon": -77.01904516666667, "is_disabled": 0, "fusion_lon": 0.0, "is_reserved": 0, "name": "67e0b796c228622a1d1ad5bb105e3389", "type": "electric_scooter", "bike_id": "67e0b796c228622a1d1ad5bb105e3389", "rental_uris": {"ios": "https://dc.lft.to/lastmile_qr_scan", "android": "https://dc.lft.to/lastmile_qr_scan"}, "fusion_lat": 0.0}, {"lat": 38.950470333333335, "lon": -77.02710583333334, "is_disabled": 0, "fusion_lon": 0.0, "is_reserved": 0, "name": "1a108a01af509802f0a2b18005d923cb", "type": "electric_scooter", "bike_id": "1a108a01af509802f0a2b18005d923cb", "rental_uris": {"ios": "https://dc.lft.to/lastmile_qr_scan", "android": "https://dc.lft.to/lastmile_qr_scan"}, "fusion_lat": 0.0}, {"lat": 38.914133, "lon": -77.01073516666666, "is_disabled": 0, "fusion_lon": 0.0, "is_reserved": 0, "name": "b768ba7acfb5f7abc46c73412d9bbc11", "type": "electric_scooter", "bike_id": "b768ba7acfb5f7abc46c73412d9bbc11", "rental_uris": {"ios": "https://dc.lft.to/lastmile_qr_scan", "android": "https://dc.lft.to/lastmile_qr_scan"}, "fusion_lat": 0.0}, {"lat": 38.91256, "lon": -77.02811766666666, "is_disabled": 0, "fusion_lon": 0.0, "is_reserved": 0, "name": "1135608cd7adedf9fa5bbe25f312a6c8", "type": "electric_scooter", "bike_id": "1135608cd7adedf9fa5bbe25f312a6c8", "rental_uris": {"ios": "https://dc.lft.to/lastmile_qr_scan", "android": "https://dc.lft.to/lastmile_qr_scan"}, "fusion_lat": 0.0}, {"lat": 38.910274, "lon": -77.02398366666667, "is_disabled": 0, "fusion_lon": 0.0, "is_reserved": 0, "name": "27f30ad0284b936305237994f6d10762", "type": "electric_scooter", "bike_id": "27f30ad0284b936305237994f6d10762", "rental_uris": {"ios": "https://dc.lft.to/lastmile_qr_scan", "android": "https://dc.lft.to/lastmile_qr_scan"}, "fusion_lat": 0.0}, {"lat": 38.857705, "lon": -76.97298116666667, "is_disabled": 0, "fusion_lon": 0.0, "is_reserved": 0, "name": "0d9c98ab01c82322ea5d1ddd6ec6fca9", "type": "electric_bike", "bike_id": "0d9c98ab01c82322ea5d1ddd6ec6fca9", "rental_uris": {"ios": "https://dc.lft.to/lastmile_qr_scan", "android": "https://dc.lft.to/lastmile_qr_scan"}, "fusion_lat": 0.0}, {"lat": 38.88747516666667, "lon": -77.01403316666666, "is_disabled": 0, "fusion_lon": 0.0, "is_reserved": 0, "name": "7f34cf51d20e30d3804551c60529b05f", "type": "electric_scooter", "bike_id": "7f34cf51d20e30d3804551c60529b05f", "rental_uris": {"ios": "https://dc.lft.to/lastmile_qr_scan", "android": "https://dc.lft.to/lastmile_qr_scan"}, "fusion_lat": 0.0}, {"lat": 38.899893166666665, "lon": -77.0176055, "is_disabled": 0, "fusion_lon": 0.0, "is_reserved": 0, "name": "2bf0b96b34fad891a813a73a4c8d3936", "type": "electric_scooter", "bike_id": "2bf0b96b34fad891a813a73a4c8d3936", "rental_uris": {"ios": "https://dc.lft.to/lastmile_qr_scan", "android": "https://dc.lft.to/lastmile_qr_scan"}, "fusion_lat": 0.0}, {"lat": 38.96224483333334, "lon": -77.0262775, "is_disabled": 0, "fusion_lon": 0.0, "is_reserved": 0, "name": "5bd821bb25fb582a0994bd845b1ca351", "type": "electric_bike", "bike_id": "5bd821bb25fb582a0994bd845b1ca351", "rental_uris": {"ios": "https://dc.lft.to/lastmile_qr_scan", "android": "https://dc.lft.to/lastmile_qr_scan"}, "fusion_lat": 0.0}, {"lat": 38.880177333333336, "lon": -76.980717, "is_disabled": 0, "fusion_lon": 0.0, "is_reserved": 0, "name": "d4962015a1bf1532fbf752725d1c9736", "type": "electric_scooter", "bike_id": "d4962015a1bf1532fbf752725d1c9736", "rental_uris": {"ios": "https://dc.lft.to/lastmile_qr_scan", "android": "https://dc.lft.to/lastmile_qr_scan"}, "fusion_lat": 0.0}, {"lat": 38.887404, "lon": -77.03173383333333, "is_disabled": 0, "fusion_lon": 0.0, "is_reserved": 0, "name": "98b0f03d104778bc238e0ec67678c0ee", "type": "electric_scooter", "bike_id": "98b0f03d104778bc238e0ec67678c0ee", "rental_uris": {"ios": "https://dc.lft.to/lastmile_qr_scan", "android": "https://dc.lft.to/lastmile_qr_scan"}, "fusion_lat": 0.0}, {"lat": 38.918080333333336, "lon": -77.03630783333334, "is_disabled": 0, "fusion_lon": 0.0, "is_reserved": 0, "name": "c689b7ecfbcf5e53355adeb72b29dc70", "type": "electric_scooter", "bike_id": "c689b7ecfbcf5e53355adeb72b29dc70", "rental_uris": {"ios": "https://dc.lft.to/lastmile_qr_scan", "android": "https://dc.lft.to/lastmile_qr_scan"}, "fusion_lat": 0.0}, {"lat": 38.93143883333333, "lon": -77.0383455, "is_disabled": 0, "fusion_lon": 0.0, "is_reserved": 0, "name": "0340a69609de2eb72efb1b0a3e7c2922", "type": "electric_scooter", "bike_id": "0340a69609de2eb72efb1b0a3e7c2922", "rental_uris": {"ios": "https://dc.lft.to/lastmile_qr_scan", "android": "https://dc.lft.to/lastmile_qr_scan"}, "fusion_lat": 0.0}, {"lat": 38.80750066666667, "lon": -77.09426983333333, "is_disabled": 0, "fusion_lon": 0.0, "is_reserved": 0, "name": "a41f716378cd16059a7e6ea9f12b26c1", "type": "electric_bike", "bike_id": "a41f716378cd16059a7e6ea9f12b26c1", "rental_uris": {"ios": "https://dc.lft.to/lastmile_qr_scan", "android": "https://dc.lft.to/lastmile_qr_scan"}, "fusion_lat": 0.0}, {"lat": 38.9270395, "lon": -77.02078016666667, "is_disabled": 0, "fusion_lon": 0.0, "is_reserved": 0, "name": "b4685ef347accbf1140279e8737f8851", "type": "electric_scooter", "bike_id": "b4685ef347accbf1140279e8737f8851", "rental_uris": {"ios": "https://dc.lft.to/lastmile_qr_scan", "android": "https://dc.lft.to/lastmile_qr_scan"}, "fusion_lat": 0.0}, {"lat": 38.9182785, "lon": -77.02419366666666, "is_disabled": 0, "fusion_lon": 0.0, "is_reserved": 0, "name": "ed04a477fa25e1f534944d1e4f29d1df", "type": "electric_scooter", "bike_id": "ed04a477fa25e1f534944d1e4f29d1df", "rental_uris": {"ios": "https://dc.lft.to/lastmile_qr_scan", "android": "https://dc.lft.to/lastmile_qr_scan"}, "fusion_lat": 0.0}, {"lat": 38.916801166666666, "lon": -77.0228135, "is_disabled": 0, "fusion_lon": 0.0, "is_reserved": 0, "name": "4a7e17c7463106cb2e9b1bebdd5cd01a", "type": "electric_scooter", "bike_id": "4a7e17c7463106cb2e9b1bebdd5cd01a", "rental_uris": {"ios": "https://dc.lft.to/lastmile_qr_scan", "android": "https://dc.lft.to/lastmile_qr_scan"}, "fusion_lat": 0.0}, {"lat": 38.89543883333333, "lon": -76.9834025, "is_disabled": 0, "fusion_lon": 0.0, "is_reserved": 0, "name": "3494fa4f2caf759d4d4cfa2b2aaa7dec", "type": "electric_scooter", "bike_id": "3494fa4f2caf759d4d4cfa2b2aaa7dec", "rental_uris": {"ios": "https://dc.lft.to/lastmile_qr_scan", "android": "https://dc.lft.to/lastmile_qr_scan"}, "fusion_lat": 0.0}, {"lat": 38.95597716666666, "lon": -77.01009383333333, "is_disabled": 0, "fusion_lon": 0.0, "is_reserved": 0, "name": "febf4e3043e351fe12e58f0029a792b9", "type": "electric_bike", "bike_id": "febf4e3043e351fe12e58f0029a792b9", "rental_uris": {"ios": "https://dc.lft.to/lastmile_qr_scan", "android": "https://dc.lft.to/lastmile_qr_scan"}, "fusion_lat": 0.0}, {"lat": 38.894431, "lon": -76.9782025, "is_disabled": 0, "fusion_lon": 0.0, "is_reserved": 0, "name": "5bf891f87dc1a837cfe8e9587f22248b", "type": "electric_scooter", "bike_id": "5bf891f87dc1a837cfe8e9587f22248b", "rental_uris": {"ios": "https://dc.lft.to/lastmile_qr_scan", "android": "https://dc.lft.to/lastmile_qr_scan"}, "fusion_lat": 0.0}, {"lat": 38.91102333333333, "lon": -77.00211016666667, "is_disabled": 0, "fusion_lon": 0.0, "is_reserved": 0, "name": "cc43cab0d93523393380233d4aa0cd5c", "type": "electric_scooter", "bike_id": "cc43cab0d93523393380233d4aa0cd5c", "rental_uris": {"ios": "https://dc.lft.to/lastmile_qr_scan", "android": "https://dc.lft.to/lastmile_qr_scan"}, "fusion_lat": 0.0}, {"lat": 38.905413, "lon": -77.05060116666667, "is_disabled": 0, "fusion_lon": 0.0, "is_reserved": 0, "name": "e34ef0bf19bdde0de0e7355131109636", "type": "electric_scooter", "bike_id": "e34ef0bf19bdde0de0e7355131109636", "rental_uris": {"ios": "https://dc.lft.to/lastmile_qr_scan", "android": "https://dc.lft.to/lastmile_qr_scan"}, "fusion_lat": 0.0}, {"lat": 38.92626966666667, "lon": -77.03706766666667, "is_disabled": 0, "fusion_lon": 0.0, "is_reserved": 0, "name": "b4d47499ab203243f8151a9fc0c1b01c", "type": "electric_scooter", "bike_id": "b4d47499ab203243f8151a9fc0c1b01c", "rental_uris": {"ios": "https://dc.lft.to/lastmile_qr_scan", "android": "https://dc.lft.to/lastmile_qr_scan"}, "fusion_lat": 0.0}, {"lat": 38.916009, "lon": -77.0120705, "is_disabled": 0, "fusion_lon": 0.0, "is_reserved": 0, "name": "5f6e7f9ded61ea2bfb80cad9a5545c7d", "type": "electric_scooter", "bike_id": "5f6e7f9ded61ea2bfb80cad9a5545c7d", "rental_uris": {"ios": "https://dc.lft.to/lastmile_qr_scan", "android": "https://dc.lft.to/lastmile_qr_scan"}, "fusion_lat": 0.0}, {"lat": 38.934672, "lon": -77.07216316666667, "is_disabled": 0, "fusion_lon": 0.0, "is_reserved": 0, "name": "1148fa16b99b84898a1b5a8104e5f0b7", "type": "electric_scooter", "bike_id": "1148fa16b99b84898a1b5a8104e5f0b7", "rental_uris": {"ios": "https://dc.lft.to/lastmile_qr_scan", "android": "https://dc.lft.to/lastmile_qr_scan"}, "fusion_lat": 0.0}, {"lat": 38.898248833333334, "lon": -77.03152616666667, "is_disabled": 0, "fusion_lon": 0.0, "is_reserved": 0, "name": "face913309d2b03165af575584b01e67", "type": "electric_scooter", "bike_id": "face913309d2b03165af575584b01e67", "rental_uris": {"ios": "https://dc.lft.to/lastmile_qr_scan", "android": "https://dc.lft.to/lastmile_qr_scan"}, "fusion_lat": 0.0}, {"lat": 38.92312066666667, "lon": -77.0305055, "is_disabled": 0, "fusion_lon": 0.0, "is_reserved": 0, "name": "47cded7d3f247c7d5b1c9fbeca30a181", "type": "electric_scooter", "bike_id": "47cded7d3f247c7d5b1c9fbeca30a181", "rental_uris": {"ios": "https://dc.lft.to/lastmile_qr_scan", "android": "https://dc.lft.to/lastmile_qr_scan"}, "fusion_lat": 0.0}, {"lat": 38.961315166666665, "lon": -77.03278933333333, "is_disabled": 0, "fusion_lon": 0.0, "is_reserved": 0, "name": "f71b02d22d3500728ebc3053660b0387", "type": "electric_bike", "bike_id": "f71b02d22d3500728ebc3053660b0387", "rental_uris": {"ios": "https://dc.lft.to/lastmile_qr_scan", "android": "https://dc.lft.to/lastmile_qr_scan"}, "fusion_lat": 0.0}, {"lat": 38.88826016666667, "lon": -76.97718216666667, "is_disabled": 0, "fusion_lon": 0.0, "is_reserved": 0, "name": "26831070b79eb352c6e78ce30238611d", "type": "electric_scooter", "bike_id": "26831070b79eb352c6e78ce30238611d", "rental_uris": {"ios": "https://dc.lft.to/lastmile_qr_scan", "android": "https://dc.lft.to/lastmile_qr_scan"}, "fusion_lat": 0.0}, {"lat": 38.91989366666667, "lon": -77.02393, "is_disabled": 0, "fusion_lon": 0.0, "is_reserved": 0, "name": "2e2c2b3245b507f27c107b37cbd4534c", "type": "electric_scooter", "bike_id": "2e2c2b3245b507f27c107b37cbd4534c", "rental_uris": {"ios": "https://dc.lft.to/lastmile_qr_scan", "android": "https://dc.lft.to/lastmile_qr_scan"}, "fusion_lat": 0.0}, {"lat": 38.925282333333335, "lon": -77.07710516666667, "is_disabled": 0, "fusion_lon": 0.0, "is_reserved": 0, "name": "dde3988e5aa0f15e3ada4cef134804e4", "type": "electric_scooter", "bike_id": "dde3988e5aa0f15e3ada4cef134804e4", "rental_uris": {"ios": "https://dc.lft.to/lastmile_qr_scan", "android": "https://dc.lft.to/lastmile_qr_scan"}, "fusion_lat": 0.0}, {"lat": 38.87726383333333, "lon": -77.0175205, "is_disabled": 0, "fusion_lon": 0.0, "is_reserved": 0, "name": "a83c3be7a922802b8a5c7b9fb7722f4b", "type": "electric_scooter", "bike_id": "a83c3be7a922802b8a5c7b9fb7722f4b", "rental_uris": {"ios": "https://dc.lft.to/lastmile_qr_scan", "android": "https://dc.lft.to/lastmile_qr_scan"}, "fusion_lat": 0.0}, {"lat": 38.91566566666667, "lon": -77.02004166666667, "is_disabled": 0, "fusion_lon": 0.0, "is_reserved": 0, "name": "871ef2a4787edc626d7031cfb4331fb5", "type": "electric_scooter", "bike_id": "871ef2a4787edc626d7031cfb4331fb5", "rental_uris": {"ios": "https://dc.lft.to/lastmile_qr_scan", "android": "https://dc.lft.to/lastmile_qr_scan"}, "fusion_lat": 0.0}, {"lat": 38.80765933333333, "lon": -77.12984816666666, "is_disabled": 0, "fusion_lon": 0.0, "is_reserved": 0, "name": "409b748203017844f4103a07e75ddaba", "type": "electric_bike", "bike_id": "409b748203017844f4103a07e75ddaba", "rental_uris": {"ios": "https://dc.lft.to/lastmile_qr_scan", "android": "https://dc.lft.to/lastmile_qr_scan"}, "fusion_lat": 0.0}, {"lat": 38.875361166666664, "lon": -77.00507916666666, "is_disabled": 0, "fusion_lon": 0.0, "is_reserved": 0, "name": "54b35f36296425e1df45c95f940a61ff", "type": "electric_scooter", "bike_id": "54b35f36296425e1df45c95f940a61ff", "rental_uris": {"ios": "https://dc.lft.to/lastmile_qr_scan", "android": "https://dc.lft.to/lastmile_qr_scan"}, "fusion_lat": 0.0}, {"lat": 38.92398133333333, "lon": -77.03533966666667, "is_disabled": 0, "fusion_lon": 0.0, "is_reserved": 0, "name": "ec7d3dedc83a27a8353b64268f54335a", "type": "electric_scooter", "bike_id": "ec7d3dedc83a27a8353b64268f54335a", "rental_uris": {"ios": "https://dc.lft.to/lastmile_qr_scan", "android": "https://dc.lft.to/lastmile_qr_scan"}, "fusion_lat": 0.0}, {"lat": 38.88179916666667, "lon": -76.99262766666666, "is_disabled": 0, "fusion_lon": 0.0, "is_reserved": 0, "name": "66889c37f77e8bf426dd0c012f231493", "type": "electric_scooter", "bike_id": "66889c37f77e8bf426dd0c012f231493", "rental_uris": {"ios": "https://dc.lft.to/lastmile_qr_scan", "android": "https://dc.lft.to/lastmile_qr_scan"}, "fusion_lat": 0.0}, {"lat": 38.895384, "lon": -76.949573, "is_disabled": 0, "fusion_lon": 0.0, "is_reserved": 0, "name": "da0056339556d4e3a97fe65574162c61", "type": "electric_scooter", "bike_id": "da0056339556d4e3a97fe65574162c61", "rental_uris": {"ios": "https://dc.lft.to/lastmile_qr_scan", "android": "https://dc.lft.to/lastmile_qr_scan"}, "fusion_lat": 0.0}, {"lat": 38.90599666666667, "lon": -77.00725133333333, "is_disabled": 0, "fusion_lon": 0.0, "is_reserved": 0, "name": "641c8d7930bd9d7684bb98c2c2740a4a", "type": "electric_scooter", "bike_id": "641c8d7930bd9d7684bb98c2c2740a4a", "rental_uris": {"ios": "https://dc.lft.to/lastmile_qr_scan", "android": "https://dc.lft.to/lastmile_qr_scan"}, "fusion_lat": 0.0}, {"lat": 38.89557466666667, "lon": -76.94876983333333, "is_disabled": 0, "fusion_lon": 0.0, "is_reserved": 0, "name": "125857c823eba76714b9ecba2a362781", "type": "electric_scooter", "bike_id": "125857c823eba76714b9ecba2a362781", "rental_uris": {"ios": "https://dc.lft.to/lastmile_qr_scan", "android": "https://dc.lft.to/lastmile_qr_scan"}, "fusion_lat": 0.0}, {"lat": 38.91799566666667, "lon": -77.0344485, "is_disabled": 0, "fusion_lon": 0.0, "is_reserved": 0, "name": "189dd1597d246c9dd4328f0ff182f662", "type": "electric_scooter", "bike_id": "189dd1597d246c9dd4328f0ff182f662", "rental_uris": {"ios": "https://dc.lft.to/lastmile_qr_scan", "android": "https://dc.lft.to/lastmile_qr_scan"}, "fusion_lat": 0.0}, {"lat": 38.922374, "lon": -77.0351785, "is_disabled": 0, "fusion_lon": 0.0, "is_reserved": 0, "name": "1ed2ca0c5379ccaa58fa08e5d5c28634", "type": "electric_scooter", "bike_id": "1ed2ca0c5379ccaa58fa08e5d5c28634", "rental_uris": {"ios": "https://dc.lft.to/lastmile_qr_scan", "android": "https://dc.lft.to/lastmile_qr_scan"}, "fusion_lat": 0.0}, {"lat": 38.87820033333333, "lon": -77.02243716666666, "is_disabled": 0, "fusion_lon": 0.0, "is_reserved": 0, "name": "280a1d70a1db9ac99edd96f440f13241", "type": "electric_scooter", "bike_id": "280a1d70a1db9ac99edd96f440f13241", "rental_uris": {"ios": "https://dc.lft.to/lastmile_qr_scan", "android": "https://dc.lft.to/lastmile_qr_scan"}, "fusion_lat": 0.0}, {"lat": 38.856533666666664, "lon": -77.085265, "is_disabled": 0, "fusion_lon": 0.0, "is_reserved": 0, "name": "adbecc516531632f61f38bcd45ff9fa1", "type": "electric_bike", "bike_id": "adbecc516531632f61f38bcd45ff9fa1", "rental_uris": {"ios": "https://dc.lft.to/lastmile_qr_scan", "android": "https://dc.lft.to/lastmile_qr_scan"}, "fusion_lat": 0.0}, {"lat": 38.91907666666667, "lon": -77.0319395, "is_disabled": 0, "fusion_lon": 0.0, "is_reserved": 0, "name": "681838bc60df7a595e3c427d2a49aad4", "type": "electric_scooter", "bike_id": "681838bc60df7a595e3c427d2a49aad4", "rental_uris": {"ios": "https://dc.lft.to/lastmile_qr_scan", "android": "https://dc.lft.to/lastmile_qr_scan"}, "fusion_lat": 0.0}, {"lat": 38.9170565, "lon": -77.02485666666666, "is_disabled": 0, "fusion_lon": 0.0, "is_reserved": 0, "name": "f8faf85958e397bdad93b59882082f2a", "type": "electric_scooter", "bike_id": "f8faf85958e397bdad93b59882082f2a", "rental_uris": {"ios": "https://dc.lft.to/lastmile_qr_scan", "android": "https://dc.lft.to/lastmile_qr_scan"}, "fusion_lat": 0.0}, {"lat": 38.928705666666666, "lon": -77.0346145, "is_disabled": 0, "fusion_lon": 0.0, "is_reserved": 0, "name": "b1ca494a2757458abd9989acf43f7745", "type": "electric_scooter", "bike_id": "b1ca494a2757458abd9989acf43f7745", "rental_uris": {"ios": "https://dc.lft.to/lastmile_qr_scan", "android": "https://dc.lft.to/lastmile_qr_scan"}, "fusion_lat": 0.0}, {"lat": 38.90404316666667, "lon": -77.020136, "is_disabled": 0, "fusion_lon": 0.0, "is_reserved": 0, "name": "1ba63044526ecf9f6df272e37753ab48", "type": "electric_scooter", "bike_id": "1ba63044526ecf9f6df272e37753ab48", "rental_uris": {"ios": "https://dc.lft.to/lastmile_qr_scan", "android": "https://dc.lft.to/lastmile_qr_scan"}, "fusion_lat": 0.0}, {"lat": 38.902294499999996, "lon": -77.04702366666666, "is_disabled": 0, "fusion_lon": 0.0, "is_reserved": 0, "name": "72bdd58a80914f337537a8c8390c1ed2", "type": "electric_scooter", "bike_id": "72bdd58a80914f337537a8c8390c1ed2", "rental_uris": {"ios": "https://dc.lft.to/lastmile_qr_scan", "android": "https://dc.lft.to/lastmile_qr_scan"}, "fusion_lat": 0.0}, {"lat": 38.901462, "lon": -77.01905933333333, "is_disabled": 0, "fusion_lon": 0.0, "is_reserved": 0, "name": "fb6cc57971f1c05751affa3ef0b3fac9", "type": "electric_scooter", "bike_id": "fb6cc57971f1c05751affa3ef0b3fac9", "rental_uris": {"ios": "https://dc.lft.to/lastmile_qr_scan", "android": "https://dc.lft.to/lastmile_qr_scan"}, "fusion_lat": 0.0}, {"lat": 38.91109216666667, "lon": -77.04543633333333, "is_disabled": 0, "fusion_lon": 0.0, "is_reserved": 0, "name": "552f614537232cddb4345e6e20f01222", "type": "electric_scooter", "bike_id": "552f614537232cddb4345e6e20f01222", "rental_uris": {"ios": "https://dc.lft.to/lastmile_qr_scan", "android": "https://dc.lft.to/lastmile_qr_scan"}, "fusion_lat": 0.0}, {"lat": 38.90066133333333, "lon": -76.9274595, "is_disabled": 0, "fusion_lon": 0.0, "is_reserved": 0, "name": "beb1ace9573b939cfc8ba1e21b3dcf99", "type": "electric_scooter", "bike_id": "beb1ace9573b939cfc8ba1e21b3dcf99", "rental_uris": {"ios": "https://dc.lft.to/lastmile_qr_scan", "android": "https://dc.lft.to/lastmile_qr_scan"}, "fusion_lat": 0.0}, {"lat": 38.8972795, "lon": -77.02325216666667, "is_disabled": 0, "fusion_lon": 0.0, "is_reserved": 0, "name": "c22fa905a7be11f1927abdaf3ed112a9", "type": "electric_scooter", "bike_id": "c22fa905a7be11f1927abdaf3ed112a9", "rental_uris": {"ios": "https://dc.lft.to/lastmile_qr_scan", "android": "https://dc.lft.to/lastmile_qr_scan"}, "fusion_lat": 0.0}, {"lat": 38.9035445, "lon": -77.02378466666667, "is_disabled": 0, "fusion_lon": 0.0, "is_reserved": 0, "name": "e3fc1b5855305bc88db35f12147e77c3", "type": "electric_scooter", "bike_id": "e3fc1b5855305bc88db35f12147e77c3", "rental_uris": {"ios": "https://dc.lft.to/lastmile_qr_scan", "android": "https://dc.lft.to/lastmile_qr_scan"}, "fusion_lat": 0.0}, {"lat": 38.925778333333334, "lon": -77.0400845, "is_disabled": 0, "fusion_lon": 0.0, "is_reserved": 0, "name": "0278764e946754eeb822661fd6919ac7", "type": "electric_scooter", "bike_id": "0278764e946754eeb822661fd6919ac7", "rental_uris": {"ios": "https://dc.lft.to/lastmile_qr_scan", "android": "https://dc.lft.to/lastmile_qr_scan"}, "fusion_lat": 0.0}, {"lat": 38.9104585, "lon": -77.03440166666667, "is_disabled": 0, "fusion_lon": 0.0, "is_reserved": 0, "name": "c76204575c3668eeb4c5b1c91ba267a2", "type": "electric_scooter", "bike_id": "c76204575c3668eeb4c5b1c91ba267a2", "rental_uris": {"ios": "https://dc.lft.to/lastmile_qr_scan", "android": "https://dc.lft.to/lastmile_qr_scan"}, "fusion_lat": 0.0}, {"lat": 38.91675933333333, "lon": -77.02380783333334, "is_disabled": 0, "fusion_lon": 0.0, "is_reserved": 0, "name": "9a349c1dd862793e0a76e1cb5dd80858", "type": "electric_scooter", "bike_id": "9a349c1dd862793e0a76e1cb5dd80858", "rental_uris": {"ios": "https://dc.lft.to/lastmile_qr_scan", "android": "https://dc.lft.to/lastmile_qr_scan"}, "fusion_lat": 0.0}, {"lat": 38.93357666666667, "lon": -77.0620015, "is_disabled": 0, "fusion_lon": 0.0, "is_reserved": 0, "name": "dd31567e5bef79f742922c52962178f3", "type": "electric_scooter", "bike_id": "dd31567e5bef79f742922c52962178f3", "rental_uris": {"ios": "https://dc.lft.to/lastmile_qr_scan", "android": "https://dc.lft.to/lastmile_qr_scan"}, "fusion_lat": 0.0}, {"lat": 38.897422, "lon": -76.99208583333333, "is_disabled": 0, "fusion_lon": 0.0, "is_reserved": 0, "name": "fc977211cb6be76d0d0e2ab676140bed", "type": "electric_bike", "bike_id": "fc977211cb6be76d0d0e2ab676140bed", "rental_uris": {"ios": "https://dc.lft.to/lastmile_qr_scan", "android": "https://dc.lft.to/lastmile_qr_scan"}, "fusion_lat": 0.0}, {"lat": 38.92479066666667, "lon": -77.0355345, "is_disabled": 0, "fusion_lon": 0.0, "is_reserved": 0, "name": "5e530596904f9b9f4a413ae90a905942", "type": "electric_scooter", "bike_id": "5e530596904f9b9f4a413ae90a905942", "rental_uris": {"ios": "https://dc.lft.to/lastmile_qr_scan", "android": "https://dc.lft.to/lastmile_qr_scan"}, "fusion_lat": 0.0}, {"lat": 38.898732, "lon": -77.0218485, "is_disabled": 0, "fusion_lon": 0.0, "is_reserved": 0, "name": "f94ff18df2439b8a824e6cbab6d9efff", "type": "electric_scooter", "bike_id": "f94ff18df2439b8a824e6cbab6d9efff", "rental_uris": {"ios": "https://dc.lft.to/lastmile_qr_scan", "android": "https://dc.lft.to/lastmile_qr_scan"}, "fusion_lat": 0.0}, {"lat": 38.917572666666665, "lon": -77.03220716666667, "is_disabled": 0, "fusion_lon": 0.0, "is_reserved": 0, "name": "f0463578c4200f3fb38399802a3bc36f", "type": "electric_scooter", "bike_id": "f0463578c4200f3fb38399802a3bc36f", "rental_uris": {"ios": "https://dc.lft.to/lastmile_qr_scan", "android": "https://dc.lft.to/lastmile_qr_scan"}, "fusion_lat": 0.0}, {"lat": 38.90012, "lon": -76.9974885, "is_disabled": 0, "fusion_lon": 0.0, "is_reserved": 0, "name": "ff4e229f612093ec4a98ba87bfeae691", "type": "electric_scooter", "bike_id": "ff4e229f612093ec4a98ba87bfeae691", "rental_uris": {"ios": "https://dc.lft.to/lastmile_qr_scan", "android": "https://dc.lft.to/lastmile_qr_scan"}, "fusion_lat": 0.0}, {"lat": 38.92601333333333, "lon": -77.03544366666667, "is_disabled": 0, "fusion_lon": 0.0, "is_reserved": 0, "name": "2f49c2f121a48ace64ea8964b9240530", "type": "electric_scooter", "bike_id": "2f49c2f121a48ace64ea8964b9240530", "rental_uris": {"ios": "https://dc.lft.to/lastmile_qr_scan", "android": "https://dc.lft.to/lastmile_qr_scan"}, "fusion_lat": 0.0}, {"lat": 38.917162, "lon": -77.0122855, "is_disabled": 0, "fusion_lon": 0.0, "is_reserved": 0, "name": "24dbaf123ba4b1a2ca900e5c100ed0dd", "type": "electric_scooter", "bike_id": "24dbaf123ba4b1a2ca900e5c100ed0dd", "rental_uris": {"ios": "https://dc.lft.to/lastmile_qr_scan", "android": "https://dc.lft.to/lastmile_qr_scan"}, "fusion_lat": 0.0}, {"lat": 38.914169666666666, "lon": -77.0209585, "is_disabled": 0, "fusion_lon": 0.0, "is_reserved": 0, "name": "f7172a97bc16d9124e7ba55cc6e1ce4b", "type": "electric_scooter", "bike_id": "f7172a97bc16d9124e7ba55cc6e1ce4b", "rental_uris": {"ios": "https://dc.lft.to/lastmile_qr_scan", "android": "https://dc.lft.to/lastmile_qr_scan"}, "fusion_lat": 0.0}, {"lat": 38.914822666666666, "lon": -77.046051, "is_disabled": 0, "fusion_lon": 0.0, "is_reserved": 0, "name": "095ea6435e3820e47619a36c6d63acdf", "type": "electric_scooter", "bike_id": "095ea6435e3820e47619a36c6d63acdf", "rental_uris": {"ios": "https://dc.lft.to/lastmile_qr_scan", "android": "https://dc.lft.to/lastmile_qr_scan"}, "fusion_lat": 0.0}, {"lat": 38.92672366666667, "lon": -77.02123316666666, "is_disabled": 0, "fusion_lon": 0.0, "is_reserved": 0, "name": "b65a1a965bd9b29466b63de3d52373df", "type": "electric_scooter", "bike_id": "b65a1a965bd9b29466b63de3d52373df", "rental_uris": {"ios": "https://dc.lft.to/lastmile_qr_scan", "android": "https://dc.lft.to/lastmile_qr_scan"}, "fusion_lat": 0.0}, {"lat": 38.915526666666665, "lon": -77.031818, "is_disabled": 0, "fusion_lon": 0.0, "is_reserved": 0, "name": "55bc9b6f8cedd8cb545d7feb201ce5ce", "type": "electric_scooter", "bike_id": "55bc9b6f8cedd8cb545d7feb201ce5ce", "rental_uris": {"ios": "https://dc.lft.to/lastmile_qr_scan", "android": "https://dc.lft.to/lastmile_qr_scan"}, "fusion_lat": 0.0}, {"lat": 38.93085966666666, "lon": -77.02810783333334, "is_disabled": 0, "fusion_lon": 0.0, "is_reserved": 0, "name": "dab69061801807bd08606b586d185257", "type": "electric_scooter", "bike_id": "dab69061801807bd08606b586d185257", "rental_uris": {"ios": "https://dc.lft.to/lastmile_qr_scan", "android": "https://dc.lft.to/lastmile_qr_scan"}, "fusion_lat": 0.0}, {"lat": 38.9154965, "lon": -77.0385655, "is_disabled": 0, "fusion_lon": 0.0, "is_reserved": 0, "name": "c7902d898251821d6a1acd6fcb191dee", "type": "electric_scooter", "bike_id": "c7902d898251821d6a1acd6fcb191dee", "rental_uris": {"ios": "https://dc.lft.to/lastmile_qr_scan", "android": "https://dc.lft.to/lastmile_qr_scan"}, "fusion_lat": 0.0}, {"lat": 38.922106, "lon": -77.04187166666667, "is_disabled": 0, "fusion_lon": 0.0, "is_reserved": 0, "name": "51446b40868ba176547f991e21b8483d", "type": "electric_scooter", "bike_id": "51446b40868ba176547f991e21b8483d", "rental_uris": {"ios": "https://dc.lft.to/lastmile_qr_scan", "android": "https://dc.lft.to/lastmile_qr_scan"}, "fusion_lat": 0.0}, {"lat": 38.8916265, "lon": -76.9948545, "is_disabled": 0, "fusion_lon": 0.0, "is_reserved": 0, "name": "2ddf4932cd8eafcfb9fdb8ffc4eb94b8", "type": "electric_scooter", "bike_id": "2ddf4932cd8eafcfb9fdb8ffc4eb94b8", "rental_uris": {"ios": "https://dc.lft.to/lastmile_qr_scan", "android": "https://dc.lft.to/lastmile_qr_scan"}, "fusion_lat": 0.0}, {"lat": 38.873104, "lon": -77.00138483333333, "is_disabled": 0, "fusion_lon": 0.0, "is_reserved": 0, "name": "0beafdecd3ec624faec052fee26954ce", "type": "electric_scooter", "bike_id": "0beafdecd3ec624faec052fee26954ce", "rental_uris": {"ios": "https://dc.lft.to/lastmile_qr_scan", "android": "https://dc.lft.to/lastmile_qr_scan"}, "fusion_lat": 0.0}, {"lat": 38.936127, "lon": -77.035383, "is_disabled": 0, "fusion_lon": 0.0, "is_reserved": 0, "name": "a1f7291f6325b4a98c02e2997b1d5287", "type": "electric_bike", "bike_id": "a1f7291f6325b4a98c02e2997b1d5287", "rental_uris": {"ios": "https://dc.lft.to/lastmile_qr_scan", "android": "https://dc.lft.to/lastmile_qr_scan"}, "fusion_lat": 0.0}, {"lat": 38.92145683333333, "lon": -77.01812016666666, "is_disabled": 0, "fusion_lon": 0.0, "is_reserved": 0, "name": "0b4de91e12ec109305eb3605279594e4", "type": "electric_scooter", "bike_id": "0b4de91e12ec109305eb3605279594e4", "rental_uris": {"ios": "https://dc.lft.to/lastmile_qr_scan", "android": "https://dc.lft.to/lastmile_qr_scan"}, "fusion_lat": 0.0}, {"lat": 38.92099733333333, "lon": -77.0251095, "is_disabled": 0, "fusion_lon": 0.0, "is_reserved": 0, "name": "50252e8effc171ae153f8b5f48d6dca4", "type": "electric_scooter", "bike_id": "50252e8effc171ae153f8b5f48d6dca4", "rental_uris": {"ios": "https://dc.lft.to/lastmile_qr_scan", "android": "https://dc.lft.to/lastmile_qr_scan"}, "fusion_lat": 0.0}, {"lat": 38.933683333333335, "lon": -77.05730866666667, "is_disabled": 0, "fusion_lon": 0.0, "is_reserved": 0, "name": "b4de39e62bceb244947ae7bec716f4ff", "type": "electric_scooter", "bike_id": "b4de39e62bceb244947ae7bec716f4ff", "rental_uris": {"ios": "https://dc.lft.to/lastmile_qr_scan", "android": "https://dc.lft.to/lastmile_qr_scan"}, "fusion_lat": 0.0}, {"lat": 38.900314, "lon": -77.01182216666666, "is_disabled": 0, "fusion_lon": 0.0, "is_reserved": 0, "name": "f6868cfd50333f3929a0d8055ba8af8f", "type": "electric_scooter", "bike_id": "f6868cfd50333f3929a0d8055ba8af8f", "rental_uris": {"ios": "https://dc.lft.to/lastmile_qr_scan", "android": "https://dc.lft.to/lastmile_qr_scan"}, "fusion_lat": 0.0}, {"lat": 38.90119516666667, "lon": -77.002059, "is_disabled": 0, "fusion_lon": 0.0, "is_reserved": 0, "name": "12edaae1c9e33de07b188979c093b2d4", "type": "electric_scooter", "bike_id": "12edaae1c9e33de07b188979c093b2d4", "rental_uris": {"ios": "https://dc.lft.to/lastmile_qr_scan", "android": "https://dc.lft.to/lastmile_qr_scan"}, "fusion_lat": 0.0}, {"lat": 38.916185, "lon": -77.03185683333334, "is_disabled": 0, "fusion_lon": 0.0, "is_reserved": 0, "name": "1528314429c054b6f593cc20b7899c07", "type": "electric_scooter", "bike_id": "1528314429c054b6f593cc20b7899c07", "rental_uris": {"ios": "https://dc.lft.to/lastmile_qr_scan", "android": "https://dc.lft.to/lastmile_qr_scan"}, "fusion_lat": 0.0}, {"lat": 38.90730333333333, "lon": -77.03594533333333, "is_disabled": 0, "fusion_lon": 0.0, "is_reserved": 0, "name": "23807e355e620b30b950a043087c9f0d", "type": "electric_scooter", "bike_id": "23807e355e620b30b950a043087c9f0d", "rental_uris": {"ios": "https://dc.lft.to/lastmile_qr_scan", "android": "https://dc.lft.to/lastmile_qr_scan"}, "fusion_lat": 0.0}, {"lat": 38.9159785, "lon": -77.01206066666667, "is_disabled": 0, "fusion_lon": 0.0, "is_reserved": 0, "name": "c0b4cbcfd337e09f3b6e69d172fbe6f2", "type": "electric_scooter", "bike_id": "c0b4cbcfd337e09f3b6e69d172fbe6f2", "rental_uris": {"ios": "https://dc.lft.to/lastmile_qr_scan", "android": "https://dc.lft.to/lastmile_qr_scan"}, "fusion_lat": 0.0}, {"lat": 38.91828066666667, "lon": -77.03658633333333, "is_disabled": 0, "fusion_lon": 0.0, "is_reserved": 0, "name": "4a4b47aa3e4a7236406593e291b20526", "type": "electric_scooter", "bike_id": "4a4b47aa3e4a7236406593e291b20526", "rental_uris": {"ios": "https://dc.lft.to/lastmile_qr_scan", "android": "https://dc.lft.to/lastmile_qr_scan"}, "fusion_lat": 0.0}, {"lat": 38.9248315, "lon": -77.0521955, "is_disabled": 0, "fusion_lon": 0.0, "is_reserved": 0, "name": "67b34e833ebc012e77bf6d58d9bf0f53", "type": "electric_scooter", "bike_id": "67b34e833ebc012e77bf6d58d9bf0f53", "rental_uris": {"ios": "https://dc.lft.to/lastmile_qr_scan", "android": "https://dc.lft.to/lastmile_qr_scan"}, "fusion_lat": 0.0}, {"lat": 38.90870566666667, "lon": -77.06381216666666, "is_disabled": 0, "fusion_lon": 0.0, "is_reserved": 0, "name": "dfba96fe8bfe1297c535e742349d242e", "type": "electric_scooter", "bike_id": "dfba96fe8bfe1297c535e742349d242e", "rental_uris": {"ios": "https://dc.lft.to/lastmile_qr_scan", "android": "https://dc.lft.to/lastmile_qr_scan"}, "fusion_lat": 0.0}, {"lat": 38.933667, "lon": -77.03660366666666, "is_disabled": 0, "fusion_lon": 0.0, "is_reserved": 0, "name": "3a5736d1d1af15e14680cafd38912804", "type": "electric_scooter", "bike_id": "3a5736d1d1af15e14680cafd38912804", "rental_uris": {"ios": "https://dc.lft.to/lastmile_qr_scan", "android": "https://dc.lft.to/lastmile_qr_scan"}, "fusion_lat": 0.0}, {"lat": 38.87232133333333, "lon": -77.0121735, "is_disabled": 0, "fusion_lon": 0.0, "is_reserved": 0, "name": "7fea39d0097fdfe213085a1a4dafab64", "type": "electric_scooter", "bike_id": "7fea39d0097fdfe213085a1a4dafab64", "rental_uris": {"ios": "https://dc.lft.to/lastmile_qr_scan", "android": "https://dc.lft.to/lastmile_qr_scan"}, "fusion_lat": 0.0}, {"lat": 38.9249145, "lon": -77.021396, "is_disabled": 0, "fusion_lon": 0.0, "is_reserved": 0, "name": "b01d2d79abdf269dc4fb244b7ad01862", "type": "electric_scooter", "bike_id": "b01d2d79abdf269dc4fb244b7ad01862", "rental_uris": {"ios": "https://dc.lft.to/lastmile_qr_scan", "android": "https://dc.lft.to/lastmile_qr_scan"}, "fusion_lat": 0.0}, {"lat": 38.8962025, "lon": -77.00192583333333, "is_disabled": 0, "fusion_lon": 0.0, "is_reserved": 0, "name": "4190b18f7435af279cae4b5a87eeb603", "type": "electric_scooter", "bike_id": "4190b18f7435af279cae4b5a87eeb603", "rental_uris": {"ios": "https://dc.lft.to/lastmile_qr_scan", "android": "https://dc.lft.to/lastmile_qr_scan"}, "fusion_lat": 0.0}, {"lat": 38.90898216666667, "lon": -77.03211716666667, "is_disabled": 0, "fusion_lon": 0.0, "is_reserved": 0, "name": "c4aa03a5b45c5f52ec841f4b24142c98", "type": "electric_scooter", "bike_id": "c4aa03a5b45c5f52ec841f4b24142c98", "rental_uris": {"ios": "https://dc.lft.to/lastmile_qr_scan", "android": "https://dc.lft.to/lastmile_qr_scan"}, "fusion_lat": 0.0}, {"lat": 38.94298083333334, "lon": -77.0217365, "is_disabled": 0, "fusion_lon": 0.0, "is_reserved": 0, "name": "ba739d8d5fb3a21b4d9efb68d4fb6284", "type": "electric_scooter", "bike_id": "ba739d8d5fb3a21b4d9efb68d4fb6284", "rental_uris": {"ios": "https://dc.lft.to/lastmile_qr_scan", "android": "https://dc.lft.to/lastmile_qr_scan"}, "fusion_lat": 0.0}, {"lat": 38.911327166666666, "lon": -77.02199683333333, "is_disabled": 0, "fusion_lon": 0.0, "is_reserved": 0, "name": "f3c7001e766dee8a631dac092f5e61ad", "type": "electric_scooter", "bike_id": "f3c7001e766dee8a631dac092f5e61ad", "rental_uris": {"ios": "https://dc.lft.to/lastmile_qr_scan", "android": "https://dc.lft.to/lastmile_qr_scan"}, "fusion_lat": 0.0}, {"lat": 38.8922405, "lon": -77.02628533333333, "is_disabled": 0, "fusion_lon": 0.0, "is_reserved": 0, "name": "4e7c09954c533cacaf60a14de6641c72", "type": "electric_scooter", "bike_id": "4e7c09954c533cacaf60a14de6641c72", "rental_uris": {"ios": "https://dc.lft.to/lastmile_qr_scan", "android": "https://dc.lft.to/lastmile_qr_scan"}, "fusion_lat": 0.0}, {"lat": 38.9250165, "lon": -77.02406433333333, "is_disabled": 0, "fusion_lon": 0.0, "is_reserved": 0, "name": "bd0aab0d13e3c03338c4137d817dfcbc", "type": "electric_scooter", "bike_id": "bd0aab0d13e3c03338c4137d817dfcbc", "rental_uris": {"ios": "https://dc.lft.to/lastmile_qr_scan", "android": "https://dc.lft.to/lastmile_qr_scan"}, "fusion_lat": 0.0}, {"lat": 38.90395983333333, "lon": -77.06804166666667, "is_disabled": 0, "fusion_lon": 0.0, "is_reserved": 0, "name": "6b70272a3c8be94b53420c40c2822fec", "type": "electric_scooter", "bike_id": "6b70272a3c8be94b53420c40c2822fec", "rental_uris": {"ios": "https://dc.lft.to/lastmile_qr_scan", "android": "https://dc.lft.to/lastmile_qr_scan"}, "fusion_lat": 0.0}, {"lat": 38.8960205, "lon": -76.99220466666667, "is_disabled": 0, "fusion_lon": 0.0, "is_reserved": 0, "name": "26a5a3e76a6c7c1791bb9141a388fc2f", "type": "electric_bike", "bike_id": "26a5a3e76a6c7c1791bb9141a388fc2f", "rental_uris": {"ios": "https://dc.lft.to/lastmile_qr_scan", "android": "https://dc.lft.to/lastmile_qr_scan"}, "fusion_lat": 0.0}, {"lat": 38.886092, "lon": -77.0031985, "is_disabled": 0, "fusion_lon": 0.0, "is_reserved": 0, "name": "76bad45bdb5d5bec5e5f19af91291442", "type": "electric_scooter", "bike_id": "76bad45bdb5d5bec5e5f19af91291442", "rental_uris": {"ios": "https://dc.lft.to/lastmile_qr_scan", "android": "https://dc.lft.to/lastmile_qr_scan"}, "fusion_lat": 0.0}, {"lat": 38.877162, "lon": -76.99690683333333, "is_disabled": 0, "fusion_lon": 0.0, "is_reserved": 0, "name": "0ce885186e8685013622a6b4fcdb48d0", "type": "electric_scooter", "bike_id": "0ce885186e8685013622a6b4fcdb48d0", "rental_uris": {"ios": "https://dc.lft.to/lastmile_qr_scan", "android": "https://dc.lft.to/lastmile_qr_scan"}, "fusion_lat": 0.0}, {"lat": 38.9068845, "lon": -77.07193983333333, "is_disabled": 0, "fusion_lon": 0.0, "is_reserved": 0, "name": "a2e160e85aef5b8277dfa65c9ed78c42", "type": "electric_scooter", "bike_id": "a2e160e85aef5b8277dfa65c9ed78c42", "rental_uris": {"ios": "https://dc.lft.to/lastmile_qr_scan", "android": "https://dc.lft.to/lastmile_qr_scan"}, "fusion_lat": 0.0}, {"lat": 38.95433233333333, "lon": -77.01853783333334, "is_disabled": 0, "fusion_lon": 0.0, "is_reserved": 0, "name": "0fa4da83f0fe1deaed96d00c67cb4841", "type": "electric_scooter", "bike_id": "0fa4da83f0fe1deaed96d00c67cb4841", "rental_uris": {"ios": "https://dc.lft.to/lastmile_qr_scan", "android": "https://dc.lft.to/lastmile_qr_scan"}, "fusion_lat": 0.0}, {"lat": 38.923136166666666, "lon": -77.03658766666666, "is_disabled": 0, "fusion_lon": 0.0, "is_reserved": 0, "name": "9b70583af33249e60e3b5679d458f43b", "type": "electric_scooter", "bike_id": "9b70583af33249e60e3b5679d458f43b", "rental_uris": {"ios": "https://dc.lft.to/lastmile_qr_scan", "android": "https://dc.lft.to/lastmile_qr_scan"}, "fusion_lat": 0.0}, {"lat": 38.919190666666665, "lon": -77.03147833333334, "is_disabled": 0, "fusion_lon": 0.0, "is_reserved": 0, "name": "02df12df6413880312b4fbc0632d33ea", "type": "electric_scooter", "bike_id": "02df12df6413880312b4fbc0632d33ea", "rental_uris": {"ios": "https://dc.lft.to/lastmile_qr_scan", "android": "https://dc.lft.to/lastmile_qr_scan"}, "fusion_lat": 0.0}, {"lat": 38.9071435, "lon": -77.03304266666666, "is_disabled": 0, "fusion_lon": 0.0, "is_reserved": 0, "name": "02763a6907062326cd9d5365c714dd84", "type": "electric_scooter", "bike_id": "02763a6907062326cd9d5365c714dd84", "rental_uris": {"ios": "https://dc.lft.to/lastmile_qr_scan", "android": "https://dc.lft.to/lastmile_qr_scan"}, "fusion_lat": 0.0}, {"lat": 38.919950166666666, "lon": -77.0178215, "is_disabled": 0, "fusion_lon": 0.0, "is_reserved": 0, "name": "27f53ec8d79bda3e8cdf1cbb5626e1ca", "type": "electric_scooter", "bike_id": "27f53ec8d79bda3e8cdf1cbb5626e1ca", "rental_uris": {"ios": "https://dc.lft.to/lastmile_qr_scan", "android": "https://dc.lft.to/lastmile_qr_scan"}, "fusion_lat": 0.0}, {"lat": 38.897320666666666, "lon": -77.033396, "is_disabled": 0, "fusion_lon": 0.0, "is_reserved": 0, "name": "2fbf6424661eef65ee8f829524225bb8", "type": "electric_scooter", "bike_id": "2fbf6424661eef65ee8f829524225bb8", "rental_uris": {"ios": "https://dc.lft.to/lastmile_qr_scan", "android": "https://dc.lft.to/lastmile_qr_scan"}, "fusion_lat": 0.0}, {"lat": 38.91132233333333, "lon": -77.02202466666667, "is_disabled": 0, "fusion_lon": 0.0, "is_reserved": 0, "name": "67a585c0afd998a58a9ed9152c8f6b53", "type": "electric_scooter", "bike_id": "67a585c0afd998a58a9ed9152c8f6b53", "rental_uris": {"ios": "https://dc.lft.to/lastmile_qr_scan", "android": "https://dc.lft.to/lastmile_qr_scan"}, "fusion_lat": 0.0}, {"lat": 38.892264833333336, "lon": -77.043279, "is_disabled": 0, "fusion_lon": 0.0, "is_reserved": 0, "name": "97c76e7fe6232f67641647d70b6377d4", "type": "electric_scooter", "bike_id": "97c76e7fe6232f67641647d70b6377d4", "rental_uris": {"ios": "https://dc.lft.to/lastmile_qr_scan", "android": "https://dc.lft.to/lastmile_qr_scan"}, "fusion_lat": 0.0}, {"lat": 38.9295145, "lon": -77.02747816666667, "is_disabled": 0, "fusion_lon": 0.0, "is_reserved": 0, "name": "71db77882deff8f43494f32bece82c98", "type": "electric_scooter", "bike_id": "71db77882deff8f43494f32bece82c98", "rental_uris": {"ios": "https://dc.lft.to/lastmile_qr_scan", "android": "https://dc.lft.to/lastmile_qr_scan"}, "fusion_lat": 0.0},