{"data": {"bikes": [{"bike_id": "5c855d9178b02572b071eeeeecb66df2", "is_reserved": 0, "fusion_lon": 0.0, "lat": 38.90400183333333, "is_disabled": 0, "name": "5c855d9178b02572b071eeeeecb66df2", "fusion_lat": 0.0, "rental_uris": {"ios": "https://dc.lft.to/lastmile_qr_scan", "android": "https://dc.lft.to/lastmile_qr_scan"}, "lon": -77.04216683333334, "type": "electric_scooter"}, {"bike_id": "9e344d7b756225187b0a399342a2de87", "is_reserved": 0, "fusion_lon": 0.0, "lat": 38.903768166666666, "is_disabled": 0, "name": "9e344d7b756225187b0a399342a2de87", "fusion_lat": 0.0, "rental_uris": {"ios": "https://dc.lft.to/lastmile_qr_scan", "android": "https://dc.lft.to/lastmile_qr_scan"}, "lon": -77.01769716666666, "type": "electric_scooter"}, {"bike_id": "4fb69140d2e385b5d35ca0b9551467c5", "is_reserved": 0, "fusion_lon": 0.0, "lat": 38.8853755, "is_disabled": 0, "name": "4fb69140d2e385b5d35ca0b9551467c5", "fusion_lat": 0.0, "rental_uris": {"ios": "https://dc.lft.to/lastmile_qr_scan", "android": "https://dc.lft.to/lastmile_qr_scan"}, "lon": -77.02967183333334, "type": "electric_scooter"}, {"bike_id": "d2d34d04d413e0555772ede2a8f01066", "is_reserved": 0, "fusion_lon": 0.0, "lat": 38.93903533333334, "is_disabled": 0, "name": "d2d34d04d413e0555772ede2a8f01066", "fusion_lat": 0.0, "rental_uris": {"ios": "https://dc.lft.to/lastmile_qr_scan", "android": "https://dc.lft.to/lastmile_qr_scan"}, "lon": -77.02825416666667, "type": "electric_bike"}, {"bike_id": "9510ed8e9b92ee93206dba832efdc977", "is_reserved": 0, "fusion_lon": 0.0, "lat": 38.920139, "is_disabled": 0, "name": "9510ed8e9b92ee93206dba832efdc977", "fusion_lat": 0.0, "rental_uris": {"ios": "https://dc.lft.to/lastmile_qr_scan", "android": "https://dc.lft.to/lastmile_qr_scan"}, "lon": -77.0387135, "type": "electric_scooter"}, {"bike_id": "e736deb4c69baa349362a10dda5d67fb", "is_reserved": 0, "fusion_lon": 0.0, "lat": 38.94014033333333, "is_disabled": 0, "name": "e736deb4c69baa349362a10dda5d67fb", "fusion_lat": 0.0, "rental_uris": {"ios": "https://dc.lft.to/lastmile_qr_scan", "android": "https://dc.lft.to/lastmile_qr_scan"}, "lon": -77.07173533333334, "type": "electric_scooter"}, {"bike_id": "8acced92c3f892071236510651b80d94", "is_reserved": 0, "fusion_lon": 0.0, "lat": 38.90407733333333, "is_disabled": 0, "name": "8acced92c3f892071236510651b80d94", "fusion_lat": 0.0, "rental_uris": {"ios": "https://dc.lft.to/lastmile_qr_scan", "android": "https://dc.lft.to/lastmile_qr_scan"}, "lon": -76.973291, "type": "electric_scooter"}, {"bike_id": "a2208ad7fd25bf1e6e156df640258e18", "is_reserved": 0, "fusion_lon": 0.0, "lat": 38.903664, "is_disabled": 0, "name": "a2208ad7fd25bf1e6e156df640258e18", "fusion_lat": 0.0, "rental_uris": {"ios": "https://dc.lft.to/lastmile_qr_scan", "android": "https://dc.lft.to/lastmile_qr_scan"}, "lon": -77.03679833333334, "type": "electric_scooter"}, {"bike_id": "715ab239387949fb651f4aef16da825b", "is_reserved": 0, "fusion_lon": 0.0, "lat": 38.9248905, "is_disabled": 0, "name": "715ab239387949fb651f4aef16da825b", "fusion_lat": 0.0, "rental_uris": {"ios": "https://dc.lft.to/lastmile_qr_scan", "android": "https://dc.lft.to/lastmile_qr_scan"}, "lon": -77.02836066666667, "type": "electric_scooter"}, {"bike_id": "28eb37e2b2684231db392c6207f18b77", "is_reserved": 0, "fusion_lon": 0.0, "lat": 38.919290833333335, "is_disabled": 0, "name": "28eb37e2b2684231db392c6207f18b77", "fusion_lat": 0.0, "rental_uris": {"ios": "https://dc.lft.to/lastmile_qr_scan", "android": "https://dc.lft.to/lastmile_qr_scan"}, "lon": -77.00975783333334, "type": "electric_scooter"}, {"bike_id": "4e3e21f01500afca70cb9ed2608b230d", "is_reserved": 0, "fusion_lon": 0.0, "lat": 38.903666, "is_disabled": 0, "name": "4e3e21f01500afca70cb9ed2608b230d", "fusion_lat": 0.0, "rental_uris": {"ios": "https://dc.lft.to/lastmile_qr_scan", "android": "https://dc.lft.to/lastmile_qr_scan"}, "lon": -76.98508716666667, "type": "electric_scooter"}, {"bike_id": "2b4a86ed035830bcad41e4e86916fb59", "is_reserved": 0, "fusion_lon": 0.0, "lat": 38.901421, "is_disabled": 0, "name": "2b4a86ed035830bcad41e4e86916fb59", "fusion_lat": 0.0, "rental_uris": {"ios": "https://dc.lft.to/lastmile_qr_scan", "android": "https://dc.lft.to/lastmile_qr_scan"}, "lon": -77.02915516666667, "type": "electric_scooter"}, {"bike_id": "ded6fc3f97876a3956e96e8c2c074ec7", "is_reserved": 0, "fusion_lon": 0.0, "lat": 38.905767166666664, "is_disabled": 0, "name": "ded6fc3f97876a3956e96e8c2c074ec7", "fusion_lat": 0.0, "rental_uris": {"ios": "https://dc.lft.to/lastmile_qr_scan", "android": "https://dc.lft.to/lastmile_qr_scan"}, "lon": -77.04884433333334, "type": "electric_scooter"}, {"bike_id": "b76382eb7e8a35de2f115f430a8f927f", "is_reserved": 0, "fusion_lon": 0.0, "lat": 38.900909666666664, "is_disabled": 0, "name": "b76382eb7e8a35de2f115f430a8f927f", "fusion_lat": 0.0, "rental_uris": {"ios": "https://dc.lft.to/lastmile_qr_scan", "android": "https://dc.lft.to/lastmile_qr_scan"}, "lon": -77.0504585, "type": "electric_scooter"}, {"bike_id": "10fc0a9ca9ad069cd301edcfe9803d55", "is_reserved": 0, "fusion_lon": 0.0, "lat": 38.91995883333333, "is_disabled": 0, "name": "10fc0a9ca9ad069cd301edcfe9803d55", "fusion_lat": 0.0, "rental_uris": {"ios": "https://dc.lft.to/lastmile_qr_scan", "android": "https://dc.lft.to/lastmile_qr_scan"}, "lon": -77.03470316666667, "type": "electric_scooter"}, {"bike_id": "ce2be1a6de4e2b66888c5cc3d3cac607", "is_reserved": 0, "fusion_lon": 0.0, "lat": 38.89823166666667, "is_disabled": 0, "name": "ce2be1a6de4e2b66888c5cc3d3cac607", "fusion_lat": 0.0, "rental_uris": {"ios": "https://dc.lft.to/lastmile_qr_scan", "android": "https://dc.lft.to/lastmile_qr_scan"}, "lon": -76.94651716666667, "type": "electric_scooter"}, {"bike_id": "a8b1f2e4524d7f30cbd7c0fcffb15692", "is_reserved": 0, "fusion_lon": 0.0, "lat": 38.900573333333334, "is_disabled": 0, "name": "a8b1f2e4524d7f30cbd7c0fcffb15692", "fusion_lat": 0.0, "rental_uris": {"ios": "https://dc.lft.to/lastmile_qr_scan", "android": "https://dc.lft.to/lastmile_qr_scan"}, "lon": -77.051448, "type": "electric_scooter"}, {"bike_id": "d0a652496f9655bf84058fef3402eb1e", "is_reserved": 0, "fusion_lon": 0.0, "lat": 38.91407816666667, "is_disabled": 0, "name": "d0a652496f9655bf84058fef3402eb1e", "fusion_lat": 0.0, "rental_uris": {"ios": "https://dc.lft.to/lastmile_qr_scan", "android": "https://dc.lft.to/lastmile_qr_scan"}, "lon": -77.03805633333333, "type": "electric_scooter"}, {"bike_id": "cdc651f5565fe4c9be6630e5204ec6f9", "is_reserved": 0, "fusion_lon": 0.0, "lat": 38.83980866666667, "is_disabled": 0, "name": "cdc651f5565fe4c9be6630e5204ec6f9", "fusion_lat": 0.0, "rental_uris": {"ios": "https://dc.lft.to/lastmile_qr_scan", "android": "https://dc.lft.to/lastmile_qr_scan"}, "lon": -77.00564116666666, "type": "electric_bike"}, {"bike_id": "2ccbbe1c80dd7225255a17ce8a3ce945", "is_reserved": 0, "fusion_lon": 0.0, "lat": 38.930797, "is_disabled": 0, "name": "2ccbbe1c80dd7225255a17ce8a3ce945", "fusion_lat": 0.0, "rental_uris": {"ios": "https://dc.lft.to/lastmile_qr_scan", "android": "https://dc.lft.to/lastmile_qr_scan"}, "lon": -77.02800416666666, "type": "electric_scooter"}, {"bike_id": "5a487442d9b88b9d42f5ef5ad2cc67d5", "is_reserved": 0, "fusion_lon": 0.0, "lat": 38.9055375, "is_disabled": 0, "name": "5a487442d9b88b9d42f5ef5ad2cc67d5", "fusion_lat": 0.0, "rental_uris": {"ios": "https://dc.lft.to/lastmile_qr_scan", "android": "https://dc.lft.to/lastmile_qr_scan"}, "lon": -77.02977533333333, "type": "electric_scooter"}, {"bike_id": "46bd3aa5e681737b28375e75bce423a2", "is_reserved": 0, "fusion_lon": 0.0, "lat": 38.866608, "is_disabled": 0, "name": "46bd3aa5e681737b28375e75bce423a2", "fusion_lat": 0.0, "rental_uris": {"ios": "https://dc.lft.to/lastmile_qr_scan", "android": "https://dc.lft.to/lastmile_qr_scan"}, "lon": -76.99016433333334, "type": "electric_scooter"}, {"bike_id": "103f63ebab2ac2cc0e18504a66a26bce", "is_reserved": 0, "fusion_lon": 0.0, "lat": 39.09458583333333, "is_disabled": 0, "name": "103f63ebab2ac2cc0e18504a66a26bce", "fusion_lat": 0.0, "rental_uris": {"ios": "https://dc.lft.to/lastmile_qr_scan", "android": "https://dc.lft.to/lastmile_qr_scan"}, "lon": -77.1499815, "type": "electric_bike"}, {"bike_id": "dae3307d0b0b0857989eb92b4a044dd8", "is_reserved": 0, "fusion_lon": 0.0, "lat": 38.827898, "is_disabled": 0, "name": "dae3307d0b0b0857989eb92b4a044dd8", "fusion_lat": 0.0, "rental_uris": {"ios": "https://dc.lft.to/lastmile_qr_scan", "android": "https://dc.lft.to/lastmile_qr_scan"}, "lon": -77.00912533333333, "type": "electric_bike"}, {"bike_id": "2d5174d41b2ed128c3cee6a27079cf09", "is_reserved": 0, "fusion_lon": 0.0, "lat": 38.921459, "is_disabled": 0, "name": "2d5174d41b2ed128c3cee6a27079cf09", "fusion_lat": 0.0, "rental_uris": {"ios": "https://dc.lft.to/lastmile_qr_scan", "android": "https://dc.lft.to/lastmile_qr_scan"}, "lon": -77.035355, "type": "electric_scooter"}, {"bike_id": "6b59e9c2be40066f350d52f2a1b5db47", "is_reserved": 0, "fusion_lon": 0.0, "lat": 38.9001305, "is_disabled": 0, "name": "6b59e9c2be40066f350d52f2a1b5db47", "fusion_lat": 0.0, "rental_uris": {"ios": "https://dc.lft.to/lastmile_qr_scan", "android": "https://dc.lft.to/lastmile_qr_scan"}, "lon": -76.99789983333334, "type": "electric_scooter"}, {"bike_id": "56d4eddccad48b75a923f465c531df0f", "is_reserved": 0, "fusion_lon": 0.0, "lat": 38.840705, "is_disabled": 0, "name": "56d4eddccad48b75a923f465c531df0f", "fusion_lat": 0.0, "rental_uris": {"ios": "https://dc.lft.to/lastmile_qr_scan", "android": "https://dc.lft.to/lastmile_qr_scan"}, "lon": -77.064031, "type": "electric_bike"}, {"bike_id": "e33d9a4077d9d7d3bb9f20298f5399b4", "is_reserved": 0, "fusion_lon": 0.0, "lat": 38.92723566666667, "is_disabled": 0, "name": "e33d9a4077d9d7d3bb9f20298f5399b4", "fusion_lat": 0.0, "rental_uris": {"ios": "https://dc.lft.to/lastmile_qr_scan", "android": "https://dc.lft.to/lastmile_qr_scan"}, "lon": -77.005732, "type": "electric_scooter"}, {"bike_id": "878f6966bc36f70c3758c7853c1e39b7", "is_reserved": 0, "fusion_lon": 0.0, "lat": 38.87268733333333, "is_disabled": 0, "name": "878f6966bc36f70c3758c7853c1e39b7", "fusion_lat": 0.0, "rental_uris": {"ios": "https://dc.lft.to/lastmile_qr_scan", "android": "https://dc.lft.to/lastmile_qr_scan"}, "lon": -76.979062, "type": "electric_bike"}, {"bike_id": "7e7dc7592944b368a54d5368b5aec8ff", "is_reserved": 0, "fusion_lon": 0.0, "lat": 38.898442833333334, "is_disabled": 0, "name": "7e7dc7592944b368a54d5368b5aec8ff", "fusion_lat": 0.0, "rental_uris": {"ios": "https://dc.lft.to/lastmile_qr_scan", "android": "https://dc.lft.to/lastmile_qr_scan"}, "lon": -76.94478416666666, "type": "electric_scooter"}, {"bike_id": "a1b165a9bd91b24b581c6e522c539e4e", "is_reserved": 0, "fusion_lon": 0.0, "lat": 38.88529616666667, "is_disabled": 0, "name": "a1b165a9bd91b24b581c6e522c539e4e", "fusion_lat": 0.0, "rental_uris": {"ios": "https://dc.lft.to/lastmile_qr_scan", "android": "https://dc.lft.to/lastmile_qr_scan"}, "lon": -76.98056983333333, "type": "electric_scooter"}, {"bike_id": "678d5a37e2bd428fa7a19160cc78a821", "is_reserved": 0, "fusion_lon": 0.0, "lat": 38.905476666666665, "is_disabled": 0, "name": "678d5a37e2bd428fa7a19160cc78a821", "fusion_lat": 0.0, "rental_uris": {"ios": "https://dc.lft.to/lastmile_qr_scan", "android": "https://dc.lft.to/lastmile_qr_scan"}, "lon": -77.0272335, "type": "electric_scooter"}, {"bike_id": "d644fe4e761d1ee262c99cb6e37e6de2", "is_reserved": 0, "fusion_lon": 0.0, "lat": 38.906187833333334, "is_disabled": 0, "name": "d644fe4e761d1ee262c99cb6e37e6de2", "fusion_lat": 0.0, "rental_uris": {"ios": "https://dc.lft.to/lastmile_qr_scan", "android": "https://dc.lft.to/lastmile_qr_scan"}, "lon": -77.03958266666666, "type": "electric_scooter"}, {"bike_id": "f5fca712b32eeb597f7e3d7be4b6056e", "is_reserved": 0, "fusion_lon": 0.0, "lat": 38.892794, "is_disabled": 0, "name": "f5fca712b32eeb597f7e3d7be4b6056e", "fusion_lat": 0.0, "rental_uris": {"ios": "https://dc.lft.to/lastmile_qr_scan", "android": "https://dc.lft.to/lastmile_qr_scan"}, "lon": -77.02611766666666, "type": "electric_scooter"}, {"bike_id": "85fca6dc0c34e77f9f9bea9c2874be29", "is_reserved": 0, "fusion_lon": 0.0, "lat": 38.91861033333333, "is_disabled": 0, "name": "85fca6dc0c34e77f9f9bea9c2874be29", "fusion_lat": 0.0, "rental_uris": {"ios": "https://dc.lft.to/lastmile_qr_scan", "android": "https://dc.lft.to/lastmile_qr_scan"}, "lon": -77.04458633333333, "type": "electric_scooter"}, {"bike_id": "bc483ea1abc0e277172b2ef59b947dd8", "is_reserved": 0, "fusion_lon": 0.0, "lat": 38.86519833333333, "is_disabled": 0, "name": "bc483ea1abc0e277172b2ef59b947dd8", "fusion_lat": 0.0, "rental_uris": {"ios": "https://dc.lft.to/lastmile_qr_scan", "android": "https://dc.lft.to/lastmile_qr_scan"}, "lon": -76.99034916666666, "type": "electric_scooter"}, {"bike_id": "0be74587af251261c8e3df3ef58efece", "is_reserved": 0, "fusion_lon": 0.0, "lat": 38.940864166666664, "is_disabled": 0, "name": "0be74587af251261c8e3df3ef58efece", "fusion_lat": 0.0, "rental_uris": {"ios": "https://dc.lft.to/lastmile_qr_scan", "android": "https://dc.lft.to/lastmile_qr_scan"}, "lon": -77.06196283333334, "type": "electric_scooter"}, {"bike_id": "7358190f52a6d62b49d5cfc424b9f729", "is_reserved": 0, "fusion_lon": 0.0, "lat": 38.8958745, "is_disabled": 0, "name": "7358190f52a6d62b49d5cfc424b9f729", "fusion_lat": 0.0, "rental_uris": {"ios": "https://dc.lft.to/lastmile_qr_scan", "android": "https://dc.lft.to/lastmile_qr_scan"}, "lon": -77.02183766666667, "type": "electric_scooter"}, {"bike_id": "6198b252b55446f8f9807d2bcbcdcc5c", "is_reserved": 0, "fusion_lon": 0.0, "lat": 38.876306, "is_disabled": 0, "name": "6198b252b55446f8f9807d2bcbcdcc5c", "fusion_lat": 0.0, "rental_uris": {"ios": "https://dc.lft.to/lastmile_qr_scan", "android": "https://dc.lft.to/lastmile_qr_scan"}, "lon": -76.96529533333333, "type": "electric_scooter"}, {"bike_id": "e3f87cf89a44c4b125a52098e6a79ca9", "is_reserved": 0, "fusion_lon": 0.0, "lat": 38.927728, "is_disabled": 0, "name": "e3f87cf89a44c4b125a52098e6a79ca9", "fusion_lat": 0.0, "rental_uris": {"ios": "https://dc.lft.to/lastmile_qr_scan", "android": "https://dc.lft.to/lastmile_qr_scan"}, "lon": -77.0730855, "type": "electric_scooter"}, {"bike_id": "1660ba6319240d722dd6173fbbd3ee1a", "is_reserved": 0, "fusion_lon": 0.0, "lat": 38.93875666666667, "is_disabled": 0, "name": "1660ba6319240d722dd6173fbbd3ee1a", "fusion_lat": 0.0, "rental_uris": {"ios": "https://dc.lft.to/lastmile_qr_scan", "android": "https://dc.lft.to/lastmile_qr_scan"}, "lon": -77.02481266666666, "type": "electric_scooter"}, {"bike_id": "103ff8124a09bd9c47771e5850de30eb", "is_reserved": 0, "fusion_lon": 0.0, "lat": 38.8666145, "is_disabled": 0, "name": "103ff8124a09bd9c47771e5850de30eb", "fusion_lat": 0.0, "rental_uris": {"ios": "https://dc.lft.to/lastmile_qr_scan", "android": "https://dc.lft.to/lastmile_qr_scan"}, "lon": -76.989012, "type": "electric_scooter"}, {"bike_id": "3bbf510dfd0d53ac83f811af83a9bcdd", "is_reserved": 0, "fusion_lon": 0.0, "lat": 38.89622966666667, "is_disabled": 0, "name": "3bbf510dfd0d53ac83f811af83a9bcdd", "fusion_lat": 0.0, "rental_uris": {"ios": "https://dc.lft.to/lastmile_qr_scan", "android": "https://dc.lft.to/lastmile_qr_scan"}, "lon": -77.04457766666667, "type": "electric_scooter"}, {"bike_id": "7cbeeba6c779a86580ad674303f22c33", "is_reserved": 0, "fusion_lon": 0.0, "lat": 38.9329175, "is_disabled": 0, "name": "7cbeeba6c779a86580ad674303f22c33", "fusion_lat": 0.0, "rental_uris": {"ios": "https://dc.lft.to/lastmile_qr_scan", "android": "https://dc.lft.to/lastmile_qr_scan"}, "lon": -77.039844, "type": "electric_scooter"}, {"bike_id": "4e6ec18c4dc38b65a2af03fa8dadd71e", "is_reserved": 0, "fusion_lon": 0.0, "lat": 38.886876, "is_disabled": 0, "name": "4e6ec18c4dc38b65a2af03fa8dadd71e", "fusion_lat": 0.0, "rental_uris": {"ios": "https://dc.lft.to/lastmile_qr_scan", "android": "https://dc.lft.to/lastmile_qr_scan"}, "lon": -76.95762583333334, "type": "electric_scooter"}, {"bike_id": "e3d92e19f4a1a0fa3e35d2e8f6733d5a", "is_reserved": 0, "fusion_lon": 0.0, "lat": 38.896144666666665, "is_disabled": 0, "name": "e3d92e19f4a1a0fa3e35d2e8f6733d5a", "fusion_lat": 0.0, "rental_uris": {"ios": "https://dc.lft.to/lastmile_qr_scan", "android": "https://dc.lft.to/lastmile_qr_scan"}, "lon": -77.02305866666667, "type": "electric_scooter"}, {"bike_id": "95c88c526640e22aab75b42def04f0d6", "is_reserved": 0, "fusion_lon": 0.0, "lat": 38.895276833333334, "is_disabled": 0, "name": "95c88c526640e22aab75b42def04f0d6", "fusion_lat": 0.0, "rental_uris": {"ios": "https://dc.lft.to/lastmile_qr_scan", "android": "https://dc.lft.to/lastmile_qr_scan"}, "lon": -77.0034325, "type": "electric_scooter"}, {"bike_id": "2e176923689c99179dd7d0b699160e14", "is_reserved": 0, "fusion_lon": 0.0, "lat": 38.8974045, "is_disabled": 0, "name": "2e176923689c99179dd7d0b699160e14", "fusion_lat": 0.0, "rental_uris": {"ios": "https://dc.lft.to/lastmile_qr_scan", "android": "https://dc.lft.to/lastmile_qr_scan"}, "lon": -76.938476, "type": "electric_scooter"}, {"bike_id": "f3c3d6332272647bbf5b8acf96f3c53b", "is_reserved": 0, "fusion_lon": 0.0, "lat": 38.90505733333333, "is_disabled": 0, "name": "f3c3d6332272647bbf5b8acf96f3c53b", "fusion_lat": 0.0, "rental_uris": {"ios": "https://dc.lft.to/lastmile_qr_scan", "android": "https://dc.lft.to/lastmile_qr_scan"}, "lon": -77.02824516666666, "type": "electric_scooter"}, {"bike_id": "3f549196a73d3cf229c940ffa6a4cd9a", "is_reserved": 0, "fusion_lon": 0.0, "lat": 38.928873, "is_disabled": 0, "name": "3f549196a73d3cf229c940ffa6a4cd9a", "fusion_lat": 0.0, "rental_uris": {"ios": "https://dc.lft.to/lastmile_qr_scan", "android": "https://dc.lft.to/lastmile_qr_scan"}, "lon": -77.01361833333333, "type": "electric_scooter"}, {"bike_id": "bfc042962ebaa9de34b67e486ad75e77", "is_reserved": 0, "fusion_lon": 0.0, "lat": 38.93338333333333, "is_disabled": 0, "name": "bfc042962ebaa9de34b67e486ad75e77", "fusion_lat": 0.0, "rental_uris": {"ios": "https://dc.lft.to/lastmile_qr_scan", "android": "https://dc.lft.to/lastmile_qr_scan"}, "lon": -77.03285233333334, "type": "electric_scooter"}, {"bike_id": "e61bdb44551bcf3cf1e33c5eedf1da2f", "is_reserved": 0, "fusion_lon": 0.0, "lat": 38.86518316666667, "is_disabled": 0, "name": "e61bdb44551bcf3cf1e33c5eedf1da2f", "fusion_lat": 0.0, "rental_uris": {"ios": "https://dc.lft.to/lastmile_qr_scan", "android": "https://dc.lft.to/lastmile_qr_scan"}, "lon": -76.99033483333334, "type": "electric_scooter"}, {"bike_id": "0e07762209c0b89cf15b4f3c3e85682c", "is_reserved": 0, "fusion_lon": 0.0, "lat": 38.83829516666667, "is_disabled": 0, "name": "0e07762209c0b89cf15b4f3c3e85682c", "fusion_lat": 0.0, "rental_uris": {"ios": "https://dc.lft.to/lastmile_qr_scan", "android": "https://dc.lft.to/lastmile_qr_scan"}, "lon": -76.99691383333334, "type": "electric_bike"}, {"bike_id": "75d8b02885efdf3db85a87e2e3ac727c", "is_reserved": 0, "fusion_lon": 0.0, "lat": 38.90107066666667, "is_disabled": 0, "name": "75d8b02885efdf3db85a87e2e3ac727c", "fusion_lat": 0.0, "rental_uris": {"ios": "https://dc.lft.to/lastmile_qr_scan", "android": "https://dc.lft.to/lastmile_qr_scan"}, "lon": -77.04980433333333, "type": "electric_scooter"}, {"bike_id": "44391adfc1e8f45efb1fc20aa1db93a1", "is_reserved": 0, "fusion_lon": 0.0, "lat": 38.9053725, "is_disabled": 0, "name": "44391adfc1e8f45efb1fc20aa1db93a1", "fusion_lat": 0.0, "rental_uris": {"ios": "https://dc.lft.to/lastmile_qr_scan", "android": "https://dc.lft.to/lastmile_qr_scan"}, "lon": -77.002145, "type": "electric_bike"}, {"bike_id": "2a55485de1a860652eab7dbe9f7bccf7", "is_reserved": 0, "fusion_lon": 0.0, "lat": 38.933373333333336, "is_disabled": 0, "name": "2a55485de1a860652eab7dbe9f7bccf7", "fusion_lat": 0.0, "rental_uris": {"ios": "https://dc.lft.to/lastmile_qr_scan", "android": "https://dc.lft.to/lastmile_qr_scan"}, "lon": -77.032861, "type": "electric_scooter"}, {"bike_id": "1d4b739953125da9995276905fb8b398", "is_reserved": 0, "fusion_lon": 0.0, "lat": 38.9226315, "is_disabled": 0, "name": "1d4b739953125da9995276905fb8b398", "fusion_lat": 0.0, "rental_uris": {"ios": "https://dc.lft.to/lastmile_qr_scan", "android": "https://dc.lft.to/lastmile_qr_scan"}, "lon": -77.0421675, "type": "electric_scooter"}, {"bike_id": "65eb8af8e0c02eac27bac54b73a9a38b", "is_reserved": 0, "fusion_lon": 0.0, "lat": 38.915621, "is_disabled": 0, "name": "65eb8af8e0c02eac27bac54b73a9a38b", "fusion_lat": 0.0, "rental_uris": {"ios": "https://dc.lft.to/lastmile_qr_scan", "android": "https://dc.lft.to/lastmile_qr_scan"}, "lon": -77.04149133333334, "type": "electric_scooter"}, {"bike_id": "71c7f6a6f0bf82a68bbbe677a263ec98", "is_reserved": 0, "fusion_lon": 0.0, "lat": 38.90151383333333, "is_disabled": 0, "name": "71c7f6a6f0bf82a68bbbe677a263ec98", "fusion_lat": 0.0, "rental_uris": {"ios": "https://dc.lft.to/lastmile_qr_scan", "android": "https://dc.lft.to/lastmile_qr_scan"}, "lon": -76.97519233333334, "type": "electric_scooter"}, {"bike_id": "ebbe9685c284d321a11c5efc73898f91", "is_reserved": 0, "fusion_lon": 0.0, "lat": 38.90295483333333, "is_disabled": 0, "name": "ebbe9685c284d321a11c5efc73898f91", "fusion_lat": 0.0, "rental_uris": {"ios": "https://dc.lft.to/lastmile_qr_scan", "android": "https://dc.lft.to/lastmile_qr_scan"}, "lon": -76.9444275, "type": "electric_bike"}, {"bike_id": "bdd13fbfe59733ce4d2bc563a355cc78", "is_reserved": 0, "fusion_lon": 0.0, "lat": 39.015922833333335, "is_disabled": 0, "name": "bdd13fbfe59733ce4d2bc563a355cc78", "fusion_lat": 0.0, "rental_uris": {"ios": "https://dc.lft.to/lastmile_qr_scan", "android": "https://dc.lft.to/lastmile_qr_scan"}, "lon": -77.04431466666666, "type": "electric_bike"}, {"bike_id": "355d5838545df19cfb408c4fddde36ca", "is_reserved": 0, "fusion_lon": 0.0, "lat": 38.9009405, "is_disabled": 0, "name": "355d5838545df19cfb408c4fddde36ca", "fusion_lat": 0.0, "rental_uris": {"ios": "https://dc.lft.to/lastmile_qr_scan", "android": "https://dc.lft.to/lastmile_qr_scan"}, "lon": -77.047606, "type": "electric_scooter"}, {"bike_id": "ec20a9361b8efbd99dba4aa905b9c0b4", "is_reserved": 0, "fusion_lon": 0.0, "lat": 38.9056055, "is_disabled": 0, "name": "ec20a9361b8efbd99dba4aa905b9c0b4", "fusion_lat": 0.0, "rental_uris": {"ios": "https://dc.lft.to/lastmile_qr_scan", "android": "https://dc.lft.to/lastmile_qr_scan"}, "lon": -77.039869, "type": "electric_scooter"}, {"bike_id": "b034a61a1169f126990d292b7648d9be", "is_reserved": 0, "fusion_lon": 0.0, "lat": 38.838006666666665, "is_disabled": 0, "name": "b034a61a1169f126990d292b7648d9be", "fusion_lat": 0.0, "rental_uris": {"ios": "https://dc.lft.to/lastmile_qr_scan", "android": "https://dc.lft.to/lastmile_qr_scan"}, "lon": -76.99843583333333, "type": "electric_bike"}, {"bike_id": "a9a3b3a59006e21f44880d7cde30c31a", "is_reserved": 0, "fusion_lon": 0.0, "lat": 38.8543555, "is_disabled": 0, "name": "a9a3b3a59006e21f44880d7cde30c31a", "fusion_lat": 0.0, "rental_uris": {"ios": "https://dc.lft.to/lastmile_qr_scan", "android": "https://dc.lft.to/lastmile_qr_scan"}, "lon": -76.90971166666667, "type": "electric_bike"}, {"bike_id": "76faf0c2fc53fa69b26ee52b06aff398", "is_reserved": 0, "fusion_lon": 0.0, "lat": 38.911661, "is_disabled": 0, "name": "76faf0c2fc53fa69b26ee52b06aff398", "fusion_lat": 0.0, "rental_uris": {"ios": "https://dc.lft.to/lastmile_qr_scan", "android": "https://dc.lft.to/lastmile_qr_scan"}, "lon": -77.00274533333334, "type": "electric_bike"}, {"bike_id": "49a4ad367778ed4db4ae7aadb44b81b4", "is_reserved": 0, "fusion_lon": 0.0, "lat": 38.93877366666667, "is_disabled": 0, "name": "49a4ad367778ed4db4ae7aadb44b81b4", "fusion_lat": 0.0, "rental_uris": {"ios": "https://dc.lft.to/lastmile_qr_scan", "android": "https://dc.lft.to/lastmile_qr_scan"}, "lon": -77.02480733333333, "type": "electric_scooter"}, {"bike_id": "0c6038ccb1d9e3ba45136cd0e022800a", "is_reserved": 0, "fusion_lon": 0.0, "lat": 38.88600733333333, "is_disabled": 0, "name": "0c6038ccb1d9e3ba45136cd0e022800a", "fusion_lat": 0.0, "rental_uris": {"ios": "https://dc.lft.to/lastmile_qr_scan", "android": "https://dc.lft.to/lastmile_qr_scan"}, "lon": -77.00573366666667, "type": "electric_scooter"}, {"bike_id": "8e51d81e5a8a4e1c1c80f8c6c06d9d17", "is_reserved": 0, "fusion_lon": 0.0, "lat": 38.9001365, "is_disabled": 0, "name": "8e51d81e5a8a4e1c1c80f8c6c06d9d17", "fusion_lat": 0.0, "rental_uris": {"ios": "https://dc.lft.to/lastmile_qr_scan", "android": "https://dc.lft.to/lastmile_qr_scan"}, "lon": -76.99529716666666, "type": "electric_scooter"}, {"bike_id": "673567f48b665a64436418c8ce452cdc", "is_reserved": 0, "fusion_lon": 0.0, "lat": 38.84427183333333, "is_disabled": 0, "name": "673567f48b665a64436418c8ce452cdc", "fusion_lat": 0.0, "rental_uris": {"ios": "https://dc.lft.to/lastmile_qr_scan", "android": "https://dc.lft.to/lastmile_qr_scan"}, "lon": -76.99778433333333, "type": "electric_scooter"}, {"bike_id": "8a87580ebebc27f83e5a63ecd2c76d77", "is_reserved": 0, "fusion_lon": 0.0, "lat": 38.89221966666667, "is_disabled": 0, "name": "8a87580ebebc27f83e5a63ecd2c76d77", "fusion_lat": 0.0, "rental_uris": {"ios": "https://dc.lft.to/lastmile_qr_scan", "android": "https://dc.lft.to/lastmile_qr_scan"}, "lon": -77.0485905, "type": "electric_scooter"}, {"bike_id": "5552ae3daa337343af30eb7653be350f", "is_reserved": 0, "fusion_lon": 0.0, "lat": 38.898047166666665, "is_disabled": 0, "name": "5552ae3daa337343af30eb7653be350f", "fusion_lat": 0.0, "rental_uris": {"ios": "https://dc.lft.to/lastmile_qr_scan", "android": "https://dc.lft.to/lastmile_qr_scan"}, "lon": -76.99163766666666, "type": "electric_scooter"}, {"bike_id": "a0dafeb21fa85fc9d26178f3225dc6cc", "is_reserved": 0, "fusion_lon": 0.0, "lat": 38.914482166666666, "is_disabled": 0, "name": "a0dafeb21fa85fc9d26178f3225dc6cc", "fusion_lat": 0.0, "rental_uris": {"ios": "https://dc.lft.to/lastmile_qr_scan", "android": "https://dc.lft.to/lastmile_qr_scan"}, "lon": -77.034714, "type": "electric_scooter"}, {"bike_id": "11a3d9c2f1a0843bf115f37154baf04c", "is_reserved": 0, "fusion_lon": 0.0, "lat": 38.810494166666665, "is_disabled": 0, "name": "11a3d9c2f1a0843bf115f37154baf04c", "fusion_lat": 0.0, "rental_uris": {"ios": "https://dc.lft.to/lastmile_qr_scan", "android": "https://dc.lft.to/lastmile_qr_scan"}, "lon": -77.08513966666666, "type": "electric_bike"}, {"bike_id": "edf4e85f7c76e8bbfb323337d494f727", "is_reserved": 0, "fusion_lon": 0.0, "lat": 38.931519, "is_disabled": 0, "name": "edf4e85f7c76e8bbfb323337d494f727", "fusion_lat": 0.0, "rental_uris": {"ios": "https://dc.lft.to/lastmile_qr_scan", "android": "https://dc.lft.to/lastmile_qr_scan"}, "lon": -77.04363666666667, "type": "electric_scooter"}, {"bike_id": "b6bf1db3c10d56b14c7b3766e90ec1c7", "is_reserved": 0, "fusion_lon": 0.0, "lat": 38.911888, "is_disabled": 0, "name": "b6bf1db3c10d56b14c7b3766e90ec1c7", "fusion_lat": 0.0, "rental_uris": {"ios": "https://dc.lft.to/lastmile_qr_scan", "android": "https://dc.lft.to/lastmile_qr_scan"}, "lon": -77.0454715, "type": "electric_scooter"}, {"bike_id": "367709aff538c356f72a8df3aa392107", "is_reserved": 0, "fusion_lon": 0.0, "lat": 38.90328916666667, "is_disabled": 0, "name": "367709aff538c356f72a8df3aa392107", "fusion_lat": 0.0, "rental_uris": {"ios": "https://dc.lft.to/lastmile_qr_scan", "android": "https://dc.lft.to/lastmile_qr_scan"}, "lon": -77.03337183333333, "type": "electric_scooter"}, {"bike_id": "821160ff666bded8bcaefd36f3108a2e", "is_reserved": 0, "fusion_lon": 0.0, "lat": 38.934981666666665, "is_disabled": 0, "name": "821160ff666bded8bcaefd36f3108a2e", "fusion_lat": 0.0, "rental_uris": {"ios": "https://dc.lft.to/lastmile_qr_scan", "android": "https://dc.lft.to/lastmile_qr_scan"}, "lon": -77.02846483333333, "type": "electric_scooter"}, {"bike_id": "05356de1004eb76c0912e087f0e7ba78", "is_reserved": 0, "fusion_lon": 0.0, "lat": 38.91194733333333, "is_disabled": 0, "name": "05356de1004eb76c0912e087f0e7ba78", "fusion_lat": 0.0, "rental_uris": {"ios": "https://dc.lft.to/lastmile_qr_scan", "android": "https://dc.lft.to/lastmile_qr_scan"}, "lon": -77.06103116666667, "type": "electric_scooter"}, {"bike_id": "8a9dbfa9809afed0a98881be0f2f3023", "is_reserved": 0, "fusion_lon": 0.0, "lat": 38.90597483333333, "is_disabled": 0, "name": "8a9dbfa9809afed0a98881be0f2f3023", "fusion_lat": 0.0, "rental_uris": {"ios": "https://dc.lft.to/lastmile_qr_scan", "android": "https://dc.lft.to/lastmile_qr_scan"}, "lon": -77.04045516666666, "type": "electric_scooter"}, {"bike_id": "c6fa40f11fcb510e5b40551d94c359de", "is_reserved": 0, "fusion_lon": 0.0, "lat": 38.93376466666667, "is_disabled": 0, "name": "c6fa40f11fcb510e5b40551d94c359de", "fusion_lat": 0.0, "rental_uris": {"ios": "https://dc.lft.to/lastmile_qr_scan", "android": "https://dc.lft.to/lastmile_qr_scan"}, "lon": -77.03464966666667, "type": "electric_scooter"}, {"bike_id": "bbc6942bec1a4c5afc6a53140b63e2b0", "is_reserved": 0, "fusion_lon": 0.0, "lat": 38.948366666666665, "is_disabled": 0, "name": "bbc6942bec1a4c5afc6a53140b63e2b0", "fusion_lat": 0.0, "rental_uris": {"ios": "https://dc.lft.to/lastmile_qr_scan", "android": "https://dc.lft.to/lastmile_qr_scan"}, "lon": -77.0390165, "type": "electric_bike"}, {"bike_id": "acb1c738d70274e0f7c89626ef1ec589", "is_reserved": 0, "fusion_lon": 0.0, "lat": 38.9171835, "is_disabled": 0, "name": "acb1c738d70274e0f7c89626ef1ec589", "fusion_lat": 0.0, "rental_uris": {"ios": "https://dc.lft.to/lastmile_qr_scan", "android": "https://dc.lft.to/lastmile_qr_scan"}, "lon": -77.068448, "type": "electric_scooter"}, {"bike_id": "166e5daea2f3e5b140a7e308103b54b9", "is_reserved": 0, "fusion_lon": 0.0, "lat": 38.93904633333333, "is_disabled": 0, "name": "166e5daea2f3e5b140a7e308103b54b9", "fusion_lat": 0.0, "rental_uris": {"ios": "https://dc.lft.to/lastmile_qr_scan", "android": "https://dc.lft.to/lastmile_qr_scan"}, "lon": -77.0773255, "type": "electric_scooter"}, {"bike_id": "3bd48680f3d3d9df10a77fd6e4f76395", "is_reserved": 0, "fusion_lon": 0.0, "lat": 38.89456716666667, "is_disabled": 0, "name": "3bd48680f3d3d9df10a77fd6e4f76395", "fusion_lat": 0.0, "rental_uris": {"ios": "https://dc.lft.to/lastmile_qr_scan", "android": "https://dc.lft.to/lastmile_qr_scan"}, "lon": -77.03078783333333, "type": "electric_scooter"}, {"bike_id": "255a8ad05fbe45d20f4cfee05ec1b470", "is_reserved": 0, "fusion_lon": 0.0, "lat": 38.9221895, "is_disabled": 0, "name": "255a8ad05fbe45d20f4cfee05ec1b470", "fusion_lat": 0.0, "rental_uris": {"ios": "https://dc.lft.to/lastmile_qr_scan", "android": "https://dc.lft.to/lastmile_qr_scan"}, "lon": -77.042607, "type": "electric_scooter"}, {"bike_id": "20f214aeda39165160afc8c75188937a", "is_reserved": 0, "fusion_lon": 0.0, "lat": 38.990911, "is_disabled": 0, "name": "20f214aeda39165160afc8c75188937a", "fusion_lat": 0.0, "rental_uris": {"ios": "https://dc.lft.to/lastmile_qr_scan", "android": "https://dc.lft.to/lastmile_qr_scan"}, "lon": -76.8749805, "type": "electric_bike"}, {"bike_id": "d3725c0fcdd3e6b6033755fefd52cdd3", "is_reserved": 0, "fusion_lon": 0.0, "lat": 38.90061016666667, "is_disabled": 0, "name": "d3725c0fcdd3e6b6033755fefd52cdd3", "fusion_lat": 0.0, "rental_uris": {"ios": "https://dc.lft.to/lastmile_qr_scan", "android": "https://dc.lft.to/lastmile_qr_scan"}, "lon": -76.93389066666667, "type": "electric_scooter"}, {"bike_id": "481e3b4cbd6160ad3bd878633298c118", "is_reserved": 0, "fusion_lon": 0.0, "lat": 38.90561433333333, "is_disabled": 0, "name": "481e3b4cbd6160ad3bd878633298c118", "fusion_lat": 0.0, "rental_uris": {"ios": "https://dc.lft.to/lastmile_qr_scan", "android": "https://dc.lft.to/lastmile_qr_scan"}, "lon": -76.99791083333334, "type": "electric_bike"}, {"bike_id": "80d0ef1d59a74611727be26241b40b4f", "is_reserved": 0, "fusion_lon": 0.0, "lat": 38.907473333333336, "is_disabled": 0, "name": "80d0ef1d59a74611727be26241b40b4f", "fusion_lat": 0.0, "rental_uris": {"ios": "https://dc.lft.to/lastmile_qr_scan", "android": "https://dc.lft.to/lastmile_qr_scan"}, "lon": -77.03479766666666, "type": "electric_scooter"}, {"bike_id": "f25636835f19bf2d04e6c69c065f741f", "is_reserved": 0, "fusion_lon": 0.0, "lat": 38.86698116666667, "is_disabled": 0, "name": "f25636835f19bf2d04e6c69c065f741f", "fusion_lat": 0.0, "rental_uris": {"ios": "https://dc.lft.to/lastmile_qr_scan", "android": "https://dc.lft.to/lastmile_qr_scan"}, "lon": -76.98717633333334, "type": "electric_scooter"}, {"bike_id": "5c3461dc52fd9bbbe97242289f4ac5f7", "is_reserved": 0, "fusion_lon": 0.0, "lat": 38.922887833333334, "is_disabled": 0, "name": "5c3461dc52fd9bbbe97242289f4ac5f7", "fusion_lat": 0.0, "rental_uris": {"ios": "https://dc.lft.to/lastmile_qr_scan", "android": "https://dc.lft.to/lastmile_qr_scan"}, "lon": -77.02073516666667, "type": "electric_scooter"}, {"bike_id": "954a606821a64767e0534f270bf463ee", "is_reserved": 0, "fusion_lon": 0.0, "lat": 38.905714, "is_disabled": 0, "name": "954a606821a64767e0534f270bf463ee", "fusion_lat": 0.0, "rental_uris": {"ios": "https://dc.lft.to/lastmile_qr_scan", "android": "https://dc.lft.to/lastmile_qr_scan"}, "lon": -77.02178233333333, "type": "electric_scooter"}, {"bike_id": "ada754f8260484fcb7c873a90062e1ed", "is_reserved": 0, "fusion_lon": 0.0, "lat": 38.94151683333333, "is_disabled": 0, "name": "ada754f8260484fcb7c873a90062e1ed", "fusion_lat": 0.0, "rental_uris": {"ios": "https://dc.lft.to/lastmile_qr_scan", "android": "https://dc.lft.to/lastmile_qr_scan"}, "lon": -77.036555, "type": "electric_scooter"}, {"bike_id": "0bf0378160132a9dfc47bc82d34c42f2", "is_reserved": 0, "fusion_lon": 0.0, "lat": 38.896734333333335, "is_disabled": 0, "name": "0bf0378160132a9dfc47bc82d34c42f2", "fusion_lat": 0.0, "rental_uris": {"ios": "https://dc.lft.to/lastmile_qr_scan", "android": "https://dc.lft.to/lastmile_qr_scan"}, "lon": -77.054032, "type": "electric_scooter"}, {"bike_id": "cb3965d4d3e79eeabd82ff78e2f2596e", "is_reserved": 0, "fusion_lon": 0.0, "lat": 38.88439266666666, "is_disabled": 0, "name": "cb3965d4d3e79eeabd82ff78e2f2596e", "fusion_lat": 0.0, "rental_uris": {"ios": "https://dc.lft.to/lastmile_qr_scan", "android": "https://dc.lft.to/lastmile_qr_scan"}, "lon": -76.95757616666667, "type": "electric_scooter"}, {"bike_id": "dd2462d7ced9e24bf3013c2fa4117b98", "is_reserved": 0, "fusion_lon": 0.0, "lat": 38.913297166666666, "is_disabled": 0, "name": "dd2462d7ced9e24bf3013c2fa4117b98", "fusion_lat": 0.0, "rental_uris": {"ios": "https://dc.lft.to/lastmile_qr_scan", "android": "https://dc.lft.to/lastmile_qr_scan"}, "lon": -77.030437, "type": "electric_scooter"}, {"bike_id": "c8699669efb6b057120404a32dfe982e", "is_reserved": 0, "fusion_lon": 0.0, "lat": 38.905348000000004, "is_disabled": 0, "name": "c8699669efb6b057120404a32dfe982e", "fusion_lat": 0.0, "rental_uris": {"ios": "https://dc.lft.to/lastmile_qr_scan", "android": "https://dc.lft.to/lastmile_qr_scan"}, "lon": -76.99808433333334, "type": "electric_bike"}, {"bike_id": "95932e3d4860dc7d2255d85ed1d36aa5", "is_reserved": 0, "fusion_lon": 0.0, "lat": 38.92288533333333, "is_disabled": 0, "name": "95932e3d4860dc7d2255d85ed1d36aa5", "fusion_lat": 0.0, "rental_uris": {"ios": "https://dc.lft.to/lastmile_qr_scan", "android": "https://dc.lft.to/lastmile_qr_scan"}, "lon": -77.03207, "type": "electric_scooter"}, {"bike_id": "bad60934e09c3bd94b6f3e86a54a2263", "is_reserved": 0, "fusion_lon": 0.0, "lat": 38.92406183333333, "is_disabled": 0, "name": "bad60934e09c3bd94b6f3e86a54a2263", "fusion_lat": 0.0, "rental_uris": {"ios": "https://dc.lft.to/lastmile_qr_scan", "android": "https://dc.lft.to/lastmile_qr_scan"}, "lon": -77.02542816666667, "type": "electric_scooter"}, {"bike_id": "62889863464eab400feae333b24843aa", "is_reserved": 0, "fusion_lon": 0.0, "lat": 38.8751105, "is_disabled": 0, "name": "62889863464eab400feae333b24843aa", "fusion_lat": 0.0, "rental_uris": {"ios": "https://dc.lft.to/lastmile_qr_scan", "android": "https://dc.lft.to/lastmile_qr_scan"}, "lon": -76.9688525, "type": "electric_scooter"}, {"bike_id": "f004472aa9be19cbe7fcb2da1a8402d2", "is_reserved": 0, "fusion_lon": 0.0, "lat": 38.93022366666667, "is_disabled": 0, "name": "f004472aa9be19cbe7fcb2da1a8402d2", "fusion_lat": 0.0, "rental_uris": {"ios": "https://dc.lft.to/lastmile_qr_scan", "android": "https://dc.lft.to/lastmile_qr_scan"}, "lon": -77.02326316666667, "type": "electric_scooter"}, {"bike_id": "802ceeb0def94e7235f51c3ac014fb5d", "is_reserved": 0, "fusion_lon": 0.0, "lat": 38.870115166666665, "is_disabled": 0, "name": "802ceeb0def94e7235f51c3ac014fb5d", "fusion_lat": 0.0, "rental_uris": {"ios": "https://dc.lft.to/lastmile_qr_scan", "android": "https://dc.lft.to/lastmile_qr_scan"}, "lon": -77.0123065, "type": "electric_scooter"}, {"bike_id": "84d50f66a5b21891f113efeb895358b4", "is_reserved": 0, "fusion_lon": 0.0, "lat": 38.90247133333333, "is_disabled": 0, "name": "84d50f66a5b21891f113efeb895358b4", "fusion_lat": 0.0, "rental_uris": {"ios": "https://dc.lft.to/lastmile_qr_scan", "android": "https://dc.lft.to/lastmile_qr_scan"}, "lon": -77.01740216666667, "type": "electric_scooter"}, {"bike_id": "5a39e2bd04116e511e55691fa578abbd", "is_reserved": 0, "fusion_lon": 0.0, "lat": 38.86984433333333, "is_disabled": 0, "name": "5a39e2bd04116e511e55691fa578abbd", "fusion_lat": 0.0, "rental_uris": {"ios": "https://dc.lft.to/lastmile_qr_scan", "android": "https://dc.lft.to/lastmile_qr_scan"}, "lon": -76.95994383333333, "type": "electric_bike"}, {"bike_id": "81a895e40e2e7ba36bf8f812aa052224", "is_reserved": 0, "fusion_lon": 0.0, "lat": 38.911243666666664, "is_disabled": 0, "name": "81a895e40e2e7ba36bf8f812aa052224", "fusion_lat": 0.0, "rental_uris": {"ios": "https://dc.lft.to/lastmile_qr_scan", "android": "https://dc.lft.to/lastmile_qr_scan"}, "lon": -77.037397, "type": "electric_scooter"}, {"bike_id": "48c8f3ab0c4433cfdcd1f5dfc4e3159c", "is_reserved": 0, "fusion_lon": 0.0, "lat": 38.86242516666667, "is_disabled": 0, "name": "48c8f3ab0c4433cfdcd1f5dfc4e3159c", "fusion_lat": 0.0, "rental_uris": {"ios": "https://dc.lft.to/lastmile_qr_scan", "android": "https://dc.lft.to/lastmile_qr_scan"}, "lon": -76.99494433333334, "type": "electric_scooter"}, {"bike_id": "2bff8cf22c7f881a4739625d97219472", "is_reserved": 0, "fusion_lon": 0.0, "lat": 38.822674666666664, "is_disabled": 0, "name": "2bff8cf22c7f881a4739625d97219472", "fusion_lat": 0.0, "rental_uris": {"ios": "https://dc.lft.to/lastmile_qr_scan", "android": "https://dc.lft.to/lastmile_qr_scan"}, "lon": -77.05819883333334, "type": "electric_bike"}, {"bike_id": "49da5d0b3f33041f2fb08310552f7a08", "is_reserved": 0, "fusion_lon": 0.0, "lat": 38.93232366666667, "is_disabled": 0, "name": "49da5d0b3f33041f2fb08310552f7a08", "fusion_lat": 0.0, "rental_uris": {"ios": "https://dc.lft.to/lastmile_qr_scan", "android": "https://dc.lft.to/lastmile_qr_scan"}, "lon": -77.03829533333334, "type": "electric_scooter"}, {"bike_id": "830f9efb06c2ee45916d37cea0fc02ab", "is_reserved": 0, "fusion_lon": 0.0, "lat": 38.9850575, "is_disabled": 0, "name": "830f9efb06c2ee45916d37cea0fc02ab", "fusion_lat": 0.0, "rental_uris": {"ios": "https://dc.lft.to/lastmile_qr_scan", "android": "https://dc.lft.to/lastmile_qr_scan"}, "lon": -76.98220766666667, "type": "electric_bike"}, {"bike_id": "5c40f0f013c8ee8b6f75ce571a590c39", "is_reserved": 0, "fusion_lon": 0.0, "lat": 38.9028055, "is_disabled": 0, "name": "5c40f0f013c8ee8b6f75ce571a590c39", "fusion_lat": 0.0, "rental_uris": {"ios": "https://dc.lft.to/lastmile_qr_scan", "android": "https://dc.lft.to/lastmile_qr_scan"}, "lon": -77.03939633333333, "type": "electric_scooter"}, {"bike_id": "d4049d788db1d0837b8cb59ad487195a", "is_reserved": 0, "fusion_lon": 0.0, "lat": 38.907984166666665, "is_disabled": 0, "name": "d4049d788db1d0837b8cb59ad487195a", "fusion_lat": 0.0, "rental_uris": {"ios": "https://dc.lft.to/lastmile_qr_scan", "android": "https://dc.lft.to/lastmile_qr_scan"}, "lon": -77.03648366666667, "type": "electric_scooter"}, {"bike_id": "e20667652ef1eb928bb0c37fc35075cd", "is_reserved": 0, "fusion_lon": 0.0, "lat": 38.944660166666665, "is_disabled": 0, "name": "e20667652ef1eb928bb0c37fc35075cd", "fusion_lat": 0.0, "rental_uris": {"ios": "https://dc.lft.to/lastmile_qr_scan", "android": "https://dc.lft.to/lastmile_qr_scan"}, "lon": -77.00656916666667, "type": "electric_scooter"}, {"bike_id": "9710933b698d3e1d391d8ef6aa3b4742", "is_reserved": 0, "fusion_lon": 0.0, "lat": 38.9006295, "is_disabled": 0, "name": "9710933b698d3e1d391d8ef6aa3b4742", "fusion_lat": 0.0, "rental_uris": {"ios": "https://dc.lft.to/lastmile_qr_scan", "android": "https://dc.lft.to/lastmile_qr_scan"}, "lon": -76.98711583333333, "type": "electric_scooter"}, {"bike_id": "28bfa74f0d327957c4820ee4dde880f5", "is_reserved": 0, "fusion_lon": 0.0, "lat": 38.89387933333333, "is_disabled": 0, "name": "28bfa74f0d327957c4820ee4dde880f5", "fusion_lat": 0.0, "rental_uris": {"ios": "https://dc.lft.to/lastmile_qr_scan", "android": "https://dc.lft.to/lastmile_qr_scan"}, "lon": -77.006002, "type": "electric_scooter"}, {"bike_id": "26f7f37a99731ea3d2e0edccb5092995", "is_reserved": 0, "fusion_lon": 0.0, "lat": 38.879054833333335, "is_disabled": 0, "name": "26f7f37a99731ea3d2e0edccb5092995", "fusion_lat": 0.0, "rental_uris": {"ios": "https://dc.lft.to/lastmile_qr_scan", "android": "https://dc.lft.to/lastmile_qr_scan"}, "lon": -77.00575316666666, "type": "electric_scooter"}, {"bike_id": "88894c54c996d54da9117149c165022c", "is_reserved": 0, "fusion_lon": 0.0, "lat": 38.91162883333333, "is_disabled": 0, "name": "88894c54c996d54da9117149c165022c", "fusion_lat": 0.0, "rental_uris": {"ios": "https://dc.lft.to/lastmile_qr_scan", "android": "https://dc.lft.to/lastmile_qr_scan"}, "lon": -77.00257666666667, "type": "electric_bike"}, {"bike_id": "2635ac59ebb5e4edeefa8c97fe84f624", "is_reserved": 0, "fusion_lon": 0.0, "lat": 38.92135233333333, "is_disabled": 0, "name": "2635ac59ebb5e4edeefa8c97fe84f624", "fusion_lat": 0.0, "rental_uris": {"ios": "https://dc.lft.to/lastmile_qr_scan", "android": "https://dc.lft.to/lastmile_qr_scan"}, "lon": -77.03190666666667, "type": "electric_scooter"}, {"bike_id": "0cf6dc82dcacf0ed55e3d2cf866786c0", "is_reserved": 0, "fusion_lon": 0.0, "lat": 38.9029095, "is_disabled": 0, "name": "0cf6dc82dcacf0ed55e3d2cf866786c0", "fusion_lat": 0.0, "rental_uris": {"ios": "https://dc.lft.to/lastmile_qr_scan", "android": "https://dc.lft.to/lastmile_qr_scan"}, "lon": -77.0344125, "type": "electric_scooter"}, {"bike_id": "b9a300292afe262027a70bc233e4c58e", "is_reserved": 0, "fusion_lon": 0.0, "lat": 38.877344, "is_disabled": 0, "name": "b9a300292afe262027a70bc233e4c58e", "fusion_lat": 0.0, "rental_uris": {"ios": "https://dc.lft.to/lastmile_qr_scan", "android": "https://dc.lft.to/lastmile_qr_scan"}, "lon": -77.11850466666667, "type": "electric_bike"}, {"bike_id": "a43a5dd086323fd7531785cca9df30f3", "is_reserved": 0, "fusion_lon": 0.0, "lat": 38.909686666666666, "is_disabled": 0, "name": "a43a5dd086323fd7531785cca9df30f3", "fusion_lat": 0.0, "rental_uris": {"ios": "https://dc.lft.to/lastmile_qr_scan", "android": "https://dc.lft.to/lastmile_qr_scan"}, "lon": -77.03859233333333, "type": "electric_scooter"}, {"bike_id": "b84edd44a7c33f87ca4951257623ebca", "is_reserved": 0, "fusion_lon": 0.0, "lat": 38.92374216666666, "is_disabled": 0, "name": "b84edd44a7c33f87ca4951257623ebca", "fusion_lat": 0.0, "rental_uris": {"ios": "https://dc.lft.to/lastmile_qr_scan", "android": "https://dc.lft.to/lastmile_qr_scan"}, "lon": -77.05178516666666, "type": "electric_scooter"}, {"bike_id": "6ee96cd338236070dea5bd33b84718c1", "is_reserved": 0, "fusion_lon": 0.0, "lat": 38.921353, "is_disabled": 0, "name": "6ee96cd338236070dea5bd33b84718c1", "fusion_lat": 0.0, "rental_uris": {"ios": "https://dc.lft.to/lastmile_qr_scan", "android": "https://dc.lft.to/lastmile_qr_scan"}, "lon": -77.04135166666667, "type": "electric_scooter"}, {"bike_id": "4b3e0225e98977b6e7690ae872573256", "is_reserved": 0, "fusion_lon": 0.0, "lat": 38.9003055, "is_disabled": 0, "name": "4b3e0225e98977b6e7690ae872573256", "fusion_lat": 0.0, "rental_uris": {"ios": "https://dc.lft.to/lastmile_qr_scan", "android": "https://dc.lft.to/lastmile_qr_scan"}, "lon": -77.002094, "type": "electric_scooter"}, {"bike_id": "72f6e0e6f7c5ba291a88c5dbacfc00fc", "is_reserved": 0, "fusion_lon": 0.0, "lat": 38.92901083333334, "is_disabled": 0, "name": "72f6e0e6f7c5ba291a88c5dbacfc00fc", "fusion_lat": 0.0, "rental_uris": {"ios": "https://dc.lft.to/lastmile_qr_scan", "android": "https://dc.lft.to/lastmile_qr_scan"}, "lon": -77.03297066666667, "type": "electric_scooter"}, {"bike_id": "aa3e6a5bef78e99eb92200349e4baa0d", "is_reserved": 0, "fusion_lon": 0.0, "lat": 38.87336033333333, "is_disabled": 0, "name": "aa3e6a5bef78e99eb92200349e4baa0d", "fusion_lat": 0.0, "rental_uris": {"ios": "https://dc.lft.to/lastmile_qr_scan", "android": "https://dc.lft.to/lastmile_qr_scan"}, "lon": -76.96786266666666, "type": "electric_scooter"}, {"bike_id": "c2cbe8937a01ce68c765a449769f07d5", "is_reserved": 0, "fusion_lon": 0.0, "lat": 38.87925833333333, "is_disabled": 0, "name": "c2cbe8937a01ce68c765a449769f07d5", "fusion_lat": 0.0, "rental_uris": {"ios": "https://dc.lft.to/lastmile_qr_scan", "android": "https://dc.lft.to/lastmile_qr_scan"}, "lon": -77.013459, "type": "electric_scooter"}, {"bike_id": "fc79a49270cedb66b1299f42d3e108bf", "is_reserved": 0, "fusion_lon": 0.0, "lat": 38.90598166666667, "is_disabled": 0, "name": "fc79a49270cedb66b1299f42d3e108bf", "fusion_lat": 0.0, "rental_uris": {"ios": "https://dc.lft.to/lastmile_qr_scan", "android": "https://dc.lft.to/lastmile_qr_scan"}, "lon": -77.05141366666666, "type": "electric_scooter"}, {"bike_id": "65aa35653b3d894f37aa7657b77cab7f", "is_reserved": 0, "fusion_lon": 0.0, "lat": 38.939663333333336, "is_disabled": 0, "name": "65aa35653b3d894f37aa7657b77cab7f", "fusion_lat": 0.0, "rental_uris": {"ios": "https://dc.lft.to/lastmile_qr_scan", "android": "https://dc.lft.to/lastmile_qr_scan"}, "lon": -77.053253, "type": "electric_scooter"}, {"bike_id": "20ed6780cab9cb6ba2b3ee90fb15c223", "is_reserved": 0, "fusion_lon": 0.0, "lat": 38.885008, "is_disabled": 0, "name": "20ed6780cab9cb6ba2b3ee90fb15c223", "fusion_lat": 0.0, "rental_uris": {"ios": "https://dc.lft.to/lastmile_qr_scan", "android": "https://dc.lft.to/lastmile_qr_scan"}, "lon": -77.00568716666666, "type": "electric_scooter"}, {"bike_id": "72d1b57375a60a8bda52c59e4ddfef3f", "is_reserved": 0, "fusion_lon": 0.0, "lat": 38.9370185, "is_disabled": 0, "name": "72d1b57375a60a8bda52c59e4ddfef3f", "fusion_lat": 0.0, "rental_uris": {"ios": "https://dc.lft.to/lastmile_qr_scan", "android": "https://dc.lft.to/lastmile_qr_scan"}, "lon": -77.032607, "type": "electric_scooter"}, {"bike_id": "21b476bda1a9c26b544318d0ab1ac707", "is_reserved": 0, "fusion_lon": 0.0, "lat": 38.935780333333334, "is_disabled": 0, "name": "21b476bda1a9c26b544318d0ab1ac707", "fusion_lat": 0.0, "rental_uris": {"ios": "https://dc.lft.to/lastmile_qr_scan", "android": "https://dc.lft.to/lastmile_qr_scan"}, "lon": -77.03279033333334, "type": "electric_scooter"}, {"bike_id": "c6ced1c5d92f1e37caeefb8f50826fa4", "is_reserved": 0, "fusion_lon": 0.0, "lat": 38.880307, "is_disabled": 0, "name": "c6ced1c5d92f1e37caeefb8f50826fa4", "fusion_lat": 0.0, "rental_uris": {"ios": "https://dc.lft.to/lastmile_qr_scan", "android": "https://dc.lft.to/lastmile_qr_scan"}, "lon": -77.02462833333334, "type": "electric_scooter"}, {"bike_id": "00d8775dc77f7b0c6470bb26f23412a2", "is_reserved": 0, "fusion_lon": 0.0, "lat": 38.897279166666664, "is_disabled": 0, "name": "00d8775dc77f7b0c6470bb26f23412a2", "fusion_lat": 0.0, "rental_uris": {"ios": "https://dc.lft.to/lastmile_qr_scan", "android": "https://dc.lft.to/lastmile_qr_scan"}, "lon": -76.92597216666667, "type": "electric_scooter"}, {"bike_id": "24a99ebdbbab17d0eb94400d172e47d0", "is_reserved": 0, "fusion_lon": 0.0, "lat": 38.9065435, "is_disabled": 0, "name": "24a99ebdbbab17d0eb94400d172e47d0", "fusion_lat": 0.0, "rental_uris": {"ios": "https://dc.lft.to/lastmile_qr_scan", "android": "https://dc.lft.to/lastmile_qr_scan"}, "lon": -77.04275366666667, "type": "electric_scooter"}, {"bike_id": "c82d7f09f6ec2ba62ef05a1043df46c9", "is_reserved": 0, "fusion_lon": 0.0, "lat": 38.900219166666666, "is_disabled": 0, "name": "c82d7f09f6ec2ba62ef05a1043df46c9", "fusion_lat": 0.0, "rental_uris": {"ios": "https://dc.lft.to/lastmile_qr_scan", "android": "https://dc.lft.to/lastmile_qr_scan"}, "lon": -76.9829975, "type": "electric_scooter"}, {"bike_id": "e790f637b23a6eab004afc89c6d38f37", "is_reserved": 0, "fusion_lon": 0.0, "lat": 38.917153666666664, "is_disabled": 0, "name": "e790f637b23a6eab004afc89c6d38f37", "fusion_lat": 0.0, "rental_uris": {"ios": "https://dc.lft.to/lastmile_qr_scan", "android": "https://dc.lft.to/lastmile_qr_scan"}, "lon": -77.032333, "type": "electric_scooter"}, {"bike_id": "746a224f930d967e2386fda02d2854af", "is_reserved": 0, "fusion_lon": 0.0, "lat": 38.943134666666666, "is_disabled": 0, "name": "746a224f930d967e2386fda02d2854af", "fusion_lat": 0.0, "rental_uris": {"ios": "https://dc.lft.to/lastmile_qr_scan", "android": "https://dc.lft.to/lastmile_qr_scan"}, "lon": -77.05926533333333, "type": "electric_scooter"}, {"bike_id": "ee110f7cbf262ba091c706252bb68221", "is_reserved": 0, "fusion_lon": 0.0, "lat": 38.865698333333334, "is_disabled": 0, "name": "ee110f7cbf262ba091c706252bb68221", "fusion_lat": 0.0, "rental_uris": {"ios": "https://dc.lft.to/lastmile_qr_scan", "android": "https://dc.lft.to/lastmile_qr_scan"}, "lon": -76.98952466666667, "type": "electric_scooter"}, {"bike_id": "2ad6266cc5c3f3c5b3dcb08758ff212a", "is_reserved": 0, "fusion_lon": 0.0, "lat": 38.9032845, "is_disabled": 0, "name": "2ad6266cc5c3f3c5b3dcb08758ff212a", "fusion_lat": 0.0, "rental_uris": {"ios": "https://dc.lft.to/lastmile_qr_scan", "android": "https://dc.lft.to/lastmile_qr_scan"}, "lon": -77.03849733333334, "type": "electric_scooter"}, {"bike_id": "0d7f4c9113f0380b2662dcf695f43466", "is_reserved": 0, "fusion_lon": 0.0, "lat": 38.95734733333333, "is_disabled": 0, "name": "0d7f4c9113f0380b2662dcf695f43466", "fusion_lat": 0.0, "rental_uris": {"ios": "https://dc.lft.to/lastmile_qr_scan", "android": "https://dc.lft.to/lastmile_qr_scan"}, "lon": -77.0240545, "type": "electric_scooter"}, {"bike_id": "2a70c1d2b33b5b2bedf8b3dfedee30b6", "is_reserved": 0, "fusion_lon": 0.0, "lat": 38.89613266666667, "is_disabled": 0, "name": "2a70c1d2b33b5b2bedf8b3dfedee30b6", "fusion_lat": 0.0, "rental_uris": {"ios": "https://dc.lft.to/lastmile_qr_scan", "android": "https://dc.lft.to/lastmile_qr_scan"}, "lon": -76.98121566666667, "type": "electric_scooter"}, {"bike_id": "762a7bdb42c8cf4b89d4d45d97d67dd3", "is_reserved": 0, "fusion_lon": 0.0, "lat": 38.90131216666666, "is_disabled": 0, "name": "762a7bdb42c8cf4b89d4d45d97d67dd3", "fusion_lat": 0.0, "rental_uris": {"ios": "https://dc.lft.to/lastmile_qr_scan", "android": "https://dc.lft.to/lastmile_qr_scan"}, "lon": -77.04489983333333, "type": "electric_scooter"}, {"bike_id": "249b2c2a24a58cbd484ef667ca2c38d6", "is_reserved": 0, "fusion_lon": 0.0, "lat": 38.894761333333335, "is_disabled": 0, "name": "249b2c2a24a58cbd484ef667ca2c38d6", "fusion_lat": 0.0, "rental_uris": {"ios": "https://dc.lft.to/lastmile_qr_scan", "android": "https://dc.lft.to/lastmile_qr_scan"}, "lon": -76.984082, "type": "electric_scooter"}, {"bike_id": "5eb9b8a97c423b8795a6c81050ea76aa", "is_reserved": 0, "fusion_lon": 0.0, "lat": 38.85158333333333, "is_disabled": 0, "name": "5eb9b8a97c423b8795a6c81050ea76aa", "fusion_lat": 0.0, "rental_uris": {"ios": "https://dc.lft.to/lastmile_qr_scan", "android": "https://dc.lft.to/lastmile_qr_scan"}, "lon": -77.12882483333334, "type": "electric_bike"}, {"bike_id": "93a86bd18fb7777a3d480b2b48312868", "is_reserved": 0, "fusion_lon": 0.0, "lat": 38.900074333333336, "is_disabled": 0, "name": "93a86bd18fb7777a3d480b2b48312868", "fusion_lat": 0.0, "rental_uris": {"ios": "https://dc.lft.to/lastmile_qr_scan", "android": "https://dc.lft.to/lastmile_qr_scan"}, "lon": -77.00585933333333, "type": "electric_bike"}, {"bike_id": "a38469b480c49f965c3a34f3b4f1d4c3", "is_reserved": 0, "fusion_lon": 0.0, "lat": 38.886465666666666, "is_disabled": 0, "name": "a38469b480c49f965c3a34f3b4f1d4c3", "fusion_lat": 0.0, "rental_uris": {"ios": "https://dc.lft.to/lastmile_qr_scan", "android": "https://dc.lft.to/lastmile_qr_scan"}, "lon": -77.021408, "type": "electric_scooter"}, {"bike_id": "8d27d049e9de5051f5e04cf764117e82", "is_reserved": 0, "fusion_lon": 0.0, "lat": 38.90683116666666, "is_disabled": 0, "name": "8d27d049e9de5051f5e04cf764117e82", "fusion_lat": 0.0, "rental_uris": {"ios": "https://dc.lft.to/lastmile_qr_scan", "android": "https://dc.lft.to/lastmile_qr_scan"}, "lon": -77.00069233333333, "type": "electric_scooter"}, {"bike_id": "c2d91855e36c1b3306bd1c88a776dd6f", "is_reserved": 0, "fusion_lon": 0.0, "lat": 38.903798, "is_disabled": 0, "name": "c2d91855e36c1b3306bd1c88a776dd6f", "fusion_lat": 0.0, "rental_uris": {"ios": "https://dc.lft.to/lastmile_qr_scan", "android": "https://dc.lft.to/lastmile_qr_scan"}, "lon": -76.99832883333333, "type": "electric_scooter"}, {"bike_id": "641d1772632113393b9729a454a2fa62", "is_reserved": 0, "fusion_lon": 0.0, "lat": 38.92458083333333, "is_disabled": 0, "name": "641d1772632113393b9729a454a2fa62", "fusion_lat": 0.0, "rental_uris": {"ios": "https://dc.lft.to/lastmile_qr_scan", "android": "https://dc.lft.to/lastmile_qr_scan"}, "lon": -76.99918616666666, "type": "electric_scooter"}, {"bike_id": "ad36090b19df4d6c63b3d17f67ac01b8", "is_reserved": 0, "fusion_lon": 0.0, "lat": 38.81334233333333, "is_disabled": 0, "name": "ad36090b19df4d6c63b3d17f67ac01b8", "fusion_lat": 0.0, "rental_uris": {"ios": "https://dc.lft.to/lastmile_qr_scan", "android": "https://dc.lft.to/lastmile_qr_scan"}, "lon": -77.051271, "type": "electric_bike"}, {"bike_id": "7bcc43c12f0ebfb0e05b26b73630083d", "is_reserved": 0, "fusion_lon": 0.0, "lat": 38.93773083333333, "is_disabled": 0, "name": "7bcc43c12f0ebfb0e05b26b73630083d", "fusion_lat": 0.0, "rental_uris": {"ios": "https://dc.lft.to/lastmile_qr_scan", "android": "https://dc.lft.to/lastmile_qr_scan"}, "lon": -77.01917033333334, "type": "electric_bike"}, {"bike_id": "6abe5cd5de01a0894008f82167954d26", "is_reserved": 0, "fusion_lon": 0.0, "lat": 38.89367133333333, "is_disabled": 0, "name": "6abe5cd5de01a0894008f82167954d26", "fusion_lat": 0.0, "rental_uris": {"ios": "https://dc.lft.to/lastmile_qr_scan", "android": "https://dc.lft.to/lastmile_qr_scan"}, "lon": -77.02832166666667, "type": "electric_scooter"}, {"bike_id": "970b477a6d476c59937bb3984849c2b1", "is_reserved": 0, "fusion_lon": 0.0, "lat": 38.90970016666667, "is_disabled": 0, "name": "970b477a6d476c59937bb3984849c2b1", "fusion_lat": 0.0, "rental_uris": {"ios": "https://dc.lft.to/lastmile_qr_scan", "android": "https://dc.lft.to/lastmile_qr_scan"}, "lon": -77.03870616666667, "type": "electric_scooter"}, {"bike_id": "c377f9b5f57315f43e9591d47f168f29", "is_reserved": 0, "fusion_lon": 0.0, "lat": 38.88338533333334, "is_disabled": 0, "name": "c377f9b5f57315f43e9591d47f168f29", "fusion_lat": 0.0, "rental_uris": {"ios": "https://dc.lft.to/lastmile_qr_scan", "android": "https://dc.lft.to/lastmile_qr_scan"}, "lon": -76.99348666666667, "type": "electric_scooter"}, {"bike_id": "6f91f44607685c93ab5621dd5198d7cd", "is_reserved": 0, "fusion_lon": 0.0, "lat": 38.930055833333334, "is_disabled": 0, "name": "6f91f44607685c93ab5621dd5198d7cd", "fusion_lat": 0.0, "rental_uris": {"ios": "https://dc.lft.to/lastmile_qr_scan", "android": "https://dc.lft.to/lastmile_qr_scan"}, "lon": -77.0554005, "type": "electric_scooter"}, {"bike_id": "e1bccb31db19189b3c45fabc1f8a0f48", "is_reserved": 0, "fusion_lon": 0.0, "lat": 38.88753666666667, "is_disabled": 0, "name": "e1bccb31db19189b3c45fabc1f8a0f48", "fusion_lat": 0.0, "rental_uris": {"ios": "https://dc.lft.to/lastmile_qr_scan", "android": "https://dc.lft.to/lastmile_qr_scan"}, "lon": -77.02027883333334, "type": "electric_scooter"}, {"bike_id": "746d25032ee54e4c838c3013f3431b57", "is_reserved": 0, "fusion_lon": 0.0, "lat": 38.92413033333333, "is_disabled": 0, "name": "746d25032ee54e4c838c3013f3431b57", "fusion_lat": 0.0, "rental_uris": {"ios": "https://dc.lft.to/lastmile_qr_scan", "android": "https://dc.lft.to/lastmile_qr_scan"}, "lon": -77.01965633333333, "type": "electric_scooter"}, {"bike_id": "62bc9ea81dc75542acb1f293e1fed5e3", "is_reserved": 0, "fusion_lon": 0.0, "lat": 38.91709516666667, "is_disabled": 0, "name": "62bc9ea81dc75542acb1f293e1fed5e3", "fusion_lat": 0.0, "rental_uris": {"ios": "https://dc.lft.to/lastmile_qr_scan", "android": "https://dc.lft.to/lastmile_qr_scan"}, "lon": -77.02552183333333, "type": "electric_scooter"}, {"bike_id": "f47ab6d890ce773b48ab448ed1b56ed3", "is_reserved": 0, "fusion_lon": 0.0, "lat": 38.93082916666667, "is_disabled": 0, "name": "f47ab6d890ce773b48ab448ed1b56ed3", "fusion_lat": 0.0, "rental_uris": {"ios": "https://dc.lft.to/lastmile_qr_scan", "android": "https://dc.lft.to/lastmile_qr_scan"}, "lon": -77.02795233333333, "type": "electric_scooter"}, {"bike_id": "95697d198a803e3e6c827f727e53b9ed", "is_reserved": 0, "fusion_lon": 0.0, "lat": 38.884976, "is_disabled": 0, "name": "95697d198a803e3e6c827f727e53b9ed", "fusion_lat": 0.0, "rental_uris": {"ios": "https://dc.lft.to/lastmile_qr_scan", "android": "https://dc.lft.to/lastmile_qr_scan"}, "lon": -77.00728883333333, "type": "electric_scooter"}, {"bike_id": "f235c74f0fcd33e44483d1e1cf1b6265", "is_reserved": 0, "fusion_lon": 0.0, "lat": 38.887586, "is_disabled": 0, "name": "f235c74f0fcd33e44483d1e1cf1b6265", "fusion_lat": 0.0, "rental_uris": {"ios": "https://dc.lft.to/lastmile_qr_scan", "android": "https://dc.lft.to/lastmile_qr_scan"}, "lon": -77.0313045, "type": "electric_scooter"}, {"bike_id": "6f15905c228d1097393b73a662037b4f", "is_reserved": 0, "fusion_lon": 0.0, "lat": 38.95642616666667, "is_disabled": 0, "name": "6f15905c228d1097393b73a662037b4f", "fusion_lat": 0.0, "rental_uris": {"ios": "https://dc.lft.to/lastmile_qr_scan", "android": "https://dc.lft.to/lastmile_qr_scan"}, "lon": -76.9979985, "type": "electric_scooter"}, {"bike_id": "0717da34ba901455599788d694b23e9d", "is_reserved": 0, "fusion_lon": 0.0, "lat": 38.9505915, "is_disabled": 0, "name": "0717da34ba901455599788d694b23e9d", "fusion_lat": 0.0, "rental_uris": {"ios": "https://dc.lft.to/lastmile_qr_scan", "android": "https://dc.lft.to/lastmile_qr_scan"}, "lon": -77.01391083333333, "type": "electric_bike"}, {"bike_id": "8d788889b51e48a9536fcf01eb076ac2", "is_reserved": 0, "fusion_lon": 0.0, "lat": 38.918869, "is_disabled": 0, "name": "8d788889b51e48a9536fcf01eb076ac2", "fusion_lat": 0.0, "rental_uris": {"ios": "https://dc.lft.to/lastmile_qr_scan", "android": "https://dc.lft.to/lastmile_qr_scan"}, "lon": -77.03513383333333, "type": "electric_scooter"}, {"bike_id": "bf2de30999f3df70695e2dd29f0509d8", "is_reserved": 0, "fusion_lon": 0.0, "lat": 38.898747666666665, "is_disabled": 0, "name": "bf2de30999f3df70695e2dd29f0509d8", "fusion_lat": 0.0, "rental_uris": {"ios": "https://dc.lft.to/lastmile_qr_scan", "android": "https://dc.lft.to/lastmile_qr_scan"}, "lon": -76.93161416666666, "type": "electric_scooter"}, {"bike_id": "460420974328ba30b1bf58158251a559", "is_reserved": 0, "fusion_lon": 0.0, "lat": 38.863700333333334, "is_disabled": 0, "name": "460420974328ba30b1bf58158251a559", "fusion_lat": 0.0, "rental_uris": {"ios": "https://dc.lft.to/lastmile_qr_scan", "android": "https://dc.lft.to/lastmile_qr_scan"}, "lon": -76.99061966666666, "type": "electric_scooter"}, {"bike_id": "f2ea84ec3e60a29a6349bb794c6cc38b", "is_reserved": 0, "fusion_lon": 0.0, "lat": 38.8995895, "is_disabled": 0, "name": "f2ea84ec3e60a29a6349bb794c6cc38b", "fusion_lat": 0.0, "rental_uris": {"ios": "https://dc.lft.to/lastmile_qr_scan", "android": "https://dc.lft.to/lastmile_qr_scan"}, "lon": -77.03356333333333, "type": "electric_scooter"}, {"bike_id": "1193b3215989d63a67b20c0783468265", "is_reserved": 0, "fusion_lon": 0.0, "lat": 38.92501633333333, "is_disabled": 0, "name": "1193b3215989d63a67b20c0783468265", "fusion_lat": 0.0, "rental_uris": {"ios": "https://dc.lft.to/lastmile_qr_scan", "android": "https://dc.lft.to/lastmile_qr_scan"}, "lon": -77.00893116666667, "type": "electric_scooter"}, {"bike_id": "32a782a718e3d033e7e5494ccd0f0af9", "is_reserved": 0, "fusion_lon": 0.0, "lat": 38.89364833333333, "is_disabled": 0, "name": "32a782a718e3d033e7e5494ccd0f0af9", "fusion_lat": 0.0, "rental_uris": {"ios": "https://dc.lft.to/lastmile_qr_scan", "android": "https://dc.lft.to/lastmile_qr_scan"}, "lon": -76.98513833333334, "type": "electric_bike"}, {"bike_id": "c69416abf8fc6ad598a4e6e52f3063a7", "is_reserved": 0, "fusion_lon": 0.0, "lat": 38.92484, "is_disabled": 0, "name": "c69416abf8fc6ad598a4e6e52f3063a7", "fusion_lat": 0.0, "rental_uris": {"ios": "https://dc.lft.to/lastmile_qr_scan", "android": "https://dc.lft.to/lastmile_qr_scan"}, "lon": -77.02707966666667, "type": "electric_scooter"}, {"bike_id": "233d00a579ff7e9948f55066e7598e18", "is_reserved": 0, "fusion_lon": 0.0, "lat": 38.9210415, "is_disabled": 0, "name": "233d00a579ff7e9948f55066e7598e18", "fusion_lat": 0.0, "rental_uris": {"ios": "https://dc.lft.to/lastmile_qr_scan", "android": "https://dc.lft.to/lastmile_qr_scan"}, "lon": -77.04361, "type": "electric_scooter"}, {"bike_id": "ab97032147021433fa74ebb0894adf0d", "is_reserved": 0, "fusion_lon": 0.0, "lat": 38.86457033333333, "is_disabled": 0, "name": "ab97032147021433fa74ebb0894adf0d", "fusion_lat": 0.0, "rental_uris": {"ios": "https://dc.lft.to/lastmile_qr_scan", "android": "https://dc.lft.to/lastmile_qr_scan"}, "lon": -76.94551116666666, "type": "electric_bike"}, {"bike_id": "605d34d29eb60dc41039296e0c238c5b", "is_reserved": 0, "fusion_lon": 0.0, "lat": 38.898225, "is_disabled": 0, "name": "605d34d29eb60dc41039296e0c238c5b", "fusion_lat": 0.0, "rental_uris": {"ios": "https://dc.lft.to/lastmile_qr_scan", "android": "https://dc.lft.to/lastmile_qr_scan"}, "lon": -77.03289, "type": "electric_scooter"}, {"bike_id": "3597bb2e75757136e5943f28d2ca21d2", "is_reserved": 0, "fusion_lon": 0.0, "lat": 38.9241105, "is_disabled": 0, "name": "3597bb2e75757136e5943f28d2ca21d2", "fusion_lat": 0.0, "rental_uris": {"ios": "https://dc.lft.to/lastmile_qr_scan", "android": "https://dc.lft.to/lastmile_qr_scan"}, "lon": -77.04072366666666, "type": "electric_bike"}, {"bike_id": "3369177da64867639f191f437bac74c0", "is_reserved": 0, "fusion_lon": 0.0, "lat": 38.9012765, "is_disabled": 0, "name": "3369177da64867639f191f437bac74c0", "fusion_lat": 0.0, "rental_uris": {"ios": "https://dc.lft.to/lastmile_qr_scan", "android": "https://dc.lft.to/lastmile_qr_scan"}, "lon": -77.0436365, "type": "electric_scooter"}, {"bike_id": "c87d287c75788c4b182dcf2413f4d20b", "is_reserved": 0, "fusion_lon": 0.0, "lat": 38.9220735, "is_disabled": 0, "name": "c87d287c75788c4b182dcf2413f4d20b", "fusion_lat": 0.0, "rental_uris": {"ios": "https://dc.lft.to/lastmile_qr_scan", "android": "https://dc.lft.to/lastmile_qr_scan"}, "lon": -77.03668283333333, "type": "electric_scooter"}, {"bike_id": "1c97ac86aab5bf5beb2210d84658824e", "is_reserved": 0, "fusion_lon": 0.0, "lat": 38.8713715, "is_disabled": 0, "name": "1c97ac86aab5bf5beb2210d84658824e", "fusion_lat": 0.0, "rental_uris": {"ios": "https://dc.lft.to/lastmile_qr_scan", "android": "https://dc.lft.to/lastmile_qr_scan"}, "lon": -76.93730433333333, "type": "electric_bike"}, {"bike_id": "38d31cdc6652a7c52817c7519f26ffef", "is_reserved": 0, "fusion_lon": 0.0, "lat": 38.929911, "is_disabled": 0, "name": "38d31cdc6652a7c52817c7519f26ffef", "fusion_lat": 0.0, "rental_uris": {"ios": "https://dc.lft.to/lastmile_qr_scan", "android": "https://dc.lft.to/lastmile_qr_scan"}, "lon": -77.07943183333333, "type": "electric_scooter"}, {"bike_id": "ef65eb6ec369d5f1220ccdcea0ad42ae", "is_reserved": 0, "fusion_lon": 0.0, "lat": 38.920751333333335, "is_disabled": 0, "name": "ef65eb6ec369d5f1220ccdcea0ad42ae", "fusion_lat": 0.0, "rental_uris": {"ios": "https://dc.lft.to/lastmile_qr_scan", "android": "https://dc.lft.to/lastmile_qr_scan"}, "lon": -77.0240705, "type": "electric_scooter"}, {"bike_id": "53b4ed9392b507c505fc53ffe2e59730", "is_reserved": 0, "fusion_lon": 0.0, "lat": 38.919746833333335, "is_disabled": 0, "name": "53b4ed9392b507c505fc53ffe2e59730", "fusion_lat": 0.0, "rental_uris": {"ios": "https://dc.lft.to/lastmile_qr_scan", "android": "https://dc.lft.to/lastmile_qr_scan"}, "lon": -77.02347483333334, "type": "electric_scooter"}, {"bike_id": "23568d5a60a7faf6a4b9f320fe2a9026", "is_reserved": 0, "fusion_lon": 0.0, "lat": 38.921685333333336, "is_disabled": 0, "name": "23568d5a60a7faf6a4b9f320fe2a9026", "fusion_lat": 0.0, "rental_uris": {"ios": "https://dc.lft.to/lastmile_qr_scan", "android": "https://dc.lft.to/lastmile_qr_scan"}, "lon": -76.99405883333333, "type": "electric_scooter"}, {"bike_id": "8aeeec6feb0c6972fe60210fe10d2575", "is_reserved": 0, "fusion_lon": 0.0, "lat": 38.9367615, "is_disabled": 0, "name": "8aeeec6feb0c6972fe60210fe10d2575", "fusion_lat": 0.0, "rental_uris": {"ios": "https://dc.lft.to/lastmile_qr_scan", "android": "https://dc.lft.to/lastmile_qr_scan"}, "lon": -77.036006, "type": "electric_scooter"}, {"bike_id": "baf98c290718150ebee070d54c1e2858", "is_reserved": 0, "fusion_lon": 0.0, "lat": 38.914084833333334, "is_disabled": 0, "name": "baf98c290718150ebee070d54c1e2858", "fusion_lat": 0.0, "rental_uris": {"ios": "https://dc.lft.to/lastmile_qr_scan", "android": "https://dc.lft.to/lastmile_qr_scan"}, "lon": -77.00154233333333, "type": "electric_scooter"}, {"bike_id": "41e01af273c38566de2fa43e1aa034cf", "is_reserved": 0, "fusion_lon": 0.0, "lat": 38.9173665, "is_disabled": 0, "name": "41e01af273c38566de2fa43e1aa034cf", "fusion_lat": 0.0, "rental_uris": {"ios": "https://dc.lft.to/lastmile_qr_scan", "android": "https://dc.lft.to/lastmile_qr_scan"}, "lon": -77.01033616666666, "type": "electric_scooter"}, {"bike_id": "339a5c1041465210f792eae7a2101f06", "is_reserved": 0, "fusion_lon": 0.0, "lat": 38.91568633333333, "is_disabled": 0, "name": "339a5c1041465210f792eae7a2101f06", "fusion_lat": 0.0, "rental_uris": {"ios": "https://dc.lft.to/lastmile_qr_scan", "android": "https://dc.lft.to/lastmile_qr_scan"}, "lon": -77.022859, "type": "electric_scooter"}, {"bike_id": "6e4b8a4edbb2b030f56fc060e983d01b", "is_reserved": 0, "fusion_lon": 0.0, "lat": 38.920775, "is_disabled": 0, "name": "6e4b8a4edbb2b030f56fc060e983d01b", "fusion_lat": 0.0, "rental_uris": {"ios": "https://dc.lft.to/lastmile_qr_scan", "android": "https://dc.lft.to/lastmile_qr_scan"}, "lon": -77.02429583333333, "type": "electric_scooter"}, {"bike_id": "cfa48dd5f6319d834a6110149bb5d5c1", "is_reserved": 0, "fusion_lon": 0.0, "lat": 38.925760333333336, "is_disabled": 0, "name": "cfa48dd5f6319d834a6110149bb5d5c1", "fusion_lat": 0.0, "rental_uris": {"ios": "https://dc.lft.to/lastmile_qr_scan", "android": "https://dc.lft.to/lastmile_qr_scan"}, "lon": -77.02565433333334, "type": "electric_scooter"}, {"bike_id": "df1503265408a1073487cbbcfd5b859b", "is_reserved": 0, "fusion_lon": 0.0, "lat": 38.917214, "is_disabled": 0, "name": "df1503265408a1073487cbbcfd5b859b", "fusion_lat": 0.0, "rental_uris": {"ios": "https://dc.lft.to/lastmile_qr_scan", "android": "https://dc.lft.to/lastmile_qr_scan"}, "lon": -77.03843033333334, "type": "electric_scooter"}, {"bike_id": "e1f8dfc916c5bebcaeae16e0ec05105a", "is_reserved": 0, "fusion_lon": 0.0, "lat": 38.9439425, "is_disabled": 0, "name": "e1f8dfc916c5bebcaeae16e0ec05105a", "fusion_lat": 0.0, "rental_uris": {"ios": "https://dc.lft.to/lastmile_qr_scan", "android": "https://dc.lft.to/lastmile_qr_scan"}, "lon": -77.03899116666666, "type": "electric_scooter"}, {"bike_id": "98addde4b22b59f7d5673e45a93e9fa6", "is_reserved": 0, "fusion_lon": 0.0, "lat": 38.90970983333333, "is_disabled": 0, "name": "98addde4b22b59f7d5673e45a93e9fa6", "fusion_lat": 0.0, "rental_uris": {"ios": "https://dc.lft.to/lastmile_qr_scan", "android": "https://dc.lft.to/lastmile_qr_scan"}, "lon": -77.02722866666667, "type": "electric_scooter"}, {"bike_id": "c9304e6adc9eb838742f89bbb78b9886", "is_reserved": 0, "fusion_lon": 0.0, "lat": 38.89874066666667, "is_disabled": 0, "name": "c9304e6adc9eb838742f89bbb78b9886", "fusion_lat": 0.0, "rental_uris": {"ios": "https://dc.lft.to/lastmile_qr_scan", "android": "https://dc.lft.to/lastmile_qr_scan"}, "lon": -76.93160383333333, "type": "electric_scooter"}, {"bike_id": "6380df0d677c8e9ae2fa44486d499047", "is_reserved": 0, "fusion_lon": 0.0, "lat": 38.914213333333336, "is_disabled": 0, "name": "6380df0d677c8e9ae2fa44486d499047", "fusion_lat": 0.0, "rental_uris": {"ios": "https://dc.lft.to/lastmile_qr_scan", "android": "https://dc.lft.to/lastmile_qr_scan"}, "lon": -77.03907916666667, "type": "electric_scooter"}, {"bike_id": "a503deba4dfc8166d0c074e0559d8ac6", "is_reserved": 0, "fusion_lon": 0.0, "lat": 38.901278166666664, "is_disabled": 0, "name": "a503deba4dfc8166d0c074e0559d8ac6", "fusion_lat": 0.0, "rental_uris": {"ios": "https://dc.lft.to/lastmile_qr_scan", "android": "https://dc.lft.to/lastmile_qr_scan"}, "lon": -77.043642, "type": "electric_scooter"}, {"bike_id": "cf8f62c4ac81051269ae2bd9236a134a", "is_reserved": 0, "fusion_lon": 0.0, "lat": 38.917959333333336, "is_disabled": 0, "name": "cf8f62c4ac81051269ae2bd9236a134a", "fusion_lat": 0.0, "rental_uris": {"ios": "https://dc.lft.to/lastmile_qr_scan", "android": "https://dc.lft.to/lastmile_qr_scan"}, "lon": -77.02316516666667, "type": "electric_scooter"}, {"bike_id": "6810ccd06cd3a3798d93678c4963a1b3", "is_reserved": 0, "fusion_lon": 0.0, "lat": 38.92450483333333, "is_disabled": 0, "name": "6810ccd06cd3a3798d93678c4963a1b3", "fusion_lat": 0.0, "rental_uris": {"ios": "https://dc.lft.to/lastmile_qr_scan", "android": "https://dc.lft.to/lastmile_qr_scan"}, "lon": -76.99328033333333, "type": "electric_scooter"}, {"bike_id": "85d93b296b550552becb9fe47e44bb58", "is_reserved": 0, "fusion_lon": 0.0, "lat": 38.87842916666666, "is_disabled": 0, "name": "85d93b296b550552becb9fe47e44bb58", "fusion_lat": 0.0, "rental_uris": {"ios": "https://dc.lft.to/lastmile_qr_scan", "android": "https://dc.lft.to/lastmile_qr_scan"}, "lon": -77.02283316666667, "type": "electric_scooter"}, {"bike_id": "2f8d481c5ab7d28a839e6a89e6d2fd49", "is_reserved": 0, "fusion_lon": 0.0, "lat": 38.884008666666666, "is_disabled": 0, "name": "2f8d481c5ab7d28a839e6a89e6d2fd49", "fusion_lat": 0.0, "rental_uris": {"ios": "https://dc.lft.to/lastmile_qr_scan", "android": "https://dc.lft.to/lastmile_qr_scan"}, "lon": -77.01529716666667, "type": "electric_scooter"}, {"bike_id": "d0ce2f4726e88346b0005f0796d5a2ab", "is_reserved": 0, "fusion_lon": 0.0, "lat": 38.9908395, "is_disabled": 0, "name": "d0ce2f4726e88346b0005f0796d5a2ab", "fusion_lat": 0.0, "rental_uris": {"ios": "https://dc.lft.to/lastmile_qr_scan", "android": "https://dc.lft.to/lastmile_qr_scan"}, "lon": -76.87495466666667, "type": "electric_bike"}, {"bike_id": "d8ae11539a6abcf7cca8da52c2ef8ec1", "is_reserved": 0, "fusion_lon": 0.0, "lat": 38.910874666666665, "is_disabled": 0, "name": "d8ae11539a6abcf7cca8da52c2ef8ec1", "fusion_lat": 0.0, "rental_uris": {"ios": "https://dc.lft.to/lastmile_qr_scan", "android": "https://dc.lft.to/lastmile_qr_scan"}, "lon": -77.03446683333334, "type": "electric_scooter"}, {"bike_id": "c5341108de162f46f47405b3d604fe99", "is_reserved": 0, "fusion_lon": 0.0, "lat": 38.905337, "is_disabled": 0, "name": "c5341108de162f46f47405b3d604fe99", "fusion_lat": 0.0, "rental_uris": {"ios": "https://dc.lft.to/lastmile_qr_scan", "android": "https://dc.lft.to/lastmile_qr_scan"}, "lon": -77.06157816666666, "type": "electric_scooter"}, {"bike_id": "a6af65f45b7d4bd884805be4577c1680", "is_reserved": 0, "fusion_lon": 0.0, "lat": 38.91676916666667, "is_disabled": 0, "name": "a6af65f45b7d4bd884805be4577c1680", "fusion_lat": 0.0, "rental_uris": {"ios": "https://dc.lft.to/lastmile_qr_scan", "android": "https://dc.lft.to/lastmile_qr_scan"}, "lon": -77.03641033333334, "type": "electric_scooter"}, {"bike_id": "9fbc45b84639ade1212bab6dfbd39451", "is_reserved": 0, "fusion_lon": 0.0, "lat": 38.91983033333333, "is_disabled": 0, "name": "9fbc45b84639ade1212bab6dfbd39451", "fusion_lat": 0.0, "rental_uris": {"ios": "https://dc.lft.to/lastmile_qr_scan", "android": "https://dc.lft.to/lastmile_qr_scan"}, "lon": -77.02337616666667, "type": "electric_scooter"}, {"bike_id": "f3dcf71c67094213fd33ac9b77b7604c", "is_reserved": 0, "fusion_lon": 0.0, "lat": 38.919956166666665, "is_disabled": 0, "name": "f3dcf71c67094213fd33ac9b77b7604c", "fusion_lat": 0.0, "rental_uris": {"ios": "https://dc.lft.to/lastmile_qr_scan", "android": "https://dc.lft.to/lastmile_qr_scan"}, "lon": -77.03231283333334, "type": "electric_scooter"}, {"bike_id": "48820880a032e113e6b1d610232acbf0", "is_reserved": 0, "fusion_lon": 0.0, "lat": 38.91802, "is_disabled": 0, "name": "48820880a032e113e6b1d610232acbf0", "fusion_lat": 0.0, "rental_uris": {"ios": "https://dc.lft.to/lastmile_qr_scan", "android": "https://dc.lft.to/lastmile_qr_scan"}, "lon": -77.03454416666666, "type": "electric_scooter"}, {"bike_id": "87d81820ccad192e92c7d7736d0691a6", "is_reserved": 0, "fusion_lon": 0.0, "lat": 38.828755, "is_disabled": 0, "name": "87d81820ccad192e92c7d7736d0691a6", "fusion_lat": 0.0, "rental_uris": {"ios": "https://dc.lft.to/lastmile_qr_scan", "android": "https://dc.lft.to/lastmile_qr_scan"}, "lon": -77.112299, "type": "electric_bike"}, {"bike_id": "9a02a78338a8496fbae616833dbeca51", "is_reserved": 0, "fusion_lon": 0.0, "lat": 38.936114333333336, "is_disabled": 0, "name": "9a02a78338a8496fbae616833dbeca51", "fusion_lat": 0.0, "rental_uris": {"ios": "https://dc.lft.to/lastmile_qr_scan", "android": "https://dc.lft.to/lastmile_qr_scan"}, "lon": -77.05865533333333, "type": "electric_scooter"}, {"bike_id": "7bf9a5465f41a03ba4e5b8aca5179d67", "is_reserved": 0, "fusion_lon": 0.0, "lat": 38.90088016666667, "is_disabled": 0, "name": "7bf9a5465f41a03ba4e5b8aca5179d67", "fusion_lat": 0.0, "rental_uris": {"ios": "https://dc.lft.to/lastmile_qr_scan", "android": "https://dc.lft.to/lastmile_qr_scan"}, "lon": -77.04887083333334, "type": "electric_scooter"}, {"bike_id": "493080bdf4d3b656a6cabbd1c96a32b7", "is_reserved": 0, "fusion_lon": 0.0, "lat": 38.90021316666667, "is_disabled": 0, "name": "493080bdf4d3b656a6cabbd1c96a32b7", "fusion_lat": 0.0, "rental_uris": {"ios": "https://dc.lft.to/lastmile_qr_scan", "android": "https://dc.lft.to/lastmile_qr_scan"}, "lon": -77.01376233333333, "type": "electric_scooter"}, {"bike_id": "37842d28b49bddaf962af56e6668fe7e", "is_reserved": 0, "fusion_lon": 0.0, "lat": 38.866650166666666, "is_disabled": 0, "name": "37842d28b49bddaf962af56e6668fe7e", "fusion_lat": 0.0, "rental_uris": {"ios": "https://dc.lft.to/lastmile_qr_scan", "android": "https://dc.lft.to/lastmile_qr_scan"}, "lon": -76.98909166666667, "type": "electric_scooter"}, {"bike_id": "391d109aea9d1e5f337afcfed28074b2", "is_reserved": 0, "fusion_lon": 0.0, "lat": 38.931475666666664, "is_disabled": 0, "name": "391d109aea9d1e5f337afcfed28074b2", "fusion_lat": 0.0, "rental_uris": {"ios": "https://dc.lft.to/lastmile_qr_scan", "android": "https://dc.lft.to/lastmile_qr_scan"}, "lon": -77.05709716666667, "type": "electric_scooter"}, {"bike_id": "db0a33c68e4ea6955bc96138f290b0b2", "is_reserved": 0, "fusion_lon": 0.0, "lat": 38.918719833333334, "is_disabled": 0, "name": "db0a33c68e4ea6955bc96138f290b0b2", "fusion_lat": 0.0, "rental_uris": {"ios": "https://dc.lft.to/lastmile_qr_scan", "android": "https://dc.lft.to/lastmile_qr_scan"}, "lon": -77.04465066666667, "type": "electric_scooter"}, {"bike_id": "da3818e15768381218de67189d1f0af4", "is_reserved": 0, "fusion_lon": 0.0, "lat": 38.92314416666667, "is_disabled": 0, "name": "da3818e15768381218de67189d1f0af4", "fusion_lat": 0.0, "rental_uris": {"ios": "https://dc.lft.to/lastmile_qr_scan", "android": "https://dc.lft.to/lastmile_qr_scan"}, "lon": -77.03659866666666, "type": "electric_scooter"}, {"bike_id": "dd5e884f87b7455372f45ffa2cbe9eaa", "is_reserved": 0, "fusion_lon": 0.0, "lat": 38.8906275, "is_disabled": 0, "name": "dd5e884f87b7455372f45ffa2cbe9eaa", "fusion_lat": 0.0, "rental_uris": {"ios": "https://dc.lft.to/lastmile_qr_scan", "android": "https://dc.lft.to/lastmile_qr_scan"}, "lon": -77.02305566666666, "type": "electric_scooter"}, {"bike_id": "d31f7b9d6c0df5e8e1d5003c09f0a18b", "is_reserved": 0, "fusion_lon": 0.0, "lat": 38.9004155, "is_disabled": 0, "name": "d31f7b9d6c0df5e8e1d5003c09f0a18b", "fusion_lat": 0.0, "rental_uris": {"ios": "https://dc.lft.to/lastmile_qr_scan", "android": "https://dc.lft.to/lastmile_qr_scan"}, "lon": -77.00538766666666, "type": "electric_scooter"}, {"bike_id": "d08587cee5aa0d450d96644253f2f3a3", "is_reserved": 0, "fusion_lon": 0.0, "lat": 38.884297, "is_disabled": 0, "name": "d08587cee5aa0d450d96644253f2f3a3", "fusion_lat": 0.0, "rental_uris": {"ios": "https://dc.lft.to/lastmile_qr_scan", "android": "https://dc.lft.to/lastmile_qr_scan"}, "lon": -76.9575575, "type": "electric_scooter"}, {"bike_id": "658e89c8db9f6095d58ecc65ce26a2ef", "is_reserved": 0, "fusion_lon": 0.0, "lat": 38.918343666666665, "is_disabled": 0, "name": "658e89c8db9f6095d58ecc65ce26a2ef", "fusion_lat": 0.0, "rental_uris": {"ios": "https://dc.lft.to/lastmile_qr_scan", "android": "https://dc.lft.to/lastmile_qr_scan"}, "lon": -77.03899216666667, "type": "electric_scooter"}, {"bike_id": "849ef62bcf8a6c77c934df3cdad99349", "is_reserved": 0, "fusion_lon": 0.0, "lat": 38.902608666666666, "is_disabled": 0, "name": "849ef62bcf8a6c77c934df3cdad99349", "fusion_lat": 0.0, "rental_uris": {"ios": "https://dc.lft.to/lastmile_qr_scan", "android": "https://dc.lft.to/lastmile_qr_scan"}, "lon": -77.01770283333333, "type": "electric_scooter"}, {"bike_id": "18b44a16347f631f841d17fb62cf77a2", "is_reserved": 0, "fusion_lon": 0.0, "lat": 38.912157666666666, "is_disabled": 0, "name": "18b44a16347f631f841d17fb62cf77a2", "fusion_lat": 0.0, "rental_uris": {"ios": "https://dc.lft.to/lastmile_qr_scan", "android": "https://dc.lft.to/lastmile_qr_scan"}, "lon": -77.028031, "type": "electric_scooter"}, {"bike_id": "1720624bcdd7188975102caf3859f6a6", "is_reserved": 0, "fusion_lon": 0.0, "lat": 38.898988, "is_disabled": 0, "name": "1720624bcdd7188975102caf3859f6a6", "fusion_lat": 0.0, "rental_uris": {"ios": "https://dc.lft.to/lastmile_qr_scan", "android": "https://dc.lft.to/lastmile_qr_scan"}, "lon": -77.03943183333334, "type": "electric_scooter"}, {"bike_id": "e5f88f0bcf2e990a12472cf2502e915b", "is_reserved": 0, "fusion_lon": 0.0, "lat": 38.9649835, "is_disabled": 0, "name": "e5f88f0bcf2e990a12472cf2502e915b", "fusion_lat": 0.0, "rental_uris": {"ios": "https://dc.lft.to/lastmile_qr_scan", "android": "https://dc.lft.to/lastmile_qr_scan"}, "lon": -77.0649705, "type": "electric_bike"}, {"bike_id": "12572327ed795e1a56411026d2e084dd", "is_reserved": 0, "fusion_lon": 0.0, "lat": 38.89828133333334, "is_disabled": 0, "name": "12572327ed795e1a56411026d2e084dd", "fusion_lat": 0.0, "rental_uris": {"ios": "https://dc.lft.to/lastmile_qr_scan", "android": "https://dc.lft.to/lastmile_qr_scan"}, "lon": -77.01155733333333, "type": "electric_scooter"}, {"bike_id": "252b91f28d9fa5e62abc0fa64972f0da", "is_reserved": 0, "fusion_lon": 0.0, "lat": 38.91778383333333, "is_disabled": 0, "name": "252b91f28d9fa5e62abc0fa64972f0da", "fusion_lat": 0.0, "rental_uris": {"ios": "https://dc.lft.to/lastmile_qr_scan", "android": "https://dc.lft.to/lastmile_qr_scan"}, "lon": -77.014954, "type": "electric_scooter"}, {"bike_id": "3183825b05abbe68fe281e3f0d28800d", "is_reserved": 0, "fusion_lon": 0.0, "lat": 38.90528283333333, "is_disabled": 0, "name": "3183825b05abbe68fe281e3f0d28800d", "fusion_lat": 0.0, "rental_uris": {"ios": "https://dc.lft.to/lastmile_qr_scan", "android": "https://dc.lft.to/lastmile_qr_scan"}, "lon": -77.048702, "type": "electric_scooter"}, {"bike_id": "327b09340a97bad348bdd6b1079ac69d", "is_reserved": 0, "fusion_lon": 0.0, "lat": 38.904617333333334, "is_disabled": 0, "name": "327b09340a97bad348bdd6b1079ac69d", "fusion_lat": 0.0, "rental_uris": {"ios": "https://dc.lft.to/lastmile_qr_scan", "android": "https://dc.lft.to/lastmile_qr_scan"}, "lon": -76.9950885, "type": "electric_scooter"}, {"bike_id": "86a080b1a4fa7ff335fa3d554cc1e3b4", "is_reserved": 0, "fusion_lon": 0.0, "lat": 38.8960315, "is_disabled": 0, "name": "86a080b1a4fa7ff335fa3d554cc1e3b4", "fusion_lat": 0.0, "rental_uris": {"ios": "https://dc.lft.to/lastmile_qr_scan", "android": "https://dc.lft.to/lastmile_qr_scan"}, "lon": -77.04508566666667, "type": "electric_scooter"}, {"bike_id": "6a30143af9e6dc873db4885104b81d1b", "is_reserved": 0, "fusion_lon": 0.0, "lat": 38.922997333333335, "is_disabled": 0, "name": "6a30143af9e6dc873db4885104b81d1b", "fusion_lat": 0.0, "rental_uris": {"ios": "https://dc.lft.to/lastmile_qr_scan", "android": "https://dc.lft.to/lastmile_qr_scan"}, "lon": -77.04146966666667, "type": "electric_scooter"}, {"bike_id": "9ae9d495a298f224b314097162b29d2f", "is_reserved": 0, "fusion_lon": 0.0, "lat": 38.86961483333333, "is_disabled": 0, "name": "9ae9d495a298f224b314097162b29d2f", "fusion_lat": 0.0, "rental_uris": {"ios": "https://dc.lft.to/lastmile_qr_scan", "android": "https://dc.lft.to/lastmile_qr_scan"}, "lon": -77.01377483333333, "type": "electric_scooter"}, {"bike_id": "59d6d6f085fe640f14cc054ee54ffdbf", "is_reserved": 0, "fusion_lon": 0.0, "lat": 38.892972666666665, "is_disabled": 0, "name": "59d6d6f085fe640f14cc054ee54ffdbf", "fusion_lat": 0.0, "rental_uris": {"ios": "https://dc.lft.to/lastmile_qr_scan", "android": "https://dc.lft.to/lastmile_qr_scan"}, "lon": -77.01238583333334, "type": "electric_scooter"}, {"bike_id": "b9a58b0cde2936fb05560d885e73ab6f", "is_reserved": 0, "fusion_lon": 0.0, "lat": 38.89629933333333, "is_disabled": 0, "name": "b9a58b0cde2936fb05560d885e73ab6f", "fusion_lat": 0.0, "rental_uris": {"ios": "https://dc.lft.to/lastmile_qr_scan", "android": "https://dc.lft.to/lastmile_qr_scan"}, "lon": -77.03227133333333, "type": "electric_scooter"}, {"bike_id": "9d7ac1ec384c429c6535b557c115452c", "is_reserved": 0, "fusion_lon": 0.0, "lat": 38.96822616666667, "is_disabled": 0, "name": "9d7ac1ec384c429c6535b557c115452c", "fusion_lat": 0.0, "rental_uris": {"ios": "https://dc.lft.to/lastmile_qr_scan", "android": "https://dc.lft.to/lastmile_qr_scan"}, "lon": -77.01790566666666, "type": "electric_scooter"}, {"bike_id": "f7685ee23d60946f2615da1a37789551", "is_reserved": 0, "fusion_lon": 0.0, "lat": 38.900325333333335, "is_disabled": 0, "name": "f7685ee23d60946f2615da1a37789551", "fusion_lat": 0.0, "rental_uris": {"ios": "https://dc.lft.to/lastmile_qr_scan", "android": "https://dc.lft.to/lastmile_qr_scan"}, "lon": -77.01158233333334, "type": "electric_scooter"}, {"bike_id": "ebfa3453d2ca667273cb51024a2a5886", "is_reserved": 0, "fusion_lon": 0.0, "lat": 38.88489516666667, "is_disabled": 0, "name": "ebfa3453d2ca667273cb51024a2a5886", "fusion_lat": 0.0, "rental_uris": {"ios": "https://dc.lft.to/lastmile_qr_scan", "android": "https://dc.lft.to/lastmile_qr_scan"}, "lon": -77.0072575, "type": "electric_scooter"}, {"bike_id": "70ef8b35e52ea7d985d7a38f8d7f15bf", "is_reserved": 0, "fusion_lon": 0.0, "lat": 38.914054, "is_disabled": 0, "name": "70ef8b35e52ea7d985d7a38f8d7f15bf", "fusion_lat": 0.0, "rental_uris": {"ios": "https://dc.lft.to/lastmile_qr_scan", "android": "https://dc.lft.to/lastmile_qr_scan"}, "lon": -77.02083133333333, "type": "electric_scooter"}, {"bike_id": "adf3d1730f226e3105b081c0c743c921", "is_reserved": 0, "fusion_lon": 0.0, "lat": 38.903267, "is_disabled": 0, "name": "adf3d1730f226e3105b081c0c743c921", "fusion_lat": 0.0, "rental_uris": {"ios": "https://dc.lft.to/lastmile_qr_scan", "android": "https://dc.lft.to/lastmile_qr_scan"}, "lon": -77.03346416666666, "type": "electric_scooter"}, {"bike_id": "06cabf0ae936f9fc174630c231310f71", "is_reserved": 0, "fusion_lon": 0.0, "lat": 38.8981595, "is_disabled": 0, "name": "06cabf0ae936f9fc174630c231310f71", "fusion_lat": 0.0, "rental_uris": {"ios": "https://dc.lft.to/lastmile_qr_scan", "android": "https://dc.lft.to/lastmile_qr_scan"}, "lon": -77.03307483333333, "type": "electric_scooter"}, {"bike_id": "ad4a165ef2fdd19a4ac83cac2dea5921", "is_reserved": 0, "fusion_lon": 0.0, "lat": 38.915963833333336, "is_disabled": 0, "name": "ad4a165ef2fdd19a4ac83cac2dea5921", "fusion_lat": 0.0, "rental_uris": {"ios": "https://dc.lft.to/lastmile_qr_scan", "android": "https://dc.lft.to/lastmile_qr_scan"}, "lon": -77.032038, "type": "electric_scooter"}, {"bike_id": "09383b681d6994bd084e6a4e9fd9cc51", "is_reserved": 0, "fusion_lon": 0.0, "lat": 38.880424833333336, "is_disabled": 0, "name": "09383b681d6994bd084e6a4e9fd9cc51", "fusion_lat": 0.0, "rental_uris": {"ios": "https://dc.lft.to/lastmile_qr_scan", "android": "https://dc.lft.to/lastmile_qr_scan"}, "lon": -77.01333366666667, "type": "electric_bike"}, {"bike_id": "6cb0aea964efd065276d674e340a1674", "is_reserved": 0, "fusion_lon": 0.0, "lat": 38.83934583333333, "is_disabled": 0, "name": "6cb0aea964efd065276d674e340a1674", "fusion_lat": 0.0, "rental_uris": {"ios": "https://dc.lft.to/lastmile_qr_scan", "android": "https://dc.lft.to/lastmile_qr_scan"}, "lon": -77.07905483333333, "type": "electric_bike"}, {"bike_id": "fc286a5b054f9836e36fadd64c19612f", "is_reserved": 0, "fusion_lon": 0.0, "lat": 38.905915666666665, "is_disabled": 0, "name": "fc286a5b054f9836e36fadd64c19612f", "fusion_lat": 0.0, "rental_uris": {"ios": "https://dc.lft.to/lastmile_qr_scan", "android": "https://dc.lft.to/lastmile_qr_scan"}, "lon": -77.016135, "type": "electric_scooter"}, {"bike_id": "4f086cb72260b10610dd868955fb9f4d", "is_reserved": 0, "fusion_lon": 0.0, "lat": 38.90472583333333, "is_disabled": 0, "name": "4f086cb72260b10610dd868955fb9f4d", "fusion_lat": 0.0, "rental_uris": {"ios": "https://dc.lft.to/lastmile_qr_scan", "android": "https://dc.lft.to/lastmile_qr_scan"}, "lon": -77.0073815, "type": "electric_scooter"}, {"bike_id": "9bc374f528f864a39baa28bc5f56c272", "is_reserved": 0, "fusion_lon": 0.0, "lat": 38.90004166666667, "is_disabled": 0, "name": "9bc374f528f864a39baa28bc5f56c272", "fusion_lat": 0.0, "rental_uris": {"ios": "https://dc.lft.to/lastmile_qr_scan", "android": "https://dc.lft.to/lastmile_qr_scan"}, "lon": -76.99755016666667, "type": "electric_scooter"}, {"bike_id": "7cf9a0ce3b37d4c802a562ba9ef12953", "is_reserved": 0, "fusion_lon": 0.0, "lat": 38.9229645, "is_disabled": 0, "name": "7cf9a0ce3b37d4c802a562ba9ef12953", "fusion_lat": 0.0, "rental_uris": {"ios": "https://dc.lft.to/lastmile_qr_scan", "android": "https://dc.lft.to/lastmile_qr_scan"}, "lon": -77.04151583333334, "type": "electric_scooter"}, {"bike_id": "1e834bf37542b940cf5d2d7fe6a5790b", "is_reserved": 0, "fusion_lon": 0.0, "lat": 38.91711683333333, "is_disabled": 0, "name": "1e834bf37542b940cf5d2d7fe6a5790b", "fusion_lat": 0.0, "rental_uris": {"ios": "https://dc.lft.to/lastmile_qr_scan", "android": "https://dc.lft.to/lastmile_qr_scan"}, "lon": -77.03240116666667, "type": "electric_scooter"}, {"bike_id": "6dffd579d6c9ba2374911e6ce0943e54", "is_reserved": 0, "fusion_lon": 0.0, "lat": 38.83857183333333, "is_disabled": 0, "name": "6dffd579d6c9ba2374911e6ce0943e54", "fusion_lat": 0.0, "rental_uris": {"ios": "https://dc.lft.to/lastmile_qr_scan", "android": "https://dc.lft.to/lastmile_qr_scan"}, "lon": -77.0886395, "type": "electric_bike"}, {"bike_id": "d19d391e104da5776ce058ddf67aff59", "is_reserved": 0, "fusion_lon": 0.0, "lat": 38.903391166666665, "is_disabled": 0, "name": "d19d391e104da5776ce058ddf67aff59", "fusion_lat": 0.0, "rental_uris": {"ios": "https://dc.lft.to/lastmile_qr_scan", "android": "https://dc.lft.to/lastmile_qr_scan"}, "lon": -77.03840716666667, "type": "electric_scooter"}, {"bike_id": "a25cf32ddd617f086b71cb9ac262cb97", "is_reserved": 0, "fusion_lon": 0.0, "lat": 38.90022316666666, "is_disabled": 0, "name": "a25cf32ddd617f086b71cb9ac262cb97", "fusion_lat": 0.0, "rental_uris": {"ios": "https://dc.lft.to/lastmile_qr_scan", "android": "https://dc.lft.to/lastmile_qr_scan"}, "lon": -76.99786833333333, "type": "electric_scooter"}, {"bike_id": "d751f4e3abb8a6c8a32685928af42b6b", "is_reserved": 0, "fusion_lon": 0.0, "lat": 38.9110515, "is_disabled": 0, "name": "d751f4e3abb8a6c8a32685928af42b6b", "fusion_lat": 0.0, "rental_uris": {"ios": "https://dc.lft.to/lastmile_qr_scan", "android": "https://dc.lft.to/lastmile_qr_scan"}, "lon": -77.0021565, "type": "electric_scooter"}, {"bike_id": "f1a5482b9dfbafd460113fdc7160244d", "is_reserved": 0, "fusion_lon": 0.0, "lat": 38.973256, "is_disabled": 0, "name": "f1a5482b9dfbafd460113fdc7160244d", "fusion_lat": 0.0, "rental_uris": {"ios": "https://dc.lft.to/lastmile_qr_scan", "android": "https://dc.lft.to/lastmile_qr_scan"}, "lon": -77.02154466666667, "type": "electric_bike"}, {"bike_id": "5278e21bb8c83b383b2119243e4f3b7f", "is_reserved": 0, "fusion_lon": 0.0, "lat": 38.91710883333333, "is_disabled": 0, "name": "5278e21bb8c83b383b2119243e4f3b7f", "fusion_lat": 0.0, "rental_uris": {"ios": "https://dc.lft.to/lastmile_qr_scan", "android": "https://dc.lft.to/lastmile_qr_scan"}, "lon": -77.0323325, "type": "electric_scooter"}, {"bike_id": "e6dd024e6aa9c28594a5e67a7e848b72", "is_reserved": 0, "fusion_lon": 0.0, "lat": 38.92534083333334, "is_disabled": 0, "name": "e6dd024e6aa9c28594a5e67a7e848b72", "fusion_lat": 0.0, "rental_uris": {"ios": "https://dc.lft.to/lastmile_qr_scan", "android": "https://dc.lft.to/lastmile_qr_scan"}, "lon": -77.03463566666667, "type": "electric_scooter"}, {"bike_id": "0e1d34475beef305b63d27604820919e", "is_reserved": 0, "fusion_lon": 0.0, "lat": 38.858001, "is_disabled": 0, "name": "0e1d34475beef305b63d27604820919e", "fusion_lat": 0.0, "rental_uris": {"ios": "https://dc.lft.to/lastmile_qr_scan", "android": "https://dc.lft.to/lastmile_qr_scan"}, "lon": -76.98753666666667, "type": "electric_bike"}, {"bike_id": "ba7f31eb6daf20c39a2e668aac395a05", "is_reserved": 0, "fusion_lon": 0.0, "lat": 38.90391566666667, "is_disabled": 0, "name": "ba7f31eb6daf20c39a2e668aac395a05", "fusion_lat": 0.0, "rental_uris": {"ios": "https://dc.lft.to/lastmile_qr_scan", "android": "https://dc.lft.to/lastmile_qr_scan"}, "lon": -77.041829, "type": "electric_scooter"}, {"bike_id": "1b94655b162933f01f085b099ffd25ff", "is_reserved": 0, "fusion_lon": 0.0, "lat": 38.92226466666666, "is_disabled": 0, "name": "1b94655b162933f01f085b099ffd25ff", "fusion_lat": 0.0, "rental_uris": {"ios": "https://dc.lft.to/lastmile_qr_scan", "android": "https://dc.lft.to/lastmile_qr_scan"}, "lon": -77.03906966666666, "type": "electric_scooter"}, {"bike_id": "a2158802362fc8ed90afdff9627130db", "is_reserved": 0, "fusion_lon": 0.0, "lat": 38.919898333333336, "is_disabled": 0, "name": "a2158802362fc8ed90afdff9627130db", "fusion_lat": 0.0, "rental_uris": {"ios": "https://dc.lft.to/lastmile_qr_scan", "android": "https://dc.lft.to/lastmile_qr_scan"}, "lon": -77.032275, "type": "electric_scooter"}, {"bike_id": "3fafa4e24449f45f8262aadacd4c3979", "is_reserved": 0, "fusion_lon": 0.0, "lat": 38.84294083333333, "is_disabled": 0, "name": "3fafa4e24449f45f8262aadacd4c3979", "fusion_lat": 0.0, "rental_uris": {"ios": "https://dc.lft.to/lastmile_qr_scan", "android": "https://dc.lft.to/lastmile_qr_scan"}, "lon": -76.99956333333333, "type": "electric_scooter"}, {"bike_id": "0e32807847055ea2dedab175b462ec39", "is_reserved": 0, "fusion_lon": 0.0, "lat": 38.9202975, "is_disabled": 0, "name": "0e32807847055ea2dedab175b462ec39", "fusion_lat": 0.0, "rental_uris": {"ios": "https://dc.lft.to/lastmile_qr_scan", "android": "https://dc.lft.to/lastmile_qr_scan"}, "lon": -77.0112325, "type": "electric_scooter"}, {"bike_id": "344379aa94b2ffccdc85010ae94aa719", "is_reserved": 0, "fusion_lon": 0.0, "lat": 38.910506166666664, "is_disabled": 0, "name": "344379aa94b2ffccdc85010ae94aa719", "fusion_lat": 0.0, "rental_uris": {"ios": "https://dc.lft.to/lastmile_qr_scan", "android": "https://dc.lft.to/lastmile_qr_scan"}, "lon": -77.01688583333333, "type": "electric_scooter"}, {"bike_id": "52f24809c6ac33802b697859b6dd93c9", "is_reserved": 0, "fusion_lon": 0.0, "lat": 38.94173416666667, "is_disabled": 0, "name": "52f24809c6ac33802b697859b6dd93c9", "fusion_lat": 0.0, "rental_uris": {"ios": "https://dc.lft.to/lastmile_qr_scan", "android": "https://dc.lft.to/lastmile_qr_scan"}, "lon": -77.02502433333333, "type": "electric_scooter"}, {"bike_id": "48a91e0b0638e45efdc27fc013f33f85", "is_reserved": 0, "fusion_lon": 0.0, "lat": 38.936774666666665, "is_disabled": 0, "name": "48a91e0b0638e45efdc27fc013f33f85", "fusion_lat": 0.0, "rental_uris": {"ios": "https://dc.lft.to/lastmile_qr_scan", "android": "https://dc.lft.to/lastmile_qr_scan"}, "lon": -77.03596583333334, "type": "electric_scooter"}, {"bike_id": "4f72d486ea072965ce449331328be033", "is_reserved": 0, "fusion_lon": 0.0, "lat": 38.86629716666667, "is_disabled": 0, "name": "4f72d486ea072965ce449331328be033", "fusion_lat": 0.0, "rental_uris": {"ios": "https://dc.lft.to/lastmile_qr_scan", "android": "https://dc.lft.to/lastmile_qr_scan"}, "lon": -76.9871605, "type": "electric_scooter"}, {"bike_id": "fd09e95aca9f9755f66c2eb30432a881", "is_reserved": 0, "fusion_lon": 0.0, "lat": 38.96108916666667, "is_disabled": 0, "name": "fd09e95aca9f9755f66c2eb30432a881", "fusion_lat": 0.0, "rental_uris": {"ios": "https://dc.lft.to/lastmile_qr_scan", "android": "https://dc.lft.to/lastmile_qr_scan"}, "lon": -77.02814316666667, "type": "electric_scooter"}, {"bike_id": "0a9aebb294773d2081b0a65968fb5ec3", "is_reserved": 0, "fusion_lon": 0.0, "lat": 38.927491333333336, "is_disabled": 0, "name": "0a9aebb294773d2081b0a65968fb5ec3", "fusion_lat": 0.0, "rental_uris": {"ios": "https://dc.lft.to/lastmile_qr_scan", "android": "https://dc.lft.to/lastmile_qr_scan"}, "lon": -77.05373, "type": "electric_scooter"}, {"bike_id": "6a4b14d56ce8d002bb1af6cdabc29601", "is_reserved": 0, "fusion_lon": 0.0, "lat": 38.92091966666667, "is_disabled": 0, "name": "6a4b14d56ce8d002bb1af6cdabc29601", "fusion_lat": 0.0, "rental_uris": {"ios": "https://dc.lft.to/lastmile_qr_scan", "android": "https://dc.lft.to/lastmile_qr_scan"}, "lon": -77.02528533333333, "type": "electric_scooter"}, {"bike_id": "4d8d2c02736facc3aa587c6dd9a7ce8e", "is_reserved": 0, "fusion_lon": 0.0, "lat": 38.88597766666667, "is_disabled": 0, "name": "4d8d2c02736facc3aa587c6dd9a7ce8e", "fusion_lat": 0.0, "rental_uris": {"ios": "https://dc.lft.to/lastmile_qr_scan", "android": "https://dc.lft.to/lastmile_qr_scan"}, "lon": -76.95269483333334, "type": "electric_scooter"}, {"bike_id": "e7fee411262504c514c69cf7f7f2c522", "is_reserved": 0, "fusion_lon": 0.0, "lat": 38.90035316666667, "is_disabled": 0, "name": "e7fee411262504c514c69cf7f7f2c522", "fusion_lat": 0.0, "rental_uris": {"ios": "https://dc.lft.to/lastmile_qr_scan", "android": "https://dc.lft.to/lastmile_qr_scan"}, "lon": -77.0074405, "type": "electric_scooter"}, {"bike_id": "1fca3e3833d5650c4838bf6c3a48b145", "is_reserved": 0, "fusion_lon": 0.0, "lat": 38.9279195, "is_disabled": 0, "name": "1fca3e3833d5650c4838bf6c3a48b145", "fusion_lat": 0.0, "rental_uris": {"ios": "https://dc.lft.to/lastmile_qr_scan", "android": "https://dc.lft.to/lastmile_qr_scan"}, "lon": -77.03145633333334, "type": "electric_scooter"}, {"bike_id": "359440f6df0a4e7b8705c902c36c4115", "is_reserved": 0, "fusion_lon": 0.0, "lat": 38.86597066666667, "is_disabled": 0, "name": "359440f6df0a4e7b8705c902c36c4115", "fusion_lat": 0.0, "rental_uris": {"ios": "https://dc.lft.to/lastmile_qr_scan", "android": "https://dc.lft.to/lastmile_qr_scan"}, "lon": -76.93227783333333, "type": "electric_bike"}, {"bike_id": "13e0dcda938714e9a6762554d196e74f", "is_reserved": 0, "fusion_lon": 0.0, "lat": 38.90238383333333, "is_disabled": 0, "name": "13e0dcda938714e9a6762554d196e74f", "fusion_lat": 0.0, "rental_uris": {"ios": "https://dc.lft.to/lastmile_qr_scan", "android": "https://dc.lft.to/lastmile_qr_scan"}, "lon": -77.02974316666666, "type": "electric_scooter"}, {"bike_id": "633c2959dc215cde06a883eebe0abb64", "is_reserved": 0, "fusion_lon": 0.0, "lat": 38.9020695, "is_disabled": 0, "name": "633c2959dc215cde06a883eebe0abb64", "fusion_lat": 0.0, "rental_uris": {"ios": "https://dc.lft.to/lastmile_qr_scan", "android": "https://dc.lft.to/lastmile_qr_scan"}, "lon": -77.04787366666666, "type": "electric_scooter"}, {"bike_id": "ff22b23f15d62b0e47b5a3332bf63cfe", "is_reserved": 0, "fusion_lon": 0.0, "lat": 38.86560766666667, "is_disabled": 0, "name": "ff22b23f15d62b0e47b5a3332bf63cfe", "fusion_lat": 0.0, "rental_uris": {"ios": "https://dc.lft.to/lastmile_qr_scan", "android": "https://dc.lft.to/lastmile_qr_scan"}, "lon": -76.9896005, "type": "electric_scooter"}, {"bike_id": "d2801ca490ba3261e63cda6e5e11b0f4", "is_reserved": 0, "fusion_lon": 0.0, "lat": 38.90576133333333, "is_disabled": 0, "name": "d2801ca490ba3261e63cda6e5e11b0f4", "fusion_lat": 0.0, "rental_uris": {"ios": "https://dc.lft.to/lastmile_qr_scan", "android": "https://dc.lft.to/lastmile_qr_scan"}, "lon": -77.02981233333334, "type": "electric_scooter"}, {"bike_id": "6e98a5955fff0cc3d53bd4c7f8b54b20", "is_reserved": 0, "fusion_lon": 0.0, "lat": 38.806955, "is_disabled": 0, "name": "6e98a5955fff0cc3d53bd4c7f8b54b20", "fusion_lat": 0.0, "rental_uris": {"ios": "https://dc.lft.to/lastmile_qr_scan", "android": "https://dc.lft.to/lastmile_qr_scan"}, "lon": -77.059648, "type": "electric_bike"}, {"bike_id": "2363ece4e63cb5dc216e93821a0c67b3", "is_reserved": 0, "fusion_lon": 0.0, "lat": 38.85220983333333, "is_disabled": 0, "name": "2363ece4e63cb5dc216e93821a0c67b3", "fusion_lat": 0.0, "rental_uris": {"ios": "https://dc.lft.to/lastmile_qr_scan", "android": "https://dc.lft.to/lastmile_qr_scan"}, "lon": -77.12964316666667, "type": "electric_bike"}, {"bike_id": "79c31de2e2e2647825609c27bdae18f2", "is_reserved": 0, "fusion_lon": 0.0, "lat": 38.93959916666667, "is_disabled": 0, "name": "79c31de2e2e2647825609c27bdae18f2", "fusion_lat": 0.0, "rental_uris": {"ios": "https://dc.lft.to/lastmile_qr_scan", "android": "https://dc.lft.to/lastmile_qr_scan"}, "lon": -77.032531, "type": "electric_scooter"}, {"bike_id": "f0ec0c365b571761f937d1a104fdb2fc", "is_reserved": 0, "fusion_lon": 0.0, "lat": 38.8921955, "is_disabled": 0, "name": "f0ec0c365b571761f937d1a104fdb2fc", "fusion_lat": 0.0, "rental_uris": {"ios": "https://dc.lft.to/lastmile_qr_scan", "android": "https://dc.lft.to/lastmile_qr_scan"}, "lon": -77.02841316666667, "type": "electric_scooter"}, {"bike_id": "080a8555154978d48037ee8c54115e72", "is_reserved": 0, "fusion_lon": 0.0, "lat": 38.916564, "is_disabled": 0, "name": "080a8555154978d48037ee8c54115e72", "fusion_lat": 0.0, "rental_uris": {"ios": "https://dc.lft.to/lastmile_qr_scan", "android": "https://dc.lft.to/lastmile_qr_scan"}, "lon": -77.03652633333333, "type": "electric_scooter"}, {"bike_id": "fc16e67e44cdd03fe9c4c92b898dd414", "is_reserved": 0, "fusion_lon": 0.0, "lat": 38.89228166666667, "is_disabled": 0, "name": "fc16e67e44cdd03fe9c4c92b898dd414", "fusion_lat": 0.0, "rental_uris": {"ios": "https://dc.lft.to/lastmile_qr_scan", "android": "https://dc.lft.to/lastmile_qr_scan"}, "lon": -77.0257925, "type": "electric_scooter"}, {"bike_id": "c9b8ab14c825fd05c5afd9b80033c6c2", "is_reserved": 0, "fusion_lon": 0.0, "lat": 38.941806666666665, "is_disabled": 0, "name": "c9b8ab14c825fd05c5afd9b80033c6c2", "fusion_lat": 0.0, "rental_uris": {"ios": "https://dc.lft.to/lastmile_qr_scan", "android": "https://dc.lft.to/lastmile_qr_scan"}, "lon": -77.025305, "type": "electric_scooter"}, {"bike_id": "65b8bb86d7da64cc7c7a1e3d744ccae1", "is_reserved": 0, "fusion_lon": 0.0, "lat": 38.984643, "is_disabled": 0, "name": "65b8bb86d7da64cc7c7a1e3d744ccae1", "fusion_lat": 0.0, "rental_uris": {"ios": "https://dc.lft.to/lastmile_qr_scan", "android": "https://dc.lft.to/lastmile_qr_scan"}, "lon": -76.95529483333334, "type": "electric_bike"}, {"bike_id": "e9dc279cab22d8d1b2e8cbde8d106e6d", "is_reserved": 0, "fusion_lon": 0.0, "lat": 38.919775333333334, "is_disabled": 0, "name": "e9dc279cab22d8d1b2e8cbde8d106e6d", "fusion_lat": 0.0, "rental_uris": {"ios": "https://dc.lft.to/lastmile_qr_scan", "android": "https://dc.lft.to/lastmile_qr_scan"}, "lon": -77.02340566666666, "type": "electric_scooter"}, {"bike_id": "e018125ceffdcbe6bbb59d38cf4270fb", "is_reserved": 0, "fusion_lon": 0.0, "lat": 38.902865, "is_disabled": 0, "name": "e018125ceffdcbe6bbb59d38cf4270fb", "fusion_lat": 0.0, "rental_uris": {"ios": "https://dc.lft.to/lastmile_qr_scan", "android": "https://dc.lft.to/lastmile_qr_scan"}, "lon": -77.04055983333333, "type": "electric_scooter"},