{"data": {"bikes": [{"is_disabled": 0, "is_reserved": 0, "type": "electric_scooter", "lon": -77.03072883333333, "fusion_lon": 0.0, "lat": 38.907562, "rental_uris": {"android": "https://dc.lft.to/lastmile_qr_scan", "ios": "https://dc.lft.to/lastmile_qr_scan"}, "fusion_lat": 0.0, "name": "88b2d43e4a6f721695405a6bbe333608", "bike_id": "88b2d43e4a6f721695405a6bbe333608"}, {"is_disabled": 0, "is_reserved": 0, "type": "electric_scooter", "lon": -77.03144333333333, "fusion_lon": 0.0, "lat": 38.92006516666667, "rental_uris": {"android": "https://dc.lft.to/lastmile_qr_scan", "ios": "https://dc.lft.to/lastmile_qr_scan"}, "fusion_lat": 0.0, "name": "a84bc8d0e74e40ece76dc60330c2ee59", "bike_id": "a84bc8d0e74e40ece76dc60330c2ee59"}, {"is_disabled": 0, "is_reserved": 0, "type": "electric_scooter", "lon": -77.020492, "fusion_lon": 0.0, "lat": 38.9412645, "rental_uris": {"android": "https://dc.lft.to/lastmile_qr_scan", "ios": "https://dc.lft.to/lastmile_qr_scan"}, "fusion_lat": 0.0, "name": "e18cf1af3ce8ef71efefc36b0af497e3", "bike_id": "e18cf1af3ce8ef71efefc36b0af497e3"}, {"is_disabled": 0, "is_reserved": 0, "type": "electric_scooter", "lon": -77.04105683333333, "fusion_lon": 0.0, "lat": 38.92373833333333, "rental_uris": {"android": "https://dc.lft.to/lastmile_qr_scan", "ios": "https://dc.lft.to/lastmile_qr_scan"}, "fusion_lat": 0.0, "name": "2e9bfd71820c304347ded04c26b072c0", "bike_id": "2e9bfd71820c304347ded04c26b072c0"}, {"is_disabled": 0, "is_reserved": 0, "type": "electric_scooter", "lon": -77.01245116666666, "fusion_lon": 0.0, "lat": 38.9310975, "rental_uris": {"android": "https://dc.lft.to/lastmile_qr_scan", "ios": "https://dc.lft.to/lastmile_qr_scan"}, "fusion_lat": 0.0, "name": "8efade1202ca96de40779a7c34351efb", "bike_id": "8efade1202ca96de40779a7c34351efb"}, {"is_disabled": 0, "is_reserved": 0, "type": "electric_scooter", "lon": -77.0195655, "fusion_lon": 0.0, "lat": 38.90559483333333, "rental_uris": {"android": "https://dc.lft.to/lastmile_qr_scan", "ios": "https://dc.lft.to/lastmile_qr_scan"}, "fusion_lat": 0.0, "name": "1470e43944ea1c5f09f0b8a05d1607fe", "bike_id": "1470e43944ea1c5f09f0b8a05d1607fe"}, {"is_disabled": 0, "is_reserved": 0, "type": "electric_scooter", "lon": -77.02476316666667, "fusion_lon": 0.0, "lat": 38.937568166666665, "rental_uris": {"android": "https://dc.lft.to/lastmile_qr_scan", "ios": "https://dc.lft.to/lastmile_qr_scan"}, "fusion_lat": 0.0, "name": "637533f02fae31f66ddb6c2f3c8afa82", "bike_id": "637533f02fae31f66ddb6c2f3c8afa82"}, {"is_disabled": 0, "is_reserved": 0, "type": "electric_scooter", "lon": -77.0272025, "fusion_lon": 0.0, "lat": 38.92481683333333, "rental_uris": {"android": "https://dc.lft.to/lastmile_qr_scan", "ios": "https://dc.lft.to/lastmile_qr_scan"}, "fusion_lat": 0.0, "name": "00712796f1ddaba2ddd1f15caf25ac72", "bike_id": "00712796f1ddaba2ddd1f15caf25ac72"}, {"is_disabled": 0, "is_reserved": 0, "type": "electric_scooter", "lon": -77.0204905, "fusion_lon": 0.0, "lat": 38.958686166666666, "rental_uris": {"android": "https://dc.lft.to/lastmile_qr_scan", "ios": "https://dc.lft.to/lastmile_qr_scan"}, "fusion_lat": 0.0, "name": "8a4c6d304f6ecf0573c04a95ccae9a58", "bike_id": "8a4c6d304f6ecf0573c04a95ccae9a58"}, {"is_disabled": 0, "is_reserved": 0, "type": "electric_scooter", "lon": -77.04404383333333, "fusion_lon": 0.0, "lat": 38.929500833333336, "rental_uris": {"android": "https://dc.lft.to/lastmile_qr_scan", "ios": "https://dc.lft.to/lastmile_qr_scan"}, "fusion_lat": 0.0, "name": "c7d6600211bd2e6ae21917a6e388c5ca", "bike_id": "c7d6600211bd2e6ae21917a6e388c5ca"}, {"is_disabled": 0, "is_reserved": 0, "type": "electric_scooter", "lon": -76.99054683333334, "fusion_lon": 0.0, "lat": 38.863597666666664, "rental_uris": {"android": "https://dc.lft.to/lastmile_qr_scan", "ios": "https://dc.lft.to/lastmile_qr_scan"}, "fusion_lat": 0.0, "name": "7dc95e791ef7b9264267cc34eed166c4", "bike_id": "7dc95e791ef7b9264267cc34eed166c4"}, {"is_disabled": 0, "is_reserved": 0, "type": "electric_bike", "lon": -77.10648616666667, "fusion_lon": 0.0, "lat": 39.030024, "rental_uris": {"android": "https://dc.lft.to/lastmile_qr_scan", "ios": "https://dc.lft.to/lastmile_qr_scan"}, "fusion_lat": 0.0, "name": "0bbd27c8eb5541a973a72eabad01ae58", "bike_id": "0bbd27c8eb5541a973a72eabad01ae58"}, {"is_disabled": 0, "is_reserved": 0, "type": "electric_scooter", "lon": -77.09445766666667, "fusion_lon": 0.0, "lat": 38.917867, "rental_uris": {"android": "https://dc.lft.to/lastmile_qr_scan", "ios": "https://dc.lft.to/lastmile_qr_scan"}, "fusion_lat": 0.0, "name": "1d0928c2c04ec93bd0c657268fcc53b0", "bike_id": "1d0928c2c04ec93bd0c657268fcc53b0"}, {"is_disabled": 0, "is_reserved": 0, "type": "electric_scooter", "lon": -77.04057083333333, "fusion_lon": 0.0, "lat": 38.9048155, "rental_uris": {"android": "https://dc.lft.to/lastmile_qr_scan", "ios": "https://dc.lft.to/lastmile_qr_scan"}, "fusion_lat": 0.0, "name": "61fc68f271cccf8b9fc4da4f2c6fd553", "bike_id": "61fc68f271cccf8b9fc4da4f2c6fd553"}, {"is_disabled": 0, "is_reserved": 0, "type": "electric_scooter", "lon": -77.04158916666667, "fusion_lon": 0.0, "lat": 38.9232995, "rental_uris": {"android": "https://dc.lft.to/lastmile_qr_scan", "ios": "https://dc.lft.to/lastmile_qr_scan"}, "fusion_lat": 0.0, "name": "39c4c207eb70d3ec32809fe1fd316fe7", "bike_id": "39c4c207eb70d3ec32809fe1fd316fe7"}, {"is_disabled": 0, "is_reserved": 0, "type": "electric_scooter", "lon": -76.94768966666666, "fusion_lon": 0.0, "lat": 38.896217666666665, "rental_uris": {"android": "https://dc.lft.to/lastmile_qr_scan", "ios": "https://dc.lft.to/lastmile_qr_scan"}, "fusion_lat": 0.0, "name": "fe271f3f20ca974cd12f3df0f63166a2", "bike_id": "fe271f3f20ca974cd12f3df0f63166a2"}, {"is_disabled": 0, "is_reserved": 0, "type": "electric_scooter", "lon": -77.00445966666666, "fusion_lon": 0.0, "lat": 38.90713133333333, "rental_uris": {"android": "https://dc.lft.to/lastmile_qr_scan", "ios": "https://dc.lft.to/lastmile_qr_scan"}, "fusion_lat": 0.0, "name": "06553815ad640565d002ebcf95b01359", "bike_id": "06553815ad640565d002ebcf95b01359"}, {"is_disabled": 0, "is_reserved": 0, "type": "electric_scooter", "lon": -77.0317385, "fusion_lon": 0.0, "lat": 38.915531333333334, "rental_uris": {"android": "https://dc.lft.to/lastmile_qr_scan", "ios": "https://dc.lft.to/lastmile_qr_scan"}, "fusion_lat": 0.0, "name": "efa75fe3bc645faa3d8a20078022540f", "bike_id": "efa75fe3bc645faa3d8a20078022540f"}, {"is_disabled": 0, "is_reserved": 0, "type": "electric_scooter", "lon": -77.02726533333333, "fusion_lon": 0.0, "lat": 38.91071483333333, "rental_uris": {"android": "https://dc.lft.to/lastmile_qr_scan", "ios": "https://dc.lft.to/lastmile_qr_scan"}, "fusion_lat": 0.0, "name": "cb81d9993ba965a8378fe9e031a7f47f", "bike_id": "cb81d9993ba965a8378fe9e031a7f47f"}, {"is_disabled": 0, "is_reserved": 0, "type": "electric_scooter", "lon": -76.94942716666667, "fusion_lon": 0.0, "lat": 38.883213, "rental_uris": {"android": "https://dc.lft.to/lastmile_qr_scan", "ios": "https://dc.lft.to/lastmile_qr_scan"}, "fusion_lat": 0.0, "name": "0d4b811062d308ebca4f8a0d95da17ec", "bike_id": "0d4b811062d308ebca4f8a0d95da17ec"}, {"is_disabled": 0, "is_reserved": 0, "type": "electric_scooter", "lon": -77.03901366666666, "fusion_lon": 0.0, "lat": 38.922593166666665, "rental_uris": {"android": "https://dc.lft.to/lastmile_qr_scan", "ios": "https://dc.lft.to/lastmile_qr_scan"}, "fusion_lat": 0.0, "name": "5b13eccdf59c24c7680e644311ad8237", "bike_id": "5b13eccdf59c24c7680e644311ad8237"}, {"is_disabled": 0, "is_reserved": 0, "type": "electric_scooter", "lon": -76.99678783333333, "fusion_lon": 0.0, "lat": 38.90813466666667, "rental_uris": {"android": "https://dc.lft.to/lastmile_qr_scan", "ios": "https://dc.lft.to/lastmile_qr_scan"}, "fusion_lat": 0.0, "name": "df5b308f59cce1c2c5d9c42d845ef72c", "bike_id": "df5b308f59cce1c2c5d9c42d845ef72c"}, {"is_disabled": 0, "is_reserved": 0, "type": "electric_scooter", "lon": -77.01767516666666, "fusion_lon": 0.0, "lat": 38.876859, "rental_uris": {"android": "https://dc.lft.to/lastmile_qr_scan", "ios": "https://dc.lft.to/lastmile_qr_scan"}, "fusion_lat": 0.0, "name": "0df7cfa7ad4b9278bdeff19262deec42", "bike_id": "0df7cfa7ad4b9278bdeff19262deec42"}, {"is_disabled": 0, "is_reserved": 0, "type": "electric_scooter", "lon": -77.03865816666666, "fusion_lon": 0.0, "lat": 38.90808083333334, "rental_uris": {"android": "https://dc.lft.to/lastmile_qr_scan", "ios": "https://dc.lft.to/lastmile_qr_scan"}, "fusion_lat": 0.0, "name": "e1ba992b98270f5354fa3a2e3691310f", "bike_id": "e1ba992b98270f5354fa3a2e3691310f"}, {"is_disabled": 0, "is_reserved": 0, "type": "electric_scooter", "lon": -77.01615866666667, "fusion_lon": 0.0, "lat": 38.87870866666667, "rental_uris": {"android": "https://dc.lft.to/lastmile_qr_scan", "ios": "https://dc.lft.to/lastmile_qr_scan"}, "fusion_lat": 0.0, "name": "6256ea0790e101fd7320c666e02cbf91", "bike_id": "6256ea0790e101fd7320c666e02cbf91"}, {"is_disabled": 0, "is_reserved": 0, "type": "electric_scooter", "lon": -77.03761816666666, "fusion_lon": 0.0, "lat": 38.92904166666667, "rental_uris": {"android": "https://dc.lft.to/lastmile_qr_scan", "ios": "https://dc.lft.to/lastmile_qr_scan"}, "fusion_lat": 0.0, "name": "e9a21239cf9d63fd7eee7fede6da3496", "bike_id": "e9a21239cf9d63fd7eee7fede6da3496"}, {"is_disabled": 0, "is_reserved": 0, "type": "electric_bike", "lon": -76.97082533333334, "fusion_lon": 0.0, "lat": 38.892196166666665, "rental_uris": {"android": "https://dc.lft.to/lastmile_qr_scan", "ios": "https://dc.lft.to/lastmile_qr_scan"}, "fusion_lat": 0.0, "name": "316a5fb4331c3e6dd04b8f9f1df0dbe8", "bike_id": "316a5fb4331c3e6dd04b8f9f1df0dbe8"}, {"is_disabled": 0, "is_reserved": 0, "type": "electric_scooter", "lon": -77.03456816666667, "fusion_lon": 0.0, "lat": 38.9172145, "rental_uris": {"android": "https://dc.lft.to/lastmile_qr_scan", "ios": "https://dc.lft.to/lastmile_qr_scan"}, "fusion_lat": 0.0, "name": "92ae4e67a08491474ca219a6730e1bad", "bike_id": "92ae4e67a08491474ca219a6730e1bad"}, {"is_disabled": 0, "is_reserved": 0, "type": "electric_scooter", "lon": -77.0579155, "fusion_lon": 0.0, "lat": 38.934798666666666, "rental_uris": {"android": "https://dc.lft.to/lastmile_qr_scan", "ios": "https://dc.lft.to/lastmile_qr_scan"}, "fusion_lat": 0.0, "name": "934b255241dbdf69c66a7d11da173c2a", "bike_id": "934b255241dbdf69c66a7d11da173c2a"}, {"is_disabled": 0, "is_reserved": 0, "type": "electric_scooter", "lon": -77.02250466666666, "fusion_lon": 0.0, "lat": 38.9246995, "rental_uris": {"android": "https://dc.lft.to/lastmile_qr_scan", "ios": "https://dc.lft.to/lastmile_qr_scan"}, "fusion_lat": 0.0, "name": "8c5aea8be5dc06840c15646ba0459b54", "bike_id": "8c5aea8be5dc06840c15646ba0459b54"}, {"is_disabled": 0, "is_reserved": 0, "type": "electric_scooter", "lon": -77.0297255, "fusion_lon": 0.0, "lat": 38.90719683333333, "rental_uris": {"android": "https://dc.lft.to/lastmile_qr_scan", "ios": "https://dc.lft.to/lastmile_qr_scan"}, "fusion_lat": 0.0, "name": "f16f68de74bb9fb3892c0bfb9364864f", "bike_id": "f16f68de74bb9fb3892c0bfb9364864f"}, {"is_disabled": 0, "is_reserved": 0, "type": "electric_scooter", "lon": -77.0196275, "fusion_lon": 0.0, "lat": 38.930358, "rental_uris": {"android": "https://dc.lft.to/lastmile_qr_scan", "ios": "https://dc.lft.to/lastmile_qr_scan"}, "fusion_lat": 0.0, "name": "73a17f734f65c95d321a049549e06f2e", "bike_id": "73a17f734f65c95d321a049549e06f2e"}, {"is_disabled": 0, "is_reserved": 0, "type": "electric_scooter", "lon": -77.03146783333334, "fusion_lon": 0.0, "lat": 38.92021966666667, "rental_uris": {"android": "https://dc.lft.to/lastmile_qr_scan", "ios": "https://dc.lft.to/lastmile_qr_scan"}, "fusion_lat": 0.0, "name": "42941f75c4e4e112609713323d9f7be1", "bike_id": "42941f75c4e4e112609713323d9f7be1"}, {"is_disabled": 0, "is_reserved": 0, "type": "electric_scooter", "lon": -77.05527533333333, "fusion_lon": 0.0, "lat": 38.93010016666667, "rental_uris": {"android": "https://dc.lft.to/lastmile_qr_scan", "ios": "https://dc.lft.to/lastmile_qr_scan"}, "fusion_lat": 0.0, "name": "c7950808fd4b78f62c51e1a0f0297958", "bike_id": "c7950808fd4b78f62c51e1a0f0297958"}, {"is_disabled": 0, "is_reserved": 0, "type": "electric_scooter", "lon": -77.0419165, "fusion_lon": 0.0, "lat": 38.919581666666666, "rental_uris": {"android": "https://dc.lft.to/lastmile_qr_scan", "ios": "https://dc.lft.to/lastmile_qr_scan"}, "fusion_lat": 0.0, "name": "be4db3fb6f7b9836c3a21ec0e5e6da5e", "bike_id": "be4db3fb6f7b9836c3a21ec0e5e6da5e"}, {"is_disabled": 0, "is_reserved": 0, "type": "electric_scooter", "lon": -76.965278, "fusion_lon": 0.0, "lat": 38.876258166666666, "rental_uris": {"android": "https://dc.lft.to/lastmile_qr_scan", "ios": "https://dc.lft.to/lastmile_qr_scan"}, "fusion_lat": 0.0, "name": "59df185417d382202b4bfe1c719a2229", "bike_id": "59df185417d382202b4bfe1c719a2229"}, {"is_disabled": 0, "is_reserved": 0, "type": "electric_scooter", "lon": -77.02718216666666, "fusion_lon": 0.0, "lat": 38.89638216666667, "rental_uris": {"android": "https://dc.lft.to/lastmile_qr_scan", "ios": "https://dc.lft.to/lastmile_qr_scan"}, "fusion_lat": 0.0, "name": "9da19ba546a5b14067eef13164ce0088", "bike_id": "9da19ba546a5b14067eef13164ce0088"}, {"is_disabled": 0, "is_reserved": 0, "type": "electric_scooter", "lon": -77.02403783333334, "fusion_lon": 0.0, "lat": 38.8991975, "rental_uris": {"android": "https://dc.lft.to/lastmile_qr_scan", "ios": "https://dc.lft.to/lastmile_qr_scan"}, "fusion_lat": 0.0, "name": "87e4a34081b3c3d52189e05c168404d7", "bike_id": "87e4a34081b3c3d52189e05c168404d7"}, {"is_disabled": 0, "is_reserved": 0, "type": "electric_scooter", "lon": -77.03384716666666, "fusion_lon": 0.0, "lat": 38.90110033333333, "rental_uris": {"android": "https://dc.lft.to/lastmile_qr_scan", "ios": "https://dc.lft.to/lastmile_qr_scan"}, "fusion_lat": 0.0, "name": "caec15e01abd52e1d48598fe707a2219", "bike_id": "caec15e01abd52e1d48598fe707a2219"}, {"is_disabled": 0, "is_reserved": 0, "type": "electric_bike", "lon": -77.0849695, "fusion_lon": 0.0, "lat": 38.8905415, "rental_uris": {"android": "https://dc.lft.to/lastmile_qr_scan", "ios": "https://dc.lft.to/lastmile_qr_scan"}, "fusion_lat": 0.0, "name": "030c32a8a63e4b6dda51835bae18c578", "bike_id": "030c32a8a63e4b6dda51835bae18c578"}, {"is_disabled": 0, "is_reserved": 0, "type": "electric_scooter", "lon": -77.00088216666667, "fusion_lon": 0.0, "lat": 38.894128, "rental_uris": {"android": "https://dc.lft.to/lastmile_qr_scan", "ios": "https://dc.lft.to/lastmile_qr_scan"}, "fusion_lat": 0.0, "name": "9560a6b2ceac77e4c0882cb695fc9fe9", "bike_id": "9560a6b2ceac77e4c0882cb695fc9fe9"}, {"is_disabled": 0, "is_reserved": 0, "type": "electric_scooter", "lon": -77.07249716666666, "fusion_lon": 0.0, "lat": 38.907852166666665, "rental_uris": {"android": "https://dc.lft.to/lastmile_qr_scan", "ios": "https://dc.lft.to/lastmile_qr_scan"}, "fusion_lat": 0.0, "name": "ded4649f539dfaeb254006b744182386", "bike_id": "ded4649f539dfaeb254006b744182386"}, {"is_disabled": 0, "is_reserved": 0, "type": "electric_scooter", "lon": -77.01388616666667, "fusion_lon": 0.0, "lat": 38.910068333333335, "rental_uris": {"android": "https://dc.lft.to/lastmile_qr_scan", "ios": "https://dc.lft.to/lastmile_qr_scan"}, "fusion_lat": 0.0, "name": "fec8a69b03a63016bf88c5c5e913d668", "bike_id": "fec8a69b03a63016bf88c5c5e913d668"}, {"is_disabled": 0, "is_reserved": 0, "type": "electric_scooter", "lon": -77.036325, "fusion_lon": 0.0, "lat": 38.95606633333333, "rental_uris": {"android": "https://dc.lft.to/lastmile_qr_scan", "ios": "https://dc.lft.to/lastmile_qr_scan"}, "fusion_lat": 0.0, "name": "06af12651fa0b83c6600b83f3a104458", "bike_id": "06af12651fa0b83c6600b83f3a104458"}, {"is_disabled": 0, "is_reserved": 0, "type": "electric_scooter", "lon": -77.02298633333334, "fusion_lon": 0.0, "lat": 38.879067, "rental_uris": {"android": "https://dc.lft.to/lastmile_qr_scan", "ios": "https://dc.lft.to/lastmile_qr_scan"}, "fusion_lat": 0.0, "name": "319be7f583cb6aed5e1267c17c077e83", "bike_id": "319be7f583cb6aed5e1267c17c077e83"}, {"is_disabled": 0, "is_reserved": 0, "type": "electric_scooter", "lon": -77.04233183333334, "fusion_lon": 0.0, "lat": 38.90116316666666, "rental_uris": {"android": "https://dc.lft.to/lastmile_qr_scan", "ios": "https://dc.lft.to/lastmile_qr_scan"}, "fusion_lat": 0.0, "name": "dec5cb444fcef23203ca53d840e511fb", "bike_id": "dec5cb444fcef23203ca53d840e511fb"}, {"is_disabled": 0, "is_reserved": 0, "type": "electric_scooter", "lon": -77.02246366666667, "fusion_lon": 0.0, "lat": 38.89224016666667, "rental_uris": {"android": "https://dc.lft.to/lastmile_qr_scan", "ios": "https://dc.lft.to/lastmile_qr_scan"}, "fusion_lat": 0.0, "name": "3940eeadb9a55550f6898e0909feb2d2", "bike_id": "3940eeadb9a55550f6898e0909feb2d2"}, {"is_disabled": 0, "is_reserved": 0, "type": "electric_scooter", "lon": -77.02154833333333, "fusion_lon": 0.0, "lat": 38.926042, "rental_uris": {"android": "https://dc.lft.to/lastmile_qr_scan", "ios": "https://dc.lft.to/lastmile_qr_scan"}, "fusion_lat": 0.0, "name": "448f809fed2df535a73ec57463e34ecf", "bike_id": "448f809fed2df535a73ec57463e34ecf"}, {"is_disabled": 0, "is_reserved": 0, "type": "electric_scooter", "lon": -77.04679783333333, "fusion_lon": 0.0, "lat": 38.892217, "rental_uris": {"android": "https://dc.lft.to/lastmile_qr_scan", "ios": "https://dc.lft.to/lastmile_qr_scan"}, "fusion_lat": 0.0, "name": "e5a0aa33a688de2a857309cb068211ca", "bike_id": "e5a0aa33a688de2a857309cb068211ca"}, {"is_disabled": 0, "is_reserved": 0, "type": "electric_scooter", "lon": -76.94121433333333, "fusion_lon": 0.0, "lat": 38.90793083333333, "rental_uris": {"android": "https://dc.lft.to/lastmile_qr_scan", "ios": "https://dc.lft.to/lastmile_qr_scan"}, "fusion_lat": 0.0, "name": "e9580fc90d14daf3c4b0e5f9ba23e554", "bike_id": "e9580fc90d14daf3c4b0e5f9ba23e554"}, {"is_disabled": 0, "is_reserved": 0, "type": "electric_scooter", "lon": -77.012604, "fusion_lon": 0.0, "lat": 38.8748405, "rental_uris": {"android": "https://dc.lft.to/lastmile_qr_scan", "ios": "https://dc.lft.to/lastmile_qr_scan"}, "fusion_lat": 0.0, "name": "a1c0f7be9b0bf676864361f486cfad09", "bike_id": "a1c0f7be9b0bf676864361f486cfad09"}, {"is_disabled": 0, "is_reserved": 0, "type": "electric_scooter", "lon": -77.00898633333334, "fusion_lon": 0.0, "lat": 38.91289166666667, "rental_uris": {"android": "https://dc.lft.to/lastmile_qr_scan", "ios": "https://dc.lft.to/lastmile_qr_scan"}, "fusion_lat": 0.0, "name": "323078fd593b0a5c75ce6dbd3a6eb7ac", "bike_id": "323078fd593b0a5c75ce6dbd3a6eb7ac"}, {"is_disabled": 0, "is_reserved": 0, "type": "electric_scooter", "lon": -77.0635925, "fusion_lon": 0.0, "lat": 38.944450833333335, "rental_uris": {"android": "https://dc.lft.to/lastmile_qr_scan", "ios": "https://dc.lft.to/lastmile_qr_scan"}, "fusion_lat": 0.0, "name": "490c2be16f5d4e09cc1b609b0cc6e858", "bike_id": "490c2be16f5d4e09cc1b609b0cc6e858"}, {"is_disabled": 0, "is_reserved": 0, "type": "electric_scooter", "lon": -77.02465, "fusion_lon": 0.0, "lat": 38.93763966666667, "rental_uris": {"android": "https://dc.lft.to/lastmile_qr_scan", "ios": "https://dc.lft.to/lastmile_qr_scan"}, "fusion_lat": 0.0, "name": "c775adf551ea1cad5715ea68a95549d1", "bike_id": "c775adf551ea1cad5715ea68a95549d1"}, {"is_disabled": 0, "is_reserved": 0, "type": "electric_bike", "lon": -77.16245166666667, "fusion_lon": 0.0, "lat": 38.88656866666667, "rental_uris": {"android": "https://dc.lft.to/lastmile_qr_scan", "ios": "https://dc.lft.to/lastmile_qr_scan"}, "fusion_lat": 0.0, "name": "77785cc66733319c374238e98d24fa65", "bike_id": "77785cc66733319c374238e98d24fa65"}, {"is_disabled": 0, "is_reserved": 0, "type": "electric_scooter", "lon": -77.00765216666667, "fusion_lon": 0.0, "lat": 38.900591666666664, "rental_uris": {"android": "https://dc.lft.to/lastmile_qr_scan", "ios": "https://dc.lft.to/lastmile_qr_scan"}, "fusion_lat": 0.0, "name": "050d9dcc9b7279940198be01bda419de", "bike_id": "050d9dcc9b7279940198be01bda419de"}, {"is_disabled": 0, "is_reserved": 0, "type": "electric_scooter", "lon": -76.986778, "fusion_lon": 0.0, "lat": 38.85569, "rental_uris": {"android": "https://dc.lft.to/lastmile_qr_scan", "ios": "https://dc.lft.to/lastmile_qr_scan"}, "fusion_lat": 0.0, "name": "1557f0917e092f51809ef7eecc39146d", "bike_id": "1557f0917e092f51809ef7eecc39146d"}, {"is_disabled": 0, "is_reserved": 0, "type": "electric_scooter", "lon": -77.0460235, "fusion_lon": 0.0, "lat": 38.899595, "rental_uris": {"android": "https://dc.lft.to/lastmile_qr_scan", "ios": "https://dc.lft.to/lastmile_qr_scan"}, "fusion_lat": 0.0, "name": "57d1c25476ec5c9c2afb2667a39dbec5", "bike_id": "57d1c25476ec5c9c2afb2667a39dbec5"}, {"is_disabled": 0, "is_reserved": 0, "type": "electric_scooter", "lon": -77.04162766666667, "fusion_lon": 0.0, "lat": 38.908005833333334, "rental_uris": {"android": "https://dc.lft.to/lastmile_qr_scan", "ios": "https://dc.lft.to/lastmile_qr_scan"}, "fusion_lat": 0.0, "name": "b6ba2791b0c3afdb72f1ed3c58400237", "bike_id": "b6ba2791b0c3afdb72f1ed3c58400237"}, {"is_disabled": 0, "is_reserved": 0, "type": "electric_scooter", "lon": -77.02194866666666, "fusion_lon": 0.0, "lat": 38.90512283333333, "rental_uris": {"android": "https://dc.lft.to/lastmile_qr_scan", "ios": "https://dc.lft.to/lastmile_qr_scan"}, "fusion_lat": 0.0, "name": "4777d9172448ab88d1e8e5ec1cf1b35b", "bike_id": "4777d9172448ab88d1e8e5ec1cf1b35b"}, {"is_disabled": 0, "is_reserved": 0, "type": "electric_scooter", "lon": -77.02239133333333, "fusion_lon": 0.0, "lat": 38.90557166666667, "rental_uris": {"android": "https://dc.lft.to/lastmile_qr_scan", "ios": "https://dc.lft.to/lastmile_qr_scan"}, "fusion_lat": 0.0, "name": "9fa4591cd8a595264f040e6f752147cd", "bike_id": "9fa4591cd8a595264f040e6f752147cd"}, {"is_disabled": 0, "is_reserved": 0, "type": "electric_scooter", "lon": -77.02719966666666, "fusion_lon": 0.0, "lat": 38.92479816666667, "rental_uris": {"android": "https://dc.lft.to/lastmile_qr_scan", "ios": "https://dc.lft.to/lastmile_qr_scan"}, "fusion_lat": 0.0, "name": "575d1e90205cb28a2f68b1749347a5e3", "bike_id": "575d1e90205cb28a2f68b1749347a5e3"}, {"is_disabled": 0, "is_reserved": 0, "type": "electric_scooter", "lon": -77.02709216666666, "fusion_lon": 0.0, "lat": 38.91967983333333, "rental_uris": {"android": "https://dc.lft.to/lastmile_qr_scan", "ios": "https://dc.lft.to/lastmile_qr_scan"}, "fusion_lat": 0.0, "name": "f1c687d49ea8e7514fe3ab18ba5aa4ae", "bike_id": "f1c687d49ea8e7514fe3ab18ba5aa4ae"}, {"is_disabled": 0, "is_reserved": 0, "type": "electric_scooter", "lon": -77.01127033333333, "fusion_lon": 0.0, "lat": 38.8668115, "rental_uris": {"android": "https://dc.lft.to/lastmile_qr_scan", "ios": "https://dc.lft.to/lastmile_qr_scan"}, "fusion_lat": 0.0, "name": "5f020fc20e50660f929c1d2cb4aa9257", "bike_id": "5f020fc20e50660f929c1d2cb4aa9257"}, {"is_disabled": 0, "is_reserved": 0, "type": "electric_scooter", "lon": -77.00804583333333, "fusion_lon": 0.0, "lat": 38.87849683333334, "rental_uris": {"android": "https://dc.lft.to/lastmile_qr_scan", "ios": "https://dc.lft.to/lastmile_qr_scan"}, "fusion_lat": 0.0, "name": "66295243035fe838870271712e5909c1", "bike_id": "66295243035fe838870271712e5909c1"}, {"is_disabled": 0, "is_reserved": 0, "type": "electric_bike", "lon": -76.92760683333333, "fusion_lon": 0.0, "lat": 38.960348, "rental_uris": {"android": "https://dc.lft.to/lastmile_qr_scan", "ios": "https://dc.lft.to/lastmile_qr_scan"}, "fusion_lat": 0.0, "name": "5696b9b89a4867716c885d7db72d8ba1", "bike_id": "5696b9b89a4867716c885d7db72d8ba1"}, {"is_disabled": 0, "is_reserved": 0, "type": "electric_scooter", "lon": -77.03457383333334, "fusion_lon": 0.0, "lat": 38.917172666666666, "rental_uris": {"android": "https://dc.lft.to/lastmile_qr_scan", "ios": "https://dc.lft.to/lastmile_qr_scan"}, "fusion_lat": 0.0, "name": "4600cadf187c153ade7742feae5ba734", "bike_id": "4600cadf187c153ade7742feae5ba734"}, {"is_disabled": 0, "is_reserved": 0, "type": "electric_bike", "lon": -77.06389116666666, "fusion_lon": 0.0, "lat": 39.017357833333335, "rental_uris": {"android": "https://dc.lft.to/lastmile_qr_scan", "ios": "https://dc.lft.to/lastmile_qr_scan"}, "fusion_lat": 0.0, "name": "e310dbf43dac9db41b773a37ea61f56f", "bike_id": "e310dbf43dac9db41b773a37ea61f56f"}, {"is_disabled": 0, "is_reserved": 0, "type": "electric_bike", "lon": -77.00194516666667, "fusion_lon": 0.0, "lat": 38.819243666666665, "rental_uris": {"android": "https://dc.lft.to/lastmile_qr_scan", "ios": "https://dc.lft.to/lastmile_qr_scan"}, "fusion_lat": 0.0, "name": "e5028bdaa8333061f995aa0af14d97b4", "bike_id": "e5028bdaa8333061f995aa0af14d97b4"}, {"is_disabled": 0, "is_reserved": 0, "type": "electric_scooter", "lon": -76.98884466666667, "fusion_lon": 0.0, "lat": 38.866713, "rental_uris": {"android": "https://dc.lft.to/lastmile_qr_scan", "ios": "https://dc.lft.to/lastmile_qr_scan"}, "fusion_lat": 0.0, "name": "8c5e66e16fec63407b50e02173e80844", "bike_id": "8c5e66e16fec63407b50e02173e80844"}, {"is_disabled": 0, "is_reserved": 0, "type": "electric_bike", "lon": -76.960883, "fusion_lon": 0.0, "lat": 38.918491333333336, "rental_uris": {"android": "https://dc.lft.to/lastmile_qr_scan", "ios": "https://dc.lft.to/lastmile_qr_scan"}, "fusion_lat": 0.0, "name": "01f3ce75f340252c3cc2d166775fe444", "bike_id": "01f3ce75f340252c3cc2d166775fe444"}, {"is_disabled": 0, "is_reserved": 0, "type": "electric_scooter", "lon": -77.0078115, "fusion_lon": 0.0, "lat": 38.879222666666664, "rental_uris": {"android": "https://dc.lft.to/lastmile_qr_scan", "ios": "https://dc.lft.to/lastmile_qr_scan"}, "fusion_lat": 0.0, "name": "13504669091fa428b71621dcbf74d090", "bike_id": "13504669091fa428b71621dcbf74d090"}, {"is_disabled": 0, "is_reserved": 0, "type": "electric_scooter", "lon": -77.02780433333334, "fusion_lon": 0.0, "lat": 38.892209666666666, "rental_uris": {"android": "https://dc.lft.to/lastmile_qr_scan", "ios": "https://dc.lft.to/lastmile_qr_scan"}, "fusion_lat": 0.0, "name": "71e6065f75711872be52279ee01757e9", "bike_id": "71e6065f75711872be52279ee01757e9"}, {"is_disabled": 0, "is_reserved": 0, "type": "electric_scooter", "lon": -77.03667383333334, "fusion_lon": 0.0, "lat": 38.905656, "rental_uris": {"android": "https://dc.lft.to/lastmile_qr_scan", "ios": "https://dc.lft.to/lastmile_qr_scan"}, "fusion_lat": 0.0, "name": "e4b1c706c3a1bcb0324e069befc25778", "bike_id": "e4b1c706c3a1bcb0324e069befc25778"}, {"is_disabled": 0, "is_reserved": 0, "type": "electric_scooter", "lon": -77.02398733333334, "fusion_lon": 0.0, "lat": 38.9309955, "rental_uris": {"android": "https://dc.lft.to/lastmile_qr_scan", "ios": "https://dc.lft.to/lastmile_qr_scan"}, "fusion_lat": 0.0, "name": "c158406626d139c6bbcb4bd8a5f26733", "bike_id": "c158406626d139c6bbcb4bd8a5f26733"}, {"is_disabled": 0, "is_reserved": 0, "type": "electric_scooter", "lon": -77.05238166666666, "fusion_lon": 0.0, "lat": 38.89810166666667, "rental_uris": {"android": "https://dc.lft.to/lastmile_qr_scan", "ios": "https://dc.lft.to/lastmile_qr_scan"}, "fusion_lat": 0.0, "name": "0fb13558a8c13cb76cbe1c627fa94a97", "bike_id": "0fb13558a8c13cb76cbe1c627fa94a97"}, {"is_disabled": 0, "is_reserved": 0, "type": "electric_scooter", "lon": -76.99004066666667, "fusion_lon": 0.0, "lat": 38.86506583333333, "rental_uris": {"android": "https://dc.lft.to/lastmile_qr_scan", "ios": "https://dc.lft.to/lastmile_qr_scan"}, "fusion_lat": 0.0, "name": "a48117c9d9a0feace8c00cdc9ef426c0", "bike_id": "a48117c9d9a0feace8c00cdc9ef426c0"}, {"is_disabled": 0, "is_reserved": 0, "type": "electric_scooter", "lon": -77.0247, "fusion_lon": 0.0, "lat": 38.91878033333333, "rental_uris": {"android": "https://dc.lft.to/lastmile_qr_scan", "ios": "https://dc.lft.to/lastmile_qr_scan"}, "fusion_lat": 0.0, "name": "7e3c13456b93d8d516fd610a0d745c04", "bike_id": "7e3c13456b93d8d516fd610a0d745c04"}, {"is_disabled": 0, "is_reserved": 0, "type": "electric_scooter", "lon": -77.0447655, "fusion_lon": 0.0, "lat": 38.91266133333333, "rental_uris": {"android": "https://dc.lft.to/lastmile_qr_scan", "ios": "https://dc.lft.to/lastmile_qr_scan"}, "fusion_lat": 0.0, "name": "646c5024c0ae969ed4113a3d688a6c1d", "bike_id": "646c5024c0ae969ed4113a3d688a6c1d"}, {"is_disabled": 0, "is_reserved": 0, "type": "electric_scooter", "lon": -77.0222795, "fusion_lon": 0.0, "lat": 38.895918333333334, "rental_uris": {"android": "https://dc.lft.to/lastmile_qr_scan", "ios": "https://dc.lft.to/lastmile_qr_scan"}, "fusion_lat": 0.0, "name": "557c6664aaefcbbcebfff4442367b4f4", "bike_id": "557c6664aaefcbbcebfff4442367b4f4"}, {"is_disabled": 0, "is_reserved": 0, "type": "electric_scooter", "lon": -77.02495033333334, "fusion_lon": 0.0, "lat": 38.91807216666667, "rental_uris": {"android": "https://dc.lft.to/lastmile_qr_scan", "ios": "https://dc.lft.to/lastmile_qr_scan"}, "fusion_lat": 0.0, "name": "1b82b43d8560838db687785e4bd87754", "bike_id": "1b82b43d8560838db687785e4bd87754"}, {"is_disabled": 0, "is_reserved": 0, "type": "electric_bike", "lon": -76.98330916666667, "fusion_lon": 0.0, "lat": 38.966023, "rental_uris": {"android": "https://dc.lft.to/lastmile_qr_scan", "ios": "https://dc.lft.to/lastmile_qr_scan"}, "fusion_lat": 0.0, "name": "e80770ac98cc5f3084314e247d7c5020", "bike_id": "e80770ac98cc5f3084314e247d7c5020"}, {"is_disabled": 0, "is_reserved": 0, "type": "electric_scooter", "lon": -77.00449983333333, "fusion_lon": 0.0, "lat": 38.8773805, "rental_uris": {"android": "https://dc.lft.to/lastmile_qr_scan", "ios": "https://dc.lft.to/lastmile_qr_scan"}, "fusion_lat": 0.0, "name": "4c8352929ef4bb5747c7db7a051209c4", "bike_id": "4c8352929ef4bb5747c7db7a051209c4"}, {"is_disabled": 0, "is_reserved": 0, "type": "electric_scooter", "lon": -77.016146, "fusion_lon": 0.0, "lat": 38.887492333333334, "rental_uris": {"android": "https://dc.lft.to/lastmile_qr_scan", "ios": "https://dc.lft.to/lastmile_qr_scan"}, "fusion_lat": 0.0, "name": "a3df403c24de464372302284e1c4f1b2", "bike_id": "a3df403c24de464372302284e1c4f1b2"}, {"is_disabled": 0, "is_reserved": 0, "type": "electric_bike", "lon": -77.04363333333333, "fusion_lon": 0.0, "lat": 38.831796, "rental_uris": {"android": "https://dc.lft.to/lastmile_qr_scan", "ios": "https://dc.lft.to/lastmile_qr_scan"}, "fusion_lat": 0.0, "name": "b42b0b0fff36de31b2e1f7b0d8b69e7e", "bike_id": "b42b0b0fff36de31b2e1f7b0d8b69e7e"}, {"is_disabled": 0, "is_reserved": 0, "type": "electric_scooter", "lon": -77.02842083333333, "fusion_lon": 0.0, "lat": 38.922351, "rental_uris": {"android": "https://dc.lft.to/lastmile_qr_scan", "ios": "https://dc.lft.to/lastmile_qr_scan"}, "fusion_lat": 0.0, "name": "4a6ae94fc0d7c5e1addf2c2a4d718324", "bike_id": "4a6ae94fc0d7c5e1addf2c2a4d718324"}, {"is_disabled": 0, "is_reserved": 0, "type": "electric_scooter", "lon": -76.933673, "fusion_lon": 0.0, "lat": 38.899255833333335, "rental_uris": {"android": "https://dc.lft.to/lastmile_qr_scan", "ios": "https://dc.lft.to/lastmile_qr_scan"}, "fusion_lat": 0.0, "name": "682636d83ef010ec12cdc448e34a2ec2", "bike_id": "682636d83ef010ec12cdc448e34a2ec2"}, {"is_disabled": 0, "is_reserved": 0, "type": "electric_scooter", "lon": -77.053321, "fusion_lon": 0.0, "lat": 38.92786266666667, "rental_uris": {"android": "https://dc.lft.to/lastmile_qr_scan", "ios": "https://dc.lft.to/lastmile_qr_scan"}, "fusion_lat": 0.0, "name": "f173bf1585ba5554b64cebc366e73056", "bike_id": "f173bf1585ba5554b64cebc366e73056"}, {"is_disabled": 0, "is_reserved": 0, "type": "electric_bike", "lon": -76.92917216666666, "fusion_lon": 0.0, "lat": 38.98032666666667, "rental_uris": {"android": "https://dc.lft.to/lastmile_qr_scan", "ios": "https://dc.lft.to/lastmile_qr_scan"}, "fusion_lat": 0.0, "name": "b9c9a1576b83c3ca9c9218b8536f993d", "bike_id": "b9c9a1576b83c3ca9c9218b8536f993d"}, {"is_disabled": 0, "is_reserved": 0, "type": "electric_scooter", "lon": -77.0268945, "fusion_lon": 0.0, "lat": 38.9169065, "rental_uris": {"android": "https://dc.lft.to/lastmile_qr_scan", "ios": "https://dc.lft.to/lastmile_qr_scan"}, "fusion_lat": 0.0, "name": "2b8d963b798d84f5a7ebbf536c0b0490", "bike_id": "2b8d963b798d84f5a7ebbf536c0b0490"}, {"is_disabled": 0, "is_reserved": 0, "type": "electric_scooter", "lon": -77.03329133333334, "fusion_lon": 0.0, "lat": 38.89817983333333, "rental_uris": {"android": "https://dc.lft.to/lastmile_qr_scan", "ios": "https://dc.lft.to/lastmile_qr_scan"}, "fusion_lat": 0.0, "name": "4f627507c91d8d4f78f5808918ab8642", "bike_id": "4f627507c91d8d4f78f5808918ab8642"}, {"is_disabled": 0, "is_reserved": 0, "type": "electric_scooter", "lon": -77.02180133333333, "fusion_lon": 0.0, "lat": 38.89745033333333, "rental_uris": {"android": "https://dc.lft.to/lastmile_qr_scan", "ios": "https://dc.lft.to/lastmile_qr_scan"}, "fusion_lat": 0.0, "name": "538c07d7177764ed7b5dd620139632b3", "bike_id": "538c07d7177764ed7b5dd620139632b3"}, {"is_disabled": 0, "is_reserved": 0, "type": "electric_scooter", "lon": -76.9464085, "fusion_lon": 0.0, "lat": 38.89843283333333, "rental_uris": {"android": "https://dc.lft.to/lastmile_qr_scan", "ios": "https://dc.lft.to/lastmile_qr_scan"}, "fusion_lat": 0.0, "name": "73b830098dcf0092147cf16fab81279e", "bike_id": "73b830098dcf0092147cf16fab81279e"}, {"is_disabled": 0, "is_reserved": 0, "type": "electric_scooter", "lon": -76.9499845, "fusion_lon": 0.0, "lat": 38.89393883333334, "rental_uris": {"android": "https://dc.lft.to/lastmile_qr_scan", "ios": "https://dc.lft.to/lastmile_qr_scan"}, "fusion_lat": 0.0, "name": "33481ee1780c95ccbbee4f534e02cfd6", "bike_id": "33481ee1780c95ccbbee4f534e02cfd6"}, {"is_disabled": 0, "is_reserved": 0, "type": "electric_scooter", "lon": -77.02491733333333, "fusion_lon": 0.0, "lat": 38.94187066666667, "rental_uris": {"android": "https://dc.lft.to/lastmile_qr_scan", "ios": "https://dc.lft.to/lastmile_qr_scan"}, "fusion_lat": 0.0, "name": "b6177591ad72336c7b3a43aa36f23724", "bike_id": "b6177591ad72336c7b3a43aa36f23724"}, {"is_disabled": 0, "is_reserved": 0, "type": "electric_scooter", "lon": -77.04485316666667, "fusion_lon": 0.0, "lat": 38.9066705, "rental_uris": {"android": "https://dc.lft.to/lastmile_qr_scan", "ios": "https://dc.lft.to/lastmile_qr_scan"}, "fusion_lat": 0.0, "name": "8e2b8ce6126b544c9fc34be423630edd", "bike_id": "8e2b8ce6126b544c9fc34be423630edd"}, {"is_disabled": 0, "is_reserved": 0, "type": "electric_scooter", "lon": -77.02114366666666, "fusion_lon": 0.0, "lat": 38.892240666666666, "rental_uris": {"android": "https://dc.lft.to/lastmile_qr_scan", "ios": "https://dc.lft.to/lastmile_qr_scan"}, "fusion_lat": 0.0, "name": "bd6cb404b4e16930297137aad4387f02", "bike_id": "bd6cb404b4e16930297137aad4387f02"}, {"is_disabled": 0, "is_reserved": 0, "type": "electric_scooter", "lon": -77.057914, "fusion_lon": 0.0, "lat": 38.934776166666666, "rental_uris": {"android": "https://dc.lft.to/lastmile_qr_scan", "ios": "https://dc.lft.to/lastmile_qr_scan"}, "fusion_lat": 0.0, "name": "24be24b8388168c4f4c2eea448224bc6", "bike_id": "24be24b8388168c4f4c2eea448224bc6"}, {"is_disabled": 0, "is_reserved": 0, "type": "electric_scooter", "lon": -77.03435183333333, "fusion_lon": 0.0, "lat": 38.91033733333333, "rental_uris": {"android": "https://dc.lft.to/lastmile_qr_scan", "ios": "https://dc.lft.to/lastmile_qr_scan"}, "fusion_lat": 0.0, "name": "24aacdb4e558e03a37b5484b9a78c33f", "bike_id": "24aacdb4e558e03a37b5484b9a78c33f"}, {"is_disabled": 0, "is_reserved": 0, "type": "electric_scooter", "lon": -77.043715, "fusion_lon": 0.0, "lat": 38.91677383333333, "rental_uris": {"android": "https://dc.lft.to/lastmile_qr_scan", "ios": "https://dc.lft.to/lastmile_qr_scan"}, "fusion_lat": 0.0, "name": "db8074c5087451b7cbbb908ca53ff9fd", "bike_id": "db8074c5087451b7cbbb908ca53ff9fd"}, {"is_disabled": 0, "is_reserved": 0, "type": "electric_scooter", "lon": -77.04610383333333, "fusion_lon": 0.0, "lat": 38.917125166666665, "rental_uris": {"android": "https://dc.lft.to/lastmile_qr_scan", "ios": "https://dc.lft.to/lastmile_qr_scan"}, "fusion_lat": 0.0, "name": "6fc6d77c3cfa813d6ad5d5be32594d94", "bike_id": "6fc6d77c3cfa813d6ad5d5be32594d94"}, {"is_disabled": 0, "is_reserved": 0, "type": "electric_scooter", "lon": -77.02485433333334, "fusion_lon": 0.0, "lat": 38.92995066666667, "rental_uris": {"android": "https://dc.lft.to/lastmile_qr_scan", "ios": "https://dc.lft.to/lastmile_qr_scan"}, "fusion_lat": 0.0, "name": "3e1f0f315047ec7dd415dfdbf6f82185", "bike_id": "3e1f0f315047ec7dd415dfdbf6f82185"}, {"is_disabled": 0, "is_reserved": 0, "type": "electric_scooter", "lon": -77.0383005, "fusion_lon": 0.0, "lat": 38.91255816666666, "rental_uris": {"android": "https://dc.lft.to/lastmile_qr_scan", "ios": "https://dc.lft.to/lastmile_qr_scan"}, "fusion_lat": 0.0, "name": "d47aa2306c52f5054c0ae84a6fa01253", "bike_id": "d47aa2306c52f5054c0ae84a6fa01253"}, {"is_disabled": 0, "is_reserved": 0, "type": "electric_scooter", "lon": -77.0510735, "fusion_lon": 0.0, "lat": 38.9005685, "rental_uris": {"android": "https://dc.lft.to/lastmile_qr_scan", "ios": "https://dc.lft.to/lastmile_qr_scan"}, "fusion_lat": 0.0, "name": "f3cb941933650f477ef24fa0e380088e", "bike_id": "f3cb941933650f477ef24fa0e380088e"}, {"is_disabled": 0, "is_reserved": 0, "type": "electric_scooter", "lon": -76.998083, "fusion_lon": 0.0, "lat": 38.87666316666667, "rental_uris": {"android": "https://dc.lft.to/lastmile_qr_scan", "ios": "https://dc.lft.to/lastmile_qr_scan"}, "fusion_lat": 0.0, "name": "aebc3a700afc22fd41ee413930602bba", "bike_id": "aebc3a700afc22fd41ee413930602bba"}, {"is_disabled": 0, "is_reserved": 0, "type": "electric_scooter", "lon": -77.04318783333333, "fusion_lon": 0.0, "lat": 38.91875833333334, "rental_uris": {"android": "https://dc.lft.to/lastmile_qr_scan", "ios": "https://dc.lft.to/lastmile_qr_scan"}, "fusion_lat": 0.0, "name": "f1cf33f9b9f259609cc395dc3b66f691", "bike_id": "f1cf33f9b9f259609cc395dc3b66f691"}, {"is_disabled": 0, "is_reserved": 0, "type": "electric_scooter", "lon": -76.94469766666667, "fusion_lon": 0.0, "lat": 38.90282366666667, "rental_uris": {"android": "https://dc.lft.to/lastmile_qr_scan", "ios": "https://dc.lft.to/lastmile_qr_scan"}, "fusion_lat": 0.0, "name": "db15958b7345156f93e105e874e01f96", "bike_id": "db15958b7345156f93e105e874e01f96"}, {"is_disabled": 0, "is_reserved": 0, "type": "electric_scooter", "lon": -77.047689, "fusion_lon": 0.0, "lat": 38.900439166666665, "rental_uris": {"android": "https://dc.lft.to/lastmile_qr_scan", "ios": "https://dc.lft.to/lastmile_qr_scan"}, "fusion_lat": 0.0, "name": "e917a76a2a9454d5eb2ebd8b75a16b10", "bike_id": "e917a76a2a9454d5eb2ebd8b75a16b10"}, {"is_disabled": 0, "is_reserved": 0, "type": "electric_scooter", "lon": -76.95019483333333, "fusion_lon": 0.0, "lat": 38.883944, "rental_uris": {"android": "https://dc.lft.to/lastmile_qr_scan", "ios": "https://dc.lft.to/lastmile_qr_scan"}, "fusion_lat": 0.0, "name": "5a8d6c78beadde90f3df3d6d2823d0b9", "bike_id": "5a8d6c78beadde90f3df3d6d2823d0b9"}, {"is_disabled": 0, "is_reserved": 0, "type": "electric_scooter", "lon": -77.064102, "fusion_lon": 0.0, "lat": 38.94323466666667, "rental_uris": {"android": "https://dc.lft.to/lastmile_qr_scan", "ios": "https://dc.lft.to/lastmile_qr_scan"}, "fusion_lat": 0.0, "name": "0b645a7235c64bd970571b54939d4afd", "bike_id": "0b645a7235c64bd970571b54939d4afd"}, {"is_disabled": 0, "is_reserved": 0, "type": "electric_scooter", "lon": -77.01406616666667, "fusion_lon": 0.0, "lat": 38.87659583333333, "rental_uris": {"android": "https://dc.lft.to/lastmile_qr_scan", "ios": "https://dc.lft.to/lastmile_qr_scan"}, "fusion_lat": 0.0, "name": "483e15ffd652a72f09beb6c2d2d02ab5", "bike_id": "483e15ffd652a72f09beb6c2d2d02ab5"}, {"is_disabled": 0, "is_reserved": 0, "type": "electric_scooter", "lon": -76.996178, "fusion_lon": 0.0, "lat": 38.886172333333334, "rental_uris": {"android": "https://dc.lft.to/lastmile_qr_scan", "ios": "https://dc.lft.to/lastmile_qr_scan"}, "fusion_lat": 0.0, "name": "6454e2ee04052cea62830d59c501f9b9", "bike_id": "6454e2ee04052cea62830d59c501f9b9"}, {"is_disabled": 0, "is_reserved": 0, "type": "electric_scooter", "lon": -77.0259075, "fusion_lon": 0.0, "lat": 38.91280366666667, "rental_uris": {"android": "https://dc.lft.to/lastmile_qr_scan", "ios": "https://dc.lft.to/lastmile_qr_scan"}, "fusion_lat": 0.0, "name": "34faa05a30c7d096c95bd3d014e55557", "bike_id": "34faa05a30c7d096c95bd3d014e55557"}, {"is_disabled": 0, "is_reserved": 0, "type": "electric_scooter", "lon": -76.99137616666667, "fusion_lon": 0.0, "lat": 38.89486, "rental_uris": {"android": "https://dc.lft.to/lastmile_qr_scan", "ios": "https://dc.lft.to/lastmile_qr_scan"}, "fusion_lat": 0.0, "name": "f844a457625bb978d07453d4cf94ecee", "bike_id": "f844a457625bb978d07453d4cf94ecee"}, {"is_disabled": 0, "is_reserved": 0, "type": "electric_bike", "lon": -77.10182233333333, "fusion_lon": 0.0, "lat": 38.91820666666667, "rental_uris": {"android": "https://dc.lft.to/lastmile_qr_scan", "ios": "https://dc.lft.to/lastmile_qr_scan"}, "fusion_lat": 0.0, "name": "c1df0459818c7ee1ff9325549388377e", "bike_id": "c1df0459818c7ee1ff9325549388377e"}, {"is_disabled": 0, "is_reserved": 0, "type": "electric_scooter", "lon": -76.98266383333333, "fusion_lon": 0.0, "lat": 38.9156195, "rental_uris": {"android": "https://dc.lft.to/lastmile_qr_scan", "ios": "https://dc.lft.to/lastmile_qr_scan"}, "fusion_lat": 0.0, "name": "5f812dfbb73252d84e6200d2edd02955", "bike_id": "5f812dfbb73252d84e6200d2edd02955"}, {"is_disabled": 0, "is_reserved": 0, "type": "electric_scooter", "lon": -77.05224066666666, "fusion_lon": 0.0, "lat": 38.92454083333333, "rental_uris": {"android": "https://dc.lft.to/lastmile_qr_scan", "ios": "https://dc.lft.to/lastmile_qr_scan"}, "fusion_lat": 0.0, "name": "4894c30a93e2c24da1368dc70bcf8c5c", "bike_id": "4894c30a93e2c24da1368dc70bcf8c5c"}, {"is_disabled": 0, "is_reserved": 0, "type": "electric_bike", "lon": -77.11207916666666, "fusion_lon": 0.0, "lat": 38.81205833333333, "rental_uris": {"android": "https://dc.lft.to/lastmile_qr_scan", "ios": "https://dc.lft.to/lastmile_qr_scan"}, "fusion_lat": 0.0, "name": "6370a2590b8f611c8028135f94d0c2af", "bike_id": "6370a2590b8f611c8028135f94d0c2af"}, {"is_disabled": 0, "is_reserved": 0, "type": "electric_scooter", "lon": -77.02156466666666, "fusion_lon": 0.0, "lat": 38.926060166666666, "rental_uris": {"android": "https://dc.lft.to/lastmile_qr_scan", "ios": "https://dc.lft.to/lastmile_qr_scan"}, "fusion_lat": 0.0, "name": "589df532fe0bbcc34b51ecec7ddb6ed4", "bike_id": "589df532fe0bbcc34b51ecec7ddb6ed4"}, {"is_disabled": 0, "is_reserved": 0, "type": "electric_bike", "lon": -76.95193016666667, "fusion_lon": 0.0, "lat": 38.906882333333336, "rental_uris": {"android": "https://dc.lft.to/lastmile_qr_scan", "ios": "https://dc.lft.to/lastmile_qr_scan"}, "fusion_lat": 0.0, "name": "df35393895796c39b85ecdd6b7d3b88c", "bike_id": "df35393895796c39b85ecdd6b7d3b88c"}, {"is_disabled": 0, "is_reserved": 0, "type": "electric_scooter", "lon": -77.03648666666666, "fusion_lon": 0.0, "lat": 38.935305, "rental_uris": {"android": "https://dc.lft.to/lastmile_qr_scan", "ios": "https://dc.lft.to/lastmile_qr_scan"}, "fusion_lat": 0.0, "name": "f313cb994b807f3d80578286dd6a82d5", "bike_id": "f313cb994b807f3d80578286dd6a82d5"}, {"is_disabled": 0, "is_reserved": 0, "type": "electric_scooter", "lon": -77.03300733333333, "fusion_lon": 0.0, "lat": 38.90390083333333, "rental_uris": {"android": "https://dc.lft.to/lastmile_qr_scan", "ios": "https://dc.lft.to/lastmile_qr_scan"}, "fusion_lat": 0.0, "name": "083452c56cc579cf2fd1aa30ae5998a9", "bike_id": "083452c56cc579cf2fd1aa30ae5998a9"}, {"is_disabled": 0, "is_reserved": 0, "type": "electric_scooter", "lon": -77.0196515, "fusion_lon": 0.0, "lat": 38.8784985, "rental_uris": {"android": "https://dc.lft.to/lastmile_qr_scan", "ios": "https://dc.lft.to/lastmile_qr_scan"}, "fusion_lat": 0.0, "name": "79ba1e9730854e34cea228e74fbabd01", "bike_id": "79ba1e9730854e34cea228e74fbabd01"}, {"is_disabled": 0, "is_reserved": 0, "type": "electric_scooter", "lon": -77.0391795, "fusion_lon": 0.0, "lat": 38.911903833333334, "rental_uris": {"android": "https://dc.lft.to/lastmile_qr_scan", "ios": "https://dc.lft.to/lastmile_qr_scan"}, "fusion_lat": 0.0, "name": "22a9b03be6241904ee24335314a0adaa", "bike_id": "22a9b03be6241904ee24335314a0adaa"}, {"is_disabled": 0, "is_reserved": 0, "type": "electric_scooter", "lon": -77.0450625, "fusion_lon": 0.0, "lat": 38.908565333333335, "rental_uris": {"android": "https://dc.lft.to/lastmile_qr_scan", "ios": "https://dc.lft.to/lastmile_qr_scan"}, "fusion_lat": 0.0, "name": "2db7b9681be3d5fc76109980930467b4", "bike_id": "2db7b9681be3d5fc76109980930467b4"}, {"is_disabled": 0, "is_reserved": 0, "type": "electric_scooter", "lon": -77.01715433333334, "fusion_lon": 0.0, "lat": 38.905106833333335, "rental_uris": {"android": "https://dc.lft.to/lastmile_qr_scan", "ios": "https://dc.lft.to/lastmile_qr_scan"}, "fusion_lat": 0.0, "name": "fa68bb1dc4620a92df65bfc9f72f75f0", "bike_id": "fa68bb1dc4620a92df65bfc9f72f75f0"}, {"is_disabled": 0, "is_reserved": 0, "type": "electric_bike", "lon": -77.09561666666667, "fusion_lon": 0.0, "lat": 38.916944, "rental_uris": {"android": "https://dc.lft.to/lastmile_qr_scan", "ios": "https://dc.lft.to/lastmile_qr_scan"}, "fusion_lat": 0.0, "name": "5af817a036104999c9cdfee2d752e5b7", "bike_id": "5af817a036104999c9cdfee2d752e5b7"}, {"is_disabled": 0, "is_reserved": 0, "type": "electric_scooter", "lon": -77.02697916666666, "fusion_lon": 0.0, "lat": 38.94958616666667, "rental_uris": {"android": "https://dc.lft.to/lastmile_qr_scan", "ios": "https://dc.lft.to/lastmile_qr_scan"}, "fusion_lat": 0.0, "name": "86a2a4949c178a4560096a0debe24adf", "bike_id": "86a2a4949c178a4560096a0debe24adf"}, {"is_disabled": 0, "is_reserved": 0, "type": "electric_scooter", "lon": -77.01891966666666, "fusion_lon": 0.0, "lat": 38.9122115, "rental_uris": {"android": "https://dc.lft.to/lastmile_qr_scan", "ios": "https://dc.lft.to/lastmile_qr_scan"}, "fusion_lat": 0.0, "name": "15296688337910cba68842bc9acc6c2f", "bike_id": "15296688337910cba68842bc9acc6c2f"}, {"is_disabled": 0, "is_reserved": 0, "type": "electric_scooter", "lon": -77.032027, "fusion_lon": 0.0, "lat": 38.9113365, "rental_uris": {"android": "https://dc.lft.to/lastmile_qr_scan", "ios": "https://dc.lft.to/lastmile_qr_scan"}, "fusion_lat": 0.0, "name": "cc67f52480f22e3f4547ba8efd6b71eb", "bike_id": "cc67f52480f22e3f4547ba8efd6b71eb"}, {"is_disabled": 0, "is_reserved": 0, "type": "electric_bike", "lon": -76.92164216666667, "fusion_lon": 0.0, "lat": 39.01039133333333, "rental_uris": {"android": "https://dc.lft.to/lastmile_qr_scan", "ios": "https://dc.lft.to/lastmile_qr_scan"}, "fusion_lat": 0.0, "name": "e4d92676b1d75e72f66f2875063e9ccf", "bike_id": "e4d92676b1d75e72f66f2875063e9ccf"}, {"is_disabled": 0, "is_reserved": 0, "type": "electric_scooter", "lon": -77.03983283333334, "fusion_lon": 0.0, "lat": 38.918115666666665, "rental_uris": {"android": "https://dc.lft.to/lastmile_qr_scan", "ios": "https://dc.lft.to/lastmile_qr_scan"}, "fusion_lat": 0.0, "name": "0a7690c3b157ba0f4d1a4afac7a403b6", "bike_id": "0a7690c3b157ba0f4d1a4afac7a403b6"}, {"is_disabled": 0, "is_reserved": 0, "type": "electric_scooter", "lon": -76.99607266666666, "fusion_lon": 0.0, "lat": 38.88479316666667, "rental_uris": {"android": "https://dc.lft.to/lastmile_qr_scan", "ios": "https://dc.lft.to/lastmile_qr_scan"}, "fusion_lat": 0.0, "name": "46d6393cbb09b353731b65b1210c473a", "bike_id": "46d6393cbb09b353731b65b1210c473a"}, {"is_disabled": 0, "is_reserved": 0, "type": "electric_scooter", "lon": -77.012256, "fusion_lon": 0.0, "lat": 38.88583166666667, "rental_uris": {"android": "https://dc.lft.to/lastmile_qr_scan", "ios": "https://dc.lft.to/lastmile_qr_scan"}, "fusion_lat": 0.0, "name": "52bf4bfc66b89ec312ffcd8684b57450", "bike_id": "52bf4bfc66b89ec312ffcd8684b57450"}, {"is_disabled": 0, "is_reserved": 0, "type": "electric_scooter", "lon": -77.04342266666667, "fusion_lon": 0.0, "lat": 38.913551, "rental_uris": {"android": "https://dc.lft.to/lastmile_qr_scan", "ios": "https://dc.lft.to/lastmile_qr_scan"}, "fusion_lat": 0.0, "name": "dc10320c5893fe7642abc6ab2ad27051", "bike_id": "dc10320c5893fe7642abc6ab2ad27051"}, {"is_disabled": 0, "is_reserved": 0, "type": "electric_scooter", "lon": -77.02271833333333, "fusion_lon": 0.0, "lat": 38.92467583333333, "rental_uris": {"android": "https://dc.lft.to/lastmile_qr_scan", "ios": "https://dc.lft.to/lastmile_qr_scan"}, "fusion_lat": 0.0, "name": "7844f44d6a56119c59ec1fe8d7ae286a", "bike_id": "7844f44d6a56119c59ec1fe8d7ae286a"}, {"is_disabled": 0, "is_reserved": 0, "type": "electric_scooter", "lon": -77.06045283333333, "fusion_lon": 0.0, "lat": 38.939130166666665, "rental_uris": {"android": "https://dc.lft.to/lastmile_qr_scan", "ios": "https://dc.lft.to/lastmile_qr_scan"}, "fusion_lat": 0.0, "name": "75fee48b8dd2d4febab2267546415fd5", "bike_id": "75fee48b8dd2d4febab2267546415fd5"}, {"is_disabled": 0, "is_reserved": 0, "type": "electric_scooter", "lon": -76.95757366666666, "fusion_lon": 0.0, "lat": 38.8843035, "rental_uris": {"android": "https://dc.lft.to/lastmile_qr_scan", "ios": "https://dc.lft.to/lastmile_qr_scan"}, "fusion_lat": 0.0, "name": "b0351826a80b985d3145215d53b1769c", "bike_id": "b0351826a80b985d3145215d53b1769c"}, {"is_disabled": 0, "is_reserved": 0, "type": "electric_scooter", "lon": -77.01351583333333, "fusion_lon": 0.0, "lat": 38.90390383333333, "rental_uris": {"android": "https://dc.lft.to/lastmile_qr_scan", "ios": "https://dc.lft.to/lastmile_qr_scan"}, "fusion_lat": 0.0, "name": "9e044658fa8f0036726c60b3db0ebc71", "bike_id": "9e044658fa8f0036726c60b3db0ebc71"}, {"is_disabled": 0, "is_reserved": 0, "type": "electric_scooter", "lon": -77.03190333333333, "fusion_lon": 0.0, "lat": 38.93314216666667, "rental_uris": {"android": "https://dc.lft.to/lastmile_qr_scan", "ios": "https://dc.lft.to/lastmile_qr_scan"}, "fusion_lat": 0.0, "name": "f0c1542057bf1130428ea5e44c9653aa", "bike_id": "f0c1542057bf1130428ea5e44c9653aa"}, {"is_disabled": 0, "is_reserved": 0, "type": "electric_scooter", "lon": -77.04188183333333, "fusion_lon": 0.0, "lat": 38.90804933333333, "rental_uris": {"android": "https://dc.lft.to/lastmile_qr_scan", "ios": "https://dc.lft.to/lastmile_qr_scan"}, "fusion_lat": 0.0, "name": "f33aff0d244f8475dcf14cc9c86657f7", "bike_id": "f33aff0d244f8475dcf14cc9c86657f7"}, {"is_disabled": 0, "is_reserved": 0, "type": "electric_scooter", "lon": -77.031966, "fusion_lon": 0.0, "lat": 38.9196125, "rental_uris": {"android": "https://dc.lft.to/lastmile_qr_scan", "ios": "https://dc.lft.to/lastmile_qr_scan"}, "fusion_lat": 0.0, "name": "937d952297325d145d60cda491ed56c8", "bike_id": "937d952297325d145d60cda491ed56c8"}, {"is_disabled": 0, "is_reserved": 0, "type": "electric_scooter", "lon": -77.02304033333333, "fusion_lon": 0.0, "lat": 38.9171695, "rental_uris": {"android": "https://dc.lft.to/lastmile_qr_scan", "ios": "https://dc.lft.to/lastmile_qr_scan"}, "fusion_lat": 0.0, "name": "8986c0104d14f5becef477bee22f80e7", "bike_id": "8986c0104d14f5becef477bee22f80e7"}, {"is_disabled": 0, "is_reserved": 0, "type": "electric_scooter", "lon": -76.99082616666666, "fusion_lon": 0.0, "lat": 38.860527833333336, "rental_uris": {"android": "https://dc.lft.to/lastmile_qr_scan", "ios": "https://dc.lft.to/lastmile_qr_scan"}, "fusion_lat": 0.0, "name": "9824be4ffd993026a93cfad8775cda82", "bike_id": "9824be4ffd993026a93cfad8775cda82"}, {"is_disabled": 0, "is_reserved": 0, "type": "electric_scooter", "lon": -77.012075, "fusion_lon": 0.0, "lat": 38.9258775, "rental_uris": {"android": "https://dc.lft.to/lastmile_qr_scan", "ios": "https://dc.lft.to/lastmile_qr_scan"}, "fusion_lat": 0.0, "name": "df676a128b9c3ca75140efeb420cf0a9", "bike_id": "df676a128b9c3ca75140efeb420cf0a9"}, {"is_disabled": 0, "is_reserved": 0, "type": "electric_scooter", "lon": -77.0199405, "fusion_lon": 0.0, "lat": 38.96639733333333, "rental_uris": {"android": "https://dc.lft.to/lastmile_qr_scan", "ios": "https://dc.lft.to/lastmile_qr_scan"}, "fusion_lat": 0.0, "name": "40b2c2e9fbd1ce3e0d74047137399765", "bike_id": "40b2c2e9fbd1ce3e0d74047137399765"}, {"is_disabled": 0, "is_reserved": 0, "type": "electric_scooter", "lon": -77.033223, "fusion_lon": 0.0, "lat": 38.91560966666667, "rental_uris": {"android": "https://dc.lft.to/lastmile_qr_scan", "ios": "https://dc.lft.to/lastmile_qr_scan"}, "fusion_lat": 0.0, "name": "e0f7e48987ddc25f7b2a80e894a2e8d1", "bike_id": "e0f7e48987ddc25f7b2a80e894a2e8d1"}, {"is_disabled": 0, "is_reserved": 0, "type": "electric_scooter", "lon": -77.04678116666666, "fusion_lon": 0.0, "lat": 38.892233833333336, "rental_uris": {"android": "https://dc.lft.to/lastmile_qr_scan", "ios": "https://dc.lft.to/lastmile_qr_scan"}, "fusion_lat": 0.0, "name": "a4a9071e480e0e64758988ab1057640f", "bike_id": "a4a9071e480e0e64758988ab1057640f"}, {"is_disabled": 0, "is_reserved": 0, "type": "electric_scooter", "lon": -77.050151, "fusion_lon": 0.0, "lat": 38.905321, "rental_uris": {"android": "https://dc.lft.to/lastmile_qr_scan", "ios": "https://dc.lft.to/lastmile_qr_scan"}, "fusion_lat": 0.0, "name": "27c78fd87b3a4592f7d82d07c704a3b6", "bike_id": "27c78fd87b3a4592f7d82d07c704a3b6"}, {"is_disabled": 0, "is_reserved": 0, "type": "electric_scooter", "lon": -76.99012516666667, "fusion_lon": 0.0, "lat": 38.9003975, "rental_uris": {"android": "https://dc.lft.to/lastmile_qr_scan", "ios": "https://dc.lft.to/lastmile_qr_scan"}, "fusion_lat": 0.0, "name": "ceb4683a92eaf213929a41d014e667f5", "bike_id": "ceb4683a92eaf213929a41d014e667f5"}, {"is_disabled": 0, "is_reserved": 0, "type": "electric_scooter", "lon": -76.94913533333333, "fusion_lon": 0.0, "lat": 38.894944833333334, "rental_uris": {"android": "https://dc.lft.to/lastmile_qr_scan", "ios": "https://dc.lft.to/lastmile_qr_scan"}, "fusion_lat": 0.0, "name": "6b7dd0feeb8556936b25e241110065e3", "bike_id": "6b7dd0feeb8556936b25e241110065e3"}, {"is_disabled": 0, "is_reserved": 0, "type": "electric_scooter", "lon": -76.99005866666667, "fusion_lon": 0.0, "lat": 38.865063, "rental_uris": {"android": "https://dc.lft.to/lastmile_qr_scan", "ios": "https://dc.lft.to/lastmile_qr_scan"}, "fusion_lat": 0.0, "name": "f94d6f0a48b496a144d9d33a6709f992", "bike_id": "f94d6f0a48b496a144d9d33a6709f992"}, {"is_disabled": 0, "is_reserved": 0, "type": "electric_scooter", "lon": -77.05837366666667, "fusion_lon": 0.0, "lat": 38.93426083333333, "rental_uris": {"android": "https://dc.lft.to/lastmile_qr_scan", "ios": "https://dc.lft.to/lastmile_qr_scan"}, "fusion_lat": 0.0, "name": "b369928377516e6f40d4527ddaf541ac", "bike_id": "b369928377516e6f40d4527ddaf541ac"}, {"is_disabled": 0, "is_reserved": 0, "type": "electric_scooter", "lon": -77.041837, "fusion_lon": 0.0, "lat": 38.9036845, "rental_uris": {"android": "https://dc.lft.to/lastmile_qr_scan", "ios": "https://dc.lft.to/lastmile_qr_scan"}, "fusion_lat": 0.0, "name": "1e59df76d29931de7c5596358a13d7f6", "bike_id": "1e59df76d29931de7c5596358a13d7f6"}, {"is_disabled": 0, "is_reserved": 0, "type": "electric_scooter", "lon": -76.99854316666666, "fusion_lon": 0.0, "lat": 38.900279833333336, "rental_uris": {"android": "https://dc.lft.to/lastmile_qr_scan", "ios": "https://dc.lft.to/lastmile_qr_scan"}, "fusion_lat": 0.0, "name": "ab9d1cce16e2c3fa61d06e010e41cf1d", "bike_id": "ab9d1cce16e2c3fa61d06e010e41cf1d"}, {"is_disabled": 0, "is_reserved": 0, "type": "electric_scooter", "lon": -77.03248483333333, "fusion_lon": 0.0, "lat": 38.9044465, "rental_uris": {"android": "https://dc.lft.to/lastmile_qr_scan", "ios": "https://dc.lft.to/lastmile_qr_scan"}, "fusion_lat": 0.0, "name": "30f96c32bd137567c9fa50b8e3935c7e", "bike_id": "30f96c32bd137567c9fa50b8e3935c7e"}, {"is_disabled": 0, "is_reserved": 0, "type": "electric_scooter", "lon": -77.01969383333333, "fusion_lon": 0.0, "lat": 38.89366616666667, "rental_uris": {"android": "https://dc.lft.to/lastmile_qr_scan", "ios": "https://dc.lft.to/lastmile_qr_scan"}, "fusion_lat": 0.0, "name": "46d8863e16c56eb3192285c9c14b9438", "bike_id": "46d8863e16c56eb3192285c9c14b9438"}, {"is_disabled": 0, "is_reserved": 0, "type": "electric_scooter", "lon": -77.02735833333334, "fusion_lon": 0.0, "lat": 38.90378, "rental_uris": {"android": "https://dc.lft.to/lastmile_qr_scan", "ios": "https://dc.lft.to/lastmile_qr_scan"}, "fusion_lat": 0.0, "name": "0bb028027160656ed673c64e88483dc7", "bike_id": "0bb028027160656ed673c64e88483dc7"}, {"is_disabled": 0, "is_reserved": 0, "type": "electric_scooter", "lon": -77.0430075, "fusion_lon": 0.0, "lat": 38.9133375, "rental_uris": {"android": "https://dc.lft.to/lastmile_qr_scan", "ios": "https://dc.lft.to/lastmile_qr_scan"}, "fusion_lat": 0.0, "name": "0b31bbed7262dffe93bbae52d1a78e40", "bike_id": "0b31bbed7262dffe93bbae52d1a78e40"}, {"is_disabled": 0, "is_reserved": 0, "type": "electric_scooter", "lon": -77.016056, "fusion_lon": 0.0, "lat": 38.887373833333335, "rental_uris": {"android": "https://dc.lft.to/lastmile_qr_scan", "ios": "https://dc.lft.to/lastmile_qr_scan"}, "fusion_lat": 0.0, "name": "84cbee922d2b7458a5095e0d7c8ee0c6", "bike_id": "84cbee922d2b7458a5095e0d7c8ee0c6"}, {"is_disabled": 0, "is_reserved": 0, "type": "electric_scooter", "lon": -77.04041383333333, "fusion_lon": 0.0, "lat": 38.90563916666667, "rental_uris": {"android": "https://dc.lft.to/lastmile_qr_scan", "ios": "https://dc.lft.to/lastmile_qr_scan"}, "fusion_lat": 0.0, "name": "f1930b9a7022fd585443fa2e9082df53", "bike_id": "f1930b9a7022fd585443fa2e9082df53"}, {"is_disabled": 0, "is_reserved": 0, "type": "electric_scooter", "lon": -77.042395, "fusion_lon": 0.0, "lat": 38.919267166666664, "rental_uris": {"android": "https://dc.lft.to/lastmile_qr_scan", "ios": "https://dc.lft.to/lastmile_qr_scan"}, "fusion_lat": 0.0, "name": "18caa125b8d44ccb747ca92c858defaa", "bike_id": "18caa125b8d44ccb747ca92c858defaa"}, {"is_disabled": 0, "is_reserved": 0, "type": "electric_scooter", "lon": -77.0272275, "fusion_lon": 0.0, "lat": 38.92482233333333, "rental_uris": {"android": "https://dc.lft.to/lastmile_qr_scan", "ios": "https://dc.lft.to/lastmile_qr_scan"}, "fusion_lat": 0.0, "name": "0f25ba2cd385dec6eb8b463d6e79c294", "bike_id": "0f25ba2cd385dec6eb8b463d6e79c294"}, {"is_disabled": 0, "is_reserved": 0, "type": "electric_scooter", "lon": -76.9964585, "fusion_lon": 0.0, "lat": 38.88717966666667, "rental_uris": {"android": "https://dc.lft.to/lastmile_qr_scan", "ios": "https://dc.lft.to/lastmile_qr_scan"}, "fusion_lat": 0.0, "name": "800f42f7aa22a7906c493bc2513383fa", "bike_id": "800f42f7aa22a7906c493bc2513383fa"}, {"is_disabled": 0, "is_reserved": 0, "type": "electric_scooter", "lon": -77.03447016666667, "fusion_lon": 0.0, "lat": 38.91717466666667, "rental_uris": {"android": "https://dc.lft.to/lastmile_qr_scan", "ios": "https://dc.lft.to/lastmile_qr_scan"}, "fusion_lat": 0.0, "name": "855f3e65a3d671dd1d2f26e1e034761d", "bike_id": "855f3e65a3d671dd1d2f26e1e034761d"}, {"is_disabled": 0, "is_reserved": 0, "type": "electric_scooter", "lon": -76.94284783333333, "fusion_lon": 0.0, "lat": 38.883042333333336, "rental_uris": {"android": "https://dc.lft.to/lastmile_qr_scan", "ios": "https://dc.lft.to/lastmile_qr_scan"}, "fusion_lat": 0.0, "name": "4a680de2dfb00a9ca8d1f12d38da0c59", "bike_id": "4a680de2dfb00a9ca8d1f12d38da0c59"}, {"is_disabled": 0, "is_reserved": 0, "type": "electric_scooter", "lon": -77.0464275, "fusion_lon": 0.0, "lat": 38.89347583333333, "rental_uris": {"android": "https://dc.lft.to/lastmile_qr_scan", "ios": "https://dc.lft.to/lastmile_qr_scan"}, "fusion_lat": 0.0, "name": "ed0ee4310b22b67bde3ae26af9972f31", "bike_id": "ed0ee4310b22b67bde3ae26af9972f31"}, {"is_disabled": 0, "is_reserved": 0, "type": "electric_scooter", "lon": -77.012162, "fusion_lon": 0.0, "lat": 38.9181795, "rental_uris": {"android": "https://dc.lft.to/lastmile_qr_scan", "ios": "https://dc.lft.to/lastmile_qr_scan"}, "fusion_lat": 0.0, "name": "6d37fc50670930ac6d6a5996da186492", "bike_id": "6d37fc50670930ac6d6a5996da186492"}, {"is_disabled": 0, "is_reserved": 0, "type": "electric_bike", "lon": -77.02102633333334, "fusion_lon": 0.0, "lat": 39.022974, "rental_uris": {"android": "https://dc.lft.to/lastmile_qr_scan", "ios": "https://dc.lft.to/lastmile_qr_scan"}, "fusion_lat": 0.0, "name": "b028d089c0c88a9ca0976a0af64af990", "bike_id": "b028d089c0c88a9ca0976a0af64af990"}, {"is_disabled": 0, "is_reserved": 0, "type": "electric_scooter", "lon": -77.00911666666667, "fusion_lon": 0.0, "lat": 38.959482333333334, "rental_uris": {"android": "https://dc.lft.to/lastmile_qr_scan", "ios": "https://dc.lft.to/lastmile_qr_scan"}, "fusion_lat": 0.0, "name": "7a17840a272d894641f9d82b86b19c94", "bike_id": "7a17840a272d894641f9d82b86b19c94"}, {"is_disabled": 0, "is_reserved": 0, "type": "electric_scooter", "lon": -77.02481983333334, "fusion_lon": 0.0, "lat": 38.91687666666667, "rental_uris": {"android": "https://dc.lft.to/lastmile_qr_scan", "ios": "https://dc.lft.to/lastmile_qr_scan"}, "fusion_lat": 0.0, "name": "387ba103286eb871391ef6ac196a4010", "bike_id": "387ba103286eb871391ef6ac196a4010"}, {"is_disabled": 0, "is_reserved": 0, "type": "electric_scooter", "lon": -77.05861283333333, "fusion_lon": 0.0, "lat": 38.93612233333333, "rental_uris": {"android": "https://dc.lft.to/lastmile_qr_scan", "ios": "https://dc.lft.to/lastmile_qr_scan"}, "fusion_lat": 0.0, "name": "1e13066a9bf03eba7d8ed32619155e40", "bike_id": "1e13066a9bf03eba7d8ed32619155e40"}, {"is_disabled": 0, "is_reserved": 0, "type": "electric_scooter", "lon": -77.033699, "fusion_lon": 0.0, "lat": 38.9286355, "rental_uris": {"android": "https://dc.lft.to/lastmile_qr_scan", "ios": "https://dc.lft.to/lastmile_qr_scan"}, "fusion_lat": 0.0, "name": "253e3ce66ce9e69771438878e6120191", "bike_id": "253e3ce66ce9e69771438878e6120191"}, {"is_disabled": 0, "is_reserved": 0, "type": "electric_scooter", "lon": -76.99848716666666, "fusion_lon": 0.0, "lat": 38.902392, "rental_uris": {"android": "https://dc.lft.to/lastmile_qr_scan", "ios": "https://dc.lft.to/lastmile_qr_scan"}, "fusion_lat": 0.0, "name": "8e5ee5782a1b6d92dd496ffea941c1f0", "bike_id": "8e5ee5782a1b6d92dd496ffea941c1f0"}, {"is_disabled": 0, "is_reserved": 0, "type": "electric_scooter", "lon": -77.043578, "fusion_lon": 0.0, "lat": 38.92096333333333, "rental_uris": {"android": "https://dc.lft.to/lastmile_qr_scan", "ios": "https://dc.lft.to/lastmile_qr_scan"}, "fusion_lat": 0.0, "name": "e9d053469731f578f8931c1664df32ad", "bike_id": "e9d053469731f578f8931c1664df32ad"}, {"is_disabled": 0, "is_reserved": 0, "type": "electric_scooter", "lon": -77.02721266666667, "fusion_lon": 0.0, "lat": 38.9408655, "rental_uris": {"android": "https://dc.lft.to/lastmile_qr_scan", "ios": "https://dc.lft.to/lastmile_qr_scan"}, "fusion_lat": 0.0, "name": "3dc9c7fc129f646f3ec03df68c6ae8ea", "bike_id": "3dc9c7fc129f646f3ec03df68c6ae8ea"}, {"is_disabled": 0, "is_reserved": 0, "type": "electric_scooter", "lon": -77.04408166666667, "fusion_lon": 0.0, "lat": 38.900294, "rental_uris": {"android": "https://dc.lft.to/lastmile_qr_scan", "ios": "https://dc.lft.to/lastmile_qr_scan"}, "fusion_lat": 0.0, "name": "a990d7f8068f11cb561e8d38f6c5fa9f", "bike_id": "a990d7f8068f11cb561e8d38f6c5fa9f"}, {"is_disabled": 0, "is_reserved": 0, "type": "electric_scooter", "lon": -77.04165233333333, "fusion_lon": 0.0, "lat": 38.901201666666665, "rental_uris": {"android": "https://dc.lft.to/lastmile_qr_scan", "ios": "https://dc.lft.to/lastmile_qr_scan"}, "fusion_lat": 0.0, "name": "884ebdd264fc2c2af07cc88364d160fa", "bike_id": "884ebdd264fc2c2af07cc88364d160fa"}, {"is_disabled": 0, "is_reserved": 0, "type": "electric_bike", "lon": -77.12894416666667, "fusion_lon": 0.0, "lat": 38.863757666666665, "rental_uris": {"android": "https://dc.lft.to/lastmile_qr_scan", "ios": "https://dc.lft.to/lastmile_qr_scan"}, "fusion_lat": 0.0, "name": "4d026feb2e18f80c153be8b2ecaf5b4d", "bike_id": "4d026feb2e18f80c153be8b2ecaf5b4d"}, {"is_disabled": 0, "is_reserved": 0, "type": "electric_scooter", "lon": -77.02245316666666, "fusion_lon": 0.0, "lat": 38.89858016666667, "rental_uris": {"android": "https://dc.lft.to/lastmile_qr_scan", "ios": "https://dc.lft.to/lastmile_qr_scan"}, "fusion_lat": 0.0, "name": "8aeafe8f7b3ca58fdb1d977742b207f6", "bike_id": "8aeafe8f7b3ca58fdb1d977742b207f6"}, {"is_disabled": 0, "is_reserved": 0, "type": "electric_scooter", "lon": -77.07428716666666, "fusion_lon": 0.0, "lat": 38.910893, "rental_uris": {"android": "https://dc.lft.to/lastmile_qr_scan", "ios": "https://dc.lft.to/lastmile_qr_scan"}, "fusion_lat": 0.0, "name": "5f87257696574fee8c3376db5d27040e", "bike_id": "5f87257696574fee8c3376db5d27040e"}, {"is_disabled": 0, "is_reserved": 0, "type": "electric_scooter", "lon": -77.0268335, "fusion_lon": 0.0, "lat": 38.90964233333333, "rental_uris": {"android": "https://dc.lft.to/lastmile_qr_scan", "ios": "https://dc.lft.to/lastmile_qr_scan"}, "fusion_lat": 0.0, "name": "bb0d029a13429040045978c93e72d8fe", "bike_id": "bb0d029a13429040045978c93e72d8fe"}, {"is_disabled": 0, "is_reserved": 0, "type": "electric_scooter", "lon": -77.04041416666666, "fusion_lon": 0.0, "lat": 38.91773466666667, "rental_uris": {"android": "https://dc.lft.to/lastmile_qr_scan", "ios": "https://dc.lft.to/lastmile_qr_scan"}, "fusion_lat": 0.0, "name": "782718adfa192cb1b301527c7529acb2", "bike_id": "782718adfa192cb1b301527c7529acb2"}, {"is_disabled": 0, "is_reserved": 0, "type": "electric_scooter", "lon": -77.0486575, "fusion_lon": 0.0, "lat": 38.9133645, "rental_uris": {"android": "https://dc.lft.to/lastmile_qr_scan", "ios": "https://dc.lft.to/lastmile_qr_scan"}, "fusion_lat": 0.0, "name": "30535a5fbe34f79466e28f58504ab100", "bike_id": "30535a5fbe34f79466e28f58504ab100"}, {"is_disabled": 0, "is_reserved": 0, "type": "electric_scooter", "lon": -76.99037116666666, "fusion_lon": 0.0, "lat": 38.8913885, "rental_uris": {"android": "https://dc.lft.to/lastmile_qr_scan", "ios": "https://dc.lft.to/lastmile_qr_scan"}, "fusion_lat": 0.0, "name": "1d35a6cb33982b5b8abe173dda638b7d", "bike_id": "1d35a6cb33982b5b8abe173dda638b7d"}, {"is_disabled": 0, "is_reserved": 0, "type": "electric_scooter", "lon": -77.0811325, "fusion_lon": 0.0, "lat": 38.924643333333336, "rental_uris": {"android": "https://dc.lft.to/lastmile_qr_scan", "ios": "https://dc.lft.to/lastmile_qr_scan"}, "fusion_lat": 0.0, "name": "177eca3ba610168aac01163e7bd7a93d", "bike_id": "177eca3ba610168aac01163e7bd7a93d"}, {"is_disabled": 0, "is_reserved": 0, "type": "electric_scooter", "lon": -76.9917525, "fusion_lon": 0.0, "lat": 38.889089166666665, "rental_uris": {"android": "https://dc.lft.to/lastmile_qr_scan", "ios": "https://dc.lft.to/lastmile_qr_scan"}, "fusion_lat": 0.0, "name": "8b208b0592e0e4a99e74d3e9927b7559", "bike_id": "8b208b0592e0e4a99e74d3e9927b7559"}, {"is_disabled": 0, "is_reserved": 0, "type": "electric_scooter", "lon": -77.012273, "fusion_lon": 0.0, "lat": 38.896154833333334, "rental_uris": {"android": "https://dc.lft.to/lastmile_qr_scan", "ios": "https://dc.lft.to/lastmile_qr_scan"}, "fusion_lat": 0.0, "name": "c8f96760dfa050345fb06bd7928ed9d7", "bike_id": "c8f96760dfa050345fb06bd7928ed9d7"}, {"is_disabled": 0, "is_reserved": 0, "type": "electric_scooter", "lon": -77.010927, "fusion_lon": 0.0, "lat": 38.90563783333333, "rental_uris": {"android": "https://dc.lft.to/lastmile_qr_scan", "ios": "https://dc.lft.to/lastmile_qr_scan"}, "fusion_lat": 0.0, "name": "5dc9d035f5af0b888d9b55a3f9526a75", "bike_id": "5dc9d035f5af0b888d9b55a3f9526a75"}, {"is_disabled": 0, "is_reserved": 0, "type": "electric_scooter", "lon": -77.04148816666667, "fusion_lon": 0.0, "lat": 38.917115333333335, "rental_uris": {"android": "https://dc.lft.to/lastmile_qr_scan", "ios": "https://dc.lft.to/lastmile_qr_scan"}, "fusion_lat": 0.0, "name": "55ec4dc11cf58a809e94c4786f7d9fb5", "bike_id": "55ec4dc11cf58a809e94c4786f7d9fb5"}, {"is_disabled": 0, "is_reserved": 0, "type": "electric_scooter", "lon": -77.04748283333333, "fusion_lon": 0.0, "lat": 38.90229216666667, "rental_uris": {"android": "https://dc.lft.to/lastmile_qr_scan", "ios": "https://dc.lft.to/lastmile_qr_scan"}, "fusion_lat": 0.0, "name": "a913ee79ac7a1bac18233142807d5dfc", "bike_id": "a913ee79ac7a1bac18233142807d5dfc"}, {"is_disabled": 0, "is_reserved": 0, "type": "electric_bike", "lon": -76.93535466666667, "fusion_lon": 0.0, "lat": 38.95550816666667, "rental_uris": {"android": "https://dc.lft.to/lastmile_qr_scan", "ios": "https://dc.lft.to/lastmile_qr_scan"}, "fusion_lat": 0.0, "name": "700f373392d7935c399e5a931944b7ad", "bike_id": "700f373392d7935c399e5a931944b7ad"}, {"is_disabled": 0, "is_reserved": 0, "type": "electric_bike", "lon": -77.1225995, "fusion_lon": 0.0, "lat": 38.88770866666667, "rental_uris": {"android": "https://dc.lft.to/lastmile_qr_scan", "ios": "https://dc.lft.to/lastmile_qr_scan"}, "fusion_lat": 0.0, "name": "d5361395b5cf3ebff0a9ebc45af63a90", "bike_id": "d5361395b5cf3ebff0a9ebc45af63a90"}, {"is_disabled": 0, "is_reserved": 0, "type": "electric_bike", "lon": -77.0768275, "fusion_lon": 0.0, "lat": 38.831975666666665, "rental_uris": {"android": "https://dc.lft.to/lastmile_qr_scan", "ios": "https://dc.lft.to/lastmile_qr_scan"}, "fusion_lat": 0.0, "name": "7b2f80daf4ae55c9cf496b8d0381b1c7", "bike_id": "7b2f80daf4ae55c9cf496b8d0381b1c7"}, {"is_disabled": 0, "is_reserved": 0, "type": "electric_bike", "lon": -77.11226166666667, "fusion_lon": 0.0, "lat": 38.82874666666667, "rental_uris": {"android": "https://dc.lft.to/lastmile_qr_scan", "ios": "https://dc.lft.to/lastmile_qr_scan"}, "fusion_lat": 0.0, "name": "67b4293dc56315423c499025363fa616", "bike_id": "67b4293dc56315423c499025363fa616"}, {"is_disabled": 0, "is_reserved": 0, "type": "electric_scooter", "lon": -77.0401145, "fusion_lon": 0.0, "lat": 38.915676833333336, "rental_uris": {"android": "https://dc.lft.to/lastmile_qr_scan", "ios": "https://dc.lft.to/lastmile_qr_scan"}, "fusion_lat": 0.0, "name": "78874c27cf13db4ffd49e79a06d7e7b0", "bike_id": "78874c27cf13db4ffd49e79a06d7e7b0"}, {"is_disabled": 0, "is_reserved": 0, "type": "electric_scooter", "lon": -77.05611466666667, "fusion_lon": 0.0, "lat": 38.93163583333333, "rental_uris": {"android": "https://dc.lft.to/lastmile_qr_scan", "ios": "https://dc.lft.to/lastmile_qr_scan"}, "fusion_lat": 0.0, "name": "f6cf113eccc30bba3ffa7eab2e9069a6", "bike_id": "f6cf113eccc30bba3ffa7eab2e9069a6"}, {"is_disabled": 0, "is_reserved": 0, "type": "electric_scooter", "lon": -76.9938705, "fusion_lon": 0.0, "lat": 38.884492, "rental_uris": {"android": "https://dc.lft.to/lastmile_qr_scan", "ios": "https://dc.lft.to/lastmile_qr_scan"}, "fusion_lat": 0.0, "name": "77e827fbf278aba18680b8dd66f69e32", "bike_id": "77e827fbf278aba18680b8dd66f69e32"}, {"is_disabled": 0, "is_reserved": 0, "type": "electric_scooter", "lon": -77.04356516666667, "fusion_lon": 0.0, "lat": 38.89653933333334, "rental_uris": {"android": "https://dc.lft.to/lastmile_qr_scan", "ios": "https://dc.lft.to/lastmile_qr_scan"}, "fusion_lat": 0.0, "name": "ec218b56460ca11d4578075c9d58eb38", "bike_id": "ec218b56460ca11d4578075c9d58eb38"}, {"is_disabled": 0, "is_reserved": 0, "type": "electric_scooter", "lon": -77.0259655, "fusion_lon": 0.0, "lat": 38.904336666666666, "rental_uris": {"android": "https://dc.lft.to/lastmile_qr_scan", "ios": "https://dc.lft.to/lastmile_qr_scan"}, "fusion_lat": 0.0, "name": "7388f90bf30e15ae74180b8e53456a01", "bike_id": "7388f90bf30e15ae74180b8e53456a01"}, {"is_disabled": 0, "is_reserved": 0, "type": "electric_scooter", "lon": -76.9656895, "fusion_lon": 0.0, "lat": 38.871360833333334, "rental_uris": {"android": "https://dc.lft.to/lastmile_qr_scan", "ios": "https://dc.lft.to/lastmile_qr_scan"}, "fusion_lat": 0.0, "name": "425539be6e745ad888f30ee78decb276", "bike_id": "425539be6e745ad888f30ee78decb276"}, {"is_disabled": 0, "is_reserved": 0, "type": "electric_scooter", "lon": -77.044978, "fusion_lon": 0.0, "lat": 38.907722166666666, "rental_uris": {"android": "https://dc.lft.to/lastmile_qr_scan", "ios": "https://dc.lft.to/lastmile_qr_scan"}, "fusion_lat": 0.0, "name": "797f2511a926103feda289ba54dbd0ec", "bike_id": "797f2511a926103feda289ba54dbd0ec"}, {"is_disabled": 0, "is_reserved": 0, "type": "electric_bike", "lon": -77.0249135, "fusion_lon": 0.0, "lat": 38.97370033333333, "rental_uris": {"android": "https://dc.lft.to/lastmile_qr_scan", "ios": "https://dc.lft.to/lastmile_qr_scan"}, "fusion_lat": 0.0, "name": "f84086dc32e545720f9e656038ebe794", "bike_id": "f84086dc32e545720f9e656038ebe794"}, {"is_disabled": 0, "is_reserved": 0, "type": "electric_scooter", "lon": -76.99630216666667, "fusion_lon": 0.0, "lat": 38.8462235, "rental_uris": {"android": "https://dc.lft.to/lastmile_qr_scan", "ios": "https://dc.lft.to/lastmile_qr_scan"}, "fusion_lat": 0.0, "name": "af2c50e04fc8ffe8f30f0bb624a1b1bf", "bike_id": "af2c50e04fc8ffe8f30f0bb624a1b1bf"}, {"is_disabled": 0, "is_reserved": 0, "type": "electric_scooter", "lon": -77.04445633333333, "fusion_lon": 0.0, "lat": 38.919089, "rental_uris": {"android": "https://dc.lft.to/lastmile_qr_scan", "ios": "https://dc.lft.to/lastmile_qr_scan"}, "fusion_lat": 0.0, "name": "7ce44de71264e45f1a13e2a5d43b2056", "bike_id": "7ce44de71264e45f1a13e2a5d43b2056"}, {"is_disabled": 0, "is_reserved": 0, "type": "electric_scooter", "lon": -76.9575305, "fusion_lon": 0.0, "lat": 38.884280333333336, "rental_uris": {"android": "https://dc.lft.to/lastmile_qr_scan", "ios": "https://dc.lft.to/lastmile_qr_scan"}, "fusion_lat": 0.0, "name": "9794a0a01233152c397cd182ca4d5314", "bike_id": "9794a0a01233152c397cd182ca4d5314"}, {"is_disabled": 0, "is_reserved": 0, "type": "electric_scooter", "lon": -77.0249185, "fusion_lon": 0.0, "lat": 38.94185016666667, "rental_uris": {"android": "https://dc.lft.to/lastmile_qr_scan", "ios": "https://dc.lft.to/lastmile_qr_scan"}, "fusion_lat": 0.0, "name": "bbc2254ea7ba6df8ee9bc71dac9fab8a", "bike_id": "bbc2254ea7ba6df8ee9bc71dac9fab8a"}, {"is_disabled": 0, "is_reserved": 0, "type": "electric_scooter", "lon": -76.99014883333334, "fusion_lon": 0.0, "lat": 38.86108733333333, "rental_uris": {"android": "https://dc.lft.to/lastmile_qr_scan", "ios": "https://dc.lft.to/lastmile_qr_scan"}, "fusion_lat": 0.0, "name": "7d99f8e3fd919e48341b1bbacf5dcaf0", "bike_id": "7d99f8e3fd919e48341b1bbacf5dcaf0"}, {"is_disabled": 0, "is_reserved": 0, "type": "electric_bike", "lon": -77.10719183333333, "fusion_lon": 0.0, "lat": 38.8556585, "rental_uris": {"android": "https://dc.lft.to/lastmile_qr_scan", "ios": "https://dc.lft.to/lastmile_qr_scan"}, "fusion_lat": 0.0, "name": "700752e209f596914952530697cce8cc", "bike_id": "700752e209f596914952530697cce8cc"}, {"is_disabled": 0, "is_reserved": 0, "type": "electric_scooter", "lon": -77.03173883333334, "fusion_lon": 0.0, "lat": 38.9155305, "rental_uris": {"android": "https://dc.lft.to/lastmile_qr_scan", "ios": "https://dc.lft.to/lastmile_qr_scan"}, "fusion_lat": 0.0, "name": "40e9637fa4cece0e1af594a389390e29", "bike_id": "40e9637fa4cece0e1af594a389390e29"}, {"is_disabled": 0, "is_reserved": 0, "type": "electric_scooter", "lon": -77.00264716666666, "fusion_lon": 0.0, "lat": 38.90281383333333, "rental_uris": {"android": "https://dc.lft.to/lastmile_qr_scan", "ios": "https://dc.lft.to/lastmile_qr_scan"}, "fusion_lat": 0.0, "name": "f442b8d7980447ac7d9f44628c2da20d", "bike_id": "f442b8d7980447ac7d9f44628c2da20d"}, {"is_disabled": 0, "is_reserved": 0, "type": "electric_scooter", "lon": -77.040272, "fusion_lon": 0.0, "lat": 38.91783933333333, "rental_uris": {"android": "https://dc.lft.to/lastmile_qr_scan", "ios": "https://dc.lft.to/lastmile_qr_scan"}, "fusion_lat": 0.0, "name": "065dee7feabce97fec366804b73d30d5", "bike_id": "065dee7feabce97fec366804b73d30d5"}, {"is_disabled": 0, "is_reserved": 0, "type": "electric_scooter", "lon": -77.031862, "fusion_lon": 0.0, "lat": 38.921172166666665, "rental_uris": {"android": "https://dc.lft.to/lastmile_qr_scan", "ios": "https://dc.lft.to/lastmile_qr_scan"}, "fusion_lat": 0.0, "name": "1ff02a39699051b91792b525e22c0389", "bike_id": "1ff02a39699051b91792b525e22c0389"}, {"is_disabled": 0, "is_reserved": 0, "type": "electric_scooter", "lon": -77.04358283333333, "fusion_lon": 0.0, "lat": 38.9012295, "rental_uris": {"android": "https://dc.lft.to/lastmile_qr_scan", "ios": "https://dc.lft.to/lastmile_qr_scan"}, "fusion_lat": 0.0, "name": "41ab8f7ab519d472328f848ee53d35c4", "bike_id": "41ab8f7ab519d472328f848ee53d35c4"}, {"is_disabled": 0, "is_reserved": 0, "type": "electric_scooter", "lon": -77.03888, "fusion_lon": 0.0, "lat": 38.93428866666667, "rental_uris": {"android": "https://dc.lft.to/lastmile_qr_scan", "ios": "https://dc.lft.to/lastmile_qr_scan"}, "fusion_lat": 0.0, "name": "e089886c3fb3032804b1bfd6de84d4eb", "bike_id": "e089886c3fb3032804b1bfd6de84d4eb"}, {"is_disabled": 0, "is_reserved": 0, "type": "electric_scooter", "lon": -76.99568066666667, "fusion_lon": 0.0, "lat": 38.92066883333333, "rental_uris": {"android": "https://dc.lft.to/lastmile_qr_scan", "ios": "https://dc.lft.to/lastmile_qr_scan"}, "fusion_lat": 0.0, "name": "f64bf9fa4efb2b868f1021610c409700", "bike_id": "f64bf9fa4efb2b868f1021610c409700"}, {"is_disabled": 0, "is_reserved": 0, "type": "electric_scooter", "lon": -77.02777616666667, "fusion_lon": 0.0, "lat": 38.89223783333333, "rental_uris": {"android": "https://dc.lft.to/lastmile_qr_scan", "ios": "https://dc.lft.to/lastmile_qr_scan"}, "fusion_lat": 0.0, "name": "f023b972c51a860a485b1ff14f9f3690", "bike_id": "f023b972c51a860a485b1ff14f9f3690"}, {"is_disabled": 0, "is_reserved": 0, "type": "electric_scooter", "lon": -77.06359, "fusion_lon": 0.0, "lat": 38.944142, "rental_uris": {"android": "https://dc.lft.to/lastmile_qr_scan", "ios": "https://dc.lft.to/lastmile_qr_scan"}, "fusion_lat": 0.0, "name": "18b9133eedd1e0a8c55117c71bb5da96", "bike_id": "18b9133eedd1e0a8c55117c71bb5da96"}, {"is_disabled": 0, "is_reserved": 0, "type": "electric_bike", "lon": -77.05108333333334, "fusion_lon": 0.0, "lat": 38.94562116666667, "rental_uris": {"android": "https://dc.lft.to/lastmile_qr_scan", "ios": "https://dc.lft.to/lastmile_qr_scan"}, "fusion_lat": 0.0, "name": "1fa53a23e09f77cbc2dba132995344ab", "bike_id": "1fa53a23e09f77cbc2dba132995344ab"}, {"is_disabled": 0, "is_reserved": 0, "type": "electric_scooter", "lon": -77.00213566666666, "fusion_lon": 0.0, "lat": 38.89503083333334, "rental_uris": {"android": "https://dc.lft.to/lastmile_qr_scan", "ios": "https://dc.lft.to/lastmile_qr_scan"}, "fusion_lat": 0.0, "name": "69fc73a9d570347cd60740b997b874ae", "bike_id": "69fc73a9d570347cd60740b997b874ae"}, {"is_disabled": 0, "is_reserved": 0, "type": "electric_scooter", "lon": -76.93050316666667, "fusion_lon": 0.0, "lat": 38.897915, "rental_uris": {"android": "https://dc.lft.to/lastmile_qr_scan", "ios": "https://dc.lft.to/lastmile_qr_scan"}, "fusion_lat": 0.0, "name": "f43d2336bf3b21547aa6fe1f7aae962a", "bike_id": "f43d2336bf3b21547aa6fe1f7aae962a"}, {"is_disabled": 0, "is_reserved": 0, "type": "electric_bike", "lon": -76.97136233333333, "fusion_lon": 0.0, "lat": 38.92355383333334, "rental_uris": {"android": "https://dc.lft.to/lastmile_qr_scan", "ios": "https://dc.lft.to/lastmile_qr_scan"}, "fusion_lat": 0.0, "name": "ee836d5c337041175ae2a2af1269d5fa", "bike_id": "ee836d5c337041175ae2a2af1269d5fa"}, {"is_disabled": 0, "is_reserved": 0, "type": "electric_scooter", "lon": -77.00550783333334, "fusion_lon": 0.0, "lat": 38.9053535, "rental_uris": {"android": "https://dc.lft.to/lastmile_qr_scan", "ios": "https://dc.lft.to/lastmile_qr_scan"}, "fusion_lat": 0.0, "name": "ac9d6524c754bf9818ff8f05fa98be8f", "bike_id": "ac9d6524c754bf9818ff8f05fa98be8f"}, {"is_disabled": 0, "is_reserved": 0, "type": "electric_scooter", "lon": -77.037216, "fusion_lon": 0.0, "lat": 38.917109833333335, "rental_uris": {"android": "https://dc.lft.to/lastmile_qr_scan", "ios": "https://dc.lft.to/lastmile_qr_scan"}, "fusion_lat": 0.0, "name": "3394f18b266665089dc59cbe8ca1a6d5", "bike_id": "3394f18b266665089dc59cbe8ca1a6d5"}, {"is_disabled": 0, "is_reserved": 0, "type": "electric_scooter", "lon": -76.99630633333334, "fusion_lon": 0.0, "lat": 38.84621716666667, "rental_uris": {"android": "https://dc.lft.to/lastmile_qr_scan", "ios": "https://dc.lft.to/lastmile_qr_scan"}, "fusion_lat": 0.0, "name": "767b727e86a8d8e189194b9abb1c6108", "bike_id": "767b727e86a8d8e189194b9abb1c6108"}, {"is_disabled": 0, "is_reserved": 0, "type": "electric_scooter", "lon": -77.0057975, "fusion_lon": 0.0, "lat": 38.87530133333333, "rental_uris": {"android": "https://dc.lft.to/lastmile_qr_scan", "ios": "https://dc.lft.to/lastmile_qr_scan"}, "fusion_lat": 0.0, "name": "8e192d2cc8c70617b876f3c55d546c2a", "bike_id": "8e192d2cc8c70617b876f3c55d546c2a"}, {"is_disabled": 0, "is_reserved": 0, "type": "electric_scooter", "lon": -77.04157066666667, "fusion_lon": 0.0, "lat": 38.91421966666667, "rental_uris": {"android": "https://dc.lft.to/lastmile_qr_scan", "ios": "https://dc.lft.to/lastmile_qr_scan"}, "fusion_lat": 0.0, "name": "13a6799189fae7e36dd4fda2a252bf3c", "bike_id": "13a6799189fae7e36dd4fda2a252bf3c"}, {"is_disabled": 0, "is_reserved": 0, "type": "electric_scooter", "lon": -77.0392435, "fusion_lon": 0.0, "lat": 38.919103666666665, "rental_uris": {"android": "https://dc.lft.to/lastmile_qr_scan", "ios": "https://dc.lft.to/lastmile_qr_scan"}, "fusion_lat": 0.0, "name": "480cda102be778b306aa70b0387fd63c", "bike_id": "480cda102be778b306aa70b0387fd63c"}, {"is_disabled": 0, "is_reserved": 0, "type": "electric_scooter", "lon": -77.029753, "fusion_lon": 0.0, "lat": 38.896255333333336, "rental_uris": {"android": "https://dc.lft.to/lastmile_qr_scan", "ios": "https://dc.lft.to/lastmile_qr_scan"}, "fusion_lat": 0.0, "name": "1bd665af01746bf2adf4617130110f50", "bike_id": "1bd665af01746bf2adf4617130110f50"}, {"is_disabled": 0, "is_reserved": 0, "type": "electric_scooter", "lon": -77.03421966666667, "fusion_lon": 0.0, "lat": 38.92733833333333, "rental_uris": {"android": "https://dc.lft.to/lastmile_qr_scan", "ios": "https://dc.lft.to/lastmile_qr_scan"}, "fusion_lat": 0.0, "name": "2fba87cd6a9fff758fccc1a51041d3e6", "bike_id": "2fba87cd6a9fff758fccc1a51041d3e6"}, {"is_disabled": 0, "is_reserved": 0, "type": "electric_scooter", "lon": -77.04492433333333, "fusion_lon": 0.0, "lat": 38.912352, "rental_uris": {"android": "https://dc.lft.to/lastmile_qr_scan", "ios": "https://dc.lft.to/lastmile_qr_scan"}, "fusion_lat": 0.0, "name": "51ae3bf965348e6a6cbc037669152c7c", "bike_id": "51ae3bf965348e6a6cbc037669152c7c"}, {"is_disabled": 0, "is_reserved": 0, "type": "electric_bike", "lon": -77.1241465, "fusion_lon": 0.0, "lat": 38.89332266666667, "rental_uris": {"android": "https://dc.lft.to/lastmile_qr_scan", "ios": "https://dc.lft.to/lastmile_qr_scan"}, "fusion_lat": 0.0, "name": "831d733f5fb59ac995913be9390a8fb8", "bike_id": "831d733f5fb59ac995913be9390a8fb8"}, {"is_disabled": 0, "is_reserved": 0, "type": "electric_scooter", "lon": -77.03355716666667, "fusion_lon": 0.0, "lat": 38.91807583333333, "rental_uris": {"android": "https://dc.lft.to/lastmile_qr_scan", "ios": "https://dc.lft.to/lastmile_qr_scan"}, "fusion_lat": 0.0, "name": "27797dcbf8cfb85eeebbbe27d789fe8d", "bike_id": "27797dcbf8cfb85eeebbbe27d789fe8d"}, {"is_disabled": 0, "is_reserved": 0, "type": "electric_scooter", "lon": -77.02219666666667, "fusion_lon": 0.0, "lat": 38.9355375, "rental_uris": {"android": "https://dc.lft.to/lastmile_qr_scan", "ios": "https://dc.lft.to/lastmile_qr_scan"}, "fusion_lat": 0.0, "name": "1bf5ed9919eebe5ac80557e695d8f56f", "bike_id": "1bf5ed9919eebe5ac80557e695d8f56f"}, {"is_disabled": 0, "is_reserved": 0, "type": "electric_scooter", "lon": -77.03232716666666, "fusion_lon": 0.0, "lat": 38.912449, "rental_uris": {"android": "https://dc.lft.to/lastmile_qr_scan", "ios": "https://dc.lft.to/lastmile_qr_scan"}, "fusion_lat": 0.0, "name": "4be7a6afb48f13e3bcff3712e1a83707", "bike_id": "4be7a6afb48f13e3bcff3712e1a83707"}, {"is_disabled": 0, "is_reserved": 0, "type": "electric_scooter", "lon": -77.03516966666666, "fusion_lon": 0.0, "lat": 38.92153616666667, "rental_uris": {"android": "https://dc.lft.to/lastmile_qr_scan", "ios": "https://dc.lft.to/lastmile_qr_scan"}, "fusion_lat": 0.0, "name": "7f22d91af9d0c04e26b95e0c9ccc2cf1", "bike_id": "7f22d91af9d0c04e26b95e0c9ccc2cf1"}, {"is_disabled": 0, "is_reserved": 0, "type": "electric_scooter", "lon": -77.05928683333333, "fusion_lon": 0.0, "lat": 38.909993, "rental_uris": {"android": "https://dc.lft.to/lastmile_qr_scan", "ios": "https://dc.lft.to/lastmile_qr_scan"}, "fusion_lat": 0.0, "name": "5d5e69fc7e4f8765b44591e9a962d391", "bike_id": "5d5e69fc7e4f8765b44591e9a962d391"}, {"is_disabled": 0, "is_reserved": 0, "type": "electric_scooter", "lon": -77.014183, "fusion_lon": 0.0, "lat": 38.92857566666667, "rental_uris": {"android": "https://dc.lft.to/lastmile_qr_scan", "ios": "https://dc.lft.to/lastmile_qr_scan"}, "fusion_lat": 0.0, "name": "bce508fe5ac9d30c3fac852d6af9d1f4", "bike_id": "bce508fe5ac9d30c3fac852d6af9d1f4"}, {"is_disabled": 0, "is_reserved": 0, "type": "electric_scooter", "lon": -77.02932333333334, "fusion_lon": 0.0, "lat": 38.91419233333333, "rental_uris": {"android": "https://dc.lft.to/lastmile_qr_scan", "ios": "https://dc.lft.to/lastmile_qr_scan"}, "fusion_lat": 0.0, "name": "4ab62ea8f6165066d99944f9d25c258f", "bike_id": "4ab62ea8f6165066d99944f9d25c258f"}, {"is_disabled": 0, "is_reserved": 0, "type": "electric_bike", "lon": -77.10027816666667, "fusion_lon": 0.0, "lat": 38.990656666666666, "rental_uris": {"android": "https://dc.lft.to/lastmile_qr_scan", "ios": "https://dc.lft.to/lastmile_qr_scan"}, "fusion_lat": 0.0, "name": "9d9c60e2d03655b247d49a7246b59e5e", "bike_id": "9d9c60e2d03655b247d49a7246b59e5e"}, {"is_disabled": 0, "is_reserved": 0, "type": "electric_scooter", "lon": -77.02153116666666, "fusion_lon": 0.0, "lat": 38.926054, "rental_uris": {"android": "https://dc.lft.to/lastmile_qr_scan", "ios": "https://dc.lft.to/lastmile_qr_scan"}, "fusion_lat": 0.0, "name": "f681b7fae451151dff3ea5a746945a06", "bike_id": "f681b7fae451151dff3ea5a746945a06"}, {"is_disabled": 0, "is_reserved": 0, "type": "electric_scooter", "lon": -77.00589566666666, "fusion_lon": 0.0, "lat": 38.874127666666666, "rental_uris": {"android": "https://dc.lft.to/lastmile_qr_scan", "ios": "https://dc.lft.to/lastmile_qr_scan"}, "fusion_lat": 0.0, "name": "b1607bca1d1578835c8480a1e32c1194", "bike_id": "b1607bca1d1578835c8480a1e32c1194"}, {"is_disabled": 0, "is_reserved": 0, "type": "electric_scooter", "lon": -77.03807283333333, "fusion_lon": 0.0, "lat": 38.90683716666667, "rental_uris": {"android": "https://dc.lft.to/lastmile_qr_scan", "ios": "https://dc.lft.to/lastmile_qr_scan"}, "fusion_lat": 0.0, "name": "8d2e5ea9673fdaf92dd61d228f5f65a8", "bike_id": "8d2e5ea9673fdaf92dd61d228f5f65a8"}, {"is_disabled": 0, "is_reserved": 0, "type": "electric_scooter", "lon": -77.001959, "fusion_lon": 0.0, "lat": 38.90233166666667, "rental_uris": {"android": "https://dc.lft.to/lastmile_qr_scan", "ios": "https://dc.lft.to/lastmile_qr_scan"}, "fusion_lat": 0.0, "name": "5d21f77f3b3b506670993c6e0cba6e6c", "bike_id": "5d21f77f3b3b506670993c6e0cba6e6c"}, {"is_disabled": 0, "is_reserved": 0, "type": "electric_scooter", "lon": -77.017892, "fusion_lon": 0.0, "lat": 38.94120433333333, "rental_uris": {"android": "https://dc.lft.to/lastmile_qr_scan", "ios": "https://dc.lft.to/lastmile_qr_scan"}, "fusion_lat": 0.0, "name": "9156d6ed467ddaf903201bce896da366", "bike_id": "9156d6ed467ddaf903201bce896da366"}, {"is_disabled": 0, "is_reserved": 0, "type": "electric_scooter", "lon": -77.03375316666667, "fusion_lon": 0.0, "lat": 38.96830583333333, "rental_uris": {"android": "https://dc.lft.to/lastmile_qr_scan", "ios": "https://dc.lft.to/lastmile_qr_scan"}, "fusion_lat": 0.0, "name": "dcbb51d033dda15f555dc1a02c59d01c", "bike_id": "dcbb51d033dda15f555dc1a02c59d01c"}, {"is_disabled": 0, "is_reserved": 0, "type": "electric_bike", "lon": -77.04899716666667, "fusion_lon": 0.0, "lat": 38.87493466666667, "rental_uris": {"android": "https://dc.lft.to/lastmile_qr_scan", "ios": "https://dc.lft.to/lastmile_qr_scan"}, "fusion_lat": 0.0, "name": "fa67071a1340f4e65c68379a96bbfcee", "bike_id": "fa67071a1340f4e65c68379a96bbfcee"}, {"is_disabled": 0, "is_reserved": 0, "type": "electric_scooter", "lon": -77.02822666666667, "fusion_lon": 0.0, "lat": 38.88580816666666, "rental_uris": {"android": "https://dc.lft.to/lastmile_qr_scan", "ios": "https://dc.lft.to/lastmile_qr_scan"}, "fusion_lat": 0.0, "name": "00d5af62de58155cf77e13f774cfe253", "bike_id": "00d5af62de58155cf77e13f774cfe253"}, {"is_disabled": 0, "is_reserved": 0, "type": "electric_scooter", "lon": -77.02206666666666, "fusion_lon": 0.0, "lat": 38.9054345, "rental_uris": {"android": "https://dc.lft.to/lastmile_qr_scan", "ios": "https://dc.lft.to/lastmile_qr_scan"}, "fusion_lat": 0.0, "name": "16b1c3f7a2e681c0cfc0fb8b210ec26b", "bike_id": "16b1c3f7a2e681c0cfc0fb8b210ec26b"}, {"is_disabled": 0, "is_reserved": 0, "type": "electric_scooter", "lon": -77.03897666666667, "fusion_lon": 0.0, "lat": 38.914548333333336, "rental_uris": {"android": "https://dc.lft.to/lastmile_qr_scan", "ios": "https://dc.lft.to/lastmile_qr_scan"}, "fusion_lat": 0.0, "name": "246e41dc29c60686694edadf992f2c1a", "bike_id": "246e41dc29c60686694edadf992f2c1a"}, {"is_disabled": 0, "is_reserved": 0, "type": "electric_bike", "lon": -76.87494866666667, "fusion_lon": 0.0, "lat": 38.990910166666666, "rental_uris": {"android": "https://dc.lft.to/lastmile_qr_scan", "ios": "https://dc.lft.to/lastmile_qr_scan"}, "fusion_lat": 0.0, "name": "8a5545b5eb12a553f70f896349dec4cf", "bike_id": "8a5545b5eb12a553f70f896349dec4cf"}, {"is_disabled": 0, "is_reserved": 0, "type": "electric_scooter", "lon": -77.003261, "fusion_lon": 0.0, "lat": 38.907253, "rental_uris": {"android": "https://dc.lft.to/lastmile_qr_scan", "ios": "https://dc.lft.to/lastmile_qr_scan"}, "fusion_lat": 0.0, "name": "c0fc26d37a978204e4b1a69c870a8f34", "bike_id": "c0fc26d37a978204e4b1a69c870a8f34"}, {"is_disabled": 0, "is_reserved": 0, "type": "electric_scooter", "lon": -77.0279955, "fusion_lon": 0.0, "lat": 38.911017, "rental_uris": {"android": "https://dc.lft.to/lastmile_qr_scan", "ios": "https://dc.lft.to/lastmile_qr_scan"}, "fusion_lat": 0.0, "name": "ac741c946b85e0f60b6f59abd00db8ad", "bike_id": "ac741c946b85e0f60b6f59abd00db8ad"}, {"is_disabled": 0, "is_reserved": 0, "type": "electric_scooter", "lon": -76.93357816666666, "fusion_lon": 0.0, "lat": 38.887967, "rental_uris": {"android": "https://dc.lft.to/lastmile_qr_scan", "ios": "https://dc.lft.to/lastmile_qr_scan"}, "fusion_lat": 0.0, "name": "fcd16ac867cca4a06c851bd1a6fc787f", "bike_id": "fcd16ac867cca4a06c851bd1a6fc787f"}, {"is_disabled": 0, "is_reserved": 0, "type": "electric_scooter", "lon": -77.01754733333334, "fusion_lon": 0.0, "lat": 38.87684633333333, "rental_uris": {"android": "https://dc.lft.to/lastmile_qr_scan", "ios": "https://dc.lft.to/lastmile_qr_scan"}, "fusion_lat": 0.0, "name": "7d574b1caace082b0c78ef4e048434ac", "bike_id": "7d574b1caace082b0c78ef4e048434ac"}, {"is_disabled": 0, "is_reserved": 0, "type": "electric_scooter", "lon": -77.00596266666666, "fusion_lon": 0.0, "lat": 38.874847833333334, "rental_uris": {"android": "https://dc.lft.to/lastmile_qr_scan", "ios": "https://dc.lft.to/lastmile_qr_scan"}, "fusion_lat": 0.0, "name": "b97facbbb294f58c47f01e740145fdaf", "bike_id": "b97facbbb294f58c47f01e740145fdaf"}, {"is_disabled": 0, "is_reserved": 0, "type": "electric_scooter", "lon": -76.988227, "fusion_lon": 0.0, "lat": 38.900434833333335, "rental_uris": {"android": "https://dc.lft.to/lastmile_qr_scan", "ios": "https://dc.lft.to/lastmile_qr_scan"}, "fusion_lat": 0.0, "name": "ed08aeac6392381b512e89a22b39fa8c", "bike_id": "ed08aeac6392381b512e89a22b39fa8c"}, {"is_disabled": 0, "is_reserved": 0, "type": "electric_scooter", "lon": -77.05060483333334, "fusion_lon": 0.0, "lat": 38.900645, "rental_uris": {"android": "https://dc.lft.to/lastmile_qr_scan", "ios": "https://dc.lft.to/lastmile_qr_scan"}, "fusion_lat": 0.0, "name": "6137509e5e8035468cd94478a662c1c8", "bike_id": "6137509e5e8035468cd94478a662c1c8"}, {"is_disabled": 0, "is_reserved": 0, "type": "electric_bike", "lon": -76.92886766666666, "fusion_lon": 0.0, "lat": 38.97844816666667, "rental_uris": {"android": "https://dc.lft.to/lastmile_qr_scan", "ios": "https://dc.lft.to/lastmile_qr_scan"}, "fusion_lat": 0.0, "name": "71b2e54291f084946d0c7921942d9196", "bike_id": "71b2e54291f084946d0c7921942d9196"}, {"is_disabled": 0, "is_reserved": 0, "type": "electric_scooter", "lon": -77.02650483333333, "fusion_lon": 0.0, "lat": 38.892201, "rental_uris": {"android": "https://dc.lft.to/lastmile_qr_scan", "ios": "https://dc.lft.to/lastmile_qr_scan"}, "fusion_lat": 0.0, "name": "7a2bb9e0ba454a2477f293414ceb33ae", "bike_id": "7a2bb9e0ba454a2477f293414ceb33ae"}, {"is_disabled": 0, "is_reserved": 0, "type": "electric_scooter", "lon": -77.0362875, "fusion_lon": 0.0, "lat": 38.93048, "rental_uris": {"android": "https://dc.lft.to/lastmile_qr_scan", "ios": "https://dc.lft.to/lastmile_qr_scan"}, "fusion_lat": 0.0, "name": "b595cd546f92d4c9789f559f73fb5643", "bike_id": "b595cd546f92d4c9789f559f73fb5643"}, {"is_disabled": 0, "is_reserved": 0, "type": "electric_scooter", "lon": -77.029827, "fusion_lon": 0.0, "lat": 38.89589, "rental_uris": {"android": "https://dc.lft.to/lastmile_qr_scan", "ios": "https://dc.lft.to/lastmile_qr_scan"}, "fusion_lat": 0.0, "name": "f39c315a29c97dbd43184512e537bf2d", "bike_id": "f39c315a29c97dbd43184512e537bf2d"}, {"is_disabled": 0, "is_reserved": 0, "type": "electric_scooter", "lon": -77.061126, "fusion_lon": 0.0, "lat": 38.905449833333336, "rental_uris": {"android": "https://dc.lft.to/lastmile_qr_scan", "ios": "https://dc.lft.to/lastmile_qr_scan"}, "fusion_lat": 0.0, "name": "ca4691494fc183cb8a0dad599d179206", "bike_id": "ca4691494fc183cb8a0dad599d179206"}, {"is_disabled": 0, "is_reserved": 0, "type": "electric_bike", "lon": -76.98751333333334, "fusion_lon": 0.0, "lat": 38.98824366666667, "rental_uris": {"android": "https://dc.lft.to/lastmile_qr_scan", "ios": "https://dc.lft.to/lastmile_qr_scan"}, "fusion_lat": 0.0, "name": "03b143384ceb2ae98f1b44b4120981e8", "bike_id": "03b143384ceb2ae98f1b44b4120981e8"}, {"is_disabled": 0, "is_reserved": 0, "type": "electric_scooter", "lon": -77.03153666666667, "fusion_lon": 0.0, "lat": 38.928082333333336, "rental_uris": {"android": "https://dc.lft.to/lastmile_qr_scan", "ios": "https://dc.lft.to/lastmile_qr_scan"}, "fusion_lat": 0.0, "name": "78e1f77c434411d8b22e1f72df058d00", "bike_id": "78e1f77c434411d8b22e1f72df058d00"}, {"is_disabled": 0, "is_reserved": 0, "type": "electric_scooter", "lon": -77.01196316666666, "fusion_lon": 0.0, "lat": 38.89533683333333, "rental_uris": {"android": "https://dc.lft.to/lastmile_qr_scan", "ios": "https://dc.lft.to/lastmile_qr_scan"}, "fusion_lat": 0.0, "name": "393d872e5d12d67d600af9a253474e53", "bike_id": "393d872e5d12d67d600af9a253474e53"}, {"is_disabled": 0, "is_reserved": 0, "type": "electric_scooter", "lon": -77.051348, "fusion_lon": 0.0, "lat": 38.92363266666667, "rental_uris": {"android": "https://dc.lft.to/lastmile_qr_scan", "ios": "https://dc.lft.to/lastmile_qr_scan"}, "fusion_lat": 0.0, "name": "cdf6f3193dd566329fd9bf96a8af0fd0", "bike_id": "cdf6f3193dd566329fd9bf96a8af0fd0"}, {"is_disabled": 0, "is_reserved": 0, "type": "electric_scooter", "lon": -76.99630583333334, "fusion_lon": 0.0, "lat": 38.846192, "rental_uris": {"android": "https://dc.lft.to/lastmile_qr_scan", "ios": "https://dc.lft.to/lastmile_qr_scan"}, "fusion_lat": 0.0, "name": "6cd1398f7635b24aed0afea0fb65c01d", "bike_id": "6cd1398f7635b24aed0afea0fb65c01d"}, {"is_disabled": 0, "is_reserved": 0, "type": "electric_scooter", "lon": -77.02166166666666, "fusion_lon": 0.0, "lat": 38.92613766666667, "rental_uris": {"android": "https://dc.lft.to/lastmile_qr_scan", "ios": "https://dc.lft.to/lastmile_qr_scan"}, "fusion_lat": 0.0, "name": "c360635ef0e6ca52970fcd911db8aee0", "bike_id": "c360635ef0e6ca52970fcd911db8aee0"}, {"is_disabled": 0, "is_reserved": 0, "type": "electric_scooter", "lon": -77.03657916666667, "fusion_lon": 0.0, "lat": 38.904672, "rental_uris": {"android": "https://dc.lft.to/lastmile_qr_scan", "ios": "https://dc.lft.to/lastmile_qr_scan"}, "fusion_lat": 0.0, "name": "ce7de61855f38d8f43012c337d3b3e5b", "bike_id": "ce7de61855f38d8f43012c337d3b3e5b"}, {"is_disabled": 0, "is_reserved": 0, "type": "electric_scooter", "lon": -77.031753, "fusion_lon": 0.0, "lat": 38.915970333333334, "rental_uris": {"android": "https://dc.lft.to/lastmile_qr_scan", "ios": "https://dc.lft.to/lastmile_qr_scan"}, "fusion_lat": 0.0, "name": "b75ad967dba8b4ce47b13dfa76bc4531", "bike_id": "b75ad967dba8b4ce47b13dfa76bc4531"}, {"is_disabled": 0, "is_reserved": 0, "type": "electric_scooter", "lon": -77.03268766666666, "fusion_lon": 0.0, "lat": 38.954123833333334, "rental_uris": {"android": "https://dc.lft.to/lastmile_qr_scan", "ios": "https://dc.lft.to/lastmile_qr_scan"}, "fusion_lat": 0.0, "name": "0056b82fd138d32a4d8b8ccf7d54bca3", "bike_id": "0056b82fd138d32a4d8b8ccf7d54bca3"}, {"is_disabled": 0, "is_reserved": 0, "type": "electric_scooter", "lon": -77.02886783333334, "fusion_lon": 0.0, "lat": 38.90133483333334, "rental_uris": {"android": "https://dc.lft.to/lastmile_qr_scan", "ios": "https://dc.lft.to/lastmile_qr_scan"}, "fusion_lat": 0.0, "name": "497c640d963987576b90caef97649f15", "bike_id": "497c640d963987576b90caef97649f15"}, {"is_disabled": 0, "is_reserved": 0, "type": "electric_scooter", "lon": -76.983315, "fusion_lon": 0.0, "lat": 38.88988466666667, "rental_uris": {"android": "https://dc.lft.to/lastmile_qr_scan", "ios": "https://dc.lft.to/lastmile_qr_scan"}, "fusion_lat": 0.0, "name": "3392a8311deef86826c92c15bf237ae2", "bike_id": "3392a8311deef86826c92c15bf237ae2"}, {"is_disabled": 0, "is_reserved": 0, "type": "electric_bike", "lon": -76.98681083333334, "fusion_lon": 0.0, "lat": 38.8996275, "rental_uris": {"android": "https://dc.lft.to/lastmile_qr_scan", "ios": "https://dc.lft.to/lastmile_qr_scan"}, "fusion_lat": 0.0, "name": "de91bf58f3a0ae2eac7d9b8137618afa", "bike_id": "de91bf58f3a0ae2eac7d9b8137618afa"}, {"is_disabled": 0, "is_reserved": 0, "type": "electric_scooter", "lon": -77.00938116666667, "fusion_lon": 0.0, "lat": 38.87458783333334, "rental_uris": {"android": "https://dc.lft.to/lastmile_qr_scan", "ios": "https://dc.lft.to/lastmile_qr_scan"}, "fusion_lat": 0.0, "name": "4d08264b1ad7a9365041b663d62c3ae2", "bike_id": "4d08264b1ad7a9365041b663d62c3ae2"}, {"is_disabled": 0, "is_reserved": 0, "type": "electric_scooter", "lon": -76.98821516666666, "fusion_lon": 0.0, "lat": 38.900408666666664, "rental_uris": {"android": "https://dc.lft.to/lastmile_qr_scan", "ios": "https://dc.lft.to/lastmile_qr_scan"}, "fusion_lat": 0.0, "name": "652b88d8460473979b4cd5703777b528", "bike_id": "652b88d8460473979b4cd5703777b528"}, {"is_disabled": 0, "is_reserved": 0, "type": "electric_scooter", "lon": -77.07250383333333, "fusion_lon": 0.0, "lat": 38.9078065, "rental_uris": {"android": "https://dc.lft.to/lastmile_qr_scan", "ios": "https://dc.lft.to/lastmile_qr_scan"}, "fusion_lat": 0.0, "name": "0f5799a105fc77bbb8a23729660d1af3", "bike_id": "0f5799a105fc77bbb8a23729660d1af3"}, {"is_disabled": 0, "is_reserved": 0, "type": "electric_scooter", "lon": -76.96526383333334, "fusion_lon": 0.0, "lat": 38.876298166666665, "rental_uris": {"android": "https://dc.lft.to/lastmile_qr_scan", "ios": "https://dc.lft.to/lastmile_qr_scan"}, "fusion_lat": 0.0, "name": "ac50a8a8df77b65e803c2b8438f669a9", "bike_id": "ac50a8a8df77b65e803c2b8438f669a9"}, {"is_disabled": 0, "is_reserved": 0, "type": "electric_scooter", "lon": -77.02702383333333, "fusion_lon": 0.0, "lat": 38.9498335, "rental_uris": {"android": "https://dc.lft.to/lastmile_qr_scan", "ios": "https://dc.lft.to/lastmile_qr_scan"}, "fusion_lat": 0.0, "name": "27ce69ab30a8773fe439d9c5250b9afb", "bike_id": "27ce69ab30a8773fe439d9c5250b9afb"}, {"is_disabled": 0, "is_reserved": 0, "type": "electric_scooter", "lon": -77.04875866666667, "fusion_lon": 0.0, "lat": 38.909914666666666, "rental_uris": {"android": "https://dc.lft.to/lastmile_qr_scan", "ios": "https://dc.lft.to/lastmile_qr_scan"}, "fusion_lat": 0.0, "name": "46b143fbec24f8c467cb6f9ac215241d", "bike_id": "46b143fbec24f8c467cb6f9ac215241d"}, {"is_disabled": 0, "is_reserved": 0, "type": "electric_scooter", "lon": -77.00143016666667, "fusion_lon": 0.0, "lat": 38.873773666666665, "rental_uris": {"android": "https://dc.lft.to/lastmile_qr_scan", "ios": "https://dc.lft.to/lastmile_qr_scan"}, "fusion_lat": 0.0, "name": "cdd45336cf310a38b85c20905dc4ccde", "bike_id": "cdd45336cf310a38b85c20905dc4ccde"},