{"data": {"bikes": [{"name": "7977a07cf1fd341886bdbb0a1365eba7", "fusion_lon": 0.0, "lat": 38.876497, "is_reserved": 0, "type": "electric_scooter", "bike_id": "7977a07cf1fd341886bdbb0a1365eba7", "is_disabled": 0, "rental_uris": {"android": "https://dc.lft.to/lastmile_qr_scan", "ios": "https://dc.lft.to/lastmile_qr_scan"}, "lon": -76.9651185, "fusion_lat": 0.0}, {"name": "870d165aa4663fb9f115fada77f6ecbf", "fusion_lon": 0.0, "lat": 38.919065833333335, "is_reserved": 0, "type": "electric_scooter", "bike_id": "870d165aa4663fb9f115fada77f6ecbf", "is_disabled": 0, "rental_uris": {"android": "https://dc.lft.to/lastmile_qr_scan", "ios": "https://dc.lft.to/lastmile_qr_scan"}, "lon": -76.97092216666667, "fusion_lat": 0.0}, {"name": "d91b40f440af0fd95e2fbfb714043f66", "fusion_lon": 0.0, "lat": 38.95136883333333, "is_reserved": 0, "type": "electric_scooter", "bike_id": "d91b40f440af0fd95e2fbfb714043f66", "is_disabled": 0, "rental_uris": {"android": "https://dc.lft.to/lastmile_qr_scan", "ios": "https://dc.lft.to/lastmile_qr_scan"}, "lon": -77.0272405, "fusion_lat": 0.0}, {"name": "28ca7e6e401b88b99f29eaeeff98c72e", "fusion_lon": 0.0, "lat": 38.95732866666667, "is_reserved": 0, "type": "electric_scooter", "bike_id": "28ca7e6e401b88b99f29eaeeff98c72e", "is_disabled": 0, "rental_uris": {"android": "https://dc.lft.to/lastmile_qr_scan", "ios": "https://dc.lft.to/lastmile_qr_scan"}, "lon": -77.024306, "fusion_lat": 0.0}, {"name": "e5dc5499749a4600fe7b48d76e4a9cf2", "fusion_lon": 0.0, "lat": 39.0392935, "is_reserved": 0, "type": "electric_bike", "bike_id": "e5dc5499749a4600fe7b48d76e4a9cf2", "is_disabled": 0, "rental_uris": {"android": "https://dc.lft.to/lastmile_qr_scan", "ios": "https://dc.lft.to/lastmile_qr_scan"}, "lon": -77.02857483333334, "fusion_lat": 0.0}, {"name": "d8e5ed41ce78e54b8cf8b632545802c2", "fusion_lon": 0.0, "lat": 38.89364533333333, "is_reserved": 0, "type": "electric_scooter", "bike_id": "d8e5ed41ce78e54b8cf8b632545802c2", "is_disabled": 0, "rental_uris": {"android": "https://dc.lft.to/lastmile_qr_scan", "ios": "https://dc.lft.to/lastmile_qr_scan"}, "lon": -76.99089, "fusion_lat": 0.0}, {"name": "36759820535dc98fee51e33cf7ae9153", "fusion_lon": 0.0, "lat": 38.924478, "is_reserved": 0, "type": "electric_scooter", "bike_id": "36759820535dc98fee51e33cf7ae9153", "is_disabled": 0, "rental_uris": {"android": "https://dc.lft.to/lastmile_qr_scan", "ios": "https://dc.lft.to/lastmile_qr_scan"}, "lon": -77.02259266666667, "fusion_lat": 0.0}, {"name": "489189ffc7e3b27abf3b10ce2c4cbfee", "fusion_lon": 0.0, "lat": 38.898528166666665, "is_reserved": 0, "type": "electric_scooter", "bike_id": "489189ffc7e3b27abf3b10ce2c4cbfee", "is_disabled": 0, "rental_uris": {"android": "https://dc.lft.to/lastmile_qr_scan", "ios": "https://dc.lft.to/lastmile_qr_scan"}, "lon": -77.04897433333333, "fusion_lat": 0.0}, {"name": "40baea398bfc3b1339897736e00817e7", "fusion_lon": 0.0, "lat": 38.95836933333333, "is_reserved": 0, "type": "electric_scooter", "bike_id": "40baea398bfc3b1339897736e00817e7", "is_disabled": 0, "rental_uris": {"android": "https://dc.lft.to/lastmile_qr_scan", "ios": "https://dc.lft.to/lastmile_qr_scan"}, "lon": -77.01516016666666, "fusion_lat": 0.0}, {"name": "7487ea01a642a6f3af8a94b3acecd722", "fusion_lon": 0.0, "lat": 38.919471, "is_reserved": 0, "type": "electric_scooter", "bike_id": "7487ea01a642a6f3af8a94b3acecd722", "is_disabled": 0, "rental_uris": {"android": "https://dc.lft.to/lastmile_qr_scan", "ios": "https://dc.lft.to/lastmile_qr_scan"}, "lon": -77.02889266666666, "fusion_lat": 0.0}, {"name": "f9acf4800fbead5e64291d7889416f5a", "fusion_lon": 0.0, "lat": 38.895537166666664, "is_reserved": 0, "type": "electric_scooter", "bike_id": "f9acf4800fbead5e64291d7889416f5a", "is_disabled": 0, "rental_uris": {"android": "https://dc.lft.to/lastmile_qr_scan", "ios": "https://dc.lft.to/lastmile_qr_scan"}, "lon": -77.04673116666666, "fusion_lat": 0.0}, {"name": "b52a581badd3bb43dc9c27cdfe7b3cd3", "fusion_lon": 0.0, "lat": 38.89223066666667, "is_reserved": 0, "type": "electric_scooter", "bike_id": "b52a581badd3bb43dc9c27cdfe7b3cd3", "is_disabled": 0, "rental_uris": {"android": "https://dc.lft.to/lastmile_qr_scan", "ios": "https://dc.lft.to/lastmile_qr_scan"}, "lon": -77.0430715, "fusion_lat": 0.0}, {"name": "3ce8b087d9914d3c5b49fffe133164fa", "fusion_lon": 0.0, "lat": 38.90005683333333, "is_reserved": 0, "type": "electric_scooter", "bike_id": "3ce8b087d9914d3c5b49fffe133164fa", "is_disabled": 0, "rental_uris": {"android": "https://dc.lft.to/lastmile_qr_scan", "ios": "https://dc.lft.to/lastmile_qr_scan"}, "lon": -76.995329, "fusion_lat": 0.0}, {"name": "c40b2898b4d66e34d42776f7b2c53059", "fusion_lon": 0.0, "lat": 38.955036166666666, "is_reserved": 0, "type": "electric_bike", "bike_id": "c40b2898b4d66e34d42776f7b2c53059", "is_disabled": 0, "rental_uris": {"android": "https://dc.lft.to/lastmile_qr_scan", "ios": "https://dc.lft.to/lastmile_qr_scan"}, "lon": -76.993531, "fusion_lat": 0.0}, {"name": "f491273428aa03e95655407a79cea699", "fusion_lon": 0.0, "lat": 38.88865666666667, "is_reserved": 0, "type": "electric_scooter", "bike_id": "f491273428aa03e95655407a79cea699", "is_disabled": 0, "rental_uris": {"android": "https://dc.lft.to/lastmile_qr_scan", "ios": "https://dc.lft.to/lastmile_qr_scan"}, "lon": -77.04007516666667, "fusion_lat": 0.0}, {"name": "9bab9ded8751d69eb8b92c369301d489", "fusion_lon": 0.0, "lat": 38.860588666666665, "is_reserved": 0, "type": "electric_scooter", "bike_id": "9bab9ded8751d69eb8b92c369301d489", "is_disabled": 0, "rental_uris": {"android": "https://dc.lft.to/lastmile_qr_scan", "ios": "https://dc.lft.to/lastmile_qr_scan"}, "lon": -76.98423266666667, "fusion_lat": 0.0}, {"name": "25b97e5555aac2c97cf71c2bbe20bb95", "fusion_lon": 0.0, "lat": 38.88865783333333, "is_reserved": 0, "type": "electric_scooter", "bike_id": "25b97e5555aac2c97cf71c2bbe20bb95", "is_disabled": 0, "rental_uris": {"android": "https://dc.lft.to/lastmile_qr_scan", "ios": "https://dc.lft.to/lastmile_qr_scan"}, "lon": -77.04007433333334, "fusion_lat": 0.0}, {"name": "3a0b16e2cb9d57dfcd96c81a778445c0", "fusion_lon": 0.0, "lat": 38.899542833333335, "is_reserved": 0, "type": "electric_scooter", "bike_id": "3a0b16e2cb9d57dfcd96c81a778445c0", "is_disabled": 0, "rental_uris": {"android": "https://dc.lft.to/lastmile_qr_scan", "ios": "https://dc.lft.to/lastmile_qr_scan"}, "lon": -77.01619716666667, "fusion_lat": 0.0}, {"name": "98bc85dd77b9a2c334a46fe70ad122a0", "fusion_lon": 0.0, "lat": 38.893531333333335, "is_reserved": 0, "type": "electric_scooter", "bike_id": "98bc85dd77b9a2c334a46fe70ad122a0", "is_disabled": 0, "rental_uris": {"android": "https://dc.lft.to/lastmile_qr_scan", "ios": "https://dc.lft.to/lastmile_qr_scan"}, "lon": -77.0033305, "fusion_lat": 0.0}, {"name": "4d0bb5b8f86077144c1eda4fb7eacc26", "fusion_lon": 0.0, "lat": 38.9309135, "is_reserved": 0, "type": "electric_scooter", "bike_id": "4d0bb5b8f86077144c1eda4fb7eacc26", "is_disabled": 0, "rental_uris": {"android": "https://dc.lft.to/lastmile_qr_scan", "ios": "https://dc.lft.to/lastmile_qr_scan"}, "lon": -77.03439933333334, "fusion_lat": 0.0}, {"name": "8b0b7923f76e2638c3c2c8a185d3cde8", "fusion_lon": 0.0, "lat": 38.87638116666667, "is_reserved": 0, "type": "electric_scooter", "bike_id": "8b0b7923f76e2638c3c2c8a185d3cde8", "is_disabled": 0, "rental_uris": {"android": "https://dc.lft.to/lastmile_qr_scan", "ios": "https://dc.lft.to/lastmile_qr_scan"}, "lon": -77.004567, "fusion_lat": 0.0}, {"name": "b3a7accce453ef4a4e0c6710b1768f50", "fusion_lon": 0.0, "lat": 38.88787583333333, "is_reserved": 0, "type": "electric_scooter", "bike_id": "b3a7accce453ef4a4e0c6710b1768f50", "is_disabled": 0, "rental_uris": {"android": "https://dc.lft.to/lastmile_qr_scan", "ios": "https://dc.lft.to/lastmile_qr_scan"}, "lon": -76.95534466666666, "fusion_lat": 0.0}, {"name": "893daf337795a01e13716a33cd82aa96", "fusion_lon": 0.0, "lat": 38.9289045, "is_reserved": 0, "type": "electric_scooter", "bike_id": "893daf337795a01e13716a33cd82aa96", "is_disabled": 0, "rental_uris": {"android": "https://dc.lft.to/lastmile_qr_scan", "ios": "https://dc.lft.to/lastmile_qr_scan"}, "lon": -77.03247433333334, "fusion_lat": 0.0}, {"name": "94b6a60b64599db64333264d56968b23", "fusion_lon": 0.0, "lat": 38.893858333333334, "is_reserved": 0, "type": "electric_scooter", "bike_id": "94b6a60b64599db64333264d56968b23", "is_disabled": 0, "rental_uris": {"android": "https://dc.lft.to/lastmile_qr_scan", "ios": "https://dc.lft.to/lastmile_qr_scan"}, "lon": -77.03172183333334, "fusion_lat": 0.0}, {"name": "524cc500a44bd8a9dee3b0a0e706bc88", "fusion_lon": 0.0, "lat": 38.8946645, "is_reserved": 0, "type": "electric_scooter", "bike_id": "524cc500a44bd8a9dee3b0a0e706bc88", "is_disabled": 0, "rental_uris": {"android": "https://dc.lft.to/lastmile_qr_scan", "ios": "https://dc.lft.to/lastmile_qr_scan"}, "lon": -77.028103, "fusion_lat": 0.0}, {"name": "8bd8b138eb0bf4fe29c109494fe1d02d", "fusion_lon": 0.0, "lat": 38.902585333333334, "is_reserved": 0, "type": "electric_bike", "bike_id": "8bd8b138eb0bf4fe29c109494fe1d02d", "is_disabled": 0, "rental_uris": {"android": "https://dc.lft.to/lastmile_qr_scan", "ios": "https://dc.lft.to/lastmile_qr_scan"}, "lon": -77.01743483333334, "fusion_lat": 0.0}, {"name": "2e0abc8807b40b6324cbf90cb7694254", "fusion_lon": 0.0, "lat": 38.9167975, "is_reserved": 0, "type": "electric_scooter", "bike_id": "2e0abc8807b40b6324cbf90cb7694254", "is_disabled": 0, "rental_uris": {"android": "https://dc.lft.to/lastmile_qr_scan", "ios": "https://dc.lft.to/lastmile_qr_scan"}, "lon": -77.025255, "fusion_lat": 0.0}, {"name": "8cbd60f772d0766818d06c6bfcb693ff", "fusion_lon": 0.0, "lat": 38.83208616666667, "is_reserved": 0, "type": "electric_scooter", "bike_id": "8cbd60f772d0766818d06c6bfcb693ff", "is_disabled": 0, "rental_uris": {"android": "https://dc.lft.to/lastmile_qr_scan", "ios": "https://dc.lft.to/lastmile_qr_scan"}, "lon": -77.00794033333334, "fusion_lat": 0.0}, {"name": "2e824d10c36a23568b57253001c20778", "fusion_lon": 0.0, "lat": 38.90537533333333, "is_reserved": 0, "type": "electric_scooter", "bike_id": "2e824d10c36a23568b57253001c20778", "is_disabled": 0, "rental_uris": {"android": "https://dc.lft.to/lastmile_qr_scan", "ios": "https://dc.lft.to/lastmile_qr_scan"}, "lon": -76.9810865, "fusion_lat": 0.0}, {"name": "8fae45ad4574ae848604e363760ea94e", "fusion_lon": 0.0, "lat": 38.8757875, "is_reserved": 0, "type": "electric_scooter", "bike_id": "8fae45ad4574ae848604e363760ea94e", "is_disabled": 0, "rental_uris": {"android": "https://dc.lft.to/lastmile_qr_scan", "ios": "https://dc.lft.to/lastmile_qr_scan"}, "lon": -77.00595316666667, "fusion_lat": 0.0}, {"name": "fc72a8c4d7136d1a31afa0a59b669c0e", "fusion_lon": 0.0, "lat": 38.900527333333336, "is_reserved": 0, "type": "electric_scooter", "bike_id": "fc72a8c4d7136d1a31afa0a59b669c0e", "is_disabled": 0, "rental_uris": {"android": "https://dc.lft.to/lastmile_qr_scan", "ios": "https://dc.lft.to/lastmile_qr_scan"}, "lon": -77.000678, "fusion_lat": 0.0}, {"name": "89dec5cd2d0eb28d1cedfd3b58b1f7e4", "fusion_lon": 0.0, "lat": 38.90680533333333, "is_reserved": 0, "type": "electric_scooter", "bike_id": "89dec5cd2d0eb28d1cedfd3b58b1f7e4", "is_disabled": 0, "rental_uris": {"android": "https://dc.lft.to/lastmile_qr_scan", "ios": "https://dc.lft.to/lastmile_qr_scan"}, "lon": -77.03537616666667, "fusion_lat": 0.0}, {"name": "66d7e37baaed0fbbae878ef1f895eef5", "fusion_lon": 0.0, "lat": 38.984507, "is_reserved": 0, "type": "electric_bike", "bike_id": "66d7e37baaed0fbbae878ef1f895eef5", "is_disabled": 0, "rental_uris": {"android": "https://dc.lft.to/lastmile_qr_scan", "ios": "https://dc.lft.to/lastmile_qr_scan"}, "lon": -77.02673833333333, "fusion_lat": 0.0}, {"name": "df54d08c4df43708c7b3986e1fb52775", "fusion_lon": 0.0, "lat": 38.86515266666667, "is_reserved": 0, "type": "electric_bike", "bike_id": "df54d08c4df43708c7b3986e1fb52775", "is_disabled": 0, "rental_uris": {"android": "https://dc.lft.to/lastmile_qr_scan", "ios": "https://dc.lft.to/lastmile_qr_scan"}, "lon": -76.97333566666667, "fusion_lat": 0.0}, {"name": "ee447e7bbb085545341da555553858a2", "fusion_lon": 0.0, "lat": 38.91493916666667, "is_reserved": 0, "type": "electric_scooter", "bike_id": "ee447e7bbb085545341da555553858a2", "is_disabled": 0, "rental_uris": {"android": "https://dc.lft.to/lastmile_qr_scan", "ios": "https://dc.lft.to/lastmile_qr_scan"}, "lon": -77.045501, "fusion_lat": 0.0}, {"name": "5752078c1d59459beca1e9ff0219155c", "fusion_lon": 0.0, "lat": 38.89722116666667, "is_reserved": 0, "type": "electric_scooter", "bike_id": "5752078c1d59459beca1e9ff0219155c", "is_disabled": 0, "rental_uris": {"android": "https://dc.lft.to/lastmile_qr_scan", "ios": "https://dc.lft.to/lastmile_qr_scan"}, "lon": -77.00780683333333, "fusion_lat": 0.0}, {"name": "3a3f229c07dd60406328dae062c62b9b", "fusion_lon": 0.0, "lat": 38.9059735, "is_reserved": 0, "type": "electric_scooter", "bike_id": "3a3f229c07dd60406328dae062c62b9b", "is_disabled": 0, "rental_uris": {"android": "https://dc.lft.to/lastmile_qr_scan", "ios": "https://dc.lft.to/lastmile_qr_scan"}, "lon": -77.0432785, "fusion_lat": 0.0}, {"name": "0f3236cfe64651e3fe127f760185f182", "fusion_lon": 0.0, "lat": 38.924394666666664, "is_reserved": 0, "type": "electric_scooter", "bike_id": "0f3236cfe64651e3fe127f760185f182", "is_disabled": 0, "rental_uris": {"android": "https://dc.lft.to/lastmile_qr_scan", "ios": "https://dc.lft.to/lastmile_qr_scan"}, "lon": -77.022214, "fusion_lat": 0.0}, {"name": "4ed53bdad22d0f3749dc1fc617d15b2f", "fusion_lon": 0.0, "lat": 38.9017765, "is_reserved": 0, "type": "electric_scooter", "bike_id": "4ed53bdad22d0f3749dc1fc617d15b2f", "is_disabled": 0, "rental_uris": {"android": "https://dc.lft.to/lastmile_qr_scan", "ios": "https://dc.lft.to/lastmile_qr_scan"}, "lon": -76.98302566666666, "fusion_lat": 0.0}, {"name": "f263e8e898006ba881b8b7f091ba2d3d", "fusion_lon": 0.0, "lat": 38.91524116666667, "is_reserved": 0, "type": "electric_scooter", "bike_id": "f263e8e898006ba881b8b7f091ba2d3d", "is_disabled": 0, "rental_uris": {"android": "https://dc.lft.to/lastmile_qr_scan", "ios": "https://dc.lft.to/lastmile_qr_scan"}, "lon": -77.0384765, "fusion_lat": 0.0}, {"name": "e20767586d7bc9ffb6b9b1d2ab64f130", "fusion_lon": 0.0, "lat": 38.91980233333334, "is_reserved": 0, "type": "electric_scooter", "bike_id": "e20767586d7bc9ffb6b9b1d2ab64f130", "is_disabled": 0, "rental_uris": {"android": "https://dc.lft.to/lastmile_qr_scan", "ios": "https://dc.lft.to/lastmile_qr_scan"}, "lon": -77.02382066666667, "fusion_lat": 0.0}, {"name": "d68b5c319924bef9c6a4a80a46a2e310", "fusion_lon": 0.0, "lat": 38.9110915, "is_reserved": 0, "type": "electric_scooter", "bike_id": "d68b5c319924bef9c6a4a80a46a2e310", "is_disabled": 0, "rental_uris": {"android": "https://dc.lft.to/lastmile_qr_scan", "ios": "https://dc.lft.to/lastmile_qr_scan"}, "lon": -77.043629, "fusion_lat": 0.0}, {"name": "544d06bc772ed0d709dca23fab7feeca", "fusion_lon": 0.0, "lat": 38.903027, "is_reserved": 0, "type": "electric_scooter", "bike_id": "544d06bc772ed0d709dca23fab7feeca", "is_disabled": 0, "rental_uris": {"android": "https://dc.lft.to/lastmile_qr_scan", "ios": "https://dc.lft.to/lastmile_qr_scan"}, "lon": -77.02367283333334, "fusion_lat": 0.0}, {"name": "7d609d5022dd6a77ee1b762c2667baef", "fusion_lon": 0.0, "lat": 38.9039445, "is_reserved": 0, "type": "electric_scooter", "bike_id": "7d609d5022dd6a77ee1b762c2667baef", "is_disabled": 0, "rental_uris": {"android": "https://dc.lft.to/lastmile_qr_scan", "ios": "https://dc.lft.to/lastmile_qr_scan"}, "lon": -77.04307683333333, "fusion_lat": 0.0}, {"name": "8c1fe0e070f7434fcf5c2b33448c3d72", "fusion_lon": 0.0, "lat": 38.91104816666667, "is_reserved": 0, "type": "electric_scooter", "bike_id": "8c1fe0e070f7434fcf5c2b33448c3d72", "is_disabled": 0, "rental_uris": {"android": "https://dc.lft.to/lastmile_qr_scan", "ios": "https://dc.lft.to/lastmile_qr_scan"}, "lon": -77.03833316666666, "fusion_lat": 0.0}, {"name": "1048d0b3eb90e97d5546c9f61f044292", "fusion_lon": 0.0, "lat": 38.919087833333336, "is_reserved": 0, "type": "electric_bike", "bike_id": "1048d0b3eb90e97d5546c9f61f044292", "is_disabled": 0, "rental_uris": {"android": "https://dc.lft.to/lastmile_qr_scan", "ios": "https://dc.lft.to/lastmile_qr_scan"}, "lon": -77.02004416666666, "fusion_lat": 0.0}, {"name": "d4610b791d7e51fb9d9f562ffe9613f4", "fusion_lon": 0.0, "lat": 38.905657833333336, "is_reserved": 0, "type": "electric_scooter", "bike_id": "d4610b791d7e51fb9d9f562ffe9613f4", "is_disabled": 0, "rental_uris": {"android": "https://dc.lft.to/lastmile_qr_scan", "ios": "https://dc.lft.to/lastmile_qr_scan"}, "lon": -77.03427316666667, "fusion_lat": 0.0}, {"name": "0250e0b9f7d86d5ee6311d0ec5ae8f4c", "fusion_lon": 0.0, "lat": 38.902475333333335, "is_reserved": 0, "type": "electric_scooter", "bike_id": "0250e0b9f7d86d5ee6311d0ec5ae8f4c", "is_disabled": 0, "rental_uris": {"android": "https://dc.lft.to/lastmile_qr_scan", "ios": "https://dc.lft.to/lastmile_qr_scan"}, "lon": -77.043444, "fusion_lat": 0.0}, {"name": "9cc404ad2e41de29c6efc4e6e8907bc2", "fusion_lon": 0.0, "lat": 38.88221266666667, "is_reserved": 0, "type": "electric_bike", "bike_id": "9cc404ad2e41de29c6efc4e6e8907bc2", "is_disabled": 0, "rental_uris": {"android": "https://dc.lft.to/lastmile_qr_scan", "ios": "https://dc.lft.to/lastmile_qr_scan"}, "lon": -77.11727483333334, "fusion_lat": 0.0}, {"name": "9ec3d0777c8920b223b6f52a5e7c92b6", "fusion_lon": 0.0, "lat": 38.922326, "is_reserved": 0, "type": "electric_scooter", "bike_id": "9ec3d0777c8920b223b6f52a5e7c92b6", "is_disabled": 0, "rental_uris": {"android": "https://dc.lft.to/lastmile_qr_scan", "ios": "https://dc.lft.to/lastmile_qr_scan"}, "lon": -77.0335155, "fusion_lat": 0.0}, {"name": "a5b7801142fbd29b6053ee1a2c1dcf4a", "fusion_lon": 0.0, "lat": 38.8669445, "is_reserved": 0, "type": "electric_scooter", "bike_id": "a5b7801142fbd29b6053ee1a2c1dcf4a", "is_disabled": 0, "rental_uris": {"android": "https://dc.lft.to/lastmile_qr_scan", "ios": "https://dc.lft.to/lastmile_qr_scan"}, "lon": -76.98574033333334, "fusion_lat": 0.0}, {"name": "29613866e2c83b49ca03a54dfd030f03", "fusion_lon": 0.0, "lat": 38.92622333333333, "is_reserved": 0, "type": "electric_scooter", "bike_id": "29613866e2c83b49ca03a54dfd030f03", "is_disabled": 0, "rental_uris": {"android": "https://dc.lft.to/lastmile_qr_scan", "ios": "https://dc.lft.to/lastmile_qr_scan"}, "lon": -77.04323933333333, "fusion_lat": 0.0}, {"name": "1f0be9c2d5cdc2566b22a4ee9c13003a", "fusion_lon": 0.0, "lat": 38.995318833333336, "is_reserved": 0, "type": "electric_bike", "bike_id": "1f0be9c2d5cdc2566b22a4ee9c13003a", "is_disabled": 0, "rental_uris": {"android": "https://dc.lft.to/lastmile_qr_scan", "ios": "https://dc.lft.to/lastmile_qr_scan"}, "lon": -77.06944983333334, "fusion_lat": 0.0}, {"name": "cd397be9dcf0cc9c284a0045612761e8", "fusion_lon": 0.0, "lat": 38.895061, "is_reserved": 0, "type": "electric_scooter", "bike_id": "cd397be9dcf0cc9c284a0045612761e8", "is_disabled": 0, "rental_uris": {"android": "https://dc.lft.to/lastmile_qr_scan", "ios": "https://dc.lft.to/lastmile_qr_scan"}, "lon": -76.93478733333333, "fusion_lat": 0.0}, {"name": "e0277262b51e7ac570ba5a975878947b", "fusion_lon": 0.0, "lat": 38.799838333333334, "is_reserved": 0, "type": "electric_bike", "bike_id": "e0277262b51e7ac570ba5a975878947b", "is_disabled": 0, "rental_uris": {"android": "https://dc.lft.to/lastmile_qr_scan", "ios": "https://dc.lft.to/lastmile_qr_scan"}, "lon": -77.129788, "fusion_lat": 0.0}, {"name": "04b0913c977afce7f02c8366f46748e0", "fusion_lon": 0.0, "lat": 38.904775, "is_reserved": 0, "type": "electric_scooter", "bike_id": "04b0913c977afce7f02c8366f46748e0", "is_disabled": 0, "rental_uris": {"android": "https://dc.lft.to/lastmile_qr_scan", "ios": "https://dc.lft.to/lastmile_qr_scan"}, "lon": -77.0355075, "fusion_lat": 0.0}, {"name": "3d451edde6c928fac485055e85ef2093", "fusion_lon": 0.0, "lat": 38.9050435, "is_reserved": 0, "type": "electric_scooter", "bike_id": "3d451edde6c928fac485055e85ef2093", "is_disabled": 0, "rental_uris": {"android": "https://dc.lft.to/lastmile_qr_scan", "ios": "https://dc.lft.to/lastmile_qr_scan"}, "lon": -77.0294895, "fusion_lat": 0.0}, {"name": "aaa859a877bbdfe0ca74ea717c7d10f4", "fusion_lon": 0.0, "lat": 38.892314999999996, "is_reserved": 0, "type": "electric_scooter", "bike_id": "aaa859a877bbdfe0ca74ea717c7d10f4", "is_disabled": 0, "rental_uris": {"android": "https://dc.lft.to/lastmile_qr_scan", "ios": "https://dc.lft.to/lastmile_qr_scan"}, "lon": -77.03376233333333, "fusion_lat": 0.0}, {"name": "f4552f884f4ee1965aa96b6b3bfc092a", "fusion_lon": 0.0, "lat": 38.93475166666666, "is_reserved": 0, "type": "electric_scooter", "bike_id": "f4552f884f4ee1965aa96b6b3bfc092a", "is_disabled": 0, "rental_uris": {"android": "https://dc.lft.to/lastmile_qr_scan", "ios": "https://dc.lft.to/lastmile_qr_scan"}, "lon": -77.03577033333333, "fusion_lat": 0.0}, {"name": "091f7a3fa03c8cc54ee8f950bae0d6c4", "fusion_lon": 0.0, "lat": 38.9105615, "is_reserved": 0, "type": "electric_scooter", "bike_id": "091f7a3fa03c8cc54ee8f950bae0d6c4", "is_disabled": 0, "rental_uris": {"android": "https://dc.lft.to/lastmile_qr_scan", "ios": "https://dc.lft.to/lastmile_qr_scan"}, "lon": -77.04493783333334, "fusion_lat": 0.0}, {"name": "c772d4087e4ca60643249260123fa914", "fusion_lon": 0.0, "lat": 38.89848383333333, "is_reserved": 0, "type": "electric_scooter", "bike_id": "c772d4087e4ca60643249260123fa914", "is_disabled": 0, "rental_uris": {"android": "https://dc.lft.to/lastmile_qr_scan", "ios": "https://dc.lft.to/lastmile_qr_scan"}, "lon": -77.02198833333334, "fusion_lat": 0.0}, {"name": "808dc5eab2d9f71d4d6ede20c5710375", "fusion_lon": 0.0, "lat": 38.86237166666667, "is_reserved": 0, "type": "electric_scooter", "bike_id": "808dc5eab2d9f71d4d6ede20c5710375", "is_disabled": 0, "rental_uris": {"android": "https://dc.lft.to/lastmile_qr_scan", "ios": "https://dc.lft.to/lastmile_qr_scan"}, "lon": -76.99515666666667, "fusion_lat": 0.0}, {"name": "7ab4d6b8e1c7d674e592290f630a1f89", "fusion_lon": 0.0, "lat": 38.920226, "is_reserved": 0, "type": "electric_scooter", "bike_id": "7ab4d6b8e1c7d674e592290f630a1f89", "is_disabled": 0, "rental_uris": {"android": "https://dc.lft.to/lastmile_qr_scan", "ios": "https://dc.lft.to/lastmile_qr_scan"}, "lon": -77.02071866666667, "fusion_lat": 0.0}, {"name": "2347c3347e30642ec72c5eff32248108", "fusion_lon": 0.0, "lat": 38.9273605, "is_reserved": 0, "type": "electric_scooter", "bike_id": "2347c3347e30642ec72c5eff32248108", "is_disabled": 0, "rental_uris": {"android": "https://dc.lft.to/lastmile_qr_scan", "ios": "https://dc.lft.to/lastmile_qr_scan"}, "lon": -77.02264066666666, "fusion_lat": 0.0}, {"name": "0f189b7543671d3d5a60ed5b5ee15dce", "fusion_lon": 0.0, "lat": 38.900265166666664, "is_reserved": 0, "type": "electric_scooter", "bike_id": "0f189b7543671d3d5a60ed5b5ee15dce", "is_disabled": 0, "rental_uris": {"android": "https://dc.lft.to/lastmile_qr_scan", "ios": "https://dc.lft.to/lastmile_qr_scan"}, "lon": -76.998573, "fusion_lat": 0.0}, {"name": "2944bbbfb1706cdeab5e52c7a27b94d4", "fusion_lon": 0.0, "lat": 38.90477683333334, "is_reserved": 0, "type": "electric_scooter", "bike_id": "2944bbbfb1706cdeab5e52c7a27b94d4", "is_disabled": 0, "rental_uris": {"android": "https://dc.lft.to/lastmile_qr_scan", "ios": "https://dc.lft.to/lastmile_qr_scan"}, "lon": -77.05334566666667, "fusion_lat": 0.0}, {"name": "eb2571f62869d0bfecd428f7cb120da3", "fusion_lon": 0.0, "lat": 38.94782766666667, "is_reserved": 0, "type": "electric_bike", "bike_id": "eb2571f62869d0bfecd428f7cb120da3", "is_disabled": 0, "rental_uris": {"android": "https://dc.lft.to/lastmile_qr_scan", "ios": "https://dc.lft.to/lastmile_qr_scan"}, "lon": -76.97211883333334, "fusion_lat": 0.0}, {"name": "ef436b7229abc09115a0bc2e487eda29", "fusion_lon": 0.0, "lat": 38.86416083333334, "is_reserved": 0, "type": "electric_scooter", "bike_id": "ef436b7229abc09115a0bc2e487eda29", "is_disabled": 0, "rental_uris": {"android": "https://dc.lft.to/lastmile_qr_scan", "ios": "https://dc.lft.to/lastmile_qr_scan"}, "lon": -76.9744985, "fusion_lat": 0.0}, {"name": "e0ec52ce0f1f8de6da613c0e933e3396", "fusion_lon": 0.0, "lat": 39.0243665, "is_reserved": 0, "type": "electric_bike", "bike_id": "e0ec52ce0f1f8de6da613c0e933e3396", "is_disabled": 0, "rental_uris": {"android": "https://dc.lft.to/lastmile_qr_scan", "ios": "https://dc.lft.to/lastmile_qr_scan"}, "lon": -77.13101016666667, "fusion_lat": 0.0}, {"name": "c41510823d3e45cbfe262609d7a0e3c5", "fusion_lon": 0.0, "lat": 38.905742333333336, "is_reserved": 0, "type": "electric_scooter", "bike_id": "c41510823d3e45cbfe262609d7a0e3c5", "is_disabled": 0, "rental_uris": {"android": "https://dc.lft.to/lastmile_qr_scan", "ios": "https://dc.lft.to/lastmile_qr_scan"}, "lon": -77.04470816666667, "fusion_lat": 0.0}, {"name": "3e9f666d6ccc287f1368ae26fafda0dc", "fusion_lon": 0.0, "lat": 38.9055515, "is_reserved": 0, "type": "electric_scooter", "bike_id": "3e9f666d6ccc287f1368ae26fafda0dc", "is_disabled": 0, "rental_uris": {"android": "https://dc.lft.to/lastmile_qr_scan", "ios": "https://dc.lft.to/lastmile_qr_scan"}, "lon": -77.04656466666667, "fusion_lat": 0.0}, {"name": "5225d139886d64a3baed3fa8ea61c6c7", "fusion_lon": 0.0, "lat": 38.9100005, "is_reserved": 0, "type": "electric_scooter", "bike_id": "5225d139886d64a3baed3fa8ea61c6c7", "is_disabled": 0, "rental_uris": {"android": "https://dc.lft.to/lastmile_qr_scan", "ios": "https://dc.lft.to/lastmile_qr_scan"}, "lon": -77.0401055, "fusion_lat": 0.0}, {"name": "8c37cac8faf8a3505e05b264ad8b3605", "fusion_lon": 0.0, "lat": 38.9290935, "is_reserved": 0, "type": "electric_scooter", "bike_id": "8c37cac8faf8a3505e05b264ad8b3605", "is_disabled": 0, "rental_uris": {"android": "https://dc.lft.to/lastmile_qr_scan", "ios": "https://dc.lft.to/lastmile_qr_scan"}, "lon": -77.0363855, "fusion_lat": 0.0}, {"name": "6a771c7108e23a62619f6b910eb432bc", "fusion_lon": 0.0, "lat": 38.8876475, "is_reserved": 0, "type": "electric_scooter", "bike_id": "6a771c7108e23a62619f6b910eb432bc", "is_disabled": 0, "rental_uris": {"android": "https://dc.lft.to/lastmile_qr_scan", "ios": "https://dc.lft.to/lastmile_qr_scan"}, "lon": -76.95594333333334, "fusion_lat": 0.0}, {"name": "02fb5c74a99cf193606f43d47c8e8eb7", "fusion_lon": 0.0, "lat": 38.914230333333336, "is_reserved": 0, "type": "electric_scooter", "bike_id": "02fb5c74a99cf193606f43d47c8e8eb7", "is_disabled": 0, "rental_uris": {"android": "https://dc.lft.to/lastmile_qr_scan", "ios": "https://dc.lft.to/lastmile_qr_scan"}, "lon": -77.04490016666666, "fusion_lat": 0.0}, {"name": "48fa2aa4de8c5e6ce41ec22084ff822e", "fusion_lon": 0.0, "lat": 38.8748085, "is_reserved": 0, "type": "electric_bike", "bike_id": "48fa2aa4de8c5e6ce41ec22084ff822e", "is_disabled": 0, "rental_uris": {"android": "https://dc.lft.to/lastmile_qr_scan", "ios": "https://dc.lft.to/lastmile_qr_scan"}, "lon": -76.96524533333333, "fusion_lat": 0.0}, {"name": "75e646762dd4c3caf9077e0974aa1d06", "fusion_lon": 0.0, "lat": 38.89231433333333, "is_reserved": 0, "type": "electric_scooter", "bike_id": "75e646762dd4c3caf9077e0974aa1d06", "is_disabled": 0, "rental_uris": {"android": "https://dc.lft.to/lastmile_qr_scan", "ios": "https://dc.lft.to/lastmile_qr_scan"}, "lon": -77.0338285, "fusion_lat": 0.0}, {"name": "abca875b1c109617d83e19f7a5b85e58", "fusion_lon": 0.0, "lat": 38.896160333333334, "is_reserved": 0, "type": "electric_scooter", "bike_id": "abca875b1c109617d83e19f7a5b85e58", "is_disabled": 0, "rental_uris": {"android": "https://dc.lft.to/lastmile_qr_scan", "ios": "https://dc.lft.to/lastmile_qr_scan"}, "lon": -76.98112449999999, "fusion_lat": 0.0}, {"name": "3cdd87685d7089fe8571e01bfd504c0f", "fusion_lon": 0.0, "lat": 38.91287883333333, "is_reserved": 0, "type": "electric_scooter", "bike_id": "3cdd87685d7089fe8571e01bfd504c0f", "is_disabled": 0, "rental_uris": {"android": "https://dc.lft.to/lastmile_qr_scan", "ios": "https://dc.lft.to/lastmile_qr_scan"}, "lon": -77.02387283333333, "fusion_lat": 0.0}, {"name": "7204dd0b2d07aa48637ae2885b9c4c47", "fusion_lon": 0.0, "lat": 38.8962285, "is_reserved": 0, "type": "electric_scooter", "bike_id": "7204dd0b2d07aa48637ae2885b9c4c47", "is_disabled": 0, "rental_uris": {"android": "https://dc.lft.to/lastmile_qr_scan", "ios": "https://dc.lft.to/lastmile_qr_scan"}, "lon": -77.01603833333333, "fusion_lat": 0.0}, {"name": "f6ec0388097b7999b3e3d3433e5e45dc", "fusion_lon": 0.0, "lat": 38.896177, "is_reserved": 0, "type": "electric_scooter", "bike_id": "f6ec0388097b7999b3e3d3433e5e45dc", "is_disabled": 0, "rental_uris": {"android": "https://dc.lft.to/lastmile_qr_scan", "ios": "https://dc.lft.to/lastmile_qr_scan"}, "lon": -77.02194583333333, "fusion_lat": 0.0}, {"name": "187cb7e55c269a38babcc2667c4526aa", "fusion_lon": 0.0, "lat": 38.9101445, "is_reserved": 0, "type": "electric_scooter", "bike_id": "187cb7e55c269a38babcc2667c4526aa", "is_disabled": 0, "rental_uris": {"android": "https://dc.lft.to/lastmile_qr_scan", "ios": "https://dc.lft.to/lastmile_qr_scan"}, "lon": -77.05270666666667, "fusion_lat": 0.0}, {"name": "824895ced026c4620b5e743916e1402c", "fusion_lon": 0.0, "lat": 38.87362666666667, "is_reserved": 0, "type": "electric_scooter", "bike_id": "824895ced026c4620b5e743916e1402c", "is_disabled": 0, "rental_uris": {"android": "https://dc.lft.to/lastmile_qr_scan", "ios": "https://dc.lft.to/lastmile_qr_scan"}, "lon": -77.0057715, "fusion_lat": 0.0}, {"name": "d1248869e455fe8654593ab7a2f537ac", "fusion_lon": 0.0, "lat": 38.936101, "is_reserved": 0, "type": "electric_scooter", "bike_id": "d1248869e455fe8654593ab7a2f537ac", "is_disabled": 0, "rental_uris": {"android": "https://dc.lft.to/lastmile_qr_scan", "ios": "https://dc.lft.to/lastmile_qr_scan"}, "lon": -77.03732533333333, "fusion_lat": 0.0}, {"name": "fa75ee2c37dd00a587df5e95a4bf148a", "fusion_lon": 0.0, "lat": 38.90002883333333, "is_reserved": 0, "type": "electric_scooter", "bike_id": "fa75ee2c37dd00a587df5e95a4bf148a", "is_disabled": 0, "rental_uris": {"android": "https://dc.lft.to/lastmile_qr_scan", "ios": "https://dc.lft.to/lastmile_qr_scan"}, "lon": -76.99639466666666, "fusion_lat": 0.0}, {"name": "8606bc9e72f5f8983f1ca36a02333f98", "fusion_lon": 0.0, "lat": 38.9040685, "is_reserved": 0, "type": "electric_scooter", "bike_id": "8606bc9e72f5f8983f1ca36a02333f98", "is_disabled": 0, "rental_uris": {"android": "https://dc.lft.to/lastmile_qr_scan", "ios": "https://dc.lft.to/lastmile_qr_scan"}, "lon": -77.06516616666667, "fusion_lat": 0.0}, {"name": "e0fca365470dec1f7a7a05cf4f423146", "fusion_lon": 0.0, "lat": 38.92229416666667, "is_reserved": 0, "type": "electric_scooter", "bike_id": "e0fca365470dec1f7a7a05cf4f423146", "is_disabled": 0, "rental_uris": {"android": "https://dc.lft.to/lastmile_qr_scan", "ios": "https://dc.lft.to/lastmile_qr_scan"}, "lon": -77.02297883333334, "fusion_lat": 0.0}, {"name": "f56e7bce670639f0dcafa81b3054939f", "fusion_lon": 0.0, "lat": 38.952621666666666, "is_reserved": 0, "type": "electric_scooter", "bike_id": "f56e7bce670639f0dcafa81b3054939f", "is_disabled": 0, "rental_uris": {"android": "https://dc.lft.to/lastmile_qr_scan", "ios": "https://dc.lft.to/lastmile_qr_scan"}, "lon": -77.0021345, "fusion_lat": 0.0}, {"name": "d69dff579d753322423f4e948df40ccb", "fusion_lon": 0.0, "lat": 38.916546, "is_reserved": 0, "type": "electric_scooter", "bike_id": "d69dff579d753322423f4e948df40ccb", "is_disabled": 0, "rental_uris": {"android": "https://dc.lft.to/lastmile_qr_scan", "ios": "https://dc.lft.to/lastmile_qr_scan"}, "lon": -77.0296795, "fusion_lat": 0.0}, {"name": "e3d54536bdaa45b182fda3d72c17e3c3", "fusion_lon": 0.0, "lat": 38.9363725, "is_reserved": 0, "type": "electric_scooter", "bike_id": "e3d54536bdaa45b182fda3d72c17e3c3", "is_disabled": 0, "rental_uris": {"android": "https://dc.lft.to/lastmile_qr_scan", "ios": "https://dc.lft.to/lastmile_qr_scan"}, "lon": -77.05887383333334, "fusion_lat": 0.0}, {"name": "3c13c8c58460a6f676fd18e58cfab6e9", "fusion_lon": 0.0, "lat": 38.86241866666667, "is_reserved": 0, "type": "electric_scooter", "bike_id": "3c13c8c58460a6f676fd18e58cfab6e9", "is_disabled": 0, "rental_uris": {"android": "https://dc.lft.to/lastmile_qr_scan", "ios": "https://dc.lft.to/lastmile_qr_scan"}, "lon": -76.994978, "fusion_lat": 0.0}, {"name": "f2c364ff598c070aadd5c5e8a4c553e4", "fusion_lon": 0.0, "lat": 38.898896, "is_reserved": 0, "type": "electric_scooter", "bike_id": "f2c364ff598c070aadd5c5e8a4c553e4", "is_disabled": 0, "rental_uris": {"android": "https://dc.lft.to/lastmile_qr_scan", "ios": "https://dc.lft.to/lastmile_qr_scan"}, "lon": -76.99825233333334, "fusion_lat": 0.0}, {"name": "e66036feeef5ea56ed20d30c8ae74cd8", "fusion_lon": 0.0, "lat": 38.90427866666667, "is_reserved": 0, "type": "electric_scooter", "bike_id": "e66036feeef5ea56ed20d30c8ae74cd8", "is_disabled": 0, "rental_uris": {"android": "https://dc.lft.to/lastmile_qr_scan", "ios": "https://dc.lft.to/lastmile_qr_scan"}, "lon": -77.04994316666667, "fusion_lat": 0.0}, {"name": "831e7e27e51898991f33fabfed06c884", "fusion_lon": 0.0, "lat": 38.8954515, "is_reserved": 0, "type": "electric_scooter", "bike_id": "831e7e27e51898991f33fabfed06c884", "is_disabled": 0, "rental_uris": {"android": "https://dc.lft.to/lastmile_qr_scan", "ios": "https://dc.lft.to/lastmile_qr_scan"}, "lon": -77.0110035, "fusion_lat": 0.0}, {"name": "ae385a570a3f97000f34a77445989b0d", "fusion_lon": 0.0, "lat": 38.87659583333333, "is_reserved": 0, "type": "electric_scooter", "bike_id": "ae385a570a3f97000f34a77445989b0d", "is_disabled": 0, "rental_uris": {"android": "https://dc.lft.to/lastmile_qr_scan", "ios": "https://dc.lft.to/lastmile_qr_scan"}, "lon": -77.01827533333334, "fusion_lat": 0.0}, {"name": "b170b27dde7b29684e989bf32b900284", "fusion_lon": 0.0, "lat": 38.905518666666666, "is_reserved": 0, "type": "electric_scooter", "bike_id": "b170b27dde7b29684e989bf32b900284", "is_disabled": 0, "rental_uris": {"android": "https://dc.lft.to/lastmile_qr_scan", "ios": "https://dc.lft.to/lastmile_qr_scan"}, "lon": -76.99620066666667, "fusion_lat": 0.0}, {"name": "3e65c1a649c8ccb84a9676595afa21f5", "fusion_lon": 0.0, "lat": 38.904356666666665, "is_reserved": 0, "type": "electric_scooter", "bike_id": "3e65c1a649c8ccb84a9676595afa21f5", "is_disabled": 0, "rental_uris": {"android": "https://dc.lft.to/lastmile_qr_scan", "ios": "https://dc.lft.to/lastmile_qr_scan"}, "lon": -77.043654, "fusion_lat": 0.0}, {"name": "f5623426248a78109c600a8e7c5df624", "fusion_lon": 0.0, "lat": 38.877334166666664, "is_reserved": 0, "type": "electric_bike", "bike_id": "f5623426248a78109c600a8e7c5df624", "is_disabled": 0, "rental_uris": {"android": "https://dc.lft.to/lastmile_qr_scan", "ios": "https://dc.lft.to/lastmile_qr_scan"}, "lon": -77.118543, "fusion_lat": 0.0}, {"name": "e3bcd7cbb6dfd088661c88f7940be5de", "fusion_lon": 0.0, "lat": 38.80425666666667, "is_reserved": 0, "type": "electric_bike", "bike_id": "e3bcd7cbb6dfd088661c88f7940be5de", "is_disabled": 0, "rental_uris": {"android": "https://dc.lft.to/lastmile_qr_scan", "ios": "https://dc.lft.to/lastmile_qr_scan"}, "lon": -77.05572633333334, "fusion_lat": 0.0}, {"name": "8224350bb7be737882583c9156977da0", "fusion_lon": 0.0, "lat": 38.918883666666666, "is_reserved": 0, "type": "electric_scooter", "bike_id": "8224350bb7be737882583c9156977da0", "is_disabled": 0, "rental_uris": {"android": "https://dc.lft.to/lastmile_qr_scan", "ios": "https://dc.lft.to/lastmile_qr_scan"}, "lon": -77.02464883333333, "fusion_lat": 0.0}, {"name": "3e148e678b8506ceddc05cfdd3bb915d", "fusion_lon": 0.0, "lat": 38.92360583333333, "is_reserved": 0, "type": "electric_scooter", "bike_id": "3e148e678b8506ceddc05cfdd3bb915d", "is_disabled": 0, "rental_uris": {"android": "https://dc.lft.to/lastmile_qr_scan", "ios": "https://dc.lft.to/lastmile_qr_scan"}, "lon": -77.042446, "fusion_lat": 0.0}, {"name": "e8579037e9247665b7c51c6cfa3c88be", "fusion_lon": 0.0, "lat": 38.9095755, "is_reserved": 0, "type": "electric_scooter", "bike_id": "e8579037e9247665b7c51c6cfa3c88be", "is_disabled": 0, "rental_uris": {"android": "https://dc.lft.to/lastmile_qr_scan", "ios": "https://dc.lft.to/lastmile_qr_scan"}, "lon": -77.02688316666666, "fusion_lat": 0.0}, {"name": "2f687d2b8ffbdfb30d4e7ad4f6f47fe8", "fusion_lon": 0.0, "lat": 38.901968833333335, "is_reserved": 0, "type": "electric_scooter", "bike_id": "2f687d2b8ffbdfb30d4e7ad4f6f47fe8", "is_disabled": 0, "rental_uris": {"android": "https://dc.lft.to/lastmile_qr_scan", "ios": "https://dc.lft.to/lastmile_qr_scan"}, "lon": -77.02195233333333, "fusion_lat": 0.0}, {"name": "1ee169ecdb19d6617f1917d33ddd6a8d", "fusion_lon": 0.0, "lat": 38.927567, "is_reserved": 0, "type": "electric_scooter", "bike_id": "1ee169ecdb19d6617f1917d33ddd6a8d", "is_disabled": 0, "rental_uris": {"android": "https://dc.lft.to/lastmile_qr_scan", "ios": "https://dc.lft.to/lastmile_qr_scan"}, "lon": -77.03270433333333, "fusion_lat": 0.0}, {"name": "563cb1fa9d5ff7ace8348ade3b57caed", "fusion_lon": 0.0, "lat": 38.88752516666667, "is_reserved": 0, "type": "electric_scooter", "bike_id": "563cb1fa9d5ff7ace8348ade3b57caed", "is_disabled": 0, "rental_uris": {"android": "https://dc.lft.to/lastmile_qr_scan", "ios": "https://dc.lft.to/lastmile_qr_scan"}, "lon": -77.02733033333334, "fusion_lat": 0.0}, {"name": "050cea7e27ac61b04923cd57001c1f28", "fusion_lon": 0.0, "lat": 38.90324533333333, "is_reserved": 0, "type": "electric_scooter", "bike_id": "050cea7e27ac61b04923cd57001c1f28", "is_disabled": 0, "rental_uris": {"android": "https://dc.lft.to/lastmile_qr_scan", "ios": "https://dc.lft.to/lastmile_qr_scan"}, "lon": -76.97552533333334, "fusion_lat": 0.0}, {"name": "b38aa102b2fd4f29c1fa9e228d06a41f", "fusion_lon": 0.0, "lat": 38.91729133333333, "is_reserved": 0, "type": "electric_scooter", "bike_id": "b38aa102b2fd4f29c1fa9e228d06a41f", "is_disabled": 0, "rental_uris": {"android": "https://dc.lft.to/lastmile_qr_scan", "ios": "https://dc.lft.to/lastmile_qr_scan"}, "lon": -77.036601, "fusion_lat": 0.0}, {"name": "d2a71534f0739cb3346bf49222e26d1e", "fusion_lon": 0.0, "lat": 38.9001815, "is_reserved": 0, "type": "electric_scooter", "bike_id": "d2a71534f0739cb3346bf49222e26d1e", "is_disabled": 0, "rental_uris": {"android": "https://dc.lft.to/lastmile_qr_scan", "ios": "https://dc.lft.to/lastmile_qr_scan"}, "lon": -77.04504033333333, "fusion_lat": 0.0}, {"name": "66a6a255ef32a21e4ec43359a3e233b0", "fusion_lon": 0.0, "lat": 38.8985255, "is_reserved": 0, "type": "electric_scooter", "bike_id": "66a6a255ef32a21e4ec43359a3e233b0", "is_disabled": 0, "rental_uris": {"android": "https://dc.lft.to/lastmile_qr_scan", "ios": "https://dc.lft.to/lastmile_qr_scan"}, "lon": -76.98173016666667, "fusion_lat": 0.0}, {"name": "dea8209d7af1611ee71f0422b376c0ec", "fusion_lon": 0.0, "lat": 38.91132783333333, "is_reserved": 0, "type": "electric_scooter", "bike_id": "dea8209d7af1611ee71f0422b376c0ec", "is_disabled": 0, "rental_uris": {"android": "https://dc.lft.to/lastmile_qr_scan", "ios": "https://dc.lft.to/lastmile_qr_scan"}, "lon": -77.04415466666667, "fusion_lat": 0.0}, {"name": "cefd3e8ad1c3b45d21d881bf15307add", "fusion_lon": 0.0, "lat": 38.80904116666667, "is_reserved": 0, "type": "electric_bike", "bike_id": "cefd3e8ad1c3b45d21d881bf15307add", "is_disabled": 0, "rental_uris": {"android": "https://dc.lft.to/lastmile_qr_scan", "ios": "https://dc.lft.to/lastmile_qr_scan"}, "lon": -77.08667266666667, "fusion_lat": 0.0}, {"name": "91f3326d4f632bd1c8a08e9dfda0f430", "fusion_lon": 0.0, "lat": 38.9234585, "is_reserved": 0, "type": "electric_scooter", "bike_id": "91f3326d4f632bd1c8a08e9dfda0f430", "is_disabled": 0, "rental_uris": {"android": "https://dc.lft.to/lastmile_qr_scan", "ios": "https://dc.lft.to/lastmile_qr_scan"}, "lon": -77.05084333333333, "fusion_lat": 0.0}, {"name": "54cbe2330529ac793fbf737461aac992", "fusion_lon": 0.0, "lat": 38.863857333333335, "is_reserved": 0, "type": "electric_scooter", "bike_id": "54cbe2330529ac793fbf737461aac992", "is_disabled": 0, "rental_uris": {"android": "https://dc.lft.to/lastmile_qr_scan", "ios": "https://dc.lft.to/lastmile_qr_scan"}, "lon": -76.990432, "fusion_lat": 0.0}, {"name": "66070b6737c1022b6a03871dd23e2f4a", "fusion_lon": 0.0, "lat": 38.86514316666667, "is_reserved": 0, "type": "electric_scooter", "bike_id": "66070b6737c1022b6a03871dd23e2f4a", "is_disabled": 0, "rental_uris": {"android": "https://dc.lft.to/lastmile_qr_scan", "ios": "https://dc.lft.to/lastmile_qr_scan"}, "lon": -76.9902035, "fusion_lat": 0.0}, {"name": "8a88c521cae90bbd1436abc6f2fd5656", "fusion_lon": 0.0, "lat": 38.92220583333334, "is_reserved": 0, "type": "electric_scooter", "bike_id": "8a88c521cae90bbd1436abc6f2fd5656", "is_disabled": 0, "rental_uris": {"android": "https://dc.lft.to/lastmile_qr_scan", "ios": "https://dc.lft.to/lastmile_qr_scan"}, "lon": -77.0345865, "fusion_lat": 0.0}, {"name": "ad3c7b664ecc4bfce3fd7232c24beeea", "fusion_lon": 0.0, "lat": 38.928474666666666, "is_reserved": 0, "type": "electric_scooter", "bike_id": "ad3c7b664ecc4bfce3fd7232c24beeea", "is_disabled": 0, "rental_uris": {"android": "https://dc.lft.to/lastmile_qr_scan", "ios": "https://dc.lft.to/lastmile_qr_scan"}, "lon": -77.01393983333334, "fusion_lat": 0.0}, {"name": "5d6996a46ad171ce1ad68dfe262d0d01", "fusion_lon": 0.0, "lat": 38.886191333333336, "is_reserved": 0, "type": "electric_scooter", "bike_id": "5d6996a46ad171ce1ad68dfe262d0d01", "is_disabled": 0, "rental_uris": {"android": "https://dc.lft.to/lastmile_qr_scan", "ios": "https://dc.lft.to/lastmile_qr_scan"}, "lon": -76.955812, "fusion_lat": 0.0}, {"name": "513ed31a216d3f49f0921c65e3bed79b", "fusion_lon": 0.0, "lat": 38.80709516666667, "is_reserved": 0, "type": "electric_bike", "bike_id": "513ed31a216d3f49f0921c65e3bed79b", "is_disabled": 0, "rental_uris": {"android": "https://dc.lft.to/lastmile_qr_scan", "ios": "https://dc.lft.to/lastmile_qr_scan"}, "lon": -77.06170583333333, "fusion_lat": 0.0}, {"name": "f6be63dce7b8f7a5d31970d6afd6e262", "fusion_lon": 0.0, "lat": 38.884713833333336, "is_reserved": 0, "type": "electric_scooter", "bike_id": "f6be63dce7b8f7a5d31970d6afd6e262", "is_disabled": 0, "rental_uris": {"android": "https://dc.lft.to/lastmile_qr_scan", "ios": "https://dc.lft.to/lastmile_qr_scan"}, "lon": -77.03215266666666, "fusion_lat": 0.0}, {"name": "b7bb284f2d8d7c7a5bfd7d13917c5db5", "fusion_lon": 0.0, "lat": 38.8947, "is_reserved": 0, "type": "electric_scooter", "bike_id": "b7bb284f2d8d7c7a5bfd7d13917c5db5", "is_disabled": 0, "rental_uris": {"android": "https://dc.lft.to/lastmile_qr_scan", "ios": "https://dc.lft.to/lastmile_qr_scan"}, "lon": -77.0225085, "fusion_lat": 0.0}, {"name": "4e8a2c6b0c6cb4617a4a87876606e5b8", "fusion_lon": 0.0, "lat": 38.903886, "is_reserved": 0, "type": "electric_scooter", "bike_id": "4e8a2c6b0c6cb4617a4a87876606e5b8", "is_disabled": 0, "rental_uris": {"android": "https://dc.lft.to/lastmile_qr_scan", "ios": "https://dc.lft.to/lastmile_qr_scan"}, "lon": -77.03374866666667, "fusion_lat": 0.0}, {"name": "b5940c3bafc5d7c0f5dbdba6b2099f06", "fusion_lon": 0.0, "lat": 38.924364833333335, "is_reserved": 0, "type": "electric_scooter", "bike_id": "b5940c3bafc5d7c0f5dbdba6b2099f06", "is_disabled": 0, "rental_uris": {"android": "https://dc.lft.to/lastmile_qr_scan", "ios": "https://dc.lft.to/lastmile_qr_scan"}, "lon": -77.05214366666667, "fusion_lat": 0.0}, {"name": "3181ef18fc5f84c5cff111c46d8d389b", "fusion_lon": 0.0, "lat": 38.88688916666667, "is_reserved": 0, "type": "electric_scooter", "bike_id": "3181ef18fc5f84c5cff111c46d8d389b", "is_disabled": 0, "rental_uris": {"android": "https://dc.lft.to/lastmile_qr_scan", "ios": "https://dc.lft.to/lastmile_qr_scan"}, "lon": -76.97639733333334, "fusion_lat": 0.0}, {"name": "350f433cdad9c39a5599296db26e25c7", "fusion_lon": 0.0, "lat": 38.866973333333334, "is_reserved": 0, "type": "electric_scooter", "bike_id": "350f433cdad9c39a5599296db26e25c7", "is_disabled": 0, "rental_uris": {"android": "https://dc.lft.to/lastmile_qr_scan", "ios": "https://dc.lft.to/lastmile_qr_scan"}, "lon": -76.98088566666667, "fusion_lat": 0.0}, {"name": "8b8672aee19614b7259d28df97096f2a", "fusion_lon": 0.0, "lat": 38.9255545, "is_reserved": 0, "type": "electric_scooter", "bike_id": "8b8672aee19614b7259d28df97096f2a", "is_disabled": 0, "rental_uris": {"android": "https://dc.lft.to/lastmile_qr_scan", "ios": "https://dc.lft.to/lastmile_qr_scan"}, "lon": -77.043797, "fusion_lat": 0.0}, {"name": "999902bbe82991d0ca3b449ae35f0327", "fusion_lon": 0.0, "lat": 38.92459433333333, "is_reserved": 0, "type": "electric_scooter", "bike_id": "999902bbe82991d0ca3b449ae35f0327", "is_disabled": 0, "rental_uris": {"android": "https://dc.lft.to/lastmile_qr_scan", "ios": "https://dc.lft.to/lastmile_qr_scan"}, "lon": -77.08161083333333, "fusion_lat": 0.0}, {"name": "c223518791aee0d2c73bdbd363548ac0", "fusion_lon": 0.0, "lat": 38.9260475, "is_reserved": 0, "type": "electric_scooter", "bike_id": "c223518791aee0d2c73bdbd363548ac0", "is_disabled": 0, "rental_uris": {"android": "https://dc.lft.to/lastmile_qr_scan", "ios": "https://dc.lft.to/lastmile_qr_scan"}, "lon": -77.0241645, "fusion_lat": 0.0}, {"name": "24870cdd0c8f7592c6379941258fb0c0", "fusion_lon": 0.0, "lat": 38.92322566666667, "is_reserved": 0, "type": "electric_scooter", "bike_id": "24870cdd0c8f7592c6379941258fb0c0", "is_disabled": 0, "rental_uris": {"android": "https://dc.lft.to/lastmile_qr_scan", "ios": "https://dc.lft.to/lastmile_qr_scan"}, "lon": -77.0213645, "fusion_lat": 0.0}, {"name": "095e24160811042e680adb793d35147a", "fusion_lon": 0.0, "lat": 38.90434883333333, "is_reserved": 0, "type": "electric_scooter", "bike_id": "095e24160811042e680adb793d35147a", "is_disabled": 0, "rental_uris": {"android": "https://dc.lft.to/lastmile_qr_scan", "ios": "https://dc.lft.to/lastmile_qr_scan"}, "lon": -77.043613, "fusion_lat": 0.0}, {"name": "9ad52c3a9cbe8d7a35f6d314935d2ed4", "fusion_lon": 0.0, "lat": 38.900364, "is_reserved": 0, "type": "electric_scooter", "bike_id": "9ad52c3a9cbe8d7a35f6d314935d2ed4", "is_disabled": 0, "rental_uris": {"android": "https://dc.lft.to/lastmile_qr_scan", "ios": "https://dc.lft.to/lastmile_qr_scan"}, "lon": -77.00025783333334, "fusion_lat": 0.0}, {"name": "35183c36bd6deef54cb56a24a8a0eb67", "fusion_lon": 0.0, "lat": 38.925487, "is_reserved": 0, "type": "electric_scooter", "bike_id": "35183c36bd6deef54cb56a24a8a0eb67", "is_disabled": 0, "rental_uris": {"android": "https://dc.lft.to/lastmile_qr_scan", "ios": "https://dc.lft.to/lastmile_qr_scan"}, "lon": -76.97223916666667, "fusion_lat": 0.0}, {"name": "fa795cc40d771ac977297817887b0b9e", "fusion_lon": 0.0, "lat": 38.89171966666667, "is_reserved": 0, "type": "electric_bike", "bike_id": "fa795cc40d771ac977297817887b0b9e", "is_disabled": 0, "rental_uris": {"android": "https://dc.lft.to/lastmile_qr_scan", "ios": "https://dc.lft.to/lastmile_qr_scan"}, "lon": -77.019713, "fusion_lat": 0.0}, {"name": "8dde1ae7659949e6b0c9408a847e8db3", "fusion_lon": 0.0, "lat": 38.90386216666667, "is_reserved": 0, "type": "electric_scooter", "bike_id": "8dde1ae7659949e6b0c9408a847e8db3", "is_disabled": 0, "rental_uris": {"android": "https://dc.lft.to/lastmile_qr_scan", "ios": "https://dc.lft.to/lastmile_qr_scan"}, "lon": -77.04469633333333, "fusion_lat": 0.0}, {"name": "57c32c1ba91c182c18d88ad4d36fd31a", "fusion_lon": 0.0, "lat": 38.8650395, "is_reserved": 0, "type": "electric_scooter", "bike_id": "57c32c1ba91c182c18d88ad4d36fd31a", "is_disabled": 0, "rental_uris": {"android": "https://dc.lft.to/lastmile_qr_scan", "ios": "https://dc.lft.to/lastmile_qr_scan"}, "lon": -76.99003816666666, "fusion_lat": 0.0}, {"name": "08c0b382a8e003d385747524cf564a58", "fusion_lon": 0.0, "lat": 38.87209333333333, "is_reserved": 0, "type": "electric_scooter", "bike_id": "08c0b382a8e003d385747524cf564a58", "is_disabled": 0, "rental_uris": {"android": "https://dc.lft.to/lastmile_qr_scan", "ios": "https://dc.lft.to/lastmile_qr_scan"}, "lon": -77.00967533333333, "fusion_lat": 0.0}, {"name": "763b105b6e260d3e161e8d503e1a8810", "fusion_lon": 0.0, "lat": 38.919606, "is_reserved": 0, "type": "electric_scooter", "bike_id": "763b105b6e260d3e161e8d503e1a8810", "is_disabled": 0, "rental_uris": {"android": "https://dc.lft.to/lastmile_qr_scan", "ios": "https://dc.lft.to/lastmile_qr_scan"}, "lon": -77.03480016666667, "fusion_lat": 0.0}, {"name": "8de6bddad120db529a7b1f367c956413", "fusion_lon": 0.0, "lat": 38.927021333333336, "is_reserved": 0, "type": "electric_scooter", "bike_id": "8de6bddad120db529a7b1f367c956413", "is_disabled": 0, "rental_uris": {"android": "https://dc.lft.to/lastmile_qr_scan", "ios": "https://dc.lft.to/lastmile_qr_scan"}, "lon": -77.024281, "fusion_lat": 0.0}, {"name": "eb62c7afd7bf49eae863f542de763d26", "fusion_lon": 0.0, "lat": 38.9162285, "is_reserved": 0, "type": "electric_scooter", "bike_id": "eb62c7afd7bf49eae863f542de763d26", "is_disabled": 0, "rental_uris": {"android": "https://dc.lft.to/lastmile_qr_scan", "ios": "https://dc.lft.to/lastmile_qr_scan"}, "lon": -77.03855983333334, "fusion_lat": 0.0}, {"name": "0c8116e7e9428bf7592f8a5de50a76d0", "fusion_lon": 0.0, "lat": 38.923085, "is_reserved": 0, "type": "electric_bike", "bike_id": "0c8116e7e9428bf7592f8a5de50a76d0", "is_disabled": 0, "rental_uris": {"android": "https://dc.lft.to/lastmile_qr_scan", "ios": "https://dc.lft.to/lastmile_qr_scan"}, "lon": -77.02260166666667, "fusion_lat": 0.0}, {"name": "023639b54cb04b363f6c72d53ef90002", "fusion_lon": 0.0, "lat": 38.91691216666667, "is_reserved": 0, "type": "electric_scooter", "bike_id": "023639b54cb04b363f6c72d53ef90002", "is_disabled": 0, "rental_uris": {"android": "https://dc.lft.to/lastmile_qr_scan", "ios": "https://dc.lft.to/lastmile_qr_scan"}, "lon": -77.0251525, "fusion_lat": 0.0}, {"name": "749d7a4dd8c87bd1d9f938d51f480a3b", "fusion_lon": 0.0, "lat": 38.993432, "is_reserved": 0, "type": "electric_bike", "bike_id": "749d7a4dd8c87bd1d9f938d51f480a3b", "is_disabled": 0, "rental_uris": {"android": "https://dc.lft.to/lastmile_qr_scan", "ios": "https://dc.lft.to/lastmile_qr_scan"}, "lon": -77.11577533333333, "fusion_lat": 0.0}, {"name": "4c24aa8f4e70d49039d0f0df47fdb4b1", "fusion_lon": 0.0, "lat": 38.913428, "is_reserved": 0, "type": "electric_scooter", "bike_id": "4c24aa8f4e70d49039d0f0df47fdb4b1", "is_disabled": 0, "rental_uris": {"android": "https://dc.lft.to/lastmile_qr_scan", "ios": "https://dc.lft.to/lastmile_qr_scan"}, "lon": -77.03188383333334, "fusion_lat": 0.0}, {"name": "6c3a4db5afc6873e8c2f59d1dbc1426a", "fusion_lon": 0.0, "lat": 38.9418105, "is_reserved": 0, "type": "electric_scooter", "bike_id": "6c3a4db5afc6873e8c2f59d1dbc1426a", "is_disabled": 0, "rental_uris": {"android": "https://dc.lft.to/lastmile_qr_scan", "ios": "https://dc.lft.to/lastmile_qr_scan"}, "lon": -77.027945, "fusion_lat": 0.0}, {"name": "28585bc052fb467c0a11f32760bdb2ef", "fusion_lon": 0.0, "lat": 38.92213683333333, "is_reserved": 0, "type": "electric_scooter", "bike_id": "28585bc052fb467c0a11f32760bdb2ef", "is_disabled": 0, "rental_uris": {"android": "https://dc.lft.to/lastmile_qr_scan", "ios": "https://dc.lft.to/lastmile_qr_scan"}, "lon": -77.03293483333333, "fusion_lat": 0.0}, {"name": "0ac0331d0dd453267b5eacd504b76005", "fusion_lon": 0.0, "lat": 38.923575666666665, "is_reserved": 0, "type": "electric_scooter", "bike_id": "0ac0331d0dd453267b5eacd504b76005", "is_disabled": 0, "rental_uris": {"android": "https://dc.lft.to/lastmile_qr_scan", "ios": "https://dc.lft.to/lastmile_qr_scan"}, "lon": -77.05278166666666, "fusion_lat": 0.0}, {"name": "49a37d9bc3152f6dc9c88450f145507e", "fusion_lon": 0.0, "lat": 38.807598, "is_reserved": 0, "type": "electric_bike", "bike_id": "49a37d9bc3152f6dc9c88450f145507e", "is_disabled": 0, "rental_uris": {"android": "https://dc.lft.to/lastmile_qr_scan", "ios": "https://dc.lft.to/lastmile_qr_scan"}, "lon": -77.0946965, "fusion_lat": 0.0}, {"name": "e30c7920ce49f046cd69c717df4a3e50", "fusion_lon": 0.0, "lat": 38.94183816666666, "is_reserved": 0, "type": "electric_scooter", "bike_id": "e30c7920ce49f046cd69c717df4a3e50", "is_disabled": 0, "rental_uris": {"android": "https://dc.lft.to/lastmile_qr_scan", "ios": "https://dc.lft.to/lastmile_qr_scan"}, "lon": -77.024907, "fusion_lat": 0.0}, {"name": "07c94e1aeea0ea0fe42fe63c1fdd9356", "fusion_lon": 0.0, "lat": 38.915811833333336, "is_reserved": 0, "type": "electric_scooter", "bike_id": "07c94e1aeea0ea0fe42fe63c1fdd9356", "is_disabled": 0, "rental_uris": {"android": "https://dc.lft.to/lastmile_qr_scan", "ios": "https://dc.lft.to/lastmile_qr_scan"}, "lon": -77.01232, "fusion_lat": 0.0}, {"name": "02e8d67028ea6624da98d9c390f92970", "fusion_lon": 0.0, "lat": 38.905531333333336, "is_reserved": 0, "type": "electric_scooter", "bike_id": "02e8d67028ea6624da98d9c390f92970", "is_disabled": 0, "rental_uris": {"android": "https://dc.lft.to/lastmile_qr_scan", "ios": "https://dc.lft.to/lastmile_qr_scan"}, "lon": -77.0028435, "fusion_lat": 0.0}, {"name": "3770adb2de88a572e0a2d3a81bf383fd", "fusion_lon": 0.0, "lat": 38.88268166666667, "is_reserved": 0, "type": "electric_scooter", "bike_id": "3770adb2de88a572e0a2d3a81bf383fd", "is_disabled": 0, "rental_uris": {"android": "https://dc.lft.to/lastmile_qr_scan", "ios": "https://dc.lft.to/lastmile_qr_scan"}, "lon": -76.9925435, "fusion_lat": 0.0}, {"name": "27317224bced31ea04340a5cf094a39f", "fusion_lon": 0.0, "lat": 38.9257895, "is_reserved": 0, "type": "electric_scooter", "bike_id": "27317224bced31ea04340a5cf094a39f", "is_disabled": 0, "rental_uris": {"android": "https://dc.lft.to/lastmile_qr_scan", "ios": "https://dc.lft.to/lastmile_qr_scan"}, "lon": -77.052596, "fusion_lat": 0.0}, {"name": "13d587721134ae9842ce99d48dfdf560", "fusion_lon": 0.0, "lat": 38.9145825, "is_reserved": 0, "type": "electric_scooter", "bike_id": "13d587721134ae9842ce99d48dfdf560", "is_disabled": 0, "rental_uris": {"android": "https://dc.lft.to/lastmile_qr_scan", "ios": "https://dc.lft.to/lastmile_qr_scan"}, "lon": -77.07133083333333, "fusion_lat": 0.0}, {"name": "50b892070bdf33291fe089dcf31470b6", "fusion_lon": 0.0, "lat": 38.908323833333334, "is_reserved": 0, "type": "electric_scooter", "bike_id": "50b892070bdf33291fe089dcf31470b6", "is_disabled": 0, "rental_uris": {"android": "https://dc.lft.to/lastmile_qr_scan", "ios": "https://dc.lft.to/lastmile_qr_scan"}, "lon": -77.02394, "fusion_lat": 0.0}, {"name": "3afb634c7ecb44e9ba8ca03d05198a62", "fusion_lon": 0.0, "lat": 38.92406966666667, "is_reserved": 0, "type": "electric_scooter", "bike_id": "3afb634c7ecb44e9ba8ca03d05198a62", "is_disabled": 0, "rental_uris": {"android": "https://dc.lft.to/lastmile_qr_scan", "ios": "https://dc.lft.to/lastmile_qr_scan"}, "lon": -77.051737, "fusion_lat": 0.0}, {"name": "97a3e9a484b95e6fb60aaaf70c8a56ec", "fusion_lon": 0.0, "lat": 38.919442333333336, "is_reserved": 0, "type": "electric_scooter", "bike_id": "97a3e9a484b95e6fb60aaaf70c8a56ec", "is_disabled": 0, "rental_uris": {"android": "https://dc.lft.to/lastmile_qr_scan", "ios": "https://dc.lft.to/lastmile_qr_scan"}, "lon": -77.03200633333333, "fusion_lat": 0.0}, {"name": "fd7f3a9a95d40fa45a113c98c2fe7331", "fusion_lon": 0.0, "lat": 38.91637383333333, "is_reserved": 0, "type": "electric_scooter", "bike_id": "fd7f3a9a95d40fa45a113c98c2fe7331", "is_disabled": 0, "rental_uris": {"android": "https://dc.lft.to/lastmile_qr_scan", "ios": "https://dc.lft.to/lastmile_qr_scan"}, "lon": -77.039883, "fusion_lat": 0.0}, {"name": "a798beb220bfb2acce62182d06462957", "fusion_lon": 0.0, "lat": 38.91581716666666, "is_reserved": 0, "type": "electric_scooter", "bike_id": "a798beb220bfb2acce62182d06462957", "is_disabled": 0, "rental_uris": {"android": "https://dc.lft.to/lastmile_qr_scan", "ios": "https://dc.lft.to/lastmile_qr_scan"}, "lon": -77.012297, "fusion_lat": 0.0}, {"name": "f82fbe5bf35d4767d9803dce92c67f65", "fusion_lon": 0.0, "lat": 38.916920166666664, "is_reserved": 0, "type": "electric_scooter", "bike_id": "f82fbe5bf35d4767d9803dce92c67f65", "is_disabled": 0, "rental_uris": {"android": "https://dc.lft.to/lastmile_qr_scan", "ios": "https://dc.lft.to/lastmile_qr_scan"}, "lon": -77.01052416666667, "fusion_lat": 0.0}, {"name": "340f27bc0530172ef450a32a7765fa63", "fusion_lon": 0.0, "lat": 38.92860983333333, "is_reserved": 0, "type": "electric_scooter", "bike_id": "340f27bc0530172ef450a32a7765fa63", "is_disabled": 0, "rental_uris": {"android": "https://dc.lft.to/lastmile_qr_scan", "ios": "https://dc.lft.to/lastmile_qr_scan"}, "lon": -77.033026, "fusion_lat": 0.0}, {"name": "d717a455bf2ed34f7b3e9b60516c2f08", "fusion_lon": 0.0, "lat": 38.900934666666664, "is_reserved": 0, "type": "electric_scooter", "bike_id": "d717a455bf2ed34f7b3e9b60516c2f08", "is_disabled": 0, "rental_uris": {"android": "https://dc.lft.to/lastmile_qr_scan", "ios": "https://dc.lft.to/lastmile_qr_scan"}, "lon": -77.05028333333334, "fusion_lat": 0.0}, {"name": "7342707c7ecc2cfd6dcb2c24e8a5e88d", "fusion_lon": 0.0, "lat": 38.936727, "is_reserved": 0, "type": "electric_scooter", "bike_id": "7342707c7ecc2cfd6dcb2c24e8a5e88d", "is_disabled": 0, "rental_uris": {"android": "https://dc.lft.to/lastmile_qr_scan", "ios": "https://dc.lft.to/lastmile_qr_scan"}, "lon": -77.03589783333334, "fusion_lat": 0.0}, {"name": "c5addaeb047fad280197b84be284f385", "fusion_lon": 0.0, "lat": 38.92234916666666, "is_reserved": 0, "type": "electric_scooter", "bike_id": "c5addaeb047fad280197b84be284f385", "is_disabled": 0, "rental_uris": {"android": "https://dc.lft.to/lastmile_qr_scan", "ios": "https://dc.lft.to/lastmile_qr_scan"}, "lon": -77.028567, "fusion_lat": 0.0}, {"name": "8374ab1f353d921252360ace2c3a1d2a", "fusion_lon": 0.0, "lat": 38.90841233333333, "is_reserved": 0, "type": "electric_scooter", "bike_id": "8374ab1f353d921252360ace2c3a1d2a", "is_disabled": 0, "rental_uris": {"android": "https://dc.lft.to/lastmile_qr_scan", "ios": "https://dc.lft.to/lastmile_qr_scan"}, "lon": -77.04007583333333, "fusion_lat": 0.0}, {"name": "8f83e25b7e9bda3ba592cba05446dc2a", "fusion_lon": 0.0, "lat": 38.885989, "is_reserved": 0, "type": "electric_scooter", "bike_id": "8f83e25b7e9bda3ba592cba05446dc2a", "is_disabled": 0, "rental_uris": {"android": "https://dc.lft.to/lastmile_qr_scan", "ios": "https://dc.lft.to/lastmile_qr_scan"}, "lon": -76.99099183333334, "fusion_lat": 0.0}, {"name": "c98030eb6f8ab599d13c996a53735b44", "fusion_lon": 0.0, "lat": 38.9228635, "is_reserved": 0, "type": "electric_scooter", "bike_id": "c98030eb6f8ab599d13c996a53735b44", "is_disabled": 0, "rental_uris": {"android": "https://dc.lft.to/lastmile_qr_scan", "ios": "https://dc.lft.to/lastmile_qr_scan"}, "lon": -77.018458, "fusion_lat": 0.0}, {"name": "e5cc411314ab21a4e956bbb29304bb46", "fusion_lon": 0.0, "lat": 38.909676833333336, "is_reserved": 0, "type": "electric_scooter", "bike_id": "e5cc411314ab21a4e956bbb29304bb46", "is_disabled": 0, "rental_uris": {"android": "https://dc.lft.to/lastmile_qr_scan", "ios": "https://dc.lft.to/lastmile_qr_scan"}, "lon": -77.03598066666666, "fusion_lat": 0.0}, {"name": "4bd5933cc48de92036fd9affdc5805a0", "fusion_lon": 0.0, "lat": 38.90719383333333, "is_reserved": 0, "type": "electric_scooter", "bike_id": "4bd5933cc48de92036fd9affdc5805a0", "is_disabled": 0, "rental_uris": {"android": "https://dc.lft.to/lastmile_qr_scan", "ios": "https://dc.lft.to/lastmile_qr_scan"}, "lon": -77.0146705, "fusion_lat": 0.0}, {"name": "3f9004b7ed5436afc6cf7fe2df281159", "fusion_lon": 0.0, "lat": 38.8765995, "is_reserved": 0, "type": "electric_scooter", "bike_id": "3f9004b7ed5436afc6cf7fe2df281159", "is_disabled": 0, "rental_uris": {"android": "https://dc.lft.to/lastmile_qr_scan", "ios": "https://dc.lft.to/lastmile_qr_scan"}, "lon": -77.00315383333333, "fusion_lat": 0.0}, {"name": "6b60df4fbdfa2ba75594cd394f52739e", "fusion_lon": 0.0, "lat": 38.92211533333333, "is_reserved": 0, "type": "electric_scooter", "bike_id": "6b60df4fbdfa2ba75594cd394f52739e", "is_disabled": 0, "rental_uris": {"android": "https://dc.lft.to/lastmile_qr_scan", "ios": "https://dc.lft.to/lastmile_qr_scan"}, "lon": -76.98733566666667, "fusion_lat": 0.0}, {"name": "ae51a810701066d2d7e9418e9d21f088", "fusion_lon": 0.0, "lat": 38.892237333333334, "is_reserved": 0, "type": "electric_scooter", "bike_id": "ae51a810701066d2d7e9418e9d21f088", "is_disabled": 0, "rental_uris": {"android": "https://dc.lft.to/lastmile_qr_scan", "ios": "https://dc.lft.to/lastmile_qr_scan"}, "lon": -77.048639, "fusion_lat": 0.0}, {"name": "e36464a34b3a1254bad8223813b45a14", "fusion_lon": 0.0, "lat": 38.9099085, "is_reserved": 0, "type": "electric_scooter", "bike_id": "e36464a34b3a1254bad8223813b45a14", "is_disabled": 0, "rental_uris": {"android": "https://dc.lft.to/lastmile_qr_scan", "ios": "https://dc.lft.to/lastmile_qr_scan"}, "lon": -77.03837033333333, "fusion_lat": 0.0}, {"name": "67c6b0acf9dad1a967e806afa84b1d6c", "fusion_lon": 0.0, "lat": 38.922623333333334, "is_reserved": 0, "type": "electric_scooter", "bike_id": "67c6b0acf9dad1a967e806afa84b1d6c", "is_disabled": 0, "rental_uris": {"android": "https://dc.lft.to/lastmile_qr_scan", "ios": "https://dc.lft.to/lastmile_qr_scan"}, "lon": -77.02424916666666, "fusion_lat": 0.0}, {"name": "89497c0d3dc93a0eca99f3f8a9d5eea6", "fusion_lon": 0.0, "lat": 38.89473866666667, "is_reserved": 0, "type": "electric_scooter", "bike_id": "89497c0d3dc93a0eca99f3f8a9d5eea6", "is_disabled": 0, "rental_uris": {"android": "https://dc.lft.to/lastmile_qr_scan", "ios": "https://dc.lft.to/lastmile_qr_scan"}, "lon": -77.02258216666667, "fusion_lat": 0.0}, {"name": "09aa6162a4a1451af210f9914582b3b2", "fusion_lon": 0.0, "lat": 38.870135, "is_reserved": 0, "type": "electric_scooter", "bike_id": "09aa6162a4a1451af210f9914582b3b2", "is_disabled": 0, "rental_uris": {"android": "https://dc.lft.to/lastmile_qr_scan", "ios": "https://dc.lft.to/lastmile_qr_scan"}, "lon": -76.98086466666666, "fusion_lat": 0.0}, {"name": "97f5d00f93c933d8860519ad00198031", "fusion_lon": 0.0, "lat": 38.93080616666667, "is_reserved": 0, "type": "electric_scooter", "bike_id": "97f5d00f93c933d8860519ad00198031", "is_disabled": 0, "rental_uris": {"android": "https://dc.lft.to/lastmile_qr_scan", "ios": "https://dc.lft.to/lastmile_qr_scan"}, "lon": -77.02565883333334, "fusion_lat": 0.0}, {"name": "b7bebfa8a44068bb3721382966a7e373", "fusion_lon": 0.0, "lat": 38.885117, "is_reserved": 0, "type": "electric_scooter", "bike_id": "b7bebfa8a44068bb3721382966a7e373", "is_disabled": 0, "rental_uris": {"android": "https://dc.lft.to/lastmile_qr_scan", "ios": "https://dc.lft.to/lastmile_qr_scan"}, "lon": -76.9983625, "fusion_lat": 0.0}, {"name": "748ddbd43317e30067e3ab6d0ede860a", "fusion_lon": 0.0, "lat": 38.89838666666667, "is_reserved": 0, "type": "electric_scooter", "bike_id": "748ddbd43317e30067e3ab6d0ede860a", "is_disabled": 0, "rental_uris": {"android": "https://dc.lft.to/lastmile_qr_scan", "ios": "https://dc.lft.to/lastmile_qr_scan"}, "lon": -77.033444, "fusion_lat": 0.0}, {"name": "70e7f4395b98baaad8acfcab3c6e09db", "fusion_lon": 0.0, "lat": 38.93948866666667, "is_reserved": 0, "type": "electric_scooter", "bike_id": "70e7f4395b98baaad8acfcab3c6e09db", "is_disabled": 0, "rental_uris": {"android": "https://dc.lft.to/lastmile_qr_scan", "ios": "https://dc.lft.to/lastmile_qr_scan"}, "lon": -77.07255266666667, "fusion_lat": 0.0}, {"name": "9e76b02dadf90a4b7ff8b1f195fbab4a", "fusion_lon": 0.0, "lat": 38.90840133333333, "is_reserved": 0, "type": "electric_scooter", "bike_id": "9e76b02dadf90a4b7ff8b1f195fbab4a", "is_disabled": 0, "rental_uris": {"android": "https://dc.lft.to/lastmile_qr_scan", "ios": "https://dc.lft.to/lastmile_qr_scan"}, "lon": -77.03666416666667, "fusion_lat": 0.0}, {"name": "062e3c9f7dd0e4373a38116f9912c82f", "fusion_lon": 0.0, "lat": 38.89867133333333, "is_reserved": 0, "type": "electric_scooter", "bike_id": "062e3c9f7dd0e4373a38116f9912c82f", "is_disabled": 0, "rental_uris": {"android": "https://dc.lft.to/lastmile_qr_scan", "ios": "https://dc.lft.to/lastmile_qr_scan"}, "lon": -76.946619, "fusion_lat": 0.0}, {"name": "9968b73b6862985201fb08393e38c2ec", "fusion_lon": 0.0, "lat": 38.87206183333333, "is_reserved": 0, "type": "electric_scooter", "bike_id": "9968b73b6862985201fb08393e38c2ec", "is_disabled": 0, "rental_uris": {"android": "https://dc.lft.to/lastmile_qr_scan", "ios": "https://dc.lft.to/lastmile_qr_scan"}, "lon": -76.978348, "fusion_lat": 0.0}, {"name": "61b449a3d0b86597920c2bc8b0134200", "fusion_lon": 0.0, "lat": 38.94198983333333, "is_reserved": 0, "type": "electric_scooter", "bike_id": "61b449a3d0b86597920c2bc8b0134200", "is_disabled": 0, "rental_uris": {"android": "https://dc.lft.to/lastmile_qr_scan", "ios": "https://dc.lft.to/lastmile_qr_scan"}, "lon": -77.02515566666666, "fusion_lat": 0.0}, {"name": "710dcdf575c2fae725c4d40718484139", "fusion_lon": 0.0, "lat": 38.913382, "is_reserved": 0, "type": "electric_scooter", "bike_id": "710dcdf575c2fae725c4d40718484139", "is_disabled": 0, "rental_uris": {"android": "https://dc.lft.to/lastmile_qr_scan", "ios": "https://dc.lft.to/lastmile_qr_scan"}, "lon": -77.03199033333334, "fusion_lat": 0.0}, {"name": "5cd5db01f55bc27218855d1ce0f680eb", "fusion_lon": 0.0, "lat": 38.91243133333333, "is_reserved": 0, "type": "electric_scooter", "bike_id": "5cd5db01f55bc27218855d1ce0f680eb", "is_disabled": 0, "rental_uris": {"android": "https://dc.lft.to/lastmile_qr_scan", "ios": "https://dc.lft.to/lastmile_qr_scan"}, "lon": -77.03414466666666, "fusion_lat": 0.0}, {"name": "01853114327a2ad3022d2173dc688ac9", "fusion_lon": 0.0, "lat": 38.906927333333336, "is_reserved": 0, "type": "electric_scooter", "bike_id": "01853114327a2ad3022d2173dc688ac9", "is_disabled": 0, "rental_uris": {"android": "https://dc.lft.to/lastmile_qr_scan", "ios": "https://dc.lft.to/lastmile_qr_scan"}, "lon": -77.02589866666666, "fusion_lat": 0.0}, {"name": "a30be09c4fdd0fd05d4dc10471e2d914", "fusion_lon": 0.0, "lat": 38.909777, "is_reserved": 0, "type": "electric_scooter", "bike_id": "a30be09c4fdd0fd05d4dc10471e2d914", "is_disabled": 0, "rental_uris": {"android": "https://dc.lft.to/lastmile_qr_scan", "ios": "https://dc.lft.to/lastmile_qr_scan"}, "lon": -77.03443616666667, "fusion_lat": 0.0}, {"name": "0ab2223fc83e673d48855c71a0c372be", "fusion_lon": 0.0, "lat": 38.90554083333333, "is_reserved": 0, "type": "electric_scooter", "bike_id": "0ab2223fc83e673d48855c71a0c372be", "is_disabled": 0, "rental_uris": {"android": "https://dc.lft.to/lastmile_qr_scan", "ios": "https://dc.lft.to/lastmile_qr_scan"}, "lon": -77.039977, "fusion_lat": 0.0}, {"name": "6b9b24c1464f2021e3db6772f36d417f", "fusion_lon": 0.0, "lat": 38.907187, "is_reserved": 0, "type": "electric_scooter", "bike_id": "6b9b24c1464f2021e3db6772f36d417f", "is_disabled": 0, "rental_uris": {"android": "https://dc.lft.to/lastmile_qr_scan", "ios": "https://dc.lft.to/lastmile_qr_scan"}, "lon": -77.02545333333333, "fusion_lat": 0.0}, {"name": "005a7e0e614572ca75b5b140e9612742", "fusion_lon": 0.0, "lat": 38.91580416666667, "is_reserved": 0, "type": "electric_scooter", "bike_id": "005a7e0e614572ca75b5b140e9612742", "is_disabled": 0, "rental_uris": {"android": "https://dc.lft.to/lastmile_qr_scan", "ios": "https://dc.lft.to/lastmile_qr_scan"}, "lon": -77.01232933333333, "fusion_lat": 0.0}, {"name": "efe6557a123ec45140f7107c3a132f32", "fusion_lon": 0.0, "lat": 38.9787925, "is_reserved": 0, "type": "electric_bike", "bike_id": "efe6557a123ec45140f7107c3a132f32", "is_disabled": 0, "rental_uris": {"android": "https://dc.lft.to/lastmile_qr_scan", "ios": "https://dc.lft.to/lastmile_qr_scan"}, "lon": -77.060337, "fusion_lat": 0.0}, {"name": "50d46bba26564b6f934285455d48f89c", "fusion_lon": 0.0, "lat": 38.905010833333336, "is_reserved": 0, "type": "electric_scooter", "bike_id": "50d46bba26564b6f934285455d48f89c", "is_disabled": 0, "rental_uris": {"android": "https://dc.lft.to/lastmile_qr_scan", "ios": "https://dc.lft.to/lastmile_qr_scan"}, "lon": -77.06124683333333, "fusion_lat": 0.0}, {"name": "fa837834856611f284f5aad22f345ef7", "fusion_lon": 0.0, "lat": 38.905901, "is_reserved": 0, "type": "electric_scooter", "bike_id": "fa837834856611f284f5aad22f345ef7", "is_disabled": 0, "rental_uris": {"android": "https://dc.lft.to/lastmile_qr_scan", "ios": "https://dc.lft.to/lastmile_qr_scan"}, "lon": -77.05127683333333, "fusion_lat": 0.0}, {"name": "624cebd41fb4ed6dd466e3cf1971e27d", "fusion_lon": 0.0, "lat": 38.92143383333333, "is_reserved": 0, "type": "electric_scooter", "bike_id": "624cebd41fb4ed6dd466e3cf1971e27d", "is_disabled": 0, "rental_uris": {"android": "https://dc.lft.to/lastmile_qr_scan", "ios": "https://dc.lft.to/lastmile_qr_scan"}, "lon": -77.01814633333333, "fusion_lat": 0.0}, {"name": "6bc6b68727d69e2198b86b410e50ec63", "fusion_lon": 0.0, "lat": 38.859187166666665, "is_reserved": 0, "type": "electric_scooter", "bike_id": "6bc6b68727d69e2198b86b410e50ec63", "is_disabled": 0, "rental_uris": {"android": "https://dc.lft.to/lastmile_qr_scan", "ios": "https://dc.lft.to/lastmile_qr_scan"}, "lon": -76.989803, "fusion_lat": 0.0}, {"name": "c0009de60ac998d67a11506c6cb29427", "fusion_lon": 0.0, "lat": 38.92047566666667, "is_reserved": 0, "type": "electric_scooter", "bike_id": "c0009de60ac998d67a11506c6cb29427", "is_disabled": 0, "rental_uris": {"android": "https://dc.lft.to/lastmile_qr_scan", "ios": "https://dc.lft.to/lastmile_qr_scan"}, "lon": -76.9894955, "fusion_lat": 0.0}, {"name": "b5eb0ed1831d592f5918144f70232ed6", "fusion_lon": 0.0, "lat": 38.921484666666665, "is_reserved": 0, "type": "electric_scooter", "bike_id": "b5eb0ed1831d592f5918144f70232ed6", "is_disabled": 0, "rental_uris": {"android": "https://dc.lft.to/lastmile_qr_scan", "ios": "https://dc.lft.to/lastmile_qr_scan"}, "lon": -77.04343383333334, "fusion_lat": 0.0}, {"name": "a4c1cf1560f2d61b0cf2e7e4df978c3c", "fusion_lon": 0.0, "lat": 38.897464, "is_reserved": 0, "type": "electric_scooter", "bike_id": "a4c1cf1560f2d61b0cf2e7e4df978c3c", "is_disabled": 0, "rental_uris": {"android": "https://dc.lft.to/lastmile_qr_scan", "ios": "https://dc.lft.to/lastmile_qr_scan"}, "lon": -77.02979716666667, "fusion_lat": 0.0}, {"name": "98a08f6b1b9232c5e5776133134597f6", "fusion_lon": 0.0, "lat": 38.936355, "is_reserved": 0, "type": "electric_scooter", "bike_id": "98a08f6b1b9232c5e5776133134597f6", "is_disabled": 0, "rental_uris": {"android": "https://dc.lft.to/lastmile_qr_scan", "ios": "https://dc.lft.to/lastmile_qr_scan"}, "lon": -77.036587, "fusion_lat": 0.0}, {"name": "22f9b1a2713aa3f08541e5100a605e42", "fusion_lon": 0.0, "lat": 38.907711666666664, "is_reserved": 0, "type": "electric_scooter", "bike_id": "22f9b1a2713aa3f08541e5100a605e42", "is_disabled": 0, "rental_uris": {"android": "https://dc.lft.to/lastmile_qr_scan", "ios": "https://dc.lft.to/lastmile_qr_scan"}, "lon": -77.01219066666667, "fusion_lat": 0.0}, {"name": "c26641d6cd87d829829e0432d668bc03", "fusion_lon": 0.0, "lat": 38.90873966666667, "is_reserved": 0, "type": "electric_scooter", "bike_id": "c26641d6cd87d829829e0432d668bc03", "is_disabled": 0, "rental_uris": {"android": "https://dc.lft.to/lastmile_qr_scan", "ios": "https://dc.lft.to/lastmile_qr_scan"}, "lon": -77.07534816666667, "fusion_lat": 0.0}, {"name": "bd43de3be9dbf1ebc47fdeb59511fc3c", "fusion_lon": 0.0, "lat": 38.89900933333333, "is_reserved": 0, "type": "electric_scooter", "bike_id": "bd43de3be9dbf1ebc47fdeb59511fc3c", "is_disabled": 0, "rental_uris": {"android": "https://dc.lft.to/lastmile_qr_scan", "ios": "https://dc.lft.to/lastmile_qr_scan"}, "lon": -77.03952966666667, "fusion_lat": 0.0}, {"name": "eb4ce36e5edbaf7a542fbc2c67fa92a6", "fusion_lon": 0.0, "lat": 38.8990095, "is_reserved": 0, "type": "electric_scooter", "bike_id": "eb4ce36e5edbaf7a542fbc2c67fa92a6", "is_disabled": 0, "rental_uris": {"android": "https://dc.lft.to/lastmile_qr_scan", "ios": "https://dc.lft.to/lastmile_qr_scan"}, "lon": -76.983745, "fusion_lat": 0.0}, {"name": "62c274987d9d3b81a37ff8c91ce4f926", "fusion_lon": 0.0, "lat": 38.903668333333336, "is_reserved": 0, "type": "electric_scooter", "bike_id": "62c274987d9d3b81a37ff8c91ce4f926", "is_disabled": 0, "rental_uris": {"android": "https://dc.lft.to/lastmile_qr_scan", "ios": "https://dc.lft.to/lastmile_qr_scan"}, "lon": -77.0330545, "fusion_lat": 0.0}, {"name": "e7e70de66690b53a115f098db2872964", "fusion_lon": 0.0, "lat": 38.9269845, "is_reserved": 0, "type": "electric_scooter", "bike_id": "e7e70de66690b53a115f098db2872964", "is_disabled": 0, "rental_uris": {"android": "https://dc.lft.to/lastmile_qr_scan", "ios": "https://dc.lft.to/lastmile_qr_scan"}, "lon": -77.02131716666666, "fusion_lat": 0.0}, {"name": "5aab0a7125bc69d352cc797c2d314710", "fusion_lon": 0.0, "lat": 38.829413333333335, "is_reserved": 0, "type": "electric_bike", "bike_id": "5aab0a7125bc69d352cc797c2d314710", "is_disabled": 0, "rental_uris": {"android": "https://dc.lft.to/lastmile_qr_scan", "ios": "https://dc.lft.to/lastmile_qr_scan"}, "lon": -77.12356233333334, "fusion_lat": 0.0}, {"name": "99e9857a9fa7f1c2e641cf7a67c15de4", "fusion_lon": 0.0, "lat": 38.90023716666666, "is_reserved": 0, "type": "electric_scooter", "bike_id": "99e9857a9fa7f1c2e641cf7a67c15de4", "is_disabled": 0, "rental_uris": {"android": "https://dc.lft.to/lastmile_qr_scan", "ios": "https://dc.lft.to/lastmile_qr_scan"}, "lon": -76.9985545, "fusion_lat": 0.0}, {"name": "4701f5f2c5dca8d6bfe4f79ac8f2e73e", "fusion_lon": 0.0, "lat": 38.85064083333333, "is_reserved": 0, "type": "electric_scooter", "bike_id": "4701f5f2c5dca8d6bfe4f79ac8f2e73e", "is_disabled": 0, "rental_uris": {"android": "https://dc.lft.to/lastmile_qr_scan", "ios": "https://dc.lft.to/lastmile_qr_scan"}, "lon": -76.97007916666666, "fusion_lat": 0.0}, {"name": "1dd38e943aa195935fb92a3e3f345532", "fusion_lon": 0.0, "lat": 38.934472, "is_reserved": 0, "type": "electric_scooter", "bike_id": "1dd38e943aa195935fb92a3e3f345532", "is_disabled": 0, "rental_uris": {"android": "https://dc.lft.to/lastmile_qr_scan", "ios": "https://dc.lft.to/lastmile_qr_scan"}, "lon": -77.02725566666666, "fusion_lat": 0.0}, {"name": "98e7f5f1dffe16efd25be8072ec9e266", "fusion_lon": 0.0, "lat": 38.92419683333333, "is_reserved": 0, "type": "electric_scooter", "bike_id": "98e7f5f1dffe16efd25be8072ec9e266", "is_disabled": 0, "rental_uris": {"android": "https://dc.lft.to/lastmile_qr_scan", "ios": "https://dc.lft.to/lastmile_qr_scan"}, "lon": -77.0194935, "fusion_lat": 0.0}, {"name": "ac856d010f38830250f68213c5ebd1c1", "fusion_lon": 0.0, "lat": 38.883734, "is_reserved": 0, "type": "electric_scooter", "bike_id": "ac856d010f38830250f68213c5ebd1c1", "is_disabled": 0, "rental_uris": {"android": "https://dc.lft.to/lastmile_qr_scan", "ios": "https://dc.lft.to/lastmile_qr_scan"}, "lon": -76.995195, "fusion_lat": 0.0}, {"name": "e40890f3c2bd4fb06fe450a21c605ae6", "fusion_lon": 0.0, "lat": 38.89309383333333, "is_reserved": 0, "type": "electric_scooter", "bike_id": "e40890f3c2bd4fb06fe450a21c605ae6", "is_disabled": 0, "rental_uris": {"android": "https://dc.lft.to/lastmile_qr_scan", "ios": "https://dc.lft.to/lastmile_qr_scan"}, "lon": -76.93975333333333, "fusion_lat": 0.0}, {"name": "5ae619da177f3c0777da2904a8e82a9b", "fusion_lon": 0.0, "lat": 38.901371, "is_reserved": 0, "type": "electric_scooter", "bike_id": "5ae619da177f3c0777da2904a8e82a9b", "is_disabled": 0, "rental_uris": {"android": "https://dc.lft.to/lastmile_qr_scan", "ios": "https://dc.lft.to/lastmile_qr_scan"}, "lon": -77.0130925, "fusion_lat": 0.0}, {"name": "8651c6b8e977ebd601a1dbdd8cfa9ac2", "fusion_lon": 0.0, "lat": 38.9288055, "is_reserved": 0, "type": "electric_scooter", "bike_id": "8651c6b8e977ebd601a1dbdd8cfa9ac2", "is_disabled": 0, "rental_uris": {"android": "https://dc.lft.to/lastmile_qr_scan", "ios": "https://dc.lft.to/lastmile_qr_scan"}, "lon": -77.04045316666667, "fusion_lat": 0.0}, {"name": "14cef7a0f8ac0e98ecd6eb52d6ae72b4", "fusion_lon": 0.0, "lat": 38.91342183333333, "is_reserved": 0, "type": "electric_scooter", "bike_id": "14cef7a0f8ac0e98ecd6eb52d6ae72b4", "is_disabled": 0, "rental_uris": {"android": "https://dc.lft.to/lastmile_qr_scan", "ios": "https://dc.lft.to/lastmile_qr_scan"}, "lon": -77.031956, "fusion_lat": 0.0}, {"name": "631a92221748d46cedc14e9ad23a3579", "fusion_lon": 0.0, "lat": 38.9098745, "is_reserved": 0, "type": "electric_scooter", "bike_id": "631a92221748d46cedc14e9ad23a3579", "is_disabled": 0, "rental_uris": {"android": "https://dc.lft.to/lastmile_qr_scan", "ios": "https://dc.lft.to/lastmile_qr_scan"}, "lon": -77.03198783333333, "fusion_lat": 0.0}, {"name": "c3e930bf4ea9fc694bbfb8f45b4c9987", "fusion_lon": 0.0, "lat": 38.934438, "is_reserved": 0, "type": "electric_scooter", "bike_id": "c3e930bf4ea9fc694bbfb8f45b4c9987", "is_disabled": 0, "rental_uris": {"android": "https://dc.lft.to/lastmile_qr_scan", "ios": "https://dc.lft.to/lastmile_qr_scan"}, "lon": -77.03299916666667, "fusion_lat": 0.0}, {"name": "39dda46964e81325a4d16da6fcd6aecf", "fusion_lon": 0.0, "lat": 38.915638, "is_reserved": 0, "type": "electric_scooter", "bike_id": "39dda46964e81325a4d16da6fcd6aecf", "is_disabled": 0, "rental_uris": {"android": "https://dc.lft.to/lastmile_qr_scan", "ios": "https://dc.lft.to/lastmile_qr_scan"}, "lon": -77.03169033333333, "fusion_lat": 0.0}, {"name": "1ba0bad52274ddef76544766b13fbff2", "fusion_lon": 0.0, "lat": 38.9244645, "is_reserved": 0, "type": "electric_bike", "bike_id": "1ba0bad52274ddef76544766b13fbff2", "is_disabled": 0, "rental_uris": {"android": "https://dc.lft.to/lastmile_qr_scan", "ios": "https://dc.lft.to/lastmile_qr_scan"}, "lon": -77.2257205, "fusion_lat": 0.0}, {"name": "abfa4b4f5206311841203aea1298be8b", "fusion_lon": 0.0, "lat": 38.90074166666667, "is_reserved": 0, "type": "electric_scooter", "bike_id": "abfa4b4f5206311841203aea1298be8b", "is_disabled": 0, "rental_uris": {"android": "https://dc.lft.to/lastmile_qr_scan", "ios": "https://dc.lft.to/lastmile_qr_scan"}, "lon": -77.03080883333334, "fusion_lat": 0.0}, {"name": "6c161c4f4c35655c5385373bf908fa5e", "fusion_lon": 0.0, "lat": 38.908309833333334, "is_reserved": 0, "type": "electric_scooter", "bike_id": "6c161c4f4c35655c5385373bf908fa5e", "is_disabled": 0, "rental_uris": {"android": "https://dc.lft.to/lastmile_qr_scan", "ios": "https://dc.lft.to/lastmile_qr_scan"}, "lon": -77.04328116666667, "fusion_lat": 0.0}, {"name": "83e7ef5c54be06f8d05252230f791a3e", "fusion_lon": 0.0, "lat": 38.8813075, "is_reserved": 0, "type": "electric_scooter", "bike_id": "83e7ef5c54be06f8d05252230f791a3e", "is_disabled": 0, "rental_uris": {"android": "https://dc.lft.to/lastmile_qr_scan", "ios": "https://dc.lft.to/lastmile_qr_scan"}, "lon": -77.01340233333333, "fusion_lat": 0.0}, {"name": "7d29b814301492bbc2add038a0541338", "fusion_lon": 0.0, "lat": 38.8746415, "is_reserved": 0, "type": "electric_scooter", "bike_id": "7d29b814301492bbc2add038a0541338", "is_disabled": 0, "rental_uris": {"android": "https://dc.lft.to/lastmile_qr_scan", "ios": "https://dc.lft.to/lastmile_qr_scan"}, "lon": -77.00081183333333, "fusion_lat": 0.0}, {"name": "3ff329cfc40e7fe8f7e8eca49acb90da", "fusion_lon": 0.0, "lat": 38.914134833333335, "is_reserved": 0, "type": "electric_scooter", "bike_id": "3ff329cfc40e7fe8f7e8eca49acb90da", "is_disabled": 0, "rental_uris": {"android": "https://dc.lft.to/lastmile_qr_scan", "ios": "https://dc.lft.to/lastmile_qr_scan"}, "lon": -77.0223275, "fusion_lat": 0.0}, {"name": "dc6998884a66cb9f6cbcfe5dfac9c6e6", "fusion_lon": 0.0, "lat": 38.9132075, "is_reserved": 0, "type": "electric_scooter", "bike_id": "dc6998884a66cb9f6cbcfe5dfac9c6e6", "is_disabled": 0, "rental_uris": {"android": "https://dc.lft.to/lastmile_qr_scan", "ios": "https://dc.lft.to/lastmile_qr_scan"}, "lon": -76.98500533333333, "fusion_lat": 0.0}, {"name": "54cfb7315d141848b7b608290d8b249a", "fusion_lon": 0.0, "lat": 38.918336333333336, "is_reserved": 0, "type": "electric_scooter", "bike_id": "54cfb7315d141848b7b608290d8b249a", "is_disabled": 0, "rental_uris": {"android": "https://dc.lft.to/lastmile_qr_scan", "ios": "https://dc.lft.to/lastmile_qr_scan"}, "lon": -77.0452115, "fusion_lat": 0.0}, {"name": "aaf2655734b83ca5c159fa3a55bc50c8", "fusion_lon": 0.0, "lat": 38.928877, "is_reserved": 0, "type": "electric_scooter", "bike_id": "aaf2655734b83ca5c159fa3a55bc50c8", "is_disabled": 0, "rental_uris": {"android": "https://dc.lft.to/lastmile_qr_scan", "ios": "https://dc.lft.to/lastmile_qr_scan"}, "lon": -77.03726166666667, "fusion_lat": 0.0}, {"name": "2b02edb2674172418b21314a472df679", "fusion_lon": 0.0, "lat": 38.8873905, "is_reserved": 0, "type": "electric_scooter", "bike_id": "2b02edb2674172418b21314a472df679", "is_disabled": 0, "rental_uris": {"android": "https://dc.lft.to/lastmile_qr_scan", "ios": "https://dc.lft.to/lastmile_qr_scan"}, "lon": -77.0153395, "fusion_lat": 0.0}, {"name": "cbbac403b5fe4f97bf108392816fbfb0", "fusion_lon": 0.0, "lat": 38.8983885, "is_reserved": 0, "type": "electric_scooter", "bike_id": "cbbac403b5fe4f97bf108392816fbfb0", "is_disabled": 0, "rental_uris": {"android": "https://dc.lft.to/lastmile_qr_scan", "ios": "https://dc.lft.to/lastmile_qr_scan"}, "lon": -77.03329866666667, "fusion_lat": 0.0}, {"name": "1feefffe3069fae5dfdb2d19b08a5bf1", "fusion_lon": 0.0, "lat": 38.907834666666666, "is_reserved": 0, "type": "electric_scooter", "bike_id": "1feefffe3069fae5dfdb2d19b08a5bf1", "is_disabled": 0, "rental_uris": {"android": "https://dc.lft.to/lastmile_qr_scan", "ios": "https://dc.lft.to/lastmile_qr_scan"}, "lon": -77.011091, "fusion_lat": 0.0}, {"name": "3c226b5d52be621f4da5c254cce47f77", "fusion_lon": 0.0, "lat": 38.93382916666667, "is_reserved": 0, "type": "electric_scooter", "bike_id": "3c226b5d52be621f4da5c254cce47f77", "is_disabled": 0, "rental_uris": {"android": "https://dc.lft.to/lastmile_qr_scan", "ios": "https://dc.lft.to/lastmile_qr_scan"}, "lon": -77.03099216666666, "fusion_lat": 0.0}, {"name": "ef44f6f217c3885c64f4200468ec4554", "fusion_lon": 0.0, "lat": 38.903747333333335, "is_reserved": 0, "type": "electric_scooter", "bike_id": "ef44f6f217c3885c64f4200468ec4554", "is_disabled": 0, "rental_uris": {"android": "https://dc.lft.to/lastmile_qr_scan", "ios": "https://dc.lft.to/lastmile_qr_scan"}, "lon": -77.0448515, "fusion_lat": 0.0}, {"name": "7dd2bd04b7251016a690a416e8eebfb8", "fusion_lon": 0.0, "lat": 38.901151, "is_reserved": 0, "type": "electric_scooter", "bike_id": "7dd2bd04b7251016a690a416e8eebfb8", "is_disabled": 0, "rental_uris": {"android": "https://dc.lft.to/lastmile_qr_scan", "ios": "https://dc.lft.to/lastmile_qr_scan"}, "lon": -77.03389366666667, "fusion_lat": 0.0}, {"name": "28f466c316430e6474527d2a41b24037", "fusion_lon": 0.0, "lat": 38.89684283333333, "is_reserved": 0, "type": "electric_scooter", "bike_id": "28f466c316430e6474527d2a41b24037", "is_disabled": 0, "rental_uris": {"android": "https://dc.lft.to/lastmile_qr_scan", "ios": "https://dc.lft.to/lastmile_qr_scan"}, "lon": -77.032244, "fusion_lat": 0.0}, {"name": "7d2742d2621a28703c0206995035b5f5", "fusion_lon": 0.0, "lat": 38.89358416666666, "is_reserved": 0, "type": "electric_scooter", "bike_id": "7d2742d2621a28703c0206995035b5f5", "is_disabled": 0, "rental_uris": {"android": "https://dc.lft.to/lastmile_qr_scan", "ios": "https://dc.lft.to/lastmile_qr_scan"}, "lon": -77.00341033333333, "fusion_lat": 0.0}, {"name": "34a0d88396696d5ef8b3fe09bb4208ce", "fusion_lon": 0.0, "lat": 38.9336125, "is_reserved": 0, "type": "electric_scooter", "bike_id": "34a0d88396696d5ef8b3fe09bb4208ce", "is_disabled": 0, "rental_uris": {"android": "https://dc.lft.to/lastmile_qr_scan", "ios": "https://dc.lft.to/lastmile_qr_scan"}, "lon": -77.08856066666667, "fusion_lat": 0.0}, {"name": "c709b4708cb49f7caee1fc25777f0168", "fusion_lon": 0.0, "lat": 38.90571583333333, "is_reserved": 0, "type": "electric_scooter", "bike_id": "c709b4708cb49f7caee1fc25777f0168", "is_disabled": 0, "rental_uris": {"android": "https://dc.lft.to/lastmile_qr_scan", "ios": "https://dc.lft.to/lastmile_qr_scan"}, "lon": -77.03446866666667, "fusion_lat": 0.0}, {"name": "5e87fadf5558dcbf0dc5b44bf92d9dd7", "fusion_lon": 0.0, "lat": 38.902553166666664, "is_reserved": 0, "type": "electric_scooter", "bike_id": "5e87fadf5558dcbf0dc5b44bf92d9dd7", "is_disabled": 0, "rental_uris": {"android": "https://dc.lft.to/lastmile_qr_scan", "ios": "https://dc.lft.to/lastmile_qr_scan"}, "lon": -77.02823633333334, "fusion_lat": 0.0}, {"name": "e927f7087794276cd1b1e3f799a41f80", "fusion_lon": 0.0, "lat": 38.9094355, "is_reserved": 0, "type": "electric_scooter", "bike_id": "e927f7087794276cd1b1e3f799a41f80", "is_disabled": 0, "rental_uris": {"android": "https://dc.lft.to/lastmile_qr_scan", "ios": "https://dc.lft.to/lastmile_qr_scan"}, "lon": -77.03209483333333, "fusion_lat": 0.0}, {"name": "01cac85b134d9383955fd5281cde37cc", "fusion_lon": 0.0, "lat": 38.90386616666667, "is_reserved": 0, "type": "electric_scooter", "bike_id": "01cac85b134d9383955fd5281cde37cc", "is_disabled": 0, "rental_uris": {"android": "https://dc.lft.to/lastmile_qr_scan", "ios": "https://dc.lft.to/lastmile_qr_scan"}, "lon": -77.04475666666667, "fusion_lat": 0.0}, {"name": "161b2f5cd66399f2a514dac095e5d089", "fusion_lon": 0.0, "lat": 38.8859045, "is_reserved": 0, "type": "electric_scooter", "bike_id": "161b2f5cd66399f2a514dac095e5d089", "is_disabled": 0, "rental_uris": {"android": "https://dc.lft.to/lastmile_qr_scan", "ios": "https://dc.lft.to/lastmile_qr_scan"}, "lon": -76.9961815, "fusion_lat": 0.0}, {"name": "5b39cb06e3c8bde97be86d257c8f11c0", "fusion_lon": 0.0, "lat": 38.90365333333333, "is_reserved": 0, "type": "electric_scooter", "bike_id": "5b39cb06e3c8bde97be86d257c8f11c0", "is_disabled": 0, "rental_uris": {"android": "https://dc.lft.to/lastmile_qr_scan", "ios": "https://dc.lft.to/lastmile_qr_scan"}, "lon": -77.03727183333334, "fusion_lat": 0.0}, {"name": "b9a2b10cbdd9fd1e54b42cd1989a5cec", "fusion_lon": 0.0, "lat": 38.92504266666667, "is_reserved": 0, "type": "electric_scooter", "bike_id": "b9a2b10cbdd9fd1e54b42cd1989a5cec", "is_disabled": 0, "rental_uris": {"android": "https://dc.lft.to/lastmile_qr_scan", "ios": "https://dc.lft.to/lastmile_qr_scan"}, "lon": -77.02276916666666, "fusion_lat": 0.0}, {"name": "13f0513cd056d92408bfe4775d59a642", "fusion_lon": 0.0, "lat": 38.877984833333336, "is_reserved": 0, "type": "electric_scooter", "bike_id": "13f0513cd056d92408bfe4775d59a642", "is_disabled": 0, "rental_uris": {"android": "https://dc.lft.to/lastmile_qr_scan", "ios": "https://dc.lft.to/lastmile_qr_scan"}, "lon": -76.93083966666667, "fusion_lat": 0.0}, {"name": "03e58d64aff4b150df4235e4901fd39f", "fusion_lon": 0.0, "lat": 38.9208375, "is_reserved": 0, "type": "electric_scooter", "bike_id": "03e58d64aff4b150df4235e4901fd39f", "is_disabled": 0, "rental_uris": {"android": "https://dc.lft.to/lastmile_qr_scan", "ios": "https://dc.lft.to/lastmile_qr_scan"}, "lon": -77.024034, "fusion_lat": 0.0}, {"name": "df4dce399ba09a6d6b8612fd80215ed7", "fusion_lon": 0.0, "lat": 38.90747916666667, "is_reserved": 0, "type": "electric_scooter", "bike_id": "df4dce399ba09a6d6b8612fd80215ed7", "is_disabled": 0, "rental_uris": {"android": "https://dc.lft.to/lastmile_qr_scan", "ios": "https://dc.lft.to/lastmile_qr_scan"}, "lon": -77.0346985, "fusion_lat": 0.0}, {"name": "c5145189b57d41000c48357571c3bfe2", "fusion_lon": 0.0, "lat": 38.91786916666667, "is_reserved": 0, "type": "electric_scooter", "bike_id": "c5145189b57d41000c48357571c3bfe2", "is_disabled": 0, "rental_uris": {"android": "https://dc.lft.to/lastmile_qr_scan", "ios": "https://dc.lft.to/lastmile_qr_scan"}, "lon": -77.0421385, "fusion_lat": 0.0}, {"name": "2dd16fcbad2363c1f5baefd4e21900a5", "fusion_lon": 0.0, "lat": 38.91346983333333, "is_reserved": 0, "type": "electric_scooter", "bike_id": "2dd16fcbad2363c1f5baefd4e21900a5", "is_disabled": 0, "rental_uris": {"android": "https://dc.lft.to/lastmile_qr_scan", "ios": "https://dc.lft.to/lastmile_qr_scan"}, "lon": -77.00918433333334, "fusion_lat": 0.0}, {"name": "60f4cecdf2df530c0ec27aac1f5bc1c9", "fusion_lon": 0.0, "lat": 38.94439933333334, "is_reserved": 0, "type": "electric_scooter", "bike_id": "60f4cecdf2df530c0ec27aac1f5bc1c9", "is_disabled": 0, "rental_uris": {"android": "https://dc.lft.to/lastmile_qr_scan", "ios": "https://dc.lft.to/lastmile_qr_scan"}, "lon": -77.06353683333333, "fusion_lat": 0.0}, {"name": "e0cc2de2f96c70d0e6ebae84bb0f274d", "fusion_lon": 0.0, "lat": 38.9193585, "is_reserved": 0, "type": "electric_scooter", "bike_id": "e0cc2de2f96c70d0e6ebae84bb0f274d", "is_disabled": 0, "rental_uris": {"android": "https://dc.lft.to/lastmile_qr_scan", "ios": "https://dc.lft.to/lastmile_qr_scan"}, "lon": -77.04559266666666, "fusion_lat": 0.0}, {"name": "a53cde6771eda1778230513a08979e25", "fusion_lon": 0.0, "lat": 38.929741, "is_reserved": 0, "type": "electric_scooter", "bike_id": "a53cde6771eda1778230513a08979e25", "is_disabled": 0, "rental_uris": {"android": "https://dc.lft.to/lastmile_qr_scan", "ios": "https://dc.lft.to/lastmile_qr_scan"}, "lon": -77.03267966666667, "fusion_lat": 0.0}, {"name": "9ac58855e9edce176d666125a031316e", "fusion_lon": 0.0, "lat": 38.92586133333333, "is_reserved": 0, "type": "electric_scooter", "bike_id": "9ac58855e9edce176d666125a031316e", "is_disabled": 0, "rental_uris": {"android": "https://dc.lft.to/lastmile_qr_scan", "ios": "https://dc.lft.to/lastmile_qr_scan"}, "lon": -77.04413316666667, "fusion_lat": 0.0}, {"name": "627a5afe3ea834defe8de89a1dc8f6b6", "fusion_lon": 0.0, "lat": 38.92128666666667, "is_reserved": 0, "type": "electric_scooter", "bike_id": "627a5afe3ea834defe8de89a1dc8f6b6", "is_disabled": 0, "rental_uris": {"android": "https://dc.lft.to/lastmile_qr_scan", "ios": "https://dc.lft.to/lastmile_qr_scan"}, "lon": -76.99248683333333, "fusion_lat": 0.0}, {"name": "2b2a413689a3869d60e2c81aa4b2c458", "fusion_lon": 0.0, "lat": 38.8922195, "is_reserved": 0, "type": "electric_scooter", "bike_id": "2b2a413689a3869d60e2c81aa4b2c458", "is_disabled": 0, "rental_uris": {"android": "https://dc.lft.to/lastmile_qr_scan", "ios": "https://dc.lft.to/lastmile_qr_scan"}, "lon": -77.04262083333333, "fusion_lat": 0.0}, {"name": "f405ec1678ca73959560bb9df0d71270", "fusion_lon": 0.0, "lat": 38.919242833333335, "is_reserved": 0, "type": "electric_scooter", "bike_id": "f405ec1678ca73959560bb9df0d71270", "is_disabled": 0, "rental_uris": {"android": "https://dc.lft.to/lastmile_qr_scan", "ios": "https://dc.lft.to/lastmile_qr_scan"}, "lon": -77.02573116666667, "fusion_lat": 0.0}, {"name": "d9dc6c8284308b91559de6fbe3fb9630", "fusion_lon": 0.0, "lat": 38.911986666666664, "is_reserved": 0, "type": "electric_scooter", "bike_id": "d9dc6c8284308b91559de6fbe3fb9630", "is_disabled": 0, "rental_uris": {"android": "https://dc.lft.to/lastmile_qr_scan", "ios": "https://dc.lft.to/lastmile_qr_scan"}, "lon": -77.04521483333333, "fusion_lat": 0.0}, {"name": "c64d83c7a8aaa08bb6f11b048543b206", "fusion_lon": 0.0, "lat": 38.901694, "is_reserved": 0, "type": "electric_scooter", "bike_id": "c64d83c7a8aaa08bb6f11b048543b206", "is_disabled": 0, "rental_uris": {"android": "https://dc.lft.to/lastmile_qr_scan", "ios": "https://dc.lft.to/lastmile_qr_scan"}, "lon": -77.0244325, "fusion_lat": 0.0}, {"name": "f545efabcb8f6af1684904bf04a3693f", "fusion_lon": 0.0, "lat": 38.929237, "is_reserved": 0, "type": "electric_scooter", "bike_id": "f545efabcb8f6af1684904bf04a3693f", "is_disabled": 0, "rental_uris": {"android": "https://dc.lft.to/lastmile_qr_scan", "ios": "https://dc.lft.to/lastmile_qr_scan"}, "lon": -77.03484133333333, "fusion_lat": 0.0}, {"name": "d23d54fed64b5114c4ba0999bda444ce", "fusion_lon": 0.0, "lat": 38.93677133333333, "is_reserved": 0, "type": "electric_scooter", "bike_id": "d23d54fed64b5114c4ba0999bda444ce", "is_disabled": 0, "rental_uris": {"android": "https://dc.lft.to/lastmile_qr_scan", "ios": "https://dc.lft.to/lastmile_qr_scan"}, "lon": -77.03590216666667, "fusion_lat": 0.0}, {"name": "af3b3e9db1f9a619b8246e9cda56ce94", "fusion_lon": 0.0, "lat": 38.8979365, "is_reserved": 0, "type": "electric_scooter", "bike_id": "af3b3e9db1f9a619b8246e9cda56ce94", "is_disabled": 0, "rental_uris": {"android": "https://dc.lft.to/lastmile_qr_scan", "ios": "https://dc.lft.to/lastmile_qr_scan"}, "lon": -77.011987, "fusion_lat": 0.0}, {"name": "a3fe79cfe069380e8d42140418920235", "fusion_lon": 0.0, "lat": 38.924478666666666, "is_reserved": 0, "type": "electric_scooter", "bike_id": "a3fe79cfe069380e8d42140418920235", "is_disabled": 0, "rental_uris": {"android": "https://dc.lft.to/lastmile_qr_scan", "ios": "https://dc.lft.to/lastmile_qr_scan"}, "lon": -77.04110333333334, "fusion_lat": 0.0}, {"name": "2868f43455c9a3014ac99b8dad24b457", "fusion_lon": 0.0, "lat": 38.91911316666667, "is_reserved": 0, "type": "electric_scooter", "bike_id": "2868f43455c9a3014ac99b8dad24b457", "is_disabled": 0, "rental_uris": {"android": "https://dc.lft.to/lastmile_qr_scan", "ios": "https://dc.lft.to/lastmile_qr_scan"}, "lon": -77.02618233333334, "fusion_lat": 0.0}, {"name": "9c4e2f633a089b58ac202ac47c04f7ff", "fusion_lon": 0.0, "lat": 38.90023133333333, "is_reserved": 0, "type": "electric_scooter", "bike_id": "9c4e2f633a089b58ac202ac47c04f7ff", "is_disabled": 0, "rental_uris": {"android": "https://dc.lft.to/lastmile_qr_scan", "ios": "https://dc.lft.to/lastmile_qr_scan"}, "lon": -77.00672933333334, "fusion_lat": 0.0}, {"name": "728636f8733cda318d829a4ff4a9bea4", "fusion_lon": 0.0, "lat": 38.91257383333333, "is_reserved": 0, "type": "electric_scooter", "bike_id": "728636f8733cda318d829a4ff4a9bea4", "is_disabled": 0, "rental_uris": {"android": "https://dc.lft.to/lastmile_qr_scan", "ios": "https://dc.lft.to/lastmile_qr_scan"}, "lon": -77.04438833333333, "fusion_lat": 0.0}, {"name": "e286b47fcf1600146042c6df92681436", "fusion_lon": 0.0, "lat": 38.8830985, "is_reserved": 0, "type": "electric_scooter", "bike_id": "e286b47fcf1600146042c6df92681436", "is_disabled": 0, "rental_uris": {"android": "https://dc.lft.to/lastmile_qr_scan", "ios": "https://dc.lft.to/lastmile_qr_scan"}, "lon": -77.0005215, "fusion_lat": 0.0}, {"name": "06ddde25454e08dd3077b6cf87fcaa4f", "fusion_lon": 0.0, "lat": 38.89993716666667, "is_reserved": 0, "type": "electric_scooter", "bike_id": "06ddde25454e08dd3077b6cf87fcaa4f", "is_disabled": 0, "rental_uris": {"android": "https://dc.lft.to/lastmile_qr_scan", "ios": "https://dc.lft.to/lastmile_qr_scan"}, "lon": -77.0101965, "fusion_lat": 0.0}, {"name": "e1142d9fc527bb9e7afbc011c338a155", "fusion_lon": 0.0, "lat": 38.87454916666667, "is_reserved": 0, "type": "electric_scooter", "bike_id": "e1142d9fc527bb9e7afbc011c338a155", "is_disabled": 0, "rental_uris": {"android": "https://dc.lft.to/lastmile_qr_scan", "ios": "https://dc.lft.to/lastmile_qr_scan"}, "lon": -77.0094275, "fusion_lat": 0.0}, {"name": "53b18061806e0acff392eb77008fbbd4", "fusion_lon": 0.0, "lat": 38.8431535, "is_reserved": 0, "type": "electric_scooter", "bike_id": "53b18061806e0acff392eb77008fbbd4", "is_disabled": 0, "rental_uris": {"android": "https://dc.lft.to/lastmile_qr_scan", "ios": "https://dc.lft.to/lastmile_qr_scan"}, "lon": -76.99933366666667, "fusion_lat": 0.0}, {"name": "bf7413c4a9c75718f557ed78eecc57fa", "fusion_lon": 0.0, "lat": 38.9178885, "is_reserved": 0, "type": "electric_scooter", "bike_id": "bf7413c4a9c75718f557ed78eecc57fa", "is_disabled": 0, "rental_uris": {"android": "https://dc.lft.to/lastmile_qr_scan", "ios": "https://dc.lft.to/lastmile_qr_scan"}, "lon": -77.02305866666667, "fusion_lat": 0.0}, {"name": "ed30831af46943ac72d2645b4ff37365", "fusion_lon": 0.0, "lat": 38.8768685, "is_reserved": 0, "type": "electric_scooter", "bike_id": "ed30831af46943ac72d2645b4ff37365", "is_disabled": 0, "rental_uris": {"android": "https://dc.lft.to/lastmile_qr_scan", "ios": "https://dc.lft.to/lastmile_qr_scan"}, "lon": -77.00452733333333, "fusion_lat": 0.0}, {"name": "993b3803e9f6afe6c8b3e44bd33cdc37", "fusion_lon": 0.0, "lat": 38.912519333333336, "is_reserved": 0, "type": "electric_scooter", "bike_id": "993b3803e9f6afe6c8b3e44bd33cdc37", "is_disabled": 0, "rental_uris": {"android": "https://dc.lft.to/lastmile_qr_scan", "ios": "https://dc.lft.to/lastmile_qr_scan"}, "lon": -77.04469233333333, "fusion_lat": 0.0}, {"name": "a7ed36f48522af6382032c766c9f3599", "fusion_lon": 0.0, "lat": 38.924205, "is_reserved": 0, "type": "electric_scooter", "bike_id": "a7ed36f48522af6382032c766c9f3599", "is_disabled": 0, "rental_uris": {"android": "https://dc.lft.to/lastmile_qr_scan", "ios": "https://dc.lft.to/lastmile_qr_scan"}, "lon": -77.01950816666667, "fusion_lat": 0.0}, {"name": "ccc951b5c37a06ac72a3258282408ede", "fusion_lon": 0.0, "lat": 38.91925616666666, "is_reserved": 0, "type": "electric_scooter", "bike_id": "ccc951b5c37a06ac72a3258282408ede", "is_disabled": 0, "rental_uris": {"android": "https://dc.lft.to/lastmile_qr_scan", "ios": "https://dc.lft.to/lastmile_qr_scan"}, "lon": -77.03180816666666, "fusion_lat": 0.0}, {"name": "384489c68c3e16e7259816be8b1426f0", "fusion_lon": 0.0, "lat": 38.85517333333333, "is_reserved": 0, "type": "electric_bike", "bike_id": "384489c68c3e16e7259816be8b1426f0", "is_disabled": 0, "rental_uris": {"android": "https://dc.lft.to/lastmile_qr_scan", "ios": "https://dc.lft.to/lastmile_qr_scan"}, "lon": -76.98442383333334, "fusion_lat": 0.0}, {"name": "e71877e4324e67d68ea6f2fd87341ee4", "fusion_lon": 0.0, "lat": 38.88938483333333, "is_reserved": 0, "type": "electric_scooter", "bike_id": "e71877e4324e67d68ea6f2fd87341ee4", "is_disabled": 0, "rental_uris": {"android": "https://dc.lft.to/lastmile_qr_scan", "ios": "https://dc.lft.to/lastmile_qr_scan"}, "lon": -77.008212, "fusion_lat": 0.0}, {"name": "376b03bb57d68578de41c99d2290e180", "fusion_lon": 0.0, "lat": 38.892219, "is_reserved": 0, "type": "electric_scooter", "bike_id": "376b03bb57d68578de41c99d2290e180", "is_disabled": 0, "rental_uris": {"android": "https://dc.lft.to/lastmile_qr_scan", "ios": "https://dc.lft.to/lastmile_qr_scan"}, "lon": -77.0480445, "fusion_lat": 0.0}, {"name": "502dda197ccbbc67f6d9c309327d2b82", "fusion_lon": 0.0, "lat": 38.923145166666664, "is_reserved": 0, "type": "electric_scooter", "bike_id": "502dda197ccbbc67f6d9c309327d2b82", "is_disabled": 0, "rental_uris": {"android": "https://dc.lft.to/lastmile_qr_scan", "ios": "https://dc.lft.to/lastmile_qr_scan"}, "lon": -77.04180216666667, "fusion_lat": 0.0}, {"name": "0b7dd9cc169469f6001e7b3daf437134", "fusion_lon": 0.0, "lat": 38.904997333333334, "is_reserved": 0, "type": "electric_scooter", "bike_id": "0b7dd9cc169469f6001e7b3daf437134", "is_disabled": 0, "rental_uris": {"android": "https://dc.lft.to/lastmile_qr_scan", "ios": "https://dc.lft.to/lastmile_qr_scan"}, "lon": -77.0295245, "fusion_lat": 0.0}, {"name": "0ff2e535e945ad6f3aeb876009833966", "fusion_lon": 0.0, "lat": 38.918416, "is_reserved": 0, "type": "electric_scooter", "bike_id": "0ff2e535e945ad6f3aeb876009833966", "is_disabled": 0, "rental_uris": {"android": "https://dc.lft.to/lastmile_qr_scan", "ios": "https://dc.lft.to/lastmile_qr_scan"}, "lon": -77.01746733333333, "fusion_lat": 0.0}, {"name": "912cc0a18c9484e9a505ea9cfc871eb8", "fusion_lon": 0.0, "lat": 38.89658133333333, "is_reserved": 0, "type": "electric_scooter", "bike_id": "912cc0a18c9484e9a505ea9cfc871eb8", "is_disabled": 0, "rental_uris": {"android": "https://dc.lft.to/lastmile_qr_scan", "ios": "https://dc.lft.to/lastmile_qr_scan"}, "lon": -77.0272785, "fusion_lat": 0.0}, {"name": "9b42d36c707cb4a5f6dd4bfde69c32b9", "fusion_lon": 0.0, "lat": 38.909636166666665, "is_reserved": 0, "type": "electric_scooter", "bike_id": "9b42d36c707cb4a5f6dd4bfde69c32b9", "is_disabled": 0, "rental_uris": {"android": "https://dc.lft.to/lastmile_qr_scan", "ios": "https://dc.lft.to/lastmile_qr_scan"}, "lon": -77.0423625, "fusion_lat": 0.0}, {"name": "f2e8d904d0ff0e4defe7de102d9f8b2d", "fusion_lon": 0.0, "lat": 38.900777, "is_reserved": 0, "type": "electric_scooter", "bike_id": "f2e8d904d0ff0e4defe7de102d9f8b2d", "is_disabled": 0, "rental_uris": {"android": "https://dc.lft.to/lastmile_qr_scan", "ios": "https://dc.lft.to/lastmile_qr_scan"}, "lon": -77.0474795, "fusion_lat": 0.0}, {"name": "9ef4c6050efc057cea567c614fdfce30", "fusion_lon": 0.0, "lat": 38.942847666666665, "is_reserved": 0, "type": "electric_bike", "bike_id": "9ef4c6050efc057cea567c614fdfce30", "is_disabled": 0, "rental_uris": {"android": "https://dc.lft.to/lastmile_qr_scan", "ios": "https://dc.lft.to/lastmile_qr_scan"}, "lon": -76.98787566666667, "fusion_lat": 0.0}, {"name": "fdaa51e3659085760607a3553f234fc7", "fusion_lon": 0.0, "lat": 38.8887415, "is_reserved": 0, "type": "electric_scooter", "bike_id": "fdaa51e3659085760607a3553f234fc7", "is_disabled": 0, "rental_uris": {"android": "https://dc.lft.to/lastmile_qr_scan", "ios": "https://dc.lft.to/lastmile_qr_scan"},