{"data": {"bikes": [{"type": "electric_scooter", "name": "dd98f38520110abe81a113ac9465dcce", "fusion_lon": 0.0, "is_reserved": 0, "lon": -76.99694916666667, "fusion_lat": 0.0, "is_disabled": 0, "bike_id": "dd98f38520110abe81a113ac9465dcce", "lat": 38.88428583333334, "rental_uris": {"ios": "https://dc.lft.to/lastmile_qr_scan", "android": "https://dc.lft.to/lastmile_qr_scan"}}, {"type": "electric_scooter", "name": "a258cfb6e2b3c6446caa72df9b3d9f7c", "fusion_lon": 0.0, "is_reserved": 0, "lon": -77.03857916666666, "fusion_lat": 0.0, "is_disabled": 0, "bike_id": "a258cfb6e2b3c6446caa72df9b3d9f7c", "lat": 38.90358883333333, "rental_uris": {"ios": "https://dc.lft.to/lastmile_qr_scan", "android": "https://dc.lft.to/lastmile_qr_scan"}}, {"type": "electric_scooter", "name": "8ec18066e8a26591e45517d0bbd2e38c", "fusion_lon": 0.0, "is_reserved": 0, "lon": -77.02820116666666, "fusion_lat": 0.0, "is_disabled": 0, "bike_id": "8ec18066e8a26591e45517d0bbd2e38c", "lat": 38.917454, "rental_uris": {"ios": "https://dc.lft.to/lastmile_qr_scan", "android": "https://dc.lft.to/lastmile_qr_scan"}}, {"type": "electric_scooter", "name": "70a2661faf7df8132c71ab1ff53e6264", "fusion_lon": 0.0, "is_reserved": 0, "lon": -77.009412, "fusion_lat": 0.0, "is_disabled": 0, "bike_id": "70a2661faf7df8132c71ab1ff53e6264", "lat": 38.874591833333334, "rental_uris": {"ios": "https://dc.lft.to/lastmile_qr_scan", "android": "https://dc.lft.to/lastmile_qr_scan"}}, {"type": "electric_scooter", "name": "698a73b18ae9b973ea4637b0d2fc2bca", "fusion_lon": 0.0, "is_reserved": 0, "lon": -77.03817833333333, "fusion_lat": 0.0, "is_disabled": 0, "bike_id": "698a73b18ae9b973ea4637b0d2fc2bca", "lat": 38.907195, "rental_uris": {"ios": "https://dc.lft.to/lastmile_qr_scan", "android": "https://dc.lft.to/lastmile_qr_scan"}}, {"type": "electric_scooter", "name": "9be789c5a2d33aa0ee4944f9a28eca1b", "fusion_lon": 0.0, "is_reserved": 0, "lon": -77.029729, "fusion_lat": 0.0, "is_disabled": 0, "bike_id": "9be789c5a2d33aa0ee4944f9a28eca1b", "lat": 38.9168375, "rental_uris": {"ios": "https://dc.lft.to/lastmile_qr_scan", "android": "https://dc.lft.to/lastmile_qr_scan"}}, {"type": "electric_scooter", "name": "e02015feaba7ef588f4f38d79506f475", "fusion_lon": 0.0, "is_reserved": 0, "lon": -77.03997233333334, "fusion_lat": 0.0, "is_disabled": 0, "bike_id": "e02015feaba7ef588f4f38d79506f475", "lat": 38.93428683333333, "rental_uris": {"ios": "https://dc.lft.to/lastmile_qr_scan", "android": "https://dc.lft.to/lastmile_qr_scan"}}, {"type": "electric_scooter", "name": "4ca2006cd235196c19ee623375bf4652", "fusion_lon": 0.0, "is_reserved": 0, "lon": -77.03186983333333, "fusion_lat": 0.0, "is_disabled": 0, "bike_id": "4ca2006cd235196c19ee623375bf4652", "lat": 38.913525166666666, "rental_uris": {"ios": "https://dc.lft.to/lastmile_qr_scan", "android": "https://dc.lft.to/lastmile_qr_scan"}}, {"type": "electric_scooter", "name": "cb90596ef2d302dd908c59f1d08e9218", "fusion_lon": 0.0, "is_reserved": 0, "lon": -76.99926716666667, "fusion_lat": 0.0, "is_disabled": 0, "bike_id": "cb90596ef2d302dd908c59f1d08e9218", "lat": 38.843149333333336, "rental_uris": {"ios": "https://dc.lft.to/lastmile_qr_scan", "android": "https://dc.lft.to/lastmile_qr_scan"}}, {"type": "electric_scooter", "name": "71e26a338b53c24150a9d09ba25d1fcc", "fusion_lon": 0.0, "is_reserved": 0, "lon": -77.01560183333333, "fusion_lat": 0.0, "is_disabled": 0, "bike_id": "71e26a338b53c24150a9d09ba25d1fcc", "lat": 38.891761333333335, "rental_uris": {"ios": "https://dc.lft.to/lastmile_qr_scan", "android": "https://dc.lft.to/lastmile_qr_scan"}}, {"type": "electric_scooter", "name": "48dfdf013753239611aa2b91998791f1", "fusion_lon": 0.0, "is_reserved": 0, "lon": -77.01891783333333, "fusion_lat": 0.0, "is_disabled": 0, "bike_id": "48dfdf013753239611aa2b91998791f1", "lat": 38.89980833333333, "rental_uris": {"ios": "https://dc.lft.to/lastmile_qr_scan", "android": "https://dc.lft.to/lastmile_qr_scan"}}, {"type": "electric_scooter", "name": "c5d69e316f259c1c22e06e4b1b6ea628", "fusion_lon": 0.0, "is_reserved": 0, "lon": -77.017735, "fusion_lat": 0.0, "is_disabled": 0, "bike_id": "c5d69e316f259c1c22e06e4b1b6ea628", "lat": 38.877073, "rental_uris": {"ios": "https://dc.lft.to/lastmile_qr_scan", "android": "https://dc.lft.to/lastmile_qr_scan"}}, {"type": "electric_scooter", "name": "fe846817e36272d3fda85a8b04bb2cfa", "fusion_lon": 0.0, "is_reserved": 0, "lon": -77.01646583333333, "fusion_lat": 0.0, "is_disabled": 0, "bike_id": "fe846817e36272d3fda85a8b04bb2cfa", "lat": 38.928953666666665, "rental_uris": {"ios": "https://dc.lft.to/lastmile_qr_scan", "android": "https://dc.lft.to/lastmile_qr_scan"}}, {"type": "electric_scooter", "name": "d878f5794be5bfa70a23115d9976a7c2", "fusion_lon": 0.0, "is_reserved": 0, "lon": -76.93221166666666, "fusion_lat": 0.0, "is_disabled": 0, "bike_id": "d878f5794be5bfa70a23115d9976a7c2", "lat": 38.880638166666664, "rental_uris": {"ios": "https://dc.lft.to/lastmile_qr_scan", "android": "https://dc.lft.to/lastmile_qr_scan"}}, {"type": "electric_scooter", "name": "c417f411c9458a8c892afb90ee747c31", "fusion_lon": 0.0, "is_reserved": 0, "lon": -77.01596433333333, "fusion_lat": 0.0, "is_disabled": 0, "bike_id": "c417f411c9458a8c892afb90ee747c31", "lat": 38.898048333333335, "rental_uris": {"ios": "https://dc.lft.to/lastmile_qr_scan", "android": "https://dc.lft.to/lastmile_qr_scan"}}, {"type": "electric_scooter", "name": "0d037bc8527e628fc19ddb527d83c021", "fusion_lon": 0.0, "is_reserved": 0, "lon": -77.0357375, "fusion_lat": 0.0, "is_disabled": 0, "bike_id": "0d037bc8527e628fc19ddb527d83c021", "lat": 38.90966216666666, "rental_uris": {"ios": "https://dc.lft.to/lastmile_qr_scan", "android": "https://dc.lft.to/lastmile_qr_scan"}}, {"type": "electric_scooter", "name": "bbbdc37770179f4eaf9f2692a412c094", "fusion_lon": 0.0, "is_reserved": 0, "lon": -77.03197316666666, "fusion_lat": 0.0, "is_disabled": 0, "bike_id": "bbbdc37770179f4eaf9f2692a412c094", "lat": 38.923177, "rental_uris": {"ios": "https://dc.lft.to/lastmile_qr_scan", "android": "https://dc.lft.to/lastmile_qr_scan"}}, {"type": "electric_scooter", "name": "6a7765f59d5fd2cc0c4a27aedf78cb45", "fusion_lon": 0.0, "is_reserved": 0, "lon": -77.042595, "fusion_lat": 0.0, "is_disabled": 0, "bike_id": "6a7765f59d5fd2cc0c4a27aedf78cb45", "lat": 38.9084515, "rental_uris": {"ios": "https://dc.lft.to/lastmile_qr_scan", "android": "https://dc.lft.to/lastmile_qr_scan"}}, {"type": "electric_scooter", "name": "6b20c496dac0248ab3cc2ab893c3ba65", "fusion_lon": 0.0, "is_reserved": 0, "lon": -77.04583883333333, "fusion_lat": 0.0, "is_disabled": 0, "bike_id": "6b20c496dac0248ab3cc2ab893c3ba65", "lat": 38.90359516666667, "rental_uris": {"ios": "https://dc.lft.to/lastmile_qr_scan", "android": "https://dc.lft.to/lastmile_qr_scan"}}, {"type": "electric_scooter", "name": "19fc175726f5848c184c96fe4769d5f1", "fusion_lon": 0.0, "is_reserved": 0, "lon": -76.98979816666667, "fusion_lat": 0.0, "is_disabled": 0, "bike_id": "19fc175726f5848c184c96fe4769d5f1", "lat": 38.859263166666665, "rental_uris": {"ios": "https://dc.lft.to/lastmile_qr_scan", "android": "https://dc.lft.to/lastmile_qr_scan"}}, {"type": "electric_scooter", "name": "569431e24ed97e7c254b953bec0ccdd0", "fusion_lon": 0.0, "is_reserved": 0, "lon": -77.02960266666666, "fusion_lat": 0.0, "is_disabled": 0, "bike_id": "569431e24ed97e7c254b953bec0ccdd0", "lat": 38.88433083333334, "rental_uris": {"ios": "https://dc.lft.to/lastmile_qr_scan", "android": "https://dc.lft.to/lastmile_qr_scan"}}, {"type": "electric_scooter", "name": "02820a019cb033cd0e3827c3bd01979b", "fusion_lon": 0.0, "is_reserved": 0, "lon": -76.96903166666667, "fusion_lat": 0.0, "is_disabled": 0, "bike_id": "02820a019cb033cd0e3827c3bd01979b", "lat": 38.871672, "rental_uris": {"ios": "https://dc.lft.to/lastmile_qr_scan", "android": "https://dc.lft.to/lastmile_qr_scan"}}, {"type": "electric_scooter", "name": "38bd453baf52aa79174733e6baa9f6a5", "fusion_lon": 0.0, "is_reserved": 0, "lon": -76.973405, "fusion_lat": 0.0, "is_disabled": 0, "bike_id": "38bd453baf52aa79174733e6baa9f6a5", "lat": 38.89725, "rental_uris": {"ios": "https://dc.lft.to/lastmile_qr_scan", "android": "https://dc.lft.to/lastmile_qr_scan"}}, {"type": "electric_scooter", "name": "b2c841192a9241c9dec51cd2e273f83a", "fusion_lon": 0.0, "is_reserved": 0, "lon": -77.02059033333333, "fusion_lat": 0.0, "is_disabled": 0, "bike_id": "b2c841192a9241c9dec51cd2e273f83a", "lat": 38.957344, "rental_uris": {"ios": "https://dc.lft.to/lastmile_qr_scan", "android": "https://dc.lft.to/lastmile_qr_scan"}}, {"type": "electric_bike", "name": "438bda9d82df2506dae5f74ba43c745a", "fusion_lon": 0.0, "is_reserved": 0, "lon": -77.0271535, "fusion_lat": 0.0, "is_disabled": 0, "bike_id": "438bda9d82df2506dae5f74ba43c745a", "lat": 38.93156466666667, "rental_uris": {"ios": "https://dc.lft.to/lastmile_qr_scan", "android": "https://dc.lft.to/lastmile_qr_scan"}}, {"type": "electric_scooter", "name": "c0fd746c121f891bc509c72745cf902c", "fusion_lon": 0.0, "is_reserved": 0, "lon": -77.04487133333333, "fusion_lat": 0.0, "is_disabled": 0, "bike_id": "c0fd746c121f891bc509c72745cf902c", "lat": 38.90649883333333, "rental_uris": {"ios": "https://dc.lft.to/lastmile_qr_scan", "android": "https://dc.lft.to/lastmile_qr_scan"}}, {"type": "electric_bike", "name": "ef5749f482e45e54b86dc6cea17e8d16", "fusion_lon": 0.0, "is_reserved": 0, "lon": -76.97213733333334, "fusion_lat": 0.0, "is_disabled": 0, "bike_id": "ef5749f482e45e54b86dc6cea17e8d16", "lat": 38.983682333333334, "rental_uris": {"ios": "https://dc.lft.to/lastmile_qr_scan", "android": "https://dc.lft.to/lastmile_qr_scan"}}, {"type": "electric_scooter", "name": "2f92d7765dfc60939fc42165107e23a5", "fusion_lon": 0.0, "is_reserved": 0, "lon": -77.05063283333334, "fusion_lat": 0.0, "is_disabled": 0, "bike_id": "2f92d7765dfc60939fc42165107e23a5", "lat": 38.924141666666664, "rental_uris": {"ios": "https://dc.lft.to/lastmile_qr_scan", "android": "https://dc.lft.to/lastmile_qr_scan"}}, {"type": "electric_scooter", "name": "bf4ad4a117caffb0d3470b23c301059f", "fusion_lon": 0.0, "is_reserved": 0, "lon": -77.03914866666666, "fusion_lat": 0.0, "is_disabled": 0, "bike_id": "bf4ad4a117caffb0d3470b23c301059f", "lat": 38.92583233333333, "rental_uris": {"ios": "https://dc.lft.to/lastmile_qr_scan", "android": "https://dc.lft.to/lastmile_qr_scan"}}, {"type": "electric_scooter", "name": "8faaf5a39659039e31edf53032b30295", "fusion_lon": 0.0, "is_reserved": 0, "lon": -76.99820566666666, "fusion_lat": 0.0, "is_disabled": 0, "bike_id": "8faaf5a39659039e31edf53032b30295", "lat": 38.885312666666664, "rental_uris": {"ios": "https://dc.lft.to/lastmile_qr_scan", "android": "https://dc.lft.to/lastmile_qr_scan"}}, {"type": "electric_scooter", "name": "b498e176929602815ce213b45dc32f65", "fusion_lon": 0.0, "is_reserved": 0, "lon": -77.03442416666667, "fusion_lat": 0.0, "is_disabled": 0, "bike_id": "b498e176929602815ce213b45dc32f65", "lat": 38.908769666666664, "rental_uris": {"ios": "https://dc.lft.to/lastmile_qr_scan", "android": "https://dc.lft.to/lastmile_qr_scan"}}, {"type": "electric_scooter", "name": "073376256694e9473ba37a8e1c988d54", "fusion_lon": 0.0, "is_reserved": 0, "lon": -77.033256, "fusion_lat": 0.0, "is_disabled": 0, "bike_id": "073376256694e9473ba37a8e1c988d54", "lat": 38.908651666666664, "rental_uris": {"ios": "https://dc.lft.to/lastmile_qr_scan", "android": "https://dc.lft.to/lastmile_qr_scan"}}, {"type": "electric_scooter", "name": "f84fc2f17c7dce93c5f71e63b864d454", "fusion_lon": 0.0, "is_reserved": 0, "lon": -77.056616, "fusion_lat": 0.0, "is_disabled": 0, "bike_id": "f84fc2f17c7dce93c5f71e63b864d454", "lat": 38.89545866666667, "rental_uris": {"ios": "https://dc.lft.to/lastmile_qr_scan", "android": "https://dc.lft.to/lastmile_qr_scan"}}, {"type": "electric_scooter", "name": "9def475cfda5125afb3aef3358a5b695", "fusion_lon": 0.0, "is_reserved": 0, "lon": -77.0211, "fusion_lat": 0.0, "is_disabled": 0, "bike_id": "9def475cfda5125afb3aef3358a5b695", "lat": 38.911195666666664, "rental_uris": {"ios": "https://dc.lft.to/lastmile_qr_scan", "android": "https://dc.lft.to/lastmile_qr_scan"}}, {"type": "electric_bike", "name": "7f434ee686745cd67f1b915d49571029", "fusion_lon": 0.0, "is_reserved": 0, "lon": -77.02982716666666, "fusion_lat": 0.0, "is_disabled": 0, "bike_id": "7f434ee686745cd67f1b915d49571029", "lat": 38.9370465, "rental_uris": {"ios": "https://dc.lft.to/lastmile_qr_scan", "android": "https://dc.lft.to/lastmile_qr_scan"}}, {"type": "electric_scooter", "name": "009bdf993e0418de6d3a3e6899296a50", "fusion_lon": 0.0, "is_reserved": 0, "lon": -77.04207833333334, "fusion_lat": 0.0, "is_disabled": 0, "bike_id": "009bdf993e0418de6d3a3e6899296a50", "lat": 38.90600466666667, "rental_uris": {"ios": "https://dc.lft.to/lastmile_qr_scan", "android": "https://dc.lft.to/lastmile_qr_scan"}}, {"type": "electric_scooter", "name": "f42844e79c91aca6182f9ac70b4ec705", "fusion_lon": 0.0, "is_reserved": 0, "lon": -77.07410366666667, "fusion_lat": 0.0, "is_disabled": 0, "bike_id": "f42844e79c91aca6182f9ac70b4ec705", "lat": 38.90828783333333, "rental_uris": {"ios": "https://dc.lft.to/lastmile_qr_scan", "android": "https://dc.lft.to/lastmile_qr_scan"}}, {"type": "electric_bike", "name": "31c3fccd8122f0b5c3daf25cbe033393", "fusion_lon": 0.0, "is_reserved": 0, "lon": -77.04027816666667, "fusion_lat": 0.0, "is_disabled": 0, "bike_id": "31c3fccd8122f0b5c3daf25cbe033393", "lat": 38.908675833333334, "rental_uris": {"ios": "https://dc.lft.to/lastmile_qr_scan", "android": "https://dc.lft.to/lastmile_qr_scan"}}, {"type": "electric_scooter", "name": "c687632f611994c53dcccc82b0d79fc5", "fusion_lon": 0.0, "is_reserved": 0, "lon": -77.0433435, "fusion_lat": 0.0, "is_disabled": 0, "bike_id": "c687632f611994c53dcccc82b0d79fc5", "lat": 38.90365216666667, "rental_uris": {"ios": "https://dc.lft.to/lastmile_qr_scan", "android": "https://dc.lft.to/lastmile_qr_scan"}}, {"type": "electric_scooter", "name": "c62f3ede958cd07d2abc4505ff3eb3f6", "fusion_lon": 0.0, "is_reserved": 0, "lon": -77.03941683333333, "fusion_lat": 0.0, "is_disabled": 0, "bike_id": "c62f3ede958cd07d2abc4505ff3eb3f6", "lat": 38.903706166666666, "rental_uris": {"ios": "https://dc.lft.to/lastmile_qr_scan", "android": "https://dc.lft.to/lastmile_qr_scan"}}, {"type": "electric_scooter", "name": "a9857629e930e72299550c435073ab02", "fusion_lon": 0.0, "is_reserved": 0, "lon": -77.03635816666667, "fusion_lat": 0.0, "is_disabled": 0, "bike_id": "a9857629e930e72299550c435073ab02", "lat": 38.903897, "rental_uris": {"ios": "https://dc.lft.to/lastmile_qr_scan", "android": "https://dc.lft.to/lastmile_qr_scan"}}, {"type": "electric_scooter", "name": "790c5e7a69cfe0d4a2d8c5c2639729b6", "fusion_lon": 0.0, "is_reserved": 0, "lon": -77.02219666666667, "fusion_lat": 0.0, "is_disabled": 0, "bike_id": "790c5e7a69cfe0d4a2d8c5c2639729b6", "lat": 38.920866, "rental_uris": {"ios": "https://dc.lft.to/lastmile_qr_scan", "android": "https://dc.lft.to/lastmile_qr_scan"}}, {"type": "electric_scooter", "name": "19ad74ef3394a5a7f18157ed2075844f", "fusion_lon": 0.0, "is_reserved": 0, "lon": -77.00429016666666, "fusion_lat": 0.0, "is_disabled": 0, "bike_id": "19ad74ef3394a5a7f18157ed2075844f", "lat": 38.921006, "rental_uris": {"ios": "https://dc.lft.to/lastmile_qr_scan", "android": "https://dc.lft.to/lastmile_qr_scan"}}, {"type": "electric_scooter", "name": "2e7b3810e13c85505edcc2f7dfd3b858", "fusion_lon": 0.0, "is_reserved": 0, "lon": -77.03193833333333, "fusion_lat": 0.0, "is_disabled": 0, "bike_id": "2e7b3810e13c85505edcc2f7dfd3b858", "lat": 38.9141655, "rental_uris": {"ios": "https://dc.lft.to/lastmile_qr_scan", "android": "https://dc.lft.to/lastmile_qr_scan"}}, {"type": "electric_scooter", "name": "972e09accfc7fbf8d711ad8a7cc9c3aa", "fusion_lon": 0.0, "is_reserved": 0, "lon": -76.93341966666667, "fusion_lat": 0.0, "is_disabled": 0, "bike_id": "972e09accfc7fbf8d711ad8a7cc9c3aa", "lat": 38.8880515, "rental_uris": {"ios": "https://dc.lft.to/lastmile_qr_scan", "android": "https://dc.lft.to/lastmile_qr_scan"}}, {"type": "electric_scooter", "name": "9ede63609237a6389e3c7be21d88b01a", "fusion_lon": 0.0, "is_reserved": 0, "lon": -77.03754766666667, "fusion_lat": 0.0, "is_disabled": 0, "bike_id": "9ede63609237a6389e3c7be21d88b01a", "lat": 38.9309135, "rental_uris": {"ios": "https://dc.lft.to/lastmile_qr_scan", "android": "https://dc.lft.to/lastmile_qr_scan"}}, {"type": "electric_scooter", "name": "c23f71189fa36e370582959edcd412e3", "fusion_lon": 0.0, "is_reserved": 0, "lon": -77.029688, "fusion_lat": 0.0, "is_disabled": 0, "bike_id": "c23f71189fa36e370582959edcd412e3", "lat": 38.9165625, "rental_uris": {"ios": "https://dc.lft.to/lastmile_qr_scan", "android": "https://dc.lft.to/lastmile_qr_scan"}}, {"type": "electric_scooter", "name": "e9480196442a201e1a15fc52eafe3f44", "fusion_lon": 0.0, "is_reserved": 0, "lon": -77.03233416666667, "fusion_lat": 0.0, "is_disabled": 0, "bike_id": "e9480196442a201e1a15fc52eafe3f44", "lat": 38.92173983333333, "rental_uris": {"ios": "https://dc.lft.to/lastmile_qr_scan", "android": "https://dc.lft.to/lastmile_qr_scan"}}, {"type": "electric_scooter", "name": "0ccf514b0236e956d863760856bed60b", "fusion_lon": 0.0, "is_reserved": 0, "lon": -77.025834, "fusion_lat": 0.0, "is_disabled": 0, "bike_id": "0ccf514b0236e956d863760856bed60b", "lat": 38.8809195, "rental_uris": {"ios": "https://dc.lft.to/lastmile_qr_scan", "android": "https://dc.lft.to/lastmile_qr_scan"}}, {"type": "electric_bike", "name": "440997a09726e373c30aa35895af5a4a", "fusion_lon": 0.0, "is_reserved": 0, "lon": -77.09590533333333, "fusion_lat": 0.0, "is_disabled": 0, "bike_id": "440997a09726e373c30aa35895af5a4a", "lat": 38.86089833333333, "rental_uris": {"ios": "https://dc.lft.to/lastmile_qr_scan", "android": "https://dc.lft.to/lastmile_qr_scan"}}, {"type": "electric_scooter", "name": "e23d0aa1f5165c92824f4b5c002daa7e", "fusion_lon": 0.0, "is_reserved": 0, "lon": -77.04264933333333, "fusion_lat": 0.0, "is_disabled": 0, "bike_id": "e23d0aa1f5165c92824f4b5c002daa7e", "lat": 38.92293933333333, "rental_uris": {"ios": "https://dc.lft.to/lastmile_qr_scan", "android": "https://dc.lft.to/lastmile_qr_scan"}}, {"type": "electric_scooter", "name": "e04a19738475e95ebb991443495e9f38", "fusion_lon": 0.0, "is_reserved": 0, "lon": -77.03185316666666, "fusion_lat": 0.0, "is_disabled": 0, "bike_id": "e04a19738475e95ebb991443495e9f38", "lat": 38.907914166666664, "rental_uris": {"ios": "https://dc.lft.to/lastmile_qr_scan", "android": "https://dc.lft.to/lastmile_qr_scan"}}, {"type": "electric_scooter", "name": "86c0d95e2ef6cd4877d322fc6cc1803a", "fusion_lon": 0.0, "is_reserved": 0, "lon": -77.04450233333333, "fusion_lat": 0.0, "is_disabled": 0, "bike_id": "86c0d95e2ef6cd4877d322fc6cc1803a", "lat": 38.918717, "rental_uris": {"ios": "https://dc.lft.to/lastmile_qr_scan", "android": "https://dc.lft.to/lastmile_qr_scan"}}, {"type": "electric_scooter", "name": "d46fd76e5dc5ca60aaf0477cd1f30277", "fusion_lon": 0.0, "is_reserved": 0, "lon": -77.033456, "fusion_lat": 0.0, "is_disabled": 0, "bike_id": "d46fd76e5dc5ca60aaf0477cd1f30277", "lat": 38.89955283333333, "rental_uris": {"ios": "https://dc.lft.to/lastmile_qr_scan", "android": "https://dc.lft.to/lastmile_qr_scan"}}, {"type": "electric_scooter", "name": "4d1e2eab662f9425a75d614ea470db21", "fusion_lon": 0.0, "is_reserved": 0, "lon": -77.03339966666667, "fusion_lat": 0.0, "is_disabled": 0, "bike_id": "4d1e2eab662f9425a75d614ea470db21", "lat": 38.899769666666664, "rental_uris": {"ios": "https://dc.lft.to/lastmile_qr_scan", "android": "https://dc.lft.to/lastmile_qr_scan"}}, {"type": "electric_bike", "name": "a03c29c4d824318d3e11a29d1b064854", "fusion_lon": 0.0, "is_reserved": 0, "lon": -77.17189733333333, "fusion_lat": 0.0, "is_disabled": 0, "bike_id": "a03c29c4d824318d3e11a29d1b064854", "lat": 38.8828415, "rental_uris": {"ios": "https://dc.lft.to/lastmile_qr_scan", "android": "https://dc.lft.to/lastmile_qr_scan"}}, {"type": "electric_scooter", "name": "9b96f2f60e48119f359949f23c4a0510", "fusion_lon": 0.0, "is_reserved": 0, "lon": -77.01283783333334, "fusion_lat": 0.0, "is_disabled": 0, "bike_id": "9b96f2f60e48119f359949f23c4a0510", "lat": 38.89227866666667, "rental_uris": {"ios": "https://dc.lft.to/lastmile_qr_scan", "android": "https://dc.lft.to/lastmile_qr_scan"}}, {"type": "electric_scooter", "name": "ef858269ebd26003ecbd91ad00a916bf", "fusion_lon": 0.0, "is_reserved": 0, "lon": -76.9457855, "fusion_lat": 0.0, "is_disabled": 0, "bike_id": "ef858269ebd26003ecbd91ad00a916bf", "lat": 38.899317, "rental_uris": {"ios": "https://dc.lft.to/lastmile_qr_scan", "android": "https://dc.lft.to/lastmile_qr_scan"}}, {"type": "electric_scooter", "name": "0af06f25b99ebeeaf91d20f466500b73", "fusion_lon": 0.0, "is_reserved": 0, "lon": -76.93376866666667, "fusion_lat": 0.0, "is_disabled": 0, "bike_id": "0af06f25b99ebeeaf91d20f466500b73", "lat": 38.899054166666666, "rental_uris": {"ios": "https://dc.lft.to/lastmile_qr_scan", "android": "https://dc.lft.to/lastmile_qr_scan"}}, {"type": "electric_scooter", "name": "b024f3335af93e62c5fa228911bc32fb", "fusion_lon": 0.0, "is_reserved": 0, "lon": -77.0384375, "fusion_lat": 0.0, "is_disabled": 0, "bike_id": "b024f3335af93e62c5fa228911bc32fb", "lat": 38.932437, "rental_uris": {"ios": "https://dc.lft.to/lastmile_qr_scan", "android": "https://dc.lft.to/lastmile_qr_scan"}}, {"type": "electric_bike", "name": "dc65e0c1a5c657d418ae4ac2aa109810", "fusion_lon": 0.0, "is_reserved": 0, "lon": -77.11988266666667, "fusion_lat": 0.0, "is_disabled": 0, "bike_id": "dc65e0c1a5c657d418ae4ac2aa109810", "lat": 38.84729766666667, "rental_uris": {"ios": "https://dc.lft.to/lastmile_qr_scan", "android": "https://dc.lft.to/lastmile_qr_scan"}}, {"type": "electric_scooter", "name": "b9097cb1f874459ca827a80a538f8715", "fusion_lon": 0.0, "is_reserved": 0, "lon": -77.03475266666666, "fusion_lat": 0.0, "is_disabled": 0, "bike_id": "b9097cb1f874459ca827a80a538f8715", "lat": 38.91712066666667, "rental_uris": {"ios": "https://dc.lft.to/lastmile_qr_scan", "android": "https://dc.lft.to/lastmile_qr_scan"}}, {"type": "electric_scooter", "name": "ae85e0e08a9b703f0cf078042c382974", "fusion_lon": 0.0, "is_reserved": 0, "lon": -77.04639983333334, "fusion_lat": 0.0, "is_disabled": 0, "bike_id": "ae85e0e08a9b703f0cf078042c382974", "lat": 38.901006333333335, "rental_uris": {"ios": "https://dc.lft.to/lastmile_qr_scan", "android": "https://dc.lft.to/lastmile_qr_scan"}}, {"type": "electric_scooter", "name": "101f959b1ea628dc3658a5612df326f5", "fusion_lon": 0.0, "is_reserved": 0, "lon": -77.073425, "fusion_lat": 0.0, "is_disabled": 0, "bike_id": "101f959b1ea628dc3658a5612df326f5", "lat": 38.9126505, "rental_uris": {"ios": "https://dc.lft.to/lastmile_qr_scan", "android": "https://dc.lft.to/lastmile_qr_scan"}}, {"type": "electric_scooter", "name": "eabbbad8d12982c43261259db086f885", "fusion_lon": 0.0, "is_reserved": 0, "lon": -77.022227, "fusion_lat": 0.0, "is_disabled": 0, "bike_id": "eabbbad8d12982c43261259db086f885", "lat": 38.905538, "rental_uris": {"ios": "https://dc.lft.to/lastmile_qr_scan", "android": "https://dc.lft.to/lastmile_qr_scan"}}, {"type": "electric_scooter", "name": "ecbe9f90e3b1733df7f4325b75276220", "fusion_lon": 0.0, "is_reserved": 0, "lon": -77.00021, "fusion_lat": 0.0, "is_disabled": 0, "bike_id": "ecbe9f90e3b1733df7f4325b75276220", "lat": 38.873988833333335, "rental_uris": {"ios": "https://dc.lft.to/lastmile_qr_scan", "android": "https://dc.lft.to/lastmile_qr_scan"}}, {"type": "electric_scooter", "name": "44724d141b968af585f0535ca5aeb50f", "fusion_lon": 0.0, "is_reserved": 0, "lon": -77.01649466666667, "fusion_lat": 0.0, "is_disabled": 0, "bike_id": "44724d141b968af585f0535ca5aeb50f", "lat": 38.903840833333334, "rental_uris": {"ios": "https://dc.lft.to/lastmile_qr_scan", "android": "https://dc.lft.to/lastmile_qr_scan"}}, {"type": "electric_scooter", "name": "73b84a38bde2a8a8a03aeed3cbb2ef4e", "fusion_lon": 0.0, "is_reserved": 0, "lon": -76.97584183333333, "fusion_lat": 0.0, "is_disabled": 0, "bike_id": "73b84a38bde2a8a8a03aeed3cbb2ef4e", "lat": 38.903383833333336, "rental_uris": {"ios": "https://dc.lft.to/lastmile_qr_scan", "android": "https://dc.lft.to/lastmile_qr_scan"}}, {"type": "electric_bike", "name": "0daff4fcd2b3bfd680215a5a93e67ccb", "fusion_lon": 0.0, "is_reserved": 0, "lon": -77.12066283333333, "fusion_lat": 0.0, "is_disabled": 0, "bike_id": "0daff4fcd2b3bfd680215a5a93e67ccb", "lat": 38.854112666666666, "rental_uris": {"ios": "https://dc.lft.to/lastmile_qr_scan", "android": "https://dc.lft.to/lastmile_qr_scan"}}, {"type": "electric_scooter", "name": "402643214b46e078ae29f8903665d064", "fusion_lon": 0.0, "is_reserved": 0, "lon": -77.08856733333333, "fusion_lat": 0.0, "is_disabled": 0, "bike_id": "402643214b46e078ae29f8903665d064", "lat": 38.93360883333333, "rental_uris": {"ios": "https://dc.lft.to/lastmile_qr_scan", "android": "https://dc.lft.to/lastmile_qr_scan"}}, {"type": "electric_scooter", "name": "e7048f63aa2c79f70e33393070c04566", "fusion_lon": 0.0, "is_reserved": 0, "lon": -76.9985685, "fusion_lat": 0.0, "is_disabled": 0, "bike_id": "e7048f63aa2c79f70e33393070c04566", "lat": 38.902522833333336, "rental_uris": {"ios": "https://dc.lft.to/lastmile_qr_scan", "android": "https://dc.lft.to/lastmile_qr_scan"}}, {"type": "electric_bike", "name": "b8e0f2df6b8d3df64d6bad2ad1de1905", "fusion_lon": 0.0, "is_reserved": 0, "lon": -76.97227366666667, "fusion_lat": 0.0, "is_disabled": 0, "bike_id": "b8e0f2df6b8d3df64d6bad2ad1de1905", "lat": 38.9003785, "rental_uris": {"ios": "https://dc.lft.to/lastmile_qr_scan", "android": "https://dc.lft.to/lastmile_qr_scan"}}, {"type": "electric_scooter", "name": "e464f87a32b6dd9cf1483e4b5110b316", "fusion_lon": 0.0, "is_reserved": 0, "lon": -77.024899, "fusion_lat": 0.0, "is_disabled": 0, "bike_id": "e464f87a32b6dd9cf1483e4b5110b316", "lat": 38.9387305, "rental_uris": {"ios": "https://dc.lft.to/lastmile_qr_scan", "android": "https://dc.lft.to/lastmile_qr_scan"}}, {"type": "electric_scooter", "name": "e2fbd8753b73adafb95166d5a9741c54", "fusion_lon": 0.0, "is_reserved": 0, "lon": -76.98057083333333, "fusion_lat": 0.0, "is_disabled": 0, "bike_id": "e2fbd8753b73adafb95166d5a9741c54", "lat": 38.90143, "rental_uris": {"ios": "https://dc.lft.to/lastmile_qr_scan", "android": "https://dc.lft.to/lastmile_qr_scan"}}, {"type": "electric_scooter", "name": "31f142f965d11e970e27415887c6a582", "fusion_lon": 0.0, "is_reserved": 0, "lon": -77.06493266666666, "fusion_lat": 0.0, "is_disabled": 0, "bike_id": "31f142f965d11e970e27415887c6a582", "lat": 38.910183, "rental_uris": {"ios": "https://dc.lft.to/lastmile_qr_scan", "android": "https://dc.lft.to/lastmile_qr_scan"}}, {"type": "electric_scooter", "name": "9d334f36ac70aa39834eb52ce689d14e", "fusion_lon": 0.0, "is_reserved": 0, "lon": -77.030967, "fusion_lat": 0.0, "is_disabled": 0, "bike_id": "9d334f36ac70aa39834eb52ce689d14e", "lat": 38.93391283333333, "rental_uris": {"ios": "https://dc.lft.to/lastmile_qr_scan", "android": "https://dc.lft.to/lastmile_qr_scan"}}, {"type": "electric_scooter", "name": "eae0e6fc2ef34bd68ab0c23210a31b93", "fusion_lon": 0.0, "is_reserved": 0, "lon": -77.03853116666667, "fusion_lat": 0.0, "is_disabled": 0, "bike_id": "eae0e6fc2ef34bd68ab0c23210a31b93", "lat": 38.91711866666667, "rental_uris": {"ios": "https://dc.lft.to/lastmile_qr_scan", "android": "https://dc.lft.to/lastmile_qr_scan"}}, {"type": "electric_scooter", "name": "5c99e62d71a0d6f9acc583701d95ffe6", "fusion_lon": 0.0, "is_reserved": 0, "lon": -77.00337783333333, "fusion_lat": 0.0, "is_disabled": 0, "bike_id": "5c99e62d71a0d6f9acc583701d95ffe6", "lat": 38.891964, "rental_uris": {"ios": "https://dc.lft.to/lastmile_qr_scan", "android": "https://dc.lft.to/lastmile_qr_scan"}}, {"type": "electric_scooter", "name": "8edd82d3397310789573ba2b3a4b1a9d", "fusion_lon": 0.0, "is_reserved": 0, "lon": -76.99621383333333, "fusion_lat": 0.0, "is_disabled": 0, "bike_id": "8edd82d3397310789573ba2b3a4b1a9d", "lat": 38.90449233333333, "rental_uris": {"ios": "https://dc.lft.to/lastmile_qr_scan", "android": "https://dc.lft.to/lastmile_qr_scan"}}, {"type": "electric_scooter", "name": "af4cc4c1548fa096b43cee8f424216dd", "fusion_lon": 0.0, "is_reserved": 0, "lon": -77.0402795, "fusion_lat": 0.0, "is_disabled": 0, "bike_id": "af4cc4c1548fa096b43cee8f424216dd", "lat": 38.91892333333333, "rental_uris": {"ios": "https://dc.lft.to/lastmile_qr_scan", "android": "https://dc.lft.to/lastmile_qr_scan"}}, {"type": "electric_scooter", "name": "d3e5f69146924f03f859bea73a758904", "fusion_lon": 0.0, "is_reserved": 0, "lon": -77.02590383333333, "fusion_lat": 0.0, "is_disabled": 0, "bike_id": "d3e5f69146924f03f859bea73a758904", "lat": 38.9000835, "rental_uris": {"ios": "https://dc.lft.to/lastmile_qr_scan", "android": "https://dc.lft.to/lastmile_qr_scan"}}, {"type": "electric_scooter", "name": "762ee79de51511011fbb54f6aec94276", "fusion_lon": 0.0, "is_reserved": 0, "lon": -77.03724866666667, "fusion_lat": 0.0, "is_disabled": 0, "bike_id": "762ee79de51511011fbb54f6aec94276", "lat": 38.925873, "rental_uris": {"ios": "https://dc.lft.to/lastmile_qr_scan", "android": "https://dc.lft.to/lastmile_qr_scan"}}, {"type": "electric_scooter", "name": "6d38b803a6064ab909cfe2857a21712a", "fusion_lon": 0.0, "is_reserved": 0, "lon": -77.06534333333333, "fusion_lat": 0.0, "is_disabled": 0, "bike_id": "6d38b803a6064ab909cfe2857a21712a", "lat": 38.95067866666667, "rental_uris": {"ios": "https://dc.lft.to/lastmile_qr_scan", "android": "https://dc.lft.to/lastmile_qr_scan"}}, {"type": "electric_scooter", "name": "d72f27042b536f5e1f61631d461de4fa", "fusion_lon": 0.0, "is_reserved": 0, "lon": -77.03663333333333, "fusion_lat": 0.0, "is_disabled": 0, "bike_id": "d72f27042b536f5e1f61631d461de4fa", "lat": 38.9248885, "rental_uris": {"ios": "https://dc.lft.to/lastmile_qr_scan", "android": "https://dc.lft.to/lastmile_qr_scan"}}, {"type": "electric_scooter", "name": "73e979409df3bae1470c06e3cd20d3e8", "fusion_lon": 0.0, "is_reserved": 0, "lon": -77.03014533333334, "fusion_lat": 0.0, "is_disabled": 0, "bike_id": "73e979409df3bae1470c06e3cd20d3e8", "lat": 38.9192235, "rental_uris": {"ios": "https://dc.lft.to/lastmile_qr_scan", "android": "https://dc.lft.to/lastmile_qr_scan"}}, {"type": "electric_scooter", "name": "e6e60eb2619f127fc4f4f688785dfe3c", "fusion_lon": 0.0, "is_reserved": 0, "lon": -76.97021466666666, "fusion_lat": 0.0, "is_disabled": 0, "bike_id": "e6e60eb2619f127fc4f4f688785dfe3c", "lat": 38.850582833333334, "rental_uris": {"ios": "https://dc.lft.to/lastmile_qr_scan", "android": "https://dc.lft.to/lastmile_qr_scan"}}, {"type": "electric_scooter", "name": "4a17a4ea87fa0198350a742c512d4d9b", "fusion_lon": 0.0, "is_reserved": 0, "lon": -77.02143033333333, "fusion_lat": 0.0, "is_disabled": 0, "bike_id": "4a17a4ea87fa0198350a742c512d4d9b", "lat": 38.9199195, "rental_uris": {"ios": "https://dc.lft.to/lastmile_qr_scan", "android": "https://dc.lft.to/lastmile_qr_scan"}}, {"type": "electric_scooter", "name": "74e3d902496463b7fabe4563f8b001cd", "fusion_lon": 0.0, "is_reserved": 0, "lon": -77.01311233333334, "fusion_lat": 0.0, "is_disabled": 0, "bike_id": "74e3d902496463b7fabe4563f8b001cd", "lat": 38.90139333333333, "rental_uris": {"ios": "https://dc.lft.to/lastmile_qr_scan", "android": "https://dc.lft.to/lastmile_qr_scan"}}, {"type": "electric_scooter", "name": "fcab70911c4cbbd02d4ed7b05c67e60f", "fusion_lon": 0.0, "is_reserved": 0, "lon": -77.07261516666667, "fusion_lat": 0.0, "is_disabled": 0, "bike_id": "fcab70911c4cbbd02d4ed7b05c67e60f", "lat": 38.909114333333335, "rental_uris": {"ios": "https://dc.lft.to/lastmile_qr_scan", "android": "https://dc.lft.to/lastmile_qr_scan"}}, {"type": "electric_scooter", "name": "5b47301266b2496cfd8a6b08ae817be6", "fusion_lon": 0.0, "is_reserved": 0, "lon": -76.93974066666667, "fusion_lat": 0.0, "is_disabled": 0, "bike_id": "5b47301266b2496cfd8a6b08ae817be6", "lat": 38.89322583333333, "rental_uris": {"ios": "https://dc.lft.to/lastmile_qr_scan", "android": "https://dc.lft.to/lastmile_qr_scan"}}, {"type": "electric_scooter", "name": "b2c24dc2043924e97cdb3d55eb98f53c", "fusion_lon": 0.0, "is_reserved": 0, "lon": -77.031954, "fusion_lat": 0.0, "is_disabled": 0, "bike_id": "b2c24dc2043924e97cdb3d55eb98f53c", "lat": 38.928790166666666, "rental_uris": {"ios": "https://dc.lft.to/lastmile_qr_scan", "android": "https://dc.lft.to/lastmile_qr_scan"}}, {"type": "electric_scooter", "name": "3e0f1cded5c9b55979bf17533a7f8190", "fusion_lon": 0.0, "is_reserved": 0, "lon": -77.03658366666667, "fusion_lat": 0.0, "is_disabled": 0, "bike_id": "3e0f1cded5c9b55979bf17533a7f8190", "lat": 38.923354, "rental_uris": {"ios": "https://dc.lft.to/lastmile_qr_scan", "android": "https://dc.lft.to/lastmile_qr_scan"}}, {"type": "electric_bike", "name": "0d51e660fb46e6e05dfe3299bff3b2a2", "fusion_lon": 0.0, "is_reserved": 0, "lon": -77.01946816666667, "fusion_lat": 0.0, "is_disabled": 0, "bike_id": "0d51e660fb46e6e05dfe3299bff3b2a2", "lat": 38.92258733333333, "rental_uris": {"ios": "https://dc.lft.to/lastmile_qr_scan", "android": "https://dc.lft.to/lastmile_qr_scan"}}, {"type": "electric_bike", "name": "f72eec7ca9f8826016dbafbbff86e8fd", "fusion_lon": 0.0, "is_reserved": 0, "lon": -77.019738, "fusion_lat": 0.0, "is_disabled": 0, "bike_id": "f72eec7ca9f8826016dbafbbff86e8fd", "lat": 38.9112185, "rental_uris": {"ios": "https://dc.lft.to/lastmile_qr_scan", "android": "https://dc.lft.to/lastmile_qr_scan"}}, {"type": "electric_scooter", "name": "017dec2383f92c5e62a6a800e01ec424", "fusion_lon": 0.0, "is_reserved": 0, "lon": -76.9914615, "fusion_lat": 0.0, "is_disabled": 0, "bike_id": "017dec2383f92c5e62a6a800e01ec424", "lat": 38.891071, "rental_uris": {"ios": "https://dc.lft.to/lastmile_qr_scan", "android": "https://dc.lft.to/lastmile_qr_scan"}}, {"type": "electric_scooter", "name": "1404503f3228443845794488e961c66b", "fusion_lon": 0.0, "is_reserved": 0, "lon": -77.041395, "fusion_lat": 0.0, "is_disabled": 0, "bike_id": "1404503f3228443845794488e961c66b", "lat": 38.909077833333335, "rental_uris": {"ios": "https://dc.lft.to/lastmile_qr_scan", "android": "https://dc.lft.to/lastmile_qr_scan"}}, {"type": "electric_scooter", "name": "b506e948b0d9efc4526b9f017bf60b30", "fusion_lon": 0.0, "is_reserved": 0, "lon": -77.00570016666667, "fusion_lat": 0.0, "is_disabled": 0, "bike_id": "b506e948b0d9efc4526b9f017bf60b30", "lat": 38.83703766666667, "rental_uris": {"ios": "https://dc.lft.to/lastmile_qr_scan", "android": "https://dc.lft.to/lastmile_qr_scan"}}, {"type": "electric_scooter", "name": "28025935cddc0068c5fc7f217616ab03", "fusion_lon": 0.0, "is_reserved": 0, "lon": -77.03401533333333, "fusion_lat": 0.0, "is_disabled": 0, "bike_id": "28025935cddc0068c5fc7f217616ab03", "lat": 38.91680683333333, "rental_uris": {"ios": "https://dc.lft.to/lastmile_qr_scan", "android": "https://dc.lft.to/lastmile_qr_scan"}}, {"type": "electric_scooter", "name": "933875a1eff07424fd9e49b86eb64131", "fusion_lon": 0.0, "is_reserved": 0, "lon": -77.025866, "fusion_lat": 0.0, "is_disabled": 0, "bike_id": "933875a1eff07424fd9e49b86eb64131", "lat": 38.92038566666667, "rental_uris": {"ios": "https://dc.lft.to/lastmile_qr_scan", "android": "https://dc.lft.to/lastmile_qr_scan"}}, {"type": "electric_scooter", "name": "66c89ff27fb5887a5ea512571cd40aef", "fusion_lon": 0.0, "is_reserved": 0, "lon": -77.03837416666667, "fusion_lat": 0.0, "is_disabled": 0, "bike_id": "66c89ff27fb5887a5ea512571cd40aef", "lat": 38.9063175, "rental_uris": {"ios": "https://dc.lft.to/lastmile_qr_scan", "android": "https://dc.lft.to/lastmile_qr_scan"}}, {"type": "electric_scooter", "name": "3bb248158a10b5423b776c654f634d51", "fusion_lon": 0.0, "is_reserved": 0, "lon": -76.99773833333333, "fusion_lat": 0.0, "is_disabled": 0, "bike_id": "3bb248158a10b5423b776c654f634d51", "lat": 38.844301, "rental_uris": {"ios": "https://dc.lft.to/lastmile_qr_scan", "android": "https://dc.lft.to/lastmile_qr_scan"}}, {"type": "electric_scooter", "name": "1fde0ad189327392fb81f724de52d25e", "fusion_lon": 0.0, "is_reserved": 0, "lon": -76.93730266666667, "fusion_lat": 0.0, "is_disabled": 0, "bike_id": "1fde0ad189327392fb81f724de52d25e", "lat": 38.8901745, "rental_uris": {"ios": "https://dc.lft.to/lastmile_qr_scan", "android": "https://dc.lft.to/lastmile_qr_scan"}}, {"type": "electric_scooter", "name": "a55f2a553df4eb11e0793bdcf6c9f36a", "fusion_lon": 0.0, "is_reserved": 0, "lon": -77.0198945, "fusion_lat": 0.0, "is_disabled": 0, "bike_id": "a55f2a553df4eb11e0793bdcf6c9f36a", "lat": 38.885367333333335, "rental_uris": {"ios": "https://dc.lft.to/lastmile_qr_scan", "android": "https://dc.lft.to/lastmile_qr_scan"}}, {"type": "electric_scooter", "name": "03405081756509e9fca8957a0a3cf942", "fusion_lon": 0.0, "is_reserved": 0, "lon": -77.05407916666667, "fusion_lat": 0.0, "is_disabled": 0, "bike_id": "03405081756509e9fca8957a0a3cf942", "lat": 38.928272166666666, "rental_uris": {"ios": "https://dc.lft.to/lastmile_qr_scan", "android": "https://dc.lft.to/lastmile_qr_scan"}}, {"type": "electric_scooter", "name": "c5d1ea1f476633264e5eb9a3782b8420", "fusion_lon": 0.0, "is_reserved": 0, "lon": -77.03315216666667, "fusion_lat": 0.0, "is_disabled": 0, "bike_id": "c5d1ea1f476633264e5eb9a3782b8420", "lat": 38.90847266666667, "rental_uris": {"ios": "https://dc.lft.to/lastmile_qr_scan", "android": "https://dc.lft.to/lastmile_qr_scan"}}, {"type": "electric_scooter", "name": "eb50706484edcd693c602d6619d85028", "fusion_lon": 0.0, "is_reserved": 0, "lon": -77.04498566666666, "fusion_lat": 0.0, "is_disabled": 0, "bike_id": "eb50706484edcd693c602d6619d85028", "lat": 38.911963666666665, "rental_uris": {"ios": "https://dc.lft.to/lastmile_qr_scan", "android": "https://dc.lft.to/lastmile_qr_scan"}}, {"type": "electric_scooter", "name": "8b29d30d6d9cb8116ed81637c14b3202", "fusion_lon": 0.0, "is_reserved": 0, "lon": -77.02688883333333, "fusion_lat": 0.0, "is_disabled": 0, "bike_id": "8b29d30d6d9cb8116ed81637c14b3202", "lat": 38.915165, "rental_uris": {"ios": "https://dc.lft.to/lastmile_qr_scan", "android": "https://dc.lft.to/lastmile_qr_scan"}}, {"type": "electric_scooter", "name": "c2fc20113bb5ee16f6b5b6eee89c07e4", "fusion_lon": 0.0, "is_reserved": 0, "lon": -77.0229995, "fusion_lat": 0.0, "is_disabled": 0, "bike_id": "c2fc20113bb5ee16f6b5b6eee89c07e4", "lat": 38.87879266666667, "rental_uris": {"ios": "https://dc.lft.to/lastmile_qr_scan", "android": "https://dc.lft.to/lastmile_qr_scan"}}, {"type": "electric_scooter", "name": "d984234d61d721c858731b900ecc2c4b", "fusion_lon": 0.0, "is_reserved": 0, "lon": -77.005643, "fusion_lat": 0.0, "is_disabled": 0, "bike_id": "d984234d61d721c858731b900ecc2c4b", "lat": 38.8850825, "rental_uris": {"ios": "https://dc.lft.to/lastmile_qr_scan", "android": "https://dc.lft.to/lastmile_qr_scan"}}, {"type": "electric_scooter", "name": "9cf28091425264d67ed117acaecca6ce", "fusion_lon": 0.0, "is_reserved": 0, "lon": -77.07312266666666, "fusion_lat": 0.0, "is_disabled": 0, "bike_id": "9cf28091425264d67ed117acaecca6ce", "lat": 38.922259, "rental_uris": {"ios": "https://dc.lft.to/lastmile_qr_scan", "android": "https://dc.lft.to/lastmile_qr_scan"}}, {"type": "electric_scooter", "name": "1f5702f7dfc5221b4fe9474bb4d03152", "fusion_lon": 0.0, "is_reserved": 0, "lon": -77.02589933333333, "fusion_lat": 0.0, "is_disabled": 0, "bike_id": "1f5702f7dfc5221b4fe9474bb4d03152", "lat": 38.920419, "rental_uris": {"ios": "https://dc.lft.to/lastmile_qr_scan", "android": "https://dc.lft.to/lastmile_qr_scan"}}, {"type": "electric_scooter", "name": "a76e0b4ddc00770dc2ee91121742a121", "fusion_lon": 0.0, "is_reserved": 0, "lon": -77.03262583333333, "fusion_lat": 0.0, "is_disabled": 0, "bike_id": "a76e0b4ddc00770dc2ee91121742a121", "lat": 38.89890033333333, "rental_uris": {"ios": "https://dc.lft.to/lastmile_qr_scan", "android": "https://dc.lft.to/lastmile_qr_scan"}}, {"type": "electric_scooter", "name": "9a641e641a91f2fb2f1f4a91a9ed741b", "fusion_lon": 0.0, "is_reserved": 0, "lon": -77.00927866666666, "fusion_lat": 0.0, "is_disabled": 0, "bike_id": "9a641e641a91f2fb2f1f4a91a9ed741b", "lat": 38.879241, "rental_uris": {"ios": "https://dc.lft.to/lastmile_qr_scan", "android": "https://dc.lft.to/lastmile_qr_scan"}}, {"type": "electric_scooter", "name": "6ae352c483b0167ef6d4adbc2339e766", "fusion_lon": 0.0, "is_reserved": 0, "lon": -77.00930166666667, "fusion_lat": 0.0, "is_disabled": 0, "bike_id": "6ae352c483b0167ef6d4adbc2339e766", "lat": 38.90836733333333, "rental_uris": {"ios": "https://dc.lft.to/lastmile_qr_scan", "android": "https://dc.lft.to/lastmile_qr_scan"}}, {"type": "electric_scooter", "name": "e508de29f8838b35f755336a839d4be8", "fusion_lon": 0.0, "is_reserved": 0, "lon": -77.0320505, "fusion_lat": 0.0, "is_disabled": 0, "bike_id": "e508de29f8838b35f755336a839d4be8", "lat": 38.911867, "rental_uris": {"ios": "https://dc.lft.to/lastmile_qr_scan", "android": "https://dc.lft.to/lastmile_qr_scan"}}, {"type": "electric_scooter", "name": "eccfba96eb4410fa38644d8074085c24", "fusion_lon": 0.0, "is_reserved": 0, "lon": -77.01431783333334, "fusion_lat": 0.0, "is_disabled": 0, "bike_id": "eccfba96eb4410fa38644d8074085c24", "lat": 38.952366166666664, "rental_uris": {"ios": "https://dc.lft.to/lastmile_qr_scan", "android": "https://dc.lft.to/lastmile_qr_scan"}}, {"type": "electric_scooter", "name": "159dc1abd07e24add3b07f1de7209248", "fusion_lon": 0.0, "is_reserved": 0, "lon": -77.04391983333333, "fusion_lat": 0.0, "is_disabled": 0, "bike_id": "159dc1abd07e24add3b07f1de7209248", "lat": 38.9073935, "rental_uris": {"ios": "https://dc.lft.to/lastmile_qr_scan", "android": "https://dc.lft.to/lastmile_qr_scan"}}, {"type": "electric_scooter", "name": "b8ef747c1910fc23646eef40ae2e5793", "fusion_lon": 0.0, "is_reserved": 0, "lon": -77.03590983333333, "fusion_lat": 0.0, "is_disabled": 0, "bike_id": "b8ef747c1910fc23646eef40ae2e5793", "lat": 38.936735166666665, "rental_uris": {"ios": "https://dc.lft.to/lastmile_qr_scan", "android": "https://dc.lft.to/lastmile_qr_scan"}}, {"type": "electric_scooter", "name": "6b7b2cf7d6861214877cbc2e0d04ddd0", "fusion_lon": 0.0, "is_reserved": 0, "lon": -77.01300716666667, "fusion_lat": 0.0, "is_disabled": 0, "bike_id": "6b7b2cf7d6861214877cbc2e0d04ddd0", "lat": 38.9303085, "rental_uris": {"ios": "https://dc.lft.to/lastmile_qr_scan", "android": "https://dc.lft.to/lastmile_qr_scan"}}, {"type": "electric_scooter", "name": "4781a96e348c3d6e4fec5be3911e1b26", "fusion_lon": 0.0, "is_reserved": 0, "lon": -77.03500566666666, "fusion_lat": 0.0, "is_disabled": 0, "bike_id": "4781a96e348c3d6e4fec5be3911e1b26", "lat": 38.92486233333333, "rental_uris": {"ios": "https://dc.lft.to/lastmile_qr_scan", "android": "https://dc.lft.to/lastmile_qr_scan"}}, {"type": "electric_scooter", "name": "986b4b3a1f5adc59bae80cf7908f49a3", "fusion_lon": 0.0, "is_reserved": 0, "lon": -77.012038, "fusion_lat": 0.0, "is_disabled": 0, "bike_id": "986b4b3a1f5adc59bae80cf7908f49a3", "lat": 38.900174, "rental_uris": {"ios": "https://dc.lft.to/lastmile_qr_scan", "android": "https://dc.lft.to/lastmile_qr_scan"}}, {"type": "electric_scooter", "name": "5f05a83a6342ef0feb52195113b56aca", "fusion_lon": 0.0, "is_reserved": 0, "lon": -77.024072, "fusion_lat": 0.0, "is_disabled": 0, "bike_id": "5f05a83a6342ef0feb52195113b56aca", "lat": 38.92085683333333, "rental_uris": {"ios": "https://dc.lft.to/lastmile_qr_scan", "android": "https://dc.lft.to/lastmile_qr_scan"}}, {"type": "electric_scooter", "name": "8779ad6773f3f7646d9ac638f2d83c90", "fusion_lon": 0.0, "is_reserved": 0, "lon": -77.0450565, "fusion_lat": 0.0, "is_disabled": 0, "bike_id": "8779ad6773f3f7646d9ac638f2d83c90", "lat": 38.89221033333333, "rental_uris": {"ios": "https://dc.lft.to/lastmile_qr_scan", "android": "https://dc.lft.to/lastmile_qr_scan"}}, {"type": "electric_scooter", "name": "c9d925edb00f70376a249d030d692944", "fusion_lon": 0.0, "is_reserved": 0, "lon": -77.05631233333334, "fusion_lat": 0.0, "is_disabled": 0, "bike_id": "c9d925edb00f70376a249d030d692944", "lat": 38.931624166666666, "rental_uris": {"ios": "https://dc.lft.to/lastmile_qr_scan", "android": "https://dc.lft.to/lastmile_qr_scan"}}, {"type": "electric_scooter", "name": "148ca80d16c7e60990ab007b990525e1", "fusion_lon": 0.0, "is_reserved": 0, "lon": -77.01950683333334, "fusion_lat": 0.0, "is_disabled": 0, "bike_id": "148ca80d16c7e60990ab007b990525e1", "lat": 38.919287833333335, "rental_uris": {"ios": "https://dc.lft.to/lastmile_qr_scan", "android": "https://dc.lft.to/lastmile_qr_scan"}}, {"type": "electric_scooter", "name": "24ad037142da4a20dc4fb177dce93255", "fusion_lon": 0.0, "is_reserved": 0, "lon": -77.0323455, "fusion_lat": 0.0, "is_disabled": 0, "bike_id": "24ad037142da4a20dc4fb177dce93255", "lat": 38.89933716666667, "rental_uris": {"ios": "https://dc.lft.to/lastmile_qr_scan", "android": "https://dc.lft.to/lastmile_qr_scan"}}, {"type": "electric_scooter", "name": "182450f0859637658b05f32a92399322", "fusion_lon": 0.0, "is_reserved": 0, "lon": -77.002044, "fusion_lat": 0.0, "is_disabled": 0, "bike_id": "182450f0859637658b05f32a92399322", "lat": 38.906243, "rental_uris": {"ios": "https://dc.lft.to/lastmile_qr_scan", "android": "https://dc.lft.to/lastmile_qr_scan"}}, {"type": "electric_scooter", "name": "90922e514ffd755f18be40d25240f656", "fusion_lon": 0.0, "is_reserved": 0, "lon": -77.05115833333333, "fusion_lat": 0.0, "is_disabled": 0, "bike_id": "90922e514ffd755f18be40d25240f656", "lat": 38.90575583333333, "rental_uris": {"ios": "https://dc.lft.to/lastmile_qr_scan", "android": "https://dc.lft.to/lastmile_qr_scan"}}, {"type": "electric_scooter", "name": "82be46d2ed44aa36e9d01da980386c9c", "fusion_lon": 0.0, "is_reserved": 0, "lon": -77.03403233333333, "fusion_lat": 0.0, "is_disabled": 0, "bike_id": "82be46d2ed44aa36e9d01da980386c9c", "lat": 38.90604233333333, "rental_uris": {"ios": "https://dc.lft.to/lastmile_qr_scan", "android": "https://dc.lft.to/lastmile_qr_scan"}}, {"type": "electric_scooter", "name": "faf2c867c97e3b88d7e6cdb1df5d06f9", "fusion_lon": 0.0, "is_reserved": 0, "lon": -77.02536216666667, "fusion_lat": 0.0, "is_disabled": 0, "bike_id": "faf2c867c97e3b88d7e6cdb1df5d06f9", "lat": 38.9275725, "rental_uris": {"ios": "https://dc.lft.to/lastmile_qr_scan", "android": "https://dc.lft.to/lastmile_qr_scan"}}, {"type": "electric_scooter", "name": "c64b8206e49255d437927595d07ef509", "fusion_lon": 0.0, "is_reserved": 0, "lon": -77.01275766666667, "fusion_lat": 0.0, "is_disabled": 0, "bike_id": "c64b8206e49255d437927595d07ef509", "lat": 38.956680666666664, "rental_uris": {"ios": "https://dc.lft.to/lastmile_qr_scan", "android": "https://dc.lft.to/lastmile_qr_scan"}}, {"type": "electric_bike", "name": "63b1d10792529f8d47380f2329e297f0", "fusion_lon": 0.0, "is_reserved": 0, "lon": -76.99784383333333, "fusion_lat": 0.0, "is_disabled": 0, "bike_id": "63b1d10792529f8d47380f2329e297f0", "lat": 38.829197, "rental_uris": {"ios": "https://dc.lft.to/lastmile_qr_scan", "android": "https://dc.lft.to/lastmile_qr_scan"}}, {"type": "electric_scooter", "name": "eb18dab1fabb774a3ea7d242f995aaba", "fusion_lon": 0.0, "is_reserved": 0, "lon": -77.03084533333333, "fusion_lat": 0.0, "is_disabled": 0, "bike_id": "eb18dab1fabb774a3ea7d242f995aaba", "lat": 38.938690333333334, "rental_uris": {"ios": "https://dc.lft.to/lastmile_qr_scan", "android": "https://dc.lft.to/lastmile_qr_scan"}}, {"type": "electric_scooter", "name": "99d6413acde83140c505b07dd922866c", "fusion_lon": 0.0, "is_reserved": 0, "lon": -77.00804333333333, "fusion_lat": 0.0, "is_disabled": 0, "bike_id": "99d6413acde83140c505b07dd922866c", "lat": 38.89637533333333, "rental_uris": {"ios": "https://dc.lft.to/lastmile_qr_scan", "android": "https://dc.lft.to/lastmile_qr_scan"}}, {"type": "electric_scooter", "name": "e146158397bc1ac797aea4c65f37569f", "fusion_lon": 0.0, "is_reserved": 0, "lon": -77.06779533333334, "fusion_lat": 0.0, "is_disabled": 0, "bike_id": "e146158397bc1ac797aea4c65f37569f", "lat": 38.90402866666667, "rental_uris": {"ios": "https://dc.lft.to/lastmile_qr_scan", "android": "https://dc.lft.to/lastmile_qr_scan"}}, {"type": "electric_scooter", "name": "3410d71cf48120c83cd8b93672a4ae73", "fusion_lon": 0.0, "is_reserved": 0, "lon": -77.023938, "fusion_lat": 0.0, "is_disabled": 0, "bike_id": "3410d71cf48120c83cd8b93672a4ae73", "lat": 38.9208325, "rental_uris": {"ios": "https://dc.lft.to/lastmile_qr_scan", "android": "https://dc.lft.to/lastmile_qr_scan"}}, {"type": "electric_scooter", "name": "038f2128eb8b57169e3b7624e15028af", "fusion_lon": 0.0, "is_reserved": 0, "lon": -76.9993685, "fusion_lat": 0.0, "is_disabled": 0, "bike_id": "038f2128eb8b57169e3b7624e15028af", "lat": 38.84313566666667, "rental_uris": {"ios": "https://dc.lft.to/lastmile_qr_scan", "android": "https://dc.lft.to/lastmile_qr_scan"}}, {"type": "electric_scooter", "name": "e4020d982e16c75cc7cc6b0d219e873d", "fusion_lon": 0.0, "is_reserved": 0, "lon": -76.98814466666667, "fusion_lat": 0.0, "is_disabled": 0, "bike_id": "e4020d982e16c75cc7cc6b0d219e873d", "lat": 38.90036416666667, "rental_uris": {"ios": "https://dc.lft.to/lastmile_qr_scan", "android": "https://dc.lft.to/lastmile_qr_scan"}}, {"type": "electric_scooter", "name": "b526811d922652113adb0c913b1b4c85", "fusion_lon": 0.0, "is_reserved": 0, "lon": -77.01240133333333, "fusion_lat": 0.0, "is_disabled": 0, "bike_id": "b526811d922652113adb0c913b1b4c85", "lat": 38.88603533333333, "rental_uris": {"ios": "https://dc.lft.to/lastmile_qr_scan", "android": "https://dc.lft.to/lastmile_qr_scan"}}, {"type": "electric_scooter", "name": "7f1bf55f66f47938bb26b4362f78b343", "fusion_lon": 0.0, "is_reserved": 0, "lon": -77.02339466666666, "fusion_lat": 0.0, "is_disabled": 0, "bike_id": "7f1bf55f66f47938bb26b4362f78b343", "lat": 38.916554166666664, "rental_uris": {"ios": "https://dc.lft.to/lastmile_qr_scan", "android": "https://dc.lft.to/lastmile_qr_scan"}}, {"type": "electric_scooter", "name": "c938a039831e2df6abd281a212bfa378", "fusion_lon": 0.0, "is_reserved": 0, "lon": -77.029716, "fusion_lat": 0.0, "is_disabled": 0, "bike_id": "c938a039831e2df6abd281a212bfa378", "lat": 38.916806666666666, "rental_uris": {"ios": "https://dc.lft.to/lastmile_qr_scan", "android": "https://dc.lft.to/lastmile_qr_scan"}}, {"type": "electric_scooter", "name": "66d9ccd38f0427e6f28448435e2b5fae", "fusion_lon": 0.0, "is_reserved": 0, "lon": -76.9553125, "fusion_lat": 0.0, "is_disabled": 0, "bike_id": "66d9ccd38f0427e6f28448435e2b5fae", "lat": 38.8876825, "rental_uris": {"ios": "https://dc.lft.to/lastmile_qr_scan", "android": "https://dc.lft.to/lastmile_qr_scan"}}, {"type": "electric_bike", "name": "0912dcd8a3d0e52ef4e6f6681aeb2578", "fusion_lon": 0.0, "is_reserved": 0, "lon": -76.92136583333334, "fusion_lat": 0.0, "is_disabled": 0, "bike_id": "0912dcd8a3d0e52ef4e6f6681aeb2578", "lat": 39.013765, "rental_uris": {"ios": "https://dc.lft.to/lastmile_qr_scan", "android": "https://dc.lft.to/lastmile_qr_scan"}}, {"type": "electric_scooter", "name": "c5fc7637c5bc9142e000be3f439cd486", "fusion_lon": 0.0, "is_reserved": 0, "lon": -76.995992, "fusion_lat": 0.0, "is_disabled": 0, "bike_id": "c5fc7637c5bc9142e000be3f439cd486", "lat": 38.885661, "rental_uris": {"ios": "https://dc.lft.to/lastmile_qr_scan", "android": "https://dc.lft.to/lastmile_qr_scan"}}, {"type": "electric_scooter", "name": "953eda1ef8c271c8b2e513288b497224", "fusion_lon": 0.0, "is_reserved": 0, "lon": -77.032434, "fusion_lat": 0.0, "is_disabled": 0, "bike_id": "953eda1ef8c271c8b2e513288b497224", "lat": 38.9253665, "rental_uris": {"ios": "https://dc.lft.to/lastmile_qr_scan", "android": "https://dc.lft.to/lastmile_qr_scan"}}, {"type": "electric_scooter", "name": "653d6921b1415a473f73431dfd1bc19b", "fusion_lon": 0.0, "is_reserved": 0, "lon": -77.03854583333333, "fusion_lat": 0.0, "is_disabled": 0, "bike_id": "653d6921b1415a473f73431dfd1bc19b", "lat": 38.919666166666666, "rental_uris": {"ios": "https://dc.lft.to/lastmile_qr_scan", "android": "https://dc.lft.to/lastmile_qr_scan"}}, {"type": "electric_scooter", "name": "7bc69234f35f301b5d18b26cc9868e3b", "fusion_lon": 0.0, "is_reserved": 0, "lon": -77.04334233333333, "fusion_lat": 0.0, "is_disabled": 0, "bike_id": "7bc69234f35f301b5d18b26cc9868e3b", "lat": 38.89225733333333, "rental_uris": {"ios": "https://dc.lft.to/lastmile_qr_scan", "android": "https://dc.lft.to/lastmile_qr_scan"}}, {"type": "electric_scooter", "name": "da7af4bc51125e73093a4b01620130b4", "fusion_lon": 0.0, "is_reserved": 0, "lon": -77.028133, "fusion_lat": 0.0, "is_disabled": 0, "bike_id": "da7af4bc51125e73093a4b01620130b4", "lat": 38.90615483333333, "rental_uris": {"ios": "https://dc.lft.to/lastmile_qr_scan", "android": "https://dc.lft.to/lastmile_qr_scan"}}, {"type": "electric_bike", "name": "b1f40b039f1e0d3b498b9be4462d1ae8", "fusion_lon": 0.0, "is_reserved": 0, "lon": -76.9847445, "fusion_lat": 0.0, "is_disabled": 0, "bike_id": "b1f40b039f1e0d3b498b9be4462d1ae8", "lat": 38.929020333333334, "rental_uris": {"ios": "https://dc.lft.to/lastmile_qr_scan", "android": "https://dc.lft.to/lastmile_qr_scan"}}, {"type": "electric_scooter", "name": "0595a699c41df0f785761698bac4d770", "fusion_lon": 0.0, "is_reserved": 0, "lon": -77.03382083333334, "fusion_lat": 0.0, "is_disabled": 0, "bike_id": "0595a699c41df0f785761698bac4d770", "lat": 38.91970283333333, "rental_uris": {"ios": "https://dc.lft.to/lastmile_qr_scan", "android": "https://dc.lft.to/lastmile_qr_scan"}}, {"type": "electric_scooter", "name": "a5dfea6f9162a3b4e6891e15cc58a662", "fusion_lon": 0.0, "is_reserved": 0, "lon": -77.0159255, "fusion_lat": 0.0, "is_disabled": 0, "bike_id": "a5dfea6f9162a3b4e6891e15cc58a662", "lat": 38.9168955, "rental_uris": {"ios": "https://dc.lft.to/lastmile_qr_scan", "android": "https://dc.lft.to/lastmile_qr_scan"}}, {"type": "electric_scooter", "name": "d8476f98da5dd5df38e5f360fc0409e9", "fusion_lon": 0.0, "is_reserved": 0, "lon": -77.03218783333334, "fusion_lat": 0.0, "is_disabled": 0, "bike_id": "d8476f98da5dd5df38e5f360fc0409e9", "lat": 38.884853166666666, "rental_uris": {"ios": "https://dc.lft.to/lastmile_qr_scan", "android": "https://dc.lft.to/lastmile_qr_scan"}}, {"type": "electric_scooter", "name": "fc29fbb1da34709bdbc834f42fdb7027", "fusion_lon": 0.0, "is_reserved": 0, "lon": -77.0128585, "fusion_lat": 0.0, "is_disabled": 0, "bike_id": "fc29fbb1da34709bdbc834f42fdb7027", "lat": 38.9005175, "rental_uris": {"ios": "https://dc.lft.to/lastmile_qr_scan", "android": "https://dc.lft.to/lastmile_qr_scan"}}, {"type": "electric_bike", "name": "e57b2aca994d32cf4f1630d8e0f14544", "fusion_lon": 0.0, "is_reserved": 0, "lon": -77.00332666666667, "fusion_lat": 0.0, "is_disabled": 0, "bike_id": "e57b2aca994d32cf4f1630d8e0f14544", "lat": 38.899443833333336, "rental_uris": {"ios": "https://dc.lft.to/lastmile_qr_scan", "android": "https://dc.lft.to/lastmile_qr_scan"}}, {"type": "electric_scooter", "name": "3e1d7f6fcb644e91ae97ce631f7e309b", "fusion_lon": 0.0, "is_reserved": 0, "lon": -76.97546016666666, "fusion_lat": 0.0, "is_disabled": 0, "bike_id": "3e1d7f6fcb644e91ae97ce631f7e309b", "lat": 38.903259, "rental_uris": {"ios": "https://dc.lft.to/lastmile_qr_scan", "android": "https://dc.lft.to/lastmile_qr_scan"}}, {"type": "electric_scooter", "name": "12c303f27157a6d2660553b84df8c69b", "fusion_lon": 0.0, "is_reserved": 0, "lon": -76.98592666666667, "fusion_lat": 0.0, "is_disabled": 0, "bike_id": "12c303f27157a6d2660553b84df8c69b", "lat": 38.86705233333333, "rental_uris": {"ios": "https://dc.lft.to/lastmile_qr_scan", "android": "https://dc.lft.to/lastmile_qr_scan"}}, {"type": "electric_scooter", "name": "7637bdcbf0fc6b9907505f8f441c7b84", "fusion_lon": 0.0, "is_reserved": 0, "lon": -77.04357616666667, "fusion_lat": 0.0, "is_disabled": 0, "bike_id": "7637bdcbf0fc6b9907505f8f441c7b84", "lat": 38.90110516666667, "rental_uris": {"ios": "https://dc.lft.to/lastmile_qr_scan", "android": "https://dc.lft.to/lastmile_qr_scan"}}, {"type": "electric_scooter", "name": "c26ac65e8e9bc17801447020a849d2b4", "fusion_lon": 0.0, "is_reserved": 0, "lon": -77.01413516666666, "fusion_lat": 0.0, "is_disabled": 0, "bike_id": "c26ac65e8e9bc17801447020a849d2b4", "lat": 38.928847, "rental_uris": {"ios": "https://dc.lft.to/lastmile_qr_scan", "android": "https://dc.lft.to/lastmile_qr_scan"}}, {"type": "electric_scooter", "name": "6c161c62d40861f1cd5edef8c8600eff", "fusion_lon": 0.0, "is_reserved": 0, "lon": -76.98169383333334, "fusion_lat": 0.0, "is_disabled": 0, "bike_id": "6c161c62d40861f1cd5edef8c8600eff", "lat": 38.8986365, "rental_uris": {"ios": "https://dc.lft.to/lastmile_qr_scan", "android": "https://dc.lft.to/lastmile_qr_scan"}}, {"type": "electric_scooter", "name": "28082155f1974e00ba13f0aff61d8fc2", "fusion_lon": 0.0, "is_reserved": 0, "lon": -77.03662633333333, "fusion_lat": 0.0, "is_disabled": 0, "bike_id": "28082155f1974e00ba13f0aff61d8fc2", "lat": 38.9223915, "rental_uris": {"ios": "https://dc.lft.to/lastmile_qr_scan", "android": "https://dc.lft.to/lastmile_qr_scan"}}, {"type": "electric_scooter", "name": "6ebf02c766368f95ebfd4870c3c1fba9", "fusion_lon": 0.0, "is_reserved": 0, "lon": -77.030027, "fusion_lat": 0.0, "is_disabled": 0, "bike_id": "6ebf02c766368f95ebfd4870c3c1fba9", "lat": 38.90131083333333, "rental_uris": {"ios": "https://dc.lft.to/lastmile_qr_scan", "android": "https://dc.lft.to/lastmile_qr_scan"}}, {"type": "electric_bike", "name": "50fb9e5815fe37fde76e3816d13e30b1", "fusion_lon": 0.0, "is_reserved": 0, "lon": -77.06171633333334, "fusion_lat": 0.0, "is_disabled": 0, "bike_id": "50fb9e5815fe37fde76e3816d13e30b1", "lat": 38.8069905, "rental_uris": {"ios": "https://dc.lft.to/lastmile_qr_scan", "android": "https://dc.lft.to/lastmile_qr_scan"}}, {"type": "electric_bike", "name": "bb6f1c0ef80569f85182e26fba4546af", "fusion_lon": 0.0, "is_reserved": 0, "lon": -77.02116216666667, "fusion_lat": 0.0, "is_disabled": 0, "bike_id": "bb6f1c0ef80569f85182e26fba4546af", "lat": 38.93631516666667, "rental_uris": {"ios": "https://dc.lft.to/lastmile_qr_scan", "android": "https://dc.lft.to/lastmile_qr_scan"}}, {"type": "electric_scooter", "name": "d9447efaa7180129551fc5cd0ff22944", "fusion_lon": 0.0, "is_reserved": 0, "lon": -76.9558395, "fusion_lat": 0.0, "is_disabled": 0, "bike_id": "d9447efaa7180129551fc5cd0ff22944", "lat": 38.88621066666666, "rental_uris": {"ios": "https://dc.lft.to/lastmile_qr_scan", "android": "https://dc.lft.to/lastmile_qr_scan"}}, {"type": "electric_bike", "name": "6de66455eb0e69fc97378e20217275b5", "fusion_lon": 0.0, "is_reserved": 0, "lon": -77.09467516666666, "fusion_lat": 0.0, "is_disabled": 0, "bike_id": "6de66455eb0e69fc97378e20217275b5", "lat": 38.807615166666665, "rental_uris": {"ios": "https://dc.lft.to/lastmile_qr_scan", "android": "https://dc.lft.to/lastmile_qr_scan"}}, {"type": "electric_scooter", "name": "67bce2e541963e05ff23baa809497106", "fusion_lon": 0.0, "is_reserved": 0, "lon": -77.04657416666667, "fusion_lat": 0.0, "is_disabled": 0, "bike_id": "67bce2e541963e05ff23baa809497106", "lat": 38.897501, "rental_uris": {"ios": "https://dc.lft.to/lastmile_qr_scan", "android": "https://dc.lft.to/lastmile_qr_scan"}}, {"type": "electric_scooter", "name": "37ca80785b48e87234b9ad565398cf4b", "fusion_lon": 0.0, "is_reserved": 0, "lon": -77.0282915, "fusion_lat": 0.0, "is_disabled": 0, "bike_id": "37ca80785b48e87234b9ad565398cf4b", "lat": 38.8873055, "rental_uris": {"ios": "https://dc.lft.to/lastmile_qr_scan", "android": "https://dc.lft.to/lastmile_qr_scan"}}, {"type": "electric_scooter", "name": "50efadffed0f7b08767fa89871558d88", "fusion_lon": 0.0, "is_reserved": 0, "lon": -77.037798, "fusion_lat": 0.0, "is_disabled": 0, "bike_id": "50efadffed0f7b08767fa89871558d88", "lat": 38.9252545, "rental_uris": {"ios": "https://dc.lft.to/lastmile_qr_scan", "android": "https://dc.lft.to/lastmile_qr_scan"}}, {"type": "electric_scooter", "name": "ca8c49b00cab2f6fe3cae111c75ba14e", "fusion_lon": 0.0, "is_reserved": 0, "lon": -77.03832466666667, "fusion_lat": 0.0, "is_disabled": 0, "bike_id": "ca8c49b00cab2f6fe3cae111c75ba14e", "lat": 38.91190516666666, "rental_uris": {"ios": "https://dc.lft.to/lastmile_qr_scan", "android": "https://dc.lft.to/lastmile_qr_scan"}}, {"type": "electric_scooter", "name": "2dcc4ed1a501d16bca6a484f24713f48", "fusion_lon": 0.0, "is_reserved": 0, "lon": -77.03256933333333, "fusion_lat": 0.0, "is_disabled": 0, "bike_id": "2dcc4ed1a501d16bca6a484f24713f48", "lat": 38.89534666666667, "rental_uris": {"ios": "https://dc.lft.to/lastmile_qr_scan", "android": "https://dc.lft.to/lastmile_qr_scan"}}, {"type": "electric_scooter", "name": "7efbf98a15ba78521478e57c1868e72a", "fusion_lon": 0.0, "is_reserved": 0, "lon": -77.03341933333333, "fusion_lat": 0.0, "is_disabled": 0, "bike_id": "7efbf98a15ba78521478e57c1868e72a", "lat": 38.92103383333333, "rental_uris": {"ios": "https://dc.lft.to/lastmile_qr_scan", "android": "https://dc.lft.to/lastmile_qr_scan"}}, {"type": "electric_scooter", "name": "a302730a5b901b34e5f1dc7d1e12d237", "fusion_lon": 0.0, "is_reserved": 0, "lon": -77.01302233333334, "fusion_lat": 0.0, "is_disabled": 0, "bike_id": "a302730a5b901b34e5f1dc7d1e12d237", "lat": 38.93006866666666, "rental_uris": {"ios": "https://dc.lft.to/lastmile_qr_scan", "android": "https://dc.lft.to/lastmile_qr_scan"}}, {"type": "electric_scooter", "name": "1ce68c435ca6961b2c82318191cd02ef", "fusion_lon": 0.0, "is_reserved": 0, "lon": -77.032061, "fusion_lat": 0.0, "is_disabled": 0, "bike_id": "1ce68c435ca6961b2c82318191cd02ef", "lat": 38.91794, "rental_uris": {"ios": "https://dc.lft.to/lastmile_qr_scan", "android": "https://dc.lft.to/lastmile_qr_scan"}}, {"type": "electric_scooter", "name": "829a7159ac0bbfe9bf538cbf98711500", "fusion_lon": 0.0, "is_reserved": 0, "lon": -77.05076166666667, "fusion_lat": 0.0, "is_disabled": 0, "bike_id": "829a7159ac0bbfe9bf538cbf98711500", "lat": 38.92357916666667, "rental_uris": {"ios": "https://dc.lft.to/lastmile_qr_scan", "android": "https://dc.lft.to/lastmile_qr_scan"}}, {"type": "electric_scooter", "name": "7a52e7cb1564a86005b349d6cd85d6a4", "fusion_lon": 0.0, "is_reserved": 0, "lon": -77.037601, "fusion_lat": 0.0, "is_disabled": 0, "bike_id": "7a52e7cb1564a86005b349d6cd85d6a4", "lat": 38.90870183333333, "rental_uris": {"ios": "https://dc.lft.to/lastmile_qr_scan", "android": "https://dc.lft.to/lastmile_qr_scan"}}, {"type": "electric_scooter", "name": "5e3e2d8196fbd8cb46048a1089a91238", "fusion_lon": 0.0, "is_reserved": 0, "lon": -77.02406133333334, "fusion_lat": 0.0, "is_disabled": 0, "bike_id": "5e3e2d8196fbd8cb46048a1089a91238", "lat": 38.89373533333333, "rental_uris": {"ios": "https://dc.lft.to/lastmile_qr_scan", "android": "https://dc.lft.to/lastmile_qr_scan"}}, {"type": "electric_scooter", "name": "ff560d98994f19cc3a815c6082f6d2c3", "fusion_lon": 0.0, "is_reserved": 0, "lon": -77.04374183333333, "fusion_lat": 0.0, "is_disabled": 0, "bike_id": "ff560d98994f19cc3a815c6082f6d2c3", "lat": 38.89221883333333, "rental_uris": {"ios": "https://dc.lft.to/lastmile_qr_scan", "android": "https://dc.lft.to/lastmile_qr_scan"}}, {"type": "electric_scooter", "name": "b2bb98261403c71c407db2ecd0cb88a0", "fusion_lon": 0.0, "is_reserved": 0, "lon": -77.00542816666666, "fusion_lat": 0.0, "is_disabled": 0, "bike_id": "b2bb98261403c71c407db2ecd0cb88a0", "lat": 38.8745915, "rental_uris": {"ios": "https://dc.lft.to/lastmile_qr_scan", "android": "https://dc.lft.to/lastmile_qr_scan"}}, {"type": "electric_scooter", "name": "b85c2fbfddbade0074671b781c7ef162", "fusion_lon": 0.0, "is_reserved": 0, "lon": -77.03225366666666, "fusion_lat": 0.0, "is_disabled": 0, "bike_id": "b85c2fbfddbade0074671b781c7ef162", "lat": 38.92016116666667, "rental_uris": {"ios": "https://dc.lft.to/lastmile_qr_scan", "android": "https://dc.lft.to/lastmile_qr_scan"}}, {"type": "electric_scooter", "name": "af2a4ebb5b0bece1a0416ccae2a05123", "fusion_lon": 0.0, "is_reserved": 0, "lon": -77.0383085, "fusion_lat": 0.0, "is_disabled": 0, "bike_id": "af2a4ebb5b0bece1a0416ccae2a05123", "lat": 38.90765366666667, "rental_uris": {"ios": "https://dc.lft.to/lastmile_qr_scan", "android": "https://dc.lft.to/lastmile_qr_scan"}}, {"type": "electric_scooter", "name": "eb17ccf15556dec2adc35f1bcbea3b97", "fusion_lon": 0.0, "is_reserved": 0, "lon": -77.04285766666666, "fusion_lat": 0.0, "is_disabled": 0, "bike_id": "eb17ccf15556dec2adc35f1bcbea3b97", "lat": 38.92287533333333, "rental_uris": {"ios": "https://dc.lft.to/lastmile_qr_scan", "android": "https://dc.lft.to/lastmile_qr_scan"}}, {"type": "electric_scooter", "name": "49ef9a4cfb40d691eafa246e20df12c4", "fusion_lon": 0.0, "is_reserved": 0, "lon": -77.03209616666666, "fusion_lat": 0.0, "is_disabled": 0, "bike_id": "49ef9a4cfb40d691eafa246e20df12c4", "lat": 38.921721166666664, "rental_uris": {"ios": "https://dc.lft.to/lastmile_qr_scan", "android": "https://dc.lft.to/lastmile_qr_scan"}}, {"type": "electric_scooter", "name": "b7e2e75ab0159d19042573b8665b4ecd", "fusion_lon": 0.0, "is_reserved": 0, "lon": -77.04025333333334, "fusion_lat": 0.0, "is_disabled": 0, "bike_id": "b7e2e75ab0159d19042573b8665b4ecd", "lat": 38.90359433333333, "rental_uris": {"ios": "https://dc.lft.to/lastmile_qr_scan", "android": "https://dc.lft.to/lastmile_qr_scan"}}, {"type": "electric_scooter", "name": "2e55ac31f247416fda00f2fc9dfacd4e", "fusion_lon": 0.0, "is_reserved": 0, "lon": -77.00464133333334, "fusion_lat": 0.0, "is_disabled": 0, "bike_id": "2e55ac31f247416fda00f2fc9dfacd4e", "lat": 38.911924166666665, "rental_uris": {"ios": "https://dc.lft.to/lastmile_qr_scan", "android": "https://dc.lft.to/lastmile_qr_scan"}}, {"type": "electric_scooter", "name": "87180ae5734f9e37debc4f47240619ed", "fusion_lon": 0.0, "is_reserved": 0, "lon": -77.0182195, "fusion_lat": 0.0, "is_disabled": 0, "bike_id": "87180ae5734f9e37debc4f47240619ed", "lat": 38.922535, "rental_uris": {"ios": "https://dc.lft.to/lastmile_qr_scan", "android": "https://dc.lft.to/lastmile_qr_scan"}}, {"type": "electric_scooter", "name": "4fe496af8a41c828876ac37071d06b8f", "fusion_lon": 0.0, "is_reserved": 0, "lon": -77.03417083333333, "fusion_lat": 0.0, "is_disabled": 0, "bike_id": "4fe496af8a41c828876ac37071d06b8f", "lat": 38.9324535, "rental_uris": {"ios": "https://dc.lft.to/lastmile_qr_scan", "android": "https://dc.lft.to/lastmile_qr_scan"}}, {"type": "electric_bike", "name": "bfb7ed8a4672e009c836f8a86fb491e3", "fusion_lon": 0.0, "is_reserved": 0, "lon": -77.00320183333334, "fusion_lat": 0.0, "is_disabled": 0, "bike_id": "bfb7ed8a4672e009c836f8a86fb491e3", "lat": 38.907688666666665, "rental_uris": {"ios": "https://dc.lft.to/lastmile_qr_scan", "android": "https://dc.lft.to/lastmile_qr_scan"}}, {"type": "electric_bike", "name": "39aeebab03f4c4d899e5d938324629fc", "fusion_lon": 0.0, "is_reserved": 0, "lon": -77.08816166666666, "fusion_lat": 0.0, "is_disabled": 0, "bike_id": "39aeebab03f4c4d899e5d938324629fc", "lat": 38.87171566666667, "rental_uris": {"ios": "https://dc.lft.to/lastmile_qr_scan", "android": "https://dc.lft.to/lastmile_qr_scan"}}, {"type": "electric_scooter", "name": "24a5fddd0dec3c2efbf1ead1735e0012", "fusion_lon": 0.0, "is_reserved": 0, "lon": -76.93407133333334, "fusion_lat": 0.0, "is_disabled": 0, "bike_id": "24a5fddd0dec3c2efbf1ead1735e0012", "lat": 38.89912733333333, "rental_uris": {"ios": "https://dc.lft.to/lastmile_qr_scan", "android": "https://dc.lft.to/lastmile_qr_scan"}}, {"type": "electric_scooter", "name": "62f52228d08d57a6f8028f990b37fa83", "fusion_lon": 0.0, "is_reserved": 0, "lon": -77.0085365, "fusion_lat": 0.0, "is_disabled": 0, "bike_id": "62f52228d08d57a6f8028f990b37fa83", "lat": 38.910929, "rental_uris": {"ios": "https://dc.lft.to/lastmile_qr_scan", "android": "https://dc.lft.to/lastmile_qr_scan"}}, {"type": "electric_scooter", "name": "e46d0c85e73fa3539a5313c4ff806cfe", "fusion_lon": 0.0, "is_reserved": 0, "lon": -77.05061433333333, "fusion_lat": 0.0, "is_disabled": 0, "bike_id": "e46d0c85e73fa3539a5313c4ff806cfe", "lat": 38.924113, "rental_uris": {"ios": "https://dc.lft.to/lastmile_qr_scan", "android": "https://dc.lft.to/lastmile_qr_scan"}}, {"type": "electric_scooter", "name": "56e3183e6f2ce82ad3f26b61aa4b25c6", "fusion_lon": 0.0, "is_reserved": 0, "lon": -77.04488083333334, "fusion_lat": 0.0, "is_disabled": 0, "bike_id": "56e3183e6f2ce82ad3f26b61aa4b25c6", "lat": 38.89790133333333, "rental_uris": {"ios": "https://dc.lft.to/lastmile_qr_scan", "android": "https://dc.lft.to/lastmile_qr_scan"}}, {"type": "electric_scooter", "name": "e2cf48fa5f024f752930b00a543a9464", "fusion_lon": 0.0, "is_reserved": 0, "lon": -77.024065, "fusion_lat": 0.0, "is_disabled": 0, "bike_id": "e2cf48fa5f024f752930b00a543a9464", "lat": 38.91996616666667, "rental_uris": {"ios": "https://dc.lft.to/lastmile_qr_scan", "android": "https://dc.lft.to/lastmile_qr_scan"}}, {"type": "electric_scooter", "name": "dc4bcf33a19cf6f1720fb670b714e19f", "fusion_lon": 0.0, "is_reserved": 0, "lon": -77.030979, "fusion_lat": 0.0, "is_disabled": 0, "bike_id": "dc4bcf33a19cf6f1720fb670b714e19f", "lat": 38.928634333333335, "rental_uris": {"ios": "https://dc.lft.to/lastmile_qr_scan", "android": "https://dc.lft.to/lastmile_qr_scan"}}, {"type": "electric_scooter", "name": "297441b808a18df7bb4f14dad228bffd", "fusion_lon": 0.0, "is_reserved": 0, "lon": -77.04968733333334, "fusion_lat": 0.0, "is_disabled": 0, "bike_id": "297441b808a18df7bb4f14dad228bffd", "lat": 38.907263666666665, "rental_uris": {"ios": "https://dc.lft.to/lastmile_qr_scan", "android": "https://dc.lft.to/lastmile_qr_scan"}}, {"type": "electric_scooter", "name": "3e32a56a7ce84151e2608d4755b94e3b", "fusion_lon": 0.0, "is_reserved": 0, "lon": -77.00247466666667, "fusion_lat": 0.0, "is_disabled": 0, "bike_id": "3e32a56a7ce84151e2608d4755b94e3b", "lat": 38.910952, "rental_uris": {"ios": "https://dc.lft.to/lastmile_qr_scan", "android": "https://dc.lft.to/lastmile_qr_scan"}}, {"type": "electric_scooter", "name": "632e320276c264c4b1c0ca450d768829", "fusion_lon": 0.0, "is_reserved": 0, "lon": -77.0313595, "fusion_lat": 0.0, "is_disabled": 0, "bike_id": "632e320276c264c4b1c0ca450d768829", "lat": 38.920347, "rental_uris": {"ios": "https://dc.lft.to/lastmile_qr_scan", "android": "https://dc.lft.to/lastmile_qr_scan"}}, {"type": "electric_scooter", "name": "a4c1a9d57cca6329471e0f0ef7234fd5", "fusion_lon": 0.0, "is_reserved": 0, "lon": -76.93763066666666, "fusion_lat": 0.0, "is_disabled": 0, "bike_id": "a4c1a9d57cca6329471e0f0ef7234fd5", "lat": 38.903773, "rental_uris": {"ios": "https://dc.lft.to/lastmile_qr_scan", "android": "https://dc.lft.to/lastmile_qr_scan"}}, {"type": "electric_scooter", "name": "d2276d49a521146f8ac6edae88bac655", "fusion_lon": 0.0, "is_reserved": 0, "lon": -77.0215455, "fusion_lat": 0.0, "is_disabled": 0, "bike_id": "d2276d49a521146f8ac6edae88bac655", "lat": 38.92444666666667, "rental_uris": {"ios": "https://dc.lft.to/lastmile_qr_scan", "android": "https://dc.lft.to/lastmile_qr_scan"}}, {"type": "electric_scooter", "name": "160802755b0c1c8021d8dd923a824c97", "fusion_lon": 0.0, "is_reserved": 0, "lon": -77.019514, "fusion_lat": 0.0, "is_disabled": 0, "bike_id": "160802755b0c1c8021d8dd923a824c97", "lat": 38.92313816666667, "rental_uris": {"ios": "https://dc.lft.to/lastmile_qr_scan", "android": "https://dc.lft.to/lastmile_qr_scan"}}, {"type": "electric_bike", "name": "1b31e8ce917cbc9997a8652050589213", "fusion_lon": 0.0, "is_reserved": 0, "lon": -77.04977833333334, "fusion_lat": 0.0, "is_disabled": 0, "bike_id": "1b31e8ce917cbc9997a8652050589213", "lat": 39.062917666666664, "rental_uris": {"ios": "https://dc.lft.to/lastmile_qr_scan", "android": "https://dc.lft.to/lastmile_qr_scan"}}, {"type": "electric_scooter", "name": "43ddce17763dbaa80fdff4038509b8a3", "fusion_lon": 0.0, "is_reserved": 0, "lon": -77.07269716666667, "fusion_lat": 0.0, "is_disabled": 0, "bike_id": "43ddce17763dbaa80fdff4038509b8a3", "lat": 38.90913283333333, "rental_uris": {"ios": "https://dc.lft.to/lastmile_qr_scan", "android": "https://dc.lft.to/lastmile_qr_scan"}}, {"type": "electric_scooter", "name": "ed59f516f00b8293c3e19ed7c5ea11f6", "fusion_lon": 0.0, "is_reserved": 0, "lon": -77.02347083333333, "fusion_lat": 0.0, "is_disabled": 0, "bike_id": "ed59f516f00b8293c3e19ed7c5ea11f6", "lat": 38.89219583333333, "rental_uris": {"ios": "https://dc.lft.to/lastmile_qr_scan", "android": "https://dc.lft.to/lastmile_qr_scan"}}, {"type": "electric_scooter", "name": "685fd0dff731ea95a5dd39e8210f442c", "fusion_lon": 0.0, "is_reserved": 0, "lon": -76.93059433333333, "fusion_lat": 0.0, "is_disabled": 0, "bike_id": "685fd0dff731ea95a5dd39e8210f442c", "lat": 38.90152233333333, "rental_uris": {"ios": "https://dc.lft.to/lastmile_qr_scan", "android": "https://dc.lft.to/lastmile_qr_scan"}}, {"type": "electric_scooter", "name": "71515d529bb6cb04f7c3e3caa1788b10", "fusion_lon": 0.0, "is_reserved": 0, "lon": -77.03705366666667, "fusion_lat": 0.0, "is_disabled": 0, "bike_id": "71515d529bb6cb04f7c3e3caa1788b10", "lat": 38.906364333333336, "rental_uris": {"ios": "https://dc.lft.to/lastmile_qr_scan", "android": "https://dc.lft.to/lastmile_qr_scan"}}, {"type": "electric_scooter", "name": "3fb431403781732602247e5118213f99", "fusion_lon": 0.0, "is_reserved": 0, "lon": -77.04000666666667, "fusion_lat": 0.0, "is_disabled": 0, "bike_id": "3fb431403781732602247e5118213f99", "lat": 38.9246995, "rental_uris": {"ios": "https://dc.lft.to/lastmile_qr_scan", "android": "https://dc.lft.to/lastmile_qr_scan"}}, {"type": "electric_scooter", "name": "fd0a2c28fdfc031474d9b10203e760ee", "fusion_lon": 0.0, "is_reserved": 0, "lon": -77.01321966666667, "fusion_lat": 0.0, "is_disabled": 0, "bike_id": "fd0a2c28fdfc031474d9b10203e760ee", "lat": 38.930012166666664, "rental_uris": {"ios": "https://dc.lft.to/lastmile_qr_scan", "android": "https://dc.lft.to/lastmile_qr_scan"}}, {"type": "electric_bike", "name": "3cab1fe94be54e5ce1663dc35846a883", "fusion_lon": 0.0, "is_reserved": 0, "lon": -76.986034, "fusion_lat": 0.0, "is_disabled": 0, "bike_id": "3cab1fe94be54e5ce1663dc35846a883", "lat": 38.89193916666667, "rental_uris": {"ios": "https://dc.lft.to/lastmile_qr_scan", "android": "https://dc.lft.to/lastmile_qr_scan"}}, {"type": "electric_scooter", "name": "d6ebbbde0125ffbddb4f6725abf72205", "fusion_lon": 0.0, "is_reserved": 0, "lon": -76.9261385, "fusion_lat": 0.0, "is_disabled": 0, "bike_id": "d6ebbbde0125ffbddb4f6725abf72205", "lat": 38.884913, "rental_uris": {"ios": "https://dc.lft.to/lastmile_qr_scan", "android": "https://dc.lft.to/lastmile_qr_scan"}}, {"type": "electric_scooter", "name": "21df49baf031584b96da218f1f585f93", "fusion_lon": 0.0, "is_reserved": 0, "lon": -77.02206616666666, "fusion_lat": 0.0, "is_disabled": 0, "bike_id": "21df49baf031584b96da218f1f585f93", "lat": 38.92047, "rental_uris": {"ios": "https://dc.lft.to/lastmile_qr_scan", "android": "https://dc.lft.to/lastmile_qr_scan"}}, {"type": "electric_bike", "name": "f51e22a7881e39cb1d2082b6b939e8fb", "fusion_lon": 0.0, "is_reserved": 0, "lon": -77.01281416666667, "fusion_lat": 0.0, "is_disabled": 0, "bike_id": "f51e22a7881e39cb1d2082b6b939e8fb", "lat": 38.956603666666666, "rental_uris": {"ios": "https://dc.lft.to/lastmile_qr_scan", "android": "https://dc.lft.to/lastmile_qr_scan"}}, {"type": "electric_scooter", "name": "ecc670cbaced2fb095af6a648b78d552", "fusion_lon": 0.0, "is_reserved": 0, "lon": -76.9275345, "fusion_lat": 0.0, "is_disabled": 0, "bike_id": "ecc670cbaced2fb095af6a648b78d552", "lat": 38.89866883333333, "rental_uris": {"ios": "https://dc.lft.to/lastmile_qr_scan", "android": "https://dc.lft.to/lastmile_qr_scan"}}, {"type": "electric_scooter", "name": "4304b4a2d0c6229e2c2ea85eeaba677f", "fusion_lon": 0.0, "is_reserved": 0, "lon": -76.98419333333334, "fusion_lat": 0.0, "is_disabled": 0, "bike_id": "4304b4a2d0c6229e2c2ea85eeaba677f", "lat": 38.855359166666666, "rental_uris": {"ios": "https://dc.lft.to/lastmile_qr_scan", "android": "https://dc.lft.to/lastmile_qr_scan"}}, {"type": "electric_scooter", "name": "7cce23df6844d5d714311f14933471e4", "fusion_lon": 0.0, "is_reserved": 0, "lon": -77.04059416666666, "fusion_lat": 0.0, "is_disabled": 0, "bike_id": "7cce23df6844d5d714311f14933471e4", "lat": 38.917705166666664, "rental_uris": {"ios": "https://dc.lft.to/lastmile_qr_scan", "android": "https://dc.lft.to/lastmile_qr_scan"}}, {"type": "electric_scooter", "name": "f3e14cc6a969911b74727729480a4bfe", "fusion_lon": 0.0, "is_reserved": 0, "lon": -76.9302455, "fusion_lat": 0.0, "is_disabled": 0, "bike_id": "f3e14cc6a969911b74727729480a4bfe", "lat": 38.90091366666667, "rental_uris": {"ios": "https://dc.lft.to/lastmile_qr_scan", "android": "https://dc.lft.to/lastmile_qr_scan"}}, {"type": "electric_scooter", "name": "4877942a57890a32c7d1768a8e42870e", "fusion_lon": 0.0, "is_reserved": 0, "lon": -77.035506, "fusion_lat": 0.0, "is_disabled": 0, "bike_id": "4877942a57890a32c7d1768a8e42870e", "lat": 38.926343833333334, "rental_uris": {"ios": "https://dc.lft.to/lastmile_qr_scan", "android": "https://dc.lft.to/lastmile_qr_scan"}}, {"type": "electric_scooter", "name": "99e9f627bee8360c6d8a4bf444c00ad0", "fusion_lon": 0.0, "is_reserved": 0, "lon": -77.00369383333333, "fusion_lat": 0.0, "is_disabled": 0, "bike_id": "99e9f627bee8360c6d8a4bf444c00ad0", "lat": 38.911016333333336, "rental_uris": {"ios": "https://dc.lft.to/lastmile_qr_scan", "android": "https://dc.lft.to/lastmile_qr_scan"}}, {"type": "electric_bike", "name": "dc32e6f677ca70c1ef898d56f95bf054", "fusion_lon": 0.0, "is_reserved": 0, "lon": -76.99334483333334, "fusion_lat": 0.0, "is_disabled": 0, "bike_id": "dc32e6f677ca70c1ef898d56f95bf054", "lat": 38.79682366666667, "rental_uris": {"ios": "https://dc.lft.to/lastmile_qr_scan", "android": "https://dc.lft.to/lastmile_qr_scan"}}, {"type": "electric_scooter", "name": "2f86af02db312e8a33f5038f8df1930f", "fusion_lon": 0.0, "is_reserved": 0, "lon": -77.05065, "fusion_lat": 0.0, "is_disabled": 0, "bike_id": "2f86af02db312e8a33f5038f8df1930f", "lat": 38.924130166666664, "rental_uris": {"ios": "https://dc.lft.to/lastmile_qr_scan", "android": "https://dc.lft.to/lastmile_qr_scan"}}, {"type": "electric_scooter", "name": "9a6c83ebdc80dd291250a5597467c979", "fusion_lon": 0.0, "is_reserved": 0, "lon": -77.010237, "fusion_lat": 0.0, "is_disabled": 0, "bike_id": "9a6c83ebdc80dd291250a5597467c979", "lat": 38.88513483333333, "rental_uris": {"ios": "https://dc.lft.to/lastmile_qr_scan", "android": "https://dc.lft.to/lastmile_qr_scan"}}, {"type": "electric_scooter", "name": "6fab490ad625ab25f33f2b601096cf40", "fusion_lon": 0.0, "is_reserved": 0, "lon": -77.01730083333334, "fusion_lat": 0.0, "is_disabled": 0, "bike_id": "6fab490ad625ab25f33f2b601096cf40", "lat": 38.97727916666667, "rental_uris": {"ios": "https://dc.lft.to/lastmile_qr_scan", "android": "https://dc.lft.to/lastmile_qr_scan"}}, {"type": "electric_scooter", "name": "0c819b07456c8d3b53b62f22507fa590", "fusion_lon": 0.0, "is_reserved": 0, "lon": -76.94778216666667, "fusion_lat": 0.0, "is_disabled": 0, "bike_id": "0c819b07456c8d3b53b62f22507fa590", "lat": 38.888921333333336, "rental_uris": {"ios": "https://dc.lft.to/lastmile_qr_scan", "android": "https://dc.lft.to/lastmile_qr_scan"}}, {"type": "electric_scooter", "name": "d68d0f822c6c740884f865ea5d8b2a6d", "fusion_lon": 0.0, "is_reserved": 0, "lon": -77.00248766666667, "fusion_lat": 0.0, "is_disabled": 0, "bike_id": "d68d0f822c6c740884f865ea5d8b2a6d", "lat": 38.88512983333333, "rental_uris": {"ios": "https://dc.lft.to/lastmile_qr_scan", "android": "https://dc.lft.to/lastmile_qr_scan"}}, {"type": "electric_scooter", "name": "d09c2d31a8ea135000c66b1eca9a27c9", "fusion_lon": 0.0, "is_reserved": 0, "lon": -77.02969533333334, "fusion_lat": 0.0, "is_disabled": 0, "bike_id": "d09c2d31a8ea135000c66b1eca9a27c9", "lat": 38.916845333333335, "rental_uris": {"ios": "https://dc.lft.to/lastmile_qr_scan", "android": "https://dc.lft.to/lastmile_qr_scan"}}, {"type": "electric_scooter", "name": "e2d12a31d714a60d44f68ef7e4b2f913", "fusion_lon": 0.0, "is_reserved": 0, "lon": -77.01802133333334, "fusion_lat": 0.0, "is_disabled": 0, "bike_id": "e2d12a31d714a60d44f68ef7e4b2f913", "lat": 38.893307666666665, "rental_uris": {"ios": "https://dc.lft.to/lastmile_qr_scan", "android": "https://dc.lft.to/lastmile_qr_scan"}}, {"type": "electric_scooter", "name": "c11787f104dfe1a3088509adbb38b627", "fusion_lon": 0.0, "is_reserved": 0, "lon": -77.04508516666667, "fusion_lat": 0.0, "is_disabled": 0, "bike_id": "c11787f104dfe1a3088509adbb38b627", "lat": 38.907132, "rental_uris": {"ios": "https://dc.lft.to/lastmile_qr_scan", "android": "https://dc.lft.to/lastmile_qr_scan"}}, {"type": "electric_scooter", "name": "396a340cdd254b5d4f1cf7dfbbba3a0e", "fusion_lon": 0.0, "is_reserved": 0, "lon": -76.99487216666667, "fusion_lat": 0.0, "is_disabled": 0, "bike_id": "396a340cdd254b5d4f1cf7dfbbba3a0e", "lat": 38.83580533333333, "rental_uris": {"ios": "https://dc.lft.to/lastmile_qr_scan", "android": "https://dc.lft.to/lastmile_qr_scan"}}, {"type": "electric_scooter", "name": "f7e98e601ed37cc5df166e4da97ff54a", "fusion_lon": 0.0, "is_reserved": 0, "lon": -77.00272033333333, "fusion_lat": 0.0, "is_disabled": 0, "bike_id": "f7e98e601ed37cc5df166e4da97ff54a", "lat": 38.88519816666667, "rental_uris": {"ios": "https://dc.lft.to/lastmile_qr_scan", "android": "https://dc.lft.to/lastmile_qr_scan"}}, {"type": "electric_scooter", "name": "fbcbf54931efee81e2b2b7dca8abefb8", "fusion_lon": 0.0, "is_reserved": 0, "lon": -77.02972883333334, "fusion_lat": 0.0, "is_disabled": 0, "bike_id": "fbcbf54931efee81e2b2b7dca8abefb8", "lat": 38.9173185, "rental_uris": {"ios": "https://dc.lft.to/lastmile_qr_scan", "android": "https://dc.lft.to/lastmile_qr_scan"}}, {"type": "electric_scooter", "name": "2c7079f3a3a29895593d41902939bdee", "fusion_lon": 0.0, "is_reserved": 0, "lon": -77.03289733333334, "fusion_lat": 0.0, "is_disabled": 0, "bike_id": "2c7079f3a3a29895593d41902939bdee", "lat": 38.93787916666667, "rental_uris": {"ios": "https://dc.lft.to/lastmile_qr_scan", "android": "https://dc.lft.to/lastmile_qr_scan"}}, {"type": "electric_scooter", "name": "7205022f96a82fb770eba7ff7af2f37e", "fusion_lon": 0.0, "is_reserved": 0, "lon": -77.02622116666667, "fusion_lat": 0.0, "is_disabled": 0, "bike_id": "7205022f96a82fb770eba7ff7af2f37e", "lat": 38.89600166666666, "rental_uris": {"ios": "https://dc.lft.to/lastmile_qr_scan", "android": "https://dc.lft.to/lastmile_qr_scan"}}, {"type": "electric_scooter", "name": "d9f15c06396e706d80c1d469e6919cad", "fusion_lon": 0.0, "is_reserved": 0, "lon": -77.03136366666666, "fusion_lat": 0.0, "is_disabled": 0, "bike_id": "d9f15c06396e706d80c1d469e6919cad", "lat": 38.906305333333336, "rental_uris": {"ios": "https://dc.lft.to/lastmile_qr_scan", "android": "https://dc.lft.to/lastmile_qr_scan"}}, {"type": "electric_scooter", "name": "60940ba3eaa9985a35890f8192ef0409", "fusion_lon": 0.0, "is_reserved": 0, "lon": -77.0255515, "fusion_lat": 0.0, "is_disabled": 0, "bike_id": "60940ba3eaa9985a35890f8192ef0409", "lat": 38.91558333333333, "rental_uris": {"ios": "https://dc.lft.to/lastmile_qr_scan", "android": "https://dc.lft.to/lastmile_qr_scan"}}, {"type": "electric_scooter", "name": "25d68a62478b0d674d8fb6f5ca9d628d", "fusion_lon": 0.0, "is_reserved": 0, "lon": -77.0475975, "fusion_lat": 0.0, "is_disabled": 0, "bike_id": "25d68a62478b0d674d8fb6f5ca9d628d", "lat": 38.90091616666667, "rental_uris": {"ios": "https://dc.lft.to/lastmile_qr_scan", "android": "https://dc.lft.to/lastmile_qr_scan"}}, {"type": "electric_scooter", "name": "e049b057b28bed0c7d539b77d6f1f90c", "fusion_lon": 0.0, "is_reserved": 0, "lon": -77.03829716666667, "fusion_lat": 0.0, "is_disabled": 0, "bike_id": "e049b057b28bed0c7d539b77d6f1f90c", "lat": 38.90486766666667, "rental_uris": {"ios": "https://dc.lft.to/lastmile_qr_scan", "android": "https://dc.lft.to/lastmile_qr_scan"}}, {"type": "electric_scooter", "name": "554a5d9482fb16f20a0259081c1ac41e", "fusion_lon": 0.0, "is_reserved": 0, "lon": -77.04461766666667, "fusion_lat": 0.0, "is_disabled": 0, "bike_id": "554a5d9482fb16f20a0259081c1ac41e", "lat": 38.91112566666666, "rental_uris": {"ios": "https://dc.lft.to/lastmile_qr_scan", "android": "https://dc.lft.to/lastmile_qr_scan"}}, {"type": "electric_scooter", "name": "5fe6c4f2f4418ce547de75c81783290b", "fusion_lon": 0.0, "is_reserved": 0, "lon": -77.05496816666667, "fusion_lat": 0.0, "is_disabled": 0, "bike_id": "5fe6c4f2f4418ce547de75c81783290b", "lat": 38.92950366666667, "rental_uris": {"ios": "https://dc.lft.to/lastmile_qr_scan", "android": "https://dc.lft.to/lastmile_qr_scan"}}, {"type": "electric_scooter", "name": "08b339fa2a0504207617f0c7cef8954b", "fusion_lon": 0.0, "is_reserved": 0, "lon": -77.02986683333333, "fusion_lat": 0.0, "is_disabled": 0, "bike_id": "08b339fa2a0504207617f0c7cef8954b", "lat": 38.920556166666664, "rental_uris": {"ios": "https://dc.lft.to/lastmile_qr_scan", "android": "https://dc.lft.to/lastmile_qr_scan"}}, {"type": "electric_scooter", "name": "17d62b76446873c54d93f0adc64daf36", "fusion_lon": 0.0, "is_reserved": 0, "lon": -77.027484, "fusion_lat": 0.0, "is_disabled": 0, "bike_id": "17d62b76446873c54d93f0adc64daf36", "lat": 38.93963983333333, "rental_uris": {"ios": "https://dc.lft.to/lastmile_qr_scan", "android": "https://dc.lft.to/lastmile_qr_scan"}}, {"type": "electric_scooter", "name": "a39da9a3df732dabb38e25c62f63d93d", "fusion_lon": 0.0, "is_reserved": 0, "lon": -77.0419985, "fusion_lat": 0.0, "is_disabled": 0, "bike_id": "a39da9a3df732dabb38e25c62f63d93d", "lat": 38.9187465, "rental_uris": {"ios": "https://dc.lft.to/lastmile_qr_scan", "android": "https://dc.lft.to/lastmile_qr_scan"}}, {"type": "electric_scooter", "name": "4a304fe6b5422b1124ede69340c835d6", "fusion_lon": 0.0, "is_reserved": 0, "lon": -77.0426285, "fusion_lat": 0.0, "is_disabled": 0, "bike_id": "4a304fe6b5422b1124ede69340c835d6", "lat": 38.892195, "rental_uris": {"ios": "https://dc.lft.to/lastmile_qr_scan", "android": "https://dc.lft.to/lastmile_qr_scan"}}, {"type": "electric_scooter", "name": "21221ce0dcba943ba16bc06465a8f8b5", "fusion_lon": 0.0, "is_reserved": 0, "lon": -76.99622333333333, "fusion_lat": 0.0, "is_disabled": 0, "bike_id": "21221ce0dcba943ba16bc06465a8f8b5", "lat": 38.8859325, "rental_uris": {"ios": "https://dc.lft.to/lastmile_qr_scan", "android": "https://dc.lft.to/lastmile_qr_scan"}}, {"type": "electric_scooter", "name": "de6e36f20755c0a3bdc402b654884f10", "fusion_lon": 0.0, "is_reserved": 0, "lon": -77.05747233333334, "fusion_lat": 0.0, "is_disabled": 0, "bike_id": "de6e36f20755c0a3bdc402b654884f10", "lat": 38.93537933333333, "rental_uris": {"ios": "https://dc.lft.to/lastmile_qr_scan", "android": "https://dc.lft.to/lastmile_qr_scan"}}, {"type": "electric_scooter", "name": "8343ced0c8f81dbe49ffa01a99f94f21", "fusion_lon": 0.0, "is_reserved": 0, "lon": -77.02978116666667, "fusion_lat": 0.0, "is_disabled": 0, "bike_id": "8343ced0c8f81dbe49ffa01a99f94f21", "lat": 38.917203, "rental_uris": {"ios": "https://dc.lft.to/lastmile_qr_scan", "android": "https://dc.lft.to/lastmile_qr_scan"}}, {"type": "electric_scooter", "name": "41e51ec1662d22764f4dc0cc6dc3245e", "fusion_lon": 0.0, "is_reserved": 0, "lon": -77.04318633333334, "fusion_lat": 0.0, "is_disabled": 0, "bike_id": "41e51ec1662d22764f4dc0cc6dc3245e", "lat": 38.92322033333333, "rental_uris": {"ios": "https://dc.lft.to/lastmile_qr_scan", "android": "https://dc.lft.to/lastmile_qr_scan"}}, {"type": "electric_scooter", "name": "12383fcd5a727ed093ae2501218d93cc", "fusion_lon": 0.0, "is_reserved": 0, "lon": -76.9308335, "fusion_lat": 0.0, "is_disabled": 0, "bike_id": "12383fcd5a727ed093ae2501218d93cc", "lat": 38.878002, "rental_uris": {"ios": "https://dc.lft.to/lastmile_qr_scan", "android": "https://dc.lft.to/lastmile_qr_scan"}}, {"type": "electric_scooter", "name": "d627a8f1fc1ab82e43307606ce5315a6", "fusion_lon": 0.0, "is_reserved": 0, "lon": -76.993335, "fusion_lat": 0.0, "is_disabled": 0, "bike_id": "d627a8f1fc1ab82e43307606ce5315a6", "lat": 38.91030833333333, "rental_uris": {"ios": "https://dc.lft.to/lastmile_qr_scan", "android": "https://dc.lft.to/lastmile_qr_scan"}}, {"type": "electric_scooter", "name": "dc193b7c0562045f54c0fc97415e696d", "fusion_lon": 0.0, "is_reserved": 0, "lon": -77.044103, "fusion_lat": 0.0, "is_disabled": 0, "bike_id": "dc193b7c0562045f54c0fc97415e696d", "lat": 38.92595466666667, "rental_uris": {"ios": "https://dc.lft.to/lastmile_qr_scan", "android": "https://dc.lft.to/lastmile_qr_scan"}}, {"type": "electric_scooter", "name": "325a4874946732d484454fddad46a5ff", "fusion_lon": 0.0, "is_reserved": 0, "lon": -77.0121495, "fusion_lat": 0.0, "is_disabled": 0, "bike_id": "325a4874946732d484454fddad46a5ff", "lat": 38.91445366666667, "rental_uris": {"ios": "https://dc.lft.to/lastmile_qr_scan", "android": "https://dc.lft.to/lastmile_qr_scan"}}, {"type": "electric_scooter", "name": "c2927fffebfd5b5b8287eb0d4b84910b", "fusion_lon": 0.0, "is_reserved": 0, "lon": -77.056126, "fusion_lat": 0.0, "is_disabled": 0, "bike_id": "c2927fffebfd5b5b8287eb0d4b84910b", "lat": 38.931661, "rental_uris": {"ios": "https://dc.lft.to/lastmile_qr_scan", "android": "https://dc.lft.to/lastmile_qr_scan"}}, {"type": "electric_scooter", "name": "35aeb74ba3957ceabb7ec8c46b2d129f", "fusion_lon": 0.0, "is_reserved": 0, "lon": -77.03984433333333, "fusion_lat": 0.0, "is_disabled": 0, "bike_id": "35aeb74ba3957ceabb7ec8c46b2d129f", "lat": 38.902296166666666, "rental_uris": {"ios": "https://dc.lft.to/lastmile_qr_scan", "android": "https://dc.lft.to/lastmile_qr_scan"}}, {"type": "electric_scooter", "name": "448b1760b5eb3d0745be3aa83166f182", "fusion_lon": 0.0, "is_reserved": 0, "lon": -77.041455, "fusion_lat": 0.0, "is_disabled": 0, "bike_id": "448b1760b5eb3d0745be3aa83166f182", "lat": 38.905431666666665, "rental_uris": {"ios": "https://dc.lft.to/lastmile_qr_scan", "android": "https://dc.lft.to/lastmile_qr_scan"}}, {"type": "electric_scooter", "name": "c62560826656ecf9a4c066c61f59e79d", "fusion_lon": 0.0, "is_reserved": 0, "lon": -77.0789285, "fusion_lat": 0.0, "is_disabled": 0, "bike_id": "c62560826656ecf9a4c066c61f59e79d", "lat": 38.91921816666667, "rental_uris": {"ios": "https://dc.lft.to/lastmile_qr_scan", "android": "https://dc.lft.to/lastmile_qr_scan"}}, {"type": "electric_scooter", "name": "e9409e038454fd505a6929450d14870a", "fusion_lon": 0.0, "is_reserved": 0, "lon": -77.036477, "fusion_lat": 0.0, "is_disabled": 0, "bike_id": "e9409e038454fd505a6929450d14870a", "lat": 38.91760883333333, "rental_uris": {"ios": "https://dc.lft.to/lastmile_qr_scan", "android": "https://dc.lft.to/lastmile_qr_scan"}}, {"type": "electric_scooter", "name": "0b2579f1a1a34caedb9ee558173b4ebd", "fusion_lon": 0.0, "is_reserved": 0, "lon": -77.04035333333333, "fusion_lat": 0.0, "is_disabled": 0, "bike_id": "0b2579f1a1a34caedb9ee558173b4ebd", "lat": 38.92443766666667, "rental_uris": {"ios": "https://dc.lft.to/lastmile_qr_scan", "android": "https://dc.lft.to/lastmile_qr_scan"}}, {"type": "electric_scooter", "name": "bfc371ae990f92709596ffb17e70966d", "fusion_lon": 0.0, "is_reserved": 0, "lon": -76.98151916666667, "fusion_lat": 0.0, "is_disabled": 0, "bike_id": "bfc371ae990f92709596ffb17e70966d", "lat": 38.903222166666666, "rental_uris": {"ios": "https://dc.lft.to/lastmile_qr_scan", "android": "https://dc.lft.to/lastmile_qr_scan"}}, {"type": "electric_scooter", "name": "753950f8bc28389e3189b8dede1cbaaa", "fusion_lon": 0.0, "is_reserved": 0, "lon": -77.034444, "fusion_lat": 0.0, "is_disabled": 0, "bike_id": "753950f8bc28389e3189b8dede1cbaaa", "lat": 38.905018, "rental_uris": {"ios": "https://dc.lft.to/lastmile_qr_scan", "android": "https://dc.lft.to/lastmile_qr_scan"}}, {"type": "electric_bike", "name": "f4118d37cd0326b19ca1e242282378fe", "fusion_lon": 0.0, "is_reserved": 0, "lon": -77.096141, "fusion_lat": 0.0, "is_disabled": 0, "bike_id": "f4118d37cd0326b19ca1e242282378fe", "lat": 38.878848166666664, "rental_uris": {"ios": "https://dc.lft.to/lastmile_qr_scan", "android": "https://dc.lft.to/lastmile_qr_scan"}}, {"type": "electric_scooter", "name": "e3dd95254f1dda0bae8df2159d30e41a", "fusion_lon": 0.0, "is_reserved": 0, "lon": -77.0419765, "fusion_lat": 0.0, "is_disabled": 0, "bike_id": "e3dd95254f1dda0bae8df2159d30e41a", "lat": 38.920361166666666, "rental_uris": {"ios": "https://dc.lft.to/lastmile_qr_scan", "android": "https://dc.lft.to/lastmile_qr_scan"}}, {"type": "electric_scooter", "name": "abe16c503263b73633ce79c5ecdbd906", "fusion_lon": 0.0, "is_reserved": 0, "lon": -77.03409583333334, "fusion_lat": 0.0, "is_disabled": 0, "bike_id": "abe16c503263b73633ce79c5ecdbd906", "lat": 38.9193415, "rental_uris": {"ios": "https://dc.lft.to/lastmile_qr_scan", "android": "https://dc.lft.to/lastmile_qr_scan"}}, {"type": "electric_scooter", "name": "06298e46943b309e22e7eacb08d82482", "fusion_lon": 0.0, "is_reserved": 0, "lon": -76.94153933333334, "fusion_lat": 0.0, "is_disabled": 0, "bike_id": "06298e46943b309e22e7eacb08d82482", "lat": 38.883622333333335, "rental_uris": {"ios": "https://dc.lft.to/lastmile_qr_scan", "android": "https://dc.lft.to/lastmile_qr_scan"}}, {"type": "electric_scooter", "name": "15b8a40f07248d060ee5d4e343d7eaf2", "fusion_lon": 0.0, "is_reserved": 0, "lon": -77.04662583333334, "fusion_lat": 0.0, "is_disabled": 0, "bike_id": "15b8a40f07248d060ee5d4e343d7eaf2", "lat": 38.91384733333334, "rental_uris": {"ios": "https://dc.lft.to/lastmile_qr_scan", "android": "https://dc.lft.to/lastmile_qr_scan"}}, {"type": "electric_scooter", "name": "f8b5d142455d5a768ed3e1147bbce8d6", "fusion_lon": 0.0, "is_reserved": 0, "lon": -77.00041733333333, "fusion_lat": 0.0, "is_disabled": 0, "bike_id": "f8b5d142455d5a768ed3e1147bbce8d6", "lat": 38.8812215, "rental_uris": {"ios": "https://dc.lft.to/lastmile_qr_scan", "android": "https://dc.lft.to/lastmile_qr_scan"}}, {"type": "electric_scooter", "name": "348c38033148ed2218e0369ce0d38d49", "fusion_lon": 0.0, "is_reserved": 0, "lon": -77.039482, "fusion_lat": 0.0, "is_disabled": 0, "bike_id": "348c38033148ed2218e0369ce0d38d49", "lat": 38.90185433333333, "rental_uris": {"ios": "https://dc.lft.to/lastmile_qr_scan", "android": "https://dc.lft.to/lastmile_qr_scan"}}, {"type": "electric_scooter", "name": "8cbe996ec262c145858cd7d114e17f8b", "fusion_lon": 0.0, "is_reserved": 0, "lon": -77.03306283333333, "fusion_lat": 0.0, "is_disabled": 0, "bike_id": "8cbe996ec262c145858cd7d114e17f8b", "lat": 38.90035683333333, "rental_uris": {"ios": "https://dc.lft.to/lastmile_qr_scan", "android": "https://dc.lft.to/lastmile_qr_scan"}}, {"type": "electric_scooter", "name": "7914f9965b0a74db48d92ffa16456433", "fusion_lon": 0.0, "is_reserved": 0, "lon": -77.029686, "fusion_lat": 0.0, "is_disabled": 0, "bike_id": "7914f9965b0a74db48d92ffa16456433", "lat": 38.904833833333335, "rental_uris": {"ios": "https://dc.lft.to/lastmile_qr_scan", "android": "https://dc.lft.to/lastmile_qr_scan"}}, {"type": "electric_bike", "name": "018ab36e206ce106012916772a4453c7", "fusion_lon": 0.0, "is_reserved": 0, "lon": -77.02396583333334, "fusion_lat": 0.0, "is_disabled": 0, "bike_id": "018ab36e206ce106012916772a4453c7", "lat": 38.95296833333333, "rental_uris": {"ios": "https://dc.lft.to/lastmile_qr_scan", "android": "https://dc.lft.to/lastmile_qr_scan"}}, {"type": "electric_scooter", "name": "ab7ec3dcbcd2fc1b45440acf0b611828", "fusion_lon": 0.0, "is_reserved": 0, "lon": -77.04491233333333, "fusion_lat": 0.0, "is_disabled": 0, "bike_id": "ab7ec3dcbcd2fc1b45440acf0b611828", "lat": 38.9223455, "rental_uris": {"ios": "https://dc.lft.to/lastmile_qr_scan", "android": "https://dc.lft.to/lastmile_qr_scan"}}, {"type": "electric_scooter", "name": "998824c617db9b745878079f4fa22d3b", "fusion_lon": 0.0, "is_reserved": 0, "lon": -77.03326266666667, "fusion_lat": 0.0, "is_disabled": 0, "bike_id": "998824c617db9b745878079f4fa22d3b", "lat": 38.9139845, "rental_uris": {"ios": "https://dc.lft.to/lastmile_qr_scan", "android": "https://dc.lft.to/lastmile_qr_scan"}}, {"type": "electric_scooter", "name": "9334e034c4966a82d995d87daedc5cd5", "fusion_lon": 0.0, "is_reserved": 0, "lon": -77.03810783333333, "fusion_lat": 0.0, "is_disabled": 0, "bike_id": "9334e034c4966a82d995d87daedc5cd5", "lat": 38.93603783333333, "rental_uris": {"ios": "https://dc.lft.to/lastmile_qr_scan", "android": "https://dc.lft.to/lastmile_qr_scan"}}, {"type": "electric_scooter", "name": "560d5da6cae3cab656e179d471dd4e76", "fusion_lon": 0.0, "is_reserved": 0, "lon": -77.07015533333333, "fusion_lat": 0.0, "is_disabled": 0, "bike_id": "560d5da6cae3cab656e179d471dd4e76", "lat": 38.905098833333334, "rental_uris": {"ios": "https://dc.lft.to/lastmile_qr_scan", "android": "https://dc.lft.to/lastmile_qr_scan"}}, {"type": "electric_scooter", "name": "3f2a3c068dd63ff56f55f9647eee1831", "fusion_lon": 0.0, "is_reserved": 0, "lon": -77.012225, "fusion_lat": 0.0, "is_disabled": 0, "bike_id": "3f2a3c068dd63ff56f55f9647eee1831", "lat": 38.930441, "rental_uris": {"ios": "https://dc.lft.to/lastmile_qr_scan", "android": "https://dc.lft.to/lastmile_qr_scan"}}, {"type": "electric_scooter", "name": "49c9ef7b33e7f2bb5fd404ae15ca51c0", "fusion_lon": 0.0, "is_reserved": 0, "lon": -77.02417416666667, "fusion_lat": 0.0, "is_disabled": 0, "bike_id": "49c9ef7b33e7f2bb5fd404ae15ca51c0", "lat": 38.919172833333334, "rental_uris": {"ios": "https://dc.lft.to/lastmile_qr_scan", "android": "https://dc.lft.to/lastmile_qr_scan"}}, {"type": "electric_scooter", "name": "ec7cda6277e0aa6d79d5a14e97c00ecb", "fusion_lon": 0.0, "is_reserved": 0, "lon": -77.04250533333334, "fusion_lat": 0.0, "is_disabled": 0, "bike_id": "ec7cda6277e0aa6d79d5a14e97c00ecb", "lat": 38.90765966666667, "rental_uris": {"ios": "https://dc.lft.to/lastmile_qr_scan", "android": "https://dc.lft.to/lastmile_qr_scan"}}, {"type": "electric_bike", "name": "7809c71ffe9539c24e4a74c79d29ac7f", "fusion_lon": 0.0, "is_reserved": 0, "lon": -77.01124233333333, "fusion_lat": 0.0, "is_disabled": 0, "bike_id": "7809c71ffe9539c24e4a74c79d29ac7f", "lat": 38.962906, "rental_uris": {"ios": "https://dc.lft.to/lastmile_qr_scan", "android": "https://dc.lft.to/lastmile_qr_scan"}}, {"type": "electric_scooter", "name": "e07de7507de0c62b4e199a33190c4714", "fusion_lon": 0.0, "is_reserved": 0, "lon": -77.041641, "fusion_lat": 0.0, "is_disabled": 0, "bike_id": "e07de7507de0c62b4e199a33190c4714", "lat": 38.904701333333335, "rental_uris": {"ios": "https://dc.lft.to/lastmile_qr_scan", "android": "https://dc.lft.to/lastmile_qr_scan"}}, {"type": "electric_scooter", "name": "54578692a02aae43e2c559fe271e2f67", "fusion_lon": 0.0, "is_reserved": 0, "lon": -77.08953383333333, "fusion_lat": 0.0, "is_disabled": 0, "bike_id": "54578692a02aae43e2c559fe271e2f67", "lat": 38.91811833333333, "rental_uris": {"ios": "https://dc.lft.to/lastmile_qr_scan", "android": "https://dc.lft.to/lastmile_qr_scan"}}, {"type": "electric_bike", "name": "48f8c587b8c247828ef47204a43c1152", "fusion_lon": 0.0, "is_reserved": 0, "lon": -76.973618, "fusion_lat": 0.0, "is_disabled": 0, "bike_id": "48f8c587b8c247828ef47204a43c1152", "lat": 38.9632355, "rental_uris": {"ios": "https://dc.lft.to/lastmile_qr_scan", "android": "https://dc.lft.to/lastmile_qr_scan"}}, {"type": "electric_scooter", "name": "50e40fb58df32db58cbae20e54b04ea3", "fusion_lon": 0.0, "is_reserved": 0, "lon": -77.03472266666667, "fusion_lat": 0.0, "is_disabled": 0, "bike_id": "50e40fb58df32db58cbae20e54b04ea3", "lat": 38.917093, "rental_uris": {"ios": "https://dc.lft.to/lastmile_qr_scan", "android": "https://dc.lft.to/lastmile_qr_scan"}}, {"type": "electric_scooter", "name": "a52211cdd4334244b026ec88eeb855d3", "fusion_lon": 0.0, "is_reserved": 0, "lon": -77.0320405, "fusion_lat": 0.0, "is_disabled": 0, "bike_id": "a52211cdd4334244b026ec88eeb855d3", "lat": 38.909541, "rental_uris": {"ios": "https://dc.lft.to/lastmile_qr_scan", "android": "https://dc.lft.to/lastmile_qr_scan"}}, {"type": "electric_bike", "name": "9cf07e1001e46e152e26851240bad884", "fusion_lon": 0.0, "is_reserved": 0, "lon": -76.98091416666666, "fusion_lat": 0.0, "is_disabled": 0, "bike_id": "9cf07e1001e46e152e26851240bad884", "lat": 38.9536505, "rental_uris": {"ios": "https://dc.lft.to/lastmile_qr_scan", "android": "https://dc.lft.to/lastmile_qr_scan"}}, {"type": "electric_scooter", "name": "214e374eaec3a0f86eb94e33af23922f", "fusion_lon": 0.0, "is_reserved": 0, "lon": -77.03430566666667, "fusion_lat": 0.0, "is_disabled": 0, "bike_id": "214e374eaec3a0f86eb94e33af23922f", "lat": 38.903639, "rental_uris": {"ios": "https://dc.lft.to/lastmile_qr_scan", "android": "https://dc.lft.to/lastmile_qr_scan"}},