{"data": {"bikes": [{"bike_id": "c1670364258ff072e9afbc5e703be2f9", "fusion_lon": 0.0, "name": "c1670364258ff072e9afbc5e703be2f9", "lat": 38.89790566666667, "is_disabled": 0, "is_reserved": 0, "lon": -77.02818433333333, "type": "electric_scooter", "fusion_lat": 0.0, "rental_uris": {"android": "https://dc.lft.to/lastmile_qr_scan", "ios": "https://dc.lft.to/lastmile_qr_scan"}}, {"bike_id": "660c0221ce47df2fc27f54538b035f5d", "fusion_lon": 0.0, "name": "660c0221ce47df2fc27f54538b035f5d", "lat": 38.9340195, "is_disabled": 0, "is_reserved": 0, "lon": -77.05744366666667, "type": "electric_scooter", "fusion_lat": 0.0, "rental_uris": {"android": "https://dc.lft.to/lastmile_qr_scan", "ios": "https://dc.lft.to/lastmile_qr_scan"}}, {"bike_id": "bbba33667585f361a2b7caba027fd624", "fusion_lon": 0.0, "name": "bbba33667585f361a2b7caba027fd624", "lat": 38.909678666666665, "is_disabled": 0, "is_reserved": 0, "lon": -77.03442083333333, "type": "electric_scooter", "fusion_lat": 0.0, "rental_uris": {"android": "https://dc.lft.to/lastmile_qr_scan", "ios": "https://dc.lft.to/lastmile_qr_scan"}}, {"bike_id": "928279b7198de5ae6cde89049ae516ad", "fusion_lon": 0.0, "name": "928279b7198de5ae6cde89049ae516ad", "lat": 38.92449766666667, "is_disabled": 0, "is_reserved": 0, "lon": -77.04202716666667, "type": "electric_scooter", "fusion_lat": 0.0, "rental_uris": {"android": "https://dc.lft.to/lastmile_qr_scan", "ios": "https://dc.lft.to/lastmile_qr_scan"}}, {"bike_id": "b5fd663b0fa11c15b58ff6b890f818b7", "fusion_lon": 0.0, "name": "b5fd663b0fa11c15b58ff6b890f818b7", "lat": 38.89674616666667, "is_disabled": 0, "is_reserved": 0, "lon": -77.005206, "type": "electric_scooter", "fusion_lat": 0.0, "rental_uris": {"android": "https://dc.lft.to/lastmile_qr_scan", "ios": "https://dc.lft.to/lastmile_qr_scan"}}, {"bike_id": "53681b15d4a52cf15b869fb205455265", "fusion_lon": 0.0, "name": "53681b15d4a52cf15b869fb205455265", "lat": 38.9107205, "is_disabled": 0, "is_reserved": 0, "lon": -77.04127883333334, "type": "electric_scooter", "fusion_lat": 0.0, "rental_uris": {"android": "https://dc.lft.to/lastmile_qr_scan", "ios": "https://dc.lft.to/lastmile_qr_scan"}}, {"bike_id": "9622fa5c1e1d2dc4c583991f5439d6ee", "fusion_lon": 0.0, "name": "9622fa5c1e1d2dc4c583991f5439d6ee", "lat": 38.9172065, "is_disabled": 0, "is_reserved": 0, "lon": -77.02604666666667, "type": "electric_scooter", "fusion_lat": 0.0, "rental_uris": {"android": "https://dc.lft.to/lastmile_qr_scan", "ios": "https://dc.lft.to/lastmile_qr_scan"}}, {"bike_id": "4001f991058e5cbd5f9c4f44f5a77931", "fusion_lon": 0.0, "name": "4001f991058e5cbd5f9c4f44f5a77931", "lat": 38.885946833333335, "is_disabled": 0, "is_reserved": 0, "lon": -77.01725283333333, "type": "electric_scooter", "fusion_lat": 0.0, "rental_uris": {"android": "https://dc.lft.to/lastmile_qr_scan", "ios": "https://dc.lft.to/lastmile_qr_scan"}}, {"bike_id": "be3051398ee841400f95467ea8067a9c", "fusion_lon": 0.0, "name": "be3051398ee841400f95467ea8067a9c", "lat": 38.9236975, "is_disabled": 0, "is_reserved": 0, "lon": -77.05022033333333, "type": "electric_scooter", "fusion_lat": 0.0, "rental_uris": {"android": "https://dc.lft.to/lastmile_qr_scan", "ios": "https://dc.lft.to/lastmile_qr_scan"}}, {"bike_id": "968a929179e87a9dea60096d3a5b3882", "fusion_lon": 0.0, "name": "968a929179e87a9dea60096d3a5b3882", "lat": 38.89217466666667, "is_disabled": 0, "is_reserved": 0, "lon": -77.02013983333333, "type": "electric_scooter", "fusion_lat": 0.0, "rental_uris": {"android": "https://dc.lft.to/lastmile_qr_scan", "ios": "https://dc.lft.to/lastmile_qr_scan"}}, {"bike_id": "c1b13183816406afe2784eb339a49839", "fusion_lon": 0.0, "name": "c1b13183816406afe2784eb339a49839", "lat": 38.90326233333333, "is_disabled": 0, "is_reserved": 0, "lon": -77.044758, "type": "electric_scooter", "fusion_lat": 0.0, "rental_uris": {"android": "https://dc.lft.to/lastmile_qr_scan", "ios": "https://dc.lft.to/lastmile_qr_scan"}}, {"bike_id": "a409940021f4874cd66ea434f6f718dc", "fusion_lon": 0.0, "name": "a409940021f4874cd66ea434f6f718dc", "lat": 38.896246166666664, "is_disabled": 0, "is_reserved": 0, "lon": -77.02641716666666, "type": "electric_scooter", "fusion_lat": 0.0, "rental_uris": {"android": "https://dc.lft.to/lastmile_qr_scan", "ios": "https://dc.lft.to/lastmile_qr_scan"}}, {"bike_id": "57e5113526f493f90ea89ef5c2931644", "fusion_lon": 0.0, "name": "57e5113526f493f90ea89ef5c2931644", "lat": 38.8985365, "is_disabled": 0, "is_reserved": 0, "lon": -77.0286375, "type": "electric_scooter", "fusion_lat": 0.0, "rental_uris": {"android": "https://dc.lft.to/lastmile_qr_scan", "ios": "https://dc.lft.to/lastmile_qr_scan"}}, {"bike_id": "5bbebf24c6595ff207fd29eaf3091c9c", "fusion_lon": 0.0, "name": "5bbebf24c6595ff207fd29eaf3091c9c", "lat": 38.904305, "is_disabled": 0, "is_reserved": 0, "lon": -77.04067216666667, "type": "electric_scooter", "fusion_lat": 0.0, "rental_uris": {"android": "https://dc.lft.to/lastmile_qr_scan", "ios": "https://dc.lft.to/lastmile_qr_scan"}}, {"bike_id": "040ea6b285e65dd5468f194f2fd6f1b6", "fusion_lon": 0.0, "name": "040ea6b285e65dd5468f194f2fd6f1b6", "lat": 38.93195683333333, "is_disabled": 0, "is_reserved": 0, "lon": -77.03857233333333, "type": "electric_scooter", "fusion_lat": 0.0, "rental_uris": {"android": "https://dc.lft.to/lastmile_qr_scan", "ios": "https://dc.lft.to/lastmile_qr_scan"}}, {"bike_id": "048853682f5f130bdec35a08635782d4", "fusion_lon": 0.0, "name": "048853682f5f130bdec35a08635782d4", "lat": 38.899186, "is_disabled": 0, "is_reserved": 0, "lon": -76.9853845, "type": "electric_scooter", "fusion_lat": 0.0, "rental_uris": {"android": "https://dc.lft.to/lastmile_qr_scan", "ios": "https://dc.lft.to/lastmile_qr_scan"}}, {"bike_id": "a6258871655a24a3f8898c535c2e7b34", "fusion_lon": 0.0, "name": "a6258871655a24a3f8898c535c2e7b34", "lat": 38.8557515, "is_disabled": 0, "is_reserved": 0, "lon": -76.96648566666667, "type": "electric_scooter", "fusion_lat": 0.0, "rental_uris": {"android": "https://dc.lft.to/lastmile_qr_scan", "ios": "https://dc.lft.to/lastmile_qr_scan"}}, {"bike_id": "f397c397660e361ad975b9d526ab1e11", "fusion_lon": 0.0, "name": "f397c397660e361ad975b9d526ab1e11", "lat": 38.91362, "is_disabled": 0, "is_reserved": 0, "lon": -77.03849433333333, "type": "electric_scooter", "fusion_lat": 0.0, "rental_uris": {"android": "https://dc.lft.to/lastmile_qr_scan", "ios": "https://dc.lft.to/lastmile_qr_scan"}}, {"bike_id": "0b41daffa3c73f14f06cb9ffcfd1fe4c", "fusion_lon": 0.0, "name": "0b41daffa3c73f14f06cb9ffcfd1fe4c", "lat": 38.9187165, "is_disabled": 0, "is_reserved": 0, "lon": -77.04069283333334, "type": "electric_scooter", "fusion_lat": 0.0, "rental_uris": {"android": "https://dc.lft.to/lastmile_qr_scan", "ios": "https://dc.lft.to/lastmile_qr_scan"}}, {"bike_id": "ccad76c34b8b9f1335352fb15d1efdf4", "fusion_lon": 0.0, "name": "ccad76c34b8b9f1335352fb15d1efdf4", "lat": 38.8767635, "is_disabled": 0, "is_reserved": 0, "lon": -77.01789066666667, "type": "electric_scooter", "fusion_lat": 0.0, "rental_uris": {"android": "https://dc.lft.to/lastmile_qr_scan", "ios": "https://dc.lft.to/lastmile_qr_scan"}}, {"bike_id": "c147c3405689efd1d960110348cba011", "fusion_lon": 0.0, "name": "c147c3405689efd1d960110348cba011", "lat": 38.954022333333334, "is_disabled": 0, "is_reserved": 0, "lon": -77.0274975, "type": "electric_scooter", "fusion_lat": 0.0, "rental_uris": {"android": "https://dc.lft.to/lastmile_qr_scan", "ios": "https://dc.lft.to/lastmile_qr_scan"}}, {"bike_id": "7a887a4b2793c7c0458135a8e595cc28", "fusion_lon": 0.0, "name": "7a887a4b2793c7c0458135a8e595cc28", "lat": 38.89487166666667, "is_disabled": 0, "is_reserved": 0, "lon": -77.01509883333334, "type": "electric_scooter", "fusion_lat": 0.0, "rental_uris": {"android": "https://dc.lft.to/lastmile_qr_scan", "ios": "https://dc.lft.to/lastmile_qr_scan"}}, {"bike_id": "aadb98359dee31f5dbfe83548f6ab498", "fusion_lon": 0.0, "name": "aadb98359dee31f5dbfe83548f6ab498", "lat": 38.937853833333335, "is_disabled": 0, "is_reserved": 0, "lon": -77.02468616666667, "type": "electric_scooter", "fusion_lat": 0.0, "rental_uris": {"android": "https://dc.lft.to/lastmile_qr_scan", "ios": "https://dc.lft.to/lastmile_qr_scan"}}, {"bike_id": "3bcb9a6820e1c70d9dd2cc3dd80fedeb", "fusion_lon": 0.0, "name": "3bcb9a6820e1c70d9dd2cc3dd80fedeb", "lat": 38.93744816666667, "is_disabled": 0, "is_reserved": 0, "lon": -77.03621533333333, "type": "electric_scooter", "fusion_lat": 0.0, "rental_uris": {"android": "https://dc.lft.to/lastmile_qr_scan", "ios": "https://dc.lft.to/lastmile_qr_scan"}}, {"bike_id": "d3bce8eb6623e2a12639e8025c45ca24", "fusion_lon": 0.0, "name": "d3bce8eb6623e2a12639e8025c45ca24", "lat": 38.928758, "is_disabled": 0, "is_reserved": 0, "lon": -77.0328055, "type": "electric_scooter", "fusion_lat": 0.0, "rental_uris": {"android": "https://dc.lft.to/lastmile_qr_scan", "ios": "https://dc.lft.to/lastmile_qr_scan"}}, {"bike_id": "938d11325f6930e56f390d6d4a76ced1", "fusion_lon": 0.0, "name": "938d11325f6930e56f390d6d4a76ced1", "lat": 38.90841616666667, "is_disabled": 0, "is_reserved": 0, "lon": -77.05495983333333, "type": "electric_bike", "fusion_lat": 0.0, "rental_uris": {"android": "https://dc.lft.to/lastmile_qr_scan", "ios": "https://dc.lft.to/lastmile_qr_scan"}}, {"bike_id": "5639912c4d87cc32bc245e9bb97bafbc", "fusion_lon": 0.0, "name": "5639912c4d87cc32bc245e9bb97bafbc", "lat": 38.88447383333333, "is_disabled": 0, "is_reserved": 0, "lon": -76.9983145, "type": "electric_scooter", "fusion_lat": 0.0, "rental_uris": {"android": "https://dc.lft.to/lastmile_qr_scan", "ios": "https://dc.lft.to/lastmile_qr_scan"}}, {"bike_id": "f4a764607c722ef52e222f69075561f0", "fusion_lon": 0.0, "name": "f4a764607c722ef52e222f69075561f0", "lat": 38.913601166666666, "is_disabled": 0, "is_reserved": 0, "lon": -77.020055, "type": "electric_scooter", "fusion_lat": 0.0, "rental_uris": {"android": "https://dc.lft.to/lastmile_qr_scan", "ios": "https://dc.lft.to/lastmile_qr_scan"}}, {"bike_id": "d9d6b2a56139f6f706a2a8c6aae7b0e0", "fusion_lon": 0.0, "name": "d9d6b2a56139f6f706a2a8c6aae7b0e0", "lat": 38.898693, "is_disabled": 0, "is_reserved": 0, "lon": -77.0292725, "type": "electric_scooter", "fusion_lat": 0.0, "rental_uris": {"android": "https://dc.lft.to/lastmile_qr_scan", "ios": "https://dc.lft.to/lastmile_qr_scan"}}, {"bike_id": "a4c4a85ee735661490f4e49edde8d7b8", "fusion_lon": 0.0, "name": "a4c4a85ee735661490f4e49edde8d7b8", "lat": 38.92893383333333, "is_disabled": 0, "is_reserved": 0, "lon": -77.03261466666666, "type": "electric_scooter", "fusion_lat": 0.0, "rental_uris": {"android": "https://dc.lft.to/lastmile_qr_scan", "ios": "https://dc.lft.to/lastmile_qr_scan"}}, {"bike_id": "bc0a46095d3eab00d7124b3dbd741703", "fusion_lon": 0.0, "name": "bc0a46095d3eab00d7124b3dbd741703", "lat": 38.892273833333334, "is_disabled": 0, "is_reserved": 0, "lon": -77.05002316666666, "type": "electric_scooter", "fusion_lat": 0.0, "rental_uris": {"android": "https://dc.lft.to/lastmile_qr_scan", "ios": "https://dc.lft.to/lastmile_qr_scan"}}, {"bike_id": "94b768973c8c86db4c9b216841b8a299", "fusion_lon": 0.0, "name": "94b768973c8c86db4c9b216841b8a299", "lat": 38.9010885, "is_disabled": 0, "is_reserved": 0, "lon": -77.02005233333334, "type": "electric_scooter", "fusion_lat": 0.0, "rental_uris": {"android": "https://dc.lft.to/lastmile_qr_scan", "ios": "https://dc.lft.to/lastmile_qr_scan"}}, {"bike_id": "672e418bc59a0375654dd52ff24ef28c", "fusion_lon": 0.0, "name": "672e418bc59a0375654dd52ff24ef28c", "lat": 38.922586, "is_disabled": 0, "is_reserved": 0, "lon": -77.0203855, "type": "electric_scooter", "fusion_lat": 0.0, "rental_uris": {"android": "https://dc.lft.to/lastmile_qr_scan", "ios": "https://dc.lft.to/lastmile_qr_scan"}}, {"bike_id": "962cec2e96d147e05daf3a292464448d", "fusion_lon": 0.0, "name": "962cec2e96d147e05daf3a292464448d", "lat": 38.90818183333333, "is_disabled": 0, "is_reserved": 0, "lon": -77.05501516666666, "type": "electric_scooter", "fusion_lat": 0.0, "rental_uris": {"android": "https://dc.lft.to/lastmile_qr_scan", "ios": "https://dc.lft.to/lastmile_qr_scan"}}, {"bike_id": "b5c5ce178f941b231efa49df59ba96cc", "fusion_lon": 0.0, "name": "b5c5ce178f941b231efa49df59ba96cc", "lat": 38.952805833333336, "is_disabled": 0, "is_reserved": 0, "lon": -77.01802033333334, "type": "electric_scooter", "fusion_lat": 0.0, "rental_uris": {"android": "https://dc.lft.to/lastmile_qr_scan", "ios": "https://dc.lft.to/lastmile_qr_scan"}}, {"bike_id": "241dc1fb03c1cd2bc57ab900eb1da079", "fusion_lon": 0.0, "name": "241dc1fb03c1cd2bc57ab900eb1da079", "lat": 38.91707816666667, "is_disabled": 0, "is_reserved": 0, "lon": -77.01215616666667, "type": "electric_scooter", "fusion_lat": 0.0, "rental_uris": {"android": "https://dc.lft.to/lastmile_qr_scan", "ios": "https://dc.lft.to/lastmile_qr_scan"}}, {"bike_id": "c0b62afd49345cce24b31111684ebc68", "fusion_lon": 0.0, "name": "c0b62afd49345cce24b31111684ebc68", "lat": 38.90322183333333, "is_disabled": 0, "is_reserved": 0, "lon": -77.0444765, "type": "electric_scooter", "fusion_lat": 0.0, "rental_uris": {"android": "https://dc.lft.to/lastmile_qr_scan", "ios": "https://dc.lft.to/lastmile_qr_scan"}}, {"bike_id": "2869a80a08d6df3a474c19baae650365", "fusion_lon": 0.0, "name": "2869a80a08d6df3a474c19baae650365", "lat": 38.931754833333336, "is_disabled": 0, "is_reserved": 0, "lon": -77.04304066666667, "type": "electric_scooter", "fusion_lat": 0.0, "rental_uris": {"android": "https://dc.lft.to/lastmile_qr_scan", "ios": "https://dc.lft.to/lastmile_qr_scan"}}, {"bike_id": "ce26114147902c547d2400c49e10d85e", "fusion_lon": 0.0, "name": "ce26114147902c547d2400c49e10d85e", "lat": 38.8850425, "is_disabled": 0, "is_reserved": 0, "lon": -76.99756, "type": "electric_scooter", "fusion_lat": 0.0, "rental_uris": {"android": "https://dc.lft.to/lastmile_qr_scan", "ios": "https://dc.lft.to/lastmile_qr_scan"}}, {"bike_id": "24fbd99a80134f60023688b994634fc9", "fusion_lon": 0.0, "name": "24fbd99a80134f60023688b994634fc9", "lat": 38.88527366666667, "is_disabled": 0, "is_reserved": 0, "lon": -76.997351, "type": "electric_bike", "fusion_lat": 0.0, "rental_uris": {"android": "https://dc.lft.to/lastmile_qr_scan", "ios": "https://dc.lft.to/lastmile_qr_scan"}}, {"bike_id": "fbe751271b80b82609359851ba95517c", "fusion_lon": 0.0, "name": "fbe751271b80b82609359851ba95517c", "lat": 38.9176715, "is_disabled": 0, "is_reserved": 0, "lon": -77.019216, "type": "electric_scooter", "fusion_lat": 0.0, "rental_uris": {"android": "https://dc.lft.to/lastmile_qr_scan", "ios": "https://dc.lft.to/lastmile_qr_scan"}}, {"bike_id": "4d6bce651def42520bbb9f0e0caeaa28", "fusion_lon": 0.0, "name": "4d6bce651def42520bbb9f0e0caeaa28", "lat": 38.914237666666665, "is_disabled": 0, "is_reserved": 0, "lon": -77.03925866666667, "type": "electric_scooter", "fusion_lat": 0.0, "rental_uris": {"android": "https://dc.lft.to/lastmile_qr_scan", "ios": "https://dc.lft.to/lastmile_qr_scan"}}, {"bike_id": "efff8f2d6ad6397e60459193fd2e49a4", "fusion_lon": 0.0, "name": "efff8f2d6ad6397e60459193fd2e49a4", "lat": 38.930394166666666, "is_disabled": 0, "is_reserved": 0, "lon": -77.03277733333333, "type": "electric_scooter", "fusion_lat": 0.0, "rental_uris": {"android": "https://dc.lft.to/lastmile_qr_scan", "ios": "https://dc.lft.to/lastmile_qr_scan"}}, {"bike_id": "20e7e8fe92f178cd68716bd99af15a41", "fusion_lon": 0.0, "name": "20e7e8fe92f178cd68716bd99af15a41", "lat": 38.816097166666665, "is_disabled": 0, "is_reserved": 0, "lon": -76.99662283333333, "type": "electric_bike", "fusion_lat": 0.0, "rental_uris": {"android": "https://dc.lft.to/lastmile_qr_scan", "ios": "https://dc.lft.to/lastmile_qr_scan"}}, {"bike_id": "f1508f46f3e2a2371542844d3b2cb63a", "fusion_lon": 0.0, "name": "f1508f46f3e2a2371542844d3b2cb63a", "lat": 38.857888333333335, "is_disabled": 0, "is_reserved": 0, "lon": -77.09965883333334, "type": "electric_bike", "fusion_lat": 0.0, "rental_uris": {"android": "https://dc.lft.to/lastmile_qr_scan", "ios": "https://dc.lft.to/lastmile_qr_scan"}}, {"bike_id": "cf5d82b5b3a0d4ca07afd18fb171094d", "fusion_lon": 0.0, "name": "cf5d82b5b3a0d4ca07afd18fb171094d", "lat": 38.92046766666667, "is_disabled": 0, "is_reserved": 0, "lon": -77.01795233333333, "type": "electric_scooter", "fusion_lat": 0.0, "rental_uris": {"android": "https://dc.lft.to/lastmile_qr_scan", "ios": "https://dc.lft.to/lastmile_qr_scan"}}, {"bike_id": "a3965d6410e0fe8e5a2f1b6009253cee", "fusion_lon": 0.0, "name": "a3965d6410e0fe8e5a2f1b6009253cee", "lat": 38.9304585, "is_disabled": 0, "is_reserved": 0, "lon": -76.95837166666666, "type": "electric_bike", "fusion_lat": 0.0, "rental_uris": {"android": "https://dc.lft.to/lastmile_qr_scan", "ios": "https://dc.lft.to/lastmile_qr_scan"}}, {"bike_id": "d48002bc02b90880b1b7b441e811f016", "fusion_lon": 0.0, "name": "d48002bc02b90880b1b7b441e811f016", "lat": 39.014188833333336, "is_disabled": 0, "is_reserved": 0, "lon": -77.044969, "type": "electric_bike", "fusion_lat": 0.0, "rental_uris": {"android": "https://dc.lft.to/lastmile_qr_scan", "ios": "https://dc.lft.to/lastmile_qr_scan"}}, {"bike_id": "2da1f7c810d8bf9b52ee23311df9e733", "fusion_lon": 0.0, "name": "2da1f7c810d8bf9b52ee23311df9e733", "lat": 38.90028983333333, "is_disabled": 0, "is_reserved": 0, "lon": -77.046815, "type": "electric_scooter", "fusion_lat": 0.0, "rental_uris": {"android": "https://dc.lft.to/lastmile_qr_scan", "ios": "https://dc.lft.to/lastmile_qr_scan"}}, {"bike_id": "da64358de0b2e5b9332a0fb60325ca89", "fusion_lon": 0.0, "name": "da64358de0b2e5b9332a0fb60325ca89", "lat": 38.959648666666666, "is_disabled": 0, "is_reserved": 0, "lon": -76.98163133333334, "type": "electric_bike", "fusion_lat": 0.0, "rental_uris": {"android": "https://dc.lft.to/lastmile_qr_scan", "ios": "https://dc.lft.to/lastmile_qr_scan"}}, {"bike_id": "47759a544697121b194a7e75a4c1e6cb", "fusion_lon": 0.0, "name": "47759a544697121b194a7e75a4c1e6cb", "lat": 38.898396166666664, "is_disabled": 0, "is_reserved": 0, "lon": -77.03283733333333, "type": "electric_scooter", "fusion_lat": 0.0, "rental_uris": {"android": "https://dc.lft.to/lastmile_qr_scan", "ios": "https://dc.lft.to/lastmile_qr_scan"}}, {"bike_id": "8429ec7e261b164c5dbcd1ac8469a0cc", "fusion_lon": 0.0, "name": "8429ec7e261b164c5dbcd1ac8469a0cc", "lat": 38.920861, "is_disabled": 0, "is_reserved": 0, "lon": -77.0272515, "type": "electric_scooter", "fusion_lat": 0.0, "rental_uris": {"android": "https://dc.lft.to/lastmile_qr_scan", "ios": "https://dc.lft.to/lastmile_qr_scan"}}, {"bike_id": "ac2388c2564b6b6f414abe95579e26bf", "fusion_lon": 0.0, "name": "ac2388c2564b6b6f414abe95579e26bf", "lat": 38.93251816666667, "is_disabled": 0, "is_reserved": 0, "lon": -76.99545666666667, "type": "electric_scooter", "fusion_lat": 0.0, "rental_uris": {"android": "https://dc.lft.to/lastmile_qr_scan", "ios": "https://dc.lft.to/lastmile_qr_scan"}}, {"bike_id": "c5fe36fe82072f758bee35f10687fa73", "fusion_lon": 0.0, "name": "c5fe36fe82072f758bee35f10687fa73", "lat": 38.924853666666664, "is_disabled": 0, "is_reserved": 0, "lon": -77.03184816666666, "type": "electric_scooter", "fusion_lat": 0.0, "rental_uris": {"android": "https://dc.lft.to/lastmile_qr_scan", "ios": "https://dc.lft.to/lastmile_qr_scan"}}, {"bike_id": "2a647cc8880f2fd0102a7030c94a39c3", "fusion_lon": 0.0, "name": "2a647cc8880f2fd0102a7030c94a39c3", "lat": 38.91936033333333, "is_disabled": 0, "is_reserved": 0, "lon": -77.0449815, "type": "electric_scooter", "fusion_lat": 0.0, "rental_uris": {"android": "https://dc.lft.to/lastmile_qr_scan", "ios": "https://dc.lft.to/lastmile_qr_scan"}}, {"bike_id": "7699cb717cc7a9e81c72e0d4b5e8f132", "fusion_lon": 0.0, "name": "7699cb717cc7a9e81c72e0d4b5e8f132", "lat": 38.89901033333334, "is_disabled": 0, "is_reserved": 0, "lon": -77.0328365, "type": "electric_scooter", "fusion_lat": 0.0, "rental_uris": {"android": "https://dc.lft.to/lastmile_qr_scan", "ios": "https://dc.lft.to/lastmile_qr_scan"}}, {"bike_id": "59ac0a9351386aba07c314ee96b85850", "fusion_lon": 0.0, "name": "59ac0a9351386aba07c314ee96b85850", "lat": 38.9133415, "is_disabled": 0, "is_reserved": 0, "lon": -77.0487295, "type": "electric_scooter", "fusion_lat": 0.0, "rental_uris": {"android": "https://dc.lft.to/lastmile_qr_scan", "ios": "https://dc.lft.to/lastmile_qr_scan"}}, {"bike_id": "7879ce8a335a7a7fb886051fc54ef245", "fusion_lon": 0.0, "name": "7879ce8a335a7a7fb886051fc54ef245", "lat": 38.95748583333334, "is_disabled": 0, "is_reserved": 0, "lon": -76.98094816666666, "type": "electric_bike", "fusion_lat": 0.0, "rental_uris": {"android": "https://dc.lft.to/lastmile_qr_scan", "ios": "https://dc.lft.to/lastmile_qr_scan"}}, {"bike_id": "c0cd67e1601e95d90aa440e109bca119", "fusion_lon": 0.0, "name": "c0cd67e1601e95d90aa440e109bca119", "lat": 38.900128333333335, "is_disabled": 0, "is_reserved": 0, "lon": -77.044148, "type": "electric_scooter", "fusion_lat": 0.0, "rental_uris": {"android": "https://dc.lft.to/lastmile_qr_scan", "ios": "https://dc.lft.to/lastmile_qr_scan"}}, {"bike_id": "28fa0b00925ea50f0b532bad55ed52ee", "fusion_lon": 0.0, "name": "28fa0b00925ea50f0b532bad55ed52ee", "lat": 38.914274666666664, "is_disabled": 0, "is_reserved": 0, "lon": -77.039276, "type": "electric_scooter", "fusion_lat": 0.0, "rental_uris": {"android": "https://dc.lft.to/lastmile_qr_scan", "ios": "https://dc.lft.to/lastmile_qr_scan"}}, {"bike_id": "7abfe757b6cd4bda72a04c58699c5e99", "fusion_lon": 0.0, "name": "7abfe757b6cd4bda72a04c58699c5e99", "lat": 38.91880166666667, "is_disabled": 0, "is_reserved": 0, "lon": -77.029691, "type": "electric_scooter", "fusion_lat": 0.0, "rental_uris": {"android": "https://dc.lft.to/lastmile_qr_scan", "ios": "https://dc.lft.to/lastmile_qr_scan"}}, {"bike_id": "6a049a776d9adc5eda416f13f44f11e1", "fusion_lon": 0.0, "name": "6a049a776d9adc5eda416f13f44f11e1", "lat": 38.84628433333334, "is_disabled": 0, "is_reserved": 0, "lon": -76.96915083333333, "type": "electric_bike", "fusion_lat": 0.0, "rental_uris": {"android": "https://dc.lft.to/lastmile_qr_scan", "ios": "https://dc.lft.to/lastmile_qr_scan"}}, {"bike_id": "11a9067358784c1e7bd3aa9f6f5dccc3", "fusion_lon": 0.0, "name": "11a9067358784c1e7bd3aa9f6f5dccc3", "lat": 38.874891833333336, "is_disabled": 0, "is_reserved": 0, "lon": -77.21125233333333, "type": "electric_bike", "fusion_lat": 0.0, "rental_uris": {"android": "https://dc.lft.to/lastmile_qr_scan", "ios": "https://dc.lft.to/lastmile_qr_scan"}}, {"bike_id": "9903a0a85e12c6e24c82f770eff30977", "fusion_lon": 0.0, "name": "9903a0a85e12c6e24c82f770eff30977", "lat": 38.91539266666667, "is_disabled": 0, "is_reserved": 0, "lon": -77.0344795, "type": "electric_scooter", "fusion_lat": 0.0, "rental_uris": {"android": "https://dc.lft.to/lastmile_qr_scan", "ios": "https://dc.lft.to/lastmile_qr_scan"}}, {"bike_id": "32c8bd0ae27f80707c888fc75ead453e", "fusion_lon": 0.0, "name": "32c8bd0ae27f80707c888fc75ead453e", "lat": 38.8961025, "is_disabled": 0, "is_reserved": 0, "lon": -76.90742, "type": "electric_bike", "fusion_lat": 0.0, "rental_uris": {"android": "https://dc.lft.to/lastmile_qr_scan", "ios": "https://dc.lft.to/lastmile_qr_scan"}}, {"bike_id": "0021a7d781cffdb36abe83bd2835e8a0", "fusion_lon": 0.0, "name": "0021a7d781cffdb36abe83bd2835e8a0", "lat": 38.903959666666665, "is_disabled": 0, "is_reserved": 0, "lon": -77.0435295, "type": "electric_scooter", "fusion_lat": 0.0, "rental_uris": {"android": "https://dc.lft.to/lastmile_qr_scan", "ios": "https://dc.lft.to/lastmile_qr_scan"}}, {"bike_id": "00219cc1922943dcf269bef2f089a893", "fusion_lon": 0.0, "name": "00219cc1922943dcf269bef2f089a893", "lat": 38.892269666666664, "is_disabled": 0, "is_reserved": 0, "lon": -77.04312383333334, "type": "electric_scooter", "fusion_lat": 0.0, "rental_uris": {"android": "https://dc.lft.to/lastmile_qr_scan", "ios": "https://dc.lft.to/lastmile_qr_scan"}}, {"bike_id": "305f85d1caab9ac00d8e51bdbd9fb30a", "fusion_lon": 0.0, "name": "305f85d1caab9ac00d8e51bdbd9fb30a", "lat": 38.9057835, "is_disabled": 0, "is_reserved": 0, "lon": -77.005591, "type": "electric_scooter", "fusion_lat": 0.0, "rental_uris": {"android": "https://dc.lft.to/lastmile_qr_scan", "ios": "https://dc.lft.to/lastmile_qr_scan"}}, {"bike_id": "f1a44bd826aa5f638221cfb808ba7ba9", "fusion_lon": 0.0, "name": "f1a44bd826aa5f638221cfb808ba7ba9", "lat": 38.897364833333334, "is_disabled": 0, "is_reserved": 0, "lon": -77.045451, "type": "electric_scooter", "fusion_lat": 0.0, "rental_uris": {"android": "https://dc.lft.to/lastmile_qr_scan", "ios": "https://dc.lft.to/lastmile_qr_scan"}}, {"bike_id": "94277a3802891ae9864e5ce3986708e2", "fusion_lon": 0.0, "name": "94277a3802891ae9864e5ce3986708e2", "lat": 38.90150633333333, "is_disabled": 0, "is_reserved": 0, "lon": -77.0228685, "type": "electric_scooter", "fusion_lat": 0.0, "rental_uris": {"android": "https://dc.lft.to/lastmile_qr_scan", "ios": "https://dc.lft.to/lastmile_qr_scan"}}, {"bike_id": "9fb0f8aa6097a66a236b1ccd77a0b0c9", "fusion_lon": 0.0, "name": "9fb0f8aa6097a66a236b1ccd77a0b0c9", "lat": 38.94224066666666, "is_disabled": 0, "is_reserved": 0, "lon": -77.07683833333333, "type": "electric_scooter", "fusion_lat": 0.0, "rental_uris": {"android": "https://dc.lft.to/lastmile_qr_scan", "ios": "https://dc.lft.to/lastmile_qr_scan"}}, {"bike_id": "aa65493ec8baacb65ace06557cb5dfa5", "fusion_lon": 0.0, "name": "aa65493ec8baacb65ace06557cb5dfa5", "lat": 38.912854333333335, "is_disabled": 0, "is_reserved": 0, "lon": -77.02307066666667, "type": "electric_scooter", "fusion_lat": 0.0, "rental_uris": {"android": "https://dc.lft.to/lastmile_qr_scan", "ios": "https://dc.lft.to/lastmile_qr_scan"}}, {"bike_id": "0cd9768f71ad6a185ecc99b08c4f534b", "fusion_lon": 0.0, "name": "0cd9768f71ad6a185ecc99b08c4f534b", "lat": 38.916895, "is_disabled": 0, "is_reserved": 0, "lon": -77.02598333333333, "type": "electric_scooter", "fusion_lat": 0.0, "rental_uris": {"android": "https://dc.lft.to/lastmile_qr_scan", "ios": "https://dc.lft.to/lastmile_qr_scan"}}, {"bike_id": "11c8d7019970dae32d01b233a01b321d", "fusion_lon": 0.0, "name": "11c8d7019970dae32d01b233a01b321d", "lat": 38.892543333333336, "is_disabled": 0, "is_reserved": 0, "lon": -76.951211, "type": "electric_bike", "fusion_lat": 0.0, "rental_uris": {"android": "https://dc.lft.to/lastmile_qr_scan", "ios": "https://dc.lft.to/lastmile_qr_scan"}}, {"bike_id": "5167fb121b2160462c4de149544eb541", "fusion_lon": 0.0, "name": "5167fb121b2160462c4de149544eb541", "lat": 38.905994666666665, "is_disabled": 0, "is_reserved": 0, "lon": -77.04038566666667, "type": "electric_scooter", "fusion_lat": 0.0, "rental_uris": {"android": "https://dc.lft.to/lastmile_qr_scan", "ios": "https://dc.lft.to/lastmile_qr_scan"}}, {"bike_id": "6d38cb7bd17d80c8be1c9d30fe9d09e1", "fusion_lon": 0.0, "name": "6d38cb7bd17d80c8be1c9d30fe9d09e1", "lat": 38.88505166666667, "is_disabled": 0, "is_reserved": 0, "lon": -77.005679, "type": "electric_scooter", "fusion_lat": 0.0, "rental_uris": {"android": "https://dc.lft.to/lastmile_qr_scan", "ios": "https://dc.lft.to/lastmile_qr_scan"}}, {"bike_id": "9b8d8ac773ebcd5e4303644692269ba1", "fusion_lon": 0.0, "name": "9b8d8ac773ebcd5e4303644692269ba1", "lat": 38.9221825, "is_disabled": 0, "is_reserved": 0, "lon": -77.04246733333333, "type": "electric_scooter", "fusion_lat": 0.0, "rental_uris": {"android": "https://dc.lft.to/lastmile_qr_scan", "ios": "https://dc.lft.to/lastmile_qr_scan"}}, {"bike_id": "f58f04d5619d9d6f65322ea00d8e5107", "fusion_lon": 0.0, "name": "f58f04d5619d9d6f65322ea00d8e5107", "lat": 38.88339283333333, "is_disabled": 0, "is_reserved": 0, "lon": -77.01740433333333, "type": "electric_scooter", "fusion_lat": 0.0, "rental_uris": {"android": "https://dc.lft.to/lastmile_qr_scan", "ios": "https://dc.lft.to/lastmile_qr_scan"}}, {"bike_id": "8b082f66aecbdc5d58176bfc17ed58ba", "fusion_lon": 0.0, "name": "8b082f66aecbdc5d58176bfc17ed58ba", "lat": 38.89633166666667, "is_disabled": 0, "is_reserved": 0, "lon": -77.02668233333333, "type": "electric_scooter", "fusion_lat": 0.0, "rental_uris": {"android": "https://dc.lft.to/lastmile_qr_scan", "ios": "https://dc.lft.to/lastmile_qr_scan"}}, {"bike_id": "25f41356743b0de294ec8849e3edb6af", "fusion_lon": 0.0, "name": "25f41356743b0de294ec8849e3edb6af", "lat": 38.89629683333333, "is_disabled": 0, "is_reserved": 0, "lon": -77.02856066666666, "type": "electric_scooter", "fusion_lat": 0.0, "rental_uris": {"android": "https://dc.lft.to/lastmile_qr_scan", "ios": "https://dc.lft.to/lastmile_qr_scan"}}, {"bike_id": "18c483dfdade2de862f1fc66b57bbc0b", "fusion_lon": 0.0, "name": "18c483dfdade2de862f1fc66b57bbc0b", "lat": 38.91561316666667, "is_disabled": 0, "is_reserved": 0, "lon": -77.03139066666667, "type": "electric_scooter", "fusion_lat": 0.0, "rental_uris": {"android": "https://dc.lft.to/lastmile_qr_scan", "ios": "https://dc.lft.to/lastmile_qr_scan"}}, {"bike_id": "6b4f0a26616d082526247ea7f58f3e29", "fusion_lon": 0.0, "name": "6b4f0a26616d082526247ea7f58f3e29", "lat": 38.967310833333336, "is_disabled": 0, "is_reserved": 0, "lon": -77.00917266666667, "type": "electric_scooter", "fusion_lat": 0.0, "rental_uris": {"android": "https://dc.lft.to/lastmile_qr_scan", "ios": "https://dc.lft.to/lastmile_qr_scan"}}, {"bike_id": "530e883f08b4307e3b77067a5ec1e73c", "fusion_lon": 0.0, "name": "530e883f08b4307e3b77067a5ec1e73c", "lat": 38.95244433333333, "is_disabled": 0, "is_reserved": 0, "lon": -77.02378233333333, "type": "electric_scooter", "fusion_lat": 0.0, "rental_uris": {"android": "https://dc.lft.to/lastmile_qr_scan", "ios": "https://dc.lft.to/lastmile_qr_scan"}}, {"bike_id": "fb5319667590ee2477afd0e9ba4f9191", "fusion_lon": 0.0, "name": "fb5319667590ee2477afd0e9ba4f9191", "lat": 38.905249833333336, "is_disabled": 0, "is_reserved": 0, "lon": -77.0638035, "type": "electric_scooter", "fusion_lat": 0.0, "rental_uris": {"android": "https://dc.lft.to/lastmile_qr_scan", "ios": "https://dc.lft.to/lastmile_qr_scan"}}, {"bike_id": "4c1915863656b567d6a9115572bd2dbc", "fusion_lon": 0.0, "name": "4c1915863656b567d6a9115572bd2dbc", "lat": 38.9287225, "is_disabled": 0, "is_reserved": 0, "lon": -77.03223966666667, "type": "electric_scooter", "fusion_lat": 0.0, "rental_uris": {"android": "https://dc.lft.to/lastmile_qr_scan", "ios": "https://dc.lft.to/lastmile_qr_scan"}}, {"bike_id": "fa721d82fed538e9a77a0f94191408c3", "fusion_lon": 0.0, "name": "fa721d82fed538e9a77a0f94191408c3", "lat": 38.93176416666667, "is_disabled": 0, "is_reserved": 0, "lon": -77.03860433333334, "type": "electric_scooter", "fusion_lat": 0.0, "rental_uris": {"android": "https://dc.lft.to/lastmile_qr_scan", "ios": "https://dc.lft.to/lastmile_qr_scan"}}, {"bike_id": "0fd6a178674227eccd2286a9166fc8ef", "fusion_lon": 0.0, "name": "0fd6a178674227eccd2286a9166fc8ef", "lat": 38.909770333333334, "is_disabled": 0, "is_reserved": 0, "lon": -77.040569, "type": "electric_scooter", "fusion_lat": 0.0, "rental_uris": {"android": "https://dc.lft.to/lastmile_qr_scan", "ios": "https://dc.lft.to/lastmile_qr_scan"}}, {"bike_id": "070d93af8de21682a4906cefd1335773", "fusion_lon": 0.0, "name": "070d93af8de21682a4906cefd1335773", "lat": 38.90860583333333, "is_disabled": 0, "is_reserved": 0, "lon": -76.999585, "type": "electric_scooter", "fusion_lat": 0.0, "rental_uris": {"android": "https://dc.lft.to/lastmile_qr_scan", "ios": "https://dc.lft.to/lastmile_qr_scan"}}, {"bike_id": "3a13281a6c3895f465bd030673f0aa23", "fusion_lon": 0.0, "name": "3a13281a6c3895f465bd030673f0aa23", "lat": 38.95632116666667, "is_disabled": 0, "is_reserved": 0, "lon": -77.033073, "type": "electric_scooter", "fusion_lat": 0.0, "rental_uris": {"android": "https://dc.lft.to/lastmile_qr_scan", "ios": "https://dc.lft.to/lastmile_qr_scan"}}, {"bike_id": "517ccf6a4dee180fb66f906e519aaf22", "fusion_lon": 0.0, "name": "517ccf6a4dee180fb66f906e519aaf22", "lat": 38.911506, "is_disabled": 0, "is_reserved": 0, "lon": -77.02377066666666, "type": "electric_scooter", "fusion_lat": 0.0, "rental_uris": {"android": "https://dc.lft.to/lastmile_qr_scan", "ios": "https://dc.lft.to/lastmile_qr_scan"}}, {"bike_id": "f85690d965348786b04f9d07331a63ea", "fusion_lon": 0.0, "name": "f85690d965348786b04f9d07331a63ea", "lat": 38.918322833333335, "is_disabled": 0, "is_reserved": 0, "lon": -77.0319415, "type": "electric_scooter", "fusion_lat": 0.0, "rental_uris": {"android": "https://dc.lft.to/lastmile_qr_scan", "ios": "https://dc.lft.to/lastmile_qr_scan"}}, {"bike_id": "70ba8ae2f4b0a13931920887cd5c5b4e", "fusion_lon": 0.0, "name": "70ba8ae2f4b0a13931920887cd5c5b4e", "lat": 38.91900483333333, "is_disabled": 0, "is_reserved": 0, "lon": -77.00311116666667, "type": "electric_scooter", "fusion_lat": 0.0, "rental_uris": {"android": "https://dc.lft.to/lastmile_qr_scan", "ios": "https://dc.lft.to/lastmile_qr_scan"}}, {"bike_id": "6ac33b4e2b25809f7ac82ee0f9781c26", "fusion_lon": 0.0, "name": "6ac33b4e2b25809f7ac82ee0f9781c26", "lat": 38.89221833333333, "is_disabled": 0, "is_reserved": 0, "lon": -77.03346466666666, "type": "electric_scooter", "fusion_lat": 0.0, "rental_uris": {"android": "https://dc.lft.to/lastmile_qr_scan", "ios": "https://dc.lft.to/lastmile_qr_scan"}}, {"bike_id": "99b21a93a1507ceb7d91cbd397193168", "fusion_lon": 0.0, "name": "99b21a93a1507ceb7d91cbd397193168", "lat": 38.902655833333334, "is_disabled": 0, "is_reserved": 0, "lon": -77.033379, "type": "electric_scooter", "fusion_lat": 0.0, "rental_uris": {"android": "https://dc.lft.to/lastmile_qr_scan", "ios": "https://dc.lft.to/lastmile_qr_scan"}}, {"bike_id": "e04ab200186a3485426741e036316725", "fusion_lon": 0.0, "name": "e04ab200186a3485426741e036316725", "lat": 38.927353333333336, "is_disabled": 0, "is_reserved": 0, "lon": -77.0231485, "type": "electric_scooter", "fusion_lat": 0.0, "rental_uris": {"android": "https://dc.lft.to/lastmile_qr_scan", "ios": "https://dc.lft.to/lastmile_qr_scan"}}, {"bike_id": "c7bbfc9636db6205fbed7dccc3b23032", "fusion_lon": 0.0, "name": "c7bbfc9636db6205fbed7dccc3b23032", "lat": 38.9169865, "is_disabled": 0, "is_reserved": 0, "lon": -77.0312245, "type": "electric_scooter", "fusion_lat": 0.0, "rental_uris": {"android": "https://dc.lft.to/lastmile_qr_scan", "ios": "https://dc.lft.to/lastmile_qr_scan"}}, {"bike_id": "51706bd22304c8ead076f32a9eb4248a", "fusion_lon": 0.0, "name": "51706bd22304c8ead076f32a9eb4248a", "lat": 38.898619833333335, "is_disabled": 0, "is_reserved": 0, "lon": -76.94641916666667, "type": "electric_scooter", "fusion_lat": 0.0, "rental_uris": {"android": "https://dc.lft.to/lastmile_qr_scan", "ios": "https://dc.lft.to/lastmile_qr_scan"}}, {"bike_id": "2e688550ecb732f6c18a441c2287494e", "fusion_lon": 0.0, "name": "2e688550ecb732f6c18a441c2287494e", "lat": 38.893790833333334, "is_disabled": 0, "is_reserved": 0, "lon": -76.92303833333334, "type": "electric_scooter", "fusion_lat": 0.0, "rental_uris": {"android": "https://dc.lft.to/lastmile_qr_scan", "ios": "https://dc.lft.to/lastmile_qr_scan"}}, {"bike_id": "6e20ac6e5ba740804a68ba00b350e892", "fusion_lon": 0.0, "name": "6e20ac6e5ba740804a68ba00b350e892", "lat": 38.86176583333334, "is_disabled": 0, "is_reserved": 0, "lon": -76.96913683333334, "type": "electric_scooter", "fusion_lat": 0.0, "rental_uris": {"android": "https://dc.lft.to/lastmile_qr_scan", "ios": "https://dc.lft.to/lastmile_qr_scan"}}, {"bike_id": "76f0e3ae6bbde7874d98b66d5f127c28", "fusion_lon": 0.0, "name": "76f0e3ae6bbde7874d98b66d5f127c28", "lat": 38.936045166666666, "is_disabled": 0, "is_reserved": 0, "lon": -77.05862433333333, "type": "electric_scooter", "fusion_lat": 0.0, "rental_uris": {"android": "https://dc.lft.to/lastmile_qr_scan", "ios": "https://dc.lft.to/lastmile_qr_scan"}}, {"bike_id": "37ffe651e6eb420cdd7062b638983807", "fusion_lon": 0.0, "name": "37ffe651e6eb420cdd7062b638983807", "lat": 38.88429, "is_disabled": 0, "is_reserved": 0, "lon": -77.02598216666667, "type": "electric_scooter", "fusion_lat": 0.0, "rental_uris": {"android": "https://dc.lft.to/lastmile_qr_scan", "ios": "https://dc.lft.to/lastmile_qr_scan"}}, {"bike_id": "0135cfd8531a8e31b96b04b0706da201", "fusion_lon": 0.0, "name": "0135cfd8531a8e31b96b04b0706da201", "lat": 38.89852916666667, "is_disabled": 0, "is_reserved": 0, "lon": -77.028029, "type": "electric_scooter", "fusion_lat": 0.0, "rental_uris": {"android": "https://dc.lft.to/lastmile_qr_scan", "ios": "https://dc.lft.to/lastmile_qr_scan"}}, {"bike_id": "bf9e10b1f51157961bdf24586941b18d", "fusion_lon": 0.0, "name": "bf9e10b1f51157961bdf24586941b18d", "lat": 38.899665166666665, "is_disabled": 0, "is_reserved": 0, "lon": -77.015299, "type": "electric_scooter", "fusion_lat": 0.0, "rental_uris": {"android": "https://dc.lft.to/lastmile_qr_scan", "ios": "https://dc.lft.to/lastmile_qr_scan"}}, {"bike_id": "807a3eb6cdf5137336b5c05846381f32", "fusion_lon": 0.0, "name": "807a3eb6cdf5137336b5c05846381f32", "lat": 38.90781, "is_disabled": 0, "is_reserved": 0, "lon": -77.07249616666667, "type": "electric_scooter", "fusion_lat": 0.0, "rental_uris": {"android": "https://dc.lft.to/lastmile_qr_scan", "ios": "https://dc.lft.to/lastmile_qr_scan"}}, {"bike_id": "6212afce09bcf924e4aee40fa78d1b82", "fusion_lon": 0.0, "name": "6212afce09bcf924e4aee40fa78d1b82", "lat": 38.905407333333336, "is_disabled": 0, "is_reserved": 0, "lon": -77.05128616666667, "type": "electric_scooter", "fusion_lat": 0.0, "rental_uris": {"android": "https://dc.lft.to/lastmile_qr_scan", "ios": "https://dc.lft.to/lastmile_qr_scan"}}, {"bike_id": "5b7821a8b6be48b1187a993fd307b7a2", "fusion_lon": 0.0, "name": "5b7821a8b6be48b1187a993fd307b7a2", "lat": 38.91849083333334, "is_disabled": 0, "is_reserved": 0, "lon": -77.0317915, "type": "electric_scooter", "fusion_lat": 0.0, "rental_uris": {"android": "https://dc.lft.to/lastmile_qr_scan", "ios": "https://dc.lft.to/lastmile_qr_scan"}}, {"bike_id": "5f21b8215554048480a0ed185d0556e6", "fusion_lon": 0.0, "name": "5f21b8215554048480a0ed185d0556e6", "lat": 38.94947666666667, "is_disabled": 0, "is_reserved": 0, "lon": -77.0231515, "type": "electric_scooter", "fusion_lat": 0.0, "rental_uris": {"android": "https://dc.lft.to/lastmile_qr_scan", "ios": "https://dc.lft.to/lastmile_qr_scan"}}, {"bike_id": "37cf80c234cbe4752999d9402a60be50", "fusion_lon": 0.0, "name": "37cf80c234cbe4752999d9402a60be50", "lat": 38.91065316666667, "is_disabled": 0, "is_reserved": 0, "lon": -77.052969, "type": "electric_scooter", "fusion_lat": 0.0, "rental_uris": {"android": "https://dc.lft.to/lastmile_qr_scan", "ios": "https://dc.lft.to/lastmile_qr_scan"}}, {"bike_id": "a351bf9e0e4345ce05f1bfe0d55b4a60", "fusion_lon": 0.0, "name": "a351bf9e0e4345ce05f1bfe0d55b4a60", "lat": 38.93380666666667, "is_disabled": 0, "is_reserved": 0, "lon": -77.02682683333333, "type": "electric_scooter", "fusion_lat": 0.0, "rental_uris": {"android": "https://dc.lft.to/lastmile_qr_scan", "ios": "https://dc.lft.to/lastmile_qr_scan"}}, {"bike_id": "9976fd1d4471788c590b98295072e991", "fusion_lon": 0.0, "name": "9976fd1d4471788c590b98295072e991", "lat": 39.0563395, "is_disabled": 0, "is_reserved": 0, "lon": -77.12530966666667, "type": "electric_bike", "fusion_lat": 0.0, "rental_uris": {"android": "https://dc.lft.to/lastmile_qr_scan", "ios": "https://dc.lft.to/lastmile_qr_scan"}}, {"bike_id": "51b74bda03369bb2aa287003666fc7b6", "fusion_lon": 0.0, "name": "51b74bda03369bb2aa287003666fc7b6", "lat": 38.92319883333333, "is_disabled": 0, "is_reserved": 0, "lon": -77.0391545, "type": "electric_scooter", "fusion_lat": 0.0, "rental_uris": {"android": "https://dc.lft.to/lastmile_qr_scan", "ios": "https://dc.lft.to/lastmile_qr_scan"}}, {"bike_id": "be31220c8c06d2d52d1da2c4db9119ca", "fusion_lon": 0.0, "name": "be31220c8c06d2d52d1da2c4db9119ca", "lat": 38.89579783333333, "is_disabled": 0, "is_reserved": 0, "lon": -77.02307, "type": "electric_scooter", "fusion_lat": 0.0, "rental_uris": {"android": "https://dc.lft.to/lastmile_qr_scan", "ios": "https://dc.lft.to/lastmile_qr_scan"}}, {"bike_id": "bce80178c29c05ba202a36460f655b24", "fusion_lon": 0.0, "name": "bce80178c29c05ba202a36460f655b24", "lat": 38.87655133333333, "is_disabled": 0, "is_reserved": 0, "lon": -77.00923566666667, "type": "electric_scooter", "fusion_lat": 0.0, "rental_uris": {"android": "https://dc.lft.to/lastmile_qr_scan", "ios": "https://dc.lft.to/lastmile_qr_scan"}}, {"bike_id": "1f9028fbb801cb85fdc94a04ec6fd0f4", "fusion_lon": 0.0, "name": "1f9028fbb801cb85fdc94a04ec6fd0f4", "lat": 38.91773116666667, "is_disabled": 0, "is_reserved": 0, "lon": -77.0222605, "type": "electric_scooter", "fusion_lat": 0.0, "rental_uris": {"android": "https://dc.lft.to/lastmile_qr_scan", "ios": "https://dc.lft.to/lastmile_qr_scan"}}, {"bike_id": "a6d2b02501669a95a98d81ebf509471f", "fusion_lon": 0.0, "name": "a6d2b02501669a95a98d81ebf509471f", "lat": 38.905356166666664, "is_disabled": 0, "is_reserved": 0, "lon": -77.02213483333334, "type": "electric_scooter", "fusion_lat": 0.0, "rental_uris": {"android": "https://dc.lft.to/lastmile_qr_scan", "ios": "https://dc.lft.to/lastmile_qr_scan"}}, {"bike_id": "20b8e01bee4c9ee82342f0750e975124", "fusion_lon": 0.0, "name": "20b8e01bee4c9ee82342f0750e975124", "lat": 38.90248866666667, "is_disabled": 0, "is_reserved": 0, "lon": -77.05332433333334, "type": "electric_scooter", "fusion_lat": 0.0, "rental_uris": {"android": "https://dc.lft.to/lastmile_qr_scan", "ios": "https://dc.lft.to/lastmile_qr_scan"}}, {"bike_id": "d7ce86679931496aa9e0066e4fb8ce94", "fusion_lon": 0.0, "name": "d7ce86679931496aa9e0066e4fb8ce94", "lat": 38.9588235, "is_disabled": 0, "is_reserved": 0, "lon": -77.01169183333333, "type": "electric_scooter", "fusion_lat": 0.0, "rental_uris": {"android": "https://dc.lft.to/lastmile_qr_scan", "ios": "https://dc.lft.to/lastmile_qr_scan"}}, {"bike_id": "ab5ec63eeb5023787cf7ab7a3377ed47", "fusion_lon": 0.0, "name": "ab5ec63eeb5023787cf7ab7a3377ed47", "lat": 38.898931833333336, "is_disabled": 0, "is_reserved": 0, "lon": -77.00226983333333, "type": "electric_scooter", "fusion_lat": 0.0, "rental_uris": {"android": "https://dc.lft.to/lastmile_qr_scan", "ios": "https://dc.lft.to/lastmile_qr_scan"}}, {"bike_id": "6d788a548c8854b228cc1570cd8c2183", "fusion_lon": 0.0, "name": "6d788a548c8854b228cc1570cd8c2183", "lat": 38.934568, "is_disabled": 0, "is_reserved": 0, "lon": -77.04129466666667, "type": "electric_scooter", "fusion_lat": 0.0, "rental_uris": {"android": "https://dc.lft.to/lastmile_qr_scan", "ios": "https://dc.lft.to/lastmile_qr_scan"}}, {"bike_id": "4aa05d6fd27ae0fc092f42ab2d15eda5", "fusion_lon": 0.0, "name": "4aa05d6fd27ae0fc092f42ab2d15eda5", "lat": 38.9558425, "is_disabled": 0, "is_reserved": 0, "lon": -77.006375, "type": "electric_scooter", "fusion_lat": 0.0, "rental_uris": {"android": "https://dc.lft.to/lastmile_qr_scan", "ios": "https://dc.lft.to/lastmile_qr_scan"}}, {"bike_id": "864ce814735d72a225b1cdb7e51a8e55", "fusion_lon": 0.0, "name": "864ce814735d72a225b1cdb7e51a8e55", "lat": 38.884850166666666, "is_disabled": 0, "is_reserved": 0, "lon": -77.00712033333333, "type": "electric_scooter", "fusion_lat": 0.0, "rental_uris": {"android": "https://dc.lft.to/lastmile_qr_scan", "ios": "https://dc.lft.to/lastmile_qr_scan"}}, {"bike_id": "6b87538efd4e93a642865c7b7989553a", "fusion_lon": 0.0, "name": "6b87538efd4e93a642865c7b7989553a", "lat": 38.928254, "is_disabled": 0, "is_reserved": 0, "lon": -77.03285933333333, "type": "electric_scooter", "fusion_lat": 0.0, "rental_uris": {"android": "https://dc.lft.to/lastmile_qr_scan", "ios": "https://dc.lft.to/lastmile_qr_scan"}}, {"bike_id": "fff7ff753c8190429a84ef1fdd8abd2a", "fusion_lon": 0.0, "name": "fff7ff753c8190429a84ef1fdd8abd2a", "lat": 38.8427445, "is_disabled": 0, "is_reserved": 0, "lon": -77.04511133333334, "type": "electric_bike", "fusion_lat": 0.0, "rental_uris": {"android": "https://dc.lft.to/lastmile_qr_scan", "ios": "https://dc.lft.to/lastmile_qr_scan"}}, {"bike_id": "b475c0e01a6f80eba9eaeddf06faebbd", "fusion_lon": 0.0, "name": "b475c0e01a6f80eba9eaeddf06faebbd", "lat": 38.91090366666667, "is_disabled": 0, "is_reserved": 0, "lon": -77.03839583333334, "type": "electric_scooter", "fusion_lat": 0.0, "rental_uris": {"android": "https://dc.lft.to/lastmile_qr_scan", "ios": "https://dc.lft.to/lastmile_qr_scan"}}, {"bike_id": "35bc57106dafb57f5137befe098b9c02", "fusion_lon": 0.0, "name": "35bc57106dafb57f5137befe098b9c02", "lat": 38.90386066666667, "is_disabled": 0, "is_reserved": 0, "lon": -77.0163885, "type": "electric_scooter", "fusion_lat": 0.0, "rental_uris": {"android": "https://dc.lft.to/lastmile_qr_scan", "ios": "https://dc.lft.to/lastmile_qr_scan"}}, {"bike_id": "81fcf854fffb3437b76df84eb63f2ad0", "fusion_lon": 0.0, "name": "81fcf854fffb3437b76df84eb63f2ad0", "lat": 38.86681266666667, "is_disabled": 0, "is_reserved": 0, "lon": -76.98566533333333, "type": "electric_scooter", "fusion_lat": 0.0, "rental_uris": {"android": "https://dc.lft.to/lastmile_qr_scan", "ios": "https://dc.lft.to/lastmile_qr_scan"}}, {"bike_id": "a499a29cd6b67eaf642e0bec04ebf764", "fusion_lon": 0.0, "name": "a499a29cd6b67eaf642e0bec04ebf764", "lat": 38.902682166666665, "is_disabled": 0, "is_reserved": 0, "lon": -77.03433683333333, "type": "electric_scooter", "fusion_lat": 0.0, "rental_uris": {"android": "https://dc.lft.to/lastmile_qr_scan", "ios": "https://dc.lft.to/lastmile_qr_scan"}}, {"bike_id": "2e603d7b34d37e7b67d1b345fb8b84b0", "fusion_lon": 0.0, "name": "2e603d7b34d37e7b67d1b345fb8b84b0", "lat": 38.902793, "is_disabled": 0, "is_reserved": 0, "lon": -77.03936583333333, "type": "electric_scooter", "fusion_lat": 0.0, "rental_uris": {"android": "https://dc.lft.to/lastmile_qr_scan", "ios": "https://dc.lft.to/lastmile_qr_scan"}}, {"bike_id": "7ea2434df2b277492c7b9636854dcf0c", "fusion_lon": 0.0, "name": "7ea2434df2b277492c7b9636854dcf0c", "lat": 38.8999215, "is_disabled": 0, "is_reserved": 0, "lon": -77.00661216666667, "type": "electric_scooter", "fusion_lat": 0.0, "rental_uris": {"android": "https://dc.lft.to/lastmile_qr_scan", "ios": "https://dc.lft.to/lastmile_qr_scan"}}, {"bike_id": "cd208e47ad7e0cd630698457d0d81a3d", "fusion_lon": 0.0, "name": "cd208e47ad7e0cd630698457d0d81a3d", "lat": 38.928865333333334, "is_disabled": 0, "is_reserved": 0, "lon": -77.0337805, "type": "electric_scooter", "fusion_lat": 0.0, "rental_uris": {"android": "https://dc.lft.to/lastmile_qr_scan", "ios": "https://dc.lft.to/lastmile_qr_scan"}}, {"bike_id": "106c7147760362ca8b0ff5c5252a62e1", "fusion_lon": 0.0, "name": "106c7147760362ca8b0ff5c5252a62e1", "lat": 38.898589333333334, "is_disabled": 0, "is_reserved": 0, "lon": -76.94641616666667, "type": "electric_scooter", "fusion_lat": 0.0, "rental_uris": {"android": "https://dc.lft.to/lastmile_qr_scan", "ios": "https://dc.lft.to/lastmile_qr_scan"}}, {"bike_id": "e03f021d75d75f62b4bd5c18bcbaf4ca", "fusion_lon": 0.0, "name": "e03f021d75d75f62b4bd5c18bcbaf4ca", "lat": 38.917067, "is_disabled": 0, "is_reserved": 0, "lon": -77.03470166666666, "type": "electric_scooter", "fusion_lat": 0.0, "rental_uris": {"android": "https://dc.lft.to/lastmile_qr_scan", "ios": "https://dc.lft.to/lastmile_qr_scan"}}, {"bike_id": "3094571313165b104047f8c08d16a201", "fusion_lon": 0.0, "name": "3094571313165b104047f8c08d16a201", "lat": 38.93021133333333, "is_disabled": 0, "is_reserved": 0, "lon": -77.032892, "type": "electric_scooter", "fusion_lat": 0.0, "rental_uris": {"android": "https://dc.lft.to/lastmile_qr_scan", "ios": "https://dc.lft.to/lastmile_qr_scan"}}, {"bike_id": "fe24a693ee5c26185ebbeae835ced5b9", "fusion_lon": 0.0, "name": "fe24a693ee5c26185ebbeae835ced5b9", "lat": 38.89244266666667, "is_disabled": 0, "is_reserved": 0, "lon": -77.04660683333333, "type": "electric_scooter", "fusion_lat": 0.0, "rental_uris": {"android": "https://dc.lft.to/lastmile_qr_scan", "ios": "https://dc.lft.to/lastmile_qr_scan"}}, {"bike_id": "e69f79ba8f1b89554bdd6c8d5a6a9420", "fusion_lon": 0.0, "name": "e69f79ba8f1b89554bdd6c8d5a6a9420", "lat": 38.92885616666667, "is_disabled": 0, "is_reserved": 0, "lon": -77.02708616666666, "type": "electric_scooter", "fusion_lat": 0.0, "rental_uris": {"android": "https://dc.lft.to/lastmile_qr_scan", "ios": "https://dc.lft.to/lastmile_qr_scan"}}, {"bike_id": "510d24bfcb2e70bc580fffc2fa7605e6", "fusion_lon": 0.0, "name": "510d24bfcb2e70bc580fffc2fa7605e6", "lat": 38.91315733333333, "is_disabled": 0, "is_reserved": 0, "lon": -77.01514766666666, "type": "electric_scooter", "fusion_lat": 0.0, "rental_uris": {"android": "https://dc.lft.to/lastmile_qr_scan", "ios": "https://dc.lft.to/lastmile_qr_scan"}}, {"bike_id": "410dda9c6712e7097c3f93727776de9b", "fusion_lon": 0.0, "name": "410dda9c6712e7097c3f93727776de9b", "lat": 38.892396833333336, "is_disabled": 0, "is_reserved": 0, "lon": -77.03352733333334, "type": "electric_scooter", "fusion_lat": 0.0, "rental_uris": {"android": "https://dc.lft.to/lastmile_qr_scan", "ios": "https://dc.lft.to/lastmile_qr_scan"}}, {"bike_id": "b9ab223f5b6dffdb40f696e87544d67e", "fusion_lon": 0.0, "name": "b9ab223f5b6dffdb40f696e87544d67e", "lat": 38.90256566666667, "is_disabled": 0, "is_reserved": 0, "lon": -76.974601, "type": "electric_scooter", "fusion_lat": 0.0, "rental_uris": {"android": "https://dc.lft.to/lastmile_qr_scan", "ios": "https://dc.lft.to/lastmile_qr_scan"}}, {"bike_id": "de6b52f95c9ddc74882b196767875a2b", "fusion_lon": 0.0, "name": "de6b52f95c9ddc74882b196767875a2b", "lat": 38.904108, "is_disabled": 0, "is_reserved": 0, "lon": -76.9733395, "type": "electric_scooter", "fusion_lat": 0.0, "rental_uris": {"android": "https://dc.lft.to/lastmile_qr_scan", "ios": "https://dc.lft.to/lastmile_qr_scan"}}, {"bike_id": "56e5ff1b01337e181343ee69d69b61af", "fusion_lon": 0.0, "name": "56e5ff1b01337e181343ee69d69b61af", "lat": 38.90720866666667, "is_disabled": 0, "is_reserved": 0, "lon": -77.04333116666666, "type": "electric_scooter", "fusion_lat": 0.0, "rental_uris": {"android": "https://dc.lft.to/lastmile_qr_scan", "ios": "https://dc.lft.to/lastmile_qr_scan"}}, {"bike_id": "b3e0cd0e23a5052fd08696e7c42745b7", "fusion_lon": 0.0, "name": "b3e0cd0e23a5052fd08696e7c42745b7", "lat": 38.907878, "is_disabled": 0, "is_reserved": 0, "lon": -77.04007033333333, "type": "electric_scooter", "fusion_lat": 0.0, "rental_uris": {"android": "https://dc.lft.to/lastmile_qr_scan", "ios": "https://dc.lft.to/lastmile_qr_scan"}}, {"bike_id": "74db721c918fef1cb5c3b1f84be5d8c5", "fusion_lon": 0.0, "name": "74db721c918fef1cb5c3b1f84be5d8c5", "lat": 38.902087, "is_disabled": 0, "is_reserved": 0, "lon": -77.021533, "type": "electric_scooter", "fusion_lat": 0.0, "rental_uris": {"android": "https://dc.lft.to/lastmile_qr_scan", "ios": "https://dc.lft.to/lastmile_qr_scan"}}, {"bike_id": "15f7e35535ee75cf5a3b07f7926e0598", "fusion_lon": 0.0, "name": "15f7e35535ee75cf5a3b07f7926e0598", "lat": 38.9157315, "is_disabled": 0, "is_reserved": 0, "lon": -77.03849783333334, "type": "electric_scooter", "fusion_lat": 0.0, "rental_uris": {"android": "https://dc.lft.to/lastmile_qr_scan", "ios": "https://dc.lft.to/lastmile_qr_scan"}}, {"bike_id": "a415abe30cd2c366e7f605c5da928441", "fusion_lon": 0.0, "name": "a415abe30cd2c366e7f605c5da928441", "lat": 38.90858383333333, "is_disabled": 0, "is_reserved": 0, "lon": -76.99799383333334, "type": "electric_scooter", "fusion_lat": 0.0, "rental_uris": {"android": "https://dc.lft.to/lastmile_qr_scan", "ios": "https://dc.lft.to/lastmile_qr_scan"}}, {"bike_id": "0652f1eaf66b09e6b3c5f06b7dffddc6", "fusion_lon": 0.0, "name": "0652f1eaf66b09e6b3c5f06b7dffddc6", "lat": 38.896953333333336, "is_disabled": 0, "is_reserved": 0, "lon": -77.04666683333333, "type": "electric_scooter", "fusion_lat": 0.0, "rental_uris": {"android": "https://dc.lft.to/lastmile_qr_scan", "ios": "https://dc.lft.to/lastmile_qr_scan"}}, {"bike_id": "3e603f4cbca3f8c5f72cde63e73294f4", "fusion_lon": 0.0, "name": "3e603f4cbca3f8c5f72cde63e73294f4", "lat": 38.905578, "is_disabled": 0, "is_reserved": 0, "lon": -77.013145, "type": "electric_scooter", "fusion_lat": 0.0, "rental_uris": {"android": "https://dc.lft.to/lastmile_qr_scan", "ios": "https://dc.lft.to/lastmile_qr_scan"}}, {"bike_id": "8d0b91a963262bb21a45c09b5800fad6", "fusion_lon": 0.0, "name": "8d0b91a963262bb21a45c09b5800fad6", "lat": 38.9117935, "is_disabled": 0, "is_reserved": 0, "lon": -77.00290233333334, "type": "electric_bike", "fusion_lat": 0.0, "rental_uris": {"android": "https://dc.lft.to/lastmile_qr_scan", "ios": "https://dc.lft.to/lastmile_qr_scan"}}, {"bike_id": "8aabbb13680bdb0e942785362fe68709", "fusion_lon": 0.0, "name": "8aabbb13680bdb0e942785362fe68709", "lat": 38.892215, "is_disabled": 0, "is_reserved": 0, "lon": -77.04312083333333, "type": "electric_scooter", "fusion_lat": 0.0, "rental_uris": {"android": "https://dc.lft.to/lastmile_qr_scan", "ios": "https://dc.lft.to/lastmile_qr_scan"}}, {"bike_id": "19a9b1d6b0a79f1ce2207e65dde33fd5", "fusion_lon": 0.0, "name": "19a9b1d6b0a79f1ce2207e65dde33fd5", "lat": 38.91679633333333, "is_disabled": 0, "is_reserved": 0, "lon": -77.03766333333333, "type": "electric_scooter", "fusion_lat": 0.0, "rental_uris": {"android": "https://dc.lft.to/lastmile_qr_scan", "ios": "https://dc.lft.to/lastmile_qr_scan"}}, {"bike_id": "795d1ac8f7f4f460903f7a157b4d9a84", "fusion_lon": 0.0, "name": "795d1ac8f7f4f460903f7a157b4d9a84", "lat": 38.91775283333333, "is_disabled": 0, "is_reserved": 0, "lon": -77.022902, "type": "electric_scooter", "fusion_lat": 0.0, "rental_uris": {"android": "https://dc.lft.to/lastmile_qr_scan", "ios": "https://dc.lft.to/lastmile_qr_scan"}}, {"bike_id": "7954959553b24f928399608c8ec3c3b1", "fusion_lon": 0.0, "name": "7954959553b24f928399608c8ec3c3b1", "lat": 38.892263666666665, "is_disabled": 0, "is_reserved": 0, "lon": -77.0433145, "type": "electric_scooter", "fusion_lat": 0.0, "rental_uris": {"android": "https://dc.lft.to/lastmile_qr_scan", "ios": "https://dc.lft.to/lastmile_qr_scan"}}, {"bike_id": "05c6178d6aba81929350ec89c7903d26", "fusion_lon": 0.0, "name": "05c6178d6aba81929350ec89c7903d26", "lat": 38.931851, "is_disabled": 0, "is_reserved": 0, "lon": -77.04307166666666, "type": "electric_scooter", "fusion_lat": 0.0, "rental_uris": {"android": "https://dc.lft.to/lastmile_qr_scan", "ios": "https://dc.lft.to/lastmile_qr_scan"}}, {"bike_id": "cc59a76873f284e9de30b372c9fb7bbd", "fusion_lon": 0.0, "name": "cc59a76873f284e9de30b372c9fb7bbd", "lat": 38.91796733333334, "is_disabled": 0, "is_reserved": 0, "lon": -77.03438383333334, "type": "electric_scooter", "fusion_lat": 0.0, "rental_uris": {"android": "https://dc.lft.to/lastmile_qr_scan", "ios": "https://dc.lft.to/lastmile_qr_scan"}}, {"bike_id": "9c4be9f166c7babf624a94a9b4df7eb5", "fusion_lon": 0.0, "name": "9c4be9f166c7babf624a94a9b4df7eb5", "lat": 38.903478666666665, "is_disabled": 0, "is_reserved": 0, "lon": -77.06608733333333, "type": "electric_scooter", "fusion_lat": 0.0, "rental_uris": {"android": "https://dc.lft.to/lastmile_qr_scan", "ios": "https://dc.lft.to/lastmile_qr_scan"}}, {"bike_id": "0f3db1cd80f8930e6bc8518207c9500f", "fusion_lon": 0.0, "name": "0f3db1cd80f8930e6bc8518207c9500f", "lat": 38.926023, "is_disabled": 0, "is_reserved": 0, "lon": -77.021568, "type": "electric_scooter", "fusion_lat": 0.0, "rental_uris": {"android": "https://dc.lft.to/lastmile_qr_scan", "ios": "https://dc.lft.to/lastmile_qr_scan"}}, {"bike_id": "6a9f0ec07fe475b00c8f11f1d50c3725", "fusion_lon": 0.0, "name": "6a9f0ec07fe475b00c8f11f1d50c3725", "lat": 38.91629016666667, "is_disabled": 0, "is_reserved": 0, "lon": -77.025613, "type": "electric_scooter", "fusion_lat": 0.0, "rental_uris": {"android": "https://dc.lft.to/lastmile_qr_scan", "ios": "https://dc.lft.to/lastmile_qr_scan"}}, {"bike_id": "bccaefdc12fd9da11d8611bd9b4bcbc2", "fusion_lon": 0.0, "name": "bccaefdc12fd9da11d8611bd9b4bcbc2", "lat": 38.928328666666665, "is_disabled": 0, "is_reserved": 0, "lon": -77.05437916666666, "type": "electric_scooter", "fusion_lat": 0.0, "rental_uris": {"android": "https://dc.lft.to/lastmile_qr_scan", "ios": "https://dc.lft.to/lastmile_qr_scan"}}, {"bike_id": "830696574f26fd68d6d81b63f1d13f1a", "fusion_lon": 0.0, "name": "830696574f26fd68d6d81b63f1d13f1a", "lat": 38.887925, "is_disabled": 0, "is_reserved": 0, "lon": -76.92339783333334, "type": "electric_bike", "fusion_lat": 0.0, "rental_uris": {"android": "https://dc.lft.to/lastmile_qr_scan", "ios": "https://dc.lft.to/lastmile_qr_scan"}}, {"bike_id": "ff6b2a8ff7c55aeaf1ed6def6eb76ed8", "fusion_lon": 0.0, "name": "ff6b2a8ff7c55aeaf1ed6def6eb76ed8", "lat": 38.911167, "is_disabled": 0, "is_reserved": 0, "lon": -77.04245683333333, "type": "electric_scooter", "fusion_lat": 0.0, "rental_uris": {"android": "https://dc.lft.to/lastmile_qr_scan", "ios": "https://dc.lft.to/lastmile_qr_scan"}}, {"bike_id": "3cd55f76bfa21279e9ac13afa57c815b", "fusion_lon": 0.0, "name": "3cd55f76bfa21279e9ac13afa57c815b", "lat": 38.948005, "is_disabled": 0, "is_reserved": 0, "lon": -77.07879383333334, "type": "electric_scooter", "fusion_lat": 0.0, "rental_uris": {"android": "https://dc.lft.to/lastmile_qr_scan", "ios": "https://dc.lft.to/lastmile_qr_scan"}}, {"bike_id": "54b7da98e6795217d3754c8b5f5c4a8b", "fusion_lon": 0.0, "name": "54b7da98e6795217d3754c8b5f5c4a8b", "lat": 38.90536266666667, "is_disabled": 0, "is_reserved": 0, "lon": -77.057067, "type": "electric_scooter", "fusion_lat": 0.0, "rental_uris": {"android": "https://dc.lft.to/lastmile_qr_scan", "ios": "https://dc.lft.to/lastmile_qr_scan"}}, {"bike_id": "a17798835dc0c9ace28855e09f668f63", "fusion_lon": 0.0, "name": "a17798835dc0c9ace28855e09f668f63", "lat": 38.9030335, "is_disabled": 0, "is_reserved": 0, "lon": -76.97655366666666, "type": "electric_bike", "fusion_lat": 0.0, "rental_uris": {"android": "https://dc.lft.to/lastmile_qr_scan", "ios": "https://dc.lft.to/lastmile_qr_scan"}}, {"bike_id": "81f31f8199254cba96f1f967539fa6de", "fusion_lon": 0.0, "name": "81f31f8199254cba96f1f967539fa6de", "lat": 38.92049216666667, "is_disabled": 0, "is_reserved": 0, "lon": -77.02420683333334, "type": "electric_scooter", "fusion_lat": 0.0, "rental_uris": {"android": "https://dc.lft.to/lastmile_qr_scan", "ios": "https://dc.lft.to/lastmile_qr_scan"}}, {"bike_id": "9fe4ce5befcfa00deac5cff1d4af6c8b", "fusion_lon": 0.0, "name": "9fe4ce5befcfa00deac5cff1d4af6c8b", "lat": 38.908286, "is_disabled": 0, "is_reserved": 0, "lon": -77.04352483333334, "type": "electric_scooter", "fusion_lat": 0.0, "rental_uris": {"android": "https://dc.lft.to/lastmile_qr_scan", "ios": "https://dc.lft.to/lastmile_qr_scan"}}, {"bike_id": "ebd5899b73e6fb133ff2b609e65a49df", "fusion_lon": 0.0, "name": "ebd5899b73e6fb133ff2b609e65a49df", "lat": 38.90290533333334, "is_disabled": 0, "is_reserved": 0, "lon": -76.9763655, "type": "electric_scooter", "fusion_lat": 0.0, "rental_uris": {"android": "https://dc.lft.to/lastmile_qr_scan", "ios": "https://dc.lft.to/lastmile_qr_scan"}}, {"bike_id": "7175ea53d7c4a7a990360ecb52732b63", "fusion_lon": 0.0, "name": "7175ea53d7c4a7a990360ecb52732b63", "lat": 38.892238666666664, "is_disabled": 0, "is_reserved": 0, "lon": -77.039761, "type": "electric_scooter", "fusion_lat": 0.0, "rental_uris": {"android": "https://dc.lft.to/lastmile_qr_scan", "ios": "https://dc.lft.to/lastmile_qr_scan"}}, {"bike_id": "0573b2e1c2b1b3a3376ffc27e644a32d", "fusion_lon": 0.0, "name": "0573b2e1c2b1b3a3376ffc27e644a32d", "lat": 38.94049183333333, "is_disabled": 0, "is_reserved": 0, "lon": -77.0298135, "type": "electric_scooter", "fusion_lat": 0.0, "rental_uris": {"android": "https://dc.lft.to/lastmile_qr_scan", "ios": "https://dc.lft.to/lastmile_qr_scan"}}, {"bike_id": "c4e5521b575372ad9ee5cc7bc4e24628", "fusion_lon": 0.0, "name": "c4e5521b575372ad9ee5cc7bc4e24628", "lat": 38.9339105, "is_disabled": 0, "is_reserved": 0, "lon": -77.05737216666667, "type": "electric_scooter", "fusion_lat": 0.0, "rental_uris": {"android": "https://dc.lft.to/lastmile_qr_scan", "ios": "https://dc.lft.to/lastmile_qr_scan"}}, {"bike_id": "3cdfc8e67039ae29d2699aba9e24489b", "fusion_lon": 0.0, "name": "3cdfc8e67039ae29d2699aba9e24489b", "lat": 38.903325833333334, "is_disabled": 0, "is_reserved": 0, "lon": -77.052814, "type": "electric_scooter", "fusion_lat": 0.0, "rental_uris": {"android": "https://dc.lft.to/lastmile_qr_scan", "ios": "https://dc.lft.to/lastmile_qr_scan"}}, {"bike_id": "8447a9f78bd98f8db9f8f9352cea99bd", "fusion_lon": 0.0, "name": "8447a9f78bd98f8db9f8f9352cea99bd", "lat": 38.91818416666667, "is_disabled": 0, "is_reserved": 0, "lon": -77.03654566666667, "type": "electric_scooter", "fusion_lat": 0.0, "rental_uris": {"android": "https://dc.lft.to/lastmile_qr_scan", "ios": "https://dc.lft.to/lastmile_qr_scan"}}, {"bike_id": "0835075d7c80682c57d2cff9a0cf2635", "fusion_lon": 0.0, "name": "0835075d7c80682c57d2cff9a0cf2635", "lat": 38.924562, "is_disabled": 0, "is_reserved": 0, "lon": -77.02258933333333, "type": "electric_scooter", "fusion_lat": 0.0, "rental_uris": {"android": "https://dc.lft.to/lastmile_qr_scan", "ios": "https://dc.lft.to/lastmile_qr_scan"}}, {"bike_id": "cbaa6057cfd9ea54ad3e16898e648639", "fusion_lon": 0.0, "name": "cbaa6057cfd9ea54ad3e16898e648639", "lat": 38.92685516666667, "is_disabled": 0, "is_reserved": 0, "lon": -77.03241033333333, "type": "electric_scooter", "fusion_lat": 0.0, "rental_uris": {"android": "https://dc.lft.to/lastmile_qr_scan", "ios": "https://dc.lft.to/lastmile_qr_scan"}}, {"bike_id": "e21580a9400bee12f5b2ed09e55c5eaf", "fusion_lon": 0.0, "name": "e21580a9400bee12f5b2ed09e55c5eaf", "lat": 38.99774566666667, "is_disabled": 0, "is_reserved": 0, "lon": -77.04719116666666, "type": "electric_bike", "fusion_lat": 0.0, "rental_uris": {"android": "https://dc.lft.to/lastmile_qr_scan", "ios": "https://dc.lft.to/lastmile_qr_scan"}}, {"bike_id": "15fdf0b376c8d18e2b33188a18662355", "fusion_lon": 0.0, "name": "15fdf0b376c8d18e2b33188a18662355", "lat": 38.93454116666667, "is_disabled": 0, "is_reserved": 0, "lon": -77.02420816666667, "type": "electric_scooter", "fusion_lat": 0.0, "rental_uris": {"android": "https://dc.lft.to/lastmile_qr_scan", "ios": "https://dc.lft.to/lastmile_qr_scan"}}, {"bike_id": "521e59ca4ab384c4c63eeb6b104124c8", "fusion_lon": 0.0, "name": "521e59ca4ab384c4c63eeb6b104124c8", "lat": 38.9620325, "is_disabled": 0, "is_reserved": 0, "lon": -77.02232116666667, "type": "electric_scooter", "fusion_lat": 0.0, "rental_uris": {"android": "https://dc.lft.to/lastmile_qr_scan", "ios": "https://dc.lft.to/lastmile_qr_scan"}}, {"bike_id": "6e021e63044e1e8e50a663baba638a7f", "fusion_lon": 0.0, "name": "6e021e63044e1e8e50a663baba638a7f", "lat": 38.904641166666664, "is_disabled": 0, "is_reserved": 0, "lon": -77.06529983333333, "type": "electric_scooter", "fusion_lat": 0.0, "rental_uris": {"android": "https://dc.lft.to/lastmile_qr_scan", "ios": "https://dc.lft.to/lastmile_qr_scan"}}, {"bike_id": "bc443b3217e7f0d7e28d69aa9f01552b", "fusion_lon": 0.0, "name": "bc443b3217e7f0d7e28d69aa9f01552b", "lat": 38.901096, "is_disabled": 0, "is_reserved": 0, "lon": -77.0425135, "type": "electric_scooter", "fusion_lat": 0.0, "rental_uris": {"android": "https://dc.lft.to/lastmile_qr_scan", "ios": "https://dc.lft.to/lastmile_qr_scan"}}, {"bike_id": "055154c60dc2afc6bb3445e5303c5a1f", "fusion_lon": 0.0, "name": "055154c60dc2afc6bb3445e5303c5a1f", "lat": 38.91462033333333, "is_disabled": 0, "is_reserved": 0, "lon": -77.022931, "type": "electric_scooter", "fusion_lat": 0.0, "rental_uris": {"android": "https://dc.lft.to/lastmile_qr_scan", "ios": "https://dc.lft.to/lastmile_qr_scan"}}, {"bike_id": "15a59879d28c71f872a03bc0958aa681", "fusion_lon": 0.0, "name": "15a59879d28c71f872a03bc0958aa681", "lat": 38.8560065, "is_disabled": 0, "is_reserved": 0, "lon": -76.97271483333333, "type": "electric_scooter", "fusion_lat": 0.0, "rental_uris": {"android": "https://dc.lft.to/lastmile_qr_scan", "ios": "https://dc.lft.to/lastmile_qr_scan"}}, {"bike_id": "fc60b082b28da666225d7abdd8254400", "fusion_lon": 0.0, "name": "fc60b082b28da666225d7abdd8254400", "lat": 38.892320166666664, "is_disabled": 0, "is_reserved": 0, "lon": -77.04876516666667, "type": "electric_scooter", "fusion_lat": 0.0, "rental_uris": {"android": "https://dc.lft.to/lastmile_qr_scan", "ios": "https://dc.lft.to/lastmile_qr_scan"}}, {"bike_id": "23f1c69ac298d9dc74312c3a140c3653", "fusion_lon": 0.0, "name": "23f1c69ac298d9dc74312c3a140c3653", "lat": 38.89244566666667, "is_disabled": 0, "is_reserved": 0, "lon": -77.04654316666667, "type": "electric_scooter", "fusion_lat": 0.0, "rental_uris": {"android": "https://dc.lft.to/lastmile_qr_scan", "ios": "https://dc.lft.to/lastmile_qr_scan"}}, {"bike_id": "d2499f8af2b4f50c953bde8890388cbb", "fusion_lon": 0.0, "name": "d2499f8af2b4f50c953bde8890388cbb", "lat": 38.88145466666667, "is_disabled": 0, "is_reserved": 0, "lon": -77.0269955, "type": "electric_scooter", "fusion_lat": 0.0, "rental_uris": {"android": "https://dc.lft.to/lastmile_qr_scan", "ios": "https://dc.lft.to/lastmile_qr_scan"}}, {"bike_id": "367461ac15f2ac5bc4c42f7e9ca07a45", "fusion_lon": 0.0, "name": "367461ac15f2ac5bc4c42f7e9ca07a45", "lat": 38.8973405, "is_disabled": 0, "is_reserved": 0, "lon": -77.13926466666666, "type": "electric_bike", "fusion_lat": 0.0, "rental_uris": {"android": "https://dc.lft.to/lastmile_qr_scan", "ios": "https://dc.lft.to/lastmile_qr_scan"}}, {"bike_id": "77e7045668fe503c75dbfeb94d988d59", "fusion_lon": 0.0, "name": "77e7045668fe503c75dbfeb94d988d59", "lat": 38.914128833333336, "is_disabled": 0, "is_reserved": 0, "lon": -77.022301, "type": "electric_scooter", "fusion_lat": 0.0, "rental_uris": {"android": "https://dc.lft.to/lastmile_qr_scan", "ios": "https://dc.lft.to/lastmile_qr_scan"}}, {"bike_id": "48236b2d1ce3ae410f6f9b182e1cff9a", "fusion_lon": 0.0, "name": "48236b2d1ce3ae410f6f9b182e1cff9a", "lat": 38.922669, "is_disabled": 0, "is_reserved": 0, "lon": -77.03272666666666, "type": "electric_scooter", "fusion_lat": 0.0, "rental_uris": {"android": "https://dc.lft.to/lastmile_qr_scan", "ios": "https://dc.lft.to/lastmile_qr_scan"}}, {"bike_id": "6bb5722b19920fb9d29f98c87155e1a0", "fusion_lon": 0.0, "name": "6bb5722b19920fb9d29f98c87155e1a0", "lat": 38.909753, "is_disabled": 0, "is_reserved": 0, "lon": -77.03451066666666, "type": "electric_scooter", "fusion_lat": 0.0, "rental_uris": {"android": "https://dc.lft.to/lastmile_qr_scan", "ios": "https://dc.lft.to/lastmile_qr_scan"}}, {"bike_id": "80c04e5a31b5e1716141d89b6db3ce6c", "fusion_lon": 0.0, "name": "80c04e5a31b5e1716141d89b6db3ce6c", "lat": 38.90254566666667, "is_disabled": 0, "is_reserved": 0, "lon": -77.0478715, "type": "electric_scooter", "fusion_lat": 0.0, "rental_uris": {"android": "https://dc.lft.to/lastmile_qr_scan", "ios": "https://dc.lft.to/lastmile_qr_scan"}}, {"bike_id": "28533e37354264ca0b53b8d204002469", "fusion_lon": 0.0, "name": "28533e37354264ca0b53b8d204002469", "lat": 38.9012495, "is_disabled": 0, "is_reserved": 0, "lon": -77.034845, "type": "electric_scooter", "fusion_lat": 0.0, "rental_uris": {"android": "https://dc.lft.to/lastmile_qr_scan", "ios": "https://dc.lft.to/lastmile_qr_scan"}}, {"bike_id": "4ef85c3c22a2671b966b664d5d24c2be", "fusion_lon": 0.0, "name": "4ef85c3c22a2671b966b664d5d24c2be", "lat": 38.8987335, "is_disabled": 0, "is_reserved": 0, "lon": -77.02036183333334, "type": "electric_scooter", "fusion_lat": 0.0, "rental_uris": {"android": "https://dc.lft.to/lastmile_qr_scan", "ios": "https://dc.lft.to/lastmile_qr_scan"}}, {"bike_id": "13c1d3d44e69454ab3cd4e65d3da5bd3", "fusion_lon": 0.0, "name": "13c1d3d44e69454ab3cd4e65d3da5bd3", "lat": 38.87458266666667, "is_disabled": 0, "is_reserved": 0, "lon": -77.00965883333333, "type": "electric_scooter", "fusion_lat": 0.0, "rental_uris": {"android": "https://dc.lft.to/lastmile_qr_scan", "ios": "https://dc.lft.to/lastmile_qr_scan"}}, {"bike_id": "62fc7b3a2e6a2c9956514639be95e17a", "fusion_lon": 0.0, "name": "62fc7b3a2e6a2c9956514639be95e17a", "lat": 38.91426533333333, "is_disabled": 0, "is_reserved": 0, "lon": -77.06425766666666, "type": "electric_scooter", "fusion_lat": 0.0, "rental_uris": {"android": "https://dc.lft.to/lastmile_qr_scan", "ios": "https://dc.lft.to/lastmile_qr_scan"}}, {"bike_id": "90246abda81dfb803f8ac80501a86a87", "fusion_lon": 0.0, "name": "90246abda81dfb803f8ac80501a86a87", "lat": 38.8839445, "is_disabled": 0, "is_reserved": 0, "lon": -76.9858905, "type": "electric_scooter", "fusion_lat": 0.0, "rental_uris": {"android": "https://dc.lft.to/lastmile_qr_scan", "ios": "https://dc.lft.to/lastmile_qr_scan"}}, {"bike_id": "77c70c455c822199bcb85dcc6f4b8ba6", "fusion_lon": 0.0, "name": "77c70c455c822199bcb85dcc6f4b8ba6", "lat": 38.895539666666664, "is_disabled": 0, "is_reserved": 0, "lon": -76.99841716666667, "type": "electric_scooter", "fusion_lat": 0.0, "rental_uris": {"android": "https://dc.lft.to/lastmile_qr_scan", "ios": "https://dc.lft.to/lastmile_qr_scan"}}, {"bike_id": "d8621311a8802a25c30b11c4c9106e7f", "fusion_lon": 0.0, "name": "d8621311a8802a25c30b11c4c9106e7f", "lat": 38.884896, "is_disabled": 0, "is_reserved": 0, "lon": -77.007286, "type": "electric_scooter", "fusion_lat": 0.0, "rental_uris": {"android": "https://dc.lft.to/lastmile_qr_scan", "ios": "https://dc.lft.to/lastmile_qr_scan"}}, {"bike_id": "9731dad4dcbca24c47908a275f8b41ae", "fusion_lon": 0.0, "name": "9731dad4dcbca24c47908a275f8b41ae", "lat": 38.885088833333334, "is_disabled": 0, "is_reserved": 0, "lon": -77.01507216666667, "type": "electric_scooter", "fusion_lat": 0.0, "rental_uris": {"android": "https://dc.lft.to/lastmile_qr_scan", "ios": "https://dc.lft.to/lastmile_qr_scan"}}, {"bike_id": "003c7557fad6be4b9cdd0ca6c32d4ffb", "fusion_lon": 0.0, "name": "003c7557fad6be4b9cdd0ca6c32d4ffb", "lat": 38.860628, "is_disabled": 0, "is_reserved": 0, "lon": -76.98501866666666, "type": "electric_scooter", "fusion_lat": 0.0, "rental_uris": {"android": "https://dc.lft.to/lastmile_qr_scan", "ios": "https://dc.lft.to/lastmile_qr_scan"}}, {"bike_id": "d01b9909ef5be92ad24ad8af376b312f", "fusion_lon": 0.0, "name": "d01b9909ef5be92ad24ad8af376b312f", "lat": 38.907375, "is_disabled": 0, "is_reserved": 0, "lon": -77.01312133333333, "type": "electric_scooter", "fusion_lat": 0.0, "rental_uris": {"android": "https://dc.lft.to/lastmile_qr_scan", "ios": "https://dc.lft.to/lastmile_qr_scan"}}, {"bike_id": "84682b2c3c267b800ca27ae365c805ac", "fusion_lon": 0.0, "name": "84682b2c3c267b800ca27ae365c805ac", "lat": 38.924156333333336, "is_disabled": 0, "is_reserved": 0, "lon": -77.05180366666667, "type": "electric_scooter", "fusion_lat": 0.0, "rental_uris": {"android": "https://dc.lft.to/lastmile_qr_scan", "ios": "https://dc.lft.to/lastmile_qr_scan"}}, {"bike_id": "6c8f0d72728bebbe69c51ced6d9cc0e7", "fusion_lon": 0.0, "name": "6c8f0d72728bebbe69c51ced6d9cc0e7", "lat": 38.88429216666667, "is_disabled": 0, "is_reserved": 0, "lon": -77.0259515, "type": "electric_scooter", "fusion_lat": 0.0, "rental_uris": {"android": "https://dc.lft.to/lastmile_qr_scan", "ios": "https://dc.lft.to/lastmile_qr_scan"}}, {"bike_id": "092347355411aebd5a44e0bdd335bbf4", "fusion_lon": 0.0, "name": "092347355411aebd5a44e0bdd335bbf4", "lat": 38.88744483333333, "is_disabled": 0, "is_reserved": 0, "lon": -76.98359983333333, "type": "electric_scooter", "fusion_lat": 0.0, "rental_uris": {"android": "https://dc.lft.to/lastmile_qr_scan", "ios": "https://dc.lft.to/lastmile_qr_scan"}}, {"bike_id": "990f1ba4b77c45b386dc2ee5de8fdebb", "fusion_lon": 0.0, "name": "990f1ba4b77c45b386dc2ee5de8fdebb", "lat": 38.884869333333334, "is_disabled": 0, "is_reserved": 0, "lon": -77.0070935, "type": "electric_scooter", "fusion_lat": 0.0, "rental_uris": {"android": "https://dc.lft.to/lastmile_qr_scan", "ios": "https://dc.lft.to/lastmile_qr_scan"}}, {"bike_id": "29a83bed176ee06d21029ff0cc792ea4", "fusion_lon": 0.0, "name": "29a83bed176ee06d21029ff0cc792ea4", "lat": 38.88746616666667, "is_disabled": 0, "is_reserved": 0, "lon": -77.0178165, "type": "electric_scooter", "fusion_lat": 0.0, "rental_uris": {"android": "https://dc.lft.to/lastmile_qr_scan", "ios": "https://dc.lft.to/lastmile_qr_scan"}}, {"bike_id": "6433fab7f6ca82edb7f4a640d858e6d1", "fusion_lon": 0.0, "name": "6433fab7f6ca82edb7f4a640d858e6d1", "lat": 38.917140333333336, "is_disabled": 0, "is_reserved": 0, "lon": -77.04153283333333, "type": "electric_scooter", "fusion_lat": 0.0, "rental_uris": {"android": "https://dc.lft.to/lastmile_qr_scan", "ios": "https://dc.lft.to/lastmile_qr_scan"}}, {"bike_id": "1df2d7e90ca732c7aa2099e3cb14a0be", "fusion_lon": 0.0, "name": "1df2d7e90ca732c7aa2099e3cb14a0be", "lat": 38.929598, "is_disabled": 0, "is_reserved": 0, "lon": -77.01146216666666, "type": "electric_scooter", "fusion_lat": 0.0, "rental_uris": {"android": "https://dc.lft.to/lastmile_qr_scan", "ios": "https://dc.lft.to/lastmile_qr_scan"}}, {"bike_id": "5d2f6c016e94b23a58d49fa540e2702f", "fusion_lon": 0.0, "name": "5d2f6c016e94b23a58d49fa540e2702f", "lat": 38.985036666666666, "is_disabled": 0, "is_reserved": 0, "lon": -76.98210833333333, "type": "electric_bike", "fusion_lat": 0.0, "rental_uris": {"android": "https://dc.lft.to/lastmile_qr_scan", "ios": "https://dc.lft.to/lastmile_qr_scan"}}, {"bike_id": "43bd631d18042d05bb74f372ed9348f5", "fusion_lon": 0.0, "name": "43bd631d18042d05bb74f372ed9348f5", "lat": 38.87245733333334, "is_disabled": 0, "is_reserved": 0, "lon": -76.977254, "type": "electric_scooter", "fusion_lat": 0.0, "rental_uris": {"android": "https://dc.lft.to/lastmile_qr_scan", "ios": "https://dc.lft.to/lastmile_qr_scan"}}, {"bike_id": "c1973cd6ea7de6789caa7ce95b39d6cc", "fusion_lon": 0.0, "name": "c1973cd6ea7de6789caa7ce95b39d6cc", "lat": 38.98765066666667, "is_disabled": 0, "is_reserved": 0, "lon": -77.14051433333333, "type": "electric_bike", "fusion_lat": 0.0, "rental_uris": {"android": "https://dc.lft.to/lastmile_qr_scan", "ios": "https://dc.lft.to/lastmile_qr_scan"}}, {"bike_id": "b1286b470a866435ea47b9a5dc4322f9", "fusion_lon": 0.0, "name": "b1286b470a866435ea47b9a5dc4322f9", "lat": 38.915673, "is_disabled": 0, "is_reserved": 0, "lon": -77.0385365, "type": "electric_scooter", "fusion_lat": 0.0, "rental_uris": {"android": "https://dc.lft.to/lastmile_qr_scan", "ios": "https://dc.lft.to/lastmile_qr_scan"}}, {"bike_id": "88db1a60d866514ed5ce69d736a3db11", "fusion_lon": 0.0, "name": "88db1a60d866514ed5ce69d736a3db11", "lat": 38.918176333333335, "is_disabled": 0, "is_reserved": 0, "lon": -77.02969866666666, "type": "electric_bike", "fusion_lat": 0.0, "rental_uris": {"android": "https://dc.lft.to/lastmile_qr_scan", "ios": "https://dc.lft.to/lastmile_qr_scan"}}, {"bike_id": "722c845f7fe3c390351a8657520a43a7", "fusion_lon": 0.0, "name": "722c845f7fe3c390351a8657520a43a7", "lat": 38.903944, "is_disabled": 0, "is_reserved": 0, "lon": -77.043821, "type": "electric_scooter", "fusion_lat": 0.0, "rental_uris": {"android": "https://dc.lft.to/lastmile_qr_scan", "ios": "https://dc.lft.to/lastmile_qr_scan"}}, {"bike_id": "68032ff415e5144382ad0d1ce92aea9a", "fusion_lon": 0.0, "name": "68032ff415e5144382ad0d1ce92aea9a", "lat": 38.90327766666667, "is_disabled": 0, "is_reserved": 0, "lon": -77.02889016666667, "type": "electric_scooter", "fusion_lat": 0.0, "rental_uris": {"android": "https://dc.lft.to/lastmile_qr_scan", "ios": "https://dc.lft.to/lastmile_qr_scan"}}, {"bike_id": "a348d357a4d6d2a0cc20e542cfdae7c4", "fusion_lon": 0.0, "name": "a348d357a4d6d2a0cc20e542cfdae7c4", "lat": 38.91699883333333, "is_disabled": 0, "is_reserved": 0, "lon": -77.035902, "type": "electric_scooter", "fusion_lat": 0.0, "rental_uris": {"android": "https://dc.lft.to/lastmile_qr_scan", "ios": "https://dc.lft.to/lastmile_qr_scan"}}, {"bike_id": "2619c2061bb5e34cb4918ff36ed2c0e6", "fusion_lon": 0.0, "name": "2619c2061bb5e34cb4918ff36ed2c0e6", "lat": 38.905280833333336, "is_disabled": 0, "is_reserved": 0, "lon": -77.0630475, "type": "electric_scooter", "fusion_lat": 0.0, "rental_uris": {"android": "https://dc.lft.to/lastmile_qr_scan", "ios": "https://dc.lft.to/lastmile_qr_scan"}}, {"bike_id": "1f5977fa025daa2afba3e5f49cfc2ae6", "fusion_lon": 0.0, "name": "1f5977fa025daa2afba3e5f49cfc2ae6", "lat": 38.9026265, "is_disabled": 0, "is_reserved": 0, "lon": -77.035286, "type": "electric_scooter", "fusion_lat": 0.0, "rental_uris": {"android": "https://dc.lft.to/lastmile_qr_scan", "ios": "https://dc.lft.to/lastmile_qr_scan"}}, {"bike_id": "c536dce1713d3af4a647d79b6e25f6af", "fusion_lon": 0.0, "name": "c536dce1713d3af4a647d79b6e25f6af", "lat": 38.9040795, "is_disabled": 0, "is_reserved": 0, "lon": -76.97333933333333, "type": "electric_scooter", "fusion_lat": 0.0, "rental_uris": {"android": "https://dc.lft.to/lastmile_qr_scan", "ios": "https://dc.lft.to/lastmile_qr_scan"}}, {"bike_id": "795940b84e0f78dc4b9509397c4df938", "fusion_lon": 0.0, "name": "795940b84e0f78dc4b9509397c4df938", "lat": 38.896719, "is_disabled": 0, "is_reserved": 0, "lon": -77.024914, "type": "electric_scooter", "fusion_lat": 0.0, "rental_uris": {"android": "https://dc.lft.to/lastmile_qr_scan", "ios": "https://dc.lft.to/lastmile_qr_scan"}}, {"bike_id": "91f994b2ee9e8299a1b17245c275b2d1", "fusion_lon": 0.0, "name": "91f994b2ee9e8299a1b17245c275b2d1", "lat": 38.83545433333333, "is_disabled": 0, "is_reserved": 0, "lon": -76.9873385, "type": "electric_bike", "fusion_lat": 0.0, "rental_uris": {"android": "https://dc.lft.to/lastmile_qr_scan", "ios": "https://dc.lft.to/lastmile_qr_scan"}}, {"bike_id": "77a5533cdd86b4bb65a9251d5fb2476d", "fusion_lon": 0.0, "name": "77a5533cdd86b4bb65a9251d5fb2476d", "lat": 38.9077925, "is_disabled": 0, "is_reserved": 0, "lon": -77.04232383333333, "type": "electric_scooter", "fusion_lat": 0.0, "rental_uris": {"android": "https://dc.lft.to/lastmile_qr_scan", "ios": "https://dc.lft.to/lastmile_qr_scan"}}, {"bike_id": "33a13383a5907a3c30319cf2df8078a0", "fusion_lon": 0.0, "name": "33a13383a5907a3c30319cf2df8078a0", "lat": 38.890060166666665, "is_disabled": 0, "is_reserved": 0, "lon": -76.9374395, "type": "electric_scooter", "fusion_lat": 0.0, "rental_uris": {"android": "https://dc.lft.to/lastmile_qr_scan", "ios": "https://dc.lft.to/lastmile_qr_scan"}}, {"bike_id": "8ca8a71ba01938fa1657803b567f3194", "fusion_lon": 0.0, "name": "8ca8a71ba01938fa1657803b567f3194", "lat": 38.928388, "is_disabled": 0, "is_reserved": 0, "lon": -77.036566, "type": "electric_scooter", "fusion_lat": 0.0, "rental_uris": {"android": "https://dc.lft.to/lastmile_qr_scan", "ios": "https://dc.lft.to/lastmile_qr_scan"}}, {"bike_id": "d91755df6fc1aaa52d515f94c91ffef3", "fusion_lon": 0.0, "name": "d91755df6fc1aaa52d515f94c91ffef3", "lat": 38.919210166666666, "is_disabled": 0, "is_reserved": 0, "lon": -77.0702155, "type": "electric_bike", "fusion_lat": 0.0, "rental_uris": {"android": "https://dc.lft.to/lastmile_qr_scan", "ios": "https://dc.lft.to/lastmile_qr_scan"}}, {"bike_id": "389e5b559f787d26155a46e924d5a4db", "fusion_lon": 0.0, "name": "389e5b559f787d26155a46e924d5a4db", "lat": 38.938615166666665, "is_disabled": 0, "is_reserved": 0, "lon": -77.03178366666667, "type": "electric_scooter", "fusion_lat": 0.0, "rental_uris": {"android": "https://dc.lft.to/lastmile_qr_scan", "ios": "https://dc.lft.to/lastmile_qr_scan"}}, {"bike_id": "231d4f4b429c6d1e49f80247dd97deba", "fusion_lon": 0.0, "name": "231d4f4b429c6d1e49f80247dd97deba", "lat": 38.88625666666667, "is_disabled": 0, "is_reserved": 0, "lon": -77.01539633333333, "type": "electric_scooter", "fusion_lat": 0.0, "rental_uris": {"android": "https://dc.lft.to/lastmile_qr_scan", "ios": "https://dc.lft.to/lastmile_qr_scan"}}, {"bike_id": "a4218d5ef11503a8fd22fc82c47cecf0", "fusion_lon": 0.0, "name": "a4218d5ef11503a8fd22fc82c47cecf0", "lat": 38.89227133333333, "is_disabled": 0, "is_reserved": 0, "lon": -77.03134383333334, "type": "electric_scooter", "fusion_lat": 0.0, "rental_uris": {"android": "https://dc.lft.to/lastmile_qr_scan", "ios": "https://dc.lft.to/lastmile_qr_scan"}}, {"bike_id": "9c15f9f73491b8211c9aa9507be95c4d", "fusion_lon": 0.0, "name": "9c15f9f73491b8211c9aa9507be95c4d", "lat": 38.923204166666665, "is_disabled": 0, "is_reserved": 0, "lon": -77.02975416666666, "type": "electric_scooter", "fusion_lat": 0.0, "rental_uris": {"android": "https://dc.lft.to/lastmile_qr_scan", "ios": "https://dc.lft.to/lastmile_qr_scan"}}, {"bike_id": "28490289638eb2cbd6acfc47984191bd", "fusion_lon": 0.0, "name": "28490289638eb2cbd6acfc47984191bd", "lat": 38.843843166666666, "is_disabled": 0, "is_reserved": 0, "lon": -76.9896475, "type": "electric_scooter", "fusion_lat": 0.0, "rental_uris": {"android": "https://dc.lft.to/lastmile_qr_scan", "ios": "https://dc.lft.to/lastmile_qr_scan"}}, {"bike_id": "cadceff5f245e7a347b94687ec882ce3", "fusion_lon": 0.0, "name": "cadceff5f245e7a347b94687ec882ce3", "lat": 38.9166875, "is_disabled": 0, "is_reserved": 0, "lon": -77.02708316666667, "type": "electric_scooter", "fusion_lat": 0.0, "rental_uris": {"android": "https://dc.lft.to/lastmile_qr_scan", "ios": "https://dc.lft.to/lastmile_qr_scan"}}, {"bike_id": "b52b0306d038b86cb59eb649bcadb7eb", "fusion_lon": 0.0, "name": "b52b0306d038b86cb59eb649bcadb7eb", "lat": 38.93428733333333, "is_disabled": 0, "is_reserved": 0, "lon": -77.0399215, "type": "electric_scooter", "fusion_lat": 0.0, "rental_uris": {"android": "https://dc.lft.to/lastmile_qr_scan", "ios": "https://dc.lft.to/lastmile_qr_scan"}}, {"bike_id": "c60f9649ff75e87fe4d768279eb90611", "fusion_lon": 0.0, "name": "c60f9649ff75e87fe4d768279eb90611", "lat": 38.99049733333333, "is_disabled": 0, "is_reserved": 0, "lon": -77.0387315, "type": "electric_bike", "fusion_lat": 0.0, "rental_uris": {"android": "https://dc.lft.to/lastmile_qr_scan", "ios": "https://dc.lft.to/lastmile_qr_scan"}}, {"bike_id": "1c5938d1ccea6ebdf015768bdb594ada", "fusion_lon": 0.0, "name": "1c5938d1ccea6ebdf015768bdb594ada", "lat": 38.892291666666665, "is_disabled": 0, "is_reserved": 0, "lon": -77.02827533333334, "type": "electric_scooter", "fusion_lat": 0.0, "rental_uris": {"android": "https://dc.lft.to/lastmile_qr_scan", "ios": "https://dc.lft.to/lastmile_qr_scan"}}, {"bike_id": "a86ae4aa883f09ce648000deaa6aae89", "fusion_lon": 0.0, "name": "a86ae4aa883f09ce648000deaa6aae89", "lat": 38.91713083333333, "is_disabled": 0, "is_reserved": 0, "lon": -77.03237733333333, "type": "electric_scooter", "fusion_lat": 0.0, "rental_uris": {"android": "https://dc.lft.to/lastmile_qr_scan", "ios": "https://dc.lft.to/lastmile_qr_scan"}}, {"bike_id": "48f3e08fa935a87f0ae4f54b2032d5cc", "fusion_lon": 0.0, "name": "48f3e08fa935a87f0ae4f54b2032d5cc", "lat": 38.900275, "is_disabled": 0, "is_reserved": 0, "lon": -77.04131283333334, "type": "electric_scooter", "fusion_lat": 0.0, "rental_uris": {"android": "https://dc.lft.to/lastmile_qr_scan", "ios": "https://dc.lft.to/lastmile_qr_scan"}}, {"bike_id": "e36ac246af67c802e47329d388b45c37", "fusion_lon": 0.0, "name": "e36ac246af67c802e47329d388b45c37", "lat": 38.91513416666667, "is_disabled": 0, "is_reserved": 0, "lon": -77.04497783333333, "type": "electric_scooter", "fusion_lat": 0.0, "rental_uris": {"android": "https://dc.lft.to/lastmile_qr_scan", "ios": "https://dc.lft.to/lastmile_qr_scan"}}, {"bike_id": "417873bd517ef0ecfa304ca7ee99a635", "fusion_lon": 0.0, "name": "417873bd517ef0ecfa304ca7ee99a635", "lat": 38.865050333333336, "is_disabled": 0, "is_reserved": 0, "lon": -76.99009383333333, "type": "electric_scooter", "fusion_lat": 0.0, "rental_uris": {"android": "https://dc.lft.to/lastmile_qr_scan", "ios": "https://dc.lft.to/lastmile_qr_scan"}}, {"bike_id": "d4ce1441591bde83d9a71ee924caf25e", "fusion_lon": 0.0, "name": "d4ce1441591bde83d9a71ee924caf25e", "lat": 38.911888833333336, "is_disabled": 0, "is_reserved": 0, "lon": -77.01150883333334, "type": "electric_bike", "fusion_lat": 0.0, "rental_uris": {"android": "https://dc.lft.to/lastmile_qr_scan", "ios": "https://dc.lft.to/lastmile_qr_scan"}}, {"bike_id": "6eaba1d044e59294709c860abf03a217", "fusion_lon": 0.0, "name": "6eaba1d044e59294709c860abf03a217", "lat": 38.912909, "is_disabled": 0, "is_reserved": 0, "lon": -77.03204983333333, "type": "electric_scooter", "fusion_lat": 0.0, "rental_uris": {"android": "https://dc.lft.to/lastmile_qr_scan", "ios": "https://dc.lft.to/lastmile_qr_scan"}}, {"bike_id": "93a44a55bfbb8d81cdf9dd26f6c19f00", "fusion_lon": 0.0, "name": "93a44a55bfbb8d81cdf9dd26f6c19f00", "lat": 38.900306666666665, "is_disabled": 0, "is_reserved": 0, "lon": -77.0020425, "type": "electric_scooter", "fusion_lat": 0.0, "rental_uris": {"android": "https://dc.lft.to/lastmile_qr_scan", "ios": "https://dc.lft.to/lastmile_qr_scan"}}, {"bike_id": "0dd342401a73782d6861403eec7d70cf", "fusion_lon": 0.0, "name": "0dd342401a73782d6861403eec7d70cf", "lat": 38.92101433333333, "is_disabled": 0, "is_reserved": 0, "lon": -77.07477483333334, "type": "electric_scooter", "fusion_lat": 0.0, "rental_uris": {"android": "https://dc.lft.to/lastmile_qr_scan", "ios": "https://dc.lft.to/lastmile_qr_scan"}}, {"bike_id": "46668c514287119c71c6deb35ac7904b", "fusion_lon": 0.0, "name": "46668c514287119c71c6deb35ac7904b", "lat": 38.917011333333335, "is_disabled": 0, "is_reserved": 0, "lon": -77.03394883333333, "type": "electric_scooter", "fusion_lat": 0.0, "rental_uris": {"android": "https://dc.lft.to/lastmile_qr_scan", "ios": "https://dc.lft.to/lastmile_qr_scan"}}, {"bike_id": "13a2801f230d0535fcb76dc674766b55", "fusion_lon": 0.0, "name": "13a2801f230d0535fcb76dc674766b55", "lat": 38.92191716666667, "is_disabled": 0, "is_reserved": 0, "lon": -77.04126333333333, "type": "electric_scooter", "fusion_lat": 0.0, "rental_uris": {"android": "https://dc.lft.to/lastmile_qr_scan", "ios": "https://dc.lft.to/lastmile_qr_scan"}}, {"bike_id": "be49e4f4db283f902ebeb71c47e7af85", "fusion_lon": 0.0, "name": "be49e4f4db283f902ebeb71c47e7af85", "lat": 38.9445145, "is_disabled": 0, "is_reserved": 0, "lon": -77.02343133333333, "type": "electric_scooter", "fusion_lat": 0.0, "rental_uris": {"android": "https://dc.lft.to/lastmile_qr_scan", "ios": "https://dc.lft.to/lastmile_qr_scan"}}, {"bike_id": "f1161a1f1a5a29d358f7bf47e25ac5e8", "fusion_lon": 0.0, "name": "f1161a1f1a5a29d358f7bf47e25ac5e8", "lat": 38.932713666666665, "is_disabled": 0, "is_reserved": 0, "lon": -77.04542933333333, "type": "electric_scooter", "fusion_lat": 0.0, "rental_uris": {"android": "https://dc.lft.to/lastmile_qr_scan", "ios": "https://dc.lft.to/lastmile_qr_scan"}}, {"bike_id": "b35d495002a2d9f034fa1413a6b55dd7", "fusion_lon": 0.0, "name": "b35d495002a2d9f034fa1413a6b55dd7", "lat": 38.976275333333334, "is_disabled": 0, "is_reserved": 0, "lon": -77.01570483333333, "type": "electric_scooter", "fusion_lat": 0.0, "rental_uris": {"android": "https://dc.lft.to/lastmile_qr_scan", "ios": "https://dc.lft.to/lastmile_qr_scan"}}, {"bike_id": "e7809fca8dc913c777b232765fb462b7", "fusion_lon": 0.0, "name": "e7809fca8dc913c777b232765fb462b7", "lat": 38.897183, "is_disabled": 0, "is_reserved": 0, "lon": -77.00799266666667, "type": "electric_scooter", "fusion_lat": 0.0, "rental_uris": {"android": "https://dc.lft.to/lastmile_qr_scan", "ios": "https://dc.lft.to/lastmile_qr_scan"}}, {"bike_id": "ee85910707924d361c49aa1ce5db3590", "fusion_lon": 0.0, "name": "ee85910707924d361c49aa1ce5db3590", "lat": 38.9158665, "is_disabled": 0, "is_reserved": 0, "lon": -76.9797295, "type": "electric_scooter", "fusion_lat": 0.0, "rental_uris": {"android": "https://dc.lft.to/lastmile_qr_scan", "ios": "https://dc.lft.to/lastmile_qr_scan"}}, {"bike_id": "d594e07d3f3df3162e58a923d45a8d39", "fusion_lon": 0.0, "name": "d594e07d3f3df3162e58a923d45a8d39", "lat": 38.928481166666664, "is_disabled": 0, "is_reserved": 0, "lon": -77.035206, "type": "electric_scooter", "fusion_lat": 0.0, "rental_uris": {"android": "https://dc.lft.to/lastmile_qr_scan", "ios": "https://dc.lft.to/lastmile_qr_scan"}}, {"bike_id": "ce4db6e365d4f51c31b1e41b42f6377f", "fusion_lon": 0.0, "name": "ce4db6e365d4f51c31b1e41b42f6377f", "lat": 38.92317166666667, "is_disabled": 0, "is_reserved": 0, "lon": -77.03812983333333, "type": "electric_scooter", "fusion_lat": 0.0, "rental_uris": {"android": "https://dc.lft.to/lastmile_qr_scan", "ios": "https://dc.lft.to/lastmile_qr_scan"}}, {"bike_id": "d97f5e546f52473c4c2daf405b2fb90f", "fusion_lon": 0.0, "name": "d97f5e546f52473c4c2daf405b2fb90f", "lat": 38.89845733333333, "is_disabled": 0, "is_reserved": 0, "lon": -77.02868666666667, "type": "electric_scooter", "fusion_lat": 0.0, "rental_uris": {"android": "https://dc.lft.to/lastmile_qr_scan", "ios": "https://dc.lft.to/lastmile_qr_scan"}}, {"bike_id": "a6d1a79c9072d193c6a51b95682fc362", "fusion_lon": 0.0, "name": "a6d1a79c9072d193c6a51b95682fc362", "lat": 38.891007333333334, "is_disabled": 0, "is_reserved": 0, "lon": -77.18413216666667, "type": "electric_bike", "fusion_lat": 0.0, "rental_uris": {"android": "https://dc.lft.to/lastmile_qr_scan", "ios": "https://dc.lft.to/lastmile_qr_scan"}}, {"bike_id": "e5b347d0c0f32a98a1b7055e82fabde0", "fusion_lon": 0.0, "name": "e5b347d0c0f32a98a1b7055e82fabde0", "lat": 38.856965333333335, "is_disabled": 0, "is_reserved": 0, "lon": -76.995965, "type": "electric_scooter", "fusion_lat": 0.0, "rental_uris": {"android": "https://dc.lft.to/lastmile_qr_scan", "ios": "https://dc.lft.to/lastmile_qr_scan"}}, {"bike_id": "5995ef3f428c6c53da4c323ddb79ff0b", "fusion_lon": 0.0, "name": "5995ef3f428c6c53da4c323ddb79ff0b", "lat": 38.88707266666667, "is_disabled": 0, "is_reserved": 0, "lon": -77.021826, "type": "electric_scooter", "fusion_lat": 0.0, "rental_uris": {"android": "https://dc.lft.to/lastmile_qr_scan", "ios": "https://dc.lft.to/lastmile_qr_scan"}}, {"bike_id": "2f27894d9bbb3e8873c22ac9f3897fe6", "fusion_lon": 0.0, "name": "2f27894d9bbb3e8873c22ac9f3897fe6", "lat": 38.916964166666666, "is_disabled": 0, "is_reserved": 0, "lon": -77.02888716666666, "type": "electric_scooter", "fusion_lat": 0.0, "rental_uris": {"android": "https://dc.lft.to/lastmile_qr_scan", "ios": "https://dc.lft.to/lastmile_qr_scan"}}, {"bike_id": "b28e366f2401c54a5da4f8f65fd637d1", "fusion_lon": 0.0, "name": "b28e366f2401c54a5da4f8f65fd637d1", "lat": 38.9152795, "is_disabled": 0, "is_reserved": 0, "lon": -77.0122675, "type": "electric_scooter", "fusion_lat": 0.0, "rental_uris": {"android": "https://dc.lft.to/lastmile_qr_scan", "ios": "https://dc.lft.to/lastmile_qr_scan"}}, {"bike_id": "b51a6596203108613b38559a0f46f300", "fusion_lon": 0.0, "name": "b51a6596203108613b38559a0f46f300", "lat": 38.92858833333333, "is_disabled": 0, "is_reserved": 0, "lon": -77.0321765, "type": "electric_scooter", "fusion_lat": 0.0, "rental_uris": {"android": "https://dc.lft.to/lastmile_qr_scan", "ios": "https://dc.lft.to/lastmile_qr_scan"}}, {"bike_id": "4252dd4a2a3db479bbd4ee91dfbc863c", "fusion_lon": 0.0, "name": "4252dd4a2a3db479bbd4ee91dfbc863c", "lat": 38.9122335, "is_disabled": 0, "is_reserved": 0, "lon": -77.07696966666667, "type": "electric_scooter", "fusion_lat": 0.0, "rental_uris": {"android": "https://dc.lft.to/lastmile_qr_scan", "ios": "https://dc.lft.to/lastmile_qr_scan"}}, {"bike_id": "4edfb6b8732bd102f9006acdd7c6c393", "fusion_lon": 0.0, "name": "4edfb6b8732bd102f9006acdd7c6c393", "lat": 38.932584166666665, "is_disabled": 0, "is_reserved": 0, "lon": -77.03105433333333, "type": "electric_scooter", "fusion_lat": 0.0, "rental_uris": {"android": "https://dc.lft.to/lastmile_qr_scan", "ios": "https://dc.lft.to/lastmile_qr_scan"}}, {"bike_id": "f29e1a0bd93966b1488dd6e27899c277", "fusion_lon": 0.0, "name": "f29e1a0bd93966b1488dd6e27899c277", "lat": 38.90447133333333, "is_disabled": 0, "is_reserved": 0, "lon": -76.97430233333333, "type": "electric_scooter", "fusion_lat": 0.0, "rental_uris": {"android": "https://dc.lft.to/lastmile_qr_scan", "ios": "https://dc.lft.to/lastmile_qr_scan"}}, {"bike_id": "90184a1bb4121a5870c01d45184b30a1", "fusion_lon": 0.0, "name": "90184a1bb4121a5870c01d45184b30a1", "lat": 38.90359766666667, "is_disabled": 0, "is_reserved": 0, "lon": -77.04680633333334, "type": "electric_scooter", "fusion_lat": 0.0, "rental_uris": {"android": "https://dc.lft.to/lastmile_qr_scan", "ios": "https://dc.lft.to/lastmile_qr_scan"}}, {"bike_id": "966bf42e7416a0cd57777ba067f17c73", "fusion_lon": 0.0, "name": "966bf42e7416a0cd57777ba067f17c73", "lat": 38.8960755, "is_disabled": 0, "is_reserved": 0, "lon": -76.99281083333334, "type": "electric_scooter", "fusion_lat": 0.0, "rental_uris": {"android": "https://dc.lft.to/lastmile_qr_scan", "ios": "https://dc.lft.to/lastmile_qr_scan"}}, {"bike_id": "56dc21b15b82ccf3a7cbe879a64f4b65", "fusion_lon": 0.0, "name": "56dc21b15b82ccf3a7cbe879a64f4b65", "lat": 38.92454716666667, "is_disabled": 0, "is_reserved": 0, "lon": -77.02143716666667, "type": "electric_scooter", "fusion_lat": 0.0, "rental_uris": {"android": "https://dc.lft.to/lastmile_qr_scan", "ios": "https://dc.lft.to/lastmile_qr_scan"}}, {"bike_id": "3d9166c8bdb212d1aa5357843b87bb25", "fusion_lon": 0.0, "name": "3d9166c8bdb212d1aa5357843b87bb25", "lat": 38.90143966666667, "is_disabled": 0, "is_reserved": 0, "lon": -77.00918166666666, "type": "electric_scooter", "fusion_lat": 0.0, "rental_uris": {"android": "https://dc.lft.to/lastmile_qr_scan", "ios": "https://dc.lft.to/lastmile_qr_scan"}}, {"bike_id": "391d966781de34da6b6d6d427901aea2", "fusion_lon": 0.0, "name": "391d966781de34da6b6d6d427901aea2", "lat": 38.9083575, "is_disabled": 0, "is_reserved": 0, "lon": -76.99195766666666, "type": "electric_scooter", "fusion_lat": 0.0, "rental_uris": {"android": "https://dc.lft.to/lastmile_qr_scan", "ios": "https://dc.lft.to/lastmile_qr_scan"}}, {"bike_id": "51e6a34f47a584494571a5ef483e19cb", "fusion_lon": 0.0, "name": "51e6a34f47a584494571a5ef483e19cb", "lat": 38.90409016666667, "is_disabled": 0, "is_reserved": 0, "lon": -76.99287416666667, "type": "electric_scooter", "fusion_lat": 0.0, "rental_uris": {"android": "https://dc.lft.to/lastmile_qr_scan", "ios": "https://dc.lft.to/lastmile_qr_scan"}}, {"bike_id": "e25bc3e87128f5ff47cd5027d1b85cf0", "fusion_lon": 0.0, "name": "e25bc3e87128f5ff47cd5027d1b85cf0", "lat": 38.90830966666667, "is_disabled": 0, "is_reserved": 0, "lon": -76.99971266666667, "type": "electric_scooter", "fusion_lat": 0.0, "rental_uris": {"android": "https://dc.lft.to/lastmile_qr_scan", "ios": "https://dc.lft.to/lastmile_qr_scan"}}, {"bike_id": "dd0776b2d5a0f507fa5adba89d761a57", "fusion_lon": 0.0, "name": "dd0776b2d5a0f507fa5adba89d761a57", "lat": 38.926086833333336, "is_disabled": 0, "is_reserved": 0, "lon": -77.02163316666666, "type": "electric_scooter", "fusion_lat": 0.0, "rental_uris": {"android": "https://dc.lft.to/lastmile_qr_scan", "ios": "https://dc.lft.to/lastmile_qr_scan"}}, {"bike_id": "337d0d80e814e7ee9a1ecef37fe61eeb", "fusion_lon": 0.0, "name": "337d0d80e814e7ee9a1ecef37fe61eeb", "lat": 38.918170833333335, "is_disabled": 0, "is_reserved": 0, "lon": -77.04172916666667, "type": "electric_scooter", "fusion_lat": 0.0, "rental_uris": {"android": "https://dc.lft.to/lastmile_qr_scan", "ios": "https://dc.lft.to/lastmile_qr_scan"}}, {"bike_id": "181923e032cbde48f1848a508f742f31", "fusion_lon": 0.0, "name": "181923e032cbde48f1848a508f742f31", "lat": 38.92493283333334, "is_disabled": 0, "is_reserved": 0, "lon": -77.05118966666667, "type": "electric_scooter", "fusion_lat": 0.0, "rental_uris": {"android": "https://dc.lft.to/lastmile_qr_scan", "ios": "https://dc.lft.to/lastmile_qr_scan"}}, {"bike_id": "73b26b76bc8e9d143863eed3aa658b08", "fusion_lon": 0.0, "name": "73b26b76bc8e9d143863eed3aa658b08", "lat": 38.89894966666667, "is_disabled": 0, "is_reserved": 0, "lon": -77.03911566666666, "type": "electric_scooter", "fusion_lat": 0.0, "rental_uris": {"android": "https://dc.lft.to/lastmile_qr_scan", "ios": "https://dc.lft.to/lastmile_qr_scan"}}, {"bike_id": "0c8054adcc2cade567800663f7230d1d", "fusion_lon": 0.0, "name": "0c8054adcc2cade567800663f7230d1d", "lat": 38.9013395, "is_disabled": 0, "is_reserved": 0, "lon": -77.0608125, "type": "electric_scooter", "fusion_lat": 0.0, "rental_uris": {"android": "https://dc.lft.to/lastmile_qr_scan", "ios": "https://dc.lft.to/lastmile_qr_scan"}}, {"bike_id": "bc66f67d26468eb056ad918883eba99f", "fusion_lon": 0.0, "name": "bc66f67d26468eb056ad918883eba99f", "lat": 38.936744, "is_disabled": 0, "is_reserved": 0, "lon": -77.0358935, "type": "electric_scooter", "fusion_lat": 0.0, "rental_uris": {"android": "https://dc.lft.to/lastmile_qr_scan", "ios": "https://dc.lft.to/lastmile_qr_scan"}}, {"bike_id": "723172bb40b39297feb4d8d8d4063ebb", "fusion_lon": 0.0, "name": "723172bb40b39297feb4d8d8d4063ebb", "lat": 38.902672, "is_disabled": 0, "is_reserved": 0, "lon": -77.039629, "type": "electric_scooter", "fusion_lat": 0.0, "rental_uris": {"android": "https://dc.lft.to/lastmile_qr_scan", "ios": "https://dc.lft.to/lastmile_qr_scan"}}, {"bike_id": "8e5be37be4904e041cc0f2bd2f7a9c7b", "fusion_lon": 0.0, "name": "8e5be37be4904e041cc0f2bd2f7a9c7b", "lat": 38.8975955, "is_disabled": 0, "is_reserved": 0, "lon": -77.00898616666667, "type": "electric_scooter", "fusion_lat": 0.0, "rental_uris": {"android": "https://dc.lft.to/lastmile_qr_scan", "ios": "https://dc.lft.to/lastmile_qr_scan"}}, {"bike_id": "32c2167399000a728c4b61b935600bfe", "fusion_lon": 0.0, "name": "32c2167399000a728c4b61b935600bfe", "lat": 38.883104833333334, "is_disabled": 0, "is_reserved": 0, "lon": -77.01368016666666, "type": "electric_scooter", "fusion_lat": 0.0, "rental_uris": {"android": "https://dc.lft.to/lastmile_qr_scan", "ios": "https://dc.lft.to/lastmile_qr_scan"}}, {"bike_id": "1fb0846badd4b52927c09324a877cdd3", "fusion_lon": 0.0, "name": "1fb0846badd4b52927c09324a877cdd3", "lat": 38.896308, "is_disabled": 0, "is_reserved": 0, "lon": -77.040896, "type": "electric_scooter", "fusion_lat": 0.0, "rental_uris": {"android": "https://dc.lft.to/lastmile_qr_scan", "ios": "https://dc.lft.to/lastmile_qr_scan"}}, {"bike_id": "eaaeea22c1bc1db60582a7dc7f90d511", "fusion_lon": 0.0, "name": "eaaeea22c1bc1db60582a7dc7f90d511", "lat": 38.89609033333333, "is_disabled": 0, "is_reserved": 0, "lon": -77.04274316666667, "type": "electric_scooter", "fusion_lat": 0.0, "rental_uris": {"android": "https://dc.lft.to/lastmile_qr_scan", "ios": "https://dc.lft.to/lastmile_qr_scan"}}, {"bike_id": "d014bbf48649641f3128967fa0c5be8a", "fusion_lon": 0.0, "name": "d014bbf48649641f3128967fa0c5be8a", "lat": 38.930211, "is_disabled": 0, "is_reserved": 0, "lon": -77.0379935, "type": "electric_scooter", "fusion_lat": 0.0, "rental_uris": {"android": "https://dc.lft.to/lastmile_qr_scan", "ios": "https://dc.lft.to/lastmile_qr_scan"}}, {"bike_id": "3a37a55862959aacb1fd58cd52665a33", "fusion_lon": 0.0, "name": "3a37a55862959aacb1fd58cd52665a33", "lat": 38.903530333333336, "is_disabled": 0, "is_reserved": 0, "lon": -76.97476516666667, "type": "electric_scooter", "fusion_lat": 0.0, "rental_uris": {"android": "https://dc.lft.to/lastmile_qr_scan", "ios": "https://dc.lft.to/lastmile_qr_scan"}}, {"bike_id": "39330ca1897d23e8240956bcf77bd552", "fusion_lon": 0.0, "name": "39330ca1897d23e8240956bcf77bd552", "lat": 38.898956166666665, "is_disabled": 0, "is_reserved": 0, "lon": -77.00758633333334, "type": "electric_scooter", "fusion_lat": 0.0, "rental_uris": {"android": "https://dc.lft.to/lastmile_qr_scan", "ios": "https://dc.lft.to/lastmile_qr_scan"}}, {"bike_id": "35f445fb18071717dbfb356511e8ea8f", "fusion_lon": 0.0, "name": "35f445fb18071717dbfb356511e8ea8f", "lat": 38.91800633333333, "is_disabled": 0, "is_reserved": 0, "lon": -77.03443933333334, "type": "electric_scooter", "fusion_lat": 0.0, "rental_uris": {"android": "https://dc.lft.to/lastmile_qr_scan", "ios": "https://dc.lft.to/lastmile_qr_scan"}}, {"bike_id": "1b2161ecf981e28d1c3fb189a94add60", "fusion_lon": 0.0, "name": "1b2161ecf981e28d1c3fb189a94add60", "lat": 38.896673166666666, "is_disabled": 0, "is_reserved": 0, "lon": -76.93213733333333, "type": "electric_scooter", "fusion_lat": 0.0, "rental_uris": {"android": "https://dc.lft.to/lastmile_qr_scan", "ios": "https://dc.lft.to/lastmile_qr_scan"}}, {"bike_id": "f9def99e265f8d35d8f45f9e4e0f7dac", "fusion_lon": 0.0, "name": "f9def99e265f8d35d8f45f9e4e0f7dac", "lat": 38.9305875, "is_disabled": 0, "is_reserved": 0, "lon": -77.01864383333333, "type": "electric_scooter", "fusion_lat": 0.0, "rental_uris": {"android": "https://dc.lft.to/lastmile_qr_scan", "ios": "https://dc.lft.to/lastmile_qr_scan"}}, {"bike_id": "1368e8d98abec0ffbece58d7f7b424be", "fusion_lon": 0.0, "name": "1368e8d98abec0ffbece58d7f7b424be", "lat": 38.89421683333333, "is_disabled": 0, "is_reserved": 0, "lon": -77.00099316666666, "type": "electric_scooter", "fusion_lat": 0.0, "rental_uris": {"android": "https://dc.lft.to/lastmile_qr_scan", "ios": "https://dc.lft.to/lastmile_qr_scan"}},