{"data": {"bikes": [{"fusion_lat": 0.0, "name": "2fcdf92a22047889f733ad211f4f05d9", "is_disabled": 0, "rental_uris": {"android": "https://dc.lft.to/lastmile_qr_scan", "ios": "https://dc.lft.to/lastmile_qr_scan"}, "fusion_lon": 0.0, "lat": 38.888506166666666, "bike_id": "2fcdf92a22047889f733ad211f4f05d9", "type": "electric_scooter", "is_reserved": 0, "lon": -76.92679266666667}, {"fusion_lat": 0.0, "name": "9f1d06345f57092981309f059d815adf", "is_disabled": 0, "rental_uris": {"android": "https://dc.lft.to/lastmile_qr_scan", "ios": "https://dc.lft.to/lastmile_qr_scan"}, "fusion_lon": 0.0, "lat": 38.913210666666664, "bike_id": "9f1d06345f57092981309f059d815adf", "type": "electric_scooter", "is_reserved": 0, "lon": -77.02139616666666}, {"fusion_lat": 0.0, "name": "48d8fad4b07ba0031600c69edc09d38b", "is_disabled": 0, "rental_uris": {"android": "https://dc.lft.to/lastmile_qr_scan", "ios": "https://dc.lft.to/lastmile_qr_scan"}, "fusion_lon": 0.0, "lat": 38.91068416666667, "bike_id": "48d8fad4b07ba0031600c69edc09d38b", "type": "electric_scooter", "is_reserved": 0, "lon": -77.03192266666667}, {"fusion_lat": 0.0, "name": "0659ca5e51ff337d647a7ab3550aecb5", "is_disabled": 0, "rental_uris": {"android": "https://dc.lft.to/lastmile_qr_scan", "ios": "https://dc.lft.to/lastmile_qr_scan"}, "fusion_lon": 0.0, "lat": 38.897325333333335, "bike_id": "0659ca5e51ff337d647a7ab3550aecb5", "type": "electric_scooter", "is_reserved": 0, "lon": -77.022549}, {"fusion_lat": 0.0, "name": "c30b6759800f462c51fa2b6643cbb925", "is_disabled": 0, "rental_uris": {"android": "https://dc.lft.to/lastmile_qr_scan", "ios": "https://dc.lft.to/lastmile_qr_scan"}, "fusion_lon": 0.0, "lat": 38.91116533333334, "bike_id": "c30b6759800f462c51fa2b6643cbb925", "type": "electric_scooter", "is_reserved": 0, "lon": -76.99769116666667}, {"fusion_lat": 0.0, "name": "b4bfeb452481fc46a902099bc1f31fe3", "is_disabled": 0, "rental_uris": {"android": "https://dc.lft.to/lastmile_qr_scan", "ios": "https://dc.lft.to/lastmile_qr_scan"}, "fusion_lon": 0.0, "lat": 38.90525733333333, "bike_id": "b4bfeb452481fc46a902099bc1f31fe3", "type": "electric_scooter", "is_reserved": 0, "lon": -77.06785333333333}, {"fusion_lat": 0.0, "name": "ca0bdb8d7be4319779d9c7857e871122", "is_disabled": 0, "rental_uris": {"android": "https://dc.lft.to/lastmile_qr_scan", "ios": "https://dc.lft.to/lastmile_qr_scan"}, "fusion_lon": 0.0, "lat": 38.9229305, "bike_id": "ca0bdb8d7be4319779d9c7857e871122", "type": "electric_scooter", "is_reserved": 0, "lon": -77.03680083333333}, {"fusion_lat": 0.0, "name": "6037a7916d00a97e4aaf79d261493f6f", "is_disabled": 0, "rental_uris": {"android": "https://dc.lft.to/lastmile_qr_scan", "ios": "https://dc.lft.to/lastmile_qr_scan"}, "fusion_lon": 0.0, "lat": 38.90820683333333, "bike_id": "6037a7916d00a97e4aaf79d261493f6f", "type": "electric_scooter", "is_reserved": 0, "lon": -77.0434115}, {"fusion_lat": 0.0, "name": "f90e80c44862ac13cb19f1c5b16d48f3", "is_disabled": 0, "rental_uris": {"android": "https://dc.lft.to/lastmile_qr_scan", "ios": "https://dc.lft.to/lastmile_qr_scan"}, "fusion_lon": 0.0, "lat": 38.9159075, "bike_id": "f90e80c44862ac13cb19f1c5b16d48f3", "type": "electric_scooter", "is_reserved": 0, "lon": -77.01111916666666}, {"fusion_lat": 0.0, "name": "da1e1109e89d6b60fc5092d4f37e259d", "is_disabled": 0, "rental_uris": {"android": "https://dc.lft.to/lastmile_qr_scan", "ios": "https://dc.lft.to/lastmile_qr_scan"}, "fusion_lon": 0.0, "lat": 38.8849185, "bike_id": "da1e1109e89d6b60fc5092d4f37e259d", "type": "electric_scooter", "is_reserved": 0, "lon": -77.01083966666667}, {"fusion_lat": 0.0, "name": "ab239aacafc07e9f00d45df78bc341d1", "is_disabled": 0, "rental_uris": {"android": "https://dc.lft.to/lastmile_qr_scan", "ios": "https://dc.lft.to/lastmile_qr_scan"}, "fusion_lon": 0.0, "lat": 38.89222316666667, "bike_id": "ab239aacafc07e9f00d45df78bc341d1", "type": "electric_scooter", "is_reserved": 0, "lon": -77.02626466666666}, {"fusion_lat": 0.0, "name": "94e2464e78d1f66c01992d2bc36c71ee", "is_disabled": 0, "rental_uris": {"android": "https://dc.lft.to/lastmile_qr_scan", "ios": "https://dc.lft.to/lastmile_qr_scan"}, "fusion_lon": 0.0, "lat": 38.92794133333334, "bike_id": "94e2464e78d1f66c01992d2bc36c71ee", "type": "electric_scooter", "is_reserved": 0, "lon": -77.027231}, {"fusion_lat": 0.0, "name": "f6f59628f9d55d9b91986895aef0cb50", "is_disabled": 0, "rental_uris": {"android": "https://dc.lft.to/lastmile_qr_scan", "ios": "https://dc.lft.to/lastmile_qr_scan"}, "fusion_lon": 0.0, "lat": 38.92262783333334, "bike_id": "f6f59628f9d55d9b91986895aef0cb50", "type": "electric_scooter", "is_reserved": 0, "lon": -77.03665933333333}, {"fusion_lat": 0.0, "name": "d5b9829c82525457b66d2f17bc489847", "is_disabled": 0, "rental_uris": {"android": "https://dc.lft.to/lastmile_qr_scan", "ios": "https://dc.lft.to/lastmile_qr_scan"}, "fusion_lon": 0.0, "lat": 38.91337583333333, "bike_id": "d5b9829c82525457b66d2f17bc489847", "type": "electric_scooter", "is_reserved": 0, "lon": -77.042886}, {"fusion_lat": 0.0, "name": "d99a2741d9d8769c69948bde13cc8882", "is_disabled": 0, "rental_uris": {"android": "https://dc.lft.to/lastmile_qr_scan", "ios": "https://dc.lft.to/lastmile_qr_scan"}, "fusion_lon": 0.0, "lat": 38.90780566666667, "bike_id": "d99a2741d9d8769c69948bde13cc8882", "type": "electric_scooter", "is_reserved": 0, "lon": -77.01861016666666}, {"fusion_lat": 0.0, "name": "70f4e28ee65f2db83e55c3c485536007", "is_disabled": 0, "rental_uris": {"android": "https://dc.lft.to/lastmile_qr_scan", "ios": "https://dc.lft.to/lastmile_qr_scan"}, "fusion_lon": 0.0, "lat": 38.95885166666667, "bike_id": "70f4e28ee65f2db83e55c3c485536007", "type": "electric_scooter", "is_reserved": 0, "lon": -77.01167733333334}, {"fusion_lat": 0.0, "name": "b00168004a1256ad4e01469a1a4125ff", "is_disabled": 0, "rental_uris": {"android": "https://dc.lft.to/lastmile_qr_scan", "ios": "https://dc.lft.to/lastmile_qr_scan"}, "fusion_lon": 0.0, "lat": 38.911906, "bike_id": "b00168004a1256ad4e01469a1a4125ff", "type": "electric_scooter", "is_reserved": 0, "lon": -77.03819633333333}, {"fusion_lat": 0.0, "name": "3a5c5ff649f71cc657bfff1e9259b31f", "is_disabled": 0, "rental_uris": {"android": "https://dc.lft.to/lastmile_qr_scan", "ios": "https://dc.lft.to/lastmile_qr_scan"}, "fusion_lon": 0.0, "lat": 38.917206666666665, "bike_id": "3a5c5ff649f71cc657bfff1e9259b31f", "type": "electric_scooter", "is_reserved": 0, "lon": -77.03042166666667}, {"fusion_lat": 0.0, "name": "7e88ca11a32885c4baf4913576ada0e7", "is_disabled": 0, "rental_uris": {"android": "https://dc.lft.to/lastmile_qr_scan", "ios": "https://dc.lft.to/lastmile_qr_scan"}, "fusion_lon": 0.0, "lat": 38.87658616666667, "bike_id": "7e88ca11a32885c4baf4913576ada0e7", "type": "electric_scooter", "is_reserved": 0, "lon": -77.00911583333334}, {"fusion_lat": 0.0, "name": "25f257545e21d85959363daf61b7b24f", "is_disabled": 0, "rental_uris": {"android": "https://dc.lft.to/lastmile_qr_scan", "ios": "https://dc.lft.to/lastmile_qr_scan"}, "fusion_lon": 0.0, "lat": 38.914734333333335, "bike_id": "25f257545e21d85959363daf61b7b24f", "type": "electric_scooter", "is_reserved": 0, "lon": -77.0318645}, {"fusion_lat": 0.0, "name": "f84cdb24c524337172fc1814072b82fb", "is_disabled": 0, "rental_uris": {"android": "https://dc.lft.to/lastmile_qr_scan", "ios": "https://dc.lft.to/lastmile_qr_scan"}, "fusion_lon": 0.0, "lat": 38.88745516666667, "bike_id": "f84cdb24c524337172fc1814072b82fb", "type": "electric_scooter", "is_reserved": 0, "lon": -77.03159566666666}, {"fusion_lat": 0.0, "name": "51b0c9226cc437c2e084e217d02e5509", "is_disabled": 0, "rental_uris": {"android": "https://dc.lft.to/lastmile_qr_scan", "ios": "https://dc.lft.to/lastmile_qr_scan"}, "fusion_lon": 0.0, "lat": 38.961858666666664, "bike_id": "51b0c9226cc437c2e084e217d02e5509", "type": "electric_bike", "is_reserved": 0, "lon": -77.05263066666667}, {"fusion_lat": 0.0, "name": "8e98eca30aa436a866aab1bdfd689a16", "is_disabled": 0, "rental_uris": {"android": "https://dc.lft.to/lastmile_qr_scan", "ios": "https://dc.lft.to/lastmile_qr_scan"}, "fusion_lon": 0.0, "lat": 38.924325, "bike_id": "8e98eca30aa436a866aab1bdfd689a16", "type": "electric_scooter", "is_reserved": 0, "lon": -77.04460233333333}, {"fusion_lat": 0.0, "name": "012e31f283c580eb89ab97d04c3e34d9", "is_disabled": 0, "rental_uris": {"android": "https://dc.lft.to/lastmile_qr_scan", "ios": "https://dc.lft.to/lastmile_qr_scan"}, "fusion_lon": 0.0, "lat": 38.9737715, "bike_id": "012e31f283c580eb89ab97d04c3e34d9", "type": "electric_scooter", "is_reserved": 0, "lon": -77.01282983333333}, {"fusion_lat": 0.0, "name": "c44da2c8d8d0dec5f57b9f5567958a43", "is_disabled": 0, "rental_uris": {"android": "https://dc.lft.to/lastmile_qr_scan", "ios": "https://dc.lft.to/lastmile_qr_scan"}, "fusion_lon": 0.0, "lat": 38.91196983333333, "bike_id": "c44da2c8d8d0dec5f57b9f5567958a43", "type": "electric_scooter", "is_reserved": 0, "lon": -77.01197383333333}, {"fusion_lat": 0.0, "name": "c145908f37fdd66fddaef6df8281c647", "is_disabled": 0, "rental_uris": {"android": "https://dc.lft.to/lastmile_qr_scan", "ios": "https://dc.lft.to/lastmile_qr_scan"}, "fusion_lon": 0.0, "lat": 38.891165666666666, "bike_id": "c145908f37fdd66fddaef6df8281c647", "type": "electric_scooter", "is_reserved": 0, "lon": -76.94383533333334}, {"fusion_lat": 0.0, "name": "80b30bcdd912bb508de86560b97fc218", "is_disabled": 0, "rental_uris": {"android": "https://dc.lft.to/lastmile_qr_scan", "ios": "https://dc.lft.to/lastmile_qr_scan"}, "fusion_lon": 0.0, "lat": 38.91567916666666, "bike_id": "80b30bcdd912bb508de86560b97fc218", "type": "electric_scooter", "is_reserved": 0, "lon": -77.03854116666666}, {"fusion_lat": 0.0, "name": "1a98d41cf5bd9cd624b593891f6d0b5a", "is_disabled": 0, "rental_uris": {"android": "https://dc.lft.to/lastmile_qr_scan", "ios": "https://dc.lft.to/lastmile_qr_scan"}, "fusion_lon": 0.0, "lat": 38.897597833333336, "bike_id": "1a98d41cf5bd9cd624b593891f6d0b5a", "type": "electric_scooter", "is_reserved": 0, "lon": -77.02494633333333}, {"fusion_lat": 0.0, "name": "f27e3f7986b10b5068341aa14cdc0818", "is_disabled": 0, "rental_uris": {"android": "https://dc.lft.to/lastmile_qr_scan", "ios": "https://dc.lft.to/lastmile_qr_scan"}, "fusion_lon": 0.0, "lat": 38.90467183333333, "bike_id": "f27e3f7986b10b5068341aa14cdc0818", "type": "electric_scooter", "is_reserved": 0, "lon": -77.04875066666666}, {"fusion_lat": 0.0, "name": "0e33f760138c3f71a7940d83440590a5", "is_disabled": 0, "rental_uris": {"android": "https://dc.lft.to/lastmile_qr_scan", "ios": "https://dc.lft.to/lastmile_qr_scan"}, "fusion_lon": 0.0, "lat": 38.91112583333334, "bike_id": "0e33f760138c3f71a7940d83440590a5", "type": "electric_scooter", "is_reserved": 0, "lon": -77.02926466666666}, {"fusion_lat": 0.0, "name": "e36fa580edbeb8008de83bee4f2c427f", "is_disabled": 0, "rental_uris": {"android": "https://dc.lft.to/lastmile_qr_scan", "ios": "https://dc.lft.to/lastmile_qr_scan"}, "fusion_lon": 0.0, "lat": 38.904249166666666, "bike_id": "e36fa580edbeb8008de83bee4f2c427f", "type": "electric_scooter", "is_reserved": 0, "lon": -77.01878666666667}, {"fusion_lat": 0.0, "name": "6467e3acfaa4aa29df7686e083cbcc00", "is_disabled": 0, "rental_uris": {"android": "https://dc.lft.to/lastmile_qr_scan", "ios": "https://dc.lft.to/lastmile_qr_scan"}, "fusion_lon": 0.0, "lat": 38.915515, "bike_id": "6467e3acfaa4aa29df7686e083cbcc00", "type": "electric_scooter", "is_reserved": 0, "lon": -77.0306855}, {"fusion_lat": 0.0, "name": "d9fb64ec4e225aaaa3914078f044712a", "is_disabled": 0, "rental_uris": {"android": "https://dc.lft.to/lastmile_qr_scan", "ios": "https://dc.lft.to/lastmile_qr_scan"}, "fusion_lon": 0.0, "lat": 38.9079215, "bike_id": "d9fb64ec4e225aaaa3914078f044712a", "type": "electric_scooter", "is_reserved": 0, "lon": -77.00968616666667}, {"fusion_lat": 0.0, "name": "2dc38dd7e38a72d84a113f225f38e6d7", "is_disabled": 0, "rental_uris": {"android": "https://dc.lft.to/lastmile_qr_scan", "ios": "https://dc.lft.to/lastmile_qr_scan"}, "fusion_lon": 0.0, "lat": 38.902663, "bike_id": "2dc38dd7e38a72d84a113f225f38e6d7", "type": "electric_scooter", "is_reserved": 0, "lon": -77.0295785}, {"fusion_lat": 0.0, "name": "3e14886114ab150fe98ce4e1d9607a01", "is_disabled": 0, "rental_uris": {"android": "https://dc.lft.to/lastmile_qr_scan", "ios": "https://dc.lft.to/lastmile_qr_scan"}, "fusion_lon": 0.0, "lat": 38.9463515, "bike_id": "3e14886114ab150fe98ce4e1d9607a01", "type": "electric_scooter", "is_reserved": 0, "lon": -77.095425}, {"fusion_lat": 0.0, "name": "b31db2ca9ba0dc844d9f7d4a0b624b7d", "is_disabled": 0, "rental_uris": {"android": "https://dc.lft.to/lastmile_qr_scan", "ios": "https://dc.lft.to/lastmile_qr_scan"}, "fusion_lon": 0.0, "lat": 38.9018175, "bike_id": "b31db2ca9ba0dc844d9f7d4a0b624b7d", "type": "electric_scooter", "is_reserved": 0, "lon": -77.0201155}, {"fusion_lat": 0.0, "name": "1e7882ad7f959b72f130f768276d064b", "is_disabled": 0, "rental_uris": {"android": "https://dc.lft.to/lastmile_qr_scan", "ios": "https://dc.lft.to/lastmile_qr_scan"}, "fusion_lon": 0.0, "lat": 38.956138833333334, "bike_id": "1e7882ad7f959b72f130f768276d064b", "type": "electric_scooter", "is_reserved": 0, "lon": -77.02761416666667}, {"fusion_lat": 0.0, "name": "528d068f95e6a4fe899adc0a30dc2296", "is_disabled": 0, "rental_uris": {"android": "https://dc.lft.to/lastmile_qr_scan", "ios": "https://dc.lft.to/lastmile_qr_scan"}, "fusion_lon": 0.0, "lat": 38.9207825, "bike_id": "528d068f95e6a4fe899adc0a30dc2296", "type": "electric_scooter", "is_reserved": 0, "lon": -77.01480633333334}, {"fusion_lat": 0.0, "name": "f6e0bafee9964032b2e2101c1315e5e6", "is_disabled": 0, "rental_uris": {"android": "https://dc.lft.to/lastmile_qr_scan", "ios": "https://dc.lft.to/lastmile_qr_scan"}, "fusion_lon": 0.0, "lat": 38.897027666666666, "bike_id": "f6e0bafee9964032b2e2101c1315e5e6", "type": "electric_scooter", "is_reserved": 0, "lon": -77.03355633333334}, {"fusion_lat": 0.0, "name": "3b099fcfbf5cace0d7d4473ee1a382ed", "is_disabled": 0, "rental_uris": {"android": "https://dc.lft.to/lastmile_qr_scan", "ios": "https://dc.lft.to/lastmile_qr_scan"}, "fusion_lon": 0.0, "lat": 38.91337583333333, "bike_id": "3b099fcfbf5cace0d7d4473ee1a382ed", "type": "electric_scooter", "is_reserved": 0, "lon": -77.04278483333333}, {"fusion_lat": 0.0, "name": "bf2c8b4310eb74163cc748945932915c", "is_disabled": 0, "rental_uris": {"android": "https://dc.lft.to/lastmile_qr_scan", "ios": "https://dc.lft.to/lastmile_qr_scan"}, "fusion_lon": 0.0, "lat": 38.907313333333335, "bike_id": "bf2c8b4310eb74163cc748945932915c", "type": "electric_scooter", "is_reserved": 0, "lon": -77.047608}, {"fusion_lat": 0.0, "name": "03d5bb62e12b0516605823629e48d461", "is_disabled": 0, "rental_uris": {"android": "https://dc.lft.to/lastmile_qr_scan", "ios": "https://dc.lft.to/lastmile_qr_scan"}, "fusion_lon": 0.0, "lat": 38.891962166666666, "bike_id": "03d5bb62e12b0516605823629e48d461", "type": "electric_scooter", "is_reserved": 0, "lon": -77.02229766666666}, {"fusion_lat": 0.0, "name": "d3e6ae9d734bcc86446d60d349872692", "is_disabled": 0, "rental_uris": {"android": "https://dc.lft.to/lastmile_qr_scan", "ios": "https://dc.lft.to/lastmile_qr_scan"}, "fusion_lon": 0.0, "lat": 38.920741666666665, "bike_id": "d3e6ae9d734bcc86446d60d349872692", "type": "electric_scooter", "is_reserved": 0, "lon": -77.024055}, {"fusion_lat": 0.0, "name": "232e41e3ee832453838e7f68a247e2ba", "is_disabled": 0, "rental_uris": {"android": "https://dc.lft.to/lastmile_qr_scan", "ios": "https://dc.lft.to/lastmile_qr_scan"}, "fusion_lon": 0.0, "lat": 38.9068415, "bike_id": "232e41e3ee832453838e7f68a247e2ba", "type": "electric_scooter", "is_reserved": 0, "lon": -77.02176283333333}, {"fusion_lat": 0.0, "name": "951f2fd4a78caa101aab17e497b92ea2", "is_disabled": 0, "rental_uris": {"android": "https://dc.lft.to/lastmile_qr_scan", "ios": "https://dc.lft.to/lastmile_qr_scan"}, "fusion_lon": 0.0, "lat": 38.939039333333334, "bike_id": "951f2fd4a78caa101aab17e497b92ea2", "type": "electric_scooter", "is_reserved": 0, "lon": -77.03260816666666}, {"fusion_lat": 0.0, "name": "afe08234d12b121e4fc359f35f7e82d5", "is_disabled": 0, "rental_uris": {"android": "https://dc.lft.to/lastmile_qr_scan", "ios": "https://dc.lft.to/lastmile_qr_scan"}, "fusion_lon": 0.0, "lat": 38.92867116666667, "bike_id": "afe08234d12b121e4fc359f35f7e82d5", "type": "electric_scooter", "is_reserved": 0, "lon": -77.03500016666666}, {"fusion_lat": 0.0, "name": "b2249a73937a8f24f1a7c54c6980ed2f", "is_disabled": 0, "rental_uris": {"android": "https://dc.lft.to/lastmile_qr_scan", "ios": "https://dc.lft.to/lastmile_qr_scan"}, "fusion_lon": 0.0, "lat": 38.905529, "bike_id": "b2249a73937a8f24f1a7c54c6980ed2f", "type": "electric_scooter", "is_reserved": 0, "lon": -77.004936}, {"fusion_lat": 0.0, "name": "adb6012f59d0d863d371dce6826d146f", "is_disabled": 0, "rental_uris": {"android": "https://dc.lft.to/lastmile_qr_scan", "ios": "https://dc.lft.to/lastmile_qr_scan"}, "fusion_lon": 0.0, "lat": 38.90086733333333, "bike_id": "adb6012f59d0d863d371dce6826d146f", "type": "electric_scooter", "is_reserved": 0, "lon": -77.04952333333334}, {"fusion_lat": 0.0, "name": "59de97b4e8b95287ba6d2c4866306355", "is_disabled": 0, "rental_uris": {"android": "https://dc.lft.to/lastmile_qr_scan", "ios": "https://dc.lft.to/lastmile_qr_scan"}, "fusion_lon": 0.0, "lat": 38.892219833333336, "bike_id": "59de97b4e8b95287ba6d2c4866306355", "type": "electric_scooter", "is_reserved": 0, "lon": -77.032166}, {"fusion_lat": 0.0, "name": "46da888ebdfa5616a85f1999257eab56", "is_disabled": 0, "rental_uris": {"android": "https://dc.lft.to/lastmile_qr_scan", "ios": "https://dc.lft.to/lastmile_qr_scan"}, "fusion_lon": 0.0, "lat": 38.924668, "bike_id": "46da888ebdfa5616a85f1999257eab56", "type": "electric_scooter", "is_reserved": 0, "lon": -77.0207405}, {"fusion_lat": 0.0, "name": "6d1d19da3658a2187c20b58e27ccddef", "is_disabled": 0, "rental_uris": {"android": "https://dc.lft.to/lastmile_qr_scan", "ios": "https://dc.lft.to/lastmile_qr_scan"}, "fusion_lon": 0.0, "lat": 38.89874733333333, "bike_id": "6d1d19da3658a2187c20b58e27ccddef", "type": "electric_scooter", "is_reserved": 0, "lon": -76.9318415}, {"fusion_lat": 0.0, "name": "fc1856371332444193559b2ea1f0ef4b", "is_disabled": 0, "rental_uris": {"android": "https://dc.lft.to/lastmile_qr_scan", "ios": "https://dc.lft.to/lastmile_qr_scan"}, "fusion_lon": 0.0, "lat": 38.93530716666667, "bike_id": "fc1856371332444193559b2ea1f0ef4b", "type": "electric_scooter", "is_reserved": 0, "lon": -77.02848333333333}, {"fusion_lat": 0.0, "name": "1de90a84e1ac93a3ca7c44197a58482a", "is_disabled": 0, "rental_uris": {"android": "https://dc.lft.to/lastmile_qr_scan", "ios": "https://dc.lft.to/lastmile_qr_scan"}, "fusion_lon": 0.0, "lat": 38.923715333333334, "bike_id": "1de90a84e1ac93a3ca7c44197a58482a", "type": "electric_scooter", "is_reserved": 0, "lon": -77.02534583333333}, {"fusion_lat": 0.0, "name": "bcc0d4ee94aba9296d5efbe1fd6c4453", "is_disabled": 0, "rental_uris": {"android": "https://dc.lft.to/lastmile_qr_scan", "ios": "https://dc.lft.to/lastmile_qr_scan"}, "fusion_lon": 0.0, "lat": 38.9287435, "bike_id": "bcc0d4ee94aba9296d5efbe1fd6c4453", "type": "electric_scooter", "is_reserved": 0, "lon": -77.034823}, {"fusion_lat": 0.0, "name": "0e223a3a0711d66f3640093bb024c3b0", "is_disabled": 0, "rental_uris": {"android": "https://dc.lft.to/lastmile_qr_scan", "ios": "https://dc.lft.to/lastmile_qr_scan"}, "fusion_lon": 0.0, "lat": 38.9141355, "bike_id": "0e223a3a0711d66f3640093bb024c3b0", "type": "electric_scooter", "is_reserved": 0, "lon": -77.031483}, {"fusion_lat": 0.0, "name": "13ffb307878e174477f8d66dd54c6887", "is_disabled": 0, "rental_uris": {"android": "https://dc.lft.to/lastmile_qr_scan", "ios": "https://dc.lft.to/lastmile_qr_scan"}, "fusion_lon": 0.0, "lat": 38.93880683333333, "bike_id": "13ffb307878e174477f8d66dd54c6887", "type": "electric_scooter", "is_reserved": 0, "lon": -77.02464416666666}, {"fusion_lat": 0.0, "name": "65f7de01dba73746affba7334bf5be74", "is_disabled": 0, "rental_uris": {"android": "https://dc.lft.to/lastmile_qr_scan", "ios": "https://dc.lft.to/lastmile_qr_scan"}, "fusion_lon": 0.0, "lat": 38.914188333333335, "bike_id": "65f7de01dba73746affba7334bf5be74", "type": "electric_scooter", "is_reserved": 0, "lon": -77.02735133333333}, {"fusion_lat": 0.0, "name": "55202abb042f45ab20f16dd8f6042a4a", "is_disabled": 0, "rental_uris": {"android": "https://dc.lft.to/lastmile_qr_scan", "ios": "https://dc.lft.to/lastmile_qr_scan"}, "fusion_lon": 0.0, "lat": 38.9675575, "bike_id": "55202abb042f45ab20f16dd8f6042a4a", "type": "electric_bike", "is_reserved": 0, "lon": -77.0335895}, {"fusion_lat": 0.0, "name": "6871a5208bcb0a07afc49343719e2db7", "is_disabled": 0, "rental_uris": {"android": "https://dc.lft.to/lastmile_qr_scan", "ios": "https://dc.lft.to/lastmile_qr_scan"}, "fusion_lon": 0.0, "lat": 38.849130333333335, "bike_id": "6871a5208bcb0a07afc49343719e2db7", "type": "electric_bike", "is_reserved": 0, "lon": -77.099785}, {"fusion_lat": 0.0, "name": "6874fe95479b5ea3e1fa645e0377516e", "is_disabled": 0, "rental_uris": {"android": "https://dc.lft.to/lastmile_qr_scan", "ios": "https://dc.lft.to/lastmile_qr_scan"}, "fusion_lon": 0.0, "lat": 38.89341316666667, "bike_id": "6874fe95479b5ea3e1fa645e0377516e", "type": "electric_scooter", "is_reserved": 0, "lon": -76.99376383333333}, {"fusion_lat": 0.0, "name": "8d5cc19127cb38da96e7f1c594610968", "is_disabled": 0, "rental_uris": {"android": "https://dc.lft.to/lastmile_qr_scan", "ios": "https://dc.lft.to/lastmile_qr_scan"}, "fusion_lon": 0.0, "lat": 38.8770015, "bike_id": "8d5cc19127cb38da96e7f1c594610968", "type": "electric_scooter", "is_reserved": 0, "lon": -77.00738233333334}, {"fusion_lat": 0.0, "name": "7e59d3e984452943b1cb3bea7ed7eedf", "is_disabled": 0, "rental_uris": {"android": "https://dc.lft.to/lastmile_qr_scan", "ios": "https://dc.lft.to/lastmile_qr_scan"}, "fusion_lon": 0.0, "lat": 38.865193833333336, "bike_id": "7e59d3e984452943b1cb3bea7ed7eedf", "type": "electric_bike", "is_reserved": 0, "lon": -76.973315}, {"fusion_lat": 0.0, "name": "3dd52352e7a09f3aa33a9e7bed0221ee", "is_disabled": 0, "rental_uris": {"android": "https://dc.lft.to/lastmile_qr_scan", "ios": "https://dc.lft.to/lastmile_qr_scan"}, "fusion_lon": 0.0, "lat": 38.93363016666667, "bike_id": "3dd52352e7a09f3aa33a9e7bed0221ee", "type": "electric_scooter", "is_reserved": 0, "lon": -77.03265533333334}, {"fusion_lat": 0.0, "name": "58a94fcb366c28ea07ae24fb9737e493", "is_disabled": 0, "rental_uris": {"android": "https://dc.lft.to/lastmile_qr_scan", "ios": "https://dc.lft.to/lastmile_qr_scan"}, "fusion_lon": 0.0, "lat": 38.903583, "bike_id": "58a94fcb366c28ea07ae24fb9737e493", "type": "electric_scooter", "is_reserved": 0, "lon": -77.06272983333334}, {"fusion_lat": 0.0, "name": "0ed06a1240aab913062c1ab92a1d2036", "is_disabled": 0, "rental_uris": {"android": "https://dc.lft.to/lastmile_qr_scan", "ios": "https://dc.lft.to/lastmile_qr_scan"}, "fusion_lon": 0.0, "lat": 38.9264575, "bike_id": "0ed06a1240aab913062c1ab92a1d2036", "type": "electric_scooter", "is_reserved": 0, "lon": -77.03719716666667}, {"fusion_lat": 0.0, "name": "ff43ddec2b2ae89b47c2535959450154", "is_disabled": 0, "rental_uris": {"android": "https://dc.lft.to/lastmile_qr_scan", "ios": "https://dc.lft.to/lastmile_qr_scan"}, "fusion_lon": 0.0, "lat": 38.900352166666664, "bike_id": "ff43ddec2b2ae89b47c2535959450154", "type": "electric_scooter", "is_reserved": 0, "lon": -76.988496}, {"fusion_lat": 0.0, "name": "1d3fd91a38809a7b2359cc3b97e2b165", "is_disabled": 0, "rental_uris": {"android": "https://dc.lft.to/lastmile_qr_scan", "ios": "https://dc.lft.to/lastmile_qr_scan"}, "fusion_lon": 0.0, "lat": 38.92080883333333, "bike_id": "1d3fd91a38809a7b2359cc3b97e2b165", "type": "electric_scooter", "is_reserved": 0, "lon": -77.004442}, {"fusion_lat": 0.0, "name": "d43b0e8bd96144ffc66fdb486d890ec6", "is_disabled": 0, "rental_uris": {"android": "https://dc.lft.to/lastmile_qr_scan", "ios": "https://dc.lft.to/lastmile_qr_scan"}, "fusion_lon": 0.0, "lat": 38.9161745, "bike_id": "d43b0e8bd96144ffc66fdb486d890ec6", "type": "electric_scooter", "is_reserved": 0, "lon": -77.03641216666666}, {"fusion_lat": 0.0, "name": "614853f78edbe1d0238f7c3505dc8a49", "is_disabled": 0, "rental_uris": {"android": "https://dc.lft.to/lastmile_qr_scan", "ios": "https://dc.lft.to/lastmile_qr_scan"}, "fusion_lon": 0.0, "lat": 38.93382916666667, "bike_id": "614853f78edbe1d0238f7c3505dc8a49", "type": "electric_scooter", "is_reserved": 0, "lon": -77.03884}, {"fusion_lat": 0.0, "name": "d3252aad1a7e32663ad874945dcad582", "is_disabled": 0, "rental_uris": {"android": "https://dc.lft.to/lastmile_qr_scan", "ios": "https://dc.lft.to/lastmile_qr_scan"}, "fusion_lon": 0.0, "lat": 38.900304166666665, "bike_id": "d3252aad1a7e32663ad874945dcad582", "type": "electric_scooter", "is_reserved": 0, "lon": -76.997366}, {"fusion_lat": 0.0, "name": "d4e410bbb0c842eb675a1de3abe19a87", "is_disabled": 0, "rental_uris": {"android": "https://dc.lft.to/lastmile_qr_scan", "ios": "https://dc.lft.to/lastmile_qr_scan"}, "fusion_lon": 0.0, "lat": 38.87486616666666, "bike_id": "d4e410bbb0c842eb675a1de3abe19a87", "type": "electric_scooter", "is_reserved": 0, "lon": -77.00050933333333}, {"fusion_lat": 0.0, "name": "9a40558e5c9e83126cb9ef6194f99b45", "is_disabled": 0, "rental_uris": {"android": "https://dc.lft.to/lastmile_qr_scan", "ios": "https://dc.lft.to/lastmile_qr_scan"}, "fusion_lon": 0.0, "lat": 38.90388, "bike_id": "9a40558e5c9e83126cb9ef6194f99b45", "type": "electric_scooter", "is_reserved": 0, "lon": -77.04597266666667}, {"fusion_lat": 0.0, "name": "a1c47b5c1302536beb884422664e8b6d", "is_disabled": 0, "rental_uris": {"android": "https://dc.lft.to/lastmile_qr_scan", "ios": "https://dc.lft.to/lastmile_qr_scan"}, "fusion_lon": 0.0, "lat": 38.91967416666667, "bike_id": "a1c47b5c1302536beb884422664e8b6d", "type": "electric_scooter", "is_reserved": 0, "lon": -77.0320275}, {"fusion_lat": 0.0, "name": "d3a5f6e8345ad4daef7e8390c20b2380", "is_disabled": 0, "rental_uris": {"android": "https://dc.lft.to/lastmile_qr_scan", "ios": "https://dc.lft.to/lastmile_qr_scan"}, "fusion_lon": 0.0, "lat": 38.96629016666667, "bike_id": "d3a5f6e8345ad4daef7e8390c20b2380", "type": "electric_scooter", "is_reserved": 0, "lon": -77.01996583333333}, {"fusion_lat": 0.0, "name": "d1c6f0046d5cb87660749279ac0b45a2", "is_disabled": 0, "rental_uris": {"android": "https://dc.lft.to/lastmile_qr_scan", "ios": "https://dc.lft.to/lastmile_qr_scan"}, "fusion_lon": 0.0, "lat": 38.896936333333336, "bike_id": "d1c6f0046d5cb87660749279ac0b45a2", "type": "electric_scooter", "is_reserved": 0, "lon": -77.04336783333333}, {"fusion_lat": 0.0, "name": "c444172d025e5c60c4467fed78598967", "is_disabled": 0, "rental_uris": {"android": "https://dc.lft.to/lastmile_qr_scan", "ios": "https://dc.lft.to/lastmile_qr_scan"}, "fusion_lon": 0.0, "lat": 38.881175166666665, "bike_id": "c444172d025e5c60c4467fed78598967", "type": "electric_scooter", "is_reserved": 0, "lon": -77.01650716666667}, {"fusion_lat": 0.0, "name": "2249a82e31fbd03033eed4c8ba7786ff", "is_disabled": 0, "rental_uris": {"android": "https://dc.lft.to/lastmile_qr_scan", "ios": "https://dc.lft.to/lastmile_qr_scan"}, "fusion_lon": 0.0, "lat": 38.790239166666666, "bike_id": "2249a82e31fbd03033eed4c8ba7786ff", "type": "electric_bike", "is_reserved": 0, "lon": -77.0154505}, {"fusion_lat": 0.0, "name": "5412d5ce48eb79c8f44ec2b1a357dabf", "is_disabled": 0, "rental_uris": {"android": "https://dc.lft.to/lastmile_qr_scan", "ios": "https://dc.lft.to/lastmile_qr_scan"}, "fusion_lon": 0.0, "lat": 38.91839266666667, "bike_id": "5412d5ce48eb79c8f44ec2b1a357dabf", "type": "electric_scooter", "is_reserved": 0, "lon": -77.02432883333333}, {"fusion_lat": 0.0, "name": "db3e0f75f158aba9cb4dbfbf800a31f8", "is_disabled": 0, "rental_uris": {"android": "https://dc.lft.to/lastmile_qr_scan", "ios": "https://dc.lft.to/lastmile_qr_scan"}, "fusion_lon": 0.0, "lat": 38.93606716666667, "bike_id": "db3e0f75f158aba9cb4dbfbf800a31f8", "type": "electric_scooter", "is_reserved": 0, "lon": -77.02301983333334}, {"fusion_lat": 0.0, "name": "876f5cf2b990572e8eb60662b22f8e04", "is_disabled": 0, "rental_uris": {"android": "https://dc.lft.to/lastmile_qr_scan", "ios": "https://dc.lft.to/lastmile_qr_scan"}, "fusion_lon": 0.0, "lat": 38.932485166666666, "bike_id": "876f5cf2b990572e8eb60662b22f8e04", "type": "electric_scooter", "is_reserved": 0, "lon": -77.034217}, {"fusion_lat": 0.0, "name": "f002fb6406cb532076390d94c2e4a38a", "is_disabled": 0, "rental_uris": {"android": "https://dc.lft.to/lastmile_qr_scan", "ios": "https://dc.lft.to/lastmile_qr_scan"}, "fusion_lon": 0.0, "lat": 38.9181485, "bike_id": "f002fb6406cb532076390d94c2e4a38a", "type": "electric_scooter", "is_reserved": 0, "lon": -77.03299716666666}, {"fusion_lat": 0.0, "name": "71d587056cbf2119e01e28fdb1437a42", "is_disabled": 0, "rental_uris": {"android": "https://dc.lft.to/lastmile_qr_scan", "ios": "https://dc.lft.to/lastmile_qr_scan"}, "fusion_lon": 0.0, "lat": 38.90958166666667, "bike_id": "71d587056cbf2119e01e28fdb1437a42", "type": "electric_bike", "is_reserved": 0, "lon": -77.02382383333334}, {"fusion_lat": 0.0, "name": "fe4655e86e9f7447bf90792d78d26930", "is_disabled": 0, "rental_uris": {"android": "https://dc.lft.to/lastmile_qr_scan", "ios": "https://dc.lft.to/lastmile_qr_scan"}, "fusion_lon": 0.0, "lat": 38.94435216666667, "bike_id": "fe4655e86e9f7447bf90792d78d26930", "type": "electric_bike", "is_reserved": 0, "lon": -77.02601016666667}, {"fusion_lat": 0.0, "name": "7f8805ed7d5a2a9890e5a852593424b6", "is_disabled": 0, "rental_uris": {"android": "https://dc.lft.to/lastmile_qr_scan", "ios": "https://dc.lft.to/lastmile_qr_scan"}, "fusion_lon": 0.0, "lat": 38.894915833333336, "bike_id": "7f8805ed7d5a2a9890e5a852593424b6", "type": "electric_scooter", "is_reserved": 0, "lon": -77.02169833333333}, {"fusion_lat": 0.0, "name": "427ffaee5af39fb40abc27cc79a476d9", "is_disabled": 0, "rental_uris": {"android": "https://dc.lft.to/lastmile_qr_scan", "ios": "https://dc.lft.to/lastmile_qr_scan"}, "fusion_lon": 0.0, "lat": 38.885775333333335, "bike_id": "427ffaee5af39fb40abc27cc79a476d9", "type": "electric_scooter", "is_reserved": 0, "lon": -77.0121155}, {"fusion_lat": 0.0, "name": "bf94251aabf0c480c305782f4cca52dd", "is_disabled": 0, "rental_uris": {"android": "https://dc.lft.to/lastmile_qr_scan", "ios": "https://dc.lft.to/lastmile_qr_scan"}, "fusion_lon": 0.0, "lat": 38.90134716666667, "bike_id": "bf94251aabf0c480c305782f4cca52dd", "type": "electric_scooter", "is_reserved": 0, "lon": -77.02183416666666}, {"fusion_lat": 0.0, "name": "8b1a3fa7fa6eb672590daceddd1d98f0", "is_disabled": 0, "rental_uris": {"android": "https://dc.lft.to/lastmile_qr_scan", "ios": "https://dc.lft.to/lastmile_qr_scan"}, "fusion_lon": 0.0, "lat": 38.921246833333335, "bike_id": "8b1a3fa7fa6eb672590daceddd1d98f0", "type": "electric_scooter", "is_reserved": 0, "lon": -77.04689133333333}, {"fusion_lat": 0.0, "name": "2a2df4c702701ab11b5b68e769f3908e", "is_disabled": 0, "rental_uris": {"android": "https://dc.lft.to/lastmile_qr_scan", "ios": "https://dc.lft.to/lastmile_qr_scan"}, "fusion_lon": 0.0, "lat": 38.89224316666667, "bike_id": "2a2df4c702701ab11b5b68e769f3908e", "type": "electric_scooter", "is_reserved": 0, "lon": -77.04376216666667}, {"fusion_lat": 0.0, "name": "559d4a9e66b26fde4d9883aac3f1c211", "is_disabled": 0, "rental_uris": {"android": "https://dc.lft.to/lastmile_qr_scan", "ios": "https://dc.lft.to/lastmile_qr_scan"}, "fusion_lon": 0.0, "lat": 38.9077265, "bike_id": "559d4a9e66b26fde4d9883aac3f1c211", "type": "electric_scooter", "is_reserved": 0, "lon": -77.03203983333333}, {"fusion_lat": 0.0, "name": "061a407eac304cca8d509d7caf94a5f6", "is_disabled": 0, "rental_uris": {"android": "https://dc.lft.to/lastmile_qr_scan", "ios": "https://dc.lft.to/lastmile_qr_scan"}, "fusion_lon": 0.0, "lat": 38.90593483333333, "bike_id": "061a407eac304cca8d509d7caf94a5f6", "type": "electric_scooter", "is_reserved": 0, "lon": -77.064802}, {"fusion_lat": 0.0, "name": "38d0fa9c6b603ac82375fb45d967391a", "is_disabled": 0, "rental_uris": {"android": "https://dc.lft.to/lastmile_qr_scan", "ios": "https://dc.lft.to/lastmile_qr_scan"}, "fusion_lon": 0.0, "lat": 38.92671283333333, "bike_id": "38d0fa9c6b603ac82375fb45d967391a", "type": "electric_scooter", "is_reserved": 0, "lon": -77.03050883333333}, {"fusion_lat": 0.0, "name": "56a4e3186c7fead7f599286bee280a75", "is_disabled": 0, "rental_uris": {"android": "https://dc.lft.to/lastmile_qr_scan", "ios": "https://dc.lft.to/lastmile_qr_scan"}, "fusion_lon": 0.0, "lat": 38.890854166666664, "bike_id": "56a4e3186c7fead7f599286bee280a75", "type": "electric_scooter", "is_reserved": 0, "lon": -76.9193015}, {"fusion_lat": 0.0, "name": "3a12253ad9a72f1847410051b8bbd25e", "is_disabled": 0, "rental_uris": {"android": "https://dc.lft.to/lastmile_qr_scan", "ios": "https://dc.lft.to/lastmile_qr_scan"}, "fusion_lon": 0.0, "lat": 38.887447, "bike_id": "3a12253ad9a72f1847410051b8bbd25e", "type": "electric_scooter", "is_reserved": 0, "lon": -77.0315635}, {"fusion_lat": 0.0, "name": "c9ea74ccc200fe52c0ed1d82f18e2fa2", "is_disabled": 0, "rental_uris": {"android": "https://dc.lft.to/lastmile_qr_scan", "ios": "https://dc.lft.to/lastmile_qr_scan"}, "fusion_lon": 0.0, "lat": 38.880648, "bike_id": "c9ea74ccc200fe52c0ed1d82f18e2fa2", "type": "electric_scooter", "is_reserved": 0, "lon": -76.98503116666667}, {"fusion_lat": 0.0, "name": "a6d4a45a0a7150018af18f3ee199eb83", "is_disabled": 0, "rental_uris": {"android": "https://dc.lft.to/lastmile_qr_scan", "ios": "https://dc.lft.to/lastmile_qr_scan"}, "fusion_lon": 0.0, "lat": 38.9667015, "bike_id": "a6d4a45a0a7150018af18f3ee199eb83", "type": "electric_scooter", "is_reserved": 0, "lon": -77.02551483333333}, {"fusion_lat": 0.0, "name": "7ec579feee476cbe8b822668c0a6b9a7", "is_disabled": 0, "rental_uris": {"android": "https://dc.lft.to/lastmile_qr_scan", "ios": "https://dc.lft.to/lastmile_qr_scan"}, "fusion_lon": 0.0, "lat": 38.92290783333333, "bike_id": "7ec579feee476cbe8b822668c0a6b9a7", "type": "electric_scooter", "is_reserved": 0, "lon": -77.03696166666667}, {"fusion_lat": 0.0, "name": "b673698bad51a54506c831fd24b14145", "is_disabled": 0, "rental_uris": {"android": "https://dc.lft.to/lastmile_qr_scan", "ios": "https://dc.lft.to/lastmile_qr_scan"}, "fusion_lon": 0.0, "lat": 38.91797183333333, "bike_id": "b673698bad51a54506c831fd24b14145", "type": "electric_scooter", "is_reserved": 0, "lon": -77.00923883333333}, {"fusion_lat": 0.0, "name": "0e9c5bb56ec3044462e8bd2083585ff2", "is_disabled": 0, "rental_uris": {"android": "https://dc.lft.to/lastmile_qr_scan", "ios": "https://dc.lft.to/lastmile_qr_scan"}, "fusion_lon": 0.0, "lat": 38.912699833333335, "bike_id": "0e9c5bb56ec3044462e8bd2083585ff2", "type": "electric_scooter", "is_reserved": 0, "lon": -77.04472216666667}, {"fusion_lat": 0.0, "name": "3179af02377ec83120948395defd15a9", "is_disabled": 0, "rental_uris": {"android": "https://dc.lft.to/lastmile_qr_scan", "ios": "https://dc.lft.to/lastmile_qr_scan"}, "fusion_lon": 0.0, "lat": 38.936544833333336, "bike_id": "3179af02377ec83120948395defd15a9", "type": "electric_scooter", "is_reserved": 0, "lon": -77.03674233333334}, {"fusion_lat": 0.0, "name": "a20c91ed8100e577db85f931309e0f69", "is_disabled": 0, "rental_uris": {"android": "https://dc.lft.to/lastmile_qr_scan", "ios": "https://dc.lft.to/lastmile_qr_scan"}, "fusion_lon": 0.0, "lat": 38.913068833333334, "bike_id": "a20c91ed8100e577db85f931309e0f69", "type": "electric_scooter", "is_reserved": 0, "lon": -77.03641816666666}, {"fusion_lat": 0.0, "name": "ad37ad41b4fadb39f4d10d62c2030ed2", "is_disabled": 0, "rental_uris": {"android": "https://dc.lft.to/lastmile_qr_scan", "ios": "https://dc.lft.to/lastmile_qr_scan"}, "fusion_lon": 0.0, "lat": 38.890670666666665, "bike_id": "ad37ad41b4fadb39f4d10d62c2030ed2", "type": "electric_scooter", "is_reserved": 0, "lon": -76.94451816666667}, {"fusion_lat": 0.0, "name": "fd1c1b018182ddc7a5c14abc1e3bf8e0", "is_disabled": 0, "rental_uris": {"android": "https://dc.lft.to/lastmile_qr_scan", "ios": "https://dc.lft.to/lastmile_qr_scan"}, "fusion_lon": 0.0, "lat": 38.90406, "bike_id": "fd1c1b018182ddc7a5c14abc1e3bf8e0", "type": "electric_scooter", "is_reserved": 0, "lon": -77.0056335}, {"fusion_lat": 0.0, "name": "c8dd9b6100c46c2b4e25be6337f50662", "is_disabled": 0, "rental_uris": {"android": "https://dc.lft.to/lastmile_qr_scan", "ios": "https://dc.lft.to/lastmile_qr_scan"}, "fusion_lon": 0.0, "lat": 38.897508333333334, "bike_id": "c8dd9b6100c46c2b4e25be6337f50662", "type": "electric_scooter", "is_reserved": 0, "lon": -77.0453605}, {"fusion_lat": 0.0, "name": "6bde8cdcc4769c37cb4b57bf82d606fc", "is_disabled": 0, "rental_uris": {"android": "https://dc.lft.to/lastmile_qr_scan", "ios": "https://dc.lft.to/lastmile_qr_scan"}, "fusion_lon": 0.0, "lat": 38.9207685, "bike_id": "6bde8cdcc4769c37cb4b57bf82d606fc", "type": "electric_scooter", "is_reserved": 0, "lon": -77.02304983333333}, {"fusion_lat": 0.0, "name": "c1765df62afa88b15158ffb8181e7ea7", "is_disabled": 0, "rental_uris": {"android": "https://dc.lft.to/lastmile_qr_scan", "ios": "https://dc.lft.to/lastmile_qr_scan"}, "fusion_lon": 0.0, "lat": 38.89988866666667, "bike_id": "c1765df62afa88b15158ffb8181e7ea7", "type": "electric_scooter", "is_reserved": 0, "lon": -77.05503483333334}, {"fusion_lat": 0.0, "name": "94e3bd12d571cde492f26da9508f3af8", "is_disabled": 0, "rental_uris": {"android": "https://dc.lft.to/lastmile_qr_scan", "ios": "https://dc.lft.to/lastmile_qr_scan"}, "fusion_lon": 0.0, "lat": 39.0361885, "bike_id": "94e3bd12d571cde492f26da9508f3af8", "type": "electric_bike", "is_reserved": 0, "lon": -77.05540683333334}, {"fusion_lat": 0.0, "name": "1633dd1a151b49b0b7b2413454388b33", "is_disabled": 0, "rental_uris": {"android": "https://dc.lft.to/lastmile_qr_scan", "ios": "https://dc.lft.to/lastmile_qr_scan"}, "fusion_lon": 0.0, "lat": 38.91049616666667, "bike_id": "1633dd1a151b49b0b7b2413454388b33", "type": "electric_scooter", "is_reserved": 0, "lon": -77.03337883333333}, {"fusion_lat": 0.0, "name": "fe9192d400b81af1e9b17a466e123b51", "is_disabled": 0, "rental_uris": {"android": "https://dc.lft.to/lastmile_qr_scan", "ios": "https://dc.lft.to/lastmile_qr_scan"}, "fusion_lon": 0.0, "lat": 38.891960166666664, "bike_id": "fe9192d400b81af1e9b17a466e123b51", "type": "electric_scooter", "is_reserved": 0, "lon": -77.0222905}, {"fusion_lat": 0.0, "name": "2104ef10b12025e9a01effb0ed5ce83c", "is_disabled": 0, "rental_uris": {"android": "https://dc.lft.to/lastmile_qr_scan", "ios": "https://dc.lft.to/lastmile_qr_scan"}, "fusion_lon": 0.0, "lat": 38.91648566666667, "bike_id": "2104ef10b12025e9a01effb0ed5ce83c", "type": "electric_scooter", "is_reserved": 0, "lon": -77.04797116666667}, {"fusion_lat": 0.0, "name": "a31647a018805a031b35f384a3a4f2c9", "is_disabled": 0, "rental_uris": {"android": "https://dc.lft.to/lastmile_qr_scan", "ios": "https://dc.lft.to/lastmile_qr_scan"}, "fusion_lon": 0.0, "lat": 38.9104115, "bike_id": "a31647a018805a031b35f384a3a4f2c9", "type": "electric_scooter", "is_reserved": 0, "lon": -77.03830233333333}, {"fusion_lat": 0.0, "name": "b3fe381cccdca7defeacfd0a4e12d617", "is_disabled": 0, "rental_uris": {"android": "https://dc.lft.to/lastmile_qr_scan", "ios": "https://dc.lft.to/lastmile_qr_scan"}, "fusion_lon": 0.0, "lat": 38.91488183333333, "bike_id": "b3fe381cccdca7defeacfd0a4e12d617", "type": "electric_scooter", "is_reserved": 0, "lon": -77.042793}, {"fusion_lat": 0.0, "name": "cb0366336027ce10878bf4896da53454", "is_disabled": 0, "rental_uris": {"android": "https://dc.lft.to/lastmile_qr_scan", "ios": "https://dc.lft.to/lastmile_qr_scan"}, "fusion_lon": 0.0, "lat": 38.90089016666667, "bike_id": "cb0366336027ce10878bf4896da53454", "type": "electric_bike", "is_reserved": 0, "lon": -77.039308}, {"fusion_lat": 0.0, "name": "d597b9749eedbf19ee3856e826480ec6", "is_disabled": 0, "rental_uris": {"android": "https://dc.lft.to/lastmile_qr_scan", "ios": "https://dc.lft.to/lastmile_qr_scan"}, "fusion_lon": 0.0, "lat": 38.92639916666667, "bike_id": "d597b9749eedbf19ee3856e826480ec6", "type": "electric_scooter", "is_reserved": 0, "lon": -77.0384755}, {"fusion_lat": 0.0, "name": "577ee3bc84dc436cef18f8487bf8544d", "is_disabled": 0, "rental_uris": {"android": "https://dc.lft.to/lastmile_qr_scan", "ios": "https://dc.lft.to/lastmile_qr_scan"}, "fusion_lon": 0.0, "lat": 38.908698666666666, "bike_id": "577ee3bc84dc436cef18f8487bf8544d", "type": "electric_scooter", "is_reserved": 0, "lon": -77.048792}, {"fusion_lat": 0.0, "name": "7f60ef7bb824f5de31494b764808785a", "is_disabled": 0, "rental_uris": {"android": "https://dc.lft.to/lastmile_qr_scan", "ios": "https://dc.lft.to/lastmile_qr_scan"}, "fusion_lon": 0.0, "lat": 38.93970983333333, "bike_id": "7f60ef7bb824f5de31494b764808785a", "type": "electric_scooter", "is_reserved": 0, "lon": -77.03281783333334}, {"fusion_lat": 0.0, "name": "3846b3772575d51ee49b07ebe9b85493", "is_disabled": 0, "rental_uris": {"android": "https://dc.lft.to/lastmile_qr_scan", "ios": "https://dc.lft.to/lastmile_qr_scan"}, "fusion_lon": 0.0, "lat": 38.96489366666667, "bike_id": "3846b3772575d51ee49b07ebe9b85493", "type": "electric_bike", "is_reserved": 0, "lon": -77.10707033333334}, {"fusion_lat": 0.0, "name": "321271d2120e1d1939cb61efe813a4b8", "is_disabled": 0, "rental_uris": {"android": "https://dc.lft.to/lastmile_qr_scan", "ios": "https://dc.lft.to/lastmile_qr_scan"}, "fusion_lon": 0.0, "lat": 38.781766833333336, "bike_id": "321271d2120e1d1939cb61efe813a4b8", "type": "electric_bike", "is_reserved": 0, "lon": -77.01437266666667}, {"fusion_lat": 0.0, "name": "16275dcc2e418793969f53fd5bb6f3d8", "is_disabled": 0, "rental_uris": {"android": "https://dc.lft.to/lastmile_qr_scan", "ios": "https://dc.lft.to/lastmile_qr_scan"}, "fusion_lon": 0.0, "lat": 38.93173733333333, "bike_id": "16275dcc2e418793969f53fd5bb6f3d8", "type": "electric_scooter", "is_reserved": 0, "lon": -77.0377615}, {"fusion_lat": 0.0, "name": "cd7f00440518bfa11b0447ee224b400d", "is_disabled": 0, "rental_uris": {"android": "https://dc.lft.to/lastmile_qr_scan", "ios": "https://dc.lft.to/lastmile_qr_scan"}, "fusion_lon": 0.0, "lat": 38.885178333333336, "bike_id": "cd7f00440518bfa11b0447ee224b400d", "type": "electric_scooter", "is_reserved": 0, "lon": -76.99772866666666}, {"fusion_lat": 0.0, "name": "767cdaf61b1d074f6382ce505d560898", "is_disabled": 0, "rental_uris": {"android": "https://dc.lft.to/lastmile_qr_scan", "ios": "https://dc.lft.to/lastmile_qr_scan"}, "fusion_lon": 0.0, "lat": 38.898227166666665, "bike_id": "767cdaf61b1d074f6382ce505d560898", "type": "electric_scooter", "is_reserved": 0, "lon": -77.02707316666667}, {"fusion_lat": 0.0, "name": "7f5028e0264cc31de9660e1e95f236a1", "is_disabled": 0, "rental_uris": {"android": "https://dc.lft.to/lastmile_qr_scan", "ios": "https://dc.lft.to/lastmile_qr_scan"}, "fusion_lon": 0.0, "lat": 38.929069166666665, "bike_id": "7f5028e0264cc31de9660e1e95f236a1", "type": "electric_scooter", "is_reserved": 0, "lon": -77.0215015}, {"fusion_lat": 0.0, "name": "e61a680cb0db3d54b9ae950d6cd91132", "is_disabled": 0, "rental_uris": {"android": "https://dc.lft.to/lastmile_qr_scan", "ios": "https://dc.lft.to/lastmile_qr_scan"}, "fusion_lon": 0.0, "lat": 38.8316, "bike_id": "e61a680cb0db3d54b9ae950d6cd91132", "type": "electric_bike", "is_reserved": 0, "lon": -76.99574816666667}, {"fusion_lat": 0.0, "name": "496e92ebe7a69ad0e8bd6e70bca7f3c8", "is_disabled": 0, "rental_uris": {"android": "https://dc.lft.to/lastmile_qr_scan", "ios": "https://dc.lft.to/lastmile_qr_scan"}, "fusion_lon": 0.0, "lat": 38.89689333333333, "bike_id": "496e92ebe7a69ad0e8bd6e70bca7f3c8", "type": "electric_scooter", "is_reserved": 0, "lon": -77.04341283333333}, {"fusion_lat": 0.0, "name": "ecff985ffe349aab2879312c1361a2cc", "is_disabled": 0, "rental_uris": {"android": "https://dc.lft.to/lastmile_qr_scan", "ios": "https://dc.lft.to/lastmile_qr_scan"}, "fusion_lon": 0.0, "lat": 38.900296166666664, "bike_id": "ecff985ffe349aab2879312c1361a2cc", "type": "electric_scooter", "is_reserved": 0, "lon": -77.03505433333333}, {"fusion_lat": 0.0, "name": "99dc8ef411d0941bd536deb2752a1f2e", "is_disabled": 0, "rental_uris": {"android": "https://dc.lft.to/lastmile_qr_scan", "ios": "https://dc.lft.to/lastmile_qr_scan"}, "fusion_lon": 0.0, "lat": 38.914363, "bike_id": "99dc8ef411d0941bd536deb2752a1f2e", "type": "electric_scooter", "is_reserved": 0, "lon": -76.99354833333334}, {"fusion_lat": 0.0, "name": "246e2e38c77feeff4f4b29d4a1a53d66", "is_disabled": 0, "rental_uris": {"android": "https://dc.lft.to/lastmile_qr_scan", "ios": "https://dc.lft.to/lastmile_qr_scan"}, "fusion_lon": 0.0, "lat": 38.885087, "bike_id": "246e2e38c77feeff4f4b29d4a1a53d66", "type": "electric_scooter", "is_reserved": 0, "lon": -77.01113433333333}, {"fusion_lat": 0.0, "name": "2c503e5d9b0ec9a0ecda107e874ad789", "is_disabled": 0, "rental_uris": {"android": "https://dc.lft.to/lastmile_qr_scan", "ios": "https://dc.lft.to/lastmile_qr_scan"}, "fusion_lon": 0.0, "lat": 38.904671666666665, "bike_id": "2c503e5d9b0ec9a0ecda107e874ad789", "type": "electric_scooter", "is_reserved": 0, "lon": -77.00338233333333}, {"fusion_lat": 0.0, "name": "b0db44ffaa233ea8cc3ff44a36559d9a", "is_disabled": 0, "rental_uris": {"android": "https://dc.lft.to/lastmile_qr_scan", "ios": "https://dc.lft.to/lastmile_qr_scan"}, "fusion_lon": 0.0, "lat": 38.9248225, "bike_id": "b0db44ffaa233ea8cc3ff44a36559d9a", "type": "electric_scooter", "is_reserved": 0, "lon": -77.02714916666666}, {"fusion_lat": 0.0, "name": "b910f4ad307c48ec9f4270793c5e2e17", "is_disabled": 0, "rental_uris": {"android": "https://dc.lft.to/lastmile_qr_scan", "ios": "https://dc.lft.to/lastmile_qr_scan"}, "fusion_lon": 0.0, "lat": 38.85367133333333, "bike_id": "b910f4ad307c48ec9f4270793c5e2e17", "type": "electric_bike", "is_reserved": 0, "lon": -77.11508983333333}, {"fusion_lat": 0.0, "name": "91a2047c1168f4e4a99137d094a1698d", "is_disabled": 0, "rental_uris": {"android": "https://dc.lft.to/lastmile_qr_scan", "ios": "https://dc.lft.to/lastmile_qr_scan"}, "fusion_lon": 0.0, "lat": 38.93868883333333, "bike_id": "91a2047c1168f4e4a99137d094a1698d", "type": "electric_scooter", "is_reserved": 0, "lon": -77.03206333333333}, {"fusion_lat": 0.0, "name": "a038705dbc6242dd6bf91cd4d290f965", "is_disabled": 0, "rental_uris": {"android": "https://dc.lft.to/lastmile_qr_scan", "ios": "https://dc.lft.to/lastmile_qr_scan"}, "fusion_lon": 0.0, "lat": 38.90051016666666, "bike_id": "a038705dbc6242dd6bf91cd4d290f965", "type": "electric_scooter", "is_reserved": 0, "lon": -77.04487616666667}, {"fusion_lat": 0.0, "name": "2635165ae3801dbad5a01af1bd1ef764", "is_disabled": 0, "rental_uris": {"android": "https://dc.lft.to/lastmile_qr_scan", "ios": "https://dc.lft.to/lastmile_qr_scan"}, "fusion_lon": 0.0, "lat": 39.039004, "bike_id": "2635165ae3801dbad5a01af1bd1ef764", "type": "electric_bike", "is_reserved": 0, "lon": -77.0503245}, {"fusion_lat": 0.0, "name": "0c324ae4d6ab6f8d39aedf930be6d8ff", "is_disabled": 0, "rental_uris": {"android": "https://dc.lft.to/lastmile_qr_scan", "ios": "https://dc.lft.to/lastmile_qr_scan"}, "fusion_lon": 0.0, "lat": 38.87830833333334, "bike_id": "0c324ae4d6ab6f8d39aedf930be6d8ff", "type": "electric_scooter", "is_reserved": 0, "lon": -76.99020983333334}, {"fusion_lat": 0.0, "name": "2da8dc23905400b79303f3789b07a7f6", "is_disabled": 0, "rental_uris": {"android": "https://dc.lft.to/lastmile_qr_scan", "ios": "https://dc.lft.to/lastmile_qr_scan"}, "fusion_lon": 0.0, "lat": 38.92104, "bike_id": "2da8dc23905400b79303f3789b07a7f6", "type": "electric_scooter", "is_reserved": 0, "lon": -77.03177933333333}, {"fusion_lat": 0.0, "name": "34cf406ad814ec4081cfbdde5b1fa82c", "is_disabled": 0, "rental_uris": {"android": "https://dc.lft.to/lastmile_qr_scan", "ios": "https://dc.lft.to/lastmile_qr_scan"}, "fusion_lon": 0.0, "lat": 38.93019066666667, "bike_id": "34cf406ad814ec4081cfbdde5b1fa82c", "type": "electric_scooter", "is_reserved": 0, "lon": -77.02079333333333}, {"fusion_lat": 0.0, "name": "23927074d72e68ee132b502fb6403a6a", "is_disabled": 0, "rental_uris": {"android": "https://dc.lft.to/lastmile_qr_scan", "ios": "https://dc.lft.to/lastmile_qr_scan"}, "fusion_lon": 0.0, "lat": 38.91807683333333, "bike_id": "23927074d72e68ee132b502fb6403a6a", "type": "electric_scooter", "is_reserved": 0, "lon": -77.02710783333333}, {"fusion_lat": 0.0, "name": "5618601c413031b317490c8f36bbd31b", "is_disabled": 0, "rental_uris": {"android": "https://dc.lft.to/lastmile_qr_scan", "ios": "https://dc.lft.to/lastmile_qr_scan"}, "fusion_lon": 0.0, "lat": 38.90974, "bike_id": "5618601c413031b317490c8f36bbd31b", "type": "electric_scooter", "is_reserved": 0, "lon": -77.04738616666667}, {"fusion_lat": 0.0, "name": "914f29411d2032e15e42ed023fc33ab5", "is_disabled": 0, "rental_uris": {"android": "https://dc.lft.to/lastmile_qr_scan", "ios": "https://dc.lft.to/lastmile_qr_scan"}, "fusion_lon": 0.0, "lat": 38.92756416666667, "bike_id": "914f29411d2032e15e42ed023fc33ab5", "type": "electric_scooter", "is_reserved": 0, "lon": -77.03296616666667}, {"fusion_lat": 0.0, "name": "b9d2787692061781cc9349cd3b7afb63", "is_disabled": 0, "rental_uris": {"android": "https://dc.lft.to/lastmile_qr_scan", "ios": "https://dc.lft.to/lastmile_qr_scan"}, "fusion_lon": 0.0, "lat": 38.900057833333335, "bike_id": "b9d2787692061781cc9349cd3b7afb63", "type": "electric_scooter", "is_reserved": 0, "lon": -76.99842133333334}, {"fusion_lat": 0.0, "name": "8b8edb7ac7e06a3e41c6dd2290ed8877", "is_disabled": 0, "rental_uris": {"android": "https://dc.lft.to/lastmile_qr_scan", "ios": "https://dc.lft.to/lastmile_qr_scan"}, "fusion_lon": 0.0, "lat": 38.9073685, "bike_id": "8b8edb7ac7e06a3e41c6dd2290ed8877", "type": "electric_scooter", "is_reserved": 0, "lon": -77.02606883333333}, {"fusion_lat": 0.0, "name": "f0adbcc184554c1ca23dc3abd5c9a959", "is_disabled": 0, "rental_uris": {"android": "https://dc.lft.to/lastmile_qr_scan", "ios": "https://dc.lft.to/lastmile_qr_scan"}, "fusion_lon": 0.0, "lat": 38.973677, "bike_id": "f0adbcc184554c1ca23dc3abd5c9a959", "type": "electric_scooter", "is_reserved": 0, "lon": -77.0129225}, {"fusion_lat": 0.0, "name": "d3a7544554d75a0015b498ca18d1c0b6", "is_disabled": 0, "rental_uris": {"android": "https://dc.lft.to/lastmile_qr_scan", "ios": "https://dc.lft.to/lastmile_qr_scan"}, "fusion_lon": 0.0, "lat": 38.88333266666667, "bike_id": "d3a7544554d75a0015b498ca18d1c0b6", "type": "electric_scooter", "is_reserved": 0, "lon": -77.01465483333334}, {"fusion_lat": 0.0, "name": "8e30e75dc7823f1541234b2bbce0dce1", "is_disabled": 0, "rental_uris": {"android": "https://dc.lft.to/lastmile_qr_scan", "ios": "https://dc.lft.to/lastmile_qr_scan"}, "fusion_lon": 0.0, "lat": 38.892234, "bike_id": "8e30e75dc7823f1541234b2bbce0dce1", "type": "electric_scooter", "is_reserved": 0, "lon": -77.03337116666667}, {"fusion_lat": 0.0, "name": "1a90f7b0e0b5dff7bbaf2ca9e7ac2017", "is_disabled": 0, "rental_uris": {"android": "https://dc.lft.to/lastmile_qr_scan", "ios": "https://dc.lft.to/lastmile_qr_scan"}, "fusion_lon": 0.0, "lat": 38.92595, "bike_id": "1a90f7b0e0b5dff7bbaf2ca9e7ac2017", "type": "electric_scooter", "is_reserved": 0, "lon": -77.024739}, {"fusion_lat": 0.0, "name": "256fe5220fd906994b1c1d215884203b", "is_disabled": 0, "rental_uris": {"android": "https://dc.lft.to/lastmile_qr_scan", "ios": "https://dc.lft.to/lastmile_qr_scan"}, "fusion_lon": 0.0, "lat": 38.921003666666664, "bike_id": "256fe5220fd906994b1c1d215884203b", "type": "electric_scooter", "is_reserved": 0, "lon": -77.04697283333333}, {"fusion_lat": 0.0, "name": "63670f16c0786fb26b37020a58f3c9de", "is_disabled": 0, "rental_uris": {"android": "https://dc.lft.to/lastmile_qr_scan", "ios": "https://dc.lft.to/lastmile_qr_scan"}, "fusion_lon": 0.0, "lat": 38.90084216666666, "bike_id": "63670f16c0786fb26b37020a58f3c9de", "type": "electric_scooter", "is_reserved": 0, "lon": -77.0493615}, {"fusion_lat": 0.0, "name": "fecd7809b1cb10e28bca07d11b54a140", "is_disabled": 0, "rental_uris": {"android": "https://dc.lft.to/lastmile_qr_scan", "ios": "https://dc.lft.to/lastmile_qr_scan"}, "fusion_lon": 0.0, "lat": 38.903506666666665, "bike_id": "fecd7809b1cb10e28bca07d11b54a140", "type": "electric_scooter", "is_reserved": 0, "lon": -76.97477966666666}, {"fusion_lat": 0.0, "name": "d94799a8a669258d6afc0062000a3fb4", "is_disabled": 0, "rental_uris": {"android": "https://dc.lft.to/lastmile_qr_scan", "ios": "https://dc.lft.to/lastmile_qr_scan"}, "fusion_lon": 0.0, "lat": 38.900953, "bike_id": "d94799a8a669258d6afc0062000a3fb4", "type": "electric_scooter", "is_reserved": 0, "lon": -77.05063833333334}, {"fusion_lat": 0.0, "name": "37cc13cb53dffbe4cb1117c34b2a686a", "is_disabled": 0, "rental_uris": {"android": "https://dc.lft.to/lastmile_qr_scan", "ios": "https://dc.lft.to/lastmile_qr_scan"}, "fusion_lon": 0.0, "lat": 38.90939, "bike_id": "37cc13cb53dffbe4cb1117c34b2a686a", "type": "electric_scooter", "is_reserved": 0, "lon": -77.0625645}, {"fusion_lat": 0.0, "name": "cda005e4a68593c962057424389b56b7", "is_disabled": 0, "rental_uris": {"android": "https://dc.lft.to/lastmile_qr_scan", "ios": "https://dc.lft.to/lastmile_qr_scan"}, "fusion_lon": 0.0, "lat": 38.93462366666667, "bike_id": "cda005e4a68593c962057424389b56b7", "type": "electric_scooter", "is_reserved": 0, "lon": -77.03399916666666}, {"fusion_lat": 0.0, "name": "1ec7d69826822b50695dcf46927e4fb5", "is_disabled": 0, "rental_uris": {"android": "https://dc.lft.to/lastmile_qr_scan", "ios": "https://dc.lft.to/lastmile_qr_scan"}, "fusion_lon": 0.0, "lat": 38.938825666666666, "bike_id": "1ec7d69826822b50695dcf46927e4fb5", "type": "electric_scooter", "is_reserved": 0, "lon": -77.02464016666667}, {"fusion_lat": 0.0, "name": "5d35eb28739199a33ece3fe833f6fd56", "is_disabled": 0, "rental_uris": {"android": "https://dc.lft.to/lastmile_qr_scan", "ios": "https://dc.lft.to/lastmile_qr_scan"}, "fusion_lon": 0.0, "lat": 38.938253833333334, "bike_id": "5d35eb28739199a33ece3fe833f6fd56", "type": "electric_scooter", "is_reserved": 0, "lon": -77.02646266666666}, {"fusion_lat": 0.0, "name": "97f7c30e263bc3b06a60e8f55696ae04", "is_disabled": 0, "rental_uris": {"android": "https://dc.lft.to/lastmile_qr_scan", "ios": "https://dc.lft.to/lastmile_qr_scan"}, "fusion_lon": 0.0, "lat": 38.902482, "bike_id": "97f7c30e263bc3b06a60e8f55696ae04", "type": "electric_scooter", "is_reserved": 0, "lon": -77.03971583333333}, {"fusion_lat": 0.0, "name": "dbc3bf81b7f55761e4b6eb51958fabce", "is_disabled": 0, "rental_uris": {"android": "https://dc.lft.to/lastmile_qr_scan", "ios": "https://dc.lft.to/lastmile_qr_scan"}, "fusion_lon": 0.0, "lat": 38.921471833333335, "bike_id": "dbc3bf81b7f55761e4b6eb51958fabce", "type": "electric_scooter", "is_reserved": 0, "lon": -77.0179825}, {"fusion_lat": 0.0, "name": "4e23c1b9921c6bd6c851408046456a77", "is_disabled": 0, "rental_uris": {"android": "https://dc.lft.to/lastmile_qr_scan", "ios": "https://dc.lft.to/lastmile_qr_scan"}, "fusion_lon": 0.0, "lat": 38.90883016666667, "bike_id": "4e23c1b9921c6bd6c851408046456a77", "type": "electric_scooter", "is_reserved": 0, "lon": -77.02123233333333}, {"fusion_lat": 0.0, "name": "8e3034f925f83276af554a9e040503b8", "is_disabled": 0, "rental_uris": {"android": "https://dc.lft.to/lastmile_qr_scan", "ios": "https://dc.lft.to/lastmile_qr_scan"}, "fusion_lon": 0.0, "lat": 38.90682016666667, "bike_id": "8e3034f925f83276af554a9e040503b8", "type": "electric_scooter", "is_reserved": 0, "lon": -77.02705683333333}, {"fusion_lat": 0.0, "name": "d54df7f0496c871eb28746f671ba1bd4", "is_disabled": 0, "rental_uris": {"android": "https://dc.lft.to/lastmile_qr_scan", "ios": "https://dc.lft.to/lastmile_qr_scan"}, "fusion_lon": 0.0, "lat": 38.909550833333334, "bike_id": "d54df7f0496c871eb28746f671ba1bd4", "type": "electric_scooter", "is_reserved": 0, "lon": -77.0271665}, {"fusion_lat": 0.0, "name": "8cfe76482e89ce40f347658ad5c148d0", "is_disabled": 0, "rental_uris": {"android": "https://dc.lft.to/lastmile_qr_scan", "ios": "https://dc.lft.to/lastmile_qr_scan"}, "fusion_lon": 0.0, "lat": 38.88743566666667, "bike_id": "8cfe76482e89ce40f347658ad5c148d0", "type": "electric_scooter", "is_reserved": 0, "lon": -77.02571716666667}, {"fusion_lat": 0.0, "name": "c03e63d35e31bdcdb6bb4264673e4164", "is_disabled": 0, "rental_uris": {"android": "https://dc.lft.to/lastmile_qr_scan", "ios": "https://dc.lft.to/lastmile_qr_scan"}, "fusion_lon": 0.0, "lat": 38.8762605, "bike_id": "c03e63d35e31bdcdb6bb4264673e4164", "type": "electric_scooter", "is_reserved": 0, "lon": -77.001256}, {"fusion_lat": 0.0, "name": "a1f3b43776da645d2deeb27292a9a7ab", "is_disabled": 0, "rental_uris": {"android": "https://dc.lft.to/lastmile_qr_scan", "ios": "https://dc.lft.to/lastmile_qr_scan"}, "fusion_lon": 0.0, "lat": 38.919585833333336, "bike_id": "a1f3b43776da645d2deeb27292a9a7ab", "type": "electric_bike", "is_reserved": 0, "lon": -77.1010535}, {"fusion_lat": 0.0, "name": "8e03fff1374ba0b48ed8801552823e63", "is_disabled": 0, "rental_uris": {"android": "https://dc.lft.to/lastmile_qr_scan", "ios": "https://dc.lft.to/lastmile_qr_scan"}, "fusion_lon": 0.0, "lat": 38.8985145, "bike_id": "8e03fff1374ba0b48ed8801552823e63", "type": "electric_scooter", "is_reserved": 0, "lon": -77.02709283333333}, {"fusion_lat": 0.0, "name": "4ba3dbda4ce8d9513022a985d7d72624", "is_disabled": 0, "rental_uris": {"android": "https://dc.lft.to/lastmile_qr_scan", "ios": "https://dc.lft.to/lastmile_qr_scan"}, "fusion_lon": 0.0, "lat": 38.90780633333333, "bike_id": "4ba3dbda4ce8d9513022a985d7d72624", "type": "electric_scooter", "is_reserved": 0, "lon": -77.0434385}, {"fusion_lat": 0.0, "name": "90a8785d5e5bab3b3c204fe7d05c48db", "is_disabled": 0, "rental_uris": {"android": "https://dc.lft.to/lastmile_qr_scan", "ios": "https://dc.lft.to/lastmile_qr_scan"}, "fusion_lon": 0.0, "lat": 38.9358095, "bike_id": "90a8785d5e5bab3b3c204fe7d05c48db", "type": "electric_scooter", "is_reserved": 0, "lon": -77.02839883333333}, {"fusion_lat": 0.0, "name": "d6a875de3606e7fabe2d4b24ee424b58", "is_disabled": 0, "rental_uris": {"android": "https://dc.lft.to/lastmile_qr_scan", "ios": "https://dc.lft.to/lastmile_qr_scan"}, "fusion_lon": 0.0, "lat": 38.89742416666667, "bike_id": "d6a875de3606e7fabe2d4b24ee424b58", "type": "electric_scooter", "is_reserved": 0, "lon": -77.04629316666667}, {"fusion_lat": 0.0, "name": "177063a6349c9b6ffe41e9478314e440", "is_disabled": 0, "rental_uris": {"android": "https://dc.lft.to/lastmile_qr_scan", "ios": "https://dc.lft.to/lastmile_qr_scan"}, "fusion_lon": 0.0, "lat": 38.909380166666665, "bike_id": "177063a6349c9b6ffe41e9478314e440", "type": "electric_scooter", "is_reserved": 0, "lon": -77.01847466666666}, {"fusion_lat": 0.0, "name": "7940506a1f4220791e3313316576c975", "is_disabled": 0, "rental_uris": {"android": "https://dc.lft.to/lastmile_qr_scan", "ios": "https://dc.lft.to/lastmile_qr_scan"}, "fusion_lon": 0.0, "lat": 38.9314365, "bike_id": "7940506a1f4220791e3313316576c975", "type": "electric_bike", "is_reserved": 0, "lon": -77.038323}, {"fusion_lat": 0.0, "name": "f37bab4fbd5d50102a2e3f2518d0730b", "is_disabled": 0, "rental_uris": {"android": "https://dc.lft.to/lastmile_qr_scan", "ios": "https://dc.lft.to/lastmile_qr_scan"}, "fusion_lon": 0.0, "lat": 38.9068545, "bike_id": "f37bab4fbd5d50102a2e3f2518d0730b", "type": "electric_bike", "is_reserved": 0, "lon": -76.9449405}, {"fusion_lat": 0.0, "name": "652c39cea8864f85eea4b098f9602198", "is_disabled": 0, "rental_uris": {"android": "https://dc.lft.to/lastmile_qr_scan", "ios": "https://dc.lft.to/lastmile_qr_scan"}, "fusion_lon": 0.0, "lat": 38.8691485, "bike_id": "652c39cea8864f85eea4b098f9602198", "type": "electric_bike", "is_reserved": 0, "lon": -76.9750615}, {"fusion_lat": 0.0, "name": "cf4a4bba13367533067a89d71adaf3ad", "is_disabled": 0, "rental_uris": {"android": "https://dc.lft.to/lastmile_qr_scan", "ios": "https://dc.lft.to/lastmile_qr_scan"}, "fusion_lon": 0.0, "lat": 38.90579783333333, "bike_id": "cf4a4bba13367533067a89d71adaf3ad", "type": "electric_scooter", "is_reserved": 0, "lon": -77.02931166666667}, {"fusion_lat": 0.0, "name": "7de80873eb7ebe8bbf2acf45d7ef5e97", "is_disabled": 0, "rental_uris": {"android": "https://dc.lft.to/lastmile_qr_scan", "ios": "https://dc.lft.to/lastmile_qr_scan"}, "fusion_lon": 0.0, "lat": 38.887662166666665, "bike_id": "7de80873eb7ebe8bbf2acf45d7ef5e97", "type": "electric_scooter", "is_reserved": 0, "lon": -76.977415}, {"fusion_lat": 0.0, "name": "d3d218c3b4296a810dbd44d873b2e5d3", "is_disabled": 0, "rental_uris": {"android": "https://dc.lft.to/lastmile_qr_scan", "ios": "https://dc.lft.to/lastmile_qr_scan"}, "fusion_lon": 0.0, "lat": 38.918332, "bike_id": "d3d218c3b4296a810dbd44d873b2e5d3", "type": "electric_scooter", "is_reserved": 0, "lon": -77.031808}, {"fusion_lat": 0.0, "name": "e7ff11c63c8bcbab55f45f00c8b2db46", "is_disabled": 0, "rental_uris": {"android": "https://dc.lft.to/lastmile_qr_scan", "ios": "https://dc.lft.to/lastmile_qr_scan"}, "fusion_lon": 0.0, "lat": 38.937692, "bike_id": "e7ff11c63c8bcbab55f45f00c8b2db46", "type": "electric_scooter", "is_reserved": 0, "lon": -77.03283516666667}, {"fusion_lat": 0.0, "name": "0bbf3b56ac3067eed1ffae202a0acfd7", "is_disabled": 0, "rental_uris": {"android": "https://dc.lft.to/lastmile_qr_scan", "ios": "https://dc.lft.to/lastmile_qr_scan"}, "fusion_lon": 0.0, "lat": 38.897625833333336, "bike_id": "0bbf3b56ac3067eed1ffae202a0acfd7", "type": "electric_scooter", "is_reserved": 0, "lon": -77.02500183333333}, {"fusion_lat": 0.0, "name": "0590a5cb2a4b7d74bd5f6cde7d602313", "is_disabled": 0, "rental_uris": {"android": "https://dc.lft.to/lastmile_qr_scan", "ios": "https://dc.lft.to/lastmile_qr_scan"}, "fusion_lon": 0.0, "lat": 38.90149866666667, "bike_id": "0590a5cb2a4b7d74bd5f6cde7d602313", "type": "electric_scooter", "is_reserved": 0, "lon": -76.93067316666666}, {"fusion_lat": 0.0, "name": "379efde2af59b087f6a851bba3801afa", "is_disabled": 0, "rental_uris": {"android": "https://dc.lft.to/lastmile_qr_scan", "ios": "https://dc.lft.to/lastmile_qr_scan"}, "fusion_lon": 0.0, "lat": 38.905721166666666, "bike_id": "379efde2af59b087f6a851bba3801afa", "type": "electric_scooter", "is_reserved": 0, "lon": -77.02103633333333}, {"fusion_lat": 0.0, "name": "c2d3502701f4e5fa658fe8d8d477efe1", "is_disabled": 0, "rental_uris": {"android": "https://dc.lft.to/lastmile_qr_scan", "ios": "https://dc.lft.to/lastmile_qr_scan"}, "fusion_lon": 0.0, "lat": 38.88744666666667, "bike_id": "c2d3502701f4e5fa658fe8d8d477efe1", "type": "electric_scooter", "is_reserved": 0, "lon": -77.0315945}, {"fusion_lat": 0.0, "name": "35a9c932c604ab5361e59c33e92fcdd8", "is_disabled": 0, "rental_uris": {"android": "https://dc.lft.to/lastmile_qr_scan", "ios": "https://dc.lft.to/lastmile_qr_scan"}, "fusion_lon": 0.0, "lat": 38.89731483333333, "bike_id": "35a9c932c604ab5361e59c33e92fcdd8", "type": "electric_scooter", "is_reserved": 0, "lon": -76.94702383333333}, {"fusion_lat": 0.0, "name": "804e8eea35ec90749a19dc768d405a13", "is_disabled": 0, "rental_uris": {"android": "https://dc.lft.to/lastmile_qr_scan", "ios": "https://dc.lft.to/lastmile_qr_scan"}, "fusion_lon": 0.0, "lat": 38.855643, "bike_id": "804e8eea35ec90749a19dc768d405a13", "type": "electric_bike", "is_reserved": 0, "lon": -77.1131545}, {"fusion_lat": 0.0, "name": "f4fb834f52c7064af5fe9cb691fb7163", "is_disabled": 0, "rental_uris": {"android": "https://dc.lft.to/lastmile_qr_scan", "ios": "https://dc.lft.to/lastmile_qr_scan"}, "fusion_lon": 0.0, "lat": 38.90450833333333, "bike_id": "f4fb834f52c7064af5fe9cb691fb7163", "type": "electric_bike", "is_reserved": 0, "lon": -76.9742565}, {"fusion_lat": 0.0, "name": "7a35a3a0c27c56118bcdb9612f2f5b8a", "is_disabled": 0, "rental_uris": {"android": "https://dc.lft.to/lastmile_qr_scan", "ios": "https://dc.lft.to/lastmile_qr_scan"}, "fusion_lon": 0.0, "lat": 38.96071583333333, "bike_id": "7a35a3a0c27c56118bcdb9612f2f5b8a", "type": "electric_scooter", "is_reserved": 0, "lon": -77.00098383333334}, {"fusion_lat": 0.0, "name": "9f83608f126d31726b311dd0915467fb", "is_disabled": 0, "rental_uris": {"android": "https://dc.lft.to/lastmile_qr_scan", "ios": "https://dc.lft.to/lastmile_qr_scan"}, "fusion_lon": 0.0, "lat": 38.90500216666667, "bike_id": "9f83608f126d31726b311dd0915467fb", "type": "electric_scooter", "is_reserved": 0, "lon": -77.029725}, {"fusion_lat": 0.0, "name": "e015cf974c61e4558be6c43d410c3005", "is_disabled": 0, "rental_uris": {"android": "https://dc.lft.to/lastmile_qr_scan", "ios": "https://dc.lft.to/lastmile_qr_scan"}, "fusion_lon": 0.0, "lat": 38.910359, "bike_id": "e015cf974c61e4558be6c43d410c3005", "type": "electric_scooter", "is_reserved": 0, "lon": -77.01287566666667}, {"fusion_lat": 0.0, "name": "85e6dd47d7de64cd35cb32854b47054b", "is_disabled": 0, "rental_uris": {"android": "https://dc.lft.to/lastmile_qr_scan", "ios": "https://dc.lft.to/lastmile_qr_scan"}, "fusion_lon": 0.0, "lat": 38.913639333333336, "bike_id": "85e6dd47d7de64cd35cb32854b47054b", "type": "electric_bike", "is_reserved": 0, "lon": -77.01630516666667}, {"fusion_lat": 0.0, "name": "d78fe9e274283558a317385681047cf9", "is_disabled": 0, "rental_uris": {"android": "https://dc.lft.to/lastmile_qr_scan", "ios": "https://dc.lft.to/lastmile_qr_scan"}, "fusion_lon": 0.0, "lat": 38.896313666666664, "bike_id": "d78fe9e274283558a317385681047cf9", "type": "electric_scooter", "is_reserved": 0, "lon": -77.03214033333333}, {"fusion_lat": 0.0, "name": "e22ec5a1500161e1d4d5bc62c5e13d75", "is_disabled": 0, "rental_uris": {"android": "https://dc.lft.to/lastmile_qr_scan", "ios": "https://dc.lft.to/lastmile_qr_scan"}, "fusion_lon": 0.0, "lat": 38.8922135, "bike_id": "e22ec5a1500161e1d4d5bc62c5e13d75", "type": "electric_scooter", "is_reserved": 0, "lon": -77.0437615}, {"fusion_lat": 0.0, "name": "32b286a4d2c4791206a2fd8ddd82cb04", "is_disabled": 0, "rental_uris": {"android": "https://dc.lft.to/lastmile_qr_scan", "ios": "https://dc.lft.to/lastmile_qr_scan"}, "fusion_lon": 0.0, "lat": 38.919246666666666, "bike_id": "32b286a4d2c4791206a2fd8ddd82cb04", "type": "electric_scooter", "is_reserved": 0, "lon": -77.03265166666667}, {"fusion_lat": 0.0, "name": "a132d863b353a30161f982cda64079da", "is_disabled": 0, "rental_uris": {"android": "https://dc.lft.to/lastmile_qr_scan", "ios": "https://dc.lft.to/lastmile_qr_scan"}, "fusion_lon": 0.0, "lat": 38.931145, "bike_id": "a132d863b353a30161f982cda64079da", "type": "electric_scooter", "is_reserved": 0, "lon": -77.03636416666667}, {"fusion_lat": 0.0, "name": "76f3bbe45fda2664fb3fea4acf563391", "is_disabled": 0, "rental_uris": {"android": "https://dc.lft.to/lastmile_qr_scan", "ios": "https://dc.lft.to/lastmile_qr_scan"}, "fusion_lon": 0.0, "lat": 38.894761333333335, "bike_id": "76f3bbe45fda2664fb3fea4acf563391", "type": "electric_scooter", "is_reserved": 0, "lon": -77.0103275}, {"fusion_lat": 0.0, "name": "4e1364a6668906cb7f7b0812cd43891d", "is_disabled": 0, "rental_uris": {"android": "https://dc.lft.to/lastmile_qr_scan", "ios": "https://dc.lft.to/lastmile_qr_scan"}, "fusion_lon": 0.0, "lat": 38.91455466666667, "bike_id": "4e1364a6668906cb7f7b0812cd43891d", "type": "electric_scooter", "is_reserved": 0, "lon": -77.0128005}, {"fusion_lat": 0.0, "name": "82e8e6dec7feead07c082d4fd01828f4", "is_disabled": 0, "rental_uris": {"android": "https://dc.lft.to/lastmile_qr_scan", "ios": "https://dc.lft.to/lastmile_qr_scan"}, "fusion_lon": 0.0, "lat": 38.93528966666667, "bike_id": "82e8e6dec7feead07c082d4fd01828f4", "type": "electric_scooter", "is_reserved": 0, "lon": -77.03074683333334}, {"fusion_lat": 0.0, "name": "30756c0af1e5d8d83633e22a94343766", "is_disabled": 0, "rental_uris": {"android": "https://dc.lft.to/lastmile_qr_scan", "ios": "https://dc.lft.to/lastmile_qr_scan"}, "fusion_lon": 0.0, "lat": 38.9357815, "bike_id": "30756c0af1e5d8d83633e22a94343766", "type": "electric_scooter", "is_reserved": 0, "lon": -77.01924616666666}, {"fusion_lat": 0.0, "name": "d6fad87b6ce0e1829298fe7433a7adc0", "is_disabled": 0, "rental_uris": {"android": "https://dc.lft.to/lastmile_qr_scan", "ios": "https://dc.lft.to/lastmile_qr_scan"}, "fusion_lon": 0.0, "lat": 38.916910333333334, "bike_id": "d6fad87b6ce0e1829298fe7433a7adc0", "type": "electric_scooter", "is_reserved": 0, "lon": -77.0403845}, {"fusion_lat": 0.0, "name": "7b85498be35da11cd181e4edd2bd1923", "is_disabled": 0, "rental_uris": {"android": "https://dc.lft.to/lastmile_qr_scan", "ios": "https://dc.lft.to/lastmile_qr_scan"}, "fusion_lon": 0.0, "lat": 38.92905183333333, "bike_id": "7b85498be35da11cd181e4edd2bd1923", "type": "electric_scooter", "is_reserved": 0, "lon": -77.037434}, {"fusion_lat": 0.0, "name": "ac094b226cc8cf6b4ee1dcb47f3af810", "is_disabled": 0, "rental_uris": {"android": "https://dc.lft.to/lastmile_qr_scan", "ios": "https://dc.lft.to/lastmile_qr_scan"}, "fusion_lon": 0.0, "lat": 38.89300566666667, "bike_id": "ac094b226cc8cf6b4ee1dcb47f3af810", "type": "electric_scooter", "is_reserved": 0, "lon": -77.04659066666666}, {"fusion_lat": 0.0, "name": "822c726525965997da25c80523e6ccfe", "is_disabled": 0, "rental_uris": {"android": "https://dc.lft.to/lastmile_qr_scan", "ios": "https://dc.lft.to/lastmile_qr_scan"}, "fusion_lon": 0.0, "lat": 38.89817716666667, "bike_id": "822c726525965997da25c80523e6ccfe", "type": "electric_scooter", "is_reserved": 0, "lon": -77.02708666666666}, {"fusion_lat": 0.0, "name": "a426dcd12e5ee9999213921712a4d6e2", "is_disabled": 0, "rental_uris": {"android": "https://dc.lft.to/lastmile_qr_scan", "ios": "https://dc.lft.to/lastmile_qr_scan"}, "fusion_lon": 0.0, "lat": 38.911763, "bike_id": "a426dcd12e5ee9999213921712a4d6e2", "type": "electric_scooter", "is_reserved": 0, "lon": -77.03662233333333}, {"fusion_lat": 0.0, "name": "1e7ce1f3c0b763186d47d8ccdcfec5dc", "is_disabled": 0, "rental_uris": {"android": "https://dc.lft.to/lastmile_qr_scan", "ios": "https://dc.lft.to/lastmile_qr_scan"}, "fusion_lon": 0.0, "lat": 38.932377, "bike_id": "1e7ce1f3c0b763186d47d8ccdcfec5dc", "type": "electric_bike", "is_reserved": 0, "lon": -76.974216}, {"fusion_lat": 0.0, "name": "73d1fdaa5472604a1050cb58b18bd99e", "is_disabled": 0, "rental_uris": {"android": "https://dc.lft.to/lastmile_qr_scan", "ios": "https://dc.lft.to/lastmile_qr_scan"}, "fusion_lon": 0.0, "lat": 38.951170166666664, "bike_id": "73d1fdaa5472604a1050cb58b18bd99e", "type": "electric_scooter", "is_reserved": 0, "lon": -77.05862483333334}, {"fusion_lat": 0.0, "name": "6a4720cfbb81c5601dcadf5c27b8261e", "is_disabled": 0, "rental_uris": {"android": "https://dc.lft.to/lastmile_qr_scan", "ios": "https://dc.lft.to/lastmile_qr_scan"}, "fusion_lon": 0.0, "lat": 38.917088166666666, "bike_id": "6a4720cfbb81c5601dcadf5c27b8261e", "type": "electric_scooter", "is_reserved": 0, "lon": -77.03716533333333}, {"fusion_lat": 0.0, "name": "efd6b448bc6236d064c35a1572c0bb29", "is_disabled": 0, "rental_uris": {"android": "https://dc.lft.to/lastmile_qr_scan", "ios": "https://dc.lft.to/lastmile_qr_scan"}, "fusion_lon": 0.0, "lat": 38.95472683333333, "bike_id": "efd6b448bc6236d064c35a1572c0bb29", "type": "electric_scooter", "is_reserved": 0, "lon": -77.07776683333333}, {"fusion_lat": 0.0, "name": "5d5764646cae8fa1c2b95050c6d2069e", "is_disabled": 0, "rental_uris": {"android": "https://dc.lft.to/lastmile_qr_scan", "ios": "https://dc.lft.to/lastmile_qr_scan"}, "fusion_lon": 0.0, "lat": 38.9085685, "bike_id": "5d5764646cae8fa1c2b95050c6d2069e", "type": "electric_scooter", "is_reserved": 0, "lon": -77.02722016666667}, {"fusion_lat": 0.0, "name": "94c1785d641de06437b5409e7286596c", "is_disabled": 0, "rental_uris": {"android": "https://dc.lft.to/lastmile_qr_scan", "ios": "https://dc.lft.to/lastmile_qr_scan"}, "fusion_lon": 0.0, "lat": 38.89224333333333, "bike_id": "94c1785d641de06437b5409e7286596c", "type": "electric_scooter", "is_reserved": 0, "lon": -77.02774816666667}, {"fusion_lat": 0.0, "name": "93a6f76218111bd08e7280d8474e6ff9", "is_disabled": 0, "rental_uris": {"android": "https://dc.lft.to/lastmile_qr_scan", "ios": "https://dc.lft.to/lastmile_qr_scan"}, "fusion_lon": 0.0, "lat": 38.86627416666666, "bike_id": "93a6f76218111bd08e7280d8474e6ff9", "type": "electric_scooter", "is_reserved": 0, "lon": -76.98715916666667}, {"fusion_lat": 0.0, "name": "7fda80181126933083a24087fcd9f6d6", "is_disabled": 0, "rental_uris": {"android": "https://dc.lft.to/lastmile_qr_scan", "ios": "https://dc.lft.to/lastmile_qr_scan"}, "fusion_lon": 0.0, "lat": 38.87454116666667, "bike_id": "7fda80181126933083a24087fcd9f6d6", "type": "electric_bike", "is_reserved": 0, "lon": -76.99934766666667}, {"fusion_lat": 0.0, "name": "32641adb57b9edfe0875fb24d908a80a", "is_disabled": 0, "rental_uris": {"android": "https://dc.lft.to/lastmile_qr_scan", "ios": "https://dc.lft.to/lastmile_qr_scan"}, "fusion_lon": 0.0, "lat": 38.90302583333333, "bike_id": "32641adb57b9edfe0875fb24d908a80a", "type": "electric_scooter", "is_reserved": 0, "lon": -76.99252383333334}, {"fusion_lat": 0.0, "name": "94cde332b0f625f5f605e74470d8b490", "is_disabled": 0, "rental_uris": {"android": "https://dc.lft.to/lastmile_qr_scan", "ios": "https://dc.lft.to/lastmile_qr_scan"}, "fusion_lon": 0.0, "lat": 38.89944766666667, "bike_id": "94cde332b0f625f5f605e74470d8b490", "type": "electric_scooter", "is_reserved": 0, "lon": -77.05353933333333}, {"fusion_lat": 0.0, "name": "cca85458ade2c74401dc5bc06c78e2a5", "is_disabled": 0, "rental_uris": {"android": "https://dc.lft.to/lastmile_qr_scan", "ios": "https://dc.lft.to/lastmile_qr_scan"}, "fusion_lon": 0.0, "lat": 38.88810983333333, "bike_id": "cca85458ade2c74401dc5bc06c78e2a5", "type": "electric_scooter", "is_reserved": 0, "lon": -76.98358233333333}, {"fusion_lat": 0.0, "name": "c2ce877e00af15335b4081bfe15df294", "is_disabled": 0, "rental_uris": {"android": "https://dc.lft.to/lastmile_qr_scan", "ios": "https://dc.lft.to/lastmile_qr_scan"}, "fusion_lon": 0.0, "lat": 38.8874555, "bike_id": "c2ce877e00af15335b4081bfe15df294", "type": "electric_scooter", "is_reserved": 0, "lon": -76.98359516666666}, {"fusion_lat": 0.0, "name": "f449739358282f14f7513003e028e9f8", "is_disabled": 0, "rental_uris": {"android": "https://dc.lft.to/lastmile_qr_scan", "ios": "https://dc.lft.to/lastmile_qr_scan"}, "fusion_lon": 0.0, "lat": 38.9268875, "bike_id": "f449739358282f14f7513003e028e9f8", "type": "electric_scooter", "is_reserved": 0, "lon": -77.03141533333333}, {"fusion_lat": 0.0, "name": "79857d094ac4835b7268535573bc8c5f", "is_disabled": 0, "rental_uris": {"android": "https://dc.lft.to/lastmile_qr_scan", "ios": "https://dc.lft.to/lastmile_qr_scan"}, "fusion_lon": 0.0, "lat": 38.9197325, "bike_id": "79857d094ac4835b7268535573bc8c5f", "type": "electric_scooter", "is_reserved": 0, "lon": -77.0239535}, {"fusion_lat": 0.0, "name": "e6718917ae5102e7946966a62e750d0f", "is_disabled": 0, "rental_uris": {"android": "https://dc.lft.to/lastmile_qr_scan", "ios": "https://dc.lft.to/lastmile_qr_scan"}, "fusion_lon": 0.0, "lat": 38.9036875, "bike_id": "e6718917ae5102e7946966a62e750d0f", "type": "electric_scooter", "is_reserved": 0, "lon": -77.04492383333333}, {"fusion_lat": 0.0, "name": "564831159661abedfab430d4588ec07e", "is_disabled": 0, "rental_uris": {"android": "https://dc.lft.to/lastmile_qr_scan", "ios": "https://dc.lft.to/lastmile_qr_scan"}, "fusion_lon": 0.0, "lat": 38.913481166666664, "bike_id": "564831159661abedfab430d4588ec07e", "type": "electric_bike", "is_reserved": 0, "lon": -76.98902833333334}, {"fusion_lat": 0.0, "name": "e1635b2b5d7f031e06f4794b0d2ffee8", "is_disabled": 0, "rental_uris": {"android": "https://dc.lft.to/lastmile_qr_scan", "ios": "https://dc.lft.to/lastmile_qr_scan"}, "fusion_lon": 0.0, "lat": 38.941695, "bike_id": "e1635b2b5d7f031e06f4794b0d2ffee8", "type": "electric_scooter", "is_reserved": 0, "lon": -77.0250925}, {"fusion_lat": 0.0, "name": "db531b9a9bdb3a95f557211ce7f1957a", "is_disabled": 0, "rental_uris": {"android": "https://dc.lft.to/lastmile_qr_scan", "ios": "https://dc.lft.to/lastmile_qr_scan"}, "fusion_lon": 0.0, "lat": 38.880460166666666, "bike_id": "db531b9a9bdb3a95f557211ce7f1957a", "type": "electric_bike", "is_reserved": 0, "lon": -77.02478566666667}, {"fusion_lat": 0.0, "name": "7243100ddb8fe52a2ab55382bc961239", "is_disabled": 0, "rental_uris": {"android": "https://dc.lft.to/lastmile_qr_scan", "ios": "https://dc.lft.to/lastmile_qr_scan"}, "fusion_lon": 0.0, "lat": 38.9082555, "bike_id": "7243100ddb8fe52a2ab55382bc961239", "type": "electric_scooter", "is_reserved": 0, "lon": -77.043432}, {"fusion_lat": 0.0, "name": "6e738d28b738c47bb4b80120887c565d", "is_disabled": 0, "rental_uris": {"android": "https://dc.lft.to/lastmile_qr_scan", "ios": "https://dc.lft.to/lastmile_qr_scan"}, "fusion_lon": 0.0, "lat": 38.9008275, "bike_id": "6e738d28b738c47bb4b80120887c565d", "type": "electric_scooter", "is_reserved": 0, "lon": -77.05838733333333}, {"fusion_lat": 0.0, "name": "cfd3c2832cded58a4b813bfb02910c25", "is_disabled": 0, "rental_uris": {"android": "https://dc.lft.to/lastmile_qr_scan", "ios": "https://dc.lft.to/lastmile_qr_scan"}, "fusion_lon": 0.0, "lat": 38.935112, "bike_id": "cfd3c2832cded58a4b813bfb02910c25", "type": "electric_scooter", "is_reserved": 0, "lon": -77.024097}, {"fusion_lat": 0.0, "name": "b136337b506e5fac92f5555fc03d2eb5", "is_disabled": 0, "rental_uris": {"android": "https://dc.lft.to/lastmile_qr_scan", "ios": "https://dc.lft.to/lastmile_qr_scan"}, "fusion_lon": 0.0, "lat": 38.91625033333333, "bike_id": "b136337b506e5fac92f5555fc03d2eb5", "type": "electric_scooter", "is_reserved": 0, "lon": -77.03855516666667}, {"fusion_lat": 0.0, "name": "9e5313d6c0c0256fb5787db0d9c80741", "is_disabled": 0, "rental_uris": {"android": "https://dc.lft.to/lastmile_qr_scan", "ios": "https://dc.lft.to/lastmile_qr_scan"}, "fusion_lon": 0.0, "lat": 38.909717, "bike_id": "9e5313d6c0c0256fb5787db0d9c80741", "type": "electric_scooter", "is_reserved": 0, "lon": -77.03247616666667}, {"fusion_lat": 0.0, "name": "96c24bde102d13ff0640e5bb393caacb", "is_disabled": 0, "rental_uris": {"android": "https://dc.lft.to/lastmile_qr_scan", "ios": "https://dc.lft.to/lastmile_qr_scan"}, "fusion_lon": 0.0, "lat": 38.9341395, "bike_id": "96c24bde102d13ff0640e5bb393caacb", "type": "electric_scooter", "is_reserved": 0, "lon": -77.04155166666666}, {"fusion_lat": 0.0, "name": "a878538223cd6ec4c1dc94f6aca77b70", "is_disabled": 0, "rental_uris": {"android": "https://dc.lft.to/lastmile_qr_scan", "ios": "https://dc.lft.to/lastmile_qr_scan"}, "fusion_lon": 0.0, "lat": 38.90672883333333, "bike_id": "a878538223cd6ec4c1dc94f6aca77b70", "type": "electric_scooter", "is_reserved": 0, "lon": -77.07009933333333}, {"fusion_lat": 0.0, "name": "f830e222ec57c2cb2ea8baff751d7fff", "is_disabled": 0, "rental_uris": {"android": "https://dc.lft.to/lastmile_qr_scan", "ios": "https://dc.lft.to/lastmile_qr_scan"}, "fusion_lon": 0.0, "lat": 38.92584633333333, "bike_id": "f830e222ec57c2cb2ea8baff751d7fff", "type": "electric_scooter", "is_reserved": 0, "lon": -77.03743883333334}, {"fusion_lat": 0.0, "name": "34f8de60d14150de11e196958240d2f8", "is_disabled": 0, "rental_uris": {"android": "https://dc.lft.to/lastmile_qr_scan", "ios": "https://dc.lft.to/lastmile_qr_scan"}, "fusion_lon": 0.0, "lat": 38.897308333333335, "bike_id": "34f8de60d14150de11e196958240d2f8", "type": "electric_scooter", "is_reserved": 0, "lon": -77.021545}, {"fusion_lat": 0.0, "name": "e51edae661b6efd7c5f691be6dcf0a55", "is_disabled": 0, "rental_uris": {"android": "https://dc.lft.to/lastmile_qr_scan", "ios": "https://dc.lft.to/lastmile_qr_scan"}, "fusion_lon": 0.0, "lat": 38.899152, "bike_id": "e51edae661b6efd7c5f691be6dcf0a55", "type": "electric_scooter", "is_reserved": 0, "lon": -76.93344233333333}, {"fusion_lat": 0.0, "name": "7361b504bcb814641a6b93c367a8dd0b", "is_disabled": 0, "rental_uris": {"android": "https://dc.lft.to/lastmile_qr_scan", "ios": "https://dc.lft.to/lastmile_qr_scan"}, "fusion_lon": 0.0, "lat": 38.899747, "bike_id": "7361b504bcb814641a6b93c367a8dd0b", "type": "electric_scooter", "is_reserved": 0, "lon": -77.04051366666667}, {"fusion_lat": 0.0, "name": "d1f9b732ce916b3b80d5f241651053da", "is_disabled": 0, "rental_uris": {"android": "https://dc.lft.to/lastmile_qr_scan", "ios": "https://dc.lft.to/lastmile_qr_scan"}, "fusion_lon": 0.0, "lat": 38.909738, "bike_id": "d1f9b732ce916b3b80d5f241651053da", "type": "electric_scooter", "is_reserved": 0, "lon": -77.03440816666667}, {"fusion_lat": 0.0, "name": "b93ce3d8e11ea44ce81176c7d136961b", "is_disabled": 0, "rental_uris": {"android": "https://dc.lft.to/lastmile_qr_scan", "ios": "https://dc.lft.to/lastmile_qr_scan"}, "fusion_lon": 0.0, "lat": 38.929394, "bike_id": "b93ce3d8e11ea44ce81176c7d136961b", "type": "electric_scooter", "is_reserved": 0, "lon": -77.02344366666667}, {"fusion_lat": 0.0, "name": "76a7a929c65d2a0b33cd8256005904d2", "is_disabled": 0, "rental_uris": {"android": "https://dc.lft.to/lastmile_qr_scan", "ios": "https://dc.lft.to/lastmile_qr_scan"}, "fusion_lon": 0.0, "lat": 38.923192666666665, "bike_id": "76a7a929c65d2a0b33cd8256005904d2", "type": "electric_scooter", "is_reserved": 0, "lon": -77.04374083333333}, {"fusion_lat": 0.0, "name": "22c1a203773fa93623c203dd49384c3e", "is_disabled": 0, "rental_uris": {"android": "https://dc.lft.to/lastmile_qr_scan", "ios": "https://dc.lft.to/lastmile_qr_scan"}, "fusion_lon": 0.0, "lat": 38.89553183333334, "bike_id": "22c1a203773fa93623c203dd49384c3e", "type": "electric_scooter", "is_reserved": 0, "lon": -76.99838}, {"fusion_lat": 0.0, "name": "4548ca6d830ddfe129433762df1ed974", "is_disabled": 0, "rental_uris": {"android": "https://dc.lft.to/lastmile_qr_scan", "ios": "https://dc.lft.to/lastmile_qr_scan"}, "fusion_lon": 0.0, "lat": 38.9192095, "bike_id": "4548ca6d830ddfe129433762df1ed974", "type": "electric_scooter", "is_reserved": 0, "lon": -77.0145225}, {"fusion_lat": 0.0, "name": "42af34fd8a0d0fc780f225fab2cb09f9", "is_disabled": 0, "rental_uris": {"android": "https://dc.lft.to/lastmile_qr_scan", "ios": "https://dc.lft.to/lastmile_qr_scan"}, "fusion_lon": 0.0, "lat": 38.8450875, "bike_id": "42af34fd8a0d0fc780f225fab2cb09f9", "type": "electric_bike", "is_reserved": 0, "lon": -76.99355016666667}, {"fusion_lat": 0.0, "name": "9175db5fceec86499b11b2815558a500", "is_disabled": 0, "rental_uris": {"android": "https://dc.lft.to/lastmile_qr_scan", "ios": "https://dc.lft.to/lastmile_qr_scan"}, "fusion_lon": 0.0, "lat": 38.90494066666667, "bike_id": "9175db5fceec86499b11b2815558a500", "type": "electric_scooter", "is_reserved": 0, "lon": -77.0258715}, {"fusion_lat": 0.0, "name": "f94452afb4383bbef5d55402c8d64baa", "is_disabled": 0, "rental_uris": {"android": "https://dc.lft.to/lastmile_qr_scan", "ios": "https://dc.lft.to/lastmile_qr_scan"}, "fusion_lon": 0.0, "lat": 38.9095915, "bike_id": "f94452afb4383bbef5d55402c8d64baa", "type": "electric_scooter", "is_reserved": 0, "lon": -77.03945166666666}, {"fusion_lat": 0.0, "name": "a346ce8a3d2e1cae97321d08c6de737e", "is_disabled": 0, "rental_uris": {"android": "https://dc.lft.to/lastmile_qr_scan", "ios": "https://dc.lft.to/lastmile_qr_scan"}, "fusion_lon": 0.0, "lat": 38.932238166666664, "bike_id": "a346ce8a3d2e1cae97321d08c6de737e", "type": "electric_scooter", "is_reserved": 0, "lon": -77.04407283333333}, {"fusion_lat": 0.0, "name": "33f8040f57406c08754eaf8f24457ec0", "is_disabled": 0, "rental_uris": {"android": "https://dc.lft.to/lastmile_qr_scan", "ios": "https://dc.lft.to/lastmile_qr_scan"}, "fusion_lon": 0.0, "lat": 38.91683583333333, "bike_id": "33f8040f57406c08754eaf8f24457ec0", "type": "electric_scooter", "is_reserved": 0, "lon": -77.02952916666666}, {"fusion_lat": 0.0, "name": "d20e39a17008b3cf623f051eac03ca88", "is_disabled": 0, "rental_uris": {"android": "https://dc.lft.to/lastmile_qr_scan", "ios": "https://dc.lft.to/lastmile_qr_scan"}, "fusion_lon": 0.0, "lat": 38.91914833333333, "bike_id": "d20e39a17008b3cf623f051eac03ca88", "type": "electric_scooter", "is_reserved": 0, "lon": -77.02613933333333}, {"fusion_lat": 0.0, "name": "64b9de0aa711d6c8f4d49631509a1cd8", "is_disabled": 0, "rental_uris": {"android": "https://dc.lft.to/lastmile_qr_scan", "ios": "https://dc.lft.to/lastmile_qr_scan"}, "fusion_lon": 0.0, "lat": 38.913841833333336, "bike_id": "64b9de0aa711d6c8f4d49631509a1cd8", "type": "electric_scooter", "is_reserved": 0, "lon": -77.01801983333333}, {"fusion_lat": 0.0, "name": "eec2af6db3c41aa8f457509987f051fc", "is_disabled": 0, "rental_uris": {"android": "https://dc.lft.to/lastmile_qr_scan", "ios": "https://dc.lft.to/lastmile_qr_scan"}, "fusion_lon": 0.0, "lat": 38.90683933333333, "bike_id": "eec2af6db3c41aa8f457509987f051fc", "type": "electric_scooter", "is_reserved": 0, "lon": -77.037339}, {"fusion_lat": 0.0, "name": "cce1d1e61b402747d7b219b8797693df", "is_disabled": 0, "rental_uris": {"android": "https://dc.lft.to/lastmile_qr_scan", "ios": "https://dc.lft.to/lastmile_qr_scan"}, "fusion_lon": 0.0, "lat": 38.929789166666666, "bike_id": "cce1d1e61b402747d7b219b8797693df", "type": "electric_scooter", "is_reserved": 0, "lon": -77.04193366666667}, {"fusion_lat": 0.0, "name": "95a410ad17abba53200f41fd453b0214", "is_disabled": 0, "rental_uris": {"android": "https://dc.lft.to/lastmile_qr_scan", "ios": "https://dc.lft.to/lastmile_qr_scan"}, "fusion_lon": 0.0, "lat": 38.92463133333333, "bike_id": "95a410ad17abba53200f41fd453b0214", "type": "electric_scooter", "is_reserved": 0, "lon": -77.08028083333333}, {"fusion_lat": 0.0, "name": "a036fcdbc0d1116089d5081233970544", "is_disabled": 0, "rental_uris": {"android": "https://dc.lft.to/lastmile_qr_scan", "ios": "https://dc.lft.to/lastmile_qr_scan"}, "fusion_lon": 0.0, "lat": 38.907327333333335, "bike_id": "a036fcdbc0d1116089d5081233970544", "type": "electric_scooter", "is_reserved": 0, "lon": -77.01092466666667}, {"fusion_lat": 0.0, "name": "e2d9c09f8733851d044cc0ec64a37c10", "is_disabled": 0, "rental_uris": {"android": "https://dc.lft.to/lastmile_qr_scan", "ios": "https://dc.lft.to/lastmile_qr_scan"}, "fusion_lon": 0.0, "lat": 38.89257683333334, "bike_id": "e2d9c09f8733851d044cc0ec64a37c10", "type": "electric_bike", "is_reserved": 0, "lon": -76.95115066666666}, {"fusion_lat": 0.0, "name": "48f82733539119e896fa2c11fcb598e5", "is_disabled": 0, "rental_uris": {"android": "https://dc.lft.to/lastmile_qr_scan", "ios": "https://dc.lft.to/lastmile_qr_scan"}, "fusion_lon": 0.0, "lat": 38.87928683333333, "bike_id": "48f82733539119e896fa2c11fcb598e5", "type": "electric_scooter", "is_reserved": 0, "lon": -77.004179}, {"fusion_lat": 0.0, "name": "b6fd2f75a4f5699916597c2c50ab0ee1", "is_disabled": 0, "rental_uris": {"android": "https://dc.lft.to/lastmile_qr_scan", "ios": "https://dc.lft.to/lastmile_qr_scan"}, "fusion_lon": 0.0, "lat": 38.905288, "bike_id": "b6fd2f75a4f5699916597c2c50ab0ee1", "type": "electric_scooter", "is_reserved": 0, "lon": -77.0610115}, {"fusion_lat": 0.0, "name": "11d5136de5b7afe1a1da52a59a1f6548", "is_disabled": 0, "rental_uris": {"android": "https://dc.lft.to/lastmile_qr_scan", "ios": "https://dc.lft.to/lastmile_qr_scan"}, "fusion_lon": 0.0, "lat": 38.89225866666666, "bike_id": "11d5136de5b7afe1a1da52a59a1f6548", "type": "electric_scooter", "is_reserved": 0, "lon": -77.045008}, {"fusion_lat": 0.0, "name": "319c4f3db6f7bee666aa16dcbb5366cf", "is_disabled": 0, "rental_uris": {"android": "https://dc.lft.to/lastmile_qr_scan", "ios": "https://dc.lft.to/lastmile_qr_scan"}, "fusion_lon": 0.0, "lat": 38.95247883333333, "bike_id": "319c4f3db6f7bee666aa16dcbb5366cf", "type": "electric_scooter", "is_reserved": 0, "lon": -77.0237795}, {"fusion_lat": 0.0, "name": "e1603eec938d969d1f1d16f0f4b735d4", "is_disabled": 0, "rental_uris": {"android": "https://dc.lft.to/lastmile_qr_scan", "ios": "https://dc.lft.to/lastmile_qr_scan"}, "fusion_lon": 0.0, "lat": 38.88505333333333, "bike_id": "e1603eec938d969d1f1d16f0f4b735d4", "type": "electric_scooter", "is_reserved": 0, "lon": -76.99752883333333}, {"fusion_lat": 0.0, "name": "8fc8f0ca88a22fdde3c7d2c65218ad7d", "is_disabled": 0, "rental_uris": {"android": "https://dc.lft.to/lastmile_qr_scan", "ios": "https://dc.lft.to/lastmile_qr_scan"}, "fusion_lon": 0.0, "lat": 38.92680416666666, "bike_id": "8fc8f0ca88a22fdde3c7d2c65218ad7d", "type": "electric_scooter", "is_reserved": 0, "lon": -77.03092166666667}, {"fusion_lat": 0.0, "name": "3022ab6f03eac239a68473d7a6b8af5b", "is_disabled": 0, "rental_uris": {"android": "https://dc.lft.to/lastmile_qr_scan", "ios": "https://dc.lft.to/lastmile_qr_scan"}, "fusion_lon": 0.0, "lat": 38.931856833333335, "bike_id": "3022ab6f03eac239a68473d7a6b8af5b", "type": "electric_scooter", "is_reserved": 0, "lon": -77.019651}, {"fusion_lat": 0.0, "name": "3df2a3ad392f44203e30edec9355c91e", "is_disabled": 0, "rental_uris": {"android": "https://dc.lft.to/lastmile_qr_scan", "ios": "https://dc.lft.to/lastmile_qr_scan"}, "fusion_lon": 0.0, "lat": 38.89179716666666, "bike_id": "3df2a3ad392f44203e30edec9355c91e", "type": "electric_scooter", "is_reserved": 0, "lon": -77.02175116666666}, {"fusion_lat": 0.0, "name": "8d0d2b7af168e6c37925e99581b7b0f1", "is_disabled": 0, "rental_uris": {"android": "https://dc.lft.to/lastmile_qr_scan", "ios": "https://dc.lft.to/lastmile_qr_scan"}, "fusion_lon": 0.0, "lat": 38.8874425, "bike_id": "8d0d2b7af168e6c37925e99581b7b0f1", "type": "electric_scooter", "is_reserved": 0, "lon": -76.996251}, {"fusion_lat": 0.0, "name": "12a44a5dceb1660e2b99e8c3676323a4", "is_disabled": 0, "rental_uris": {"android": "https://dc.lft.to/lastmile_qr_scan", "ios": "https://dc.lft.to/lastmile_qr_scan"}, "fusion_lon": 0.0, "lat": 38.924285, "bike_id": "12a44a5dceb1660e2b99e8c3676323a4", "type": "electric_scooter", "is_reserved": 0, "lon": -76.98595933333333}, {"fusion_lat": 0.0, "name": "f4284203e00951ac446a18c8355df20a", "is_disabled": 0, "rental_uris": {"android": "https://dc.lft.to/lastmile_qr_scan", "ios": "https://dc.lft.to/lastmile_qr_scan"}, "fusion_lon": 0.0, "lat": 38.888718833333336, "bike_id": "f4284203e00951ac446a18c8355df20a", "type": "electric_scooter", "is_reserved": 0, "lon": -76.98454733333334}, {"fusion_lat": 0.0, "name": "df1d74636d77a93da02dcac94808b648", "is_disabled": 0, "rental_uris": {"android": "https://dc.lft.to/lastmile_qr_scan", "ios": "https://dc.lft.to/lastmile_qr_scan"}, "fusion_lon": 0.0, "lat": 38.89489183333333, "bike_id": "df1d74636d77a93da02dcac94808b648", "type": "electric_scooter", "is_reserved": 0, "lon": -76.99741133333333}, {"fusion_lat": 0.0, "name": "d7293ee85e4a2157ab6984f34caeb4a1", "is_disabled": 0, "rental_uris": {"android": "https://dc.lft.to/lastmile_qr_scan", "ios": "https://dc.lft.to/lastmile_qr_scan"}, "fusion_lon": 0.0, "lat": 38.90519883333333, "bike_id": "d7293ee85e4a2157ab6984f34caeb4a1", "type": "electric_scooter", "is_reserved": 0, "lon": -77.0171715}, {"fusion_lat": 0.0, "name": "9fd02e923bcf4e408c1e6ca68df96561", "is_disabled": 0, "rental_uris": {"android": "https://dc.lft.to/lastmile_qr_scan", "ios": "https://dc.lft.to/lastmile_qr_scan"}, "fusion_lon": 0.0, "lat": 38.90129983333333, "bike_id": "9fd02e923bcf4e408c1e6ca68df96561", "type": "electric_scooter", "is_reserved": 0, "lon": -77.051529}, {"fusion_lat": 0.0, "name": "831fd6c3a5aa4e488ace4bb2fd8f819d", "is_disabled": 0, "rental_uris": {"android": "https://dc.lft.to/lastmile_qr_scan", "ios": "https://dc.lft.to/lastmile_qr_scan"}, "fusion_lon": 0.0, "lat": 38.9019225, "bike_id": "831fd6c3a5aa4e488ace4bb2fd8f819d", "type": "electric_scooter", "is_reserved": 0, "lon": -76.92900683333333}, {"fusion_lat": 0.0, "name": "49cf0694fe7ffba239c76da3a4d83599", "is_disabled": 0, "rental_uris": {"android": "https://dc.lft.to/lastmile_qr_scan", "ios": "https://dc.lft.to/lastmile_qr_scan"}, "fusion_lon": 0.0, "lat": 38.89222783333334, "bike_id": "49cf0694fe7ffba239c76da3a4d83599", "type": "electric_scooter", "is_reserved": 0, "lon": -77.04637716666667}, {"fusion_lat": 0.0, "name": "12aad57e4042c5734d57874065c13ae1", "is_disabled": 0, "rental_uris": {"android": "https://dc.lft.to/lastmile_qr_scan", "ios": "https://dc.lft.to/lastmile_qr_scan"}, "fusion_lon": 0.0, "lat": 38.8918115, "bike_id": "12aad57e4042c5734d57874065c13ae1", "type": "electric_scooter", "is_reserved": 0, "lon": -77.02176733333333}, {"fusion_lat": 0.0, "name": "2f76f2737abe82cf9bbf62fdf90e5060", "is_disabled": 0, "rental_uris": {"android": "https://dc.lft.to/lastmile_qr_scan", "ios": "https://dc.lft.to/lastmile_qr_scan"}, "fusion_lon": 0.0, "lat": 38.90012133333333, "bike_id": "2f76f2737abe82cf9bbf62fdf90e5060", "type": "electric_scooter", "is_reserved": 0, "lon": -76.98861766666667}, {"fusion_lat": 0.0, "name": "dc9b3abc418412581444f75aa463bd68", "is_disabled": 0, "rental_uris": {"android": "https://dc.lft.to/lastmile_qr_scan", "ios": "https://dc.lft.to/lastmile_qr_scan"}, "fusion_lon": 0.0, "lat": 38.802982666666665, "bike_id": "dc9b3abc418412581444f75aa463bd68", "type": "electric_bike", "is_reserved": 0, "lon": -77.0593785}, {"fusion_lat": 0.0, "name": "bc3747676b0931d5ba2ed1ad49b9b4c9", "is_disabled": 0, "rental_uris": {"android": "https://dc.lft.to/lastmile_qr_scan", "ios": "https://dc.lft.to/lastmile_qr_scan"}, "fusion_lon": 0.0, "lat": 38.907416, "bike_id": "bc3747676b0931d5ba2ed1ad49b9b4c9", "type": "electric_scooter", "is_reserved": 0, "lon": -77.00503633333334}, {"fusion_lat": 0.0, "name": "73c67f89ea1911abcbb124cff11b33e1", "is_disabled": 0, "rental_uris": {"android": "https://dc.lft.to/lastmile_qr_scan", "ios": "https://dc.lft.to/lastmile_qr_scan"}, "fusion_lon": 0.0, "lat": 38.90031316666666, "bike_id": "73c67f89ea1911abcbb124cff11b33e1", "type": "electric_scooter", "is_reserved": 0, "lon": -76.98853833333334}, {"fusion_lat": 0.0, "name": "58156e21521885e7b6473c557797313b", "is_disabled": 0, "rental_uris": {"android": "https://dc.lft.to/lastmile_qr_scan", "ios": "https://dc.lft.to/lastmile_qr_scan"}, "fusion_lon": 0.0, "lat": 38.923305166666665, "bike_id": "58156e21521885e7b6473c557797313b", "type": "electric_scooter", "is_reserved": 0, "lon": -77.05618033333333}, {"fusion_lat": 0.0, "name": "989090cbf6d0586fb97c0cb31a5c1271", "is_disabled": 0, "rental_uris": {"android": "https://dc.lft.to/lastmile_qr_scan", "ios": "https://dc.lft.to/lastmile_qr_scan"}, "fusion_lon": 0.0, "lat": 38.92792883333333, "bike_id": "989090cbf6d0586fb97c0cb31a5c1271", "type": "electric_scooter", "is_reserved": 0, "lon": -77.02731433333334}, {"fusion_lat": 0.0, "name": "24ef0eacc0b7c51b8d7a144511dacdbc", "is_disabled": 0, "rental_uris": {"android": "https://dc.lft.to/lastmile_qr_scan", "ios": "https://dc.lft.to/lastmile_qr_scan"}, "fusion_lon": 0.0, "lat": 38.88457833333333, "bike_id": "24ef0eacc0b7c51b8d7a144511dacdbc", "type": "electric_scooter", "is_reserved": 0, "lon": -76.99842566666666}, {"fusion_lat": 0.0, "name": "a53dd89ff45230e152c6d6c6544f7cc5", "is_disabled": 0, "rental_uris": {"android": "https://dc.lft.to/lastmile_qr_scan", "ios": "https://dc.lft.to/lastmile_qr_scan"}, "fusion_lon": 0.0, "lat": 38.900189, "bike_id": "a53dd89ff45230e152c6d6c6544f7cc5", "type": "electric_scooter", "is_reserved": 0, "lon": -77.012165}, {"fusion_lat": 0.0, "name": "645496db4331fa2872dcbd42e2a76df7", "is_disabled": 0, "rental_uris": {"android": "https://dc.lft.to/lastmile_qr_scan", "ios": "https://dc.lft.to/lastmile_qr_scan"}, "fusion_lon": 0.0, "lat": 38.89226683333333, "bike_id": "645496db4331fa2872dcbd42e2a76df7", "type": "electric_scooter", "is_reserved": 0, "lon": -77.04800516666667}, {"fusion_lat": 0.0, "name": "b45c6e7c88f6443fe7862255c858cb8d", "is_disabled": 0, "rental_uris": {"android": "https://dc.lft.to/lastmile_qr_scan", "ios": "https://dc.lft.to/lastmile_qr_scan"}, "fusion_lon": 0.0, "lat": 38.911208, "bike_id": "b45c6e7c88f6443fe7862255c858cb8d", "type": "electric_scooter", "is_reserved": 0, "lon": -77.04219416666666}, {"fusion_lat": 0.0, "name": "cdcad0b9f25c643efffbaf21058eb93f", "is_disabled": 0, "rental_uris": {"android": "https://dc.lft.to/lastmile_qr_scan", "ios": "https://dc.lft.to/lastmile_qr_scan"}, "fusion_lon": 0.0, "lat": 38.961301166666665, "bike_id": "cdcad0b9f25c643efffbaf21058eb93f", "type": "electric_bike", "is_reserved": 0, "lon": -77.03276183333334}, {"fusion_lat": 0.0, "name": "37e3e2601a3cfd30aa9dcac12c67ad43", "is_disabled": 0, "rental_uris": {"android": "https://dc.lft.to/lastmile_qr_scan", "ios": "https://dc.lft.to/lastmile_qr_scan"}, "fusion_lon": 0.0, "lat": 38.903977166666664, "bike_id": "37e3e2601a3cfd30aa9dcac12c67ad43", "type": "electric_scooter", "is_reserved": 0, "lon": -77.0502565}, {"fusion_lat": 0.0, "name": "7bbc48f0eb91fc36511f6e33abf9dccf", "is_disabled": 0, "rental_uris": {"android": "https://dc.lft.to/lastmile_qr_scan", "ios": "https://dc.lft.to/lastmile_qr_scan"}, "fusion_lon": 0.0, "lat": 38.93930533333333, "bike_id": "7bbc48f0eb91fc36511f6e33abf9dccf", "type": "electric_scooter", "is_reserved": 0, "lon": -77.0747735}, {"fusion_lat": 0.0, "name": "c7b176a1c1bd1418d32bb846ef141761", "is_disabled": 0, "rental_uris": {"android": "https://dc.lft.to/lastmile_qr_scan", "ios": "https://dc.lft.to/lastmile_qr_scan"}, "fusion_lon": 0.0, "lat": 38.896839166666666, "bike_id": "c7b176a1c1bd1418d32bb846ef141761", "type": "electric_scooter", "is_reserved": 0, "lon": -76.9371205}, {"fusion_lat": 0.0, "name": "c2910051f18aec4f55fe18b6513e5afb", "is_disabled": 0, "rental_uris": {"android": "https://dc.lft.to/lastmile_qr_scan", "ios": "https://dc.lft.to/lastmile_qr_scan"}, "fusion_lon": 0.0, "lat": 38.89222316666667, "bike_id": "c2910051f18aec4f55fe18b6513e5afb", "type": "electric_scooter", "is_reserved": 0, "lon": -77.04194566666666}, {"fusion_lat": 0.0, "name": "a45e44dc6de8cd8f2be5cd093e715e06", "is_disabled": 0, "rental_uris": {"android": "https://dc.lft.to/lastmile_qr_scan", "ios": "https://dc.lft.to/lastmile_qr_scan"}, "fusion_lon": 0.0, "lat": 38.92738216666667, "bike_id": "a45e44dc6de8cd8f2be5cd093e715e06", "type": "electric_scooter", "is_reserved": 0, "lon": -77.042227}, {"fusion_lat": 0.0, "name": "7098cb6755f2b8265b46bbe782006c14", "is_disabled": 0, "rental_uris": {"android": "https://dc.lft.to/lastmile_qr_scan", "ios": "https://dc.lft.to/lastmile_qr_scan"}, "fusion_lon": 0.0, "lat": 38.919982, "bike_id": "7098cb6755f2b8265b46bbe782006c14", "type": "electric_scooter", "is_reserved": 0, "lon": -77.03274116666667}, {"fusion_lat": 0.0, "name": "cf0bccedd446277da33f8ca44be71a27", "is_disabled": 0, "rental_uris": {"android": "https://dc.lft.to/lastmile_qr_scan", "ios": "https://dc.lft.to/lastmile_qr_scan"}, "fusion_lon": 0.0, "lat": 38.91733816666667, "bike_id": "cf0bccedd446277da33f8ca44be71a27", "type": "electric_scooter", "is_reserved": 0, "lon": -77.03664966666666}, {"fusion_lat": 0.0, "name": "730aef9945703e2aeebe5670a6b29b6c", "is_disabled": 0, "rental_uris": {"android": "https://dc.lft.to/lastmile_qr_scan", "ios": "https://dc.lft.to/lastmile_qr_scan"}, "fusion_lon": 0.0, "lat": 38.80445666666667, "bike_id": "730aef9945703e2aeebe5670a6b29b6c", "type": "electric_bike", "is_reserved": 0, "lon": -77.132282}, {"fusion_lat": 0.0, "name": "74603f0dd569adbc6561b2ad409347f1", "is_disabled": 0, "rental_uris": {"android": "https://dc.lft.to/lastmile_qr_scan", "ios": "https://dc.lft.to/lastmile_qr_scan"}, "fusion_lon": 0.0, "lat": 38.907343, "bike_id": "74603f0dd569adbc6561b2ad409347f1", "type": "electric_scooter", "is_reserved": 0, "lon": -77.03450733333334}, {"fusion_lat": 0.0, "name": "8589451517e14687ccea0e713eaf3e23", "is_disabled": 0, "rental_uris": {"android": "https://dc.lft.to/lastmile_qr_scan", "ios": "https://dc.lft.to/lastmile_qr_scan"}, "fusion_lon": 0.0, "lat": 38.90953566666666, "bike_id": "8589451517e14687ccea0e713eaf3e23", "type": "electric_scooter", "is_reserved": 0, "lon": -77.04859433333333}, {"fusion_lat": 0.0, "name": "9528570b039ae342440279feab31b74f", "is_disabled": 0, "rental_uris": {"android": "https://dc.lft.to/lastmile_qr_scan", "ios": "https://dc.lft.to/lastmile_qr_scan"}, "fusion_lon": 0.0, "lat": 38.92391283333333, "bike_id": "9528570b039ae342440279feab31b74f", "type": "electric_scooter", "is_reserved": 0, "lon": -77.04016316666667}, {"fusion_lat": 0.0, "name": "f30689ae0752efa1d04bb77886c7e07a", "is_disabled": 0, "rental_uris": {"android": "https://dc.lft.to/lastmile_qr_scan", "ios": "https://dc.lft.to/lastmile_qr_scan"}, "fusion_lon": 0.0, "lat": 38.887383, "bike_id": "f30689ae0752efa1d04bb77886c7e07a", "type": "electric_scooter", "is_reserved": 0, "lon": -77.01753866666667},