{"data": {"bikes": [{"rental_uris": {"android": "https://dc.lft.to/lastmile_qr_scan", "ios": "https://dc.lft.to/lastmile_qr_scan"}, "is_reserved": 0, "is_disabled": 0, "name": "24a3a1fc04f00558d4708e63d4dbbf47", "bike_id": "24a3a1fc04f00558d4708e63d4dbbf47", "fusion_lat": 0.0, "lon": -77.00601033333334, "type": "electric_scooter", "fusion_lon": 0.0, "lat": 38.905765833333334}, {"rental_uris": {"android": "https://dc.lft.to/lastmile_qr_scan", "ios": "https://dc.lft.to/lastmile_qr_scan"}, "is_reserved": 0, "is_disabled": 0, "name": "ea366b725bdb5f3319e99e4f725e60de", "bike_id": "ea366b725bdb5f3319e99e4f725e60de", "fusion_lat": 0.0, "lon": -77.01992166666666, "type": "electric_scooter", "fusion_lon": 0.0, "lat": 38.894757}, {"rental_uris": {"android": "https://dc.lft.to/lastmile_qr_scan", "ios": "https://dc.lft.to/lastmile_qr_scan"}, "is_reserved": 0, "is_disabled": 0, "name": "771411ed0ff97da2e90e32a4d730ac6d", "bike_id": "771411ed0ff97da2e90e32a4d730ac6d", "fusion_lat": 0.0, "lon": -77.08530683333333, "type": "electric_bike", "fusion_lon": 0.0, "lat": 38.8564465}, {"rental_uris": {"android": "https://dc.lft.to/lastmile_qr_scan", "ios": "https://dc.lft.to/lastmile_qr_scan"}, "is_reserved": 0, "is_disabled": 0, "name": "38173806d811f1262672938032177639", "bike_id": "38173806d811f1262672938032177639", "fusion_lat": 0.0, "lon": -77.02534033333333, "type": "electric_scooter", "fusion_lon": 0.0, "lat": 38.89946166666667}, {"rental_uris": {"android": "https://dc.lft.to/lastmile_qr_scan", "ios": "https://dc.lft.to/lastmile_qr_scan"}, "is_reserved": 0, "is_disabled": 0, "name": "385e8b03fbd46c13aa641eb4dbe4bdca", "bike_id": "385e8b03fbd46c13aa641eb4dbe4bdca", "fusion_lat": 0.0, "lon": -77.03356483333333, "type": "electric_scooter", "fusion_lon": 0.0, "lat": 38.935721}, {"rental_uris": {"android": "https://dc.lft.to/lastmile_qr_scan", "ios": "https://dc.lft.to/lastmile_qr_scan"}, "is_reserved": 0, "is_disabled": 0, "name": "87474dc7eada98a9f743b7bcda5cea18", "bike_id": "87474dc7eada98a9f743b7bcda5cea18", "fusion_lat": 0.0, "lon": -77.04517866666667, "type": "electric_scooter", "fusion_lon": 0.0, "lat": 38.912888333333335}, {"rental_uris": {"android": "https://dc.lft.to/lastmile_qr_scan", "ios": "https://dc.lft.to/lastmile_qr_scan"}, "is_reserved": 0, "is_disabled": 0, "name": "fb853dbddfd293d3bea3895af76d2a74", "bike_id": "fb853dbddfd293d3bea3895af76d2a74", "fusion_lat": 0.0, "lon": -77.040325, "type": "electric_scooter", "fusion_lon": 0.0, "lat": 38.91842066666667}, {"rental_uris": {"android": "https://dc.lft.to/lastmile_qr_scan", "ios": "https://dc.lft.to/lastmile_qr_scan"}, "is_reserved": 0, "is_disabled": 0, "name": "ef35e7e59339559fe99f8e88134e6adf", "bike_id": "ef35e7e59339559fe99f8e88134e6adf", "fusion_lat": 0.0, "lon": -77.0337725, "type": "electric_scooter", "fusion_lon": 0.0, "lat": 38.90113483333333}, {"rental_uris": {"android": "https://dc.lft.to/lastmile_qr_scan", "ios": "https://dc.lft.to/lastmile_qr_scan"}, "is_reserved": 0, "is_disabled": 0, "name": "8c40c43cbb97cc310c44d24e612453a0", "bike_id": "8c40c43cbb97cc310c44d24e612453a0", "fusion_lat": 0.0, "lon": -77.068081, "type": "electric_scooter", "fusion_lon": 0.0, "lat": 38.91554333333333}, {"rental_uris": {"android": "https://dc.lft.to/lastmile_qr_scan", "ios": "https://dc.lft.to/lastmile_qr_scan"}, "is_reserved": 0, "is_disabled": 0, "name": "8b635a2bd1dc0457a7a995b507454810", "bike_id": "8b635a2bd1dc0457a7a995b507454810", "fusion_lat": 0.0, "lon": -77.03172816666667, "type": "electric_scooter", "fusion_lon": 0.0, "lat": 38.914189666666665}, {"rental_uris": {"android": "https://dc.lft.to/lastmile_qr_scan", "ios": "https://dc.lft.to/lastmile_qr_scan"}, "is_reserved": 0, "is_disabled": 0, "name": "27f830af161a2e5b7b1472ba9c949952", "bike_id": "27f830af161a2e5b7b1472ba9c949952", "fusion_lat": 0.0, "lon": -77.08724366666667, "type": "electric_bike", "fusion_lon": 0.0, "lat": 38.862364166666666}, {"rental_uris": {"android": "https://dc.lft.to/lastmile_qr_scan", "ios": "https://dc.lft.to/lastmile_qr_scan"}, "is_reserved": 0, "is_disabled": 0, "name": "d9fd83994906924d8d32d1102812f4ab", "bike_id": "d9fd83994906924d8d32d1102812f4ab", "fusion_lat": 0.0, "lon": -76.9818925, "type": "electric_bike", "fusion_lon": 0.0, "lat": 38.9849755}, {"rental_uris": {"android": "https://dc.lft.to/lastmile_qr_scan", "ios": "https://dc.lft.to/lastmile_qr_scan"}, "is_reserved": 0, "is_disabled": 0, "name": "76353d9ea1731f5fbc815c31f81a27d6", "bike_id": "76353d9ea1731f5fbc815c31f81a27d6", "fusion_lat": 0.0, "lon": -77.0549415, "type": "electric_scooter", "fusion_lon": 0.0, "lat": 38.90843666666667}, {"rental_uris": {"android": "https://dc.lft.to/lastmile_qr_scan", "ios": "https://dc.lft.to/lastmile_qr_scan"}, "is_reserved": 0, "is_disabled": 0, "name": "789fce467222f93cedd2a667da16737e", "bike_id": "789fce467222f93cedd2a667da16737e", "fusion_lat": 0.0, "lon": -77.0204995, "type": "electric_scooter", "fusion_lon": 0.0, "lat": 38.91567833333333}, {"rental_uris": {"android": "https://dc.lft.to/lastmile_qr_scan", "ios": "https://dc.lft.to/lastmile_qr_scan"}, "is_reserved": 0, "is_disabled": 0, "name": "ac11dd3bb06d66669575a5b1bad728bc", "bike_id": "ac11dd3bb06d66669575a5b1bad728bc", "fusion_lat": 0.0, "lon": -77.02031033333333, "type": "electric_scooter", "fusion_lon": 0.0, "lat": 38.924328}, {"rental_uris": {"android": "https://dc.lft.to/lastmile_qr_scan", "ios": "https://dc.lft.to/lastmile_qr_scan"}, "is_reserved": 0, "is_disabled": 0, "name": "b371c229a970d4d4fe45223f760d83bb", "bike_id": "b371c229a970d4d4fe45223f760d83bb", "fusion_lat": 0.0, "lon": -77.03212416666666, "type": "electric_scooter", "fusion_lon": 0.0, "lat": 38.920662}, {"rental_uris": {"android": "https://dc.lft.to/lastmile_qr_scan", "ios": "https://dc.lft.to/lastmile_qr_scan"}, "is_reserved": 0, "is_disabled": 0, "name": "c4329e0b782e544222dc88ff7cc4e0a6", "bike_id": "c4329e0b782e544222dc88ff7cc4e0a6", "fusion_lat": 0.0, "lon": -77.04892516666666, "type": "electric_scooter", "fusion_lon": 0.0, "lat": 38.9103005}, {"rental_uris": {"android": "https://dc.lft.to/lastmile_qr_scan", "ios": "https://dc.lft.to/lastmile_qr_scan"}, "is_reserved": 0, "is_disabled": 0, "name": "af9a6ccba82782384542637a3e8b3cc4", "bike_id": "af9a6ccba82782384542637a3e8b3cc4", "fusion_lat": 0.0, "lon": -77.02080283333333, "type": "electric_scooter", "fusion_lon": 0.0, "lat": 38.92331716666666}, {"rental_uris": {"android": "https://dc.lft.to/lastmile_qr_scan", "ios": "https://dc.lft.to/lastmile_qr_scan"}, "is_reserved": 0, "is_disabled": 0, "name": "f0acad1c5300ea676edb0cc92861d86b", "bike_id": "f0acad1c5300ea676edb0cc92861d86b", "fusion_lat": 0.0, "lon": -77.02600433333333, "type": "electric_scooter", "fusion_lon": 0.0, "lat": 38.8961915}, {"rental_uris": {"android": "https://dc.lft.to/lastmile_qr_scan", "ios": "https://dc.lft.to/lastmile_qr_scan"}, "is_reserved": 0, "is_disabled": 0, "name": "febf6976d0810fddc60c962f89a65c44", "bike_id": "febf6976d0810fddc60c962f89a65c44", "fusion_lat": 0.0, "lon": -77.0194815, "type": "electric_scooter", "fusion_lon": 0.0, "lat": 38.924155166666665}, {"rental_uris": {"android": "https://dc.lft.to/lastmile_qr_scan", "ios": "https://dc.lft.to/lastmile_qr_scan"}, "is_reserved": 0, "is_disabled": 0, "name": "bcc7d54b6cc1f2151350b1572bba2ccd", "bike_id": "bcc7d54b6cc1f2151350b1572bba2ccd", "fusion_lat": 0.0, "lon": -77.00593416666666, "type": "electric_scooter", "fusion_lon": 0.0, "lat": 38.8753665}, {"rental_uris": {"android": "https://dc.lft.to/lastmile_qr_scan", "ios": "https://dc.lft.to/lastmile_qr_scan"}, "is_reserved": 0, "is_disabled": 0, "name": "7e37e0e9d40ac74f108c4f1fb40060c8", "bike_id": "7e37e0e9d40ac74f108c4f1fb40060c8", "fusion_lat": 0.0, "lon": -77.0384815, "type": "electric_scooter", "fusion_lon": 0.0, "lat": 38.904028}, {"rental_uris": {"android": "https://dc.lft.to/lastmile_qr_scan", "ios": "https://dc.lft.to/lastmile_qr_scan"}, "is_reserved": 0, "is_disabled": 0, "name": "2ffdfea348506cf781b01d756f8e4af1", "bike_id": "2ffdfea348506cf781b01d756f8e4af1", "fusion_lat": 0.0, "lon": -76.99050116666666, "type": "electric_scooter", "fusion_lon": 0.0, "lat": 38.938173}, {"rental_uris": {"android": "https://dc.lft.to/lastmile_qr_scan", "ios": "https://dc.lft.to/lastmile_qr_scan"}, "is_reserved": 0, "is_disabled": 0, "name": "1fb4b0fa2e70b5fb91ce3575ed9e9458", "bike_id": "1fb4b0fa2e70b5fb91ce3575ed9e9458", "fusion_lat": 0.0, "lon": -77.02791916666666, "type": "electric_scooter", "fusion_lon": 0.0, "lat": 38.89841}, {"rental_uris": {"android": "https://dc.lft.to/lastmile_qr_scan", "ios": "https://dc.lft.to/lastmile_qr_scan"}, "is_reserved": 0, "is_disabled": 0, "name": "b4b7ae9c73b000fcbf748c6c71d6f32c", "bike_id": "b4b7ae9c73b000fcbf748c6c71d6f32c", "fusion_lat": 0.0, "lon": -77.04168083333333, "type": "electric_scooter", "fusion_lon": 0.0, "lat": 38.917248}, {"rental_uris": {"android": "https://dc.lft.to/lastmile_qr_scan", "ios": "https://dc.lft.to/lastmile_qr_scan"}, "is_reserved": 0, "is_disabled": 0, "name": "4905819e543bb6589230116f747f5f6d", "bike_id": "4905819e543bb6589230116f747f5f6d", "fusion_lat": 0.0, "lon": -77.0458915, "type": "electric_scooter", "fusion_lon": 0.0, "lat": 38.913617}, {"rental_uris": {"android": "https://dc.lft.to/lastmile_qr_scan", "ios": "https://dc.lft.to/lastmile_qr_scan"}, "is_reserved": 0, "is_disabled": 0, "name": "c30433d51e500d03c09fe12e2f37cd14", "bike_id": "c30433d51e500d03c09fe12e2f37cd14", "fusion_lat": 0.0, "lon": -77.039937, "type": "electric_scooter", "fusion_lon": 0.0, "lat": 38.933995833333334}, {"rental_uris": {"android": "https://dc.lft.to/lastmile_qr_scan", "ios": "https://dc.lft.to/lastmile_qr_scan"}, "is_reserved": 0, "is_disabled": 0, "name": "47b7d3d5a82d6bcc4fffe5c48038c564", "bike_id": "47b7d3d5a82d6bcc4fffe5c48038c564", "fusion_lat": 0.0, "lon": -77.043175, "type": "electric_scooter", "fusion_lon": 0.0, "lat": 38.91876666666667}, {"rental_uris": {"android": "https://dc.lft.to/lastmile_qr_scan", "ios": "https://dc.lft.to/lastmile_qr_scan"}, "is_reserved": 0, "is_disabled": 0, "name": "3bc59ff457f3a8ffcfc1a6f2e0c9cb6c", "bike_id": "3bc59ff457f3a8ffcfc1a6f2e0c9cb6c", "fusion_lat": 0.0, "lon": -77.0296205, "type": "electric_scooter", "fusion_lon": 0.0, "lat": 38.897378833333335}, {"rental_uris": {"android": "https://dc.lft.to/lastmile_qr_scan", "ios": "https://dc.lft.to/lastmile_qr_scan"}, "is_reserved": 0, "is_disabled": 0, "name": "59fc8dcf7cc688e4f0b3681889c0ca6e", "bike_id": "59fc8dcf7cc688e4f0b3681889c0ca6e", "fusion_lat": 0.0, "lon": -77.02327266666667, "type": "electric_scooter", "fusion_lon": 0.0, "lat": 38.8786475}, {"rental_uris": {"android": "https://dc.lft.to/lastmile_qr_scan", "ios": "https://dc.lft.to/lastmile_qr_scan"}, "is_reserved": 0, "is_disabled": 0, "name": "90eac4842e23721d456ee81dea42b25d", "bike_id": "90eac4842e23721d456ee81dea42b25d", "fusion_lat": 0.0, "lon": -77.04838383333333, "type": "electric_scooter", "fusion_lon": 0.0, "lat": 38.900471333333336}, {"rental_uris": {"android": "https://dc.lft.to/lastmile_qr_scan", "ios": "https://dc.lft.to/lastmile_qr_scan"}, "is_reserved": 0, "is_disabled": 0, "name": "740d57f6c28b414f80b16cc00b1be09b", "bike_id": "740d57f6c28b414f80b16cc00b1be09b", "fusion_lat": 0.0, "lon": -77.04360583333333, "type": "electric_scooter", "fusion_lon": 0.0, "lat": 38.901578}, {"rental_uris": {"android": "https://dc.lft.to/lastmile_qr_scan", "ios": "https://dc.lft.to/lastmile_qr_scan"}, "is_reserved": 0, "is_disabled": 0, "name": "5a8c4f9988c034a4b7bce4ebb1d723ca", "bike_id": "5a8c4f9988c034a4b7bce4ebb1d723ca", "fusion_lat": 0.0, "lon": -77.003352, "type": "electric_scooter", "fusion_lon": 0.0, "lat": 38.8935275}, {"rental_uris": {"android": "https://dc.lft.to/lastmile_qr_scan", "ios": "https://dc.lft.to/lastmile_qr_scan"}, "is_reserved": 0, "is_disabled": 0, "name": "3075cccaf91093b875c20d1f5b08c546", "bike_id": "3075cccaf91093b875c20d1f5b08c546", "fusion_lat": 0.0, "lon": -76.98058966666666, "type": "electric_bike", "fusion_lon": 0.0, "lat": 38.97246366666667}, {"rental_uris": {"android": "https://dc.lft.to/lastmile_qr_scan", "ios": "https://dc.lft.to/lastmile_qr_scan"}, "is_reserved": 0, "is_disabled": 0, "name": "b2dcad1e499c53aa83fee3e62bc70ad5", "bike_id": "b2dcad1e499c53aa83fee3e62bc70ad5", "fusion_lat": 0.0, "lon": -77.02343416666666, "type": "electric_scooter", "fusion_lon": 0.0, "lat": 38.95725216666666}, {"rental_uris": {"android": "https://dc.lft.to/lastmile_qr_scan", "ios": "https://dc.lft.to/lastmile_qr_scan"}, "is_reserved": 0, "is_disabled": 0, "name": "68dcedb024795ce1d5443684c6400003", "bike_id": "68dcedb024795ce1d5443684c6400003", "fusion_lat": 0.0, "lon": -77.03330983333333, "type": "electric_scooter", "fusion_lon": 0.0, "lat": 38.92852233333333}, {"rental_uris": {"android": "https://dc.lft.to/lastmile_qr_scan", "ios": "https://dc.lft.to/lastmile_qr_scan"}, "is_reserved": 0, "is_disabled": 0, "name": "21a148be9e933974e7729213ff6cd212", "bike_id": "21a148be9e933974e7729213ff6cd212", "fusion_lat": 0.0, "lon": -77.02826466666667, "type": "electric_scooter", "fusion_lon": 0.0, "lat": 38.92978166666666}, {"rental_uris": {"android": "https://dc.lft.to/lastmile_qr_scan", "ios": "https://dc.lft.to/lastmile_qr_scan"}, "is_reserved": 0, "is_disabled": 0, "name": "00c3c782be2f6fd0a63e4ee3ca85b35f", "bike_id": "00c3c782be2f6fd0a63e4ee3ca85b35f", "fusion_lat": 0.0, "lon": -77.01967966666666, "type": "electric_scooter", "fusion_lon": 0.0, "lat": 38.923219333333336}, {"rental_uris": {"android": "https://dc.lft.to/lastmile_qr_scan", "ios": "https://dc.lft.to/lastmile_qr_scan"}, "is_reserved": 0, "is_disabled": 0, "name": "2e4acac26ae63586e314a131a8a87af6", "bike_id": "2e4acac26ae63586e314a131a8a87af6", "fusion_lat": 0.0, "lon": -77.03175283333333, "type": "electric_scooter", "fusion_lon": 0.0, "lat": 38.91341233333333}, {"rental_uris": {"android": "https://dc.lft.to/lastmile_qr_scan", "ios": "https://dc.lft.to/lastmile_qr_scan"}, "is_reserved": 0, "is_disabled": 0, "name": "d07a14c5bcb207b36b6bfbb83e4817e6", "bike_id": "d07a14c5bcb207b36b6bfbb83e4817e6", "fusion_lat": 0.0, "lon": -77.01684066666667, "type": "electric_scooter", "fusion_lon": 0.0, "lat": 38.92039666666667}, {"rental_uris": {"android": "https://dc.lft.to/lastmile_qr_scan", "ios": "https://dc.lft.to/lastmile_qr_scan"}, "is_reserved": 0, "is_disabled": 0, "name": "210810f2394adc5fdcb7d4feeb9da941", "bike_id": "210810f2394adc5fdcb7d4feeb9da941", "fusion_lat": 0.0, "lon": -77.0727485, "type": "electric_scooter", "fusion_lon": 0.0, "lat": 38.9346675}, {"rental_uris": {"android": "https://dc.lft.to/lastmile_qr_scan", "ios": "https://dc.lft.to/lastmile_qr_scan"}, "is_reserved": 0, "is_disabled": 0, "name": "904242b2dbe2dd6f719d454af3b8356b", "bike_id": "904242b2dbe2dd6f719d454af3b8356b", "fusion_lat": 0.0, "lon": -77.0207775, "type": "electric_scooter", "fusion_lon": 0.0, "lat": 38.918941333333336}, {"rental_uris": {"android": "https://dc.lft.to/lastmile_qr_scan", "ios": "https://dc.lft.to/lastmile_qr_scan"}, "is_reserved": 0, "is_disabled": 0, "name": "3bbe87d8c73d8ff6470eb8980d2f5a70", "bike_id": "3bbe87d8c73d8ff6470eb8980d2f5a70", "fusion_lat": 0.0, "lon": -76.97334183333334, "type": "electric_scooter", "fusion_lon": 0.0, "lat": 38.904104}, {"rental_uris": {"android": "https://dc.lft.to/lastmile_qr_scan", "ios": "https://dc.lft.to/lastmile_qr_scan"}, "is_reserved": 0, "is_disabled": 0, "name": "68df6702327102b213ac95e5a7c70459", "bike_id": "68df6702327102b213ac95e5a7c70459", "fusion_lat": 0.0, "lon": -77.12979216666666, "type": "electric_bike", "fusion_lon": 0.0, "lat": 38.7998385}, {"rental_uris": {"android": "https://dc.lft.to/lastmile_qr_scan", "ios": "https://dc.lft.to/lastmile_qr_scan"}, "is_reserved": 0, "is_disabled": 0, "name": "d2eca60e6f899bbbca74455f988494c5", "bike_id": "d2eca60e6f899bbbca74455f988494c5", "fusion_lat": 0.0, "lon": -77.0593695, "type": "electric_scooter", "fusion_lon": 0.0, "lat": 38.943087}, {"rental_uris": {"android": "https://dc.lft.to/lastmile_qr_scan", "ios": "https://dc.lft.to/lastmile_qr_scan"}, "is_reserved": 0, "is_disabled": 0, "name": "145f65d66c7ccb6ad728c392c8574548", "bike_id": "145f65d66c7ccb6ad728c392c8574548", "fusion_lat": 0.0, "lon": -76.97807766666666, "type": "electric_scooter", "fusion_lon": 0.0, "lat": 38.92031583333333}, {"rental_uris": {"android": "https://dc.lft.to/lastmile_qr_scan", "ios": "https://dc.lft.to/lastmile_qr_scan"}, "is_reserved": 0, "is_disabled": 0, "name": "03cffb47fea861a7997c71a29c2dc6b9", "bike_id": "03cffb47fea861a7997c71a29c2dc6b9", "fusion_lat": 0.0, "lon": -77.04678033333333, "type": "electric_scooter", "fusion_lon": 0.0, "lat": 38.895582166666664}, {"rental_uris": {"android": "https://dc.lft.to/lastmile_qr_scan", "ios": "https://dc.lft.to/lastmile_qr_scan"}, "is_reserved": 0, "is_disabled": 0, "name": "b55d9c25917498eaae6d2117909471e6", "bike_id": "b55d9c25917498eaae6d2117909471e6", "fusion_lat": 0.0, "lon": -77.011147, "type": "electric_scooter", "fusion_lon": 0.0, "lat": 38.88501683333333}, {"rental_uris": {"android": "https://dc.lft.to/lastmile_qr_scan", "ios": "https://dc.lft.to/lastmile_qr_scan"}, "is_reserved": 0, "is_disabled": 0, "name": "134fa4fc197a6cd51f33a9d375fb972d", "bike_id": "134fa4fc197a6cd51f33a9d375fb972d", "fusion_lat": 0.0, "lon": -77.020207, "type": "electric_scooter", "fusion_lon": 0.0, "lat": 38.915631833333336}, {"rental_uris": {"android": "https://dc.lft.to/lastmile_qr_scan", "ios": "https://dc.lft.to/lastmile_qr_scan"}, "is_reserved": 0, "is_disabled": 0, "name": "b2aac74732e3678ef4b6fc3d46bf4440", "bike_id": "b2aac74732e3678ef4b6fc3d46bf4440", "fusion_lat": 0.0, "lon": -77.02088566666667, "type": "electric_scooter", "fusion_lon": 0.0, "lat": 38.921526666666665}, {"rental_uris": {"android": "https://dc.lft.to/lastmile_qr_scan", "ios": "https://dc.lft.to/lastmile_qr_scan"}, "is_reserved": 0, "is_disabled": 0, "name": "14e2bd905b9ddaabeedc5a378e157f60", "bike_id": "14e2bd905b9ddaabeedc5a378e157f60", "fusion_lat": 0.0, "lon": -77.04551583333334, "type": "electric_scooter", "fusion_lon": 0.0, "lat": 38.912628166666664}, {"rental_uris": {"android": "https://dc.lft.to/lastmile_qr_scan", "ios": "https://dc.lft.to/lastmile_qr_scan"}, "is_reserved": 0, "is_disabled": 0, "name": "35bf7c0a7f488cf142aababc4dac7466", "bike_id": "35bf7c0a7f488cf142aababc4dac7466", "fusion_lat": 0.0, "lon": -77.020347, "type": "electric_scooter", "fusion_lon": 0.0, "lat": 38.9243065}, {"rental_uris": {"android": "https://dc.lft.to/lastmile_qr_scan", "ios": "https://dc.lft.to/lastmile_qr_scan"}, "is_reserved": 0, "is_disabled": 0, "name": "112ee203018e72bc49898457555d9207", "bike_id": "112ee203018e72bc49898457555d9207", "fusion_lat": 0.0, "lon": -76.98769533333333, "type": "electric_bike", "fusion_lon": 0.0, "lat": 38.8576785}, {"rental_uris": {"android": "https://dc.lft.to/lastmile_qr_scan", "ios": "https://dc.lft.to/lastmile_qr_scan"}, "is_reserved": 0, "is_disabled": 0, "name": "23919f4b915bfa286fae6ba98c2d741d", "bike_id": "23919f4b915bfa286fae6ba98c2d741d", "fusion_lat": 0.0, "lon": -77.02804783333333, "type": "electric_scooter", "fusion_lon": 0.0, "lat": 38.8842515}, {"rental_uris": {"android": "https://dc.lft.to/lastmile_qr_scan", "ios": "https://dc.lft.to/lastmile_qr_scan"}, "is_reserved": 0, "is_disabled": 0, "name": "5db21cdd022b4191cdd60a732ac0336a", "bike_id": "5db21cdd022b4191cdd60a732ac0336a", "fusion_lat": 0.0, "lon": -77.04458283333334, "type": "electric_scooter", "fusion_lon": 0.0, "lat": 38.918649333333335}, {"rental_uris": {"android": "https://dc.lft.to/lastmile_qr_scan", "ios": "https://dc.lft.to/lastmile_qr_scan"}, "is_reserved": 0, "is_disabled": 0, "name": "4eb3e9497ff55baaf28a966f47069fcb", "bike_id": "4eb3e9497ff55baaf28a966f47069fcb", "fusion_lat": 0.0, "lon": -76.982396, "type": "electric_scooter", "fusion_lon": 0.0, "lat": 38.908907}, {"rental_uris": {"android": "https://dc.lft.to/lastmile_qr_scan", "ios": "https://dc.lft.to/lastmile_qr_scan"}, "is_reserved": 0, "is_disabled": 0, "name": "eeb907340afc90776ef1401e66a2cfe0", "bike_id": "eeb907340afc90776ef1401e66a2cfe0", "fusion_lat": 0.0, "lon": -77.01655566666666, "type": "electric_bike", "fusion_lon": 0.0, "lat": 38.881422}, {"rental_uris": {"android": "https://dc.lft.to/lastmile_qr_scan", "ios": "https://dc.lft.to/lastmile_qr_scan"}, "is_reserved": 0, "is_disabled": 0, "name": "a4a00f97912438a08b8e2665a1264d0f", "bike_id": "a4a00f97912438a08b8e2665a1264d0f", "fusion_lat": 0.0, "lon": -76.9322, "type": "electric_scooter", "fusion_lon": 0.0, "lat": 38.88041333333334}, {"rental_uris": {"android": "https://dc.lft.to/lastmile_qr_scan", "ios": "https://dc.lft.to/lastmile_qr_scan"}, "is_reserved": 0, "is_disabled": 0, "name": "2fabcdd7a6fe28479587a35f23d7173e", "bike_id": "2fabcdd7a6fe28479587a35f23d7173e", "fusion_lat": 0.0, "lon": -77.04504516666667, "type": "electric_scooter", "fusion_lon": 0.0, "lat": 38.9141355}, {"rental_uris": {"android": "https://dc.lft.to/lastmile_qr_scan", "ios": "https://dc.lft.to/lastmile_qr_scan"}, "is_reserved": 0, "is_disabled": 0, "name": "6a5eba27294d187c128f38e184917932", "bike_id": "6a5eba27294d187c128f38e184917932", "fusion_lat": 0.0, "lon": -77.04991033333333, "type": "electric_scooter", "fusion_lon": 0.0, "lat": 38.89724783333333}, {"rental_uris": {"android": "https://dc.lft.to/lastmile_qr_scan", "ios": "https://dc.lft.to/lastmile_qr_scan"}, "is_reserved": 0, "is_disabled": 0, "name": "65bdacab7d411721217b753589af002a", "bike_id": "65bdacab7d411721217b753589af002a", "fusion_lat": 0.0, "lon": -77.04018266666667, "type": "electric_scooter", "fusion_lon": 0.0, "lat": 38.91787333333333}, {"rental_uris": {"android": "https://dc.lft.to/lastmile_qr_scan", "ios": "https://dc.lft.to/lastmile_qr_scan"}, "is_reserved": 0, "is_disabled": 0, "name": "279b63dd2035ebe9a4f87133809447d8", "bike_id": "279b63dd2035ebe9a4f87133809447d8", "fusion_lat": 0.0, "lon": -77.0022825, "type": "electric_scooter", "fusion_lon": 0.0, "lat": 38.89487616666667}, {"rental_uris": {"android": "https://dc.lft.to/lastmile_qr_scan", "ios": "https://dc.lft.to/lastmile_qr_scan"}, "is_reserved": 0, "is_disabled": 0, "name": "cc5fc7b3a23becd557b1c72b8bf70709", "bike_id": "cc5fc7b3a23becd557b1c72b8bf70709", "fusion_lat": 0.0, "lon": -77.0196355, "type": "electric_scooter", "fusion_lon": 0.0, "lat": 38.920280166666664}, {"rental_uris": {"android": "https://dc.lft.to/lastmile_qr_scan", "ios": "https://dc.lft.to/lastmile_qr_scan"}, "is_reserved": 0, "is_disabled": 0, "name": "6bbccb3640d7f2a81d238b280435f2ee", "bike_id": "6bbccb3640d7f2a81d238b280435f2ee", "fusion_lat": 0.0, "lon": -76.9984985, "type": "electric_scooter", "fusion_lon": 0.0, "lat": 38.90034466666667}, {"rental_uris": {"android": "https://dc.lft.to/lastmile_qr_scan", "ios": "https://dc.lft.to/lastmile_qr_scan"}, "is_reserved": 0, "is_disabled": 0, "name": "9439f6aae409f8eb430b82b9480c3785", "bike_id": "9439f6aae409f8eb430b82b9480c3785", "fusion_lat": 0.0, "lon": -77.00038083333334, "type": "electric_scooter", "fusion_lon": 0.0, "lat": 38.873878500000004}, {"rental_uris": {"android": "https://dc.lft.to/lastmile_qr_scan", "ios": "https://dc.lft.to/lastmile_qr_scan"}, "is_reserved": 0, "is_disabled": 0, "name": "89977b39ea13370496a0c3aecdd130c1", "bike_id": "89977b39ea13370496a0c3aecdd130c1", "fusion_lat": 0.0, "lon": -77.00370166666667, "type": "electric_scooter", "fusion_lon": 0.0, "lat": 38.907115833333336}, {"rental_uris": {"android": "https://dc.lft.to/lastmile_qr_scan", "ios": "https://dc.lft.to/lastmile_qr_scan"}, "is_reserved": 0, "is_disabled": 0, "name": "1feee4644ca3c50cbff15e7a3b6df4b0", "bike_id": "1feee4644ca3c50cbff15e7a3b6df4b0", "fusion_lat": 0.0, "lon": -77.05441216666667, "type": "electric_scooter", "fusion_lon": 0.0, "lat": 38.895988833333334}, {"rental_uris": {"android": "https://dc.lft.to/lastmile_qr_scan", "ios": "https://dc.lft.to/lastmile_qr_scan"}, "is_reserved": 0, "is_disabled": 0, "name": "38d9eb7c625e9bc18667967922749c32", "bike_id": "38d9eb7c625e9bc18667967922749c32", "fusion_lat": 0.0, "lon": -77.02470016666666, "type": "electric_scooter", "fusion_lon": 0.0, "lat": 38.930922833333334}, {"rental_uris": {"android": "https://dc.lft.to/lastmile_qr_scan", "ios": "https://dc.lft.to/lastmile_qr_scan"}, "is_reserved": 0, "is_disabled": 0, "name": "bffe9e67b8b266a05c8048a5901be460", "bike_id": "bffe9e67b8b266a05c8048a5901be460", "fusion_lat": 0.0, "lon": -77.00736316666666, "type": "electric_scooter", "fusion_lon": 0.0, "lat": 38.9119225}, {"rental_uris": {"android": "https://dc.lft.to/lastmile_qr_scan", "ios": "https://dc.lft.to/lastmile_qr_scan"}, "is_reserved": 0, "is_disabled": 0, "name": "ab298775bdc2d3b68e8de656474d4711", "bike_id": "ab298775bdc2d3b68e8de656474d4711", "fusion_lat": 0.0, "lon": -77.04204816666666, "type": "electric_scooter", "fusion_lon": 0.0, "lat": 38.909173}, {"rental_uris": {"android": "https://dc.lft.to/lastmile_qr_scan", "ios": "https://dc.lft.to/lastmile_qr_scan"}, "is_reserved": 0, "is_disabled": 0, "name": "a955221e775f08060f7075291cf2f960", "bike_id": "a955221e775f08060f7075291cf2f960", "fusion_lat": 0.0, "lon": -77.01679466666667, "type": "electric_scooter", "fusion_lon": 0.0, "lat": 38.92039233333333}, {"rental_uris": {"android": "https://dc.lft.to/lastmile_qr_scan", "ios": "https://dc.lft.to/lastmile_qr_scan"}, "is_reserved": 0, "is_disabled": 0, "name": "f42db4301ec1e7aa268b6430c90c8c1b", "bike_id": "f42db4301ec1e7aa268b6430c90c8c1b", "fusion_lat": 0.0, "lon": -77.01553433333333, "type": "electric_scooter", "fusion_lon": 0.0, "lat": 38.89366716666667}, {"rental_uris": {"android": "https://dc.lft.to/lastmile_qr_scan", "ios": "https://dc.lft.to/lastmile_qr_scan"}, "is_reserved": 0, "is_disabled": 0, "name": "68c20f5869c7240f2c00a05dc4c9f380", "bike_id": "68c20f5869c7240f2c00a05dc4c9f380", "fusion_lat": 0.0, "lon": -77.02608783333334, "type": "electric_scooter", "fusion_lon": 0.0, "lat": 38.90384016666667}, {"rental_uris": {"android": "https://dc.lft.to/lastmile_qr_scan", "ios": "https://dc.lft.to/lastmile_qr_scan"}, "is_reserved": 0, "is_disabled": 0, "name": "29b203b48177e45b2600d86e0d6225dd", "bike_id": "29b203b48177e45b2600d86e0d6225dd", "fusion_lat": 0.0, "lon": -77.03169866666667, "type": "electric_scooter", "fusion_lon": 0.0, "lat": 38.915651}, {"rental_uris": {"android": "https://dc.lft.to/lastmile_qr_scan", "ios": "https://dc.lft.to/lastmile_qr_scan"}, "is_reserved": 0, "is_disabled": 0, "name": "2e5b3aaf7bcbb9fd7eb2e34951d8eae0", "bike_id": "2e5b3aaf7bcbb9fd7eb2e34951d8eae0", "fusion_lat": 0.0, "lon": -77.02225083333333, "type": "electric_scooter", "fusion_lon": 0.0, "lat": 38.92108783333333}, {"rental_uris": {"android": "https://dc.lft.to/lastmile_qr_scan", "ios": "https://dc.lft.to/lastmile_qr_scan"}, "is_reserved": 0, "is_disabled": 0, "name": "30aaa798506c5ccc22a884dea21c0240", "bike_id": "30aaa798506c5ccc22a884dea21c0240", "fusion_lat": 0.0, "lon": -77.02148733333334, "type": "electric_scooter", "fusion_lon": 0.0, "lat": 38.927526}, {"rental_uris": {"android": "https://dc.lft.to/lastmile_qr_scan", "ios": "https://dc.lft.to/lastmile_qr_scan"}, "is_reserved": 0, "is_disabled": 0, "name": "5c03f293008af575e8cf773e7c729e36", "bike_id": "5c03f293008af575e8cf773e7c729e36", "fusion_lat": 0.0, "lon": -76.99641516666667, "type": "electric_bike", "fusion_lon": 0.0, "lat": 38.9251875}, {"rental_uris": {"android": "https://dc.lft.to/lastmile_qr_scan", "ios": "https://dc.lft.to/lastmile_qr_scan"}, "is_reserved": 0, "is_disabled": 0, "name": "56f5ff34c951a4b36d09271ef7e7c5eb", "bike_id": "56f5ff34c951a4b36d09271ef7e7c5eb", "fusion_lat": 0.0, "lon": -77.03953766666666, "type": "electric_scooter", "fusion_lon": 0.0, "lat": 38.89837516666667}, {"rental_uris": {"android": "https://dc.lft.to/lastmile_qr_scan", "ios": "https://dc.lft.to/lastmile_qr_scan"}, "is_reserved": 0, "is_disabled": 0, "name": "fe741c56280b8c4093ad479ce37db295", "bike_id": "fe741c56280b8c4093ad479ce37db295", "fusion_lat": 0.0, "lon": -77.02275133333333, "type": "electric_scooter", "fusion_lon": 0.0, "lat": 38.89961016666667}, {"rental_uris": {"android": "https://dc.lft.to/lastmile_qr_scan", "ios": "https://dc.lft.to/lastmile_qr_scan"}, "is_reserved": 0, "is_disabled": 0, "name": "d8a7bc647e1e564a1ea01fd9706cad05", "bike_id": "d8a7bc647e1e564a1ea01fd9706cad05", "fusion_lat": 0.0, "lon": -77.031754, "type": "electric_scooter", "fusion_lon": 0.0, "lat": 38.899900333333335}, {"rental_uris": {"android": "https://dc.lft.to/lastmile_qr_scan", "ios": "https://dc.lft.to/lastmile_qr_scan"}, "is_reserved": 0, "is_disabled": 0, "name": "7c32c712c654df7aec039e33d331328b", "bike_id": "7c32c712c654df7aec039e33d331328b", "fusion_lat": 0.0, "lon": -77.01851133333334, "type": "electric_scooter", "fusion_lon": 0.0, "lat": 38.9096885}, {"rental_uris": {"android": "https://dc.lft.to/lastmile_qr_scan", "ios": "https://dc.lft.to/lastmile_qr_scan"}, "is_reserved": 0, "is_disabled": 0, "name": "875aa3aeab21c76d92e091d16840b50d", "bike_id": "875aa3aeab21c76d92e091d16840b50d", "fusion_lat": 0.0, "lon": -77.00903016666666, "type": "electric_scooter", "fusion_lon": 0.0, "lat": 38.909745666666666}, {"rental_uris": {"android": "https://dc.lft.to/lastmile_qr_scan", "ios": "https://dc.lft.to/lastmile_qr_scan"}, "is_reserved": 0, "is_disabled": 0, "name": "32f98e5e923a0d36f0bf501f4ddf23fa", "bike_id": "32f98e5e923a0d36f0bf501f4ddf23fa", "fusion_lat": 0.0, "lon": -77.08506583333333, "type": "electric_bike", "fusion_lon": 0.0, "lat": 38.86307133333333}, {"rental_uris": {"android": "https://dc.lft.to/lastmile_qr_scan", "ios": "https://dc.lft.to/lastmile_qr_scan"}, "is_reserved": 0, "is_disabled": 0, "name": "d273b9e98068bf53c50167737c380197", "bike_id": "d273b9e98068bf53c50167737c380197", "fusion_lat": 0.0, "lon": -77.04668633333333, "type": "electric_scooter", "fusion_lon": 0.0, "lat": 38.89494333333333}, {"rental_uris": {"android": "https://dc.lft.to/lastmile_qr_scan", "ios": "https://dc.lft.to/lastmile_qr_scan"}, "is_reserved": 0, "is_disabled": 0, "name": "f962a6aeb18b02694b007cc1e20f0dab", "bike_id": "f962a6aeb18b02694b007cc1e20f0dab", "fusion_lat": 0.0, "lon": -77.03211666666667, "type": "electric_scooter", "fusion_lon": 0.0, "lat": 38.907397}, {"rental_uris": {"android": "https://dc.lft.to/lastmile_qr_scan", "ios": "https://dc.lft.to/lastmile_qr_scan"}, "is_reserved": 0, "is_disabled": 0, "name": "a0c314d5b39273bb5064f9a6c430eca4", "bike_id": "a0c314d5b39273bb5064f9a6c430eca4", "fusion_lat": 0.0, "lon": -76.96097816666666, "type": "electric_scooter", "fusion_lon": 0.0, "lat": 38.918491}, {"rental_uris": {"android": "https://dc.lft.to/lastmile_qr_scan", "ios": "https://dc.lft.to/lastmile_qr_scan"}, "is_reserved": 0, "is_disabled": 0, "name": "9e56f6dd29e96413224ea5a7f2c827c8", "bike_id": "9e56f6dd29e96413224ea5a7f2c827c8", "fusion_lat": 0.0, "lon": -77.04415016666667, "type": "electric_scooter", "fusion_lon": 0.0, "lat": 38.895863166666665}, {"rental_uris": {"android": "https://dc.lft.to/lastmile_qr_scan", "ios": "https://dc.lft.to/lastmile_qr_scan"}, "is_reserved": 0, "is_disabled": 0, "name": "c451fa29886434d1a29c9266a7aa8c56", "bike_id": "c451fa29886434d1a29c9266a7aa8c56", "fusion_lat": 0.0, "lon": -77.09455766666666, "type": "electric_bike", "fusion_lon": 0.0, "lat": 38.807502666666664}, {"rental_uris": {"android": "https://dc.lft.to/lastmile_qr_scan", "ios": "https://dc.lft.to/lastmile_qr_scan"}, "is_reserved": 0, "is_disabled": 0, "name": "4dc2523ee0fc05386370bb8410115c43", "bike_id": "4dc2523ee0fc05386370bb8410115c43", "fusion_lat": 0.0, "lon": -77.0219775, "type": "electric_scooter", "fusion_lon": 0.0, "lat": 38.9216825}, {"rental_uris": {"android": "https://dc.lft.to/lastmile_qr_scan", "ios": "https://dc.lft.to/lastmile_qr_scan"}, "is_reserved": 0, "is_disabled": 0, "name": "942d6bd52f3dd5150f887ce3836d06f2", "bike_id": "942d6bd52f3dd5150f887ce3836d06f2", "fusion_lat": 0.0, "lon": -77.04868083333334, "type": "electric_scooter", "fusion_lon": 0.0, "lat": 38.892211833333334}, {"rental_uris": {"android": "https://dc.lft.to/lastmile_qr_scan", "ios": "https://dc.lft.to/lastmile_qr_scan"}, "is_reserved": 0, "is_disabled": 0, "name": "854ac82145f72e16dc9424291963bfb3", "bike_id": "854ac82145f72e16dc9424291963bfb3", "fusion_lat": 0.0, "lon": -76.930845, "type": "electric_scooter", "fusion_lon": 0.0, "lat": 38.8955725}, {"rental_uris": {"android": "https://dc.lft.to/lastmile_qr_scan", "ios": "https://dc.lft.to/lastmile_qr_scan"}, "is_reserved": 0, "is_disabled": 0, "name": "5bf3736933d6743f62fe4e25a95de714", "bike_id": "5bf3736933d6743f62fe4e25a95de714", "fusion_lat": 0.0, "lon": -77.02573233333334, "type": "electric_scooter", "fusion_lon": 0.0, "lat": 38.92693083333333}, {"rental_uris": {"android": "https://dc.lft.to/lastmile_qr_scan", "ios": "https://dc.lft.to/lastmile_qr_scan"}, "is_reserved": 0, "is_disabled": 0, "name": "3eef1342a1e2e68700b9641bdce254df", "bike_id": "3eef1342a1e2e68700b9641bdce254df", "fusion_lat": 0.0, "lon": -77.00065783333334, "type": "electric_scooter", "fusion_lon": 0.0, "lat": 38.87884533333333}, {"rental_uris": {"android": "https://dc.lft.to/lastmile_qr_scan", "ios": "https://dc.lft.to/lastmile_qr_scan"}, "is_reserved": 0, "is_disabled": 0, "name": "08850144f24d949de685675d235b1ed8", "bike_id": "08850144f24d949de685675d235b1ed8", "fusion_lat": 0.0, "lon": -77.04683533333333, "type": "electric_scooter", "fusion_lon": 0.0, "lat": 38.89740833333333}, {"rental_uris": {"android": "https://dc.lft.to/lastmile_qr_scan", "ios": "https://dc.lft.to/lastmile_qr_scan"}, "is_reserved": 0, "is_disabled": 0, "name": "aea9079fcf4db9280561cd33d8af2ceb", "bike_id": "aea9079fcf4db9280561cd33d8af2ceb", "fusion_lat": 0.0, "lon": -77.01141366666667, "type": "electric_scooter", "fusion_lon": 0.0, "lat": 38.899963166666666}, {"rental_uris": {"android": "https://dc.lft.to/lastmile_qr_scan", "ios": "https://dc.lft.to/lastmile_qr_scan"}, "is_reserved": 0, "is_disabled": 0, "name": "6d5c011b593c85a0c9a36d5d2bf2b089", "bike_id": "6d5c011b593c85a0c9a36d5d2bf2b089", "fusion_lat": 0.0, "lon": -77.02372383333334, "type": "electric_scooter", "fusion_lon": 0.0, "lat": 38.91905583333333}, {"rental_uris": {"android": "https://dc.lft.to/lastmile_qr_scan", "ios": "https://dc.lft.to/lastmile_qr_scan"}, "is_reserved": 0, "is_disabled": 0, "name": "09bf7cc138ba608c944d0a677b7ca802", "bike_id": "09bf7cc138ba608c944d0a677b7ca802", "fusion_lat": 0.0, "lon": -77.03205033333333, "type": "electric_scooter", "fusion_lon": 0.0, "lat": 38.92023183333333}, {"rental_uris": {"android": "https://dc.lft.to/lastmile_qr_scan", "ios": "https://dc.lft.to/lastmile_qr_scan"}, "is_reserved": 0, "is_disabled": 0, "name": "f62471e1d6090fdbc9917500f655c5af", "bike_id": "f62471e1d6090fdbc9917500f655c5af", "fusion_lat": 0.0, "lon": -77.03925666666666, "type": "electric_scooter", "fusion_lon": 0.0, "lat": 38.9250025}, {"rental_uris": {"android": "https://dc.lft.to/lastmile_qr_scan", "ios": "https://dc.lft.to/lastmile_qr_scan"}, "is_reserved": 0, "is_disabled": 0, "name": "a6125c887e30701cdfc6631371942ecc", "bike_id": "a6125c887e30701cdfc6631371942ecc", "fusion_lat": 0.0, "lon": -77.03369383333333, "type": "electric_scooter", "fusion_lon": 0.0, "lat": 38.935780666666666}, {"rental_uris": {"android": "https://dc.lft.to/lastmile_qr_scan", "ios": "https://dc.lft.to/lastmile_qr_scan"}, "is_reserved": 0, "is_disabled": 0, "name": "7940cf58fdacdcd9e4fa2afd58a83822", "bike_id": "7940cf58fdacdcd9e4fa2afd58a83822", "fusion_lat": 0.0, "lon": -77.01456466666667, "type": "electric_scooter", "fusion_lon": 0.0, "lat": 38.95812883333333}, {"rental_uris": {"android": "https://dc.lft.to/lastmile_qr_scan", "ios": "https://dc.lft.to/lastmile_qr_scan"}, "is_reserved": 0, "is_disabled": 0, "name": "b0737f891df9b7ba8fc31bec8a4e49d3", "bike_id": "b0737f891df9b7ba8fc31bec8a4e49d3", "fusion_lat": 0.0, "lon": -77.08054983333334, "type": "electric_scooter", "fusion_lon": 0.0, "lat": 38.948845166666665}, {"rental_uris": {"android": "https://dc.lft.to/lastmile_qr_scan", "ios": "https://dc.lft.to/lastmile_qr_scan"}, "is_reserved": 0, "is_disabled": 0, "name": "de9a0fc7f3323f23056e27f0ee61c119", "bike_id": "de9a0fc7f3323f23056e27f0ee61c119", "fusion_lat": 0.0, "lon": -77.04196933333333, "type": "electric_scooter", "fusion_lon": 0.0, "lat": 38.9205945}, {"rental_uris": {"android": "https://dc.lft.to/lastmile_qr_scan", "ios": "https://dc.lft.to/lastmile_qr_scan"}, "is_reserved": 0, "is_disabled": 0, "name": "4322db5eb8d97577b3fe9c3e64478741", "bike_id": "4322db5eb8d97577b3fe9c3e64478741", "fusion_lat": 0.0, "lon": -77.0365285, "type": "electric_scooter", "fusion_lon": 0.0, "lat": 38.92341483333333}, {"rental_uris": {"android": "https://dc.lft.to/lastmile_qr_scan", "ios": "https://dc.lft.to/lastmile_qr_scan"}, "is_reserved": 0, "is_disabled": 0, "name": "c9dd2223f8d008778525dca40101de31", "bike_id": "c9dd2223f8d008778525dca40101de31", "fusion_lat": 0.0, "lon": -77.00662616666666, "type": "electric_scooter", "fusion_lon": 0.0, "lat": 38.909770333333334}, {"rental_uris": {"android": "https://dc.lft.to/lastmile_qr_scan", "ios": "https://dc.lft.to/lastmile_qr_scan"}, "is_reserved": 0, "is_disabled": 0, "name": "d8ee917259d3cdaec35a43aaef6d1fb2", "bike_id": "d8ee917259d3cdaec35a43aaef6d1fb2", "fusion_lat": 0.0, "lon": -77.06251966666666, "type": "electric_bike", "fusion_lon": 0.0, "lat": 38.94405016666666}, {"rental_uris": {"android": "https://dc.lft.to/lastmile_qr_scan", "ios": "https://dc.lft.to/lastmile_qr_scan"}, "is_reserved": 0, "is_disabled": 0, "name": "b274137aff58ef9903afe00469334d44", "bike_id": "b274137aff58ef9903afe00469334d44", "fusion_lat": 0.0, "lon": -77.02846083333333, "type": "electric_scooter", "fusion_lon": 0.0, "lat": 38.9012215}, {"rental_uris": {"android": "https://dc.lft.to/lastmile_qr_scan", "ios": "https://dc.lft.to/lastmile_qr_scan"}, "is_reserved": 0, "is_disabled": 0, "name": "1f7cb43d81577b418f03e464fdfdd2e2", "bike_id": "1f7cb43d81577b418f03e464fdfdd2e2", "fusion_lat": 0.0, "lon": -77.0792155, "type": "electric_bike", "fusion_lon": 0.0, "lat": 38.838243}, {"rental_uris": {"android": "https://dc.lft.to/lastmile_qr_scan", "ios": "https://dc.lft.to/lastmile_qr_scan"}, "is_reserved": 0, "is_disabled": 0, "name": "064eaa78dfa575c25e8119601b8feaaa", "bike_id": "064eaa78dfa575c25e8119601b8feaaa", "fusion_lat": 0.0, "lon": -77.23179183333333, "type": "electric_bike", "fusion_lon": 0.0, "lat": 38.928887833333334}, {"rental_uris": {"android": "https://dc.lft.to/lastmile_qr_scan", "ios": "https://dc.lft.to/lastmile_qr_scan"}, "is_reserved": 0, "is_disabled": 0, "name": "b413c3ad4f8937ee501583c4d41919bb", "bike_id": "b413c3ad4f8937ee501583c4d41919bb", "fusion_lat": 0.0, "lon": -77.0435665, "type": "electric_scooter", "fusion_lon": 0.0, "lat": 38.901203333333335}, {"rental_uris": {"android": "https://dc.lft.to/lastmile_qr_scan", "ios": "https://dc.lft.to/lastmile_qr_scan"}, "is_reserved": 0, "is_disabled": 0, "name": "56ec8dc03247d481eed22b4e0478536a", "bike_id": "56ec8dc03247d481eed22b4e0478536a", "fusion_lat": 0.0, "lon": -77.01968233333334, "type": "electric_scooter", "fusion_lon": 0.0, "lat": 38.92328666666667}, {"rental_uris": {"android": "https://dc.lft.to/lastmile_qr_scan", "ios": "https://dc.lft.to/lastmile_qr_scan"}, "is_reserved": 0, "is_disabled": 0, "name": "0d8d116eb2d6621eaf5d8b805781d11c", "bike_id": "0d8d116eb2d6621eaf5d8b805781d11c", "fusion_lat": 0.0, "lon": -77.02291516666666, "type": "electric_scooter", "fusion_lon": 0.0, "lat": 38.918353833333335}, {"rental_uris": {"android": "https://dc.lft.to/lastmile_qr_scan", "ios": "https://dc.lft.to/lastmile_qr_scan"}, "is_reserved": 0, "is_disabled": 0, "name": "b11fe38b1b9f046cf92a5e0503099fb8", "bike_id": "b11fe38b1b9f046cf92a5e0503099fb8", "fusion_lat": 0.0, "lon": -77.02290316666667, "type": "electric_scooter", "fusion_lon": 0.0, "lat": 38.89833383333333}, {"rental_uris": {"android": "https://dc.lft.to/lastmile_qr_scan", "ios": "https://dc.lft.to/lastmile_qr_scan"}, "is_reserved": 0, "is_disabled": 0, "name": "bc945f7500ec38a4b91bbe2d2b60f201", "bike_id": "bc945f7500ec38a4b91bbe2d2b60f201", "fusion_lat": 0.0, "lon": -77.02091316666667, "type": "electric_scooter", "fusion_lon": 0.0, "lat": 38.921505833333335}, {"rental_uris": {"android": "https://dc.lft.to/lastmile_qr_scan", "ios": "https://dc.lft.to/lastmile_qr_scan"}, "is_reserved": 0, "is_disabled": 0, "name": "849538dff24b484e93e41c67236668d2", "bike_id": "849538dff24b484e93e41c67236668d2", "fusion_lat": 0.0, "lon": -77.0217915, "type": "electric_scooter", "fusion_lon": 0.0, "lat": 38.892239833333335}, {"rental_uris": {"android": "https://dc.lft.to/lastmile_qr_scan", "ios": "https://dc.lft.to/lastmile_qr_scan"}, "is_reserved": 0, "is_disabled": 0, "name": "d3cca20d45c02bb28ffb5d6babd8fada", "bike_id": "d3cca20d45c02bb28ffb5d6babd8fada", "fusion_lat": 0.0, "lon": -77.0515375, "type": "electric_scooter", "fusion_lon": 0.0, "lat": 38.92380133333333}, {"rental_uris": {"android": "https://dc.lft.to/lastmile_qr_scan", "ios": "https://dc.lft.to/lastmile_qr_scan"}, "is_reserved": 0, "is_disabled": 0, "name": "50c5dcde67a6a8abb7d1bd216868fa45", "bike_id": "50c5dcde67a6a8abb7d1bd216868fa45", "fusion_lat": 0.0, "lon": -77.0269075, "type": "electric_scooter", "fusion_lon": 0.0, "lat": 38.93075283333334}, {"rental_uris": {"android": "https://dc.lft.to/lastmile_qr_scan", "ios": "https://dc.lft.to/lastmile_qr_scan"}, "is_reserved": 0, "is_disabled": 0, "name": "8970938aed327ca8909a60905866b593", "bike_id": "8970938aed327ca8909a60905866b593", "fusion_lat": 0.0, "lon": -77.03653333333334, "type": "electric_scooter", "fusion_lon": 0.0, "lat": 38.901295833333336}, {"rental_uris": {"android": "https://dc.lft.to/lastmile_qr_scan", "ios": "https://dc.lft.to/lastmile_qr_scan"}, "is_reserved": 0, "is_disabled": 0, "name": "c4ba516bf54543bbd96d405eb3f485fd", "bike_id": "c4ba516bf54543bbd96d405eb3f485fd", "fusion_lat": 0.0, "lon": -77.038647, "type": "electric_scooter", "fusion_lon": 0.0, "lat": 38.90282833333333}, {"rental_uris": {"android": "https://dc.lft.to/lastmile_qr_scan", "ios": "https://dc.lft.to/lastmile_qr_scan"}, "is_reserved": 0, "is_disabled": 0, "name": "11f9cb320fc8ad65e9b1b3a3373f431a", "bike_id": "11f9cb320fc8ad65e9b1b3a3373f431a", "fusion_lat": 0.0, "lon": -77.03258166666667, "type": "electric_scooter", "fusion_lon": 0.0, "lat": 38.92931083333333}, {"rental_uris": {"android": "https://dc.lft.to/lastmile_qr_scan", "ios": "https://dc.lft.to/lastmile_qr_scan"}, "is_reserved": 0, "is_disabled": 0, "name": "1b48d412c6548fc47844ed246358b3fb", "bike_id": "1b48d412c6548fc47844ed246358b3fb", "fusion_lat": 0.0, "lon": -77.0341395, "type": "electric_scooter", "fusion_lon": 0.0, "lat": 38.91410116666667}, {"rental_uris": {"android": "https://dc.lft.to/lastmile_qr_scan", "ios": "https://dc.lft.to/lastmile_qr_scan"}, "is_reserved": 0, "is_disabled": 0, "name": "a1a007103402c232d101998c331a7526", "bike_id": "a1a007103402c232d101998c331a7526", "fusion_lat": 0.0, "lon": -77.02318916666667, "type": "electric_scooter", "fusion_lon": 0.0, "lat": 38.92069433333333}, {"rental_uris": {"android": "https://dc.lft.to/lastmile_qr_scan", "ios": "https://dc.lft.to/lastmile_qr_scan"}, "is_reserved": 0, "is_disabled": 0, "name": "96f0b1e3f62194d714024394f2c8aa40", "bike_id": "96f0b1e3f62194d714024394f2c8aa40", "fusion_lat": 0.0, "lon": -77.0039, "type": "electric_bike", "fusion_lon": 0.0, "lat": 38.834255}, {"rental_uris": {"android": "https://dc.lft.to/lastmile_qr_scan", "ios": "https://dc.lft.to/lastmile_qr_scan"}, "is_reserved": 0, "is_disabled": 0, "name": "0e210238aa0b2f3f12fcebd1f5fc2379", "bike_id": "0e210238aa0b2f3f12fcebd1f5fc2379", "fusion_lat": 0.0, "lon": -77.0227385, "type": "electric_scooter", "fusion_lon": 0.0, "lat": 38.9266445}, {"rental_uris": {"android": "https://dc.lft.to/lastmile_qr_scan", "ios": "https://dc.lft.to/lastmile_qr_scan"}, "is_reserved": 0, "is_disabled": 0, "name": "b74010fa35caf0597c004f10c93cd08a", "bike_id": "b74010fa35caf0597c004f10c93cd08a", "fusion_lat": 0.0, "lon": -77.112887, "type": "electric_bike", "fusion_lon": 0.0, "lat": 38.83106016666667}, {"rental_uris": {"android": "https://dc.lft.to/lastmile_qr_scan", "ios": "https://dc.lft.to/lastmile_qr_scan"}, "is_reserved": 0, "is_disabled": 0, "name": "9c0fa027763d8821e646a97448a531aa", "bike_id": "9c0fa027763d8821e646a97448a531aa", "fusion_lat": 0.0, "lon": -77.01956183333333, "type": "electric_scooter", "fusion_lon": 0.0, "lat": 38.92325183333333}, {"rental_uris": {"android": "https://dc.lft.to/lastmile_qr_scan", "ios": "https://dc.lft.to/lastmile_qr_scan"}, "is_reserved": 0, "is_disabled": 0, "name": "c3abed30a7f6a086e68137f03b70fafe", "bike_id": "c3abed30a7f6a086e68137f03b70fafe", "fusion_lat": 0.0, "lon": -77.02318933333333, "type": "electric_scooter", "fusion_lon": 0.0, "lat": 38.894679}, {"rental_uris": {"android": "https://dc.lft.to/lastmile_qr_scan", "ios": "https://dc.lft.to/lastmile_qr_scan"}, "is_reserved": 0, "is_disabled": 0, "name": "a633784927fd7a42911dc0edd8e58289", "bike_id": "a633784927fd7a42911dc0edd8e58289", "fusion_lat": 0.0, "lon": -77.02588883333334, "type": "electric_scooter", "fusion_lon": 0.0, "lat": 38.920309333333336}, {"rental_uris": {"android": "https://dc.lft.to/lastmile_qr_scan", "ios": "https://dc.lft.to/lastmile_qr_scan"}, "is_reserved": 0, "is_disabled": 0, "name": "f54ae00798daf7f16be5cec178172fa2", "bike_id": "f54ae00798daf7f16be5cec178172fa2", "fusion_lat": 0.0, "lon": -77.023643, "type": "electric_scooter", "fusion_lon": 0.0, "lat": 38.8792175}, {"rental_uris": {"android": "https://dc.lft.to/lastmile_qr_scan", "ios": "https://dc.lft.to/lastmile_qr_scan"}, "is_reserved": 0, "is_disabled": 0, "name": "430e6c86f1448b2480d2f6da52caff8d", "bike_id": "430e6c86f1448b2480d2f6da52caff8d", "fusion_lat": 0.0, "lon": -77.034587, "type": "electric_scooter", "fusion_lon": 0.0, "lat": 38.9189075}, {"rental_uris": {"android": "https://dc.lft.to/lastmile_qr_scan", "ios": "https://dc.lft.to/lastmile_qr_scan"}, "is_reserved": 0, "is_disabled": 0, "name": "2decb38b058d8c02ff3810bffd234422", "bike_id": "2decb38b058d8c02ff3810bffd234422", "fusion_lat": 0.0, "lon": -76.98243216666667, "type": "electric_scooter", "fusion_lon": 0.0, "lat": 38.8954005}, {"rental_uris": {"android": "https://dc.lft.to/lastmile_qr_scan", "ios": "https://dc.lft.to/lastmile_qr_scan"}, "is_reserved": 0, "is_disabled": 0, "name": "f30be5a5620b93304fcd16f48d7cfc76", "bike_id": "f30be5a5620b93304fcd16f48d7cfc76", "fusion_lat": 0.0, "lon": -77.0090855, "type": "electric_scooter", "fusion_lon": 0.0, "lat": 38.913691666666665}, {"rental_uris": {"android": "https://dc.lft.to/lastmile_qr_scan", "ios": "https://dc.lft.to/lastmile_qr_scan"}, "is_reserved": 0, "is_disabled": 0, "name": "0490849e7b4ec8c7d3ad55ce410cdb96", "bike_id": "0490849e7b4ec8c7d3ad55ce410cdb96", "fusion_lat": 0.0, "lon": -76.92600233333333, "type": "electric_scooter", "fusion_lon": 0.0, "lat": 38.89725116666666}, {"rental_uris": {"android": "https://dc.lft.to/lastmile_qr_scan", "ios": "https://dc.lft.to/lastmile_qr_scan"}, "is_reserved": 0, "is_disabled": 0, "name": "1b32c17abfb0b004777ce33932d1d081", "bike_id": "1b32c17abfb0b004777ce33932d1d081", "fusion_lat": 0.0, "lon": -77.02894566666667, "type": "electric_scooter", "fusion_lon": 0.0, "lat": 38.926809}, {"rental_uris": {"android": "https://dc.lft.to/lastmile_qr_scan", "ios": "https://dc.lft.to/lastmile_qr_scan"}, "is_reserved": 0, "is_disabled": 0, "name": "50874696f234d111a41ddd9de1d3fd7b", "bike_id": "50874696f234d111a41ddd9de1d3fd7b", "fusion_lat": 0.0, "lon": -77.00916633333334, "type": "electric_scooter", "fusion_lon": 0.0, "lat": 38.8954475}, {"rental_uris": {"android": "https://dc.lft.to/lastmile_qr_scan", "ios": "https://dc.lft.to/lastmile_qr_scan"}, "is_reserved": 0, "is_disabled": 0, "name": "f9e2d56805f372e707ad75d6c3bff9a7", "bike_id": "f9e2d56805f372e707ad75d6c3bff9a7", "fusion_lat": 0.0, "lon": -77.04012816666666, "type": "electric_scooter", "fusion_lon": 0.0, "lat": 38.92436433333334}, {"rental_uris": {"android": "https://dc.lft.to/lastmile_qr_scan", "ios": "https://dc.lft.to/lastmile_qr_scan"}, "is_reserved": 0, "is_disabled": 0, "name": "52486caa34094fc0280c42d0de45cdf1", "bike_id": "52486caa34094fc0280c42d0de45cdf1", "fusion_lat": 0.0, "lon": -76.9865995, "type": "electric_scooter", "fusion_lon": 0.0, "lat": 38.8551605}, {"rental_uris": {"android": "https://dc.lft.to/lastmile_qr_scan", "ios": "https://dc.lft.to/lastmile_qr_scan"}, "is_reserved": 0, "is_disabled": 0, "name": "5fa367a93d00367d0356968db74561b5", "bike_id": "5fa367a93d00367d0356968db74561b5", "fusion_lat": 0.0, "lon": -77.02439066666666, "type": "electric_scooter", "fusion_lon": 0.0, "lat": 38.90763483333333}, {"rental_uris": {"android": "https://dc.lft.to/lastmile_qr_scan", "ios": "https://dc.lft.to/lastmile_qr_scan"}, "is_reserved": 0, "is_disabled": 0, "name": "9a65cd6307b8af63c032b3285d79e7f2", "bike_id": "9a65cd6307b8af63c032b3285d79e7f2", "fusion_lat": 0.0, "lon": -77.019102, "type": "electric_scooter", "fusion_lon": 0.0, "lat": 38.903137666666666}, {"rental_uris": {"android": "https://dc.lft.to/lastmile_qr_scan", "ios": "https://dc.lft.to/lastmile_qr_scan"}, "is_reserved": 0, "is_disabled": 0, "name": "5934a65b3193f71f83878135ee43c9bc", "bike_id": "5934a65b3193f71f83878135ee43c9bc", "fusion_lat": 0.0, "lon": -77.0317565, "type": "electric_scooter", "fusion_lon": 0.0, "lat": 38.91819183333333}, {"rental_uris": {"android": "https://dc.lft.to/lastmile_qr_scan", "ios": "https://dc.lft.to/lastmile_qr_scan"}, "is_reserved": 0, "is_disabled": 0, "name": "d29b4707cf34d47dc9cf62cc987193d2", "bike_id": "d29b4707cf34d47dc9cf62cc987193d2", "fusion_lat": 0.0, "lon": -77.043368, "type": "electric_scooter", "fusion_lon": 0.0, "lat": 38.90669466666667}, {"rental_uris": {"android": "https://dc.lft.to/lastmile_qr_scan", "ios": "https://dc.lft.to/lastmile_qr_scan"}, "is_reserved": 0, "is_disabled": 0, "name": "1e6e73b067cb3a6c8b0f02aa1f6d7300", "bike_id": "1e6e73b067cb3a6c8b0f02aa1f6d7300", "fusion_lat": 0.0, "lon": -77.01578683333334, "type": "electric_scooter", "fusion_lon": 0.0, "lat": 38.92682033333333}, {"rental_uris": {"android": "https://dc.lft.to/lastmile_qr_scan", "ios": "https://dc.lft.to/lastmile_qr_scan"}, "is_reserved": 0, "is_disabled": 0, "name": "98f9a1f453eaf446d0b78b0880472ee1", "bike_id": "98f9a1f453eaf446d0b78b0880472ee1", "fusion_lat": 0.0, "lon": -77.02287466666667, "type": "electric_scooter", "fusion_lon": 0.0, "lat": 38.89958633333333}, {"rental_uris": {"android": "https://dc.lft.to/lastmile_qr_scan", "ios": "https://dc.lft.to/lastmile_qr_scan"}, "is_reserved": 0, "is_disabled": 0, "name": "f2e5f9d9e0b3b3d83497fd3df8073806", "bike_id": "f2e5f9d9e0b3b3d83497fd3df8073806", "fusion_lat": 0.0, "lon": -77.00665483333333, "type": "electric_scooter", "fusion_lon": 0.0, "lat": 38.90005983333333}, {"rental_uris": {"android": "https://dc.lft.to/lastmile_qr_scan", "ios": "https://dc.lft.to/lastmile_qr_scan"}, "is_reserved": 0, "is_disabled": 0, "name": "82cf1f98f5aa3c157ce4a896e6964c2f", "bike_id": "82cf1f98f5aa3c157ce4a896e6964c2f", "fusion_lat": 0.0, "lon": -77.03194483333333, "type": "electric_scooter", "fusion_lon": 0.0, "lat": 38.896766166666666}, {"rental_uris": {"android": "https://dc.lft.to/lastmile_qr_scan", "ios": "https://dc.lft.to/lastmile_qr_scan"}, "is_reserved": 0, "is_disabled": 0, "name": "ca05a86257f4c6473ae7c06d9d3e00c7", "bike_id": "ca05a86257f4c6473ae7c06d9d3e00c7", "fusion_lat": 0.0, "lon": -76.98248433333333, "type": "electric_bike", "fusion_lon": 0.0, "lat": 38.95235816666667}, {"rental_uris": {"android": "https://dc.lft.to/lastmile_qr_scan", "ios": "https://dc.lft.to/lastmile_qr_scan"}, "is_reserved": 0, "is_disabled": 0, "name": "7d54375d3452f83876b5d051f5ef83e9", "bike_id": "7d54375d3452f83876b5d051f5ef83e9", "fusion_lat": 0.0, "lon": -77.04779933333333, "type": "electric_scooter", "fusion_lon": 0.0, "lat": 38.8936605}, {"rental_uris": {"android": "https://dc.lft.to/lastmile_qr_scan", "ios": "https://dc.lft.to/lastmile_qr_scan"}, "is_reserved": 0, "is_disabled": 0, "name": "550dc91e5fb3d9e2e7bb9087c8f16dee", "bike_id": "550dc91e5fb3d9e2e7bb9087c8f16dee", "fusion_lat": 0.0, "lon": -77.02821916666667, "type": "electric_scooter", "fusion_lon": 0.0, "lat": 38.89964766666667}, {"rental_uris": {"android": "https://dc.lft.to/lastmile_qr_scan", "ios": "https://dc.lft.to/lastmile_qr_scan"}, "is_reserved": 0, "is_disabled": 0, "name": "4dd193d7b109b7807986eccad556eeb6", "bike_id": "4dd193d7b109b7807986eccad556eeb6", "fusion_lat": 0.0, "lon": -77.04502066666667, "type": "electric_scooter", "fusion_lon": 0.0, "lat": 38.89217266666667}, {"rental_uris": {"android": "https://dc.lft.to/lastmile_qr_scan", "ios": "https://dc.lft.to/lastmile_qr_scan"}, "is_reserved": 0, "is_disabled": 0, "name": "df0762bd734b16183d461b86332728ba", "bike_id": "df0762bd734b16183d461b86332728ba", "fusion_lat": 0.0, "lon": -77.04302183333333, "type": "electric_scooter", "fusion_lon": 0.0, "lat": 38.923295}, {"rental_uris": {"android": "https://dc.lft.to/lastmile_qr_scan", "ios": "https://dc.lft.to/lastmile_qr_scan"}, "is_reserved": 0, "is_disabled": 0, "name": "0c4dfc32ed711420e9a45b0ec73d8357", "bike_id": "0c4dfc32ed711420e9a45b0ec73d8357", "fusion_lat": 0.0, "lon": -77.04614666666667, "type": "electric_scooter", "fusion_lon": 0.0, "lat": 38.90264483333333}, {"rental_uris": {"android": "https://dc.lft.to/lastmile_qr_scan", "ios": "https://dc.lft.to/lastmile_qr_scan"}, "is_reserved": 0, "is_disabled": 0, "name": "7f8d484ea7c2af3160f81855e3f34a45", "bike_id": "7f8d484ea7c2af3160f81855e3f34a45", "fusion_lat": 0.0, "lon": -77.03008466666667, "type": "electric_bike", "fusion_lon": 0.0, "lat": 38.900102333333336}, {"rental_uris": {"android": "https://dc.lft.to/lastmile_qr_scan", "ios": "https://dc.lft.to/lastmile_qr_scan"}, "is_reserved": 0, "is_disabled": 0, "name": "1953f3ab76642540ed6a5d91317f46a0", "bike_id": "1953f3ab76642540ed6a5d91317f46a0", "fusion_lat": 0.0, "lon": -77.0399885, "type": "electric_scooter", "fusion_lon": 0.0, "lat": 38.89226166666667}, {"rental_uris": {"android": "https://dc.lft.to/lastmile_qr_scan", "ios": "https://dc.lft.to/lastmile_qr_scan"}, "is_reserved": 0, "is_disabled": 0, "name": "a9fa1170883cdb4c86f92f554ca00a35", "bike_id": "a9fa1170883cdb4c86f92f554ca00a35", "fusion_lat": 0.0, "lon": -77.03323383333333, "type": "electric_scooter", "fusion_lon": 0.0, "lat": 38.900054833333336}, {"rental_uris": {"android": "https://dc.lft.to/lastmile_qr_scan", "ios": "https://dc.lft.to/lastmile_qr_scan"}, "is_reserved": 0, "is_disabled": 0, "name": "f8160a55cf534760860e637cdaf14576", "bike_id": "f8160a55cf534760860e637cdaf14576", "fusion_lat": 0.0, "lon": -77.06882983333334, "type": "electric_scooter", "fusion_lon": 0.0, "lat": 38.9063615}, {"rental_uris": {"android": "https://dc.lft.to/lastmile_qr_scan", "ios": "https://dc.lft.to/lastmile_qr_scan"}, "is_reserved": 0, "is_disabled": 0, "name": "f40f5ab6b1348fec978ccb8df6933b00", "bike_id": "f40f5ab6b1348fec978ccb8df6933b00", "fusion_lat": 0.0, "lon": -77.03203333333333, "type": "electric_scooter", "fusion_lon": 0.0, "lat": 38.92065733333333}, {"rental_uris": {"android": "https://dc.lft.to/lastmile_qr_scan", "ios": "https://dc.lft.to/lastmile_qr_scan"}, "is_reserved": 0, "is_disabled": 0, "name": "f05e2dd6a33319df0c3d4ee98f613e5a", "bike_id": "f05e2dd6a33319df0c3d4ee98f613e5a", "fusion_lat": 0.0, "lon": -76.980206, "type": "electric_bike", "fusion_lon": 0.0, "lat": 38.853100833333336}, {"rental_uris": {"android": "https://dc.lft.to/lastmile_qr_scan", "ios": "https://dc.lft.to/lastmile_qr_scan"}, "is_reserved": 0, "is_disabled": 0, "name": "b8c5555631773d7749feff8e6e572bbb", "bike_id": "b8c5555631773d7749feff8e6e572bbb", "fusion_lat": 0.0, "lon": -77.0319545, "type": "electric_scooter", "fusion_lon": 0.0, "lat": 38.9202535}, {"rental_uris": {"android": "https://dc.lft.to/lastmile_qr_scan", "ios": "https://dc.lft.to/lastmile_qr_scan"}, "is_reserved": 0, "is_disabled": 0, "name": "e43330d21bc5bee6fd0a66332b631758", "bike_id": "e43330d21bc5bee6fd0a66332b631758", "fusion_lat": 0.0, "lon": -77.03258183333334, "type": "electric_scooter", "fusion_lon": 0.0, "lat": 38.928845833333334}, {"rental_uris": {"android": "https://dc.lft.to/lastmile_qr_scan", "ios": "https://dc.lft.to/lastmile_qr_scan"}, "is_reserved": 0, "is_disabled": 0, "name": "273d606d022b35f56a795824690f98d7", "bike_id": "273d606d022b35f56a795824690f98d7", "fusion_lat": 0.0, "lon": -77.02335083333334, "type": "electric_scooter", "fusion_lon": 0.0, "lat": 38.942890166666665}, {"rental_uris": {"android": "https://dc.lft.to/lastmile_qr_scan", "ios": "https://dc.lft.to/lastmile_qr_scan"}, "is_reserved": 0, "is_disabled": 0, "name": "914b3033162eb450f5ce93fcb87fc9ab", "bike_id": "914b3033162eb450f5ce93fcb87fc9ab", "fusion_lat": 0.0, "lon": -77.03173133333334, "type": "electric_scooter", "fusion_lon": 0.0, "lat": 38.9141325}, {"rental_uris": {"android": "https://dc.lft.to/lastmile_qr_scan", "ios": "https://dc.lft.to/lastmile_qr_scan"}, "is_reserved": 0, "is_disabled": 0, "name": "3b7303339d291f0420937d91f7a0d0ce", "bike_id": "3b7303339d291f0420937d91f7a0d0ce", "fusion_lat": 0.0, "lon": -77.03343716666667, "type": "electric_scooter", "fusion_lon": 0.0, "lat": 38.935106833333336}, {"rental_uris": {"android": "https://dc.lft.to/lastmile_qr_scan", "ios": "https://dc.lft.to/lastmile_qr_scan"}, "is_reserved": 0, "is_disabled": 0, "name": "13c93cc5b41e897a86877cabec966059", "bike_id": "13c93cc5b41e897a86877cabec966059", "fusion_lat": 0.0, "lon": -77.12884283333334, "type": "electric_bike", "fusion_lon": 0.0, "lat": 38.906149166666665}, {"rental_uris": {"android": "https://dc.lft.to/lastmile_qr_scan", "ios": "https://dc.lft.to/lastmile_qr_scan"}, "is_reserved": 0, "is_disabled": 0, "name": "95422975974635f165d7864817394d53", "bike_id": "95422975974635f165d7864817394d53", "fusion_lat": 0.0, "lon": -76.9689285, "type": "electric_bike", "fusion_lon": 0.0, "lat": 38.869859166666664}, {"rental_uris": {"android": "https://dc.lft.to/lastmile_qr_scan", "ios": "https://dc.lft.to/lastmile_qr_scan"}, "is_reserved": 0, "is_disabled": 0, "name": "1f6197103ad1eccf2de925aeadd7efbf", "bike_id": "1f6197103ad1eccf2de925aeadd7efbf", "fusion_lat": 0.0, "lon": -77.00743116666666, "type": "electric_scooter", "fusion_lon": 0.0, "lat": 38.8983575}, {"rental_uris": {"android": "https://dc.lft.to/lastmile_qr_scan", "ios": "https://dc.lft.to/lastmile_qr_scan"}, "is_reserved": 0, "is_disabled": 0, "name": "b656ead205b2b791491d0901e54be43a", "bike_id": "b656ead205b2b791491d0901e54be43a", "fusion_lat": 0.0, "lon": -77.0237505, "type": "electric_scooter", "fusion_lon": 0.0, "lat": 38.892217333333335}, {"rental_uris": {"android": "https://dc.lft.to/lastmile_qr_scan", "ios": "https://dc.lft.to/lastmile_qr_scan"}, "is_reserved": 0, "is_disabled": 0, "name": "4258ff9b9ab771b8ac5c06807b139a4e", "bike_id": "4258ff9b9ab771b8ac5c06807b139a4e", "fusion_lat": 0.0, "lon": -77.03996116666667, "type": "electric_scooter", "fusion_lon": 0.0, "lat": 38.93420733333333}, {"rental_uris": {"android": "https://dc.lft.to/lastmile_qr_scan", "ios": "https://dc.lft.to/lastmile_qr_scan"}, "is_reserved": 0, "is_disabled": 0, "name": "892b82a5ee9fdffc25a82318072105fc", "bike_id": "892b82a5ee9fdffc25a82318072105fc", "fusion_lat": 0.0, "lon": -77.017302, "type": "electric_scooter", "fusion_lon": 0.0, "lat": 38.877025333333336}, {"rental_uris": {"android": "https://dc.lft.to/lastmile_qr_scan", "ios": "https://dc.lft.to/lastmile_qr_scan"}, "is_reserved": 0, "is_disabled": 0, "name": "74b792f5792a1eb8b1d1256377b8d766", "bike_id": "74b792f5792a1eb8b1d1256377b8d766", "fusion_lat": 0.0, "lon": -77.01966866666666, "type": "electric_scooter", "fusion_lon": 0.0, "lat": 38.9232475}, {"rental_uris": {"android": "https://dc.lft.to/lastmile_qr_scan", "ios": "https://dc.lft.to/lastmile_qr_scan"}, "is_reserved": 0, "is_disabled": 0, "name": "3ca41dbc0c8a34f4ef820131330e1fb4", "bike_id": "3ca41dbc0c8a34f4ef820131330e1fb4", "fusion_lat": 0.0, "lon": -77.01535516666667, "type": "electric_scooter", "fusion_lon": 0.0, "lat": 38.89332266666667}, {"rental_uris": {"android": "https://dc.lft.to/lastmile_qr_scan", "ios": "https://dc.lft.to/lastmile_qr_scan"}, "is_reserved": 0, "is_disabled": 0, "name": "482a4254bd4d7db92a768c66d090466f", "bike_id": "482a4254bd4d7db92a768c66d090466f", "fusion_lat": 0.0, "lon": -77.028148, "type": "electric_scooter", "fusion_lon": 0.0, "lat": 38.9312625}, {"rental_uris": {"android": "https://dc.lft.to/lastmile_qr_scan", "ios": "https://dc.lft.to/lastmile_qr_scan"}, "is_reserved": 0, "is_disabled": 0, "name": "af3a4ca7083c84af3eb137c77945f745", "bike_id": "af3a4ca7083c84af3eb137c77945f745", "fusion_lat": 0.0, "lon": -77.07197583333334, "type": "electric_scooter", "fusion_lon": 0.0, "lat": 38.9075825}, {"rental_uris": {"android": "https://dc.lft.to/lastmile_qr_scan", "ios": "https://dc.lft.to/lastmile_qr_scan"}, "is_reserved": 0, "is_disabled": 0, "name": "249d1caec0f440affb6d7fc5dec4dce7", "bike_id": "249d1caec0f440affb6d7fc5dec4dce7", "fusion_lat": 0.0, "lon": -77.04412866666667, "type": "electric_scooter", "fusion_lon": 0.0, "lat": 38.901255166666665}, {"rental_uris": {"android": "https://dc.lft.to/lastmile_qr_scan", "ios": "https://dc.lft.to/lastmile_qr_scan"}, "is_reserved": 0, "is_disabled": 0, "name": "6c039099278ecfde481efb5e36d320fa", "bike_id": "6c039099278ecfde481efb5e36d320fa", "fusion_lat": 0.0, "lon": -77.018138, "type": "electric_scooter", "fusion_lon": 0.0, "lat": 38.91367666666667}, {"rental_uris": {"android": "https://dc.lft.to/lastmile_qr_scan", "ios": "https://dc.lft.to/lastmile_qr_scan"}, "is_reserved": 0, "is_disabled": 0, "name": "60bb67d1ad6302950483a55fcb44f598", "bike_id": "60bb67d1ad6302950483a55fcb44f598", "fusion_lat": 0.0, "lon": -77.02051666666667, "type": "electric_scooter", "fusion_lon": 0.0, "lat": 38.92170766666667}, {"rental_uris": {"android": "https://dc.lft.to/lastmile_qr_scan", "ios": "https://dc.lft.to/lastmile_qr_scan"}, "is_reserved": 0, "is_disabled": 0, "name": "8e36ba08dffb88a6f25b9101088cfd62", "bike_id": "8e36ba08dffb88a6f25b9101088cfd62", "fusion_lat": 0.0, "lon": -77.03316366666667, "type": "electric_scooter", "fusion_lon": 0.0, "lat": 38.9288065}, {"rental_uris": {"android": "https://dc.lft.to/lastmile_qr_scan", "ios": "https://dc.lft.to/lastmile_qr_scan"}, "is_reserved": 0, "is_disabled": 0, "name": "df13fb61f645d22f2a434460dfb7863b", "bike_id": "df13fb61f645d22f2a434460dfb7863b", "fusion_lat": 0.0, "lon": -77.04516483333333, "type": "electric_scooter", "fusion_lon": 0.0, "lat": 38.90012883333333}, {"rental_uris": {"android": "https://dc.lft.to/lastmile_qr_scan", "ios": "https://dc.lft.to/lastmile_qr_scan"}, "is_reserved": 0, "is_disabled": 0, "name": "ba0b15194187b462730cf5c741a59526", "bike_id": "ba0b15194187b462730cf5c741a59526", "fusion_lat": 0.0, "lon": -77.04176633333333, "type": "electric_scooter", "fusion_lon": 0.0, "lat": 38.90538333333333}, {"rental_uris": {"android": "https://dc.lft.to/lastmile_qr_scan", "ios": "https://dc.lft.to/lastmile_qr_scan"}, "is_reserved": 0, "is_disabled": 0, "name": "08989ade260ef2a64caf5e2f4f0fe092", "bike_id": "08989ade260ef2a64caf5e2f4f0fe092", "fusion_lat": 0.0, "lon": -77.04749383333333, "type": "electric_scooter", "fusion_lon": 0.0, "lat": 38.9001935}, {"rental_uris": {"android": "https://dc.lft.to/lastmile_qr_scan", "ios": "https://dc.lft.to/lastmile_qr_scan"}, "is_reserved": 0, "is_disabled": 0, "name": "fa21976d77275782e9d9b8cc85c2e3a3", "bike_id": "fa21976d77275782e9d9b8cc85c2e3a3", "fusion_lat": 0.0, "lon": -77.02133316666666, "type": "electric_scooter", "fusion_lon": 0.0, "lat": 38.887382}, {"rental_uris": {"android": "https://dc.lft.to/lastmile_qr_scan", "ios": "https://dc.lft.to/lastmile_qr_scan"}, "is_reserved": 0, "is_disabled": 0, "name": "97e869613fe2993954bb214310e871fc", "bike_id": "97e869613fe2993954bb214310e871fc", "fusion_lat": 0.0, "lon": -77.02110833333333, "type": "electric_scooter", "fusion_lon": 0.0, "lat": 38.906011}, {"rental_uris": {"android": "https://dc.lft.to/lastmile_qr_scan", "ios": "https://dc.lft.to/lastmile_qr_scan"}, "is_reserved": 0, "is_disabled": 0, "name": "4bc44399d98a8c9f22f6fcf38d11fcfd", "bike_id": "4bc44399d98a8c9f22f6fcf38d11fcfd", "fusion_lat": 0.0, "lon": -77.03197866666666, "type": "electric_scooter", "fusion_lon": 0.0, "lat": 38.898333}, {"rental_uris": {"android": "https://dc.lft.to/lastmile_qr_scan", "ios": "https://dc.lft.to/lastmile_qr_scan"}, "is_reserved": 0, "is_disabled": 0, "name": "bd94b373befcc29a218d69439b0ae7cd", "bike_id": "bd94b373befcc29a218d69439b0ae7cd", "fusion_lat": 0.0, "lon": -77.02795283333333, "type": "electric_scooter", "fusion_lon": 0.0, "lat": 38.962242833333335}, {"rental_uris": {"android": "https://dc.lft.to/lastmile_qr_scan", "ios": "https://dc.lft.to/lastmile_qr_scan"}, "is_reserved": 0, "is_disabled": 0, "name": "9a248bbbfd1f47aa97ae5de94a56f56b", "bike_id": "9a248bbbfd1f47aa97ae5de94a56f56b", "fusion_lat": 0.0, "lon": -77.04351016666666, "type": "electric_scooter", "fusion_lon": 0.0, "lat": 38.904079333333335}, {"rental_uris": {"android": "https://dc.lft.to/lastmile_qr_scan", "ios": "https://dc.lft.to/lastmile_qr_scan"}, "is_reserved": 0, "is_disabled": 0, "name": "22418682d46a6f2298a8d6563d28bb60", "bike_id": "22418682d46a6f2298a8d6563d28bb60", "fusion_lat": 0.0, "lon": -77.03999133333333, "type": "electric_scooter", "fusion_lon": 0.0, "lat": 38.934167}, {"rental_uris": {"android": "https://dc.lft.to/lastmile_qr_scan", "ios": "https://dc.lft.to/lastmile_qr_scan"}, "is_reserved": 0, "is_disabled": 0, "name": "3042731cf90e7a976d52f5d7bcd94406", "bike_id": "3042731cf90e7a976d52f5d7bcd94406", "fusion_lat": 0.0, "lon": -77.03503316666666, "type": "electric_scooter", "fusion_lon": 0.0, "lat": 38.91869666666667}, {"rental_uris": {"android": "https://dc.lft.to/lastmile_qr_scan", "ios": "https://dc.lft.to/lastmile_qr_scan"}, "is_reserved": 0, "is_disabled": 0, "name": "6b3187316332f064434cbe6dadacc832", "bike_id": "6b3187316332f064434cbe6dadacc832", "fusion_lat": 0.0, "lon": -77.03340033333333, "type": "electric_scooter", "fusion_lon": 0.0, "lat": 38.898267833333335}, {"rental_uris": {"android": "https://dc.lft.to/lastmile_qr_scan", "ios": "https://dc.lft.to/lastmile_qr_scan"}, "is_reserved": 0, "is_disabled": 0, "name": "4d337d21903d022be79d0f4caad4ec32", "bike_id": "4d337d21903d022be79d0f4caad4ec32", "fusion_lat": 0.0, "lon": -76.99760416666666, "type": "electric_scooter", "fusion_lon": 0.0, "lat": 38.92270666666667}, {"rental_uris": {"android": "https://dc.lft.to/lastmile_qr_scan", "ios": "https://dc.lft.to/lastmile_qr_scan"}, "is_reserved": 0, "is_disabled": 0, "name": "7290a6d2d8f29ff8dabf11aa089229c5", "bike_id": "7290a6d2d8f29ff8dabf11aa089229c5", "fusion_lat": 0.0, "lon": -77.03377966666666, "type": "electric_scooter", "fusion_lon": 0.0, "lat": 38.89967033333333}, {"rental_uris": {"android": "https://dc.lft.to/lastmile_qr_scan", "ios": "https://dc.lft.to/lastmile_qr_scan"}, "is_reserved": 0, "is_disabled": 0, "name": "c548d16cd520f95193170a015d095895", "bike_id": "c548d16cd520f95193170a015d095895", "fusion_lat": 0.0, "lon": -77.03867016666666, "type": "electric_scooter", "fusion_lon": 0.0, "lat": 38.902783}, {"rental_uris": {"android": "https://dc.lft.to/lastmile_qr_scan", "ios": "https://dc.lft.to/lastmile_qr_scan"}, "is_reserved": 0, "is_disabled": 0, "name": "3ea75830514134f3add29ac9ed2c3f23", "bike_id": "3ea75830514134f3add29ac9ed2c3f23", "fusion_lat": 0.0, "lon": -77.04324666666666, "type": "electric_scooter", "fusion_lon": 0.0, "lat": 38.8922075}, {"rental_uris": {"android": "https://dc.lft.to/lastmile_qr_scan", "ios": "https://dc.lft.to/lastmile_qr_scan"}, "is_reserved": 0, "is_disabled": 0, "name": "c46d959c7c18911d1e2c731fd69d54c2", "bike_id": "c46d959c7c18911d1e2c731fd69d54c2", "fusion_lat": 0.0, "lon": -77.04227866666666, "type": "electric_scooter", "fusion_lon": 0.0, "lat": 38.89985516666667}, {"rental_uris": {"android": "https://dc.lft.to/lastmile_qr_scan", "ios": "https://dc.lft.to/lastmile_qr_scan"}, "is_reserved": 0, "is_disabled": 0, "name": "bc84667a730e44a085279b9305726ac7", "bike_id": "bc84667a730e44a085279b9305726ac7", "fusion_lat": 0.0, "lon": -77.0208645, "type": "electric_scooter", "fusion_lon": 0.0, "lat": 38.92238}, {"rental_uris": {"android": "https://dc.lft.to/lastmile_qr_scan", "ios": "https://dc.lft.to/lastmile_qr_scan"}, "is_reserved": 0, "is_disabled": 0, "name": "253e6bbf76698f195873119204552368", "bike_id": "253e6bbf76698f195873119204552368", "fusion_lat": 0.0, "lon": -77.00572366666667, "type": "electric_scooter", "fusion_lon": 0.0, "lat": 38.88503433333333}, {"rental_uris": {"android": "https://dc.lft.to/lastmile_qr_scan", "ios": "https://dc.lft.to/lastmile_qr_scan"}, "is_reserved": 0, "is_disabled": 0, "name": "45d6a20723105270c2d6318b453eb56e", "bike_id": "45d6a20723105270c2d6318b453eb56e", "fusion_lat": 0.0, "lon": -77.0669925, "type": "electric_bike", "fusion_lon": 0.0, "lat": 38.83166416666667}, {"rental_uris": {"android": "https://dc.lft.to/lastmile_qr_scan", "ios": "https://dc.lft.to/lastmile_qr_scan"}, "is_reserved": 0, "is_disabled": 0, "name": "bc7778b92ba644c7a470d95752a45aad", "bike_id": "bc7778b92ba644c7a470d95752a45aad", "fusion_lat": 0.0, "lon": -77.03473466666667, "type": "electric_scooter", "fusion_lon": 0.0, "lat": 38.90279233333333}, {"rental_uris": {"android": "https://dc.lft.to/lastmile_qr_scan", "ios": "https://dc.lft.to/lastmile_qr_scan"}, "is_reserved": 0, "is_disabled": 0, "name": "1686aa1df6523f2e0ebe4c9ce0184e34", "bike_id": "1686aa1df6523f2e0ebe4c9ce0184e34", "fusion_lat": 0.0, "lon": -77.04508116666666, "type": "electric_scooter", "fusion_lon": 0.0, "lat": 38.91223816666667}, {"rental_uris": {"android": "https://dc.lft.to/lastmile_qr_scan", "ios": "https://dc.lft.to/lastmile_qr_scan"}, "is_reserved": 0, "is_disabled": 0, "name": "0f993cef3d01211cbb58393a059f3884", "bike_id": "0f993cef3d01211cbb58393a059f3884", "fusion_lat": 0.0, "lon": -77.03328933333333, "type": "electric_scooter", "fusion_lon": 0.0, "lat": 38.898817666666666}, {"rental_uris": {"android": "https://dc.lft.to/lastmile_qr_scan", "ios": "https://dc.lft.to/lastmile_qr_scan"}, "is_reserved": 0, "is_disabled": 0, "name": "658b445eb3b278546a79a355c5452f26", "bike_id": "658b445eb3b278546a79a355c5452f26", "fusion_lat": 0.0, "lon": -76.936304, "type": "electric_scooter", "fusion_lon": 0.0, "lat": 38.88339966666667}, {"rental_uris": {"android": "https://dc.lft.to/lastmile_qr_scan", "ios": "https://dc.lft.to/lastmile_qr_scan"}, "is_reserved": 0, "is_disabled": 0, "name": "a8c5686f135b7d1e7c56e7387c971630", "bike_id": "a8c5686f135b7d1e7c56e7387c971630", "fusion_lat": 0.0, "lon": -76.9936695, "type": "electric_bike", "fusion_lon": 0.0, "lat": 38.99089933333333}, {"rental_uris": {"android": "https://dc.lft.to/lastmile_qr_scan", "ios": "https://dc.lft.to/lastmile_qr_scan"}, "is_reserved": 0, "is_disabled": 0, "name": "f38a38e92983c193f23ba844590cff1d", "bike_id": "f38a38e92983c193f23ba844590cff1d", "fusion_lat": 0.0, "lon": -77.02202816666667, "type": "electric_scooter", "fusion_lon": 0.0, "lat": 38.900155833333336}, {"rental_uris": {"android": "https://dc.lft.to/lastmile_qr_scan", "ios": "https://dc.lft.to/lastmile_qr_scan"}, "is_reserved": 0, "is_disabled": 0, "name": "38a6b6fb112f3fd5ebf98629e6d9fc77", "bike_id": "38a6b6fb112f3fd5ebf98629e6d9fc77", "fusion_lat": 0.0, "lon": -77.063291, "type": "electric_scooter", "fusion_lon": 0.0, "lat": 38.943707833333335}, {"rental_uris": {"android": "https://dc.lft.to/lastmile_qr_scan", "ios": "https://dc.lft.to/lastmile_qr_scan"}, "is_reserved": 0, "is_disabled": 0, "name": "9d7851a51c8eaf49339d033d4408a68a", "bike_id": "9d7851a51c8eaf49339d033d4408a68a", "fusion_lat": 0.0, "lon": -77.0453365, "type": "electric_scooter", "fusion_lon": 0.0, "lat": 38.902731}, {"rental_uris": {"android": "https://dc.lft.to/lastmile_qr_scan", "ios": "https://dc.lft.to/lastmile_qr_scan"}, "is_reserved": 0, "is_disabled": 0, "name": "c2150e1b283f145d8b6c6b2d0d623dd7", "bike_id": "c2150e1b283f145d8b6c6b2d0d623dd7", "fusion_lat": 0.0, "lon": -77.02603833333333, "type": "electric_scooter", "fusion_lon": 0.0, "lat": 38.900463333333335}, {"rental_uris": {"android": "https://dc.lft.to/lastmile_qr_scan", "ios": "https://dc.lft.to/lastmile_qr_scan"}, "is_reserved": 0, "is_disabled": 0, "name": "4a75fd6760c3018583a01d6821c92eaa", "bike_id": "4a75fd6760c3018583a01d6821c92eaa", "fusion_lat": 0.0, "lon": -77.009113, "type": "electric_scooter", "fusion_lon": 0.0, "lat": 38.89889683333333}, {"rental_uris": {"android": "https://dc.lft.to/lastmile_qr_scan", "ios": "https://dc.lft.to/lastmile_qr_scan"}, "is_reserved": 0, "is_disabled": 0, "name": "993cecb8b3e3cfc386f407dceb69f120", "bike_id": "993cecb8b3e3cfc386f407dceb69f120", "fusion_lat": 0.0, "lon": -77.01498633333334, "type": "electric_scooter", "fusion_lon": 0.0, "lat": 38.89557216666667}, {"rental_uris": {"android": "https://dc.lft.to/lastmile_qr_scan", "ios": "https://dc.lft.to/lastmile_qr_scan"}, "is_reserved": 0, "is_disabled": 0, "name": "cf3651d733059193fe4774dceef1c566", "bike_id": "cf3651d733059193fe4774dceef1c566", "fusion_lat": 0.0, "lon": -77.03458416666666, "type": "electric_scooter", "fusion_lon": 0.0, "lat": 38.902665999999996}, {"rental_uris": {"android": "https://dc.lft.to/lastmile_qr_scan", "ios": "https://dc.lft.to/lastmile_qr_scan"}, "is_reserved": 0, "is_disabled": 0, "name": "616a7f3805b5dc17bd2f39dbc30f7390", "bike_id": "616a7f3805b5dc17bd2f39dbc30f7390", "fusion_lat": 0.0, "lon": -77.05953, "type": "electric_scooter", "fusion_lon": 0.0, "lat": 38.90148333333333}, {"rental_uris": {"android": "https://dc.lft.to/lastmile_qr_scan", "ios": "https://dc.lft.to/lastmile_qr_scan"}, "is_reserved": 0, "is_disabled": 0, "name": "40459d5d1045b7d7b2e3257971a157c3", "bike_id": "40459d5d1045b7d7b2e3257971a157c3", "fusion_lat": 0.0, "lon": -77.0532775, "type": "electric_scooter", "fusion_lon": 0.0, "lat": 38.9051505}, {"rental_uris": {"android": "https://dc.lft.to/lastmile_qr_scan", "ios": "https://dc.lft.to/lastmile_qr_scan"}, "is_reserved": 0, "is_disabled": 0, "name": "08563ef78a694597f3bcc0d6850a1d57", "bike_id": "08563ef78a694597f3bcc0d6850a1d57", "fusion_lat": 0.0, "lon": -77.02693816666667, "type": "electric_scooter", "fusion_lon": 0.0, "lat": 38.9023395}, {"rental_uris": {"android": "https://dc.lft.to/lastmile_qr_scan", "ios": "https://dc.lft.to/lastmile_qr_scan"}, "is_reserved": 0, "is_disabled": 0, "name": "35b83d126f5248d17eaf43612505391a", "bike_id": "35b83d126f5248d17eaf43612505391a", "fusion_lat": 0.0, "lon": -76.9408905, "type": "electric_scooter", "fusion_lon": 0.0, "lat": 38.891198833333334}, {"rental_uris": {"android": "https://dc.lft.to/lastmile_qr_scan", "ios": "https://dc.lft.to/lastmile_qr_scan"}, "is_reserved": 0, "is_disabled": 0, "name": "799d371594ea92d156a22b9630f3a89a", "bike_id": "799d371594ea92d156a22b9630f3a89a", "fusion_lat": 0.0, "lon": -77.04076416666666, "type": "electric_scooter", "fusion_lon": 0.0, "lat": 38.908707}, {"rental_uris": {"android": "https://dc.lft.to/lastmile_qr_scan", "ios": "https://dc.lft.to/lastmile_qr_scan"}, "is_reserved": 0, "is_disabled": 0, "name": "c009301e89237ca79409d2f1f316185f", "bike_id": "c009301e89237ca79409d2f1f316185f", "fusion_lat": 0.0, "lon": -77.02382733333333, "type": "electric_scooter", "fusion_lon": 0.0, "lat": 38.9526465}, {"rental_uris": {"android": "https://dc.lft.to/lastmile_qr_scan", "ios": "https://dc.lft.to/lastmile_qr_scan"}, "is_reserved": 0, "is_disabled": 0, "name": "9da4b976cd1303d66bc93d5332bcc4ac", "bike_id": "9da4b976cd1303d66bc93d5332bcc4ac", "fusion_lat": 0.0, "lon": -77.0406025, "type": "electric_scooter", "fusion_lon": 0.0, "lat": 38.90379516666667}, {"rental_uris": {"android": "https://dc.lft.to/lastmile_qr_scan", "ios": "https://dc.lft.to/lastmile_qr_scan"}, "is_reserved": 0, "is_disabled": 0, "name": "ae30fe645675553b838ccef226d96bd3", "bike_id": "ae30fe645675553b838ccef226d96bd3", "fusion_lat": 0.0, "lon": -77.04535833333334, "type": "electric_scooter", "fusion_lon": 0.0, "lat": 38.90264533333333}, {"rental_uris": {"android": "https://dc.lft.to/lastmile_qr_scan", "ios": "https://dc.lft.to/lastmile_qr_scan"}, "is_reserved": 0, "is_disabled": 0, "name": "d6869b3f3b4e4b6cbc0e3a1a4cf1e51d", "bike_id": "d6869b3f3b4e4b6cbc0e3a1a4cf1e51d", "fusion_lat": 0.0, "lon": -77.023045, "type": "electric_scooter", "fusion_lon": 0.0, "lat": 38.909694}, {"rental_uris": {"android": "https://dc.lft.to/lastmile_qr_scan", "ios": "https://dc.lft.to/lastmile_qr_scan"}, "is_reserved": 0, "is_disabled": 0, "name": "04f105689045694de1a1ec0f64175157", "bike_id": "04f105689045694de1a1ec0f64175157", "fusion_lat": 0.0, "lon": -77.0416735, "type": "electric_scooter", "fusion_lon": 0.0, "lat": 38.895567}, {"rental_uris": {"android": "https://dc.lft.to/lastmile_qr_scan", "ios": "https://dc.lft.to/lastmile_qr_scan"}, "is_reserved": 0, "is_disabled": 0, "name": "f345f3337a7892bce86bb1667b425d1f", "bike_id": "f345f3337a7892bce86bb1667b425d1f", "fusion_lat": 0.0, "lon": -77.02973833333333, "type": "electric_scooter", "fusion_lon": 0.0, "lat": 38.94289966666667}, {"rental_uris": {"android": "https://dc.lft.to/lastmile_qr_scan", "ios": "https://dc.lft.to/lastmile_qr_scan"}, "is_reserved": 0, "is_disabled": 0, "name": "edfd4d07168fba708abc91cb658c7bb6", "bike_id": "edfd4d07168fba708abc91cb658c7bb6", "fusion_lat": 0.0, "lon": -77.042695, "type": "electric_scooter", "fusion_lon": 0.0, "lat": 38.92230933333333}, {"rental_uris": {"android": "https://dc.lft.to/lastmile_qr_scan", "ios": "https://dc.lft.to/lastmile_qr_scan"}, "is_reserved": 0, "is_disabled": 0, "name": "ec7776e5d1698b203816f3942880a7a0", "bike_id": "ec7776e5d1698b203816f3942880a7a0", "fusion_lat": 0.0, "lon": -77.0446295, "type": "electric_scooter", "fusion_lon": 0.0, "lat": 38.924741}, {"rental_uris": {"android": "https://dc.lft.to/lastmile_qr_scan", "ios": "https://dc.lft.to/lastmile_qr_scan"}, "is_reserved": 0, "is_disabled": 0, "name": "3b93e7492d5c66071c8fb0201e7f386d", "bike_id": "3b93e7492d5c66071c8fb0201e7f386d", "fusion_lat": 0.0, "lon": -77.0217, "type": "electric_scooter", "fusion_lon": 0.0, "lat": 38.8993855}, {"rental_uris": {"android": "https://dc.lft.to/lastmile_qr_scan", "ios": "https://dc.lft.to/lastmile_qr_scan"}, "is_reserved": 0, "is_disabled": 0, "name": "54f76adfc74a18ba985388393789e0f6", "bike_id": "54f76adfc74a18ba985388393789e0f6", "fusion_lat": 0.0, "lon": -77.0197715, "type": "electric_scooter", "fusion_lon": 0.0, "lat": 38.887167}, {"rental_uris": {"android": "https://dc.lft.to/lastmile_qr_scan", "ios": "https://dc.lft.to/lastmile_qr_scan"}, "is_reserved": 0, "is_disabled": 0, "name": "48a39f195b5be343cc71977cf7535ca3", "bike_id": "48a39f195b5be343cc71977cf7535ca3", "fusion_lat": 0.0, "lon": -77.02411683333334, "type": "electric_scooter", "fusion_lon": 0.0, "lat": 38.916516333333334}, {"rental_uris": {"android": "https://dc.lft.to/lastmile_qr_scan", "ios": "https://dc.lft.to/lastmile_qr_scan"}, "is_reserved": 0, "is_disabled": 0, "name": "672fe726392c1e134549c406c92e341f", "bike_id": "672fe726392c1e134549c406c92e341f", "fusion_lat": 0.0, "lon": -77.01500116666666, "type": "electric_scooter", "fusion_lon": 0.0, "lat": 38.893081}, {"rental_uris": {"android": "https://dc.lft.to/lastmile_qr_scan", "ios": "https://dc.lft.to/lastmile_qr_scan"}, "is_reserved": 0, "is_disabled": 0, "name": "39e82f19056d705cd85a043d01358e63", "bike_id": "39e82f19056d705cd85a043d01358e63", "fusion_lat": 0.0, "lon": -77.01594266666666, "type": "electric_scooter", "fusion_lon": 0.0, "lat": 38.87458816666667}, {"rental_uris": {"android": "https://dc.lft.to/lastmile_qr_scan", "ios": "https://dc.lft.to/lastmile_qr_scan"}, "is_reserved": 0, "is_disabled": 0, "name": "4d1afe6f652b27c1bc5b7bad9b0cf537", "bike_id": "4d1afe6f652b27c1bc5b7bad9b0cf537", "fusion_lat": 0.0, "lon": -77.01202583333334, "type": "electric_bike", "fusion_lon": 0.0, "lat": 38.95062683333333}, {"rental_uris": {"android": "https://dc.lft.to/lastmile_qr_scan", "ios": "https://dc.lft.to/lastmile_qr_scan"}, "is_reserved": 0, "is_disabled": 0, "name": "1bbe9a5269ea2dd30a4291d6599c8693", "bike_id": "1bbe9a5269ea2dd30a4291d6599c8693", "fusion_lat": 0.0, "lon": -77.04691483333333, "type": "electric_scooter", "fusion_lon": 0.0, "lat": 38.921592}, {"rental_uris": {"android": "https://dc.lft.to/lastmile_qr_scan", "ios": "https://dc.lft.to/lastmile_qr_scan"}, "is_reserved": 0, "is_disabled": 0, "name": "284ee694840372198222ac77f77c6e90", "bike_id": "284ee694840372198222ac77f77c6e90", "fusion_lat": 0.0, "lon": -77.0630265, "type": "electric_scooter", "fusion_lon": 0.0, "lat": 38.903936333333334}, {"rental_uris": {"android": "https://dc.lft.to/lastmile_qr_scan", "ios": "https://dc.lft.to/lastmile_qr_scan"}, "is_reserved": 0, "is_disabled": 0, "name": "45fea2a8d7f1b5290f6731b717d10175", "bike_id": "45fea2a8d7f1b5290f6731b717d10175", "fusion_lat": 0.0, "lon": -76.95565716666667, "type": "electric_bike", "fusion_lon": 0.0, "lat": 38.98503783333334}, {"rental_uris": {"android": "https://dc.lft.to/lastmile_qr_scan", "ios": "https://dc.lft.to/lastmile_qr_scan"}, "is_reserved": 0, "is_disabled": 0, "name": "02347d9bd00bb54a96f00a8713301759", "bike_id": "02347d9bd00bb54a96f00a8713301759", "fusion_lat": 0.0, "lon": -77.00392983333333, "type": "electric_scooter", "fusion_lon": 0.0, "lat": 38.907757333333336}, {"rental_uris": {"android": "https://dc.lft.to/lastmile_qr_scan", "ios": "https://dc.lft.to/lastmile_qr_scan"}, "is_reserved": 0, "is_disabled": 0, "name": "c9d09ab7544b69d16a855f88e5ca46d6", "bike_id": "c9d09ab7544b69d16a855f88e5ca46d6", "fusion_lat": 0.0, "lon": -77.23410983333333, "type": "electric_bike", "fusion_lon": 0.0, "lat": 38.87579316666667}, {"rental_uris": {"android": "https://dc.lft.to/lastmile_qr_scan", "ios": "https://dc.lft.to/lastmile_qr_scan"}, "is_reserved": 0, "is_disabled": 0, "name": "ac0573768d4cdc0ab6e5c4c8633de67a", "bike_id": "ac0573768d4cdc0ab6e5c4c8633de67a", "fusion_lat": 0.0, "lon": -77.002216, "type": "electric_scooter", "fusion_lon": 0.0, "lat": 38.900350333333336}, {"rental_uris": {"android": "https://dc.lft.to/lastmile_qr_scan", "ios": "https://dc.lft.to/lastmile_qr_scan"}, "is_reserved": 0, "is_disabled": 0, "name": "75d27d033fb426998a15ea890a99c219", "bike_id": "75d27d033fb426998a15ea890a99c219", "fusion_lat": 0.0, "lon": -77.05151916666667, "type": "electric_scooter", "fusion_lon": 0.0, "lat": 38.923748833333335}, {"rental_uris": {"android": "https://dc.lft.to/lastmile_qr_scan", "ios": "https://dc.lft.to/lastmile_qr_scan"}, "is_reserved": 0, "is_disabled": 0, "name": "dedff7f9fd820fc385a00a0c83680b07", "bike_id": "dedff7f9fd820fc385a00a0c83680b07", "fusion_lat": 0.0, "lon": -77.0172025, "type": "electric_scooter", "fusion_lon": 0.0, "lat": 38.917389166666666}, {"rental_uris": {"android": "https://dc.lft.to/lastmile_qr_scan", "ios": "https://dc.lft.to/lastmile_qr_scan"}, "is_reserved": 0, "is_disabled": 0, "name": "164033949d72adec78b8e24341ac90d4", "bike_id": "164033949d72adec78b8e24341ac90d4", "fusion_lat": 0.0, "lon": -77.03364666666667, "type": "electric_scooter", "fusion_lon": 0.0, "lat": 38.89963733333333}, {"rental_uris": {"android": "https://dc.lft.to/lastmile_qr_scan", "ios": "https://dc.lft.to/lastmile_qr_scan"}, "is_reserved": 0, "is_disabled": 0, "name": "1bb0df7e90676bb4c6ea0ea037dd508f", "bike_id": "1bb0df7e90676bb4c6ea0ea037dd508f", "fusion_lat": 0.0, "lon": -77.0417465, "type": "electric_scooter", "fusion_lon": 0.0, "lat": 38.9171955}, {"rental_uris": {"android": "https://dc.lft.to/lastmile_qr_scan", "ios": "https://dc.lft.to/lastmile_qr_scan"}, "is_reserved": 0, "is_disabled": 0, "name": "c58e9e41421bb9d2c9fc811ce5ebe0ab", "bike_id": "c58e9e41421bb9d2c9fc811ce5ebe0ab", "fusion_lat": 0.0, "lon": -77.03145616666667, "type": "electric_scooter", "fusion_lon": 0.0, "lat": 38.899377666666666}, {"rental_uris": {"android": "https://dc.lft.to/lastmile_qr_scan", "ios": "https://dc.lft.to/lastmile_qr_scan"}, "is_reserved": 0, "is_disabled": 0, "name": "5835283bef80515cd57145667aa44633", "bike_id": "5835283bef80515cd57145667aa44633", "fusion_lat": 0.0, "lon": -77.01309433333333, "type": "electric_scooter", "fusion_lon": 0.0, "lat": 38.89836866666667}, {"rental_uris": {"android": "https://dc.lft.to/lastmile_qr_scan", "ios": "https://dc.lft.to/lastmile_qr_scan"}, "is_reserved": 0, "is_disabled": 0, "name": "2d3e4be5ed3c0821324a5538128ad9bc", "bike_id": "2d3e4be5ed3c0821324a5538128ad9bc", "fusion_lat": 0.0, "lon": -77.02971866666667, "type": "electric_scooter", "fusion_lon": 0.0, "lat": 38.8921105}, {"rental_uris": {"android": "https://dc.lft.to/lastmile_qr_scan", "ios": "https://dc.lft.to/lastmile_qr_scan"}, "is_reserved": 0, "is_disabled": 0, "name": "069da77c4c6226e822e1c17d190c5c20", "bike_id": "069da77c4c6226e822e1c17d190c5c20", "fusion_lat": 0.0, "lon": -77.02877583333333, "type": "electric_bike", "fusion_lon": 0.0, "lat": 38.99482666666667}, {"rental_uris": {"android": "https://dc.lft.to/lastmile_qr_scan", "ios": "https://dc.lft.to/lastmile_qr_scan"}, "is_reserved": 0, "is_disabled": 0, "name": "ac57ff17917474d1f6ea891833f0fbcf", "bike_id": "ac57ff17917474d1f6ea891833f0fbcf", "fusion_lat": 0.0, "lon": -77.07237933333333, "type": "electric_scooter", "fusion_lon": 0.0, "lat": 38.9395405}, {"rental_uris": {"android": "https://dc.lft.to/lastmile_qr_scan", "ios": "https://dc.lft.to/lastmile_qr_scan"}, "is_reserved": 0, "is_disabled": 0, "name": "c250b456a2b42c0237189e94359be510", "bike_id": "c250b456a2b42c0237189e94359be510", "fusion_lat": 0.0, "lon": -76.90295133333333, "type": "electric_bike", "fusion_lon": 0.0, "lat": 39.002847}, {"rental_uris": {"android": "https://dc.lft.to/lastmile_qr_scan", "ios": "https://dc.lft.to/lastmile_qr_scan"}, "is_reserved": 0, "is_disabled": 0, "name": "c8dfd0d0773795ae3dad0abebb4a202b", "bike_id": "c8dfd0d0773795ae3dad0abebb4a202b", "fusion_lat": 0.0, "lon": -76.972255, "type": "electric_bike", "fusion_lon": 0.0, "lat": 38.900327833333336}, {"rental_uris": {"android": "https://dc.lft.to/lastmile_qr_scan", "ios": "https://dc.lft.to/lastmile_qr_scan"}, "is_reserved": 0, "is_disabled": 0, "name": "9beb91929973efe682e25cfbffdbbedd", "bike_id": "9beb91929973efe682e25cfbffdbbedd", "fusion_lat": 0.0, "lon": -77.0059415, "type": "electric_scooter", "fusion_lon": 0.0, "lat": 38.905485}, {"rental_uris": {"android": "https://dc.lft.to/lastmile_qr_scan", "ios": "https://dc.lft.to/lastmile_qr_scan"}, "is_reserved": 0, "is_disabled": 0, "name": "ed6abd124a0518deb9255409e34c35f9", "bike_id": "ed6abd124a0518deb9255409e34c35f9", "fusion_lat": 0.0, "lon": -77.03206033333333, "type": "electric_scooter", "fusion_lon": 0.0, "lat": 38.915646}, {"rental_uris": {"android": "https://dc.lft.to/lastmile_qr_scan", "ios": "https://dc.lft.to/lastmile_qr_scan"}, "is_reserved": 0, "is_disabled": 0, "name": "7bda6e187c0857a9b99d8dd4a1cadbb1", "bike_id": "7bda6e187c0857a9b99d8dd4a1cadbb1", "fusion_lat": 0.0, "lon": -76.92466483333334, "type": "electric_scooter", "fusion_lon": 0.0, "lat": 38.885076}, {"rental_uris": {"android": "https://dc.lft.to/lastmile_qr_scan", "ios": "https://dc.lft.to/lastmile_qr_scan"}, "is_reserved": 0, "is_disabled": 0, "name": "8533bf540aa26c65e2452bd4aaca3502", "bike_id": "8533bf540aa26c65e2452bd4aaca3502", "fusion_lat": 0.0, "lon": -77.02076066666666, "type": "electric_scooter", "fusion_lon": 0.0, "lat": 38.89586116666667}, {"rental_uris": {"android": "https://dc.lft.to/lastmile_qr_scan", "ios": "https://dc.lft.to/lastmile_qr_scan"}, "is_reserved": 0, "is_disabled": 0, "name": "af66d920e96f28b9d4454668387e76a5", "bike_id": "af66d920e96f28b9d4454668387e76a5", "fusion_lat": 0.0, "lon": -77.0151105, "type": "electric_scooter", "fusion_lon": 0.0, "lat": 38.89111366666667}, {"rental_uris": {"android": "https://dc.lft.to/lastmile_qr_scan", "ios": "https://dc.lft.to/lastmile_qr_scan"}, "is_reserved": 0, "is_disabled": 0, "name": "cb061a1b7bb114fd354b4ff84bd2e073", "bike_id": "cb061a1b7bb114fd354b4ff84bd2e073", "fusion_lat": 0.0, "lon": -77.0259175, "type": "electric_scooter", "fusion_lon": 0.0, "lat": 38.903379666666666}, {"rental_uris": {"android": "https://dc.lft.to/lastmile_qr_scan", "ios": "https://dc.lft.to/lastmile_qr_scan"}, "is_reserved": 0, "is_disabled": 0, "name": "e121d4115ac6052302953dac5458abbb", "bike_id": "e121d4115ac6052302953dac5458abbb", "fusion_lat": 0.0, "lon": -77.02175083333333, "type": "electric_scooter", "fusion_lon": 0.0, "lat": 38.901848666666666}, {"rental_uris": {"android": "https://dc.lft.to/lastmile_qr_scan", "ios": "https://dc.lft.to/lastmile_qr_scan"}, "is_reserved": 0, "is_disabled": 0, "name": "e6a3f25aa6afc497342312b49290a71c", "bike_id": "e6a3f25aa6afc497342312b49290a71c", "fusion_lat": 0.0, "lon": -77.028991, "type": "electric_scooter", "fusion_lon": 0.0, "lat": 38.92244266666667}, {"rental_uris": {"android": "https://dc.lft.to/lastmile_qr_scan", "ios": "https://dc.lft.to/lastmile_qr_scan"}, "is_reserved": 0, "is_disabled": 0, "name": "dafea4741793c9b7bb02cdc879e70283", "bike_id": "dafea4741793c9b7bb02cdc879e70283", "fusion_lat": 0.0, "lon": -77.026712, "type": "electric_scooter", "fusion_lon": 0.0, "lat": 38.92465716666667}, {"rental_uris": {"android": "https://dc.lft.to/lastmile_qr_scan", "ios": "https://dc.lft.to/lastmile_qr_scan"}, "is_reserved": 0, "is_disabled": 0, "name": "eef27e700c456c4ad16a25c32ec678b0", "bike_id": "eef27e700c456c4ad16a25c32ec678b0", "fusion_lat": 0.0, "lon": -77.01793683333334, "type": "electric_scooter", "fusion_lon": 0.0, "lat": 38.902324166666666}, {"rental_uris": {"android": "https://dc.lft.to/lastmile_qr_scan", "ios": "https://dc.lft.to/lastmile_qr_scan"}, "is_reserved": 0, "is_disabled": 0, "name": "004c19a47be22d412a31a21f4ae6c111", "bike_id": "004c19a47be22d412a31a21f4ae6c111", "fusion_lat": 0.0, "lon": -77.03260416666667, "type": "electric_scooter", "fusion_lon": 0.0, "lat": 38.940711666666665}, {"rental_uris": {"android": "https://dc.lft.to/lastmile_qr_scan", "ios": "https://dc.lft.to/lastmile_qr_scan"}, "is_reserved": 0, "is_disabled": 0, "name": "5972e54a82de312499bf9a5e6110d906", "bike_id": "5972e54a82de312499bf9a5e6110d906", "fusion_lat": 0.0, "lon": -76.90750283333334, "type": "electric_bike", "fusion_lon": 0.0, "lat": 38.89613766666667}, {"rental_uris": {"android": "https://dc.lft.to/lastmile_qr_scan", "ios": "https://dc.lft.to/lastmile_qr_scan"}, "is_reserved": 0, "is_disabled": 0, "name": "b09be0dc5ff98c954b90f879a65b8aed", "bike_id": "b09be0dc5ff98c954b90f879a65b8aed", "fusion_lat": 0.0, "lon": -77.04075083333333, "type": "electric_scooter", "fusion_lon": 0.0, "lat": 38.899233833333334}, {"rental_uris": {"android": "https://dc.lft.to/lastmile_qr_scan", "ios": "https://dc.lft.to/lastmile_qr_scan"}, "is_reserved": 0, "is_disabled": 0, "name": "d9d91f53b2d9a2fd157d02e6ab689a40", "bike_id": "d9d91f53b2d9a2fd157d02e6ab689a40", "fusion_lat": 0.0, "lon": -77.02212, "type": "electric_scooter", "fusion_lon": 0.0, "lat": 38.887129}, {"rental_uris": {"android": "https://dc.lft.to/lastmile_qr_scan", "ios": "https://dc.lft.to/lastmile_qr_scan"}, "is_reserved": 0, "is_disabled": 0, "name": "28aac1e25771f16d64260135fc60fc3f", "bike_id": "28aac1e25771f16d64260135fc60fc3f", "fusion_lat": 0.0, "lon": -77.05594133333334, "type": "electric_scooter", "fusion_lon": 0.0, "lat": 38.931098166666665}, {"rental_uris": {"android": "https://dc.lft.to/lastmile_qr_scan", "ios": "https://dc.lft.to/lastmile_qr_scan"}, "is_reserved": 0, "is_disabled": 0, "name": "a70cf9079ca1bbd6a76cb709666e4695", "bike_id": "a70cf9079ca1bbd6a76cb709666e4695", "fusion_lat": 0.0, "lon": -76.99848516666667, "type": "electric_scooter", "fusion_lon": 0.0, "lat": 38.89615366666666}, {"rental_uris": {"android": "https://dc.lft.to/lastmile_qr_scan", "ios": "https://dc.lft.to/lastmile_qr_scan"}, "is_reserved": 0, "is_disabled": 0, "name": "2c28c5742f9263447798cd0bcaa4bece", "bike_id": "2c28c5742f9263447798cd0bcaa4bece", "fusion_lat": 0.0, "lon": -77.04546633333334, "type": "electric_scooter", "fusion_lon": 0.0, "lat": 38.89823633333334}, {"rental_uris": {"android": "https://dc.lft.to/lastmile_qr_scan", "ios": "https://dc.lft.to/lastmile_qr_scan"}, "is_reserved": 0, "is_disabled": 0, "name": "2ceaabd3887d2ce39eaf2a12c2c5202b", "bike_id": "2ceaabd3887d2ce39eaf2a12c2c5202b", "fusion_lat": 0.0, "lon": -77.04161566666667, "type": "electric_scooter", "fusion_lon": 0.0, "lat": 38.914191333333335}, {"rental_uris": {"android": "https://dc.lft.to/lastmile_qr_scan", "ios": "https://dc.lft.to/lastmile_qr_scan"}, "is_reserved": 0, "is_disabled": 0, "name": "5808a6e7e57d1773585abf9ae4a62d32", "bike_id": "5808a6e7e57d1773585abf9ae4a62d32", "fusion_lat": 0.0, "lon": -77.05217383333333, "type": "electric_scooter", "fusion_lon": 0.0, "lat": 38.90261916666667}, {"rental_uris": {"android": "https://dc.lft.to/lastmile_qr_scan", "ios": "https://dc.lft.to/lastmile_qr_scan"}, "is_reserved": 0, "is_disabled": 0, "name": "d903a92083aa4cdf87878c4b9b751976", "bike_id": "d903a92083aa4cdf87878c4b9b751976", "fusion_lat": 0.0, "lon": -76.9952175, "type": "electric_scooter", "fusion_lon": 0.0, "lat": 38.8836575}, {"rental_uris": {"android": "https://dc.lft.to/lastmile_qr_scan", "ios": "https://dc.lft.to/lastmile_qr_scan"}, "is_reserved": 0, "is_disabled": 0, "name": "038f158de573cadc9aeb134ac7603289", "bike_id": "038f158de573cadc9aeb134ac7603289", "fusion_lat": 0.0, "lon": -77.03724933333334, "type": "electric_scooter", "fusion_lon": 0.0, "lat": 38.92653466666667}, {"rental_uris": {"android": "https://dc.lft.to/lastmile_qr_scan", "ios": "https://dc.lft.to/lastmile_qr_scan"}, "is_reserved": 0, "is_disabled": 0, "name": "58403cb5e10c7060c9610f223b0c617b", "bike_id": "58403cb5e10c7060c9610f223b0c617b", "fusion_lat": 0.0, "lon": -77.0657105, "type": "electric_bike", "fusion_lon": 0.0, "lat": 38.9325515}, {"rental_uris": {"android": "https://dc.lft.to/lastmile_qr_scan", "ios": "https://dc.lft.to/lastmile_qr_scan"}, "is_reserved": 0, "is_disabled": 0, "name": "ab731e5a34fd652935751f5d15ef9556", "bike_id": "ab731e5a34fd652935751f5d15ef9556", "fusion_lat": 0.0, "lon": -77.05339833333333, "type": "electric_scooter", "fusion_lon": 0.0, "lat": 38.9050165}, {"rental_uris": {"android": "https://dc.lft.to/lastmile_qr_scan", "ios": "https://dc.lft.to/lastmile_qr_scan"}, "is_reserved": 0, "is_disabled": 0, "name": "5498e9c0496e0ec2b7bda954cac0a1c9", "bike_id": "5498e9c0496e0ec2b7bda954cac0a1c9", "fusion_lat": 0.0, "lon": -77.03663866666666, "type": "electric_scooter", "fusion_lon": 0.0, "lat": 38.92304716666666}, {"rental_uris": {"android": "https://dc.lft.to/lastmile_qr_scan", "ios": "https://dc.lft.to/lastmile_qr_scan"}, "is_reserved": 0, "is_disabled": 0, "name": "07d50f2f23049e41f509a68976ddeff7", "bike_id": "07d50f2f23049e41f509a68976ddeff7", "fusion_lat": 0.0, "lon": -77.0450795, "type": "electric_scooter", "fusion_lon": 0.0, "lat": 38.903548}, {"rental_uris": {"android": "https://dc.lft.to/lastmile_qr_scan", "ios": "https://dc.lft.to/lastmile_qr_scan"}, "is_reserved": 0, "is_disabled": 0, "name": "c3d4ea257606f713a9f9fa309ecc2cf5", "bike_id": "c3d4ea257606f713a9f9fa309ecc2cf5", "fusion_lat": 0.0, "lon": -77.04568916666666, "type": "electric_scooter", "fusion_lon": 0.0, "lat": 38.91389933333333}, {"rental_uris": {"android": "https://dc.lft.to/lastmile_qr_scan", "ios": "https://dc.lft.to/lastmile_qr_scan"}, "is_reserved": 0, "is_disabled": 0, "name": "7ba0882f253ae70f2317eab78043837d", "bike_id": "7ba0882f253ae70f2317eab78043837d", "fusion_lat": 0.0, "lon": -77.02633816666666, "type": "electric_scooter", "fusion_lon": 0.0, "lat": 38.930346666666665}, {"rental_uris": {"android": "https://dc.lft.to/lastmile_qr_scan", "ios": "https://dc.lft.to/lastmile_qr_scan"}, "is_reserved": 0, "is_disabled": 0, "name": "1e0de4996f7491171e3be78b15bb7787", "bike_id": "1e0de4996f7491171e3be78b15bb7787", "fusion_lat": 0.0, "lon": -77.031978, "type": "electric_scooter", "fusion_lon": 0.0, "lat": 38.897768666666664}, {"rental_uris": {"android": "https://dc.lft.to/lastmile_qr_scan", "ios": "https://dc.lft.to/lastmile_qr_scan"}, "is_reserved": 0, "is_disabled": 0, "name": "0529e8fab13304ec17b70f0d50b4ba12", "bike_id": "0529e8fab13304ec17b70f0d50b4ba12", "fusion_lat": 0.0, "lon": -77.0366545, "type": "electric_scooter", "fusion_lon": 0.0, "lat": 38.927553833333334}, {"rental_uris": {"android": "https://dc.lft.to/lastmile_qr_scan", "ios": "https://dc.lft.to/lastmile_qr_scan"}, "is_reserved": 0, "is_disabled": 0, "name": "2e51e817e9a923d3d07e31dff917a7cd", "bike_id": "2e51e817e9a923d3d07e31dff917a7cd", "fusion_lat": 0.0, "lon": -77.05889966666666, "type": "electric_scooter", "fusion_lon": 0.0, "lat": 38.90346433333333}, {"rental_uris": {"android": "https://dc.lft.to/lastmile_qr_scan", "ios": "https://dc.lft.to/lastmile_qr_scan"}, "is_reserved": 0, "is_disabled": 0, "name": "af080a943e4b8ed03d3731f5d9fa40a6", "bike_id": "af080a943e4b8ed03d3731f5d9fa40a6", "fusion_lat": 0.0, "lon": -77.03143066666667, "type": "electric_scooter", "fusion_lon": 0.0, "lat": 38.9036085}, {"rental_uris": {"android": "https://dc.lft.to/lastmile_qr_scan", "ios": "https://dc.lft.to/lastmile_qr_scan"}, "is_reserved": 0, "is_disabled": 0, "name": "24f137729706896ae0201a620134215a", "bike_id": "24f137729706896ae0201a620134215a", "fusion_lat": 0.0, "lon": -77.0329575, "type": "electric_scooter", "fusion_lon": 0.0, "lat": 38.956145}, {"rental_uris": {"android": "https://dc.lft.to/lastmile_qr_scan", "ios": "https://dc.lft.to/lastmile_qr_scan"}, "is_reserved": 0, "is_disabled": 0, "name": "fdbfc0c166248d73e5d3f181b757b994", "bike_id": "fdbfc0c166248d73e5d3f181b757b994", "fusion_lat": 0.0, "lon": -76.98838433333333, "type": "electric_scooter", "fusion_lon": 0.0, "lat": 38.90162266666667}, {"rental_uris": {"android": "https://dc.lft.to/lastmile_qr_scan", "ios": "https://dc.lft.to/lastmile_qr_scan"}, "is_reserved": 0, "is_disabled": 0, "name": "861f9aa53d0f64d46a4451119c29a4e9", "bike_id": "861f9aa53d0f64d46a4451119c29a4e9", "fusion_lat": 0.0, "lon": -77.01969633333333, "type": "electric_scooter", "fusion_lon": 0.0, "lat": 38.92323716666667}, {"rental_uris": {"android": "https://dc.lft.to/lastmile_qr_scan", "ios": "https://dc.lft.to/lastmile_qr_scan"}, "is_reserved": 0, "is_disabled": 0, "name": "333ffdefa670b75f549a19613e549bff", "bike_id": "333ffdefa670b75f549a19613e549bff", "fusion_lat": 0.0, "lon": -77.02114933333333, "type": "electric_scooter", "fusion_lon": 0.0, "lat": 38.91807816666667}, {"rental_uris": {"android": "https://dc.lft.to/lastmile_qr_scan", "ios": "https://dc.lft.to/lastmile_qr_scan"}, "is_reserved": 0, "is_disabled": 0, "name": "22f03f20d7fa1da88aa58f2de346fb10", "bike_id": "22f03f20d7fa1da88aa58f2de346fb10", "fusion_lat": 0.0, "lon": -77.0223545, "type": "electric_scooter", "fusion_lon": 0.0, "lat": 38.9241215}, {"rental_uris": {"android": "https://dc.lft.to/lastmile_qr_scan", "ios": "https://dc.lft.to/lastmile_qr_scan"}, "is_reserved": 0, "is_disabled": 0, "name": "eb5b03886dde0fdada3a813281cb326a", "bike_id": "eb5b03886dde0fdada3a813281cb326a", "fusion_lat": 0.0, "lon": -77.01988216666666, "type": "electric_scooter", "fusion_lon": 0.0, "lat": 38.885844166666665}, {"rental_uris": {"android": "https://dc.lft.to/lastmile_qr_scan", "ios": "https://dc.lft.to/lastmile_qr_scan"}, "is_reserved": 0, "is_disabled": 0, "name": "dc7d0936796b2d3b30e47483d6af7b1c", "bike_id": "dc7d0936796b2d3b30e47483d6af7b1c", "fusion_lat": 0.0, "lon": -77.03465416666667, "type": "electric_scooter", "fusion_lon": 0.0, "lat": 38.90384683333333}, {"rental_uris": {"android": "https://dc.lft.to/lastmile_qr_scan", "ios": "https://dc.lft.to/lastmile_qr_scan"}, "is_reserved": 0, "is_disabled": 0, "name": "cc2c1d55794ab8336e47c176eca76790", "bike_id": "cc2c1d55794ab8336e47c176eca76790", "fusion_lat": 0.0, "lon": -76.99518216666667, "type": "electric_scooter", "fusion_lon": 0.0, "lat": 38.8836635}, {"rental_uris": {"android": "https://dc.lft.to/lastmile_qr_scan", "ios": "https://dc.lft.to/lastmile_qr_scan"}, "is_reserved": 0, "is_disabled": 0, "name": "dd8f8c1e347f970adfa275299a9d5006", "bike_id": "dd8f8c1e347f970adfa275299a9d5006", "fusion_lat": 0.0, "lon": -77.041353, "type": "electric_scooter", "fusion_lon": 0.0, "lat": 38.9024905}, {"rental_uris": {"android": "https://dc.lft.to/lastmile_qr_scan", "ios": "https://dc.lft.to/lastmile_qr_scan"},