{"data": {"bikes": [{"is_reserved": 0, "is_disabled": 0, "fusion_lon": 0.0, "lat": 38.922455, "name": "8fcd739b3a483d441708e7966ee507cf", "bike_id": "8fcd739b3a483d441708e7966ee507cf", "lon": -77.0351375, "fusion_lat": 0.0, "rental_uris": {"android": "https://dc.lft.to/lastmile_qr_scan", "ios": "https://dc.lft.to/lastmile_qr_scan"}, "type": "electric_scooter"}, {"is_reserved": 0, "is_disabled": 0, "fusion_lon": 0.0, "lat": 38.92232833333333, "name": "ba60392f82f9ca23a2abe4fbb5fbc219", "bike_id": "ba60392f82f9ca23a2abe4fbb5fbc219", "lon": -77.02113266666667, "fusion_lat": 0.0, "rental_uris": {"android": "https://dc.lft.to/lastmile_qr_scan", "ios": "https://dc.lft.to/lastmile_qr_scan"}, "type": "electric_scooter"}, {"is_reserved": 0, "is_disabled": 0, "fusion_lon": 0.0, "lat": 38.898395666666666, "name": "9bc4e0b6a72efe6eba1a7b76b48b40f1", "bike_id": "9bc4e0b6a72efe6eba1a7b76b48b40f1", "lon": -77.02280616666667, "fusion_lat": 0.0, "rental_uris": {"android": "https://dc.lft.to/lastmile_qr_scan", "ios": "https://dc.lft.to/lastmile_qr_scan"}, "type": "electric_scooter"}, {"is_reserved": 0, "is_disabled": 0, "fusion_lon": 0.0, "lat": 38.88277133333333, "name": "4af48ba2dbff2d7e92fc59a58ebed91c", "bike_id": "4af48ba2dbff2d7e92fc59a58ebed91c", "lon": -76.93240766666666, "fusion_lat": 0.0, "rental_uris": {"android": "https://dc.lft.to/lastmile_qr_scan", "ios": "https://dc.lft.to/lastmile_qr_scan"}, "type": "electric_bike"}, {"is_reserved": 0, "is_disabled": 0, "fusion_lon": 0.0, "lat": 38.920619333333335, "name": "74e3952afa5be36b0e1decb5e7faadf3", "bike_id": "74e3952afa5be36b0e1decb5e7faadf3", "lon": -77.03470966666667, "fusion_lat": 0.0, "rental_uris": {"android": "https://dc.lft.to/lastmile_qr_scan", "ios": "https://dc.lft.to/lastmile_qr_scan"}, "type": "electric_scooter"}, {"is_reserved": 0, "is_disabled": 0, "fusion_lon": 0.0, "lat": 38.902432166666664, "name": "9e56cd2c92508d534f6a35377509d331", "bike_id": "9e56cd2c92508d534f6a35377509d331", "lon": -77.00195783333334, "fusion_lat": 0.0, "rental_uris": {"android": "https://dc.lft.to/lastmile_qr_scan", "ios": "https://dc.lft.to/lastmile_qr_scan"}, "type": "electric_scooter"}, {"is_reserved": 0, "is_disabled": 0, "fusion_lon": 0.0, "lat": 38.93867316666667, "name": "96026e200b5116289fc393646f53b4c8", "bike_id": "96026e200b5116289fc393646f53b4c8", "lon": -77.03043283333334, "fusion_lat": 0.0, "rental_uris": {"android": "https://dc.lft.to/lastmile_qr_scan", "ios": "https://dc.lft.to/lastmile_qr_scan"}, "type": "electric_scooter"}, {"is_reserved": 0, "is_disabled": 0, "fusion_lon": 0.0, "lat": 38.90904, "name": "72aeb10e65d1d397b0fddad75460c21c", "bike_id": "72aeb10e65d1d397b0fddad75460c21c", "lon": -77.07265833333334, "fusion_lat": 0.0, "rental_uris": {"android": "https://dc.lft.to/lastmile_qr_scan", "ios": "https://dc.lft.to/lastmile_qr_scan"}, "type": "electric_scooter"}, {"is_reserved": 0, "is_disabled": 0, "fusion_lon": 0.0, "lat": 38.9145585, "name": "0d3f93c0e6306f9b7f3fc70484d6e225", "bike_id": "0d3f93c0e6306f9b7f3fc70484d6e225", "lon": -76.97280883333333, "fusion_lat": 0.0, "rental_uris": {"android": "https://dc.lft.to/lastmile_qr_scan", "ios": "https://dc.lft.to/lastmile_qr_scan"}, "type": "electric_bike"}, {"is_reserved": 0, "is_disabled": 0, "fusion_lon": 0.0, "lat": 38.897205666666665, "name": "e95cb90c2a12473a5eefcf680b58ef78", "bike_id": "e95cb90c2a12473a5eefcf680b58ef78", "lon": -77.03217783333334, "fusion_lat": 0.0, "rental_uris": {"android": "https://dc.lft.to/lastmile_qr_scan", "ios": "https://dc.lft.to/lastmile_qr_scan"}, "type": "electric_scooter"}, {"is_reserved": 0, "is_disabled": 0, "fusion_lon": 0.0, "lat": 38.87668216666667, "name": "913405ac53fa719fab18765d97984e11", "bike_id": "913405ac53fa719fab18765d97984e11", "lon": -77.0041565, "fusion_lat": 0.0, "rental_uris": {"android": "https://dc.lft.to/lastmile_qr_scan", "ios": "https://dc.lft.to/lastmile_qr_scan"}, "type": "electric_scooter"}, {"is_reserved": 0, "is_disabled": 0, "fusion_lon": 0.0, "lat": 38.9154605, "name": "c6bde8f729a112c7c6014d939d523f52", "bike_id": "c6bde8f729a112c7c6014d939d523f52", "lon": -77.01220933333333, "fusion_lat": 0.0, "rental_uris": {"android": "https://dc.lft.to/lastmile_qr_scan", "ios": "https://dc.lft.to/lastmile_qr_scan"}, "type": "electric_scooter"}, {"is_reserved": 0, "is_disabled": 0, "fusion_lon": 0.0, "lat": 38.92458366666666, "name": "fd9c26f004f343a2f481cee4eea87c70", "bike_id": "fd9c26f004f343a2f481cee4eea87c70", "lon": -77.03283916666666, "fusion_lat": 0.0, "rental_uris": {"android": "https://dc.lft.to/lastmile_qr_scan", "ios": "https://dc.lft.to/lastmile_qr_scan"}, "type": "electric_scooter"}, {"is_reserved": 0, "is_disabled": 0, "fusion_lon": 0.0, "lat": 38.918588166666666, "name": "19b01b0178ba3611d51ad14ae4d236d6", "bike_id": "19b01b0178ba3611d51ad14ae4d236d6", "lon": -77.0321315, "fusion_lat": 0.0, "rental_uris": {"android": "https://dc.lft.to/lastmile_qr_scan", "ios": "https://dc.lft.to/lastmile_qr_scan"}, "type": "electric_scooter"}, {"is_reserved": 0, "is_disabled": 0, "fusion_lon": 0.0, "lat": 38.894963, "name": "a40fd87aacac8606f644525cd24ef19f", "bike_id": "a40fd87aacac8606f644525cd24ef19f", "lon": -76.94890216666667, "fusion_lat": 0.0, "rental_uris": {"android": "https://dc.lft.to/lastmile_qr_scan", "ios": "https://dc.lft.to/lastmile_qr_scan"}, "type": "electric_scooter"}, {"is_reserved": 0, "is_disabled": 0, "fusion_lon": 0.0, "lat": 38.895151, "name": "c531073b19d8a410232c0ddd731039dc", "bike_id": "c531073b19d8a410232c0ddd731039dc", "lon": -77.019781, "fusion_lat": 0.0, "rental_uris": {"android": "https://dc.lft.to/lastmile_qr_scan", "ios": "https://dc.lft.to/lastmile_qr_scan"}, "type": "electric_scooter"}, {"is_reserved": 0, "is_disabled": 0, "fusion_lon": 0.0, "lat": 38.879355833333335, "name": "6bf98aa637a7fd675437cb9d9ee394bb", "bike_id": "6bf98aa637a7fd675437cb9d9ee394bb", "lon": -77.0082875, "fusion_lat": 0.0, "rental_uris": {"android": "https://dc.lft.to/lastmile_qr_scan", "ios": "https://dc.lft.to/lastmile_qr_scan"}, "type": "electric_scooter"}, {"is_reserved": 0, "is_disabled": 0, "fusion_lon": 0.0, "lat": 38.923689833333334, "name": "99006f36f198f9584fb6b3406b05dc86", "bike_id": "99006f36f198f9584fb6b3406b05dc86", "lon": -77.029746, "fusion_lat": 0.0, "rental_uris": {"android": "https://dc.lft.to/lastmile_qr_scan", "ios": "https://dc.lft.to/lastmile_qr_scan"}, "type": "electric_scooter"}, {"is_reserved": 0, "is_disabled": 0, "fusion_lon": 0.0, "lat": 38.892200333333335, "name": "69c0c27d4233a617388d41a38febf9ab", "bike_id": "69c0c27d4233a617388d41a38febf9ab", "lon": -77.02622183333334, "fusion_lat": 0.0, "rental_uris": {"android": "https://dc.lft.to/lastmile_qr_scan", "ios": "https://dc.lft.to/lastmile_qr_scan"}, "type": "electric_scooter"}, {"is_reserved": 0, "is_disabled": 0, "fusion_lon": 0.0, "lat": 38.9397025, "name": "986e3fd30270a09bf22584c5d2368177", "bike_id": "986e3fd30270a09bf22584c5d2368177", "lon": -77.03430533333334, "fusion_lat": 0.0, "rental_uris": {"android": "https://dc.lft.to/lastmile_qr_scan", "ios": "https://dc.lft.to/lastmile_qr_scan"}, "type": "electric_scooter"}, {"is_reserved": 0, "is_disabled": 0, "fusion_lon": 0.0, "lat": 38.88422283333333, "name": "c54dbde180777496fd7b316eae01d667", "bike_id": "c54dbde180777496fd7b316eae01d667", "lon": -76.99697666666667, "fusion_lat": 0.0, "rental_uris": {"android": "https://dc.lft.to/lastmile_qr_scan", "ios": "https://dc.lft.to/lastmile_qr_scan"}, "type": "electric_scooter"}, {"is_reserved": 0, "is_disabled": 0, "fusion_lon": 0.0, "lat": 38.90337566666667, "name": "5e850c16f287bae9def50e866d8601f2", "bike_id": "5e850c16f287bae9def50e866d8601f2", "lon": -76.97574683333333, "fusion_lat": 0.0, "rental_uris": {"android": "https://dc.lft.to/lastmile_qr_scan", "ios": "https://dc.lft.to/lastmile_qr_scan"}, "type": "electric_scooter"}, {"is_reserved": 0, "is_disabled": 0, "fusion_lon": 0.0, "lat": 38.933877, "name": "ce545b17d2398a74cb979011f5285114", "bike_id": "ce545b17d2398a74cb979011f5285114", "lon": -77.026448, "fusion_lat": 0.0, "rental_uris": {"android": "https://dc.lft.to/lastmile_qr_scan", "ios": "https://dc.lft.to/lastmile_qr_scan"}, "type": "electric_scooter"}, {"is_reserved": 0, "is_disabled": 0, "fusion_lon": 0.0, "lat": 38.916953166666666, "name": "3b477af25a8c20ec35e65264645a3eab", "bike_id": "3b477af25a8c20ec35e65264645a3eab", "lon": -77.03770283333333, "fusion_lat": 0.0, "rental_uris": {"android": "https://dc.lft.to/lastmile_qr_scan", "ios": "https://dc.lft.to/lastmile_qr_scan"}, "type": "electric_scooter"}, {"is_reserved": 0, "is_disabled": 0, "fusion_lon": 0.0, "lat": 38.92152033333333, "name": "f8fc75d793e53a8bfecdcd3d9e9f254b", "bike_id": "f8fc75d793e53a8bfecdcd3d9e9f254b", "lon": -77.03505966666667, "fusion_lat": 0.0, "rental_uris": {"android": "https://dc.lft.to/lastmile_qr_scan", "ios": "https://dc.lft.to/lastmile_qr_scan"}, "type": "electric_scooter"}, {"is_reserved": 0, "is_disabled": 0, "fusion_lon": 0.0, "lat": 38.83744216666667, "name": "a8ad39ef989639f0bcf67565df6d6528", "bike_id": "a8ad39ef989639f0bcf67565df6d6528", "lon": -76.9986385, "fusion_lat": 0.0, "rental_uris": {"android": "https://dc.lft.to/lastmile_qr_scan", "ios": "https://dc.lft.to/lastmile_qr_scan"}, "type": "electric_scooter"}, {"is_reserved": 0, "is_disabled": 0, "fusion_lon": 0.0, "lat": 39.00384183333333, "name": "ee0047f062a7b5b6fd7a6c47925ca6ef", "bike_id": "ee0047f062a7b5b6fd7a6c47925ca6ef", "lon": -77.01282733333333, "fusion_lat": 0.0, "rental_uris": {"android": "https://dc.lft.to/lastmile_qr_scan", "ios": "https://dc.lft.to/lastmile_qr_scan"}, "type": "electric_bike"}, {"is_reserved": 0, "is_disabled": 0, "fusion_lon": 0.0, "lat": 38.892244, "name": "fcbda0abe0ac78c80ef4ea3f3203d95a", "bike_id": "fcbda0abe0ac78c80ef4ea3f3203d95a", "lon": -77.04797166666667, "fusion_lat": 0.0, "rental_uris": {"android": "https://dc.lft.to/lastmile_qr_scan", "ios": "https://dc.lft.to/lastmile_qr_scan"}, "type": "electric_scooter"}, {"is_reserved": 0, "is_disabled": 0, "fusion_lon": 0.0, "lat": 38.90852816666667, "name": "8e7e9efb2e67a2eabc7e95812b505213", "bike_id": "8e7e9efb2e67a2eabc7e95812b505213", "lon": -77.002113, "fusion_lat": 0.0, "rental_uris": {"android": "https://dc.lft.to/lastmile_qr_scan", "ios": "https://dc.lft.to/lastmile_qr_scan"}, "type": "electric_scooter"}, {"is_reserved": 0, "is_disabled": 0, "fusion_lon": 0.0, "lat": 38.9002415, "name": "9f39eeb399c9dcabfd2a210e834d6798", "bike_id": "9f39eeb399c9dcabfd2a210e834d6798", "lon": -77.04641966666667, "fusion_lat": 0.0, "rental_uris": {"android": "https://dc.lft.to/lastmile_qr_scan", "ios": "https://dc.lft.to/lastmile_qr_scan"}, "type": "electric_scooter"}, {"is_reserved": 0, "is_disabled": 0, "fusion_lon": 0.0, "lat": 38.914090333333334, "name": "b33979fed51a3ee36da27dfd25ff4cb1", "bike_id": "b33979fed51a3ee36da27dfd25ff4cb1", "lon": -77.0326405, "fusion_lat": 0.0, "rental_uris": {"android": "https://dc.lft.to/lastmile_qr_scan", "ios": "https://dc.lft.to/lastmile_qr_scan"}, "type": "electric_scooter"}, {"is_reserved": 0, "is_disabled": 0, "fusion_lon": 0.0, "lat": 38.92443733333333, "name": "e8720e469d7c6f4c7919603fb0b13886", "bike_id": "e8720e469d7c6f4c7919603fb0b13886", "lon": -77.03404266666666, "fusion_lat": 0.0, "rental_uris": {"android": "https://dc.lft.to/lastmile_qr_scan", "ios": "https://dc.lft.to/lastmile_qr_scan"}, "type": "electric_scooter"}, {"is_reserved": 0, "is_disabled": 0, "fusion_lon": 0.0, "lat": 38.89571083333333, "name": "03e0b0d345923e0b978c250097b839fd", "bike_id": "03e0b0d345923e0b978c250097b839fd", "lon": -76.99412583333333, "fusion_lat": 0.0, "rental_uris": {"android": "https://dc.lft.to/lastmile_qr_scan", "ios": "https://dc.lft.to/lastmile_qr_scan"}, "type": "electric_scooter"}, {"is_reserved": 0, "is_disabled": 0, "fusion_lon": 0.0, "lat": 38.927114333333336, "name": "3471057e39ece729cbf44b0648f10189", "bike_id": "3471057e39ece729cbf44b0648f10189", "lon": -77.020988, "fusion_lat": 0.0, "rental_uris": {"android": "https://dc.lft.to/lastmile_qr_scan", "ios": "https://dc.lft.to/lastmile_qr_scan"}, "type": "electric_scooter"}, {"is_reserved": 0, "is_disabled": 0, "fusion_lon": 0.0, "lat": 38.88544366666667, "name": "b344d5e41b46e5fd18579f2b95a90693", "bike_id": "b344d5e41b46e5fd18579f2b95a90693", "lon": -76.99766916666667, "fusion_lat": 0.0, "rental_uris": {"android": "https://dc.lft.to/lastmile_qr_scan", "ios": "https://dc.lft.to/lastmile_qr_scan"}, "type": "electric_scooter"}, {"is_reserved": 0, "is_disabled": 0, "fusion_lon": 0.0, "lat": 38.87592266666667, "name": "c856bd679ba697b4f97d1a89b7adeba8", "bike_id": "c856bd679ba697b4f97d1a89b7adeba8", "lon": -77.00094383333334, "fusion_lat": 0.0, "rental_uris": {"android": "https://dc.lft.to/lastmile_qr_scan", "ios": "https://dc.lft.to/lastmile_qr_scan"}, "type": "electric_scooter"}, {"is_reserved": 0, "is_disabled": 0, "fusion_lon": 0.0, "lat": 38.92006033333333, "name": "9ee897e7af8d5df5496bb1ba8255cbff", "bike_id": "9ee897e7af8d5df5496bb1ba8255cbff", "lon": -77.02334516666667, "fusion_lat": 0.0, "rental_uris": {"android": "https://dc.lft.to/lastmile_qr_scan", "ios": "https://dc.lft.to/lastmile_qr_scan"}, "type": "electric_scooter"}, {"is_reserved": 0, "is_disabled": 0, "fusion_lon": 0.0, "lat": 38.883377333333335, "name": "c1ac3a1a36c2d7c498c6cfec0ee19f6e", "bike_id": "c1ac3a1a36c2d7c498c6cfec0ee19f6e", "lon": -77.01374233333334, "fusion_lat": 0.0, "rental_uris": {"android": "https://dc.lft.to/lastmile_qr_scan", "ios": "https://dc.lft.to/lastmile_qr_scan"}, "type": "electric_scooter"}, {"is_reserved": 0, "is_disabled": 0, "fusion_lon": 0.0, "lat": 38.929307666666666, "name": "2f723f3f937127d6ef9b7b0f5c3f9f6d", "bike_id": "2f723f3f937127d6ef9b7b0f5c3f9f6d", "lon": -76.99817116666667, "fusion_lat": 0.0, "rental_uris": {"android": "https://dc.lft.to/lastmile_qr_scan", "ios": "https://dc.lft.to/lastmile_qr_scan"}, "type": "electric_scooter"}, {"is_reserved": 0, "is_disabled": 0, "fusion_lon": 0.0, "lat": 38.9078705, "name": "2499905ebc711df3a1da932729027ef7", "bike_id": "2499905ebc711df3a1da932729027ef7", "lon": -77.0221065, "fusion_lat": 0.0, "rental_uris": {"android": "https://dc.lft.to/lastmile_qr_scan", "ios": "https://dc.lft.to/lastmile_qr_scan"}, "type": "electric_scooter"}, {"is_reserved": 0, "is_disabled": 0, "fusion_lon": 0.0, "lat": 38.904967166666665, "name": "f08e079b24e828cc13b60e95306df251", "bike_id": "f08e079b24e828cc13b60e95306df251", "lon": -77.02966216666667, "fusion_lat": 0.0, "rental_uris": {"android": "https://dc.lft.to/lastmile_qr_scan", "ios": "https://dc.lft.to/lastmile_qr_scan"}, "type": "electric_scooter"}, {"is_reserved": 0, "is_disabled": 0, "fusion_lon": 0.0, "lat": 38.922456, "name": "be8a5f4ef2b260f177e8a6af9d104fa8", "bike_id": "be8a5f4ef2b260f177e8a6af9d104fa8", "lon": -77.043618, "fusion_lat": 0.0, "rental_uris": {"android": "https://dc.lft.to/lastmile_qr_scan", "ios": "https://dc.lft.to/lastmile_qr_scan"}, "type": "electric_scooter"}, {"is_reserved": 0, "is_disabled": 0, "fusion_lon": 0.0, "lat": 38.92576733333333, "name": "96d820c78358b351a00a64da50c8b8c5", "bike_id": "96d820c78358b351a00a64da50c8b8c5", "lon": -77.03729416666667, "fusion_lat": 0.0, "rental_uris": {"android": "https://dc.lft.to/lastmile_qr_scan", "ios": "https://dc.lft.to/lastmile_qr_scan"}, "type": "electric_scooter"}, {"is_reserved": 0, "is_disabled": 0, "fusion_lon": 0.0, "lat": 38.87199866666667, "name": "9c5718fdbef882ff3fb74e3113f44f61", "bike_id": "9c5718fdbef882ff3fb74e3113f44f61", "lon": -77.00576116666667, "fusion_lat": 0.0, "rental_uris": {"android": "https://dc.lft.to/lastmile_qr_scan", "ios": "https://dc.lft.to/lastmile_qr_scan"}, "type": "electric_scooter"}, {"is_reserved": 0, "is_disabled": 0, "fusion_lon": 0.0, "lat": 38.89854533333333, "name": "ef6a66ca261f5d914df72888f57716da", "bike_id": "ef6a66ca261f5d914df72888f57716da", "lon": -76.99031266666667, "fusion_lat": 0.0, "rental_uris": {"android": "https://dc.lft.to/lastmile_qr_scan", "ios": "https://dc.lft.to/lastmile_qr_scan"}, "type": "electric_scooter"}, {"is_reserved": 0, "is_disabled": 0, "fusion_lon": 0.0, "lat": 38.896959333333335, "name": "126d0e671e37556976d48414860a1f5d", "bike_id": "126d0e671e37556976d48414860a1f5d", "lon": -77.043588, "fusion_lat": 0.0, "rental_uris": {"android": "https://dc.lft.to/lastmile_qr_scan", "ios": "https://dc.lft.to/lastmile_qr_scan"}, "type": "electric_scooter"}, {"is_reserved": 0, "is_disabled": 0, "fusion_lon": 0.0, "lat": 38.93704783333333, "name": "d64bfa3bd5f301a2d86916eb62d53678", "bike_id": "d64bfa3bd5f301a2d86916eb62d53678", "lon": -77.03283066666667, "fusion_lat": 0.0, "rental_uris": {"android": "https://dc.lft.to/lastmile_qr_scan", "ios": "https://dc.lft.to/lastmile_qr_scan"}, "type": "electric_scooter"}, {"is_reserved": 0, "is_disabled": 0, "fusion_lon": 0.0, "lat": 38.920736166666664, "name": "618391932ff02f40052f309e70d76d0f", "bike_id": "618391932ff02f40052f309e70d76d0f", "lon": -77.03787916666667, "fusion_lat": 0.0, "rental_uris": {"android": "https://dc.lft.to/lastmile_qr_scan", "ios": "https://dc.lft.to/lastmile_qr_scan"}, "type": "electric_scooter"}, {"is_reserved": 0, "is_disabled": 0, "fusion_lon": 0.0, "lat": 38.92233433333333, "name": "a62f814b99041f895ad7b4374f0ec3bf", "bike_id": "a62f814b99041f895ad7b4374f0ec3bf", "lon": -77.04304366666666, "fusion_lat": 0.0, "rental_uris": {"android": "https://dc.lft.to/lastmile_qr_scan", "ios": "https://dc.lft.to/lastmile_qr_scan"}, "type": "electric_scooter"}, {"is_reserved": 0, "is_disabled": 0, "fusion_lon": 0.0, "lat": 38.8963385, "name": "79a271f541c4ed78e1e12b5763efd132", "bike_id": "79a271f541c4ed78e1e12b5763efd132", "lon": -77.04336766666667, "fusion_lat": 0.0, "rental_uris": {"android": "https://dc.lft.to/lastmile_qr_scan", "ios": "https://dc.lft.to/lastmile_qr_scan"}, "type": "electric_scooter"}, {"is_reserved": 0, "is_disabled": 0, "fusion_lon": 0.0, "lat": 38.9071575, "name": "62566955cb22f8293b64037069d438ea", "bike_id": "62566955cb22f8293b64037069d438ea", "lon": -77.00334183333334, "fusion_lat": 0.0, "rental_uris": {"android": "https://dc.lft.to/lastmile_qr_scan", "ios": "https://dc.lft.to/lastmile_qr_scan"}, "type": "electric_scooter"}, {"is_reserved": 0, "is_disabled": 0, "fusion_lon": 0.0, "lat": 38.91406383333333, "name": "82eb7a6f9fe42e9f08fde2c28de414e3", "bike_id": "82eb7a6f9fe42e9f08fde2c28de414e3", "lon": -77.01818066666667, "fusion_lat": 0.0, "rental_uris": {"android": "https://dc.lft.to/lastmile_qr_scan", "ios": "https://dc.lft.to/lastmile_qr_scan"}, "type": "electric_scooter"}, {"is_reserved": 0, "is_disabled": 0, "fusion_lon": 0.0, "lat": 38.883788, "name": "65548edecd8e0a3a2d868cc1715bac20", "bike_id": "65548edecd8e0a3a2d868cc1715bac20", "lon": -77.008848, "fusion_lat": 0.0, "rental_uris": {"android": "https://dc.lft.to/lastmile_qr_scan", "ios": "https://dc.lft.to/lastmile_qr_scan"}, "type": "electric_scooter"}, {"is_reserved": 0, "is_disabled": 0, "fusion_lon": 0.0, "lat": 38.92564383333333, "name": "9089b41e6d2bd48519c40ef4a53f6aff", "bike_id": "9089b41e6d2bd48519c40ef4a53f6aff", "lon": -77.03768366666667, "fusion_lat": 0.0, "rental_uris": {"android": "https://dc.lft.to/lastmile_qr_scan", "ios": "https://dc.lft.to/lastmile_qr_scan"}, "type": "electric_scooter"}, {"is_reserved": 0, "is_disabled": 0, "fusion_lon": 0.0, "lat": 38.883064833333336, "name": "23d343378457e2a00438ad44ee0c403f", "bike_id": "23d343378457e2a00438ad44ee0c403f", "lon": -76.93470883333333, "fusion_lat": 0.0, "rental_uris": {"android": "https://dc.lft.to/lastmile_qr_scan", "ios": "https://dc.lft.to/lastmile_qr_scan"}, "type": "electric_scooter"}, {"is_reserved": 0, "is_disabled": 0, "fusion_lon": 0.0, "lat": 38.927385, "name": "7fdde9c428e9e8920f60f18cdb183c7e", "bike_id": "7fdde9c428e9e8920f60f18cdb183c7e", "lon": -77.03237766666666, "fusion_lat": 0.0, "rental_uris": {"android": "https://dc.lft.to/lastmile_qr_scan", "ios": "https://dc.lft.to/lastmile_qr_scan"}, "type": "electric_scooter"}, {"is_reserved": 0, "is_disabled": 0, "fusion_lon": 0.0, "lat": 38.89221516666667, "name": "a8a31d28907b52a2c681fe28c96e3dad", "bike_id": "a8a31d28907b52a2c681fe28c96e3dad", "lon": -77.04870116666666, "fusion_lat": 0.0, "rental_uris": {"android": "https://dc.lft.to/lastmile_qr_scan", "ios": "https://dc.lft.to/lastmile_qr_scan"}, "type": "electric_scooter"}, {"is_reserved": 0, "is_disabled": 0, "fusion_lon": 0.0, "lat": 38.920843833333336, "name": "a7471fcf51868f5b55fd510101aa8dd0", "bike_id": "a7471fcf51868f5b55fd510101aa8dd0", "lon": -77.025316, "fusion_lat": 0.0, "rental_uris": {"android": "https://dc.lft.to/lastmile_qr_scan", "ios": "https://dc.lft.to/lastmile_qr_scan"}, "type": "electric_scooter"}, {"is_reserved": 0, "is_disabled": 0, "fusion_lon": 0.0, "lat": 38.9267985, "name": "a7dc40a9e3c3f2be4bbc893320b6c54a", "bike_id": "a7dc40a9e3c3f2be4bbc893320b6c54a", "lon": -77.027428, "fusion_lat": 0.0, "rental_uris": {"android": "https://dc.lft.to/lastmile_qr_scan", "ios": "https://dc.lft.to/lastmile_qr_scan"}, "type": "electric_scooter"}, {"is_reserved": 0, "is_disabled": 0, "fusion_lon": 0.0, "lat": 38.8970775, "name": "aee4cb8a8aae3e50bfca3aeb1d0ce31f", "bike_id": "aee4cb8a8aae3e50bfca3aeb1d0ce31f", "lon": -76.94747416666667, "fusion_lat": 0.0, "rental_uris": {"android": "https://dc.lft.to/lastmile_qr_scan", "ios": "https://dc.lft.to/lastmile_qr_scan"}, "type": "electric_bike"}, {"is_reserved": 0, "is_disabled": 0, "fusion_lon": 0.0, "lat": 38.933878666666665, "name": "1b2af4a4556491dae1f7f2f2cc6d556e", "bike_id": "1b2af4a4556491dae1f7f2f2cc6d556e", "lon": -77.03255333333334, "fusion_lat": 0.0, "rental_uris": {"android": "https://dc.lft.to/lastmile_qr_scan", "ios": "https://dc.lft.to/lastmile_qr_scan"}, "type": "electric_scooter"}, {"is_reserved": 0, "is_disabled": 0, "fusion_lon": 0.0, "lat": 38.90036, "name": "a7b115a604e06c82fa600457670e660c", "bike_id": "a7b115a604e06c82fa600457670e660c", "lon": -77.02593383333334, "fusion_lat": 0.0, "rental_uris": {"android": "https://dc.lft.to/lastmile_qr_scan", "ios": "https://dc.lft.to/lastmile_qr_scan"}, "type": "electric_scooter"}, {"is_reserved": 0, "is_disabled": 0, "fusion_lon": 0.0, "lat": 38.91860616666666, "name": "3d9e22cdbd02e42a26e48ad3e56a4322", "bike_id": "3d9e22cdbd02e42a26e48ad3e56a4322", "lon": -77.04597016666666, "fusion_lat": 0.0, "rental_uris": {"android": "https://dc.lft.to/lastmile_qr_scan", "ios": "https://dc.lft.to/lastmile_qr_scan"}, "type": "electric_scooter"}, {"is_reserved": 0, "is_disabled": 0, "fusion_lon": 0.0, "lat": 38.89930566666666, "name": "79354e886ad1b7cbfc2d4a90672771e3", "bike_id": "79354e886ad1b7cbfc2d4a90672771e3", "lon": -77.04154166666666, "fusion_lat": 0.0, "rental_uris": {"android": "https://dc.lft.to/lastmile_qr_scan", "ios": "https://dc.lft.to/lastmile_qr_scan"}, "type": "electric_scooter"}, {"is_reserved": 0, "is_disabled": 0, "fusion_lon": 0.0, "lat": 39.03906933333333, "name": "1ad5a61c141ee419fa5aa4e7bc72570f", "bike_id": "1ad5a61c141ee419fa5aa4e7bc72570f", "lon": -77.05046316666666, "fusion_lat": 0.0, "rental_uris": {"android": "https://dc.lft.to/lastmile_qr_scan", "ios": "https://dc.lft.to/lastmile_qr_scan"}, "type": "electric_bike"}, {"is_reserved": 0, "is_disabled": 0, "fusion_lon": 0.0, "lat": 38.89935066666666, "name": "6bce59d402acd1fb04893b1321c98beb", "bike_id": "6bce59d402acd1fb04893b1321c98beb", "lon": -76.99731483333333, "fusion_lat": 0.0, "rental_uris": {"android": "https://dc.lft.to/lastmile_qr_scan", "ios": "https://dc.lft.to/lastmile_qr_scan"}, "type": "electric_scooter"}, {"is_reserved": 0, "is_disabled": 0, "fusion_lon": 0.0, "lat": 38.90618166666667, "name": "581e77851be660cc8ad2f1b4fcedf608", "bike_id": "581e77851be660cc8ad2f1b4fcedf608", "lon": -77.06282433333334, "fusion_lat": 0.0, "rental_uris": {"android": "https://dc.lft.to/lastmile_qr_scan", "ios": "https://dc.lft.to/lastmile_qr_scan"}, "type": "electric_scooter"}, {"is_reserved": 0, "is_disabled": 0, "fusion_lon": 0.0, "lat": 38.919341333333335, "name": "971d1f8bdbf29fe23b49a37d0ccdf66d", "bike_id": "971d1f8bdbf29fe23b49a37d0ccdf66d", "lon": -77.0456825, "fusion_lat": 0.0, "rental_uris": {"android": "https://dc.lft.to/lastmile_qr_scan", "ios": "https://dc.lft.to/lastmile_qr_scan"}, "type": "electric_scooter"}, {"is_reserved": 0, "is_disabled": 0, "fusion_lon": 0.0, "lat": 38.917290666666666, "name": "c341babce125e0af503691b617e278cf", "bike_id": "c341babce125e0af503691b617e278cf", "lon": -77.032052, "fusion_lat": 0.0, "rental_uris": {"android": "https://dc.lft.to/lastmile_qr_scan", "ios": "https://dc.lft.to/lastmile_qr_scan"}, "type": "electric_scooter"}, {"is_reserved": 0, "is_disabled": 0, "fusion_lon": 0.0, "lat": 38.92026583333333, "name": "5863b3800967cae5295f896160a3d8b5", "bike_id": "5863b3800967cae5295f896160a3d8b5", "lon": -77.037297, "fusion_lat": 0.0, "rental_uris": {"android": "https://dc.lft.to/lastmile_qr_scan", "ios": "https://dc.lft.to/lastmile_qr_scan"}, "type": "electric_scooter"}, {"is_reserved": 0, "is_disabled": 0, "fusion_lon": 0.0, "lat": 38.896325833333336, "name": "8f37803ef450ab46319f1bd6d80ea89d", "bike_id": "8f37803ef450ab46319f1bd6d80ea89d", "lon": -76.92960933333333, "fusion_lat": 0.0, "rental_uris": {"android": "https://dc.lft.to/lastmile_qr_scan", "ios": "https://dc.lft.to/lastmile_qr_scan"}, "type": "electric_scooter"}, {"is_reserved": 0, "is_disabled": 0, "fusion_lon": 0.0, "lat": 38.9020335, "name": "f75443ade55d23098d89db6b68b3038e", "bike_id": "f75443ade55d23098d89db6b68b3038e", "lon": -76.99838733333333, "fusion_lat": 0.0, "rental_uris": {"android": "https://dc.lft.to/lastmile_qr_scan", "ios": "https://dc.lft.to/lastmile_qr_scan"}, "type": "electric_scooter"}, {"is_reserved": 0, "is_disabled": 0, "fusion_lon": 0.0, "lat": 38.93150333333333, "name": "6150b653646a62feee717f39121cd751", "bike_id": "6150b653646a62feee717f39121cd751", "lon": -77.03934233333334, "fusion_lat": 0.0, "rental_uris": {"android": "https://dc.lft.to/lastmile_qr_scan", "ios": "https://dc.lft.to/lastmile_qr_scan"}, "type": "electric_scooter"}, {"is_reserved": 0, "is_disabled": 0, "fusion_lon": 0.0, "lat": 38.95738583333333, "name": "fb9b5cfe9f9ebcb70b63a6a5595ef88e", "bike_id": "fb9b5cfe9f9ebcb70b63a6a5595ef88e", "lon": -77.0274515, "fusion_lat": 0.0, "rental_uris": {"android": "https://dc.lft.to/lastmile_qr_scan", "ios": "https://dc.lft.to/lastmile_qr_scan"}, "type": "electric_scooter"}, {"is_reserved": 0, "is_disabled": 0, "fusion_lon": 0.0, "lat": 38.9085685, "name": "511f956b4335689adcab4af0f99471b3", "bike_id": "511f956b4335689adcab4af0f99471b3", "lon": -77.04530166666666, "fusion_lat": 0.0, "rental_uris": {"android": "https://dc.lft.to/lastmile_qr_scan", "ios": "https://dc.lft.to/lastmile_qr_scan"}, "type": "electric_scooter"}, {"is_reserved": 0, "is_disabled": 0, "fusion_lon": 0.0, "lat": 38.89609466666667, "name": "6c4da80a03885ac459feed04e57bdb3b", "bike_id": "6c4da80a03885ac459feed04e57bdb3b", "lon": -77.047961, "fusion_lat": 0.0, "rental_uris": {"android": "https://dc.lft.to/lastmile_qr_scan", "ios": "https://dc.lft.to/lastmile_qr_scan"}, "type": "electric_scooter"}, {"is_reserved": 0, "is_disabled": 0, "fusion_lon": 0.0, "lat": 38.828933166666665, "name": "ee2686fba98d4899b876c16a4db685de", "bike_id": "ee2686fba98d4899b876c16a4db685de", "lon": -77.01204233333333, "fusion_lat": 0.0, "rental_uris": {"android": "https://dc.lft.to/lastmile_qr_scan", "ios": "https://dc.lft.to/lastmile_qr_scan"}, "type": "electric_bike"}, {"is_reserved": 0, "is_disabled": 0, "fusion_lon": 0.0, "lat": 38.935338333333334, "name": "e25e7e75e9bc86289da5a102edca38fb", "bike_id": "e25e7e75e9bc86289da5a102edca38fb", "lon": -77.02364166666666, "fusion_lat": 0.0, "rental_uris": {"android": "https://dc.lft.to/lastmile_qr_scan", "ios": "https://dc.lft.to/lastmile_qr_scan"}, "type": "electric_scooter"}, {"is_reserved": 0, "is_disabled": 0, "fusion_lon": 0.0, "lat": 38.93271933333333, "name": "dc456788644323585dacbdca3a33048f", "bike_id": "dc456788644323585dacbdca3a33048f", "lon": -77.02654433333333, "fusion_lat": 0.0, "rental_uris": {"android": "https://dc.lft.to/lastmile_qr_scan", "ios": "https://dc.lft.to/lastmile_qr_scan"}, "type": "electric_scooter"}, {"is_reserved": 0, "is_disabled": 0, "fusion_lon": 0.0, "lat": 38.92500483333333, "name": "be508eaf3910b131cfaa11cfa84163e1", "bike_id": "be508eaf3910b131cfaa11cfa84163e1", "lon": -77.02156033333333, "fusion_lat": 0.0, "rental_uris": {"android": "https://dc.lft.to/lastmile_qr_scan", "ios": "https://dc.lft.to/lastmile_qr_scan"}, "type": "electric_scooter"}, {"is_reserved": 0, "is_disabled": 0, "fusion_lon": 0.0, "lat": 38.92064883333333, "name": "dab0d1ddfe77747cd5b56ef88c45020d", "bike_id": "dab0d1ddfe77747cd5b56ef88c45020d", "lon": -77.02363083333333, "fusion_lat": 0.0, "rental_uris": {"android": "https://dc.lft.to/lastmile_qr_scan", "ios": "https://dc.lft.to/lastmile_qr_scan"}, "type": "electric_scooter"}, {"is_reserved": 0, "is_disabled": 0, "fusion_lon": 0.0, "lat": 38.96157016666667, "name": "109a324418b727e08f93f2152ce4b9c9", "bike_id": "109a324418b727e08f93f2152ce4b9c9", "lon": -76.9978485, "fusion_lat": 0.0, "rental_uris": {"android": "https://dc.lft.to/lastmile_qr_scan", "ios": "https://dc.lft.to/lastmile_qr_scan"}, "type": "electric_bike"}, {"is_reserved": 0, "is_disabled": 0, "fusion_lon": 0.0, "lat": 38.93094, "name": "c81fc0c2d3b549e6097969b627f0ea61", "bike_id": "c81fc0c2d3b549e6097969b627f0ea61", "lon": -77.0373505, "fusion_lat": 0.0, "rental_uris": {"android": "https://dc.lft.to/lastmile_qr_scan", "ios": "https://dc.lft.to/lastmile_qr_scan"}, "type": "electric_scooter"}, {"is_reserved": 0, "is_disabled": 0, "fusion_lon": 0.0, "lat": 38.90444333333333, "name": "19bc031f7bb845eba366b5a25c756a41", "bike_id": "19bc031f7bb845eba366b5a25c756a41", "lon": -77.05321816666667, "fusion_lat": 0.0, "rental_uris": {"android": "https://dc.lft.to/lastmile_qr_scan", "ios": "https://dc.lft.to/lastmile_qr_scan"}, "type": "electric_scooter"}, {"is_reserved": 0, "is_disabled": 0, "fusion_lon": 0.0, "lat": 38.9030825, "name": "333cf99b4469b79e32bb91d5fb2e9b67", "bike_id": "333cf99b4469b79e32bb91d5fb2e9b67", "lon": -77.05053433333333, "fusion_lat": 0.0, "rental_uris": {"android": "https://dc.lft.to/lastmile_qr_scan", "ios": "https://dc.lft.to/lastmile_qr_scan"}, "type": "electric_scooter"}, {"is_reserved": 0, "is_disabled": 0, "fusion_lon": 0.0, "lat": 38.894036, "name": "27f996705c2f514ba0384faa6a10e0c2", "bike_id": "27f996705c2f514ba0384faa6a10e0c2", "lon": -77.02167216666666, "fusion_lat": 0.0, "rental_uris": {"android": "https://dc.lft.to/lastmile_qr_scan", "ios": "https://dc.lft.to/lastmile_qr_scan"}, "type": "electric_scooter"}, {"is_reserved": 0, "is_disabled": 0, "fusion_lon": 0.0, "lat": 38.914107666666666, "name": "e0ab349e8aa994fb4539d574bbd0374b", "bike_id": "e0ab349e8aa994fb4539d574bbd0374b", "lon": -77.0225055, "fusion_lat": 0.0, "rental_uris": {"android": "https://dc.lft.to/lastmile_qr_scan", "ios": "https://dc.lft.to/lastmile_qr_scan"}, "type": "electric_scooter"}, {"is_reserved": 0, "is_disabled": 0, "fusion_lon": 0.0, "lat": 38.88961833333333, "name": "800da2fcb7031c4a515e6499929c3ce9", "bike_id": "800da2fcb7031c4a515e6499929c3ce9", "lon": -76.98817816666667, "fusion_lat": 0.0, "rental_uris": {"android": "https://dc.lft.to/lastmile_qr_scan", "ios": "https://dc.lft.to/lastmile_qr_scan"}, "type": "electric_scooter"}, {"is_reserved": 0, "is_disabled": 0, "fusion_lon": 0.0, "lat": 38.923885, "name": "98e083b73087c168d8ea3782fea4efc9", "bike_id": "98e083b73087c168d8ea3782fea4efc9", "lon": -77.03046966666666, "fusion_lat": 0.0, "rental_uris": {"android": "https://dc.lft.to/lastmile_qr_scan", "ios": "https://dc.lft.to/lastmile_qr_scan"}, "type": "electric_scooter"}, {"is_reserved": 0, "is_disabled": 0, "fusion_lon": 0.0, "lat": 38.9154525, "name": "4a87b174572f92e1593a77932fe4d8bc", "bike_id": "4a87b174572f92e1593a77932fe4d8bc", "lon": -77.04451633333333, "fusion_lat": 0.0, "rental_uris": {"android": "https://dc.lft.to/lastmile_qr_scan", "ios": "https://dc.lft.to/lastmile_qr_scan"}, "type": "electric_scooter"}, {"is_reserved": 0, "is_disabled": 0, "fusion_lon": 0.0, "lat": 38.908378166666665, "name": "fc3ccf756d9f58c18aa4003064d9cc70", "bike_id": "fc3ccf756d9f58c18aa4003064d9cc70", "lon": -77.0730645, "fusion_lat": 0.0, "rental_uris": {"android": "https://dc.lft.to/lastmile_qr_scan", "ios": "https://dc.lft.to/lastmile_qr_scan"}, "type": "electric_scooter"}, {"is_reserved": 0, "is_disabled": 0, "fusion_lon": 0.0, "lat": 38.905665166666665, "name": "81143505e8362d19a45c3b58cb8d8cb8", "bike_id": "81143505e8362d19a45c3b58cb8d8cb8", "lon": -77.00605316666666, "fusion_lat": 0.0, "rental_uris": {"android": "https://dc.lft.to/lastmile_qr_scan", "ios": "https://dc.lft.to/lastmile_qr_scan"}, "type": "electric_scooter"}, {"is_reserved": 0, "is_disabled": 0, "fusion_lon": 0.0, "lat": 38.9125875, "name": "d75320387ab9fe3bcaad9152716f54fe", "bike_id": "d75320387ab9fe3bcaad9152716f54fe", "lon": -77.07234833333334, "fusion_lat": 0.0, "rental_uris": {"android": "https://dc.lft.to/lastmile_qr_scan", "ios": "https://dc.lft.to/lastmile_qr_scan"}, "type": "electric_scooter"}, {"is_reserved": 0, "is_disabled": 0, "fusion_lon": 0.0, "lat": 38.920555, "name": "342cbd16b7d7a7a790a2f6bdd28a62de", "bike_id": "342cbd16b7d7a7a790a2f6bdd28a62de", "lon": -77.03460966666667, "fusion_lat": 0.0, "rental_uris": {"android": "https://dc.lft.to/lastmile_qr_scan", "ios": "https://dc.lft.to/lastmile_qr_scan"}, "type": "electric_scooter"}, {"is_reserved": 0, "is_disabled": 0, "fusion_lon": 0.0, "lat": 38.91917933333333, "name": "285e81cf5aca0ec3a2ffb0846cc2f210", "bike_id": "285e81cf5aca0ec3a2ffb0846cc2f210", "lon": -77.03032683333333, "fusion_lat": 0.0, "rental_uris": {"android": "https://dc.lft.to/lastmile_qr_scan", "ios": "https://dc.lft.to/lastmile_qr_scan"}, "type": "electric_scooter"}, {"is_reserved": 0, "is_disabled": 0, "fusion_lon": 0.0, "lat": 38.88556, "name": "77e44936b9c52d4ab1cca4701650be12", "bike_id": "77e44936b9c52d4ab1cca4701650be12", "lon": -77.11697583333333, "fusion_lat": 0.0, "rental_uris": {"android": "https://dc.lft.to/lastmile_qr_scan", "ios": "https://dc.lft.to/lastmile_qr_scan"}, "type": "electric_bike"}, {"is_reserved": 0, "is_disabled": 0, "fusion_lon": 0.0, "lat": 38.89234916666667, "name": "fb7d53e3189dec35aade1200103b571a", "bike_id": "fb7d53e3189dec35aade1200103b571a", "lon": -77.03123866666667, "fusion_lat": 0.0, "rental_uris": {"android": "https://dc.lft.to/lastmile_qr_scan", "ios": "https://dc.lft.to/lastmile_qr_scan"}, "type": "electric_scooter"}, {"is_reserved": 0, "is_disabled": 0, "fusion_lon": 0.0, "lat": 38.8829635, "name": "4b8bafafdd84a33e042d7e85eeb454da", "bike_id": "4b8bafafdd84a33e042d7e85eeb454da", "lon": -76.92897216666667, "fusion_lat": 0.0, "rental_uris": {"android": "https://dc.lft.to/lastmile_qr_scan", "ios": "https://dc.lft.to/lastmile_qr_scan"}, "type": "electric_scooter"}, {"is_reserved": 0, "is_disabled": 0, "fusion_lon": 0.0, "lat": 38.87999466666667, "name": "3838bbbd8634e09fb105d54a53b0c031", "bike_id": "3838bbbd8634e09fb105d54a53b0c031", "lon": -76.9854495, "fusion_lat": 0.0, "rental_uris": {"android": "https://dc.lft.to/lastmile_qr_scan", "ios": "https://dc.lft.to/lastmile_qr_scan"}, "type": "electric_scooter"}, {"is_reserved": 0, "is_disabled": 0, "fusion_lon": 0.0, "lat": 38.916916666666665, "name": "276811b088b97ade6ace904b96c9e629", "bike_id": "276811b088b97ade6ace904b96c9e629", "lon": -77.0217565, "fusion_lat": 0.0, "rental_uris": {"android": "https://dc.lft.to/lastmile_qr_scan", "ios": "https://dc.lft.to/lastmile_qr_scan"}, "type": "electric_scooter"}, {"is_reserved": 0, "is_disabled": 0, "fusion_lon": 0.0, "lat": 38.91626633333333, "name": "51698df91dca81fa3d0fd4c831ebb6a2", "bike_id": "51698df91dca81fa3d0fd4c831ebb6a2", "lon": -77.03497583333333, "fusion_lat": 0.0, "rental_uris": {"android": "https://dc.lft.to/lastmile_qr_scan", "ios": "https://dc.lft.to/lastmile_qr_scan"}, "type": "electric_scooter"}, {"is_reserved": 0, "is_disabled": 0, "fusion_lon": 0.0, "lat": 38.89623183333333, "name": "77cc1da3ab0f0b855bc946caec339410", "bike_id": "77cc1da3ab0f0b855bc946caec339410", "lon": -77.02219866666667, "fusion_lat": 0.0, "rental_uris": {"android": "https://dc.lft.to/lastmile_qr_scan", "ios": "https://dc.lft.to/lastmile_qr_scan"}, "type": "electric_scooter"}, {"is_reserved": 0, "is_disabled": 0, "fusion_lon": 0.0, "lat": 38.912725, "name": "7e3431655cfa6097af80663e919dd797", "bike_id": "7e3431655cfa6097af80663e919dd797", "lon": -77.0220945, "fusion_lat": 0.0, "rental_uris": {"android": "https://dc.lft.to/lastmile_qr_scan", "ios": "https://dc.lft.to/lastmile_qr_scan"}, "type": "electric_scooter"}, {"is_reserved": 0, "is_disabled": 0, "fusion_lon": 0.0, "lat": 38.892365166666664, "name": "3b240e84cf69087eb09485d239684b28", "bike_id": "3b240e84cf69087eb09485d239684b28", "lon": -77.04875583333333, "fusion_lat": 0.0, "rental_uris": {"android": "https://dc.lft.to/lastmile_qr_scan", "ios": "https://dc.lft.to/lastmile_qr_scan"}, "type": "electric_scooter"}, {"is_reserved": 0, "is_disabled": 0, "fusion_lon": 0.0, "lat": 38.920366333333334, "name": "1be4f2b89ef13cf39a99c47b4b328c1c", "bike_id": "1be4f2b89ef13cf39a99c47b4b328c1c", "lon": -76.979561, "fusion_lat": 0.0, "rental_uris": {"android": "https://dc.lft.to/lastmile_qr_scan", "ios": "https://dc.lft.to/lastmile_qr_scan"}, "type": "electric_bike"}, {"is_reserved": 0, "is_disabled": 0, "fusion_lon": 0.0, "lat": 38.887281333333334, "name": "a2ca610a295644a994f621422a0b2eff", "bike_id": "a2ca610a295644a994f621422a0b2eff", "lon": -77.0282615, "fusion_lat": 0.0, "rental_uris": {"android": "https://dc.lft.to/lastmile_qr_scan", "ios": "https://dc.lft.to/lastmile_qr_scan"}, "type": "electric_scooter"}, {"is_reserved": 0, "is_disabled": 0, "fusion_lon": 0.0, "lat": 38.8950995, "name": "c91bb5ccaf6acd8aed14b4d13e7d44b2", "bike_id": "c91bb5ccaf6acd8aed14b4d13e7d44b2", "lon": -77.04167433333333, "fusion_lat": 0.0, "rental_uris": {"android": "https://dc.lft.to/lastmile_qr_scan", "ios": "https://dc.lft.to/lastmile_qr_scan"}, "type": "electric_scooter"}, {"is_reserved": 0, "is_disabled": 0, "fusion_lon": 0.0, "lat": 38.89564716666667, "name": "f03bc27c4d4cbb5ca741e3a7acfa48fe", "bike_id": "f03bc27c4d4cbb5ca741e3a7acfa48fe", "lon": -77.12730466666666, "fusion_lat": 0.0, "rental_uris": {"android": "https://dc.lft.to/lastmile_qr_scan", "ios": "https://dc.lft.to/lastmile_qr_scan"}, "type": "electric_bike"}, {"is_reserved": 0, "is_disabled": 0, "fusion_lon": 0.0, "lat": 38.914880833333335, "name": "0366222e4cc0e1944f291e174ce88ade", "bike_id": "0366222e4cc0e1944f291e174ce88ade", "lon": -77.02186716666667, "fusion_lat": 0.0, "rental_uris": {"android": "https://dc.lft.to/lastmile_qr_scan", "ios": "https://dc.lft.to/lastmile_qr_scan"}, "type": "electric_scooter"}, {"is_reserved": 0, "is_disabled": 0, "fusion_lon": 0.0, "lat": 38.8948055, "name": "69745a83127008b782cd191ce98139f1", "bike_id": "69745a83127008b782cd191ce98139f1", "lon": -77.02792216666667, "fusion_lat": 0.0, "rental_uris": {"android": "https://dc.lft.to/lastmile_qr_scan", "ios": "https://dc.lft.to/lastmile_qr_scan"}, "type": "electric_scooter"}, {"is_reserved": 0, "is_disabled": 0, "fusion_lon": 0.0, "lat": 38.88991, "name": "f181fa2ec8a16b3deeb41f06b945f22b", "bike_id": "f181fa2ec8a16b3deeb41f06b945f22b", "lon": -76.92108516666667, "fusion_lat": 0.0, "rental_uris": {"android": "https://dc.lft.to/lastmile_qr_scan", "ios": "https://dc.lft.to/lastmile_qr_scan"}, "type": "electric_scooter"}, {"is_reserved": 0, "is_disabled": 0, "fusion_lon": 0.0, "lat": 38.898928, "name": "ab5f5c96a8206b204bd19e5081b21b5e", "bike_id": "ab5f5c96a8206b204bd19e5081b21b5e", "lon": -77.02982316666667, "fusion_lat": 0.0, "rental_uris": {"android": "https://dc.lft.to/lastmile_qr_scan", "ios": "https://dc.lft.to/lastmile_qr_scan"}, "type": "electric_scooter"}, {"is_reserved": 0, "is_disabled": 0, "fusion_lon": 0.0, "lat": 38.898893, "name": "f7b87f28f69749ae159d308293fc2714", "bike_id": "f7b87f28f69749ae159d308293fc2714", "lon": -76.93172433333334, "fusion_lat": 0.0, "rental_uris": {"android": "https://dc.lft.to/lastmile_qr_scan", "ios": "https://dc.lft.to/lastmile_qr_scan"}, "type": "electric_scooter"}, {"is_reserved": 0, "is_disabled": 0, "fusion_lon": 0.0, "lat": 38.874617666666666, "name": "c1e3bc1ec3e0920f25460bdb4d170f47", "bike_id": "c1e3bc1ec3e0920f25460bdb4d170f47", "lon": -77.009374, "fusion_lat": 0.0, "rental_uris": {"android": "https://dc.lft.to/lastmile_qr_scan", "ios": "https://dc.lft.to/lastmile_qr_scan"}, "type": "electric_scooter"}, {"is_reserved": 0, "is_disabled": 0, "fusion_lon": 0.0, "lat": 38.89881483333333, "name": "199e5889dcbc1cdf297f52bee4d80bcc", "bike_id": "199e5889dcbc1cdf297f52bee4d80bcc", "lon": -77.03933716666667, "fusion_lat": 0.0, "rental_uris": {"android": "https://dc.lft.to/lastmile_qr_scan", "ios": "https://dc.lft.to/lastmile_qr_scan"}, "type": "electric_scooter"}, {"is_reserved": 0, "is_disabled": 0, "fusion_lon": 0.0, "lat": 38.908598, "name": "7e16b555300673f2b54d27f0fa924a2f", "bike_id": "7e16b555300673f2b54d27f0fa924a2f", "lon": -76.99682233333333, "fusion_lat": 0.0, "rental_uris": {"android": "https://dc.lft.to/lastmile_qr_scan", "ios": "https://dc.lft.to/lastmile_qr_scan"}, "type": "electric_scooter"}, {"is_reserved": 0, "is_disabled": 0, "fusion_lon": 0.0, "lat": 38.922495166666664, "name": "cb36a8ff197ff137dbcfd460ef709265", "bike_id": "cb36a8ff197ff137dbcfd460ef709265", "lon": -77.030841, "fusion_lat": 0.0, "rental_uris": {"android": "https://dc.lft.to/lastmile_qr_scan", "ios": "https://dc.lft.to/lastmile_qr_scan"}, "type": "electric_scooter"}, {"is_reserved": 0, "is_disabled": 0, "fusion_lon": 0.0, "lat": 38.93468683333333, "name": "c2f678605efbef429aceabe04acae94a", "bike_id": "c2f678605efbef429aceabe04acae94a", "lon": -77.05809633333334, "fusion_lat": 0.0, "rental_uris": {"android": "https://dc.lft.to/lastmile_qr_scan", "ios": "https://dc.lft.to/lastmile_qr_scan"}, "type": "electric_scooter"}, {"is_reserved": 0, "is_disabled": 0, "fusion_lon": 0.0, "lat": 38.92399133333333, "name": "f25c13a9a70e733e4b619c0cd2a31024", "bike_id": "f25c13a9a70e733e4b619c0cd2a31024", "lon": -77.02692666666667, "fusion_lat": 0.0, "rental_uris": {"android": "https://dc.lft.to/lastmile_qr_scan", "ios": "https://dc.lft.to/lastmile_qr_scan"}, "type": "electric_scooter"}, {"is_reserved": 0, "is_disabled": 0, "fusion_lon": 0.0, "lat": 38.93287683333333, "name": "e4e7642047fbe7722004e96be16a6241", "bike_id": "e4e7642047fbe7722004e96be16a6241", "lon": -77.025433, "fusion_lat": 0.0, "rental_uris": {"android": "https://dc.lft.to/lastmile_qr_scan", "ios": "https://dc.lft.to/lastmile_qr_scan"}, "type": "electric_scooter"}, {"is_reserved": 0, "is_disabled": 0, "fusion_lon": 0.0, "lat": 38.89768633333333, "name": "e52bc179d4efea87e5ce40d1b4a2a305", "bike_id": "e52bc179d4efea87e5ce40d1b4a2a305", "lon": -77.02699966666667, "fusion_lat": 0.0, "rental_uris": {"android": "https://dc.lft.to/lastmile_qr_scan", "ios": "https://dc.lft.to/lastmile_qr_scan"}, "type": "electric_scooter"}, {"is_reserved": 0, "is_disabled": 0, "fusion_lon": 0.0, "lat": 38.892274, "name": "83cdf8b0c7af5aa5665eaf060953d89b", "bike_id": "83cdf8b0c7af5aa5665eaf060953d89b", "lon": -77.04504833333333, "fusion_lat": 0.0, "rental_uris": {"android": "https://dc.lft.to/lastmile_qr_scan", "ios": "https://dc.lft.to/lastmile_qr_scan"}, "type": "electric_scooter"}, {"is_reserved": 0, "is_disabled": 0, "fusion_lon": 0.0, "lat": 38.957865166666664, "name": "612fea7a591c38962354aa9a0f3d470f", "bike_id": "612fea7a591c38962354aa9a0f3d470f", "lon": -77.02828833333334, "fusion_lat": 0.0, "rental_uris": {"android": "https://dc.lft.to/lastmile_qr_scan", "ios": "https://dc.lft.to/lastmile_qr_scan"}, "type": "electric_scooter"}, {"is_reserved": 0, "is_disabled": 0, "fusion_lon": 0.0, "lat": 38.8840155, "name": "de550e6f51786508d6774eaece445785", "bike_id": "de550e6f51786508d6774eaece445785", "lon": -76.985821, "fusion_lat": 0.0, "rental_uris": {"android": "https://dc.lft.to/lastmile_qr_scan", "ios": "https://dc.lft.to/lastmile_qr_scan"}, "type": "electric_scooter"}, {"is_reserved": 0, "is_disabled": 0, "fusion_lon": 0.0, "lat": 38.925647833333336, "name": "03216dd66085124e35c23b03eeb4371a", "bike_id": "03216dd66085124e35c23b03eeb4371a", "lon": -77.0376785, "fusion_lat": 0.0, "rental_uris": {"android": "https://dc.lft.to/lastmile_qr_scan", "ios": "https://dc.lft.to/lastmile_qr_scan"}, "type": "electric_scooter"}, {"is_reserved": 0, "is_disabled": 0, "fusion_lon": 0.0, "lat": 38.880298833333335, "name": "0cbde165441f80b8f80ffa9b411a87de", "bike_id": "0cbde165441f80b8f80ffa9b411a87de", "lon": -77.0054795, "fusion_lat": 0.0, "rental_uris": {"android": "https://dc.lft.to/lastmile_qr_scan", "ios": "https://dc.lft.to/lastmile_qr_scan"}, "type": "electric_scooter"}, {"is_reserved": 0, "is_disabled": 0, "fusion_lon": 0.0, "lat": 38.9293265, "name": "f558f023d3b8083ef34805aff232cf3d", "bike_id": "f558f023d3b8083ef34805aff232cf3d", "lon": -77.00672733333333, "fusion_lat": 0.0, "rental_uris": {"android": "https://dc.lft.to/lastmile_qr_scan", "ios": "https://dc.lft.to/lastmile_qr_scan"}, "type": "electric_scooter"}, {"is_reserved": 0, "is_disabled": 0, "fusion_lon": 0.0, "lat": 38.926704666666666, "name": "758ddcb71d6e4239ad04349e327edfcf", "bike_id": "758ddcb71d6e4239ad04349e327edfcf", "lon": -77.0276345, "fusion_lat": 0.0, "rental_uris": {"android": "https://dc.lft.to/lastmile_qr_scan", "ios": "https://dc.lft.to/lastmile_qr_scan"}, "type": "electric_scooter"}, {"is_reserved": 0, "is_disabled": 0, "fusion_lon": 0.0, "lat": 38.9755005, "name": "374e1fceb12c270f8db5c6f764555942", "bike_id": "374e1fceb12c270f8db5c6f764555942", "lon": -77.02659616666666, "fusion_lat": 0.0, "rental_uris": {"android": "https://dc.lft.to/lastmile_qr_scan", "ios": "https://dc.lft.to/lastmile_qr_scan"}, "type": "electric_scooter"}, {"is_reserved": 0, "is_disabled": 0, "fusion_lon": 0.0, "lat": 38.855773, "name": "f591374cff80464099cd617a7b383cda", "bike_id": "f591374cff80464099cd617a7b383cda", "lon": -77.05334133333334, "fusion_lat": 0.0, "rental_uris": {"android": "https://dc.lft.to/lastmile_qr_scan", "ios": "https://dc.lft.to/lastmile_qr_scan"}, "type": "electric_bike"}, {"is_reserved": 0, "is_disabled": 0, "fusion_lon": 0.0, "lat": 38.9726435, "name": "99527ff7113367bb6c45a677a6894435", "bike_id": "99527ff7113367bb6c45a677a6894435", "lon": -76.9927775, "fusion_lat": 0.0, "rental_uris": {"android": "https://dc.lft.to/lastmile_qr_scan", "ios": "https://dc.lft.to/lastmile_qr_scan"}, "type": "electric_bike"}, {"is_reserved": 0, "is_disabled": 0, "fusion_lon": 0.0, "lat": 38.908653666666666, "name": "238e7e84cec8650c2258372e9a2f9489", "bike_id": "238e7e84cec8650c2258372e9a2f9489", "lon": -77.080764, "fusion_lat": 0.0, "rental_uris": {"android": "https://dc.lft.to/lastmile_qr_scan", "ios": "https://dc.lft.to/lastmile_qr_scan"}, "type": "electric_bike"}, {"is_reserved": 0, "is_disabled": 0, "fusion_lon": 0.0, "lat": 38.871212, "name": "7570ee447117ceb1400f084e87ffd02a", "bike_id": "7570ee447117ceb1400f084e87ffd02a", "lon": -77.00907216666667, "fusion_lat": 0.0, "rental_uris": {"android": "https://dc.lft.to/lastmile_qr_scan", "ios": "https://dc.lft.to/lastmile_qr_scan"}, "type": "electric_scooter"}, {"is_reserved": 0, "is_disabled": 0, "fusion_lon": 0.0, "lat": 38.909443833333334, "name": "29fae22f4c58ae9c643d427f8c0c5939", "bike_id": "29fae22f4c58ae9c643d427f8c0c5939", "lon": -77.02394433333333, "fusion_lat": 0.0, "rental_uris": {"android": "https://dc.lft.to/lastmile_qr_scan", "ios": "https://dc.lft.to/lastmile_qr_scan"}, "type": "electric_scooter"}, {"is_reserved": 0, "is_disabled": 0, "fusion_lon": 0.0, "lat": 38.9235525, "name": "da461dae17596840cb0c71017235a4fb", "bike_id": "da461dae17596840cb0c71017235a4fb", "lon": -77.02115333333333, "fusion_lat": 0.0, "rental_uris": {"android": "https://dc.lft.to/lastmile_qr_scan", "ios": "https://dc.lft.to/lastmile_qr_scan"}, "type": "electric_scooter"}, {"is_reserved": 0, "is_disabled": 0, "fusion_lon": 0.0, "lat": 38.92056633333333, "name": "5898bff68efb1035b426ca2b0f711e79", "bike_id": "5898bff68efb1035b426ca2b0f711e79", "lon": -77.02293916666666, "fusion_lat": 0.0, "rental_uris": {"android": "https://dc.lft.to/lastmile_qr_scan", "ios": "https://dc.lft.to/lastmile_qr_scan"}, "type": "electric_scooter"}, {"is_reserved": 0, "is_disabled": 0, "fusion_lon": 0.0, "lat": 38.87707, "name": "2bd1aea650b3d9cedf729e8c4d2d14e9", "bike_id": "2bd1aea650b3d9cedf729e8c4d2d14e9", "lon": -76.9931975, "fusion_lat": 0.0, "rental_uris": {"android": "https://dc.lft.to/lastmile_qr_scan", "ios": "https://dc.lft.to/lastmile_qr_scan"}, "type": "electric_scooter"}, {"is_reserved": 0, "is_disabled": 0, "fusion_lon": 0.0, "lat": 38.908019833333334, "name": "47341805819fabcf99dc1b55f2a2d2b3", "bike_id": "47341805819fabcf99dc1b55f2a2d2b3", "lon": -77.08400666666667, "fusion_lat": 0.0, "rental_uris": {"android": "https://dc.lft.to/lastmile_qr_scan", "ios": "https://dc.lft.to/lastmile_qr_scan"}, "type": "electric_scooter"}, {"is_reserved": 0, "is_disabled": 0, "fusion_lon": 0.0, "lat": 38.93431133333333, "name": "c20731d8610aa2e0cf7e30336c77563e", "bike_id": "c20731d8610aa2e0cf7e30336c77563e", "lon": -77.05845616666667, "fusion_lat": 0.0, "rental_uris": {"android": "https://dc.lft.to/lastmile_qr_scan", "ios": "https://dc.lft.to/lastmile_qr_scan"}, "type": "electric_scooter"}, {"is_reserved": 0, "is_disabled": 0, "fusion_lon": 0.0, "lat": 38.90417883333333, "name": "13932070f2f46e3a490daf7863fdbc23", "bike_id": "13932070f2f46e3a490daf7863fdbc23", "lon": -77.03272333333334, "fusion_lat": 0.0, "rental_uris": {"android": "https://dc.lft.to/lastmile_qr_scan", "ios": "https://dc.lft.to/lastmile_qr_scan"}, "type": "electric_scooter"}, {"is_reserved": 0, "is_disabled": 0, "fusion_lon": 0.0, "lat": 38.90371716666667, "name": "9ecf9af3bc65f01d3b5e40aacd24878d", "bike_id": "9ecf9af3bc65f01d3b5e40aacd24878d", "lon": -77.0176115, "fusion_lat": 0.0, "rental_uris": {"android": "https://dc.lft.to/lastmile_qr_scan", "ios": "https://dc.lft.to/lastmile_qr_scan"}, "type": "electric_scooter"}, {"is_reserved": 0, "is_disabled": 0, "fusion_lon": 0.0, "lat": 38.917105, "name": "b96ede7974f0437e7f2ce38df12d521e", "bike_id": "b96ede7974f0437e7f2ce38df12d521e", "lon": -77.03344066666666, "fusion_lat": 0.0, "rental_uris": {"android": "https://dc.lft.to/lastmile_qr_scan", "ios": "https://dc.lft.to/lastmile_qr_scan"}, "type": "electric_scooter"}, {"is_reserved": 0, "is_disabled": 0, "fusion_lon": 0.0, "lat": 38.895029, "name": "267cdabdf3a2e319327144a699fdd573", "bike_id": "267cdabdf3a2e319327144a699fdd573", "lon": -77.02291916666667, "fusion_lat": 0.0, "rental_uris": {"android": "https://dc.lft.to/lastmile_qr_scan", "ios": "https://dc.lft.to/lastmile_qr_scan"}, "type": "electric_scooter"}, {"is_reserved": 0, "is_disabled": 0, "fusion_lon": 0.0, "lat": 38.936569666666664, "name": "5593324b5134992fb89f23043557ed4a", "bike_id": "5593324b5134992fb89f23043557ed4a", "lon": -76.99352066666667, "fusion_lat": 0.0, "rental_uris": {"android": "https://dc.lft.to/lastmile_qr_scan", "ios": "https://dc.lft.to/lastmile_qr_scan"}, "type": "electric_scooter"}, {"is_reserved": 0, "is_disabled": 0, "fusion_lon": 0.0, "lat": 38.916892, "name": "f4602f50cfc4dc0f60423f19cc6e44aa", "bike_id": "f4602f50cfc4dc0f60423f19cc6e44aa", "lon": -77.03767783333333, "fusion_lat": 0.0, "rental_uris": {"android": "https://dc.lft.to/lastmile_qr_scan", "ios": "https://dc.lft.to/lastmile_qr_scan"}, "type": "electric_scooter"}, {"is_reserved": 0, "is_disabled": 0, "fusion_lon": 0.0, "lat": 38.926900333333336, "name": "0c5fc9c2b64070a230a23304acdd7342", "bike_id": "0c5fc9c2b64070a230a23304acdd7342", "lon": -77.02961266666667, "fusion_lat": 0.0, "rental_uris": {"android": "https://dc.lft.to/lastmile_qr_scan", "ios": "https://dc.lft.to/lastmile_qr_scan"}, "type": "electric_scooter"}, {"is_reserved": 0, "is_disabled": 0, "fusion_lon": 0.0, "lat": 38.90735566666667, "name": "9eee72ba1e058557b2e8069463bfa372", "bike_id": "9eee72ba1e058557b2e8069463bfa372", "lon": -77.028055, "fusion_lat": 0.0, "rental_uris": {"android": "https://dc.lft.to/lastmile_qr_scan", "ios": "https://dc.lft.to/lastmile_qr_scan"}, "type": "electric_scooter"}, {"is_reserved": 0, "is_disabled": 0, "fusion_lon": 0.0, "lat": 38.8747055, "name": "a46a6aeb39274acb54eff73c7fdc3b74", "bike_id": "a46a6aeb39274acb54eff73c7fdc3b74", "lon": -77.0050565, "fusion_lat": 0.0, "rental_uris": {"android": "https://dc.lft.to/lastmile_qr_scan", "ios": "https://dc.lft.to/lastmile_qr_scan"}, "type": "electric_scooter"}, {"is_reserved": 0, "is_disabled": 0, "fusion_lon": 0.0, "lat": 38.870738, "name": "f0142bc661c64bca799ef791a23a942b", "bike_id": "f0142bc661c64bca799ef791a23a942b", "lon": -77.1102865, "fusion_lat": 0.0, "rental_uris": {"android": "https://dc.lft.to/lastmile_qr_scan", "ios": "https://dc.lft.to/lastmile_qr_scan"}, "type": "electric_bike"}, {"is_reserved": 0, "is_disabled": 0, "fusion_lon": 0.0, "lat": 38.92387866666667, "name": "fcc2f2106c2fef4e8cc81d986faaba7f", "bike_id": "fcc2f2106c2fef4e8cc81d986faaba7f", "lon": -77.03657466666667, "fusion_lat": 0.0, "rental_uris": {"android": "https://dc.lft.to/lastmile_qr_scan", "ios": "https://dc.lft.to/lastmile_qr_scan"}, "type": "electric_scooter"}, {"is_reserved": 0, "is_disabled": 0, "fusion_lon": 0.0, "lat": 38.923586666666665, "name": "ca404b0c96b5596e6be931831f2f15aa", "bike_id": "ca404b0c96b5596e6be931831f2f15aa", "lon": -77.0243735, "fusion_lat": 0.0, "rental_uris": {"android": "https://dc.lft.to/lastmile_qr_scan", "ios": "https://dc.lft.to/lastmile_qr_scan"}, "type": "electric_scooter"}, {"is_reserved": 0, "is_disabled": 0, "fusion_lon": 0.0, "lat": 38.9306875, "name": "89283b8734c37824fa04715e59d54883", "bike_id": "89283b8734c37824fa04715e59d54883", "lon": -77.01988133333333, "fusion_lat": 0.0, "rental_uris": {"android": "https://dc.lft.to/lastmile_qr_scan", "ios": "https://dc.lft.to/lastmile_qr_scan"}, "type": "electric_scooter"}, {"is_reserved": 0, "is_disabled": 0, "fusion_lon": 0.0, "lat": 38.89745666666666, "name": "0963d723182b45e29b306b5f2a10fe0c", "bike_id": "0963d723182b45e29b306b5f2a10fe0c", "lon": -77.05524966666667, "fusion_lat": 0.0, "rental_uris": {"android": "https://dc.lft.to/lastmile_qr_scan", "ios": "https://dc.lft.to/lastmile_qr_scan"}, "type": "electric_scooter"}, {"is_reserved": 0, "is_disabled": 0, "fusion_lon": 0.0, "lat": 38.964138166666665, "name": "4e414f37e3210865ae7d245c6e5fbcd8", "bike_id": "4e414f37e3210865ae7d245c6e5fbcd8", "lon": -77.03284833333333, "fusion_lat": 0.0, "rental_uris": {"android": "https://dc.lft.to/lastmile_qr_scan", "ios": "https://dc.lft.to/lastmile_qr_scan"}, "type": "electric_scooter"}, {"is_reserved": 0, "is_disabled": 0, "fusion_lon": 0.0, "lat": 38.835870166666666, "name": "37ff7fa63afac9e32775f79e37d9147a", "bike_id": "37ff7fa63afac9e32775f79e37d9147a", "lon": -76.99030116666667, "fusion_lat": 0.0, "rental_uris": {"android": "https://dc.lft.to/lastmile_qr_scan", "ios": "https://dc.lft.to/lastmile_qr_scan"}, "type": "electric_bike"}, {"is_reserved": 0, "is_disabled": 0, "fusion_lon": 0.0, "lat": 38.90339566666667, "name": "6dee7922f189fef0c3f8ff053ff80031", "bike_id": "6dee7922f189fef0c3f8ff053ff80031", "lon": -76.976136, "fusion_lat": 0.0, "rental_uris": {"android": "https://dc.lft.to/lastmile_qr_scan", "ios": "https://dc.lft.to/lastmile_qr_scan"}, "type": "electric_scooter"}, {"is_reserved": 0, "is_disabled": 0, "fusion_lon": 0.0, "lat": 38.91898533333333, "name": "ac52dd4fca0442d4c85aac54233fa337", "bike_id": "ac52dd4fca0442d4c85aac54233fa337", "lon": -77.10173883333333, "fusion_lat": 0.0, "rental_uris": {"android": "https://dc.lft.to/lastmile_qr_scan", "ios": "https://dc.lft.to/lastmile_qr_scan"}, "type": "electric_bike"}, {"is_reserved": 0, "is_disabled": 0, "fusion_lon": 0.0, "lat": 38.89359866666667, "name": "1fd53d15fec79f03f65889abe5b1208f", "bike_id": "1fd53d15fec79f03f65889abe5b1208f", "lon": -77.003334, "fusion_lat": 0.0, "rental_uris": {"android": "https://dc.lft.to/lastmile_qr_scan", "ios": "https://dc.lft.to/lastmile_qr_scan"}, "type": "electric_scooter"}, {"is_reserved": 0, "is_disabled": 0, "fusion_lon": 0.0, "lat": 38.92450083333333, "name": "13e5e3c4aa59c235db1d0e80fe529e20", "bike_id": "13e5e3c4aa59c235db1d0e80fe529e20", "lon": -77.02972633333333, "fusion_lat": 0.0, "rental_uris": {"android": "https://dc.lft.to/lastmile_qr_scan", "ios": "https://dc.lft.to/lastmile_qr_scan"}, "type": "electric_scooter"}, {"is_reserved": 0, "is_disabled": 0, "fusion_lon": 0.0, "lat": 38.89610883333334, "name": "7f130b68ce3124166acaa9b71135e3f0", "bike_id": "7f130b68ce3124166acaa9b71135e3f0", "lon": -76.99242133333334, "fusion_lat": 0.0, "rental_uris": {"android": "https://dc.lft.to/lastmile_qr_scan", "ios": "https://dc.lft.to/lastmile_qr_scan"}, "type": "electric_scooter"}, {"is_reserved": 0, "is_disabled": 0, "fusion_lon": 0.0, "lat": 38.91484633333334, "name": "db388ee47e05ad95dc5c1c07d87049c0", "bike_id": "db388ee47e05ad95dc5c1c07d87049c0", "lon": -77.03226583333333, "fusion_lat": 0.0, "rental_uris": {"android": "https://dc.lft.to/lastmile_qr_scan", "ios": "https://dc.lft.to/lastmile_qr_scan"}, "type": "electric_scooter"}, {"is_reserved": 0, "is_disabled": 0, "fusion_lon": 0.0, "lat": 38.92465983333334, "name": "60ee93fdf896b5621beb6c0de97d6165", "bike_id": "60ee93fdf896b5621beb6c0de97d6165", "lon": -77.0226875, "fusion_lat": 0.0, "rental_uris": {"android": "https://dc.lft.to/lastmile_qr_scan", "ios": "https://dc.lft.to/lastmile_qr_scan"}, "type": "electric_scooter"}, {"is_reserved": 0, "is_disabled": 0, "fusion_lon": 0.0, "lat": 38.963976, "name": "6b41f39893a2ae023227ad734f4359ec", "bike_id": "6b41f39893a2ae023227ad734f4359ec", "lon": -77.02590883333333, "fusion_lat": 0.0, "rental_uris": {"android": "https://dc.lft.to/lastmile_qr_scan", "ios": "https://dc.lft.to/lastmile_qr_scan"}, "type": "electric_scooter"}, {"is_reserved": 0, "is_disabled": 0, "fusion_lon": 0.0, "lat": 38.93973116666667, "name": "45497ce22f8c7b0b9d97192291856086", "bike_id": "45497ce22f8c7b0b9d97192291856086", "lon": -77.03026633333333, "fusion_lat": 0.0, "rental_uris": {"android": "https://dc.lft.to/lastmile_qr_scan", "ios": "https://dc.lft.to/lastmile_qr_scan"}, "type": "electric_scooter"}, {"is_reserved": 0, "is_disabled": 0, "fusion_lon": 0.0, "lat": 38.9162815, "name": "ae9eb8e2c2d72928b111a3343872a7a5", "bike_id": "ae9eb8e2c2d72928b111a3343872a7a5", "lon": -77.045745, "fusion_lat": 0.0, "rental_uris": {"android": "https://dc.lft.to/lastmile_qr_scan", "ios": "https://dc.lft.to/lastmile_qr_scan"}, "type": "electric_scooter"}, {"is_reserved": 0, "is_disabled": 0, "fusion_lon": 0.0, "lat": 38.92409683333333, "name": "f902b0717a263a4eacb96c882e853196", "bike_id": "f902b0717a263a4eacb96c882e853196", "lon": -77.0270345, "fusion_lat": 0.0, "rental_uris": {"android": "https://dc.lft.to/lastmile_qr_scan", "ios": "https://dc.lft.to/lastmile_qr_scan"}, "type": "electric_scooter"}, {"is_reserved": 0, "is_disabled": 0, "fusion_lon": 0.0, "lat": 38.9731545, "name": "bccfdd99adc4a5cda2d1ffdca0ae0105", "bike_id": "bccfdd99adc4a5cda2d1ffdca0ae0105", "lon": -77.02691, "fusion_lat": 0.0, "rental_uris": {"android": "https://dc.lft.to/lastmile_qr_scan", "ios": "https://dc.lft.to/lastmile_qr_scan"}, "type": "electric_scooter"}, {"is_reserved": 0, "is_disabled": 0, "fusion_lon": 0.0, "lat": 38.9154765, "name": "4a8de919bf17701c737b25163b0d02f1", "bike_id": "4a8de919bf17701c737b25163b0d02f1", "lon": -77.03655266666667, "fusion_lat": 0.0, "rental_uris": {"android": "https://dc.lft.to/lastmile_qr_scan", "ios": "https://dc.lft.to/lastmile_qr_scan"}, "type": "electric_scooter"}, {"is_reserved": 0, "is_disabled": 0, "fusion_lon": 0.0, "lat": 38.90263866666667, "name": "93dd4aac2d59744096136894a80a7116", "bike_id": "93dd4aac2d59744096136894a80a7116", "lon": -77.06012133333333, "fusion_lat": 0.0, "rental_uris": {"android": "https://dc.lft.to/lastmile_qr_scan", "ios": "https://dc.lft.to/lastmile_qr_scan"}, "type": "electric_scooter"}, {"is_reserved": 0, "is_disabled": 0, "fusion_lon": 0.0, "lat": 38.93449583333334, "name": "3e526b97bb9248cfa118577d5116224a", "bike_id": "3e526b97bb9248cfa118577d5116224a", "lon": -77.08964766666666, "fusion_lat": 0.0, "rental_uris": {"android": "https://dc.lft.to/lastmile_qr_scan", "ios": "https://dc.lft.to/lastmile_qr_scan"}, "type": "electric_scooter"}, {"is_reserved": 0, "is_disabled": 0, "fusion_lon": 0.0, "lat": 38.9498065, "name": "3b7f67f34bb1bd384e421d10ab98819a", "bike_id": "3b7f67f34bb1bd384e421d10ab98819a", "lon": -77.02432066666667, "fusion_lat": 0.0, "rental_uris": {"android": "https://dc.lft.to/lastmile_qr_scan", "ios": "https://dc.lft.to/lastmile_qr_scan"}, "type": "electric_scooter"}, {"is_reserved": 0, "is_disabled": 0, "fusion_lon": 0.0, "lat": 38.92446916666667, "name": "495216b825ec1081ce1b22674d20c671", "bike_id": "495216b825ec1081ce1b22674d20c671", "lon": -77.0213155, "fusion_lat": 0.0, "rental_uris": {"android": "https://dc.lft.to/lastmile_qr_scan", "ios": "https://dc.lft.to/lastmile_qr_scan"}, "type": "electric_scooter"}, {"is_reserved": 0, "is_disabled": 0, "fusion_lon": 0.0, "lat": 38.9246535, "name": "f0448ada04f33cc78176ae2bbab70c93", "bike_id": "f0448ada04f33cc78176ae2bbab70c93", "lon": -77.04193116666667, "fusion_lat": 0.0, "rental_uris": {"android": "https://dc.lft.to/lastmile_qr_scan", "ios": "https://dc.lft.to/lastmile_qr_scan"}, "type": "electric_scooter"}, {"is_reserved": 0, "is_disabled": 0, "fusion_lon": 0.0, "lat": 38.921190333333335, "name": "47e61ead945c5996146201cac4f640ba", "bike_id": "47e61ead945c5996146201cac4f640ba", "lon": -77.02070466666666, "fusion_lat": 0.0, "rental_uris": {"android": "https://dc.lft.to/lastmile_qr_scan", "ios": "https://dc.lft.to/lastmile_qr_scan"}, "type": "electric_scooter"}, {"is_reserved": 0, "is_disabled": 0, "fusion_lon": 0.0, "lat": 38.926297, "name": "ba3f4f9c3d57a5f6860e58ac01c5d1c5", "bike_id": "ba3f4f9c3d57a5f6860e58ac01c5d1c5", "lon": -77.0439825, "fusion_lat": 0.0, "rental_uris": {"android": "https://dc.lft.to/lastmile_qr_scan", "ios": "https://dc.lft.to/lastmile_qr_scan"}, "type": "electric_scooter"}, {"is_reserved": 0, "is_disabled": 0, "fusion_lon": 0.0, "lat": 38.93648966666667, "name": "8aa4d222f412e7701390d03d5a1b026d", "bike_id": "8aa4d222f412e7701390d03d5a1b026d", "lon": -77.02444933333334, "fusion_lat": 0.0, "rental_uris": {"android": "https://dc.lft.to/lastmile_qr_scan", "ios": "https://dc.lft.to/lastmile_qr_scan"}, "type": "electric_scooter"}, {"is_reserved": 0, "is_disabled": 0, "fusion_lon": 0.0, "lat": 38.922359, "name": "df56b5a4a6118a2fdeecde411dbe3cf9", "bike_id": "df56b5a4a6118a2fdeecde411dbe3cf9", "lon": -77.021246, "fusion_lat": 0.0, "rental_uris": {"android": "https://dc.lft.to/lastmile_qr_scan", "ios": "https://dc.lft.to/lastmile_qr_scan"}, "type": "electric_scooter"}, {"is_reserved": 0, "is_disabled": 0, "fusion_lon": 0.0, "lat": 38.879782666666664, "name": "2810b61481fc8e8eb7da29aa658bed3a", "bike_id": "2810b61481fc8e8eb7da29aa658bed3a", "lon": -77.02422816666666, "fusion_lat": 0.0, "rental_uris": {"android": "https://dc.lft.to/lastmile_qr_scan", "ios": "https://dc.lft.to/lastmile_qr_scan"}, "type": "electric_scooter"}, {"is_reserved": 0, "is_disabled": 0, "fusion_lon": 0.0, "lat": 38.92697416666667, "name": "1cfa8074e62cc9b0880b8f64d8d11606", "bike_id": "1cfa8074e62cc9b0880b8f64d8d11606", "lon": -77.01513766666666, "fusion_lat": 0.0, "rental_uris": {"android": "https://dc.lft.to/lastmile_qr_scan", "ios": "https://dc.lft.to/lastmile_qr_scan"}, "type": "electric_scooter"}, {"is_reserved": 0, "is_disabled": 0, "fusion_lon": 0.0, "lat": 38.9163875, "name": "2612f48dda21ae5ba1ff9647330eb301", "bike_id": "2612f48dda21ae5ba1ff9647330eb301", "lon": -77.03227583333333, "fusion_lat": 0.0, "rental_uris": {"android": "https://dc.lft.to/lastmile_qr_scan", "ios": "https://dc.lft.to/lastmile_qr_scan"}, "type": "electric_scooter"}, {"is_reserved": 0, "is_disabled": 0, "fusion_lon": 0.0, "lat": 38.9085155, "name": "46a26b9ccbf6d56fd136ce8d64f369cb", "bike_id": "46a26b9ccbf6d56fd136ce8d64f369cb", "lon": -77.01001683333334, "fusion_lat": 0.0, "rental_uris": {"android": "https://dc.lft.to/lastmile_qr_scan", "ios": "https://dc.lft.to/lastmile_qr_scan"}, "type": "electric_scooter"}, {"is_reserved": 0, "is_disabled": 0, "fusion_lon": 0.0, "lat": 38.899792833333336, "name": "361d4c869385a53d2137120fc90bd5bf", "bike_id": "361d4c869385a53d2137120fc90bd5bf", "lon": -77.05567933333333, "fusion_lat": 0.0, "rental_uris": {"android": "https://dc.lft.to/lastmile_qr_scan", "ios": "https://dc.lft.to/lastmile_qr_scan"}, "type": "electric_scooter"}, {"is_reserved": 0, "is_disabled": 0, "fusion_lon": 0.0, "lat": 38.92474983333334, "name": "a78a18deddfe1d56e0439a3d493350ba", "bike_id": "a78a18deddfe1d56e0439a3d493350ba", "lon": -77.03935066666666, "fusion_lat": 0.0, "rental_uris": {"android": "https://dc.lft.to/lastmile_qr_scan", "ios": "https://dc.lft.to/lastmile_qr_scan"}, "type": "electric_scooter"}, {"is_reserved": 0, "is_disabled": 0, "fusion_lon": 0.0, "lat": 38.9414425, "name": "6a47ee312ddef8fce2ab3404be10fae4", "bike_id": "6a47ee312ddef8fce2ab3404be10fae4", "lon": -77.0232195, "fusion_lat": 0.0, "rental_uris": {"android": "https://dc.lft.to/lastmile_qr_scan", "ios": "https://dc.lft.to/lastmile_qr_scan"}, "type": "electric_scooter"}, {"is_reserved": 0, "is_disabled": 0, "fusion_lon": 0.0, "lat": 38.89981266666667, "name": "6bea9cf4a2b8b7b16e392448da80103c", "bike_id": "6bea9cf4a2b8b7b16e392448da80103c", "lon": -77.0419085, "fusion_lat": 0.0, "rental_uris": {"android": "https://dc.lft.to/lastmile_qr_scan", "ios": "https://dc.lft.to/lastmile_qr_scan"}, "type": "electric_scooter"}, {"is_reserved": 0, "is_disabled": 0, "fusion_lon": 0.0, "lat": 38.91286783333334, "name": "9b5ccf21a51aa7ee680ffc5e52994b54", "bike_id": "9b5ccf21a51aa7ee680ffc5e52994b54", "lon": -77.02300166666667, "fusion_lat": 0.0, "rental_uris": {"android": "https://dc.lft.to/lastmile_qr_scan", "ios": "https://dc.lft.to/lastmile_qr_scan"}, "type": "electric_scooter"}, {"is_reserved": 0, "is_disabled": 0, "fusion_lon": 0.0, "lat": 38.91660316666667, "name": "f2e513c525c1924e3113597056d24fef", "bike_id": "f2e513c525c1924e3113597056d24fef", "lon": -77.00927883333334, "fusion_lat": 0.0, "rental_uris": {"android": "https://dc.lft.to/lastmile_qr_scan", "ios": "https://dc.lft.to/lastmile_qr_scan"}, "type": "electric_scooter"}, {"is_reserved": 0, "is_disabled": 0, "fusion_lon": 0.0, "lat": 38.913315, "name": "89e3ed1bcb33396bd38eae3433a017c0", "bike_id": "89e3ed1bcb33396bd38eae3433a017c0", "lon": -77.03184666666667, "fusion_lat": 0.0, "rental_uris": {"android": "https://dc.lft.to/lastmile_qr_scan", "ios": "https://dc.lft.to/lastmile_qr_scan"}, "type": "electric_scooter"}, {"is_reserved": 0, "is_disabled": 0, "fusion_lon": 0.0, "lat": 38.91366033333333, "name": "573a4f914f152947f6c81e64f64b3818", "bike_id": "573a4f914f152947f6c81e64f64b3818", "lon": -77.04548416666667, "fusion_lat": 0.0, "rental_uris": {"android": "https://dc.lft.to/lastmile_qr_scan", "ios": "https://dc.lft.to/lastmile_qr_scan"}, "type": "electric_scooter"}, {"is_reserved": 0, "is_disabled": 0, "fusion_lon": 0.0, "lat": 38.922386833333334, "name": "3afcb0a00b7128552ce188b9a72824a0", "bike_id": "3afcb0a00b7128552ce188b9a72824a0", "lon": -77.0346465, "fusion_lat": 0.0, "rental_uris": {"android": "https://dc.lft.to/lastmile_qr_scan", "ios": "https://dc.lft.to/lastmile_qr_scan"}, "type": "electric_scooter"}, {"is_reserved": 0, "is_disabled": 0, "fusion_lon": 0.0, "lat": 38.9372075, "name": "46d2ded94910dd2e31cefcf5fd654f1c", "bike_id": "46d2ded94910dd2e31cefcf5fd654f1c", "lon": -77.032883, "fusion_lat": 0.0, "rental_uris": {"android": "https://dc.lft.to/lastmile_qr_scan", "ios": "https://dc.lft.to/lastmile_qr_scan"}, "type": "electric_scooter"}, {"is_reserved": 0, "is_disabled": 0, "fusion_lon": 0.0, "lat": 38.9111875, "name": "ebfc82fd5aa4584375b3577f68a5a9de", "bike_id": "ebfc82fd5aa4584375b3577f68a5a9de", "lon": -77.03614816666666, "fusion_lat": 0.0, "rental_uris": {"android": "https://dc.lft.to/lastmile_qr_scan", "ios": "https://dc.lft.to/lastmile_qr_scan"}, "type": "electric_scooter"}, {"is_reserved": 0, "is_disabled": 0, "fusion_lon": 0.0, "lat": 38.90222466666667, "name": "4609de8fc671a2c9996a859ac3753f83", "bike_id": "4609de8fc671a2c9996a859ac3753f83", "lon": -77.0480495, "fusion_lat": 0.0, "rental_uris": {"android": "https://dc.lft.to/lastmile_qr_scan", "ios": "https://dc.lft.to/lastmile_qr_scan"}, "type": "electric_scooter"}, {"is_reserved": 0, "is_disabled": 0, "fusion_lon": 0.0, "lat": 38.935395, "name": "b63ccf62d5b11300dc9f2bf25ab100b3", "bike_id": "b63ccf62d5b11300dc9f2bf25ab100b3", "lon": -77.07296483333333, "fusion_lat": 0.0, "rental_uris": {"android": "https://dc.lft.to/lastmile_qr_scan", "ios": "https://dc.lft.to/lastmile_qr_scan"}, "type": "electric_scooter"}, {"is_reserved": 0, "is_disabled": 0, "fusion_lon": 0.0, "lat": 38.875280333333336, "name": "197f88504e06ce3a7dcc015245621ae6", "bike_id": "197f88504e06ce3a7dcc015245621ae6", "lon": -77.012268, "fusion_lat": 0.0, "rental_uris": {"android": "https://dc.lft.to/lastmile_qr_scan", "ios": "https://dc.lft.to/lastmile_qr_scan"}, "type": "electric_scooter"}, {"is_reserved": 0, "is_disabled": 0, "fusion_lon": 0.0, "lat": 38.87297183333333, "name": "d0c7589a99a7a37134bc2d2134f840b5", "bike_id": "d0c7589a99a7a37134bc2d2134f840b5", "lon": -77.00985466666667, "fusion_lat": 0.0, "rental_uris": {"android": "https://dc.lft.to/lastmile_qr_scan", "ios": "https://dc.lft.to/lastmile_qr_scan"}, "type": "electric_scooter"}, {"is_reserved": 0, "is_disabled": 0, "fusion_lon": 0.0, "lat": 38.9254785, "name": "509c86059549a186ce7a58c33887bfb2", "bike_id": "509c86059549a186ce7a58c33887bfb2", "lon": -77.00068883333333, "fusion_lat": 0.0, "rental_uris": {"android": "https://dc.lft.to/lastmile_qr_scan", "ios": "https://dc.lft.to/lastmile_qr_scan"}, "type": "electric_scooter"}, {"is_reserved": 0, "is_disabled": 0, "fusion_lon": 0.0, "lat": 38.89987466666667, "name": "3931f49d7ca5ff99e12fac1e24d5ce6c", "bike_id": "3931f49d7ca5ff99e12fac1e24d5ce6c", "lon": -77.02187233333333, "fusion_lat": 0.0, "rental_uris": {"android": "https://dc.lft.to/lastmile_qr_scan", "ios": "https://dc.lft.to/lastmile_qr_scan"}, "type": "electric_scooter"}, {"is_reserved": 0, "is_disabled": 0, "fusion_lon": 0.0, "lat": 38.91729316666667, "name": "fe1e75a9cb12a1dbdcd30167f9098767", "bike_id": "fe1e75a9cb12a1dbdcd30167f9098767", "lon": -77.01788466666666, "fusion_lat": 0.0, "rental_uris": {"android": "https://dc.lft.to/lastmile_qr_scan", "ios": "https://dc.lft.to/lastmile_qr_scan"}, "type": "electric_scooter"}, {"is_reserved": 0, "is_disabled": 0, "fusion_lon": 0.0, "lat": 38.8971875, "name": "cfab6f97a26c800c3f91513e0206f344", "bike_id": "cfab6f97a26c800c3f91513e0206f344", "lon": -77.00831333333333, "fusion_lat": 0.0, "rental_uris": {"android": "https://dc.lft.to/lastmile_qr_scan", "ios": "https://dc.lft.to/lastmile_qr_scan"}, "type": "electric_scooter"}, {"is_reserved": 0, "is_disabled": 0, "fusion_lon": 0.0, "lat": 38.937181, "name": "52be5323861d6034339ffb5d76d31d3d", "bike_id": "52be5323861d6034339ffb5d76d31d3d", "lon": -77.02420866666667, "fusion_lat": 0.0, "rental_uris": {"android": "https://dc.lft.to/lastmile_qr_scan", "ios": "https://dc.lft.to/lastmile_qr_scan"}, "type": "electric_scooter"}, {"is_reserved": 0, "is_disabled": 0, "fusion_lon": 0.0, "lat": 38.89854366666667, "name": "a2249098d04d4e4d7a66fd31597dd0b2", "bike_id": "a2249098d04d4e4d7a66fd31597dd0b2", "lon": -77.04897216666667, "fusion_lat": 0.0, "rental_uris": {"android": "https://dc.lft.to/lastmile_qr_scan", "ios": "https://dc.lft.to/lastmile_qr_scan"}, "type": "electric_scooter"}, {"is_reserved": 0, "is_disabled": 0, "fusion_lon": 0.0, "lat": 38.927913333333336, "name": "c028bdc0ae4a5332d388d232acde1db9", "bike_id": "c028bdc0ae4a5332d388d232acde1db9", "lon": -77.03714666666667, "fusion_lat": 0.0, "rental_uris": {"android": "https://dc.lft.to/lastmile_qr_scan", "ios": "https://dc.lft.to/lastmile_qr_scan"}, "type": "electric_scooter"}, {"is_reserved": 0, "is_disabled": 0, "fusion_lon": 0.0, "lat": 38.93310016666667, "name": "5924d02e42637051c5196fab4446af44", "bike_id": "5924d02e42637051c5196fab4446af44", "lon": -77.03212466666666, "fusion_lat": 0.0, "rental_uris": {"android": "https://dc.lft.to/lastmile_qr_scan", "ios": "https://dc.lft.to/lastmile_qr_scan"}, "type": "electric_bike"}, {"is_reserved": 0, "is_disabled": 0, "fusion_lon": 0.0, "lat": 38.845048, "name": "117521fb9e5be29672f0415e73814dbe", "bike_id": "117521fb9e5be29672f0415e73814dbe", "lon": -76.99359666666666, "fusion_lat": 0.0, "rental_uris": {"android": "https://dc.lft.to/lastmile_qr_scan", "ios": "https://dc.lft.to/lastmile_qr_scan"}, "type": "electric_bike"}, {"is_reserved": 0, "is_disabled": 0, "fusion_lon": 0.0, "lat": 38.92072783333333, "name": "1a27e5bf41e8b458031c60241d229e68", "bike_id": "1a27e5bf41e8b458031c60241d229e68", "lon": -77.02213183333333, "fusion_lat": 0.0, "rental_uris": {"android": "https://dc.lft.to/lastmile_qr_scan", "ios": "https://dc.lft.to/lastmile_qr_scan"}, "type": "electric_scooter"}, {"is_reserved": 0, "is_disabled": 0, "fusion_lon": 0.0, "lat": 38.88712316666667, "name": "e6b486d51e41570da9d84748b06520e1", "bike_id": "e6b486d51e41570da9d84748b06520e1", "lon": -76.9833625, "fusion_lat": 0.0, "rental_uris": {"android": "https://dc.lft.to/lastmile_qr_scan", "ios": "https://dc.lft.to/lastmile_qr_scan"}, "type": "electric_scooter"}, {"is_reserved": 0, "is_disabled": 0, "fusion_lon": 0.0, "lat": 38.926421166666664, "name": "35b24488dbf5033d782b52fe50de2651", "bike_id": "35b24488dbf5033d782b52fe50de2651", "lon": -77.03715366666667, "fusion_lat": 0.0, "rental_uris": {"android": "https://dc.lft.to/lastmile_qr_scan", "ios": "https://dc.lft.to/lastmile_qr_scan"}, "type": "electric_scooter"}, {"is_reserved": 0, "is_disabled": 0, "fusion_lon": 0.0, "lat": 38.93722783333333, "name": "9f397a7ce72b0753ef322c406a8b3812", "bike_id": "9f397a7ce72b0753ef322c406a8b3812", "lon": -77.03283583333334, "fusion_lat": 0.0, "rental_uris": {"android": "https://dc.lft.to/lastmile_qr_scan", "ios": "https://dc.lft.to/lastmile_qr_scan"}, "type": "electric_scooter"}, {"is_reserved": 0, "is_disabled": 0, "fusion_lon": 0.0, "lat": 38.93024166666667, "name": "3b981e30da435c510687d162b1caa844", "bike_id": "3b981e30da435c510687d162b1caa844", "lon": -77.019865, "fusion_lat": 0.0, "rental_uris": {"android": "https://dc.lft.to/lastmile_qr_scan", "ios": "https://dc.lft.to/lastmile_qr_scan"}, "type": "electric_scooter"}, {"is_reserved": 0, "is_disabled": 0, "fusion_lon": 0.0, "lat": 38.94266733333333, "name": "d2559807fd5057c90449eb5499965e18", "bike_id": "d2559807fd5057c90449eb5499965e18", "lon": -77.02580316666666, "fusion_lat": 0.0, "rental_uris": {"android": "https://dc.lft.to/lastmile_qr_scan", "ios": "https://dc.lft.to/lastmile_qr_scan"}, "type": "electric_scooter"}, {"is_reserved": 0, "is_disabled": 0, "fusion_lon": 0.0, "lat": 38.90033416666667, "name": "14f670498730089d0a030a1e48f2878d", "bike_id": "14f670498730089d0a030a1e48f2878d", "lon": -77.0021405, "fusion_lat": 0.0, "rental_uris": {"android": "https://dc.lft.to/lastmile_qr_scan", "ios": "https://dc.lft.to/lastmile_qr_scan"}, "type": "electric_scooter"}, {"is_reserved": 0, "is_disabled": 0, "fusion_lon": 0.0, "lat": 38.93528083333333, "name": "8b29707d8097a40429d861daa4076845", "bike_id": "8b29707d8097a40429d861daa4076845", "lon": -77.0543325, "fusion_lat": 0.0, "rental_uris": {"android": "https://dc.lft.to/lastmile_qr_scan", "ios": "https://dc.lft.to/lastmile_qr_scan"}, "type": "electric_scooter"}, {"is_reserved": 0, "is_disabled": 0, "fusion_lon": 0.0, "lat": 38.9216465, "name": "575240068d0cb9cd58bf2d502331102c", "bike_id": "575240068d0cb9cd58bf2d502331102c", "lon": -77.03376966666667, "fusion_lat": 0.0, "rental_uris": {"android": "https://dc.lft.to/lastmile_qr_scan", "ios": "https://dc.lft.to/lastmile_qr_scan"}, "type": "electric_scooter"}, {"is_reserved": 0, "is_disabled": 0, "fusion_lon": 0.0, "lat": 38.926875833333334, "name": "7dae769757ff92f49f2f28f71d41f98b", "bike_id": "7dae769757ff92f49f2f28f71d41f98b", "lon": -77.029655, "fusion_lat": 0.0, "rental_uris": {"android": "https://dc.lft.to/lastmile_qr_scan", "ios": "https://dc.lft.to/lastmile_qr_scan"}, "type": "electric_scooter"}, {"is_reserved": 0, "is_disabled": 0, "fusion_lon": 0.0, "lat": 38.916492833333336, "name": "3030380db77bcb3d7b6d4cf575a3fd60", "bike_id": "3030380db77bcb3d7b6d4cf575a3fd60", "lon": -77.031863, "fusion_lat": 0.0, "rental_uris": {"android": "https://dc.lft.to/lastmile_qr_scan", "ios": "https://dc.lft.to/lastmile_qr_scan"}, "type": "electric_scooter"}, {"is_reserved": 0, "is_disabled": 0, "fusion_lon": 0.0, "lat": 38.9165435, "name": "9cde8278cee4180078a156da0d6b25e5", "bike_id": "9cde8278cee4180078a156da0d6b25e5", "lon": -77.020264, "fusion_lat": 0.0, "rental_uris": {"android": "https://dc.lft.to/lastmile_qr_scan", "ios": "https://dc.lft.to/lastmile_qr_scan"}, "type": "electric_scooter"}, {"is_reserved": 0, "is_disabled": 0, "fusion_lon": 0.0, "lat": 38.92365483333333, "name": "d171438d7973a3d3db1fc9aea87b78ce", "bike_id": "d171438d7973a3d3db1fc9aea87b78ce", "lon": -77.05023933333334, "fusion_lat": 0.0, "rental_uris": {"android": "https://dc.lft.to/lastmile_qr_scan", "ios": "https://dc.lft.to/lastmile_qr_scan"}, "type": "electric_scooter"}, {"is_reserved": 0, "is_disabled": 0, "fusion_lon": 0.0, "lat": 38.884379, "name": "88bb1fe823e0b85df57557ff3d312482", "bike_id": "88bb1fe823e0b85df57557ff3d312482", "lon": -76.9574035, "fusion_lat": 0.0, "rental_uris": {"android": "https://dc.lft.to/lastmile_qr_scan", "ios": "https://dc.lft.to/lastmile_qr_scan"}, "type": "electric_scooter"}, {"is_reserved": 0, "is_disabled": 0, "fusion_lon": 0.0, "lat": 38.897232, "name": "a2ddfbddd97e9fde721cdf89baeb148f", "bike_id": "a2ddfbddd97e9fde721cdf89baeb148f", "lon": -77.0020645, "fusion_lat": 0.0, "rental_uris": {"android": "https://dc.lft.to/lastmile_qr_scan", "ios": "https://dc.lft.to/lastmile_qr_scan"}, "type": "electric_scooter"}, {"is_reserved": 0, "is_disabled": 0, "fusion_lon": 0.0, "lat": 38.95085433333333, "name": "149c24a836120dca59b06a430518f3b0", "bike_id": "149c24a836120dca59b06a430518f3b0", "lon": -76.997974, "fusion_lat": 0.0, "rental_uris": {"android": "https://dc.lft.to/lastmile_qr_scan", "ios": "https://dc.lft.to/lastmile_qr_scan"}, "type": "electric_scooter"}, {"is_reserved": 0, "is_disabled": 0, "fusion_lon": 0.0, "lat": 38.900659, "name": "c8d58b28240751d5fdfb3bcc47252407", "bike_id": "c8d58b28240751d5fdfb3bcc47252407", "lon": -77.04884183333333, "fusion_lat": 0.0, "rental_uris": {"android": "https://dc.lft.to/lastmile_qr_scan", "ios": "https://dc.lft.to/lastmile_qr_scan"}, "type": "electric_scooter"}, {"is_reserved": 0, "is_disabled": 0, "fusion_lon": 0.0, "lat": 38.8073305, "name": "0109894bb27cba719eb745001bc7d9d1", "bike_id": "0109894bb27cba719eb745001bc7d9d1", "lon": -76.99255716666667, "fusion_lat": 0.0, "rental_uris": {"android": "https://dc.lft.to/lastmile_qr_scan", "ios": "https://dc.lft.to/lastmile_qr_scan"}, "type": "electric_bike"}, {"is_reserved": 0, "is_disabled": 0, "fusion_lon": 0.0, "lat": 38.89223483333333, "name": "1388d3bb9417bf189c768af982c36e0b", "bike_id": "1388d3bb9417bf189c768af982c36e0b", "lon": -77.04370733333333, "fusion_lat": 0.0, "rental_uris": {"android": "https://dc.lft.to/lastmile_qr_scan", "ios": "https://dc.lft.to/lastmile_qr_scan"}, "type": "electric_scooter"}, {"is_reserved": 0, "is_disabled": 0, "fusion_lon": 0.0, "lat": 38.899676666666664, "name": "8c35aeea5cac81469b9b91ba99c52101", "bike_id": "8c35aeea5cac81469b9b91ba99c52101", "lon": -77.0471525, "fusion_lat": 0.0, "rental_uris": {"android": "https://dc.lft.to/lastmile_qr_scan", "ios": "https://dc.lft.to/lastmile_qr_scan"}, "type": "electric_scooter"}, {"is_reserved": 0, "is_disabled": 0, "fusion_lon": 0.0, "lat": 38.923959833333335, "name": "929e2b17c32a477640eff95f358a46ed", "bike_id": "929e2b17c32a477640eff95f358a46ed", "lon": -77.02654066666666, "fusion_lat": 0.0, "rental_uris": {"android": "https://dc.lft.to/lastmile_qr_scan", "ios": "https://dc.lft.to/lastmile_qr_scan"}, "type": "electric_scooter"}, {"is_reserved": 0, "is_disabled": 0, "fusion_lon": 0.0, "lat": 38.91511883333333, "name": "35903fcfa73e3f783a613fdcb3213b2d", "bike_id": "35903fcfa73e3f783a613fdcb3213b2d", "lon": -77.03820983333334, "fusion_lat": 0.0, "rental_uris": {"android": "https://dc.lft.to/lastmile_qr_scan", "ios": "https://dc.lft.to/lastmile_qr_scan"}, "type": "electric_scooter"}, {"is_reserved": 0, "is_disabled": 0, "fusion_lon": 0.0, "lat": 38.92160766666667, "name": "45c58c3eea9dcd829590acad5bd9372d", "bike_id": "45c58c3eea9dcd829590acad5bd9372d", "lon": -77.03444816666666, "fusion_lat": 0.0, "rental_uris": {"android": "https://dc.lft.to/lastmile_qr_scan", "ios": "https://dc.lft.to/lastmile_qr_scan"}, "type": "electric_scooter"}, {"is_reserved": 0, "is_disabled": 0, "fusion_lon": 0.0, "lat": 38.907320166666665, "name": "0ba9ab09f756d1aa399b66139c06d88a", "bike_id": "0ba9ab09f756d1aa399b66139c06d88a", "lon": -77.04544516666667, "fusion_lat": 0.0, "rental_uris": {"android": "https://dc.lft.to/lastmile_qr_scan", "ios": "https://dc.lft.to/lastmile_qr_scan"}, "type": "electric_scooter"}, {"is_reserved": 0, "is_disabled": 0, "fusion_lon": 0.0, "lat": 38.99501216666667, "name": "50a34443ecc0f1dddaa27ed7c795831f", "bike_id": "50a34443ecc0f1dddaa27ed7c795831f", "lon": -77.0289705, "fusion_lat": 0.0, "rental_uris": {"android": "https://dc.lft.to/lastmile_qr_scan", "ios": "https://dc.lft.to/lastmile_qr_scan"}, "type": "electric_bike"}, {"is_reserved": 0, "is_disabled": 0, "fusion_lon": 0.0, "lat": 38.90852966666667, "name": "7c4433bff9b68e3f7669197a8ecb1d32", "bike_id": "7c4433bff9b68e3f7669197a8ecb1d32", "lon": -76.9979915, "fusion_lat": 0.0, "rental_uris": {"android": "https://dc.lft.to/lastmile_qr_scan", "ios": "https://dc.lft.to/lastmile_qr_scan"}, "type": "electric_scooter"}, {"is_reserved": 0, "is_disabled": 0, "fusion_lon": 0.0, "lat": 38.91974416666667, "name": "5b3357ebed885a9c5ef1696e8d6ef883", "bike_id": "5b3357ebed885a9c5ef1696e8d6ef883", "lon": -77.0711575, "fusion_lat": 0.0, "rental_uris": {"android": "https://dc.lft.to/lastmile_qr_scan", "ios": "https://dc.lft.to/lastmile_qr_scan"}, "type": "electric_scooter"}, {"is_reserved": 0, "is_disabled": 0, "fusion_lon": 0.0, "lat": 38.9234845, "name": "753e165ec24cebbfe2f298d050a576ed", "bike_id": "753e165ec24cebbfe2f298d050a576ed", "lon": -77.01896816666667, "fusion_lat": 0.0, "rental_uris": {"android": "https://dc.lft.to/lastmile_qr_scan", "ios": "https://dc.lft.to/lastmile_qr_scan"}, "type": "electric_scooter"}, {"is_reserved": 0, "is_disabled": 0, "fusion_lon": 0.0, "lat": 38.924171333333334, "name": "717531ffba25167e4b013db4b8669b7e", "bike_id": "717531ffba25167e4b013db4b8669b7e", "lon": -77.02002566666667, "fusion_lat": 0.0, "rental_uris": {"android": "https://dc.lft.to/lastmile_qr_scan", "ios": "https://dc.lft.to/lastmile_qr_scan"}, "type": "electric_scooter"}, {"is_reserved": 0, "is_disabled": 0, "fusion_lon": 0.0, "lat": 38.919287, "name": "97671c577195456333f54812f9a30b95", "bike_id": "97671c577195456333f54812f9a30b95", "lon": -77.0348805, "fusion_lat": 0.0, "rental_uris": {"android": "https://dc.lft.to/lastmile_qr_scan", "ios": "https://dc.lft.to/lastmile_qr_scan"}, "type": "electric_scooter"}, {"is_reserved": 0, "is_disabled": 0, "fusion_lon": 0.0, "lat": 38.884844333333334, "name": "e7ba85a5a0b6b5bf8419d760e1ee34ce", "bike_id": "e7ba85a5a0b6b5bf8419d760e1ee34ce", "lon": -77.02638716666667, "fusion_lat": 0.0, "rental_uris": {"android": "https://dc.lft.to/lastmile_qr_scan", "ios": "https://dc.lft.to/lastmile_qr_scan"}, "type": "electric_scooter"}, {"is_reserved": 0, "is_disabled": 0, "fusion_lon": 0.0, "lat": 38.92341316666667, "name": "b43fc21801d0b980cbadb2b6e31721e7", "bike_id": "b43fc21801d0b980cbadb2b6e31721e7", "lon": -77.03534566666667, "fusion_lat": 0.0, "rental_uris": {"android": "https://dc.lft.to/lastmile_qr_scan", "ios": "https://dc.lft.to/lastmile_qr_scan"}, "type": "electric_scooter"}, {"is_reserved": 0, "is_disabled": 0, "fusion_lon": 0.0, "lat": 38.91916166666667, "name": "3bd1d79ab6d95bcbe7433cdc497b7cf5", "bike_id": "3bd1d79ab6d95bcbe7433cdc497b7cf5", "lon": -77.0294305, "fusion_lat": 0.0, "rental_uris": {"android": "https://dc.lft.to/lastmile_qr_scan", "ios": "https://dc.lft.to/lastmile_qr_scan"}, "type": "electric_scooter"}, {"is_reserved": 0, "is_disabled": 0, "fusion_lon": 0.0, "lat": 38.92993366666666, "name": "042714a62f8d29f9b895a49b5d13389f", "bike_id": "042714a62f8d29f9b895a49b5d13389f", "lon": -77.012045, "fusion_lat": 0.0, "rental_uris": {"android": "https://dc.lft.to/lastmile_qr_scan", "ios": "https://dc.lft.to/lastmile_qr_scan"}, "type": "electric_scooter"}, {"is_reserved": 0, "is_disabled": 0, "fusion_lon": 0.0, "lat": 38.90379983333333, "name": "f8ab2ecbc4afd3c39576781200c0438d", "bike_id": "f8ab2ecbc4afd3c39576781200c0438d", "lon": -77.01850916666666, "fusion_lat": 0.0, "rental_uris": {"android": "https://dc.lft.to/lastmile_qr_scan", "ios": "https://dc.lft.to/lastmile_qr_scan"}, "type": "electric_scooter"}, {"is_reserved": 0, "is_disabled": 0, "fusion_lon": 0.0, "lat": 38.897429, "name": "24e90e9d29638b4e44f2639124be0290", "bike_id": "24e90e9d29638b4e44f2639124be0290", "lon": -77.03209466666667, "fusion_lat": 0.0, "rental_uris": {"android": "https://dc.lft.to/lastmile_qr_scan", "ios": "https://dc.lft.to/lastmile_qr_scan"}, "type": "electric_scooter"}, {"is_reserved": 0, "is_disabled": 0, "fusion_lon": 0.0, "lat": 38.912653166666665, "name": "f43dacf8378d58f6858a8497f659bb15", "bike_id": "f43dacf8378d58f6858a8497f659bb15", "lon": -77.032737, "fusion_lat": 0.0, "rental_uris": {"android": "https://dc.lft.to/lastmile_qr_scan", "ios": "https://dc.lft.to/lastmile_qr_scan"}, "type": "electric_scooter"}, {"is_reserved": 0, "is_disabled": 0, "fusion_lon": 0.0, "lat": 38.916986666666666, "name": "476bbe421c9155423a411555bde06a72", "bike_id": "476bbe421c9155423a411555bde06a72", "lon": -77.0293545, "fusion_lat": 0.0, "rental_uris": {"android": "https://dc.lft.to/lastmile_qr_scan", "ios": "https://dc.lft.to/lastmile_qr_scan"}, "type": "electric_scooter"}, {"is_reserved": 0, "is_disabled": 0, "fusion_lon": 0.0, "lat": 38.90164583333333, "name": "6c82721728aa629bbced3610df9c702b", "bike_id": "6c82721728aa629bbced3610df9c702b", "lon": -76.97686816666666, "fusion_lat": 0.0, "rental_uris": {"android": "https://dc.lft.to/lastmile_qr_scan", "ios": "https://dc.lft.to/lastmile_qr_scan"}, "type": "electric_bike"}, {"is_reserved": 0, "is_disabled": 0, "fusion_lon": 0.0, "lat": 38.960473666666665, "name": "bbc67a66a68bfc1866619b1352e755d3", "bike_id": "bbc67a66a68bfc1866619b1352e755d3", "lon": -77.00506283333333, "fusion_lat": 0.0, "rental_uris": {"android": "https://dc.lft.to/lastmile_qr_scan", "ios": "https://dc.lft.to/lastmile_qr_scan"}, "type": "electric_scooter"}, {"is_reserved": 0, "is_disabled": 0, "fusion_lon": 0.0, "lat": 38.896132, "name": "c131c292c5f65ee73dee83191ba940f3", "bike_id": "c131c292c5f65ee73dee83191ba940f3", "lon": -77.04796366666666, "fusion_lat": 0.0, "rental_uris": {"android": "https://dc.lft.to/lastmile_qr_scan", "ios": "https://dc.lft.to/lastmile_qr_scan"}, "type": "electric_scooter"}, {"is_reserved": 0, "is_disabled": 0, "fusion_lon": 0.0, "lat": 38.88032716666667, "name": "56638006adb21c1e57f97d0067f26c96", "bike_id": "56638006adb21c1e57f97d0067f26c96", "lon": -77.00544533333333, "fusion_lat": 0.0, "rental_uris": {"android": "https://dc.lft.to/lastmile_qr_scan", "ios": "https://dc.lft.to/lastmile_qr_scan"}, "type": "electric_scooter"}, {"is_reserved": 0, "is_disabled": 0, "fusion_lon": 0.0, "lat": 38.91805516666667, "name": "2d8f5c5b90cf534c7c8b4f31ffc28bf6", "bike_id": "2d8f5c5b90cf534c7c8b4f31ffc28bf6", "lon": -77.034372, "fusion_lat": 0.0, "rental_uris": {"android": "https://dc.lft.to/lastmile_qr_scan", "ios": "https://dc.lft.to/lastmile_qr_scan"}, "type": "electric_scooter"}, {"is_reserved": 0, "is_disabled": 0, "fusion_lon": 0.0, "lat": 38.929106166666664, "name": "9ba130941c75b8fbc6b9ffb662269699", "bike_id": "9ba130941c75b8fbc6b9ffb662269699", "lon": -77.02380933333333, "fusion_lat": 0.0, "rental_uris": {"android": "https://dc.lft.to/lastmile_qr_scan", "ios": "https://dc.lft.to/lastmile_qr_scan"}, "type": "electric_bike"}, {"is_reserved": 0, "is_disabled": 0, "fusion_lon": 0.0, "lat": 38.91999066666666, "name": "cc0c3fd46acbd276550015a9a1757275", "bike_id": "cc0c3fd46acbd276550015a9a1757275", "lon": -76.983935, "fusion_lat": 0.0, "rental_uris": {"android": "https://dc.lft.to/lastmile_qr_scan", "ios": "https://dc.lft.to/lastmile_qr_scan"}, "type": "electric_scooter"}, {"is_reserved": 0, "is_disabled": 0, "fusion_lon": 0.0, "lat": 38.8922645, "name": "0d2cd1ee1c0a186c8166965b04cd7c9d", "bike_id": "0d2cd1ee1c0a186c8166965b04cd7c9d", "lon": -77.04363183333334, "fusion_lat": 0.0, "rental_uris": {"android": "https://dc.lft.to/lastmile_qr_scan", "ios": "https://dc.lft.to/lastmile_qr_scan"}, "type": "electric_scooter"}, {"is_reserved": 0, "is_disabled": 0, "fusion_lon": 0.0, "lat": 38.922677666666665, "name": "50986e1317becf32ade48439014176f3", "bike_id": "50986e1317becf32ade48439014176f3", "lon": -76.98643066666666, "fusion_lat": 0.0, "rental_uris": {"android": "https://dc.lft.to/lastmile_qr_scan", "ios": "https://dc.lft.to/lastmile_qr_scan"}, "type": "electric_bike"}, {"is_reserved": 0, "is_disabled": 0, "fusion_lon": 0.0, "lat": 38.910622000000004, "name": "4c4eefd6dced8170bd5c181feeb61683", "bike_id": "4c4eefd6dced8170bd5c181feeb61683", "lon": -77.041702, "fusion_lat": 0.0, "rental_uris": {"android": "https://dc.lft.to/lastmile_qr_scan", "ios": "https://dc.lft.to/lastmile_qr_scan"}, "type": "electric_scooter"}, {"is_reserved": 0, "is_disabled": 0, "fusion_lon": 0.0, "lat": 38.854415, "name": "a967626b58a9237d25610f68da2607df", "bike_id": "a967626b58a9237d25610f68da2607df", "lon": -76.97167216666666, "fusion_lat": 0.0, "rental_uris": {"android": "https://dc.lft.to/lastmile_qr_scan", "ios": "https://dc.lft.to/lastmile_qr_scan"}, "type": "electric_scooter"}, {"is_reserved": 0, "is_disabled": 0, "fusion_lon": 0.0, "lat": 38.8972445, "name": "277db9be7b6ee67f3cb8d44c288e1c2d", "bike_id": "277db9be7b6ee67f3cb8d44c288e1c2d", "lon": -77.0241475, "fusion_lat": 0.0, "rental_uris": {"android": "https://dc.lft.to/lastmile_qr_scan", "ios": "https://dc.lft.to/lastmile_qr_scan"}, "type": "electric_scooter"}, {"is_reserved": 0, "is_disabled": 0, "fusion_lon": 0.0, "lat": 38.903716833333334, "name": "e4d778fc850bba1a9b315df6c49e6e75", "bike_id": "e4d778fc850bba1a9b315df6c49e6e75", "lon": -77.03311783333334, "fusion_lat": 0.0, "rental_uris": {"android": "https://dc.lft.to/lastmile_qr_scan", "ios": "https://dc.lft.to/lastmile_qr_scan"}, "type": "electric_scooter"}, {"is_reserved": 0, "is_disabled": 0, "fusion_lon": 0.0, "lat": 38.902759333333336, "name": "694937653a8cbaaf2351ab135d9f3917", "bike_id": "694937653a8cbaaf2351ab135d9f3917", "lon": -77.03843733333333, "fusion_lat": 0.0, "rental_uris": {"android": "https://dc.lft.to/lastmile_qr_scan", "ios": "https://dc.lft.to/lastmile_qr_scan"}, "type": "electric_scooter"}, {"is_reserved": 0, "is_disabled": 0, "fusion_lon": 0.0, "lat": 38.8972685, "name": "e2cf81d980914f20c2bd4e106598070f", "bike_id": "e2cf81d980914f20c2bd4e106598070f", "lon": -77.043606, "fusion_lat": 0.0, "rental_uris": {"android": "https://dc.lft.to/lastmile_qr_scan", "ios": "https://dc.lft.to/lastmile_qr_scan"}, "type": "electric_scooter"}, {"is_reserved": 0, "is_disabled": 0, "fusion_lon": 0.0, "lat": 38.93869466666666, "name": "dc6aec7c7caecb4aec38d185bbc34427", "bike_id": "dc6aec7c7caecb4aec38d185bbc34427", "lon": -77.02521983333334, "fusion_lat": 0.0, "rental_uris": {"android": "https://dc.lft.to/lastmile_qr_scan", "ios": "https://dc.lft.to/lastmile_qr_scan"}, "type": "electric_scooter"}, {"is_reserved": 0, "is_disabled": 0, "fusion_lon": 0.0, "lat": 38.910571, "name": "dd0e627801d5d4d217e6808d72610c80", "bike_id": "dd0e627801d5d4d217e6808d72610c80", "lon": -77.0528735, "fusion_lat": 0.0, "rental_uris": {"android": "https://dc.lft.to/lastmile_qr_scan", "ios": "https://dc.lft.to/lastmile_qr_scan"}, "type": "electric_scooter"}, {"is_reserved": 0, "is_disabled": 0, "fusion_lon": 0.0, "lat": 39.005361666666666, "name": "b15a01af2105ae2e1ae31d36b2e146ac", "bike_id": "b15a01af2105ae2e1ae31d36b2e146ac", "lon": -77.10400466666667, "fusion_lat": 0.0, "rental_uris": {"android": "https://dc.lft.to/lastmile_qr_scan", "ios": "https://dc.lft.to/lastmile_qr_scan"}, "type": "electric_bike"}, {"is_reserved": 0, "is_disabled": 0, "fusion_lon": 0.0, "lat": 38.895956, "name": "e302138adf81e364945f338aa190330a", "bike_id": "e302138adf81e364945f338aa190330a", "lon": -77.04806116666667, "fusion_lat": 0.0, "rental_uris": {"android": "https://dc.lft.to/lastmile_qr_scan", "ios": "https://dc.lft.to/lastmile_qr_scan"}, "type": "electric_scooter"}, {"is_reserved": 0, "is_disabled": 0, "fusion_lon": 0.0, "lat": 38.91271033333334, "name": "c23f1bff896cbe4651f68a72449a6eb4", "bike_id": "c23f1bff896cbe4651f68a72449a6eb4", "lon": -77.01477133333333, "fusion_lat": 0.0, "rental_uris": {"android": "https://dc.lft.to/lastmile_qr_scan", "ios": "https://dc.lft.to/lastmile_qr_scan"}, "type": "electric_scooter"}, {"is_reserved": 0, "is_disabled": 0, "fusion_lon": 0.0, "lat": 38.9215915, "name": "be920391d4b2ab0ea9f174a5af225c9d", "bike_id": "be920391d4b2ab0ea9f174a5af225c9d", "lon": -77.0423475, "fusion_lat": 0.0, "rental_uris": {"android": "https://dc.lft.to/lastmile_qr_scan", "ios": "https://dc.lft.to/lastmile_qr_scan"}, "type": "electric_scooter"}, {"is_reserved": 0, "is_disabled": 0, "fusion_lon": 0.0, "lat": 38.89672083333333, "name": "a9b81fe25462ec417f6614e082abbe21", "bike_id": "a9b81fe25462ec417f6614e082abbe21", "lon": -76.93207433333333, "fusion_lat": 0.0, "rental_uris": {"android": "https://dc.lft.to/lastmile_qr_scan", "ios": "https://dc.lft.to/lastmile_qr_scan"}, "type": "electric_bike"}, {"is_reserved": 0, "is_disabled": 0, "fusion_lon": 0.0, "lat": 38.927143, "name": "3996d669da1e97d97bfc89bfc0ed0be8", "bike_id": "3996d669da1e97d97bfc89bfc0ed0be8", "lon": -77.05988316666667, "fusion_lat": 0.0, "rental_uris": {"android": "https://dc.lft.to/lastmile_qr_scan", "ios": "https://dc.lft.to/lastmile_qr_scan"}, "type": "electric_scooter"}, {"is_reserved": 0, "is_disabled": 0, "fusion_lon": 0.0, "lat": 38.935168166666664, "name": "76a64f76ea4e5548e905a3bf63612baf", "bike_id": "76a64f76ea4e5548e905a3bf63612baf", "lon": -77.03349816666666, "fusion_lat": 0.0, "rental_uris": {"android": "https://dc.lft.to/lastmile_qr_scan", "ios": "https://dc.lft.to/lastmile_qr_scan"}, "type": "electric_scooter"}, {"is_reserved": 0, "is_disabled": 0, "fusion_lon": 0.0, "lat": 38.92146483333333, "name": "2a175eb9d174839a4c4b7f4edfa6dcf4", "bike_id": "2a175eb9d174839a4c4b7f4edfa6dcf4", "lon": -77.02139683333333, "fusion_lat": 0.0, "rental_uris": {"android": "https://dc.lft.to/lastmile_qr_scan", "ios": "https://dc.lft.to/lastmile_qr_scan"}, "type": "electric_scooter"}, {"is_reserved": 0, "is_disabled": 0, "fusion_lon": 0.0, "lat": 38.93251566666667, "name": "6cd50c3ae6c186965426e18f4f922f4c", "bike_id": "6cd50c3ae6c186965426e18f4f922f4c", "lon": -77.02986616666666, "fusion_lat": 0.0, "rental_uris": {"android": "https://dc.lft.to/lastmile_qr_scan", "ios": "https://dc.lft.to/lastmile_qr_scan"}, "type": "electric_scooter"}, {"is_reserved": 0, "is_disabled": 0, "fusion_lon": 0.0, "lat": 38.913265333333335, "name": "8d6d36b8a672f47489a98ab337635eb0", "bike_id": "8d6d36b8a672f47489a98ab337635eb0", "lon": -77.015127, "fusion_lat": 0.0, "rental_uris": {"android": "https://dc.lft.to/lastmile_qr_scan", "ios": "https://dc.lft.to/lastmile_qr_scan"}, "type": "electric_scooter"}, {"is_reserved": 0, "is_disabled": 0, "fusion_lon": 0.0, "lat": 38.90150033333333, "name": "dc06b42211c3f59edab503a018457926", "bike_id": "dc06b42211c3f59edab503a018457926", "lon": -76.97425066666666, "fusion_lat": 0.0, "rental_uris": {"android": "https://dc.lft.to/lastmile_qr_scan", "ios": "https://dc.lft.to/lastmile_qr_scan"}, "type": "electric_scooter"}, {"is_reserved": 0, "is_disabled": 0, "fusion_lon": 0.0, "lat": 38.946586, "name": "f296350e1e55192de469bdbfb454a17d", "bike_id": "f296350e1e55192de469bdbfb454a17d", "lon": -77.02249, "fusion_lat": 0.0, "rental_uris": {"android": "https://dc.lft.to/lastmile_qr_scan", "ios": "https://dc.lft.to/lastmile_qr_scan"}, "type": "electric_scooter"}, {"is_reserved": 0, "is_disabled": 0, "fusion_lon": 0.0, "lat": 38.8961385, "name": "964c72b346b169d52ca8c4674ee5007a", "bike_id": "964c72b346b169d52ca8c4674ee5007a", "lon": -77.04432516666667, "fusion_lat": 0.0, "rental_uris": {"android": "https://dc.lft.to/lastmile_qr_scan", "ios": "https://dc.lft.to/lastmile_qr_scan"}, "type": "electric_scooter"}, {"is_reserved": 0, "is_disabled": 0, "fusion_lon": 0.0, "lat": 38.917690666666665, "name": "d55e397d1bbaf88b2e54bea8248f2ea8", "bike_id": "d55e397d1bbaf88b2e54bea8248f2ea8", "lon": -77.04770666666667, "fusion_lat": 0.0, "rental_uris": {"android": "https://dc.lft.to/lastmile_qr_scan", "ios": "https://dc.lft.to/lastmile_qr_scan"}, "type": "electric_scooter"}, {"is_reserved": 0, "is_disabled": 0, "fusion_lon": 0.0, "lat": 38.923635166666664, "name": "55f25278cec15900973d4238e57ac727", "bike_id": "55f25278cec15900973d4238e57ac727", "lon": -77.05029566666667, "fusion_lat": 0.0, "rental_uris": {"android": "https://dc.lft.to/lastmile_qr_scan", "ios": "https://dc.lft.to/lastmile_qr_scan"}, "type": "electric_scooter"}, {"is_reserved": 0, "is_disabled": 0, "fusion_lon": 0.0, "lat": 38.89728566666667, "name": "0c8b8100c15e88ec7f0d3f23b6ea9151", "bike_id": "0c8b8100c15e88ec7f0d3f23b6ea9151", "lon": -77.024952, "fusion_lat": 0.0, "rental_uris": {"android": "https://dc.lft.to/lastmile_qr_scan", "ios": "https://dc.lft.to/lastmile_qr_scan"}, "type": "electric_scooter"}, {"is_reserved": 0, "is_disabled": 0, "fusion_lon": 0.0, "lat": 38.91862233333333, "name": "d80997c4a99c8caf35e5b549a1376d91", "bike_id": "d80997c4a99c8caf35e5b549a1376d91", "lon": -76.96088316666666, "fusion_lat": 0.0, "rental_uris": {"android": "https://dc.lft.to/lastmile_qr_scan", "ios": "https://dc.lft.to/lastmile_qr_scan"}, "type": "electric_bike"}, {"is_reserved": 0, "is_disabled": 0, "fusion_lon": 0.0, "lat": 38.91324633333333, "name": "4dd772bbdfa34582be4b56513ef58fe8", "bike_id": "4dd772bbdfa34582be4b56513ef58fe8", "lon": -77.03652883333334, "fusion_lat": 0.0, "rental_uris": {"android": "https://dc.lft.to/lastmile_qr_scan", "ios": "https://dc.lft.to/lastmile_qr_scan"}, "type": "electric_scooter"}, {"is_reserved": 0, "is_disabled": 0, "fusion_lon": 0.0, "lat": 38.9250545, "name": "ae8827c0708f4e612eda47765f38cb07", "bike_id": "ae8827c0708f4e612eda47765f38cb07", "lon": -77.024008, "fusion_lat": 0.0, "rental_uris": {"android": "https://dc.lft.to/lastmile_qr_scan", "ios": "https://dc.lft.to/lastmile_qr_scan"}, "type": "electric_scooter"}, {"is_reserved": 0, "is_disabled": 0, "fusion_lon": 0.0, "lat": 38.922450833333336, "name": "7131bb537340aad9a0d22da86b4242a0", "bike_id": "7131bb537340aad9a0d22da86b4242a0", "lon": -77.03662116666666, "fusion_lat": 0.0, "rental_uris": {"android": "https://dc.lft.to/lastmile_qr_scan", "ios": "https://dc.lft.to/lastmile_qr_scan"}, "type": "electric_scooter"}, {"is_reserved": 0, "is_disabled": 0, "fusion_lon": 0.0, "lat": 38.923424, "name": "b1c1c0171315f2c40a9757a3fcfd21d2", "bike_id": "b1c1c0171315f2c40a9757a3fcfd21d2", "lon": -77.03536316666667, "fusion_lat": 0.0, "rental_uris": {"android": "https://dc.lft.to/lastmile_qr_scan", "ios": "https://dc.lft.to/lastmile_qr_scan"}, "type": "electric_scooter"}, {"is_reserved": 0, "is_disabled": 0, "fusion_lon": 0.0, "lat": 38.917887666666665, "name": "5e670eaaf556e829f788cf531135b5e5", "bike_id": "5e670eaaf556e829f788cf531135b5e5", "lon": -77.03637366666666, "fusion_lat": 0.0, "rental_uris": {"android": "https://dc.lft.to/lastmile_qr_scan", "ios": "https://dc.lft.to/lastmile_qr_scan"}, "type": "electric_scooter"},