{"data": {"bikes": [{"bike_id": "02945e323134d6bfff8cb51c53063663", "fusion_lon": 0.0, "lon": -77.03211866666666, "name": "02945e323134d6bfff8cb51c53063663", "is_disabled": 0, "rental_uris": {"android": "https://dc.lft.to/lastmile_qr_scan", "ios": "https://dc.lft.to/lastmile_qr_scan"}, "type": "electric_scooter", "lat": 38.895321, "is_reserved": 0, "fusion_lat": 0.0}, {"bike_id": "1c03363b39e08b3d2e5db365d42e0ecb", "fusion_lon": 0.0, "lon": -76.98410833333334, "name": "1c03363b39e08b3d2e5db365d42e0ecb", "is_disabled": 0, "rental_uris": {"android": "https://dc.lft.to/lastmile_qr_scan", "ios": "https://dc.lft.to/lastmile_qr_scan"}, "type": "electric_bike", "lat": 38.85501416666666, "is_reserved": 0, "fusion_lat": 0.0}, {"bike_id": "39d3c85acc2fec5d10f0515d95e147c7", "fusion_lon": 0.0, "lon": -77.04981633333334, "name": "39d3c85acc2fec5d10f0515d95e147c7", "is_disabled": 0, "rental_uris": {"android": "https://dc.lft.to/lastmile_qr_scan", "ios": "https://dc.lft.to/lastmile_qr_scan"}, "type": "electric_bike", "lat": 39.062917, "is_reserved": 0, "fusion_lat": 0.0}, {"bike_id": "4a1ecfea2f18077788f7717c08ffe07c", "fusion_lon": 0.0, "lon": -77.02387316666666, "name": "4a1ecfea2f18077788f7717c08ffe07c", "is_disabled": 0, "rental_uris": {"android": "https://dc.lft.to/lastmile_qr_scan", "ios": "https://dc.lft.to/lastmile_qr_scan"}, "type": "electric_scooter", "lat": 38.90199166666667, "is_reserved": 0, "fusion_lat": 0.0}, {"bike_id": "62b582a6508ebef2ea00254e5d3b2240", "fusion_lon": 0.0, "lon": -77.03950133333333, "name": "62b582a6508ebef2ea00254e5d3b2240", "is_disabled": 0, "rental_uris": {"android": "https://dc.lft.to/lastmile_qr_scan", "ios": "https://dc.lft.to/lastmile_qr_scan"}, "type": "electric_scooter", "lat": 38.9023815, "is_reserved": 0, "fusion_lat": 0.0}, {"bike_id": "09896641c8dfb70d1cbda6d093fdd1a4", "fusion_lon": 0.0, "lon": -77.02551616666666, "name": "09896641c8dfb70d1cbda6d093fdd1a4", "is_disabled": 0, "rental_uris": {"android": "https://dc.lft.to/lastmile_qr_scan", "ios": "https://dc.lft.to/lastmile_qr_scan"}, "type": "electric_scooter", "lat": 38.916359, "is_reserved": 0, "fusion_lat": 0.0}, {"bike_id": "7025046d9ca617ebe42b1146422e4959", "fusion_lon": 0.0, "lon": -77.0089015, "name": "7025046d9ca617ebe42b1146422e4959", "is_disabled": 0, "rental_uris": {"android": "https://dc.lft.to/lastmile_qr_scan", "ios": "https://dc.lft.to/lastmile_qr_scan"}, "type": "electric_scooter", "lat": 38.924859, "is_reserved": 0, "fusion_lat": 0.0}, {"bike_id": "b2b8c20d83584d1ad84e723ec089cbdb", "fusion_lon": 0.0, "lon": -77.02805533333333, "name": "b2b8c20d83584d1ad84e723ec089cbdb", "is_disabled": 0, "rental_uris": {"android": "https://dc.lft.to/lastmile_qr_scan", "ios": "https://dc.lft.to/lastmile_qr_scan"}, "type": "electric_scooter", "lat": 38.96238316666667, "is_reserved": 0, "fusion_lat": 0.0}, {"bike_id": "536397e319be6870be142b5f02b1ffad", "fusion_lon": 0.0, "lon": -77.03970316666667, "name": "536397e319be6870be142b5f02b1ffad", "is_disabled": 0, "rental_uris": {"android": "https://dc.lft.to/lastmile_qr_scan", "ios": "https://dc.lft.to/lastmile_qr_scan"}, "type": "electric_scooter", "lat": 38.896348833333334, "is_reserved": 0, "fusion_lat": 0.0}, {"bike_id": "6aa441a0b6370c0038836c7889f04d66", "fusion_lon": 0.0, "lon": -77.002427, "name": "6aa441a0b6370c0038836c7889f04d66", "is_disabled": 0, "rental_uris": {"android": "https://dc.lft.to/lastmile_qr_scan", "ios": "https://dc.lft.to/lastmile_qr_scan"}, "type": "electric_scooter", "lat": 38.88514416666666, "is_reserved": 0, "fusion_lat": 0.0}, {"bike_id": "85155f57aee51e456bbc77395990110f", "fusion_lon": 0.0, "lon": -77.05761133333333, "name": "85155f57aee51e456bbc77395990110f", "is_disabled": 0, "rental_uris": {"android": "https://dc.lft.to/lastmile_qr_scan", "ios": "https://dc.lft.to/lastmile_qr_scan"}, "type": "electric_scooter", "lat": 38.924960166666665, "is_reserved": 0, "fusion_lat": 0.0}, {"bike_id": "2eb14530c1ddad7f5542faf117af0095", "fusion_lon": 0.0, "lon": -76.987637, "name": "2eb14530c1ddad7f5542faf117af0095", "is_disabled": 0, "rental_uris": {"android": "https://dc.lft.to/lastmile_qr_scan", "ios": "https://dc.lft.to/lastmile_qr_scan"}, "type": "electric_bike", "lat": 38.857687166666665, "is_reserved": 0, "fusion_lat": 0.0}, {"bike_id": "30d9922c11c227bcd8be46d1f48c1d2c", "fusion_lon": 0.0, "lon": -77.034215, "name": "30d9922c11c227bcd8be46d1f48c1d2c", "is_disabled": 0, "rental_uris": {"android": "https://dc.lft.to/lastmile_qr_scan", "ios": "https://dc.lft.to/lastmile_qr_scan"}, "type": "electric_scooter", "lat": 38.919229666666666, "is_reserved": 0, "fusion_lat": 0.0}, {"bike_id": "9920c00f4d211b1cb23552250b4ec72d", "fusion_lon": 0.0, "lon": -76.99029166666666, "name": "9920c00f4d211b1cb23552250b4ec72d", "is_disabled": 0, "rental_uris": {"android": "https://dc.lft.to/lastmile_qr_scan", "ios": "https://dc.lft.to/lastmile_qr_scan"}, "type": "electric_scooter", "lat": 38.865203, "is_reserved": 0, "fusion_lat": 0.0}, {"bike_id": "23fbfd0058f9901030179786e79ba4dc", "fusion_lon": 0.0, "lon": -77.02318716666667, "name": "23fbfd0058f9901030179786e79ba4dc", "is_disabled": 0, "rental_uris": {"android": "https://dc.lft.to/lastmile_qr_scan", "ios": "https://dc.lft.to/lastmile_qr_scan"}, "type": "electric_scooter", "lat": 38.878776333333334, "is_reserved": 0, "fusion_lat": 0.0}, {"bike_id": "6dbe724b23954352b186aac4ac995a1f", "fusion_lon": 0.0, "lon": -77.02792916666667, "name": "6dbe724b23954352b186aac4ac995a1f", "is_disabled": 0, "rental_uris": {"android": "https://dc.lft.to/lastmile_qr_scan", "ios": "https://dc.lft.to/lastmile_qr_scan"}, "type": "electric_scooter", "lat": 38.9308, "is_reserved": 0, "fusion_lat": 0.0}, {"bike_id": "0990b9b181fa28c12ceb93fea5c6c27a", "fusion_lon": 0.0, "lon": -77.02487816666667, "name": "0990b9b181fa28c12ceb93fea5c6c27a", "is_disabled": 0, "rental_uris": {"android": "https://dc.lft.to/lastmile_qr_scan", "ios": "https://dc.lft.to/lastmile_qr_scan"}, "type": "electric_scooter", "lat": 38.90237233333333, "is_reserved": 0, "fusion_lat": 0.0}, {"bike_id": "a339bf4bd9c0b5aadab79c4a076ecd0e", "fusion_lon": 0.0, "lon": -77.02708666666666, "name": "a339bf4bd9c0b5aadab79c4a076ecd0e", "is_disabled": 0, "rental_uris": {"android": "https://dc.lft.to/lastmile_qr_scan", "ios": "https://dc.lft.to/lastmile_qr_scan"}, "type": "electric_scooter", "lat": 38.898743333333336, "is_reserved": 0, "fusion_lat": 0.0}, {"bike_id": "b7c352f7a2fbcbc0a7a4e21a788c9d5b", "fusion_lon": 0.0, "lon": -77.02877183333334, "name": "b7c352f7a2fbcbc0a7a4e21a788c9d5b", "is_disabled": 0, "rental_uris": {"android": "https://dc.lft.to/lastmile_qr_scan", "ios": "https://dc.lft.to/lastmile_qr_scan"}, "type": "electric_scooter", "lat": 38.9126275, "is_reserved": 0, "fusion_lat": 0.0}, {"bike_id": "dbcbc9a8cbe30105b4ed2825d6f8802d", "fusion_lon": 0.0, "lon": -77.05031866666667, "name": "dbcbc9a8cbe30105b4ed2825d6f8802d", "is_disabled": 0, "rental_uris": {"android": "https://dc.lft.to/lastmile_qr_scan", "ios": "https://dc.lft.to/lastmile_qr_scan"}, "type": "electric_scooter", "lat": 38.905317333333336, "is_reserved": 0, "fusion_lat": 0.0}, {"bike_id": "f0f810ff361afeb84e85bda3ed4c0387", "fusion_lon": 0.0, "lon": -77.0552265, "name": "f0f810ff361afeb84e85bda3ed4c0387", "is_disabled": 0, "rental_uris": {"android": "https://dc.lft.to/lastmile_qr_scan", "ios": "https://dc.lft.to/lastmile_qr_scan"}, "type": "electric_scooter", "lat": 38.89732883333333, "is_reserved": 0, "fusion_lat": 0.0}, {"bike_id": "8c95c75ff6a7abcab1fc1071bdce534c", "fusion_lon": 0.0, "lon": -77.02806383333333, "name": "8c95c75ff6a7abcab1fc1071bdce534c", "is_disabled": 0, "rental_uris": {"android": "https://dc.lft.to/lastmile_qr_scan", "ios": "https://dc.lft.to/lastmile_qr_scan"}, "type": "electric_scooter", "lat": 38.902272833333335, "is_reserved": 0, "fusion_lat": 0.0}, {"bike_id": "01e6e17774415f9efd5b36e81834ed6c", "fusion_lon": 0.0, "lon": -77.03388566666666, "name": "01e6e17774415f9efd5b36e81834ed6c", "is_disabled": 0, "rental_uris": {"android": "https://dc.lft.to/lastmile_qr_scan", "ios": "https://dc.lft.to/lastmile_qr_scan"}, "type": "electric_scooter", "lat": 38.91964516666667, "is_reserved": 0, "fusion_lat": 0.0}, {"bike_id": "bb0a4ae99fe0f4e7a6543a8dbfe10034", "fusion_lon": 0.0, "lon": -77.12964166666667, "name": "bb0a4ae99fe0f4e7a6543a8dbfe10034", "is_disabled": 0, "rental_uris": {"android": "https://dc.lft.to/lastmile_qr_scan", "ios": "https://dc.lft.to/lastmile_qr_scan"}, "type": "electric_bike", "lat": 38.852193166666666, "is_reserved": 0, "fusion_lat": 0.0}, {"bike_id": "0e9adf75a81398a49042dcfd314844e1", "fusion_lon": 0.0, "lon": -77.01748883333333, "name": "0e9adf75a81398a49042dcfd314844e1", "is_disabled": 0, "rental_uris": {"android": "https://dc.lft.to/lastmile_qr_scan", "ios": "https://dc.lft.to/lastmile_qr_scan"}, "type": "electric_scooter", "lat": 38.883404, "is_reserved": 0, "fusion_lat": 0.0}, {"bike_id": "a46e7e6813d417b58f8e328649572e24", "fusion_lon": 0.0, "lon": -77.03130533333334, "name": "a46e7e6813d417b58f8e328649572e24", "is_disabled": 0, "rental_uris": {"android": "https://dc.lft.to/lastmile_qr_scan", "ios": "https://dc.lft.to/lastmile_qr_scan"}, "type": "electric_scooter", "lat": 38.9237705, "is_reserved": 0, "fusion_lat": 0.0}, {"bike_id": "4f84756fdf89b0c7c90f83d744e4f92b", "fusion_lon": 0.0, "lon": -76.9985595, "name": "4f84756fdf89b0c7c90f83d744e4f92b", "is_disabled": 0, "rental_uris": {"android": "https://dc.lft.to/lastmile_qr_scan", "ios": "https://dc.lft.to/lastmile_qr_scan"}, "type": "electric_scooter", "lat": 38.903661, "is_reserved": 0, "fusion_lat": 0.0}, {"bike_id": "fcc97d370dabf7253da2a1d8c0aa6aa9", "fusion_lon": 0.0, "lon": -77.0173645, "name": "fcc97d370dabf7253da2a1d8c0aa6aa9", "is_disabled": 0, "rental_uris": {"android": "https://dc.lft.to/lastmile_qr_scan", "ios": "https://dc.lft.to/lastmile_qr_scan"}, "type": "electric_scooter", "lat": 38.903692166666666, "is_reserved": 0, "fusion_lat": 0.0}, {"bike_id": "ce9540491ae2d93c37dc1a409accc34b", "fusion_lon": 0.0, "lon": -77.0137015, "name": "ce9540491ae2d93c37dc1a409accc34b", "is_disabled": 0, "rental_uris": {"android": "https://dc.lft.to/lastmile_qr_scan", "ios": "https://dc.lft.to/lastmile_qr_scan"}, "type": "electric_scooter", "lat": 38.893347, "is_reserved": 0, "fusion_lat": 0.0}, {"bike_id": "061595a10ed45e8e7324f3a88ab1beec", "fusion_lon": 0.0, "lon": -77.09525216666667, "name": "061595a10ed45e8e7324f3a88ab1beec", "is_disabled": 0, "rental_uris": {"android": "https://dc.lft.to/lastmile_qr_scan", "ios": "https://dc.lft.to/lastmile_qr_scan"}, "type": "electric_bike", "lat": 38.838123833333334, "is_reserved": 0, "fusion_lat": 0.0}, {"bike_id": "a8d29c3e516b0fc881f9739a63e9808a", "fusion_lon": 0.0, "lon": -77.02705183333333, "name": "a8d29c3e516b0fc881f9739a63e9808a", "is_disabled": 0, "rental_uris": {"android": "https://dc.lft.to/lastmile_qr_scan", "ios": "https://dc.lft.to/lastmile_qr_scan"}, "type": "electric_scooter", "lat": 38.918001333333336, "is_reserved": 0, "fusion_lat": 0.0}, {"bike_id": "ca2f2d409784f3ae8e066bed9dc2b726", "fusion_lon": 0.0, "lon": -77.05321933333333, "name": "ca2f2d409784f3ae8e066bed9dc2b726", "is_disabled": 0, "rental_uris": {"android": "https://dc.lft.to/lastmile_qr_scan", "ios": "https://dc.lft.to/lastmile_qr_scan"}, "type": "electric_scooter", "lat": 38.9026795, "is_reserved": 0, "fusion_lat": 0.0}, {"bike_id": "966a24d196582eff5290a3f5fb98dcc2", "fusion_lon": 0.0, "lon": -77.04100616666666, "name": "966a24d196582eff5290a3f5fb98dcc2", "is_disabled": 0, "rental_uris": {"android": "https://dc.lft.to/lastmile_qr_scan", "ios": "https://dc.lft.to/lastmile_qr_scan"}, "type": "electric_scooter", "lat": 38.91059766666667, "is_reserved": 0, "fusion_lat": 0.0}, {"bike_id": "d1e8ed59f92488b89fe3c345e6c5e276", "fusion_lon": 0.0, "lon": -77.07832383333333, "name": "d1e8ed59f92488b89fe3c345e6c5e276", "is_disabled": 0, "rental_uris": {"android": "https://dc.lft.to/lastmile_qr_scan", "ios": "https://dc.lft.to/lastmile_qr_scan"}, "type": "electric_bike", "lat": 38.931873333333336, "is_reserved": 0, "fusion_lat": 0.0}, {"bike_id": "7634a1776996a78a5e06c7e2e7fd450b", "fusion_lon": 0.0, "lon": -77.03517066666667, "name": "7634a1776996a78a5e06c7e2e7fd450b", "is_disabled": 0, "rental_uris": {"android": "https://dc.lft.to/lastmile_qr_scan", "ios": "https://dc.lft.to/lastmile_qr_scan"}, "type": "electric_scooter", "lat": 38.92154466666667, "is_reserved": 0, "fusion_lat": 0.0}, {"bike_id": "b5a39e9c0c641b02671aaf53e1b88b55", "fusion_lon": 0.0, "lon": -77.03810783333333, "name": "b5a39e9c0c641b02671aaf53e1b88b55", "is_disabled": 0, "rental_uris": {"android": "https://dc.lft.to/lastmile_qr_scan", "ios": "https://dc.lft.to/lastmile_qr_scan"}, "type": "electric_scooter", "lat": 38.9141625, "is_reserved": 0, "fusion_lat": 0.0}, {"bike_id": "7712f46abb25992220edf8ab69c8a28e", "fusion_lon": 0.0, "lon": -77.031264, "name": "7712f46abb25992220edf8ab69c8a28e", "is_disabled": 0, "rental_uris": {"android": "https://dc.lft.to/lastmile_qr_scan", "ios": "https://dc.lft.to/lastmile_qr_scan"}, "type": "electric_scooter", "lat": 38.92378516666667, "is_reserved": 0, "fusion_lat": 0.0}, {"bike_id": "83325244a16af9058535d7802e5fc709", "fusion_lon": 0.0, "lon": -77.0483, "name": "83325244a16af9058535d7802e5fc709", "is_disabled": 0, "rental_uris": {"android": "https://dc.lft.to/lastmile_qr_scan", "ios": "https://dc.lft.to/lastmile_qr_scan"}, "type": "electric_scooter", "lat": 38.91104633333333, "is_reserved": 0, "fusion_lat": 0.0}, {"bike_id": "1440b27eef9047599a155bfafaa9a1c4", "fusion_lon": 0.0, "lon": -77.22332083333333, "name": "1440b27eef9047599a155bfafaa9a1c4", "is_disabled": 0, "rental_uris": {"android": "https://dc.lft.to/lastmile_qr_scan", "ios": "https://dc.lft.to/lastmile_qr_scan"}, "type": "electric_bike", "lat": 38.918052833333334, "is_reserved": 0, "fusion_lat": 0.0}, {"bike_id": "551b1c7ba3857659e5dbf161b1075678", "fusion_lon": 0.0, "lon": -77.04176783333334, "name": "551b1c7ba3857659e5dbf161b1075678", "is_disabled": 0, "rental_uris": {"android": "https://dc.lft.to/lastmile_qr_scan", "ios": "https://dc.lft.to/lastmile_qr_scan"}, "type": "electric_scooter", "lat": 38.9198205, "is_reserved": 0, "fusion_lat": 0.0}, {"bike_id": "e722eabcf183e7f2c66a9942c82caae5", "fusion_lon": 0.0, "lon": -77.02352533333334, "name": "e722eabcf183e7f2c66a9942c82caae5", "is_disabled": 0, "rental_uris": {"android": "https://dc.lft.to/lastmile_qr_scan", "ios": "https://dc.lft.to/lastmile_qr_scan"}, "type": "electric_scooter", "lat": 38.935357333333336, "is_reserved": 0, "fusion_lat": 0.0}, {"bike_id": "3b7f797b8c46355e22f1d6be39f4518c", "fusion_lon": 0.0, "lon": -77.0385005, "name": "3b7f797b8c46355e22f1d6be39f4518c", "is_disabled": 0, "rental_uris": {"android": "https://dc.lft.to/lastmile_qr_scan", "ios": "https://dc.lft.to/lastmile_qr_scan"}, "type": "electric_scooter", "lat": 38.90302033333333, "is_reserved": 0, "fusion_lat": 0.0}, {"bike_id": "82c07a9ba8481ad3e48f69659a18d4a1", "fusion_lon": 0.0, "lon": -77.05032, "name": "82c07a9ba8481ad3e48f69659a18d4a1", "is_disabled": 0, "rental_uris": {"android": "https://dc.lft.to/lastmile_qr_scan", "ios": "https://dc.lft.to/lastmile_qr_scan"}, "type": "electric_bike", "lat": 39.03885866666667, "is_reserved": 0, "fusion_lat": 0.0}, {"bike_id": "36bc8dbfefab5ca1194fd8e7ff55c8f9", "fusion_lon": 0.0, "lon": -76.931593, "name": "36bc8dbfefab5ca1194fd8e7ff55c8f9", "is_disabled": 0, "rental_uris": {"android": "https://dc.lft.to/lastmile_qr_scan", "ios": "https://dc.lft.to/lastmile_qr_scan"}, "type": "electric_scooter", "lat": 38.898774, "is_reserved": 0, "fusion_lat": 0.0}, {"bike_id": "c48887263f8f608ad1b5fd0ab0e9134b", "fusion_lon": 0.0, "lon": -77.03364916666666, "name": "c48887263f8f608ad1b5fd0ab0e9134b", "is_disabled": 0, "rental_uris": {"android": "https://dc.lft.to/lastmile_qr_scan", "ios": "https://dc.lft.to/lastmile_qr_scan"}, "type": "electric_scooter", "lat": 38.941878333333335, "is_reserved": 0, "fusion_lat": 0.0}, {"bike_id": "80beccfe27b4ddec8d3db4622eaa8cc2", "fusion_lon": 0.0, "lon": -77.03479816666666, "name": "80beccfe27b4ddec8d3db4622eaa8cc2", "is_disabled": 0, "rental_uris": {"android": "https://dc.lft.to/lastmile_qr_scan", "ios": "https://dc.lft.to/lastmile_qr_scan"}, "type": "electric_scooter", "lat": 38.92343283333334, "is_reserved": 0, "fusion_lat": 0.0}, {"bike_id": "5f11736b50196ec428a3ec390c5d4103", "fusion_lon": 0.0, "lon": -77.01200766666666, "name": "5f11736b50196ec428a3ec390c5d4103", "is_disabled": 0, "rental_uris": {"android": "https://dc.lft.to/lastmile_qr_scan", "ios": "https://dc.lft.to/lastmile_qr_scan"}, "type": "electric_scooter", "lat": 38.9001155, "is_reserved": 0, "fusion_lat": 0.0}, {"bike_id": "86f4d43a409fd634ec0c5a242fb27b76", "fusion_lon": 0.0, "lon": -77.025768, "name": "86f4d43a409fd634ec0c5a242fb27b76", "is_disabled": 0, "rental_uris": {"android": "https://dc.lft.to/lastmile_qr_scan", "ios": "https://dc.lft.to/lastmile_qr_scan"}, "type": "electric_scooter", "lat": 38.892312833333335, "is_reserved": 0, "fusion_lat": 0.0}, {"bike_id": "71dee46cac020d8b5e4aaf2a96195c71", "fusion_lon": 0.0, "lon": -76.927354, "name": "71dee46cac020d8b5e4aaf2a96195c71", "is_disabled": 0, "rental_uris": {"android": "https://dc.lft.to/lastmile_qr_scan", "ios": "https://dc.lft.to/lastmile_qr_scan"}, "type": "electric_scooter", "lat": 38.889666166666665, "is_reserved": 0, "fusion_lat": 0.0}, {"bike_id": "ccdd7ae21983e4a566eed78531d76cee", "fusion_lon": 0.0, "lon": -76.98797366666666, "name": "ccdd7ae21983e4a566eed78531d76cee", "is_disabled": 0, "rental_uris": {"android": "https://dc.lft.to/lastmile_qr_scan", "ios": "https://dc.lft.to/lastmile_qr_scan"}, "type": "electric_bike", "lat": 38.9221455, "is_reserved": 0, "fusion_lat": 0.0}, {"bike_id": "48b272bb3ce58c275f40a866003b33e7", "fusion_lon": 0.0, "lon": -77.06863783333333, "name": "48b272bb3ce58c275f40a866003b33e7", "is_disabled": 0, "rental_uris": {"android": "https://dc.lft.to/lastmile_qr_scan", "ios": "https://dc.lft.to/lastmile_qr_scan"}, "type": "electric_bike", "lat": 38.8057825, "is_reserved": 0, "fusion_lat": 0.0}, {"bike_id": "1f5dd3e87a728b9a103091ee446ca205", "fusion_lon": 0.0, "lon": -77.02336666666666, "name": "1f5dd3e87a728b9a103091ee446ca205", "is_disabled": 0, "rental_uris": {"android": "https://dc.lft.to/lastmile_qr_scan", "ios": "https://dc.lft.to/lastmile_qr_scan"}, "type": "electric_scooter", "lat": 38.92892233333333, "is_reserved": 0, "fusion_lat": 0.0}, {"bike_id": "217eca837d86045d79b0ae8aca11bf81", "fusion_lon": 0.0, "lon": -77.026974, "name": "217eca837d86045d79b0ae8aca11bf81", "is_disabled": 0, "rental_uris": {"android": "https://dc.lft.to/lastmile_qr_scan", "ios": "https://dc.lft.to/lastmile_qr_scan"}, "type": "electric_scooter", "lat": 38.88137783333333, "is_reserved": 0, "fusion_lat": 0.0}, {"bike_id": "8b4ae80394fb4cffeb5f1c7e8b8c38cb", "fusion_lon": 0.0, "lon": -76.98508583333333, "name": "8b4ae80394fb4cffeb5f1c7e8b8c38cb", "is_disabled": 0, "rental_uris": {"android": "https://dc.lft.to/lastmile_qr_scan", "ios": "https://dc.lft.to/lastmile_qr_scan"}, "type": "electric_scooter", "lat": 38.866661, "is_reserved": 0, "fusion_lat": 0.0}, {"bike_id": "4599815864a57b67f7c07cb6e6ef2e4c", "fusion_lon": 0.0, "lon": -77.023202, "name": "4599815864a57b67f7c07cb6e6ef2e4c", "is_disabled": 0, "rental_uris": {"android": "https://dc.lft.to/lastmile_qr_scan", "ios": "https://dc.lft.to/lastmile_qr_scan"}, "type": "electric_scooter", "lat": 38.907363333333336, "is_reserved": 0, "fusion_lat": 0.0}, {"bike_id": "a803fba3f77cfed8139159d9f90010e2", "fusion_lon": 0.0, "lon": -77.02177683333333, "name": "a803fba3f77cfed8139159d9f90010e2", "is_disabled": 0, "rental_uris": {"android": "https://dc.lft.to/lastmile_qr_scan", "ios": "https://dc.lft.to/lastmile_qr_scan"}, "type": "electric_scooter", "lat": 38.88470066666667, "is_reserved": 0, "fusion_lat": 0.0}, {"bike_id": "38d215564c9533fd4045ee6a345f99d9", "fusion_lon": 0.0, "lon": -77.019395, "name": "38d215564c9533fd4045ee6a345f99d9", "is_disabled": 0, "rental_uris": {"android": "https://dc.lft.to/lastmile_qr_scan", "ios": "https://dc.lft.to/lastmile_qr_scan"}, "type": "electric_scooter", "lat": 38.947041, "is_reserved": 0, "fusion_lat": 0.0}, {"bike_id": "8255088259a99e1b78fd087d61811607", "fusion_lon": 0.0, "lon": -76.99790183333333, "name": "8255088259a99e1b78fd087d61811607", "is_disabled": 0, "rental_uris": {"android": "https://dc.lft.to/lastmile_qr_scan", "ios": "https://dc.lft.to/lastmile_qr_scan"}, "type": "electric_scooter", "lat": 38.909085833333336, "is_reserved": 0, "fusion_lat": 0.0}, {"bike_id": "507879964af4a91bc548882ef0b0c977", "fusion_lon": 0.0, "lon": -76.986368, "name": "507879964af4a91bc548882ef0b0c977", "is_disabled": 0, "rental_uris": {"android": "https://dc.lft.to/lastmile_qr_scan", "ios": "https://dc.lft.to/lastmile_qr_scan"}, "type": "electric_scooter", "lat": 38.880368833333335, "is_reserved": 0, "fusion_lat": 0.0}, {"bike_id": "3975c7c6d0ef4fe66b3cadee7d0c30a8", "fusion_lon": 0.0, "lon": -77.0466965, "name": "3975c7c6d0ef4fe66b3cadee7d0c30a8", "is_disabled": 0, "rental_uris": {"android": "https://dc.lft.to/lastmile_qr_scan", "ios": "https://dc.lft.to/lastmile_qr_scan"}, "type": "electric_scooter", "lat": 38.899527, "is_reserved": 0, "fusion_lat": 0.0}, {"bike_id": "1a526e837527aecbb73fc5286b47654e", "fusion_lon": 0.0, "lon": -77.0509325, "name": "1a526e837527aecbb73fc5286b47654e", "is_disabled": 0, "rental_uris": {"android": "https://dc.lft.to/lastmile_qr_scan", "ios": "https://dc.lft.to/lastmile_qr_scan"}, "type": "electric_bike", "lat": 38.81336433333333, "is_reserved": 0, "fusion_lat": 0.0}, {"bike_id": "7e2f226549d3fdf265341db8afd86132", "fusion_lon": 0.0, "lon": -77.11599833333334, "name": "7e2f226549d3fdf265341db8afd86132", "is_disabled": 0, "rental_uris": {"android": "https://dc.lft.to/lastmile_qr_scan", "ios": "https://dc.lft.to/lastmile_qr_scan"}, "type": "electric_bike", "lat": 39.0749435, "is_reserved": 0, "fusion_lat": 0.0}, {"bike_id": "e880556f5d57fbc87a98a872a64a1d34", "fusion_lon": 0.0, "lon": -77.0344545, "name": "e880556f5d57fbc87a98a872a64a1d34", "is_disabled": 0, "rental_uris": {"android": "https://dc.lft.to/lastmile_qr_scan", "ios": "https://dc.lft.to/lastmile_qr_scan"}, "type": "electric_scooter", "lat": 38.90947966666667, "is_reserved": 0, "fusion_lat": 0.0}, {"bike_id": "4b7f0a2e8c0ab77bbb64a466ec859617", "fusion_lon": 0.0, "lon": -77.04520783333334, "name": "4b7f0a2e8c0ab77bbb64a466ec859617", "is_disabled": 0, "rental_uris": {"android": "https://dc.lft.to/lastmile_qr_scan", "ios": "https://dc.lft.to/lastmile_qr_scan"}, "type": "electric_scooter", "lat": 38.903817833333335, "is_reserved": 0, "fusion_lat": 0.0}, {"bike_id": "58b5017bd5157ce61e59d8e007f301b2", "fusion_lon": 0.0, "lon": -77.01664166666667, "name": "58b5017bd5157ce61e59d8e007f301b2", "is_disabled": 0, "rental_uris": {"android": "https://dc.lft.to/lastmile_qr_scan", "ios": "https://dc.lft.to/lastmile_qr_scan"}, "type": "electric_scooter", "lat": 38.881372, "is_reserved": 0, "fusion_lat": 0.0}, {"bike_id": "a56881e2d61b434f2a23eeff19881b7a", "fusion_lon": 0.0, "lon": -77.02711066666667, "name": "a56881e2d61b434f2a23eeff19881b7a", "is_disabled": 0, "rental_uris": {"android": "https://dc.lft.to/lastmile_qr_scan", "ios": "https://dc.lft.to/lastmile_qr_scan"}, "type": "electric_scooter", "lat": 38.88125516666667, "is_reserved": 0, "fusion_lat": 0.0}, {"bike_id": "0b9355957cc688cc386b36bc45dd6291", "fusion_lon": 0.0, "lon": -77.089356, "name": "0b9355957cc688cc386b36bc45dd6291", "is_disabled": 0, "rental_uris": {"android": "https://dc.lft.to/lastmile_qr_scan", "ios": "https://dc.lft.to/lastmile_qr_scan"}, "type": "electric_bike", "lat": 38.8410105, "is_reserved": 0, "fusion_lat": 0.0}, {"bike_id": "aef1908ed5768f7b1eae4ca239e975bd", "fusion_lon": 0.0, "lon": -77.03445, "name": "aef1908ed5768f7b1eae4ca239e975bd", "is_disabled": 0, "rental_uris": {"android": "https://dc.lft.to/lastmile_qr_scan", "ios": "https://dc.lft.to/lastmile_qr_scan"}, "type": "electric_scooter", "lat": 38.91818583333333, "is_reserved": 0, "fusion_lat": 0.0}, {"bike_id": "5bee7efc8b5132fb2f678329d2f46c52", "fusion_lon": 0.0, "lon": -77.03507816666666, "name": "5bee7efc8b5132fb2f678329d2f46c52", "is_disabled": 0, "rental_uris": {"android": "https://dc.lft.to/lastmile_qr_scan", "ios": "https://dc.lft.to/lastmile_qr_scan"}, "type": "electric_scooter", "lat": 38.918819166666665, "is_reserved": 0, "fusion_lat": 0.0}, {"bike_id": "071ae247c1f17fb6a2ae034600b6a976", "fusion_lon": 0.0, "lon": -77.134631, "name": "071ae247c1f17fb6a2ae034600b6a976", "is_disabled": 0, "rental_uris": {"android": "https://dc.lft.to/lastmile_qr_scan", "ios": "https://dc.lft.to/lastmile_qr_scan"}, "type": "electric_bike", "lat": 38.8536205, "is_reserved": 0, "fusion_lat": 0.0}, {"bike_id": "b80df7e51743de4291c8f437a618abe3", "fusion_lon": 0.0, "lon": -77.0320035, "name": "b80df7e51743de4291c8f437a618abe3", "is_disabled": 0, "rental_uris": {"android": "https://dc.lft.to/lastmile_qr_scan", "ios": "https://dc.lft.to/lastmile_qr_scan"}, "type": "electric_scooter", "lat": 38.9192985, "is_reserved": 0, "fusion_lat": 0.0}, {"bike_id": "9bafdce3bff3e949c7fd1e4b14df144a", "fusion_lon": 0.0, "lon": -77.04338733333333, "name": "9bafdce3bff3e949c7fd1e4b14df144a", "is_disabled": 0, "rental_uris": {"android": "https://dc.lft.to/lastmile_qr_scan", "ios": "https://dc.lft.to/lastmile_qr_scan"}, "type": "electric_scooter", "lat": 38.9000435, "is_reserved": 0, "fusion_lat": 0.0}, {"bike_id": "a200c3bf821027b7a571879638e457a1", "fusion_lon": 0.0, "lon": -77.00563533333333, "name": "a200c3bf821027b7a571879638e457a1", "is_disabled": 0, "rental_uris": {"android": "https://dc.lft.to/lastmile_qr_scan", "ios": "https://dc.lft.to/lastmile_qr_scan"}, "type": "electric_scooter", "lat": 38.8850525, "is_reserved": 0, "fusion_lat": 0.0}, {"bike_id": "49287a64db1b2877bb674d015044f3e2", "fusion_lon": 0.0, "lon": -77.0340175, "name": "49287a64db1b2877bb674d015044f3e2", "is_disabled": 0, "rental_uris": {"android": "https://dc.lft.to/lastmile_qr_scan", "ios": "https://dc.lft.to/lastmile_qr_scan"}, "type": "electric_scooter", "lat": 38.93123283333333, "is_reserved": 0, "fusion_lat": 0.0}, {"bike_id": "e522038b23a70b43307a7c8e68833d27", "fusion_lon": 0.0, "lon": -77.03988683333333, "name": "e522038b23a70b43307a7c8e68833d27", "is_disabled": 0, "rental_uris": {"android": "https://dc.lft.to/lastmile_qr_scan", "ios": "https://dc.lft.to/lastmile_qr_scan"}, "type": "electric_scooter", "lat": 38.9176745, "is_reserved": 0, "fusion_lat": 0.0}, {"bike_id": "acc4975580b82224fb967a8e7c01cd3b", "fusion_lon": 0.0, "lon": -77.00581816666667, "name": "acc4975580b82224fb967a8e7c01cd3b", "is_disabled": 0, "rental_uris": {"android": "https://dc.lft.to/lastmile_qr_scan", "ios": "https://dc.lft.to/lastmile_qr_scan"}, "type": "electric_scooter", "lat": 38.90640483333333, "is_reserved": 0, "fusion_lat": 0.0}, {"bike_id": "e0c77b1aae554baa1349ef94b5c8f342", "fusion_lon": 0.0, "lon": -77.0312805, "name": "e0c77b1aae554baa1349ef94b5c8f342", "is_disabled": 0, "rental_uris": {"android": "https://dc.lft.to/lastmile_qr_scan", "ios": "https://dc.lft.to/lastmile_qr_scan"}, "type": "electric_scooter", "lat": 38.91553483333333, "is_reserved": 0, "fusion_lat": 0.0}, {"bike_id": "ff06cac54dec65868eba803aeb92fd2d", "fusion_lon": 0.0, "lon": -77.026706, "name": "ff06cac54dec65868eba803aeb92fd2d", "is_disabled": 0, "rental_uris": {"android": "https://dc.lft.to/lastmile_qr_scan", "ios": "https://dc.lft.to/lastmile_qr_scan"}, "type": "electric_scooter", "lat": 38.928757166666664, "is_reserved": 0, "fusion_lat": 0.0}, {"bike_id": "06912176ed5f0a23368a9ab77307ec3e", "fusion_lon": 0.0, "lon": -77.007987, "name": "06912176ed5f0a23368a9ab77307ec3e", "is_disabled": 0, "rental_uris": {"android": "https://dc.lft.to/lastmile_qr_scan", "ios": "https://dc.lft.to/lastmile_qr_scan"}, "type": "electric_scooter", "lat": 38.897198833333334, "is_reserved": 0, "fusion_lat": 0.0}, {"bike_id": "a8e665642781b696f6a7bbe1a6ac537b", "fusion_lon": 0.0, "lon": -76.92478516666667, "name": "a8e665642781b696f6a7bbe1a6ac537b", "is_disabled": 0, "rental_uris": {"android": "https://dc.lft.to/lastmile_qr_scan", "ios": "https://dc.lft.to/lastmile_qr_scan"}, "type": "electric_bike", "lat": 38.95904216666667, "is_reserved": 0, "fusion_lat": 0.0}, {"bike_id": "62f0e58f2cebdf452b5ce201b11854e7", "fusion_lon": 0.0, "lon": -77.0041495, "name": "62f0e58f2cebdf452b5ce201b11854e7", "is_disabled": 0, "rental_uris": {"android": "https://dc.lft.to/lastmile_qr_scan", "ios": "https://dc.lft.to/lastmile_qr_scan"}, "type": "electric_scooter", "lat": 38.876558333333335, "is_reserved": 0, "fusion_lat": 0.0}, {"bike_id": "6389a74c8e493e86e63b2c8da07696e8", "fusion_lon": 0.0, "lon": -77.030789, "name": "6389a74c8e493e86e63b2c8da07696e8", "is_disabled": 0, "rental_uris": {"android": "https://dc.lft.to/lastmile_qr_scan", "ios": "https://dc.lft.to/lastmile_qr_scan"}, "type": "electric_scooter", "lat": 38.8975705, "is_reserved": 0, "fusion_lat": 0.0}, {"bike_id": "8ee02ea8ad0bbfa817fe564b679727cc", "fusion_lon": 0.0, "lon": -76.97701616666667, "name": "8ee02ea8ad0bbfa817fe564b679727cc", "is_disabled": 0, "rental_uris": {"android": "https://dc.lft.to/lastmile_qr_scan", "ios": "https://dc.lft.to/lastmile_qr_scan"}, "type": "electric_scooter", "lat": 38.90252016666667, "is_reserved": 0, "fusion_lat": 0.0}, {"bike_id": "e241bf77703b76daa72904e1ac6af123", "fusion_lon": 0.0, "lon": -77.02094616666666, "name": "e241bf77703b76daa72904e1ac6af123", "is_disabled": 0, "rental_uris": {"android": "https://dc.lft.to/lastmile_qr_scan", "ios": "https://dc.lft.to/lastmile_qr_scan"}, "type": "electric_scooter", "lat": 38.8850015, "is_reserved": 0, "fusion_lat": 0.0}, {"bike_id": "7b42ba106517e4082b4f592df2dc3473", "fusion_lon": 0.0, "lon": -77.03668016666667, "name": "7b42ba106517e4082b4f592df2dc3473", "is_disabled": 0, "rental_uris": {"android": "https://dc.lft.to/lastmile_qr_scan", "ios": "https://dc.lft.to/lastmile_qr_scan"}, "type": "electric_scooter", "lat": 38.927255, "is_reserved": 0, "fusion_lat": 0.0}, {"bike_id": "ba61be85693b5b1b38e7ec0e9b2f1c50", "fusion_lon": 0.0, "lon": -77.03046316666666, "name": "ba61be85693b5b1b38e7ec0e9b2f1c50", "is_disabled": 0, "rental_uris": {"android": "https://dc.lft.to/lastmile_qr_scan", "ios": "https://dc.lft.to/lastmile_qr_scan"}, "type": "electric_scooter", "lat": 38.934568666666664, "is_reserved": 0, "fusion_lat": 0.0}, {"bike_id": "92f8285d438e8a4f2654f77a872377c7", "fusion_lon": 0.0, "lon": -77.046612, "name": "92f8285d438e8a4f2654f77a872377c7", "is_disabled": 0, "rental_uris": {"android": "https://dc.lft.to/lastmile_qr_scan", "ios": "https://dc.lft.to/lastmile_qr_scan"}, "type": "electric_scooter", "lat": 38.900566833333336, "is_reserved": 0, "fusion_lat": 0.0}, {"bike_id": "241a0c114e6dc856b04b7e068ac364cc", "fusion_lon": 0.0, "lon": -77.02152166666667, "name": "241a0c114e6dc856b04b7e068ac364cc", "is_disabled": 0, "rental_uris": {"android": "https://dc.lft.to/lastmile_qr_scan", "ios": "https://dc.lft.to/lastmile_qr_scan"}, "type": "electric_scooter", "lat": 38.926044, "is_reserved": 0, "fusion_lat": 0.0}, {"bike_id": "aa8f42a80f071c13d9b5b600b4e4b154", "fusion_lon": 0.0, "lon": -77.03461266666666, "name": "aa8f42a80f071c13d9b5b600b4e4b154", "is_disabled": 0, "rental_uris": {"android": "https://dc.lft.to/lastmile_qr_scan", "ios": "https://dc.lft.to/lastmile_qr_scan"}, "type": "electric_bike", "lat": 38.9468145, "is_reserved": 0, "fusion_lat": 0.0}, {"bike_id": "84ebec31d6099e28d958a8514cb1e299", "fusion_lon": 0.0, "lon": -77.01032316666667, "name": "84ebec31d6099e28d958a8514cb1e299", "is_disabled": 0, "rental_uris": {"android": "https://dc.lft.to/lastmile_qr_scan", "ios": "https://dc.lft.to/lastmile_qr_scan"}, "type": "electric_bike", "lat": 38.9588265, "is_reserved": 0, "fusion_lat": 0.0}, {"bike_id": "34f98c3774c9a3ab11a4b205b7b3a187", "fusion_lon": 0.0, "lon": -76.99687616666667, "name": "34f98c3774c9a3ab11a4b205b7b3a187", "is_disabled": 0, "rental_uris": {"android": "https://dc.lft.to/lastmile_qr_scan", "ios": "https://dc.lft.to/lastmile_qr_scan"}, "type": "electric_scooter", "lat": 38.90839966666667, "is_reserved": 0, "fusion_lat": 0.0}, {"bike_id": "3096ed894c029eef4c4ad3062755fcdc", "fusion_lon": 0.0, "lon": -77.02016466666667, "name": "3096ed894c029eef4c4ad3062755fcdc", "is_disabled": 0, "rental_uris": {"android": "https://dc.lft.to/lastmile_qr_scan", "ios": "https://dc.lft.to/lastmile_qr_scan"}, "type": "electric_scooter", "lat": 38.899545833333335, "is_reserved": 0, "fusion_lat": 0.0}, {"bike_id": "67ec40291ac36af38ad22879085e9172", "fusion_lon": 0.0, "lon": -76.98078333333333, "name": "67ec40291ac36af38ad22879085e9172", "is_disabled": 0, "rental_uris": {"android": "https://dc.lft.to/lastmile_qr_scan", "ios": "https://dc.lft.to/lastmile_qr_scan"}, "type": "electric_scooter", "lat": 38.901833833333335, "is_reserved": 0, "fusion_lat": 0.0}, {"bike_id": "46209d124a9cb0935b17349c9d24a953", "fusion_lon": 0.0, "lon": -77.02202483333333, "name": "46209d124a9cb0935b17349c9d24a953", "is_disabled": 0, "rental_uris": {"android": "https://dc.lft.to/lastmile_qr_scan", "ios": "https://dc.lft.to/lastmile_qr_scan"}, "type": "electric_scooter", "lat": 38.900021, "is_reserved": 0, "fusion_lat": 0.0}, {"bike_id": "fdc26e04205f49273a7074721ed2ca3d", "fusion_lon": 0.0, "lon": -77.033235, "name": "fdc26e04205f49273a7074721ed2ca3d", "is_disabled": 0, "rental_uris": {"android": "https://dc.lft.to/lastmile_qr_scan", "ios": "https://dc.lft.to/lastmile_qr_scan"}, "type": "electric_scooter", "lat": 38.902318333333334, "is_reserved": 0, "fusion_lat": 0.0}, {"bike_id": "d1091b92ab4914eeecaf720f4b281265", "fusion_lon": 0.0, "lon": -77.03254383333334, "name": "d1091b92ab4914eeecaf720f4b281265", "is_disabled": 0, "rental_uris": {"android": "https://dc.lft.to/lastmile_qr_scan", "ios": "https://dc.lft.to/lastmile_qr_scan"}, "type": "electric_scooter", "lat": 38.939700333333334, "is_reserved": 0, "fusion_lat": 0.0}, {"bike_id": "196a978032fd8e6ae3c1f7e97f56318a", "fusion_lon": 0.0, "lon": -77.01813366666667, "name": "196a978032fd8e6ae3c1f7e97f56318a", "is_disabled": 0, "rental_uris": {"android": "https://dc.lft.to/lastmile_qr_scan", "ios": "https://dc.lft.to/lastmile_qr_scan"}, "type": "electric_scooter", "lat": 38.919319, "is_reserved": 0, "fusion_lat": 0.0}, {"bike_id": "f1a0a5c6864874a833587f6c1ad2a573", "fusion_lon": 0.0, "lon": -76.99378666666667, "name": "f1a0a5c6864874a833587f6c1ad2a573", "is_disabled": 0, "rental_uris": {"android": "https://dc.lft.to/lastmile_qr_scan", "ios": "https://dc.lft.to/lastmile_qr_scan"}, "type": "electric_bike", "lat": 38.971870333333335, "is_reserved": 0, "fusion_lat": 0.0}, {"bike_id": "abf096f18eed8f4d9cab466488b03c11", "fusion_lon": 0.0, "lon": -76.9961085, "name": "abf096f18eed8f4d9cab466488b03c11", "is_disabled": 0, "rental_uris": {"android": "https://dc.lft.to/lastmile_qr_scan", "ios": "https://dc.lft.to/lastmile_qr_scan"}, "type": "electric_scooter", "lat": 38.899185, "is_reserved": 0, "fusion_lat": 0.0}, {"bike_id": "923e397f14ed6b8ffbdf39dfed8b90f3", "fusion_lon": 0.0, "lon": -77.07422683333333, "name": "923e397f14ed6b8ffbdf39dfed8b90f3", "is_disabled": 0, "rental_uris": {"android": "https://dc.lft.to/lastmile_qr_scan", "ios": "https://dc.lft.to/lastmile_qr_scan"}, "type": "electric_scooter", "lat": 38.913047, "is_reserved": 0, "fusion_lat": 0.0}, {"bike_id": "07032b6a6d2f49f8a8c7cabaead5ff0e", "fusion_lon": 0.0, "lon": -76.97163366666666, "name": "07032b6a6d2f49f8a8c7cabaead5ff0e", "is_disabled": 0, "rental_uris": {"android": "https://dc.lft.to/lastmile_qr_scan", "ios": "https://dc.lft.to/lastmile_qr_scan"}, "type": "electric_scooter", "lat": 38.854723, "is_reserved": 0, "fusion_lat": 0.0}, {"bike_id": "f228d70ee5ecf489d81f0ba3446b3ad8", "fusion_lon": 0.0, "lon": -76.93300366666666, "name": "f228d70ee5ecf489d81f0ba3446b3ad8", "is_disabled": 0, "rental_uris": {"android": "https://dc.lft.to/lastmile_qr_scan", "ios": "https://dc.lft.to/lastmile_qr_scan"}, "type": "electric_scooter", "lat": 38.881385, "is_reserved": 0, "fusion_lat": 0.0}, {"bike_id": "bbcf409cdc05e126e3659e31695ff089", "fusion_lon": 0.0, "lon": -77.02213366666666, "name": "bbcf409cdc05e126e3659e31695ff089", "is_disabled": 0, "rental_uris": {"android": "https://dc.lft.to/lastmile_qr_scan", "ios": "https://dc.lft.to/lastmile_qr_scan"}, "type": "electric_scooter", "lat": 38.885111, "is_reserved": 0, "fusion_lat": 0.0}, {"bike_id": "053545877e475367dc3568a76d04e7e7", "fusion_lon": 0.0, "lon": -77.0217215, "name": "053545877e475367dc3568a76d04e7e7", "is_disabled": 0, "rental_uris": {"android": "https://dc.lft.to/lastmile_qr_scan", "ios": "https://dc.lft.to/lastmile_qr_scan"}, "type": "electric_scooter", "lat": 38.89725766666667, "is_reserved": 0, "fusion_lat": 0.0}, {"bike_id": "b3974ba05fed269d3a98d3f733b7c281", "fusion_lon": 0.0, "lon": -77.02303683333334, "name": "b3974ba05fed269d3a98d3f733b7c281", "is_disabled": 0, "rental_uris": {"android": "https://dc.lft.to/lastmile_qr_scan", "ios": "https://dc.lft.to/lastmile_qr_scan"}, "type": "electric_scooter", "lat": 38.91616066666667, "is_reserved": 0, "fusion_lat": 0.0}, {"bike_id": "0795bda0682ab8fc80abf3ddf8235739", "fusion_lon": 0.0, "lon": -76.9463435, "name": "0795bda0682ab8fc80abf3ddf8235739", "is_disabled": 0, "rental_uris": {"android": "https://dc.lft.to/lastmile_qr_scan", "ios": "https://dc.lft.to/lastmile_qr_scan"}, "type": "electric_scooter", "lat": 38.89843833333333, "is_reserved": 0, "fusion_lat": 0.0}, {"bike_id": "7271bcacacd7027da74c8ccb3977526e", "fusion_lon": 0.0, "lon": -76.98724083333333, "name": "7271bcacacd7027da74c8ccb3977526e", "is_disabled": 0, "rental_uris": {"android": "https://dc.lft.to/lastmile_qr_scan", "ios": "https://dc.lft.to/lastmile_qr_scan"}, "type": "electric_scooter", "lat": 38.86636133333333, "is_reserved": 0, "fusion_lat": 0.0}, {"bike_id": "924418bbec89db2a22d0461fa40894eb", "fusion_lon": 0.0, "lon": -77.0464245, "name": "924418bbec89db2a22d0461fa40894eb", "is_disabled": 0, "rental_uris": {"android": "https://dc.lft.to/lastmile_qr_scan", "ios": "https://dc.lft.to/lastmile_qr_scan"}, "type": "electric_scooter", "lat": 38.895306, "is_reserved": 0, "fusion_lat": 0.0}, {"bike_id": "e32b65bfa899e42080d67ca4b52d025c", "fusion_lon": 0.0, "lon": -77.03304316666667, "name": "e32b65bfa899e42080d67ca4b52d025c", "is_disabled": 0, "rental_uris": {"android": "https://dc.lft.to/lastmile_qr_scan", "ios": "https://dc.lft.to/lastmile_qr_scan"}, "type": "electric_scooter", "lat": 38.907243, "is_reserved": 0, "fusion_lat": 0.0}, {"bike_id": "c3f3cd6eb7cfdbfda60954c26b2b6198", "fusion_lon": 0.0, "lon": -77.0270185, "name": "c3f3cd6eb7cfdbfda60954c26b2b6198", "is_disabled": 0, "rental_uris": {"android": "https://dc.lft.to/lastmile_qr_scan", "ios": "https://dc.lft.to/lastmile_qr_scan"}, "type": "electric_scooter", "lat": 38.928803333333335, "is_reserved": 0, "fusion_lat": 0.0}, {"bike_id": "0a148d688ee9cdfcd9534b32f2ea0030", "fusion_lon": 0.0, "lon": -77.025596, "name": "0a148d688ee9cdfcd9534b32f2ea0030", "is_disabled": 0, "rental_uris": {"android": "https://dc.lft.to/lastmile_qr_scan", "ios": "https://dc.lft.to/lastmile_qr_scan"}, "type": "electric_scooter", "lat": 38.92539283333333, "is_reserved": 0, "fusion_lat": 0.0}, {"bike_id": "e0dba2bf7480d7f6f40822ad187131d2", "fusion_lon": 0.0, "lon": -77.01844533333333, "name": "e0dba2bf7480d7f6f40822ad187131d2", "is_disabled": 0, "rental_uris": {"android": "https://dc.lft.to/lastmile_qr_scan", "ios": "https://dc.lft.to/lastmile_qr_scan"}, "type": "electric_scooter", "lat": 38.9152505, "is_reserved": 0, "fusion_lat": 0.0}, {"bike_id": "595b415c342596ca7cca9e188303e585", "fusion_lon": 0.0, "lon": -77.02722466666667, "name": "595b415c342596ca7cca9e188303e585", "is_disabled": 0, "rental_uris": {"android": "https://dc.lft.to/lastmile_qr_scan", "ios": "https://dc.lft.to/lastmile_qr_scan"}, "type": "electric_scooter", "lat": 38.94955933333333, "is_reserved": 0, "fusion_lat": 0.0}, {"bike_id": "499022df21ee4c89fee8222c035ae499", "fusion_lon": 0.0, "lon": -76.9979155, "name": "499022df21ee4c89fee8222c035ae499", "is_disabled": 0, "rental_uris": {"android": "https://dc.lft.to/lastmile_qr_scan", "ios": "https://dc.lft.to/lastmile_qr_scan"}, "type": "electric_scooter", "lat": 38.90906716666667, "is_reserved": 0, "fusion_lat": 0.0}, {"bike_id": "740f1348632b1b6f723a7cf0a9d6e3ac", "fusion_lon": 0.0, "lon": -76.936147, "name": "740f1348632b1b6f723a7cf0a9d6e3ac", "is_disabled": 0, "rental_uris": {"android": "https://dc.lft.to/lastmile_qr_scan", "ios": "https://dc.lft.to/lastmile_qr_scan"}, "type": "electric_scooter", "lat": 38.88668216666667, "is_reserved": 0, "fusion_lat": 0.0}, {"bike_id": "f0909a21f9f77d1bb519310182bea1a2", "fusion_lon": 0.0, "lon": -77.02514933333333, "name": "f0909a21f9f77d1bb519310182bea1a2", "is_disabled": 0, "rental_uris": {"android": "https://dc.lft.to/lastmile_qr_scan", "ios": "https://dc.lft.to/lastmile_qr_scan"}, "type": "electric_scooter", "lat": 38.91567083333333, "is_reserved": 0, "fusion_lat": 0.0}, {"bike_id": "e66d84f4163d971d9d7456263bc81114", "fusion_lon": 0.0, "lon": -77.036647, "name": "e66d84f4163d971d9d7456263bc81114", "is_disabled": 0, "rental_uris": {"android": "https://dc.lft.to/lastmile_qr_scan", "ios": "https://dc.lft.to/lastmile_qr_scan"}, "type": "electric_scooter", "lat": 38.92724466666667, "is_reserved": 0, "fusion_lat": 0.0}, {"bike_id": "2c1c0d7d49c881ceb16ef7fbff940d23", "fusion_lon": 0.0, "lon": -77.03168733333334, "name": "2c1c0d7d49c881ceb16ef7fbff940d23", "is_disabled": 0, "rental_uris": {"android": "https://dc.lft.to/lastmile_qr_scan", "ios": "https://dc.lft.to/lastmile_qr_scan"}, "type": "electric_scooter", "lat": 38.928679833333334, "is_reserved": 0, "fusion_lat": 0.0}, {"bike_id": "b170c7793c6f381c34db74104fa0ab56", "fusion_lon": 0.0, "lon": -77.02015383333334, "name": "b170c7793c6f381c34db74104fa0ab56", "is_disabled": 0, "rental_uris": {"android": "https://dc.lft.to/lastmile_qr_scan", "ios": "https://dc.lft.to/lastmile_qr_scan"}, "type": "electric_scooter", "lat": 38.930195166666664, "is_reserved": 0, "fusion_lat": 0.0}, {"bike_id": "1c0f256e03b2d9c49b36a1d0613d7f35", "fusion_lon": 0.0, "lon": -77.026583, "name": "1c0f256e03b2d9c49b36a1d0613d7f35", "is_disabled": 0, "rental_uris": {"android": "https://dc.lft.to/lastmile_qr_scan", "ios": "https://dc.lft.to/lastmile_qr_scan"}, "type": "electric_scooter", "lat": 38.89696083333333, "is_reserved": 0, "fusion_lat": 0.0}, {"bike_id": "14e63ad1b450786c9ef4d5528761aea4", "fusion_lon": 0.0, "lon": -77.04278566666666, "name": "14e63ad1b450786c9ef4d5528761aea4", "is_disabled": 0, "rental_uris": {"android": "https://dc.lft.to/lastmile_qr_scan", "ios": "https://dc.lft.to/lastmile_qr_scan"}, "type": "electric_scooter", "lat": 38.90566416666667, "is_reserved": 0, "fusion_lat": 0.0}, {"bike_id": "289aff557e27a95b0258fc1082ee3e0c", "fusion_lon": 0.0, "lon": -77.0381105, "name": "289aff557e27a95b0258fc1082ee3e0c", "is_disabled": 0, "rental_uris": {"android": "https://dc.lft.to/lastmile_qr_scan", "ios": "https://dc.lft.to/lastmile_qr_scan"}, "type": "electric_scooter", "lat": 38.925058, "is_reserved": 0, "fusion_lat": 0.0}, {"bike_id": "32f48efa36990b37a70f31c06ac1b747", "fusion_lon": 0.0, "lon": -76.98615316666667, "name": "32f48efa36990b37a70f31c06ac1b747", "is_disabled": 0, "rental_uris": {"android": "https://dc.lft.to/lastmile_qr_scan", "ios": "https://dc.lft.to/lastmile_qr_scan"}, "type": "electric_scooter", "lat": 38.938271666666665, "is_reserved": 0, "fusion_lat": 0.0}, {"bike_id": "53c1d196efe9a826dc214271161bd1ad", "fusion_lon": 0.0, "lon": -77.02705116666667, "name": "53c1d196efe9a826dc214271161bd1ad", "is_disabled": 0, "rental_uris": {"android": "https://dc.lft.to/lastmile_qr_scan", "ios": "https://dc.lft.to/lastmile_qr_scan"}, "type": "electric_scooter", "lat": 38.90672633333333, "is_reserved": 0, "fusion_lat": 0.0}, {"bike_id": "7605cdb1ab33d4c2c21a47417af315be", "fusion_lon": 0.0, "lon": -76.9961405, "name": "7605cdb1ab33d4c2c21a47417af315be", "is_disabled": 0, "rental_uris": {"android": "https://dc.lft.to/lastmile_qr_scan", "ios": "https://dc.lft.to/lastmile_qr_scan"}, "type": "electric_scooter", "lat": 38.903662, "is_reserved": 0, "fusion_lat": 0.0}, {"bike_id": "1e6b395cdac3eee162a584ada5436b7f", "fusion_lon": 0.0, "lon": -77.04803183333334, "name": "1e6b395cdac3eee162a584ada5436b7f", "is_disabled": 0, "rental_uris": {"android": "https://dc.lft.to/lastmile_qr_scan", "ios": "https://dc.lft.to/lastmile_qr_scan"}, "type": "electric_scooter", "lat": 38.892232666666665, "is_reserved": 0, "fusion_lat": 0.0}, {"bike_id": "1dc163992955fff424d6e8090262a369", "fusion_lon": 0.0, "lon": -77.039536, "name": "1dc163992955fff424d6e8090262a369", "is_disabled": 0, "rental_uris": {"android": "https://dc.lft.to/lastmile_qr_scan", "ios": "https://dc.lft.to/lastmile_qr_scan"}, "type": "electric_scooter", "lat": 38.914074166666666, "is_reserved": 0, "fusion_lat": 0.0}, {"bike_id": "d5bcd2b52bb77358a24947210623abd3", "fusion_lon": 0.0, "lon": -77.0417635, "name": "d5bcd2b52bb77358a24947210623abd3", "is_disabled": 0, "rental_uris": {"android": "https://dc.lft.to/lastmile_qr_scan", "ios": "https://dc.lft.to/lastmile_qr_scan"}, "type": "electric_scooter", "lat": 38.91912633333333, "is_reserved": 0, "fusion_lat": 0.0}, {"bike_id": "3d47b13f73598d90253b748ff9022c91", "fusion_lon": 0.0, "lon": -76.97949483333333, "name": "3d47b13f73598d90253b748ff9022c91", "is_disabled": 0, "rental_uris": {"android": "https://dc.lft.to/lastmile_qr_scan", "ios": "https://dc.lft.to/lastmile_qr_scan"}, "type": "electric_bike", "lat": 38.899146, "is_reserved": 0, "fusion_lat": 0.0}, {"bike_id": "6c275a51af61749bb6b008c5086bad82", "fusion_lon": 0.0, "lon": -77.0417295, "name": "6c275a51af61749bb6b008c5086bad82", "is_disabled": 0, "rental_uris": {"android": "https://dc.lft.to/lastmile_qr_scan", "ios": "https://dc.lft.to/lastmile_qr_scan"}, "type": "electric_scooter", "lat": 38.9173235, "is_reserved": 0, "fusion_lat": 0.0}, {"bike_id": "6057c6a94628c67edd6179767aa809e5", "fusion_lon": 0.0, "lon": -77.03122066666667, "name": "6057c6a94628c67edd6179767aa809e5", "is_disabled": 0, "rental_uris": {"android": "https://dc.lft.to/lastmile_qr_scan", "ios": "https://dc.lft.to/lastmile_qr_scan"}, "type": "electric_scooter", "lat": 38.920157833333334, "is_reserved": 0, "fusion_lat": 0.0}, {"bike_id": "1ea916ba1bbb21a24db58ab9821d4dd9", "fusion_lon": 0.0, "lon": -76.95753500000001, "name": "1ea916ba1bbb21a24db58ab9821d4dd9", "is_disabled": 0, "rental_uris": {"android": "https://dc.lft.to/lastmile_qr_scan", "ios": "https://dc.lft.to/lastmile_qr_scan"}, "type": "electric_scooter", "lat": 38.884288, "is_reserved": 0, "fusion_lat": 0.0}, {"bike_id": "7e3299ce5acf84836756aba56c7920df", "fusion_lon": 0.0, "lon": -76.94955283333333, "name": "7e3299ce5acf84836756aba56c7920df", "is_disabled": 0, "rental_uris": {"android": "https://dc.lft.to/lastmile_qr_scan", "ios": "https://dc.lft.to/lastmile_qr_scan"}, "type": "electric_scooter", "lat": 38.904932, "is_reserved": 0, "fusion_lat": 0.0}, {"bike_id": "1ae5e357c74b20a23b10043ae39475f0", "fusion_lon": 0.0, "lon": -77.03829216666666, "name": "1ae5e357c74b20a23b10043ae39475f0", "is_disabled": 0, "rental_uris": {"android": "https://dc.lft.to/lastmile_qr_scan", "ios": "https://dc.lft.to/lastmile_qr_scan"}, "type": "electric_scooter", "lat": 38.9181615, "is_reserved": 0, "fusion_lat": 0.0}, {"bike_id": "ffb9c8a15f3d85056d8bac149da34601", "fusion_lon": 0.0, "lon": -77.03126733333333, "name": "ffb9c8a15f3d85056d8bac149da34601", "is_disabled": 0, "rental_uris": {"android": "https://dc.lft.to/lastmile_qr_scan", "ios": "https://dc.lft.to/lastmile_qr_scan"}, "type": "electric_scooter", "lat": 38.91495666666667, "is_reserved": 0, "fusion_lat": 0.0}, {"bike_id": "63770ddf2dd2be728cbf6186eb6df4b5", "fusion_lon": 0.0, "lon": -77.05064266666666, "name": "63770ddf2dd2be728cbf6186eb6df4b5", "is_disabled": 0, "rental_uris": {"android": "https://dc.lft.to/lastmile_qr_scan", "ios": "https://dc.lft.to/lastmile_qr_scan"}, "type": "electric_scooter", "lat": 38.92419, "is_reserved": 0, "fusion_lat": 0.0}, {"bike_id": "5d55c96a52043bbf815b740a82bd9895", "fusion_lon": 0.0, "lon": -76.9598215, "name": "5d55c96a52043bbf815b740a82bd9895", "is_disabled": 0, "rental_uris": {"android": "https://dc.lft.to/lastmile_qr_scan", "ios": "https://dc.lft.to/lastmile_qr_scan"}, "type": "electric_bike", "lat": 38.869913333333336, "is_reserved": 0, "fusion_lat": 0.0}, {"bike_id": "2cb6aaa9756092a69eda88307a2c4fb6", "fusion_lon": 0.0, "lon": -77.0447105, "name": "2cb6aaa9756092a69eda88307a2c4fb6", "is_disabled": 0, "rental_uris": {"android": "https://dc.lft.to/lastmile_qr_scan", "ios": "https://dc.lft.to/lastmile_qr_scan"}, "type": "electric_scooter", "lat": 38.9111875, "is_reserved": 0, "fusion_lat": 0.0}, {"bike_id": "1665d4666acb61b7ad26a706ca1bb846", "fusion_lon": 0.0, "lon": -77.024781, "name": "1665d4666acb61b7ad26a706ca1bb846", "is_disabled": 0, "rental_uris": {"android": "https://dc.lft.to/lastmile_qr_scan", "ios": "https://dc.lft.to/lastmile_qr_scan"}, "type": "electric_scooter", "lat": 38.918159, "is_reserved": 0, "fusion_lat": 0.0}, {"bike_id": "1f2af44603df683ef5fc369c777dbee3", "fusion_lon": 0.0, "lon": -76.95185833333333, "name": "1f2af44603df683ef5fc369c777dbee3", "is_disabled": 0, "rental_uris": {"android": "https://dc.lft.to/lastmile_qr_scan", "ios": "https://dc.lft.to/lastmile_qr_scan"}, "type": "electric_scooter", "lat": 38.90741, "is_reserved": 0, "fusion_lat": 0.0}, {"bike_id": "c7115822e89734f82980a34934e30337", "fusion_lon": 0.0, "lon": -77.03581716666666, "name": "c7115822e89734f82980a34934e30337", "is_disabled": 0, "rental_uris": {"android": "https://dc.lft.to/lastmile_qr_scan", "ios": "https://dc.lft.to/lastmile_qr_scan"}, "type": "electric_scooter", "lat": 38.9084405, "is_reserved": 0, "fusion_lat": 0.0}, {"bike_id": "483506be149eb68dc907280a5b669593", "fusion_lon": 0.0, "lon": -77.02361716666667, "name": "483506be149eb68dc907280a5b669593", "is_disabled": 0, "rental_uris": {"android": "https://dc.lft.to/lastmile_qr_scan", "ios": "https://dc.lft.to/lastmile_qr_scan"}, "type": "electric_scooter", "lat": 38.925144, "is_reserved": 0, "fusion_lat": 0.0}, {"bike_id": "12532b9532a147b24303093a30e4898d", "fusion_lon": 0.0, "lon": -77.08191966666666, "name": "12532b9532a147b24303093a30e4898d", "is_disabled": 0, "rental_uris": {"android": "https://dc.lft.to/lastmile_qr_scan", "ios": "https://dc.lft.to/lastmile_qr_scan"}, "type": "electric_bike", "lat": 38.855651333333334, "is_reserved": 0, "fusion_lat": 0.0}, {"bike_id": "2a3b27a31cdef495d0c66cf72df3c6d8", "fusion_lon": 0.0, "lon": -77.00569583333333, "name": "2a3b27a31cdef495d0c66cf72df3c6d8", "is_disabled": 0, "rental_uris": {"android": "https://dc.lft.to/lastmile_qr_scan", "ios": "https://dc.lft.to/lastmile_qr_scan"}, "type": "electric_scooter", "lat": 38.88504016666667, "is_reserved": 0, "fusion_lat": 0.0}, {"bike_id": "0dbef6b275edc9772b7acbb3f78b4c33", "fusion_lon": 0.0, "lon": -77.03987016666666, "name": "0dbef6b275edc9772b7acbb3f78b4c33", "is_disabled": 0, "rental_uris": {"android": "https://dc.lft.to/lastmile_qr_scan", "ios": "https://dc.lft.to/lastmile_qr_scan"}, "type": "electric_bike", "lat": 38.93331466666667, "is_reserved": 0, "fusion_lat": 0.0}, {"bike_id": "fcbbbaaea62999c788b46f005d5700e8", "fusion_lon": 0.0, "lon": -76.9373885, "name": "fcbbbaaea62999c788b46f005d5700e8", "is_disabled": 0, "rental_uris": {"android": "https://dc.lft.to/lastmile_qr_scan", "ios": "https://dc.lft.to/lastmile_qr_scan"}, "type": "electric_scooter", "lat": 38.8902, "is_reserved": 0, "fusion_lat": 0.0}, {"bike_id": "f3f90989ec6cc6ff9e8d8e2ac6688faf", "fusion_lon": 0.0, "lon": -77.00136733333333, "name": "f3f90989ec6cc6ff9e8d8e2ac6688faf", "is_disabled": 0, "rental_uris": {"android": "https://dc.lft.to/lastmile_qr_scan", "ios": "https://dc.lft.to/lastmile_qr_scan"}, "type": "electric_scooter", "lat": 38.9051785, "is_reserved": 0, "fusion_lat": 0.0}, {"bike_id": "279dc996e6da872f8f8324f308dab961", "fusion_lon": 0.0, "lon": -77.041766, "name": "279dc996e6da872f8f8324f308dab961", "is_disabled": 0, "rental_uris": {"android": "https://dc.lft.to/lastmile_qr_scan", "ios": "https://dc.lft.to/lastmile_qr_scan"}, "type": "electric_scooter", "lat": 38.905797166666666, "is_reserved": 0, "fusion_lat": 0.0}, {"bike_id": "197522d7e205d286b83cb91be520f60b", "fusion_lon": 0.0, "lon": -77.04406916666667, "name": "197522d7e205d286b83cb91be520f60b", "is_disabled": 0, "rental_uris": {"android": "https://dc.lft.to/lastmile_qr_scan", "ios": "https://dc.lft.to/lastmile_qr_scan"}, "type": "electric_scooter", "lat": 38.920700333333336, "is_reserved": 0, "fusion_lat": 0.0}, {"bike_id": "5dbed3e727cdd796dbdd40815f6ebb7d", "fusion_lon": 0.0, "lon": -77.03288466666666, "name": "5dbed3e727cdd796dbdd40815f6ebb7d", "is_disabled": 0, "rental_uris": {"android": "https://dc.lft.to/lastmile_qr_scan", "ios": "https://dc.lft.to/lastmile_qr_scan"}, "type": "electric_scooter", "lat": 38.92946233333333, "is_reserved": 0, "fusion_lat": 0.0}, {"bike_id": "4e120040f5751e69fca1f2ba3fd0f764", "fusion_lon": 0.0, "lon": -76.9897805, "name": "4e120040f5751e69fca1f2ba3fd0f764", "is_disabled": 0, "rental_uris": {"android": "https://dc.lft.to/lastmile_qr_scan", "ios": "https://dc.lft.to/lastmile_qr_scan"}, "type": "electric_scooter", "lat": 38.86514316666667, "is_reserved": 0, "fusion_lat": 0.0}, {"bike_id": "faf935a1f607de130148fa77b5d2db0a", "fusion_lon": 0.0, "lon": -77.01779433333333, "name": "faf935a1f607de130148fa77b5d2db0a", "is_disabled": 0, "rental_uris": {"android": "https://dc.lft.to/lastmile_qr_scan", "ios": "https://dc.lft.to/lastmile_qr_scan"}, "type": "electric_scooter", "lat": 38.907798, "is_reserved": 0, "fusion_lat": 0.0}, {"bike_id": "834129d4030a7daf512116fa6a6b841c", "fusion_lon": 0.0, "lon": -77.04352983333334, "name": "834129d4030a7daf512116fa6a6b841c", "is_disabled": 0, "rental_uris": {"android": "https://dc.lft.to/lastmile_qr_scan", "ios": "https://dc.lft.to/lastmile_qr_scan"}, "type": "electric_scooter", "lat": 38.90333716666667, "is_reserved": 0, "fusion_lat": 0.0}, {"bike_id": "182de7fd64dbf233f72bb0d758758724", "fusion_lon": 0.0, "lon": -77.00539666666667, "name": "182de7fd64dbf233f72bb0d758758724", "is_disabled": 0, "rental_uris": {"android": "https://dc.lft.to/lastmile_qr_scan", "ios": "https://dc.lft.to/lastmile_qr_scan"}, "type": "electric_scooter", "lat": 38.8754805, "is_reserved": 0, "fusion_lat": 0.0}, {"bike_id": "578bbb48bfc7c5c9d66c6f020aff535b", "fusion_lon": 0.0, "lon": -76.93754016666666, "name": "578bbb48bfc7c5c9d66c6f020aff535b", "is_disabled": 0, "rental_uris": {"android": "https://dc.lft.to/lastmile_qr_scan", "ios": "https://dc.lft.to/lastmile_qr_scan"}, "type": "electric_scooter", "lat": 38.89047716666666, "is_reserved": 0, "fusion_lat": 0.0}, {"bike_id": "88abe29733786d10452da5bd0f95dd41", "fusion_lon": 0.0, "lon": -77.03237033333333, "name": "88abe29733786d10452da5bd0f95dd41", "is_disabled": 0, "rental_uris": {"android": "https://dc.lft.to/lastmile_qr_scan", "ios": "https://dc.lft.to/lastmile_qr_scan"}, "type": "electric_scooter", "lat": 38.961559, "is_reserved": 0, "fusion_lat": 0.0}, {"bike_id": "64a87734fc1454f80e9e4c2be5aa2806", "fusion_lon": 0.0, "lon": -76.99528533333333, "name": "64a87734fc1454f80e9e4c2be5aa2806", "is_disabled": 0, "rental_uris": {"android": "https://dc.lft.to/lastmile_qr_scan", "ios": "https://dc.lft.to/lastmile_qr_scan"}, "type": "electric_scooter", "lat": 38.86247266666667, "is_reserved": 0, "fusion_lat": 0.0}, {"bike_id": "ed5a41e2ca1cbdbb0c6287a4fe247307", "fusion_lon": 0.0, "lon": -77.04328066666666, "name": "ed5a41e2ca1cbdbb0c6287a4fe247307", "is_disabled": 0, "rental_uris": {"android": "https://dc.lft.to/lastmile_qr_scan", "ios": "https://dc.lft.to/lastmile_qr_scan"}, "type": "electric_scooter", "lat": 38.8922425, "is_reserved": 0, "fusion_lat": 0.0}, {"bike_id": "f2a0710e6974ef9227c320d141d18ec2", "fusion_lon": 0.0, "lon": -77.02369216666666, "name": "f2a0710e6974ef9227c320d141d18ec2", "is_disabled": 0, "rental_uris": {"android": "https://dc.lft.to/lastmile_qr_scan", "ios": "https://dc.lft.to/lastmile_qr_scan"}, "type": "electric_bike", "lat": 38.87937983333333, "is_reserved": 0, "fusion_lat": 0.0}, {"bike_id": "2d802ee253e4f583691324ea67e0c13e", "fusion_lon": 0.0, "lon": -76.97174383333333, "name": "2d802ee253e4f583691324ea67e0c13e", "is_disabled": 0, "rental_uris": {"android": "https://dc.lft.to/lastmile_qr_scan", "ios": "https://dc.lft.to/lastmile_qr_scan"}, "type": "electric_bike", "lat": 38.91645783333333, "is_reserved": 0, "fusion_lat": 0.0}, {"bike_id": "76dd12b5379b9ddb63d0225df35af170", "fusion_lon": 0.0, "lon": -77.0317465, "name": "76dd12b5379b9ddb63d0225df35af170", "is_disabled": 0, "rental_uris": {"android": "https://dc.lft.to/lastmile_qr_scan", "ios": "https://dc.lft.to/lastmile_qr_scan"}, "type": "electric_scooter", "lat": 38.902445166666666, "is_reserved": 0, "fusion_lat": 0.0}, {"bike_id": "3f249cd2b5da5961283a166e8908e4f2", "fusion_lon": 0.0, "lon": -77.0207505, "name": "3f249cd2b5da5961283a166e8908e4f2", "is_disabled": 0, "rental_uris": {"android": "https://dc.lft.to/lastmile_qr_scan", "ios": "https://dc.lft.to/lastmile_qr_scan"}, "type": "electric_scooter", "lat": 38.897407333333334, "is_reserved": 0, "fusion_lat": 0.0}, {"bike_id": "441adeca4448c4fa1f8fc96f35d2c641", "fusion_lon": 0.0, "lon": -77.04172416666667, "name": "441adeca4448c4fa1f8fc96f35d2c641", "is_disabled": 0, "rental_uris": {"android": "https://dc.lft.to/lastmile_qr_scan", "ios": "https://dc.lft.to/lastmile_qr_scan"}, "type": "electric_scooter", "lat": 38.903671, "is_reserved": 0, "fusion_lat": 0.0}, {"bike_id": "25da491fe68caf5d1466e9174c568716", "fusion_lon": 0.0, "lon": -77.0217055, "name": "25da491fe68caf5d1466e9174c568716", "is_disabled": 0, "rental_uris": {"android": "https://dc.lft.to/lastmile_qr_scan", "ios": "https://dc.lft.to/lastmile_qr_scan"}, "type": "electric_scooter", "lat": 38.883318833333334, "is_reserved": 0, "fusion_lat": 0.0}, {"bike_id": "9a125f040f13cfd1d119f09bbc8f0340", "fusion_lon": 0.0, "lon": -77.23319183333334, "name": "9a125f040f13cfd1d119f09bbc8f0340", "is_disabled": 0, "rental_uris": {"android": "https://dc.lft.to/lastmile_qr_scan", "ios": "https://dc.lft.to/lastmile_qr_scan"}, "type": "electric_bike", "lat": 38.87286266666667, "is_reserved": 0, "fusion_lat": 0.0}, {"bike_id": "e28452f99910d04e35797233096d86db", "fusion_lon": 0.0, "lon": -77.04698283333333, "name": "e28452f99910d04e35797233096d86db", "is_disabled": 0, "rental_uris": {"android": "https://dc.lft.to/lastmile_qr_scan", "ios": "https://dc.lft.to/lastmile_qr_scan"}, "type": "electric_scooter", "lat": 38.9096515, "is_reserved": 0, "fusion_lat": 0.0}, {"bike_id": "a49924f414690cb226c47c705e93096e", "fusion_lon": 0.0, "lon": -77.24446333333333, "name": "a49924f414690cb226c47c705e93096e", "is_disabled": 0, "rental_uris": {"android": "https://dc.lft.to/lastmile_qr_scan", "ios": "https://dc.lft.to/lastmile_qr_scan"}, "type": "electric_bike", "lat": 38.88194466666667, "is_reserved": 0, "fusion_lat": 0.0}, {"bike_id": "0e3b698aa1b5abb806706f385399d077", "fusion_lon": 0.0, "lon": -77.00353116666666, "name": "0e3b698aa1b5abb806706f385399d077", "is_disabled": 0, "rental_uris": {"android": "https://dc.lft.to/lastmile_qr_scan", "ios": "https://dc.lft.to/lastmile_qr_scan"}, "type": "electric_scooter", "lat": 38.901461, "is_reserved": 0, "fusion_lat": 0.0}, {"bike_id": "c2c09653a508331f9f680ea4213bc3f3", "fusion_lon": 0.0, "lon": -77.04328183333334, "name": "c2c09653a508331f9f680ea4213bc3f3", "is_disabled": 0, "rental_uris": {"android": "https://dc.lft.to/lastmile_qr_scan", "ios": "https://dc.lft.to/lastmile_qr_scan"}, "type": "electric_scooter", "lat": 38.8922735, "is_reserved": 0, "fusion_lat": 0.0}, {"bike_id": "147e5136fcbafaab19814643f6bd8c98", "fusion_lon": 0.0, "lon": -77.03281316666667, "name": "147e5136fcbafaab19814643f6bd8c98", "is_disabled": 0, "rental_uris": {"android": "https://dc.lft.to/lastmile_qr_scan", "ios": "https://dc.lft.to/lastmile_qr_scan"}, "type": "electric_scooter", "lat": 38.928655666666664, "is_reserved": 0, "fusion_lat": 0.0}, {"bike_id": "a93858835ac79e47d1785daa8d77f996", "fusion_lon": 0.0, "lon": -76.9983485, "name": "a93858835ac79e47d1785daa8d77f996", "is_disabled": 0, "rental_uris": {"android": "https://dc.lft.to/lastmile_qr_scan", "ios": "https://dc.lft.to/lastmile_qr_scan"}, "type": "electric_scooter", "lat": 38.90074716666667, "is_reserved": 0, "fusion_lat": 0.0}, {"bike_id": "588301ba9dfecbb7b2ee571e6cce13c5", "fusion_lon": 0.0, "lon": -77.02178933333333, "name": "588301ba9dfecbb7b2ee571e6cce13c5", "is_disabled": 0, "rental_uris": {"android": "https://dc.lft.to/lastmile_qr_scan", "ios": "https://dc.lft.to/lastmile_qr_scan"}, "type": "electric_scooter", "lat": 38.924970333333334, "is_reserved": 0, "fusion_lat": 0.0}, {"bike_id": "0a42490019078d115358f2a4709ee7f7", "fusion_lon": 0.0, "lon": -77.07524066666667, "name": "0a42490019078d115358f2a4709ee7f7", "is_disabled": 0, "rental_uris": {"android": "https://dc.lft.to/lastmile_qr_scan", "ios": "https://dc.lft.to/lastmile_qr_scan"}, "type": "electric_scooter", "lat": 38.9088455, "is_reserved": 0, "fusion_lat": 0.0}, {"bike_id": "4cd9e0151f8db2269c795f3725e72537", "fusion_lon": 0.0, "lon": -76.9860705, "name": "4cd9e0151f8db2269c795f3725e72537", "is_disabled": 0, "rental_uris": {"android": "https://dc.lft.to/lastmile_qr_scan", "ios": "https://dc.lft.to/lastmile_qr_scan"}, "type": "electric_scooter", "lat": 38.878341666666664, "is_reserved": 0, "fusion_lat": 0.0}, {"bike_id": "69acd781a980d123b820ddaee7dde217", "fusion_lon": 0.0, "lon": -77.06504566666666, "name": "69acd781a980d123b820ddaee7dde217", "is_disabled": 0, "rental_uris": {"android": "https://dc.lft.to/lastmile_qr_scan", "ios": "https://dc.lft.to/lastmile_qr_scan"}, "type": "electric_bike", "lat": 38.9687275, "is_reserved": 0, "fusion_lat": 0.0}, {"bike_id": "7d5c557b1ef90d7dabe887b20dc37553", "fusion_lon": 0.0, "lon": -77.059272, "name": "7d5c557b1ef90d7dabe887b20dc37553", "is_disabled": 0, "rental_uris": {"android": "https://dc.lft.to/lastmile_qr_scan", "ios": "https://dc.lft.to/lastmile_qr_scan"}, "type": "electric_scooter", "lat": 38.91147216666667, "is_reserved": 0, "fusion_lat": 0.0}, {"bike_id": "197fcb02eee2ee510e507105ae105f4b", "fusion_lon": 0.0, "lon": -77.03950116666667, "name": "197fcb02eee2ee510e507105ae105f4b", "is_disabled": 0, "rental_uris": {"android": "https://dc.lft.to/lastmile_qr_scan", "ios": "https://dc.lft.to/lastmile_qr_scan"}, "type": "electric_scooter", "lat": 38.92619783333333, "is_reserved": 0, "fusion_lat": 0.0}, {"bike_id": "be038d4ee6bc5b7592fd69154c76eb31", "fusion_lon": 0.0, "lon": -77.0136235, "name": "be038d4ee6bc5b7592fd69154c76eb31", "is_disabled": 0, "rental_uris": {"android": "https://dc.lft.to/lastmile_qr_scan", "ios": "https://dc.lft.to/lastmile_qr_scan"}, "type": "electric_scooter", "lat": 38.92881533333333, "is_reserved": 0, "fusion_lat": 0.0}, {"bike_id": "b68a438743f5b90bc405ab95a1c6f550", "fusion_lon": 0.0, "lon": -76.96907083333333, "name": "b68a438743f5b90bc405ab95a1c6f550", "is_disabled": 0, "rental_uris": {"android": "https://dc.lft.to/lastmile_qr_scan", "ios": "https://dc.lft.to/lastmile_qr_scan"}, "type": "electric_bike", "lat": 38.8461245, "is_reserved": 0, "fusion_lat": 0.0}, {"bike_id": "046ba148bde35ba80662049c1a2ac86c", "fusion_lon": 0.0, "lon": -76.94934866666667, "name": "046ba148bde35ba80662049c1a2ac86c", "is_disabled": 0, "rental_uris": {"android": "https://dc.lft.to/lastmile_qr_scan", "ios": "https://dc.lft.to/lastmile_qr_scan"}, "type": "electric_scooter", "lat": 38.893474, "is_reserved": 0, "fusion_lat": 0.0}, {"bike_id": "da0643ef80b5a19c1a589eaef314fb06", "fusion_lon": 0.0, "lon": -77.04507616666666, "name": "da0643ef80b5a19c1a589eaef314fb06", "is_disabled": 0, "rental_uris": {"android": "https://dc.lft.to/lastmile_qr_scan", "ios": "https://dc.lft.to/lastmile_qr_scan"}, "type": "electric_bike", "lat": 38.8428685, "is_reserved": 0, "fusion_lat": 0.0}, {"bike_id": "0459e6c846724e6382377434c7c05547", "fusion_lon": 0.0, "lon": -77.04687416666667, "name": "0459e6c846724e6382377434c7c05547", "is_disabled": 0, "rental_uris": {"android": "https://dc.lft.to/lastmile_qr_scan", "ios": "https://dc.lft.to/lastmile_qr_scan"}, "type": "electric_scooter", "lat": 38.892232, "is_reserved": 0, "fusion_lat": 0.0}, {"bike_id": "ac014f72ce5a3803dfc3fd08c6f3aebe", "fusion_lon": 0.0, "lon": -77.03246466666667, "name": "ac014f72ce5a3803dfc3fd08c6f3aebe", "is_disabled": 0, "rental_uris": {"android": "https://dc.lft.to/lastmile_qr_scan", "ios": "https://dc.lft.to/lastmile_qr_scan"}, "type": "electric_scooter", "lat": 38.90000233333333, "is_reserved": 0, "fusion_lat": 0.0}, {"bike_id": "d8957ff17affe8a953e4648ecbae663a", "fusion_lon": 0.0, "lon": -77.04260583333334, "name": "d8957ff17affe8a953e4648ecbae663a", "is_disabled": 0, "rental_uris": {"android": "https://dc.lft.to/lastmile_qr_scan", "ios": "https://dc.lft.to/lastmile_qr_scan"}, "type": "electric_scooter", "lat": 38.908604, "is_reserved": 0, "fusion_lat": 0.0}, {"bike_id": "82111983ee651bd765c79b372036897c", "fusion_lon": 0.0, "lon": -77.03875783333334, "name": "82111983ee651bd765c79b372036897c", "is_disabled": 0, "rental_uris": {"android": "https://dc.lft.to/lastmile_qr_scan", "ios": "https://dc.lft.to/lastmile_qr_scan"}, "type": "electric_scooter", "lat": 38.90622116666667, "is_reserved": 0, "fusion_lat": 0.0}, {"bike_id": "de1e61a18d6a3f616f6d6f67281303b8", "fusion_lon": 0.0, "lon": -77.03103816666666, "name": "de1e61a18d6a3f616f6d6f67281303b8", "is_disabled": 0, "rental_uris": {"android": "https://dc.lft.to/lastmile_qr_scan", "ios": "https://dc.lft.to/lastmile_qr_scan"}, "type": "electric_scooter", "lat": 38.95074916666667, "is_reserved": 0, "fusion_lat": 0.0}, {"bike_id": "72a23226d09ffe528b67382a554e72ba", "fusion_lon": 0.0, "lon": -77.04173266666666, "name": "72a23226d09ffe528b67382a554e72ba", "is_disabled": 0, "rental_uris": {"android": "https://dc.lft.to/lastmile_qr_scan", "ios": "https://dc.lft.to/lastmile_qr_scan"}, "type": "electric_scooter", "lat": 38.91731016666667, "is_reserved": 0, "fusion_lat": 0.0}, {"bike_id": "2ef72c505c1ca7b4edafcd688554e070", "fusion_lon": 0.0, "lon": -77.0320295, "name": "2ef72c505c1ca7b4edafcd688554e070", "is_disabled": 0, "rental_uris": {"android": "https://dc.lft.to/lastmile_qr_scan", "ios": "https://dc.lft.to/lastmile_qr_scan"}, "type": "electric_scooter", "lat": 38.90925583333333, "is_reserved": 0, "fusion_lat": 0.0}, {"bike_id": "4e9b827cf0ef711d807c69c7767bcb99", "fusion_lon": 0.0, "lon": -76.98381233333333, "name": "4e9b827cf0ef711d807c69c7767bcb99", "is_disabled": 0, "rental_uris": {"android": "https://dc.lft.to/lastmile_qr_scan", "ios": "https://dc.lft.to/lastmile_qr_scan"}, "type": "electric_scooter", "lat": 38.861271333333335, "is_reserved": 0, "fusion_lat": 0.0}, {"bike_id": "00132a9caf9da44036ab8b5f3d2e6c9d", "fusion_lon": 0.0, "lon": -77.03262916666667, "name": "00132a9caf9da44036ab8b5f3d2e6c9d", "is_disabled": 0, "rental_uris": {"android": "https://dc.lft.to/lastmile_qr_scan", "ios": "https://dc.lft.to/lastmile_qr_scan"}, "type": "electric_scooter", "lat": 38.93896866666667, "is_reserved": 0, "fusion_lat": 0.0}, {"bike_id": "e823d453b319649915a7169d0b113225", "fusion_lon": 0.0, "lon": -77.06352733333334, "name": "e823d453b319649915a7169d0b113225", "is_disabled": 0, "rental_uris": {"android": "https://dc.lft.to/lastmile_qr_scan", "ios": "https://dc.lft.to/lastmile_qr_scan"}, "type": "electric_scooter", "lat": 38.94451433333333, "is_reserved": 0, "fusion_lat": 0.0}, {"bike_id": "ab1512a3c463f4ff3d2b32493f7abd6c", "fusion_lon": 0.0, "lon": -76.99529866666667, "name": "ab1512a3c463f4ff3d2b32493f7abd6c", "is_disabled": 0, "rental_uris": {"android": "https://dc.lft.to/lastmile_qr_scan", "ios": "https://dc.lft.to/lastmile_qr_scan"}, "type": "electric_scooter", "lat": 38.86248416666667, "is_reserved": 0, "fusion_lat": 0.0}, {"bike_id": "1c245688a05b539913868e4ff2225e4a", "fusion_lon": 0.0, "lon": -77.01201683333333, "name": "1c245688a05b539913868e4ff2225e4a", "is_disabled": 0, "rental_uris": {"android": "https://dc.lft.to/lastmile_qr_scan", "ios": "https://dc.lft.to/lastmile_qr_scan"}, "type": "electric_scooter", "lat": 38.900141, "is_reserved": 0, "fusion_lat": 0.0}, {"bike_id": "84199ff6de1ab25e95bfeb2375438e43", "fusion_lon": 0.0, "lon": -76.99698683333334, "name": "84199ff6de1ab25e95bfeb2375438e43", "is_disabled": 0, "rental_uris": {"android": "https://dc.lft.to/lastmile_qr_scan", "ios": "https://dc.lft.to/lastmile_qr_scan"}, "type": "electric_scooter", "lat": 38.88420633333333, "is_reserved": 0, "fusion_lat": 0.0}, {"bike_id": "2b591591b22b2b33553a3de452c042e6", "fusion_lon": 0.0, "lon": -76.98111783333333, "name": "2b591591b22b2b33553a3de452c042e6", "is_disabled": 0, "rental_uris": {"android": "https://dc.lft.to/lastmile_qr_scan", "ios": "https://dc.lft.to/lastmile_qr_scan"}, "type": "electric_scooter", "lat": 38.914684, "is_reserved": 0, "fusion_lat": 0.0}, {"bike_id": "f5c7c153fc4e672955e524da6631545e", "fusion_lon": 0.0, "lon": -77.01799666666666, "name": "f5c7c153fc4e672955e524da6631545e", "is_disabled": 0, "rental_uris": {"android": "https://dc.lft.to/lastmile_qr_scan", "ios": "https://dc.lft.to/lastmile_qr_scan"}, "type": "electric_scooter", "lat": 38.876758333333335, "is_reserved": 0, "fusion_lat": 0.0}, {"bike_id": "fce9ef9ac6d57c3228aa9be7f15f5d8a", "fusion_lon": 0.0, "lon": -77.03188566666667, "name": "fce9ef9ac6d57c3228aa9be7f15f5d8a", "is_disabled": 0, "rental_uris": {"android": "https://dc.lft.to/lastmile_qr_scan", "ios": "https://dc.lft.to/lastmile_qr_scan"}, "type": "electric_scooter", "lat": 38.923874833333336, "is_reserved": 0, "fusion_lat": 0.0}, {"bike_id": "0d52b4ff3a82f8216191cccc7689b9cd", "fusion_lon": 0.0, "lon": -77.02202416666667, "name": "0d52b4ff3a82f8216191cccc7689b9cd", "is_disabled": 0, "rental_uris": {"android": "https://dc.lft.to/lastmile_qr_scan", "ios": "https://dc.lft.to/lastmile_qr_scan"}, "type": "electric_scooter", "lat": 38.91102683333333, "is_reserved": 0, "fusion_lat": 0.0}, {"bike_id": "40c4a8523b11b40b5b858179a54fe2ec", "fusion_lon": 0.0, "lon": -77.03321133333333, "name": "40c4a8523b11b40b5b858179a54fe2ec", "is_disabled": 0, "rental_uris": {"android": "https://dc.lft.to/lastmile_qr_scan", "ios": "https://dc.lft.to/lastmile_qr_scan"}, "type": "electric_scooter", "lat": 38.9215995, "is_reserved": 0, "fusion_lat": 0.0}, {"bike_id": "d8e8156cf37a5a56d1a2e70a7f8e2b91", "fusion_lon": 0.0, "lon": -77.04357733333333, "name": "d8e8156cf37a5a56d1a2e70a7f8e2b91", "is_disabled": 0, "rental_uris": {"android": "https://dc.lft.to/lastmile_qr_scan", "ios": "https://dc.lft.to/lastmile_qr_scan"}, "type": "electric_scooter", "lat": 38.904001666666666, "is_reserved": 0, "fusion_lat": 0.0}, {"bike_id": "413aa5600a69cebd770c9b736124f3f8", "fusion_lon": 0.0, "lon": -77.005787, "name": "413aa5600a69cebd770c9b736124f3f8", "is_disabled": 0, "rental_uris": {"android": "https://dc.lft.to/lastmile_qr_scan", "ios": "https://dc.lft.to/lastmile_qr_scan"}, "type": "electric_scooter", "lat": 38.873209333333335, "is_reserved": 0, "fusion_lat": 0.0}, {"bike_id": "2401c55002d11c501c3434a968fa134c", "fusion_lon": 0.0, "lon": -77.02912116666667, "name": "2401c55002d11c501c3434a968fa134c", "is_disabled": 0, "rental_uris": {"android": "https://dc.lft.to/lastmile_qr_scan", "ios": "https://dc.lft.to/lastmile_qr_scan"}, "type": "electric_scooter", "lat": 38.898446, "is_reserved": 0, "fusion_lat": 0.0}, {"bike_id": "b0f733e38d6da6c9bc3bd25c276014db", "fusion_lon": 0.0, "lon": -77.03196, "name": "b0f733e38d6da6c9bc3bd25c276014db", "is_disabled": 0, "rental_uris": {"android": "https://dc.lft.to/lastmile_qr_scan", "ios": "https://dc.lft.to/lastmile_qr_scan"}, "type": "electric_scooter", "lat": 38.91351433333333, "is_reserved": 0, "fusion_lat": 0.0}, {"bike_id": "5513006b7fc44a2d1f984337a6fd7725", "fusion_lon": 0.0, "lon": -77.0343605, "name": "5513006b7fc44a2d1f984337a6fd7725", "is_disabled": 0, "rental_uris": {"android": "https://dc.lft.to/lastmile_qr_scan", "ios": "https://dc.lft.to/lastmile_qr_scan"}, "type": "electric_scooter", "lat": 38.909762666666666, "is_reserved": 0, "fusion_lat": 0.0}, {"bike_id": "b633096145a7e35bb0ff879f169b6cc0", "fusion_lon": 0.0, "lon": -77.05011, "name": "b633096145a7e35bb0ff879f169b6cc0", "is_disabled": 0, "rental_uris": {"android": "https://dc.lft.to/lastmile_qr_scan", "ios": "https://dc.lft.to/lastmile_qr_scan"}, "type": "electric_scooter", "lat": 38.9055925, "is_reserved": 0, "fusion_lat": 0.0}, {"bike_id": "a6cb72edaa81fc605829336ad5fc47d4", "fusion_lon": 0.0, "lon": -77.03298133333334, "name": "a6cb72edaa81fc605829336ad5fc47d4", "is_disabled": 0, "rental_uris": {"android": "https://dc.lft.to/lastmile_qr_scan", "ios": "https://dc.lft.to/lastmile_qr_scan"}, "type": "electric_scooter", "lat": 38.947123166666664, "is_reserved": 0, "fusion_lat": 0.0}, {"bike_id": "8689abccac3371b6086a112dea885d2f", "fusion_lon": 0.0, "lon": -77.04185216666667, "name": "8689abccac3371b6086a112dea885d2f", "is_disabled": 0, "rental_uris": {"android": "https://dc.lft.to/lastmile_qr_scan", "ios": "https://dc.lft.to/lastmile_qr_scan"}, "type": "electric_scooter", "lat": 38.89291333333333, "is_reserved": 0, "fusion_lat": 0.0}, {"bike_id": "8e92950f4c77cd97e0e66f8d5fdb3b96", "fusion_lon": 0.0, "lon": -77.01022916666666, "name": "8e92950f4c77cd97e0e66f8d5fdb3b96", "is_disabled": 0, "rental_uris": {"android": "https://dc.lft.to/lastmile_qr_scan", "ios": "https://dc.lft.to/lastmile_qr_scan"}, "type": "electric_scooter", "lat": 38.91708216666667, "is_reserved": 0, "fusion_lat": 0.0}, {"bike_id": "0aaa4b035d40ea09054a8cf3cf5f5c50", "fusion_lon": 0.0, "lon": -77.04005683333334, "name": "0aaa4b035d40ea09054a8cf3cf5f5c50", "is_disabled": 0, "rental_uris": {"android": "https://dc.lft.to/lastmile_qr_scan", "ios": "https://dc.lft.to/lastmile_qr_scan"}, "type": "electric_scooter", "lat": 38.91828133333333, "is_reserved": 0, "fusion_lat": 0.0}, {"bike_id": "01a1e6c95eabd901304ad3693ea9a00f", "fusion_lon": 0.0, "lon": -77.02492266666667, "name": "01a1e6c95eabd901304ad3693ea9a00f", "is_disabled": 0, "rental_uris": {"android": "https://dc.lft.to/lastmile_qr_scan", "ios": "https://dc.lft.to/lastmile_qr_scan"}, "type": "electric_scooter", "lat": 38.941865, "is_reserved": 0, "fusion_lat": 0.0}, {"bike_id": "651dabdd4e218a6107c00068010b2d9f", "fusion_lon": 0.0, "lon": -76.99122416666667, "name": "651dabdd4e218a6107c00068010b2d9f", "is_disabled": 0, "rental_uris": {"android": "https://dc.lft.to/lastmile_qr_scan", "ios": "https://dc.lft.to/lastmile_qr_scan"}, "type": "electric_scooter", "lat": 38.86208666666667, "is_reserved": 0, "fusion_lat": 0.0}, {"bike_id": "0629c062f69356189aeae56011789eb1", "fusion_lon": 0.0, "lon": -77.03233266666666, "name": "0629c062f69356189aeae56011789eb1", "is_disabled": 0, "rental_uris": {"android": "https://dc.lft.to/lastmile_qr_scan", "ios": "https://dc.lft.to/lastmile_qr_scan"}, "type": "electric_scooter", "lat": 38.91922183333333, "is_reserved": 0, "fusion_lat": 0.0}, {"bike_id": "f9e7c702c64acddd6e3be59d286397a6", "fusion_lon": 0.0, "lon": -77.02884316666666, "name": "f9e7c702c64acddd6e3be59d286397a6", "is_disabled": 0, "rental_uris": {"android": "https://dc.lft.to/lastmile_qr_scan", "ios": "https://dc.lft.to/lastmile_qr_scan"}, "type": "electric_scooter", "lat": 38.917174833333334, "is_reserved": 0, "fusion_lat": 0.0}, {"bike_id": "f649efa34e6939efe8ca8330a9e13c42", "fusion_lon": 0.0, "lon": -77.017961, "name": "f649efa34e6939efe8ca8330a9e13c42", "is_disabled": 0, "rental_uris": {"android": "https://dc.lft.to/lastmile_qr_scan", "ios": "https://dc.lft.to/lastmile_qr_scan"}, "type": "electric_scooter", "lat": 38.90823533333333, "is_reserved": 0, "fusion_lat": 0.0}, {"bike_id": "4aacee0b668f48722926dadd4b259eaa", "fusion_lon": 0.0, "lon": -77.016553, "name": "4aacee0b668f48722926dadd4b259eaa", "is_disabled": 0, "rental_uris": {"android": "https://dc.lft.to/lastmile_qr_scan", "ios": "https://dc.lft.to/lastmile_qr_scan"}, "type": "electric_scooter", "lat": 38.9158745, "is_reserved": 0, "fusion_lat": 0.0}, {"bike_id": "cc158ba9391c14df2c41ed2adfebd875", "fusion_lon": 0.0, "lon": -77.03694616666667, "name": "cc158ba9391c14df2c41ed2adfebd875", "is_disabled": 0, "rental_uris": {"android": "https://dc.lft.to/lastmile_qr_scan", "ios": "https://dc.lft.to/lastmile_qr_scan"}, "type": "electric_scooter", "lat": 38.926461833333335, "is_reserved": 0, "fusion_lat": 0.0}, {"bike_id": "3e0b0f31f7cb4eafab4a60e8d86e0cca", "fusion_lon": 0.0, "lon": -76.990896, "name": "3e0b0f31f7cb4eafab4a60e8d86e0cca", "is_disabled": 0, "rental_uris": {"android": "https://dc.lft.to/lastmile_qr_scan", "ios": "https://dc.lft.to/lastmile_qr_scan"}, "type": "electric_scooter", "lat": 38.929545166666664, "is_reserved": 0, "fusion_lat": 0.0}, {"bike_id": "92c495e8db7a3c2d068b639a719556e0", "fusion_lon": 0.0, "lon": -77.025852, "name": "92c495e8db7a3c2d068b639a719556e0", "is_disabled": 0, "rental_uris": {"android": "https://dc.lft.to/lastmile_qr_scan", "ios": "https://dc.lft.to/lastmile_qr_scan"}, "type": "electric_scooter", "lat": 38.88365566666667, "is_reserved": 0, "fusion_lat": 0.0}, {"bike_id": "c421e4aeec87b41a9b320bc5392f0049", "fusion_lon": 0.0, "lon": -77.0233015, "name": "c421e4aeec87b41a9b320bc5392f0049", "is_disabled": 0, "rental_uris": {"android": "https://dc.lft.to/lastmile_qr_scan", "ios": "https://dc.lft.to/lastmile_qr_scan"}, "type": "electric_scooter", "lat": 38.9270525, "is_reserved": 0, "fusion_lat": 0.0}, {"bike_id": "229ea72dc7e20b3b7008c7f366cac595", "fusion_lon": 0.0, "lon": -77.03962383333334, "name": "229ea72dc7e20b3b7008c7f366cac595", "is_disabled": 0, "rental_uris": {"android": "https://dc.lft.to/lastmile_qr_scan", "ios": "https://dc.lft.to/lastmile_qr_scan"}, "type": "electric_scooter", "lat": 38.9061295, "is_reserved": 0, "fusion_lat": 0.0}, {"bike_id": "01918aabe7812d9956e30f90ef987841", "fusion_lon": 0.0, "lon": -77.03446466666666, "name": "01918aabe7812d9956e30f90ef987841", "is_disabled": 0, "rental_uris": {"android": "https://dc.lft.to/lastmile_qr_scan", "ios": "https://dc.lft.to/lastmile_qr_scan"}, "type": "electric_scooter", "lat": 38.907644166666664, "is_reserved": 0, "fusion_lat": 0.0}, {"bike_id": "675388bc34d6f0e15f63aaf411fd2ff0", "fusion_lon": 0.0, "lon": -77.03513516666666, "name": "675388bc34d6f0e15f63aaf411fd2ff0", "is_disabled": 0, "rental_uris": {"android": "https://dc.lft.to/lastmile_qr_scan", "ios": "https://dc.lft.to/lastmile_qr_scan"}, "type": "electric_scooter", "lat": 38.92632366666667, "is_reserved": 0, "fusion_lat": 0.0}, {"bike_id": "f75684e73fee697b4027f494bcece8f6", "fusion_lon": 0.0, "lon": -77.04106666666667, "name": "f75684e73fee697b4027f494bcece8f6", "is_disabled": 0, "rental_uris": {"android": "https://dc.lft.to/lastmile_qr_scan", "ios": "https://dc.lft.to/lastmile_qr_scan"}, "type": "electric_scooter", "lat": 38.9244355, "is_reserved": 0, "fusion_lat": 0.0}, {"bike_id": "0076dddaf8e3727f053e24c1c725ec1d", "fusion_lon": 0.0, "lon": -76.98883483333333, "name": "0076dddaf8e3727f053e24c1c725ec1d", "is_disabled": 0, "rental_uris": {"android": "https://dc.lft.to/lastmile_qr_scan", "ios": "https://dc.lft.to/lastmile_qr_scan"}, "type": "electric_scooter", "lat": 38.866591166666666, "is_reserved": 0, "fusion_lat": 0.0}, {"bike_id": "456570e5b9e5b425bd186397611f6c8e", "fusion_lon": 0.0, "lon": -76.98252316666667, "name": "456570e5b9e5b425bd186397611f6c8e", "is_disabled": 0, "rental_uris": {"android": "https://dc.lft.to/lastmile_qr_scan", "ios": "https://dc.lft.to/lastmile_qr_scan"}, "type": "electric_bike", "lat": 38.9533125, "is_reserved": 0, "fusion_lat": 0.0}, {"bike_id": "364fe1aa6c2fa79d281e57b44537ca4e", "fusion_lon": 0.0, "lon": -77.04486216666666, "name": "364fe1aa6c2fa79d281e57b44537ca4e", "is_disabled": 0, "rental_uris": {"android": "https://dc.lft.to/lastmile_qr_scan", "ios": "https://dc.lft.to/lastmile_qr_scan"}, "type": "electric_scooter", "lat": 38.901084, "is_reserved": 0, "fusion_lat": 0.0}, {"bike_id": "14e45e5700a4dfd64cf1d1b53b2b1d4b", "fusion_lon": 0.0, "lon": -77.02379016666667, "name": "14e45e5700a4dfd64cf1d1b53b2b1d4b", "is_disabled": 0, "rental_uris": {"android": "https://dc.lft.to/lastmile_qr_scan", "ios": "https://dc.lft.to/lastmile_qr_scan"}, "type": "electric_scooter", "lat": 38.919592333333334, "is_reserved": 0, "fusion_lat": 0.0}, {"bike_id": "2b7ea24d1067358d19775752740aa1de", "fusion_lon": 0.0, "lon": -77.02421316666667, "name": "2b7ea24d1067358d19775752740aa1de", "is_disabled": 0, "rental_uris": {"android": "https://dc.lft.to/lastmile_qr_scan", "ios": "https://dc.lft.to/lastmile_qr_scan"}, "type": "electric_scooter", "lat": 38.905893166666665, "is_reserved": 0, "fusion_lat": 0.0}, {"bike_id": "4e3ba5ff0d4ef638fd6beab99e75f494", "fusion_lon": 0.0, "lon": -77.07915833333334, "name": "4e3ba5ff0d4ef638fd6beab99e75f494", "is_disabled": 0, "rental_uris": {"android": "https://dc.lft.to/lastmile_qr_scan", "ios": "https://dc.lft.to/lastmile_qr_scan"}, "type": "electric_bike", "lat": 38.80225016666667, "is_reserved": 0, "fusion_lat": 0.0}, {"bike_id": "79fa635d6a4b6c9c5dd364b931783751", "fusion_lon": 0.0, "lon": -77.0138785, "name": "79fa635d6a4b6c9c5dd364b931783751", "is_disabled": 0, "rental_uris": {"android": "https://dc.lft.to/lastmile_qr_scan", "ios": "https://dc.lft.to/lastmile_qr_scan"}, "type": "electric_scooter", "lat": 38.928620333333335, "is_reserved": 0, "fusion_lat": 0.0}, {"bike_id": "74b01cad82340620154b13bcdf761dee", "fusion_lon": 0.0, "lon": -76.98704266666667, "name": "74b01cad82340620154b13bcdf761dee", "is_disabled": 0, "rental_uris": {"android": "https://dc.lft.to/lastmile_qr_scan", "ios": "https://dc.lft.to/lastmile_qr_scan"}, "type": "electric_scooter", "lat": 38.859632833333336, "is_reserved": 0, "fusion_lat": 0.0}, {"bike_id": "02e909365a673b56968bd82376d89534", "fusion_lon": 0.0, "lon": -76.9883985, "name": "02e909365a673b56968bd82376d89534", "is_disabled": 0, "rental_uris": {"android": "https://dc.lft.to/lastmile_qr_scan", "ios": "https://dc.lft.to/lastmile_qr_scan"}, "type": "electric_bike", "lat": 38.84273133333333, "is_reserved": 0, "fusion_lat": 0.0}, {"bike_id": "81d85cdec9b98ab08f1a3ce14ff5097e", "fusion_lon": 0.0, "lon": -77.160881, "name": "81d85cdec9b98ab08f1a3ce14ff5097e", "is_disabled": 0, "rental_uris": {"android": "https://dc.lft.to/lastmile_qr_scan", "ios": "https://dc.lft.to/lastmile_qr_scan"}, "type": "electric_bike", "lat": 38.886865, "is_reserved": 0, "fusion_lat": 0.0}, {"bike_id": "67c10510641be6162b4221999d5e46f3", "fusion_lon": 0.0, "lon": -77.023044, "name": "67c10510641be6162b4221999d5e46f3", "is_disabled": 0, "rental_uris": {"android": "https://dc.lft.to/lastmile_qr_scan", "ios": "https://dc.lft.to/lastmile_qr_scan"}, "type": "electric_scooter", "lat": 38.91784116666667, "is_reserved": 0, "fusion_lat": 0.0}, {"bike_id": "6411f08a7361028132ff573f0ab121d1", "fusion_lon": 0.0, "lon": -77.02962416666666, "name": "6411f08a7361028132ff573f0ab121d1", "is_disabled": 0, "rental_uris": {"android": "https://dc.lft.to/lastmile_qr_scan", "ios": "https://dc.lft.to/lastmile_qr_scan"}, "type": "electric_scooter", "lat": 38.92257266666667, "is_reserved": 0, "fusion_lat": 0.0}, {"bike_id": "17c03e887aecde5e81d15be0b126241e", "fusion_lon": 0.0, "lon": -77.01987916666667, "name": "17c03e887aecde5e81d15be0b126241e", "is_disabled": 0, "rental_uris": {"android": "https://dc.lft.to/lastmile_qr_scan", "ios": "https://dc.lft.to/lastmile_qr_scan"}, "type": "electric_scooter", "lat": 38.9312325, "is_reserved": 0, "fusion_lat": 0.0}, {"bike_id": "4045eea339c9c500489d055fb90dc99a", "fusion_lon": 0.0, "lon": -76.93735416666667, "name": "4045eea339c9c500489d055fb90dc99a", "is_disabled": 0, "rental_uris": {"android": "https://dc.lft.to/lastmile_qr_scan", "ios": "https://dc.lft.to/lastmile_qr_scan"}, "type": "electric_scooter", "lat": 38.890171, "is_reserved": 0, "fusion_lat": 0.0}, {"bike_id": "f3aff50c4f1b0ed62b08471b38dad64e", "fusion_lon": 0.0, "lon": -77.0282055, "name": "f3aff50c4f1b0ed62b08471b38dad64e", "is_disabled": 0, "rental_uris": {"android": "https://dc.lft.to/lastmile_qr_scan", "ios": "https://dc.lft.to/lastmile_qr_scan"}, "type": "electric_scooter", "lat": 38.9206455, "is_reserved": 0, "fusion_lat": 0.0}, {"bike_id": "c9a0f14a0c1f57dad722a20e4fdc7f39", "fusion_lon": 0.0, "lon": -77.03548783333333, "name": "c9a0f14a0c1f57dad722a20e4fdc7f39", "is_disabled": 0, "rental_uris": {"android": "https://dc.lft.to/lastmile_qr_scan", "ios": "https://dc.lft.to/lastmile_qr_scan"}, "type": "electric_scooter", "lat": 38.9081915, "is_reserved": 0, "fusion_lat": 0.0}, {"bike_id": "a1abbd64f0330d00a0ffca2bc9ccd481", "fusion_lon": 0.0, "lon": -77.0261725, "name": "a1abbd64f0330d00a0ffca2bc9ccd481", "is_disabled": 0, "rental_uris": {"android": "https://dc.lft.to/lastmile_qr_scan", "ios": "https://dc.lft.to/lastmile_qr_scan"}, "type": "electric_bike", "lat": 38.969247333333335, "is_reserved": 0, "fusion_lat": 0.0}, {"bike_id": "09e00f2bf48013dd3e3f92038a669876", "fusion_lon": 0.0, "lon": -77.03846766666666, "name": "09e00f2bf48013dd3e3f92038a669876", "is_disabled": 0, "rental_uris": {"android": "https://dc.lft.to/lastmile_qr_scan", "ios": "https://dc.lft.to/lastmile_qr_scan"}, "type": "electric_scooter", "lat": 38.91011533333333, "is_reserved": 0, "fusion_lat": 0.0}, {"bike_id": "f6f4f29e38b9c03730c1d61a4d11ea49", "fusion_lon": 0.0, "lon": -77.0342535, "name": "f6f4f29e38b9c03730c1d61a4d11ea49", "is_disabled": 0, "rental_uris": {"android": "https://dc.lft.to/lastmile_qr_scan", "ios": "https://dc.lft.to/lastmile_qr_scan"}, "type": "electric_bike", "lat": 38.966171333333335, "is_reserved": 0, "fusion_lat": 0.0}, {"bike_id": "6211f05701725098c914a95987ae532f", "fusion_lon": 0.0, "lon": -76.98711433333334, "name": "6211f05701725098c914a95987ae532f", "is_disabled": 0, "rental_uris": {"android": "https://dc.lft.to/lastmile_qr_scan", "ios": "https://dc.lft.to/lastmile_qr_scan"}, "type": "electric_scooter", "lat": 38.866989833333335, "is_reserved": 0, "fusion_lat": 0.0}, {"bike_id": "162a2267d301d1a21204f3206cd02cd7", "fusion_lon": 0.0, "lon": -76.96529383333333, "name": "162a2267d301d1a21204f3206cd02cd7", "is_disabled": 0, "rental_uris": {"android": "https://dc.lft.to/lastmile_qr_scan", "ios": "https://dc.lft.to/lastmile_qr_scan"}, "type": "electric_scooter", "lat": 38.87630866666667, "is_reserved": 0, "fusion_lat": 0.0}, {"bike_id": "da5f704c316182ecbba9820460874608", "fusion_lon": 0.0, "lon": -77.03649066666667, "name": "da5f704c316182ecbba9820460874608", "is_disabled": 0, "rental_uris": {"android": "https://dc.lft.to/lastmile_qr_scan", "ios": "https://dc.lft.to/lastmile_qr_scan"}, "type": "electric_scooter", "lat": 38.90619866666667, "is_reserved": 0, "fusion_lat": 0.0}, {"bike_id": "01e9c41a744a7a97df6614de5b69e174", "fusion_lon": 0.0, "lon": -77.00403583333333, "name": "01e9c41a744a7a97df6614de5b69e174", "is_disabled": 0, "rental_uris": {"android": "https://dc.lft.to/lastmile_qr_scan", "ios": "https://dc.lft.to/lastmile_qr_scan"}, "type": "electric_scooter", "lat": 38.8765805, "is_reserved": 0, "fusion_lat": 0.0}, {"bike_id": "fb8186b20ce371c5f375ae22e7f8293b", "fusion_lon": 0.0, "lon": -77.03528283333333, "name": "fb8186b20ce371c5f375ae22e7f8293b", "is_disabled": 0, "rental_uris": {"android": "https://dc.lft.to/lastmile_qr_scan", "ios": "https://dc.lft.to/lastmile_qr_scan"}, "type": "electric_scooter", "lat": 38.916878, "is_reserved": 0, "fusion_lat": 0.0}, {"bike_id": "ccd5a3859ae526af4f78ac4a3e456f1a", "fusion_lon": 0.0, "lon": -77.022016, "name": "ccd5a3859ae526af4f78ac4a3e456f1a", "is_disabled": 0, "rental_uris": {"android": "https://dc.lft.to/lastmile_qr_scan", "ios": "https://dc.lft.to/lastmile_qr_scan"}, "type": "electric_scooter", "lat": 38.9110115, "is_reserved": 0, "fusion_lat": 0.0}, {"bike_id": "6c842b8aa08c25183367a14af15378c2", "fusion_lon": 0.0, "lon": -76.96525266666667, "name": "6c842b8aa08c25183367a14af15378c2", "is_disabled": 0, "rental_uris": {"android": "https://dc.lft.to/lastmile_qr_scan", "ios": "https://dc.lft.to/lastmile_qr_scan"}, "type": "electric_scooter", "lat": 38.876316333333335, "is_reserved": 0, "fusion_lat": 0.0}, {"bike_id": "4fad4ad6b5a9c0846a79d01c05ebf3e9", "fusion_lon": 0.0, "lon": -77.11799716666667, "name": "4fad4ad6b5a9c0846a79d01c05ebf3e9", "is_disabled": 0, "rental_uris": {"android": "https://dc.lft.to/lastmile_qr_scan", "ios": "https://dc.lft.to/lastmile_qr_scan"}, "type": "electric_bike", "lat": 38.87375933333333, "is_reserved": 0, "fusion_lat": 0.0}, {"bike_id": "bf60a4a822939ee2de56dadff5576c49", "fusion_lon": 0.0, "lon": -77.03260033333333, "name": "bf60a4a822939ee2de56dadff5576c49", "is_disabled": 0, "rental_uris": {"android": "https://dc.lft.to/lastmile_qr_scan", "ios": "https://dc.lft.to/lastmile_qr_scan"}, "type": "electric_scooter", "lat": 38.90408083333333, "is_reserved": 0, "fusion_lat": 0.0}, {"bike_id": "321e3a21e4deefa311e1b2e192eb1315", "fusion_lon": 0.0, "lon": -77.04132783333333, "name": "321e3a21e4deefa311e1b2e192eb1315", "is_disabled": 0, "rental_uris": {"android": "https://dc.lft.to/lastmile_qr_scan", "ios": "https://dc.lft.to/lastmile_qr_scan"}, "type": "electric_scooter", "lat": 38.92140366666667, "is_reserved": 0, "fusion_lat": 0.0}, {"bike_id": "5e577fff5fd56e074f99cedd4fb88ccf", "fusion_lon": 0.0, "lon": -77.034068, "name": "5e577fff5fd56e074f99cedd4fb88ccf", "is_disabled": 0, "rental_uris": {"android": "https://dc.lft.to/lastmile_qr_scan", "ios": "https://dc.lft.to/lastmile_qr_scan"}, "type": "electric_scooter", "lat": 38.903538833333336, "is_reserved": 0, "fusion_lat": 0.0}, {"bike_id": "06d3d5e459572e50de6393aa8ac9407c", "fusion_lon": 0.0, "lon": -76.99795766666666, "name": "06d3d5e459572e50de6393aa8ac9407c", "is_disabled": 0, "rental_uris": {"android": "https://dc.lft.to/lastmile_qr_scan", "ios": "https://dc.lft.to/lastmile_qr_scan"}, "type": "electric_scooter", "lat": 38.87492066666667, "is_reserved": 0, "fusion_lat": 0.0}, {"bike_id": "f9e1988f299373b92543de2ebd636e5c", "fusion_lon": 0.0, "lon": -76.98359316666667, "name": "f9e1988f299373b92543de2ebd636e5c", "is_disabled": 0, "rental_uris": {"android": "https://dc.lft.to/lastmile_qr_scan", "ios": "https://dc.lft.to/lastmile_qr_scan"}, "type": "electric_scooter", "lat": 38.906302, "is_reserved": 0, "fusion_lat": 0.0}, {"bike_id": "900fde17a4d2933f8bc771f3b2429ae9", "fusion_lon": 0.0, "lon": -76.9991035, "name": "900fde17a4d2933f8bc771f3b2429ae9", "is_disabled": 0, "rental_uris": {"android": "https://dc.lft.to/lastmile_qr_scan", "ios": "https://dc.lft.to/lastmile_qr_scan"}, "type": "electric_scooter", "lat": 38.9469255, "is_reserved": 0, "fusion_lat": 0.0}, {"bike_id": "1e176b2dea8378b30da92cbb763b5032", "fusion_lon": 0.0, "lon": -77.0132035, "name": "1e176b2dea8378b30da92cbb763b5032", "is_disabled": 0, "rental_uris": {"android": "https://dc.lft.to/lastmile_qr_scan", "ios": "https://dc.lft.to/lastmile_qr_scan"}, "type": "electric_scooter", "lat": 38.93029766666667, "is_reserved": 0, "fusion_lat": 0.0}, {"bike_id": "72de456354bd9bed9217ab3e36e5b4f9", "fusion_lon": 0.0, "lon": -77.02308116666667, "name": "72de456354bd9bed9217ab3e36e5b4f9", "is_disabled": 0, "rental_uris": {"android": "https://dc.lft.to/lastmile_qr_scan", "ios": "https://dc.lft.to/lastmile_qr_scan"}, "type": "electric_scooter", "lat": 38.9177475, "is_reserved": 0, "fusion_lat": 0.0}, {"bike_id": "df43c2fba76769b5758f34e55bf37164", "fusion_lon": 0.0, "lon": -77.07723283333333, "name": "df43c2fba76769b5758f34e55bf37164", "is_disabled": 0, "rental_uris": {"android": "https://dc.lft.to/lastmile_qr_scan", "ios": "https://dc.lft.to/lastmile_qr_scan"}, "type": "electric_scooter", "lat": 38.957643833333336, "is_reserved": 0, "fusion_lat": 0.0}, {"bike_id": "3db786aa2a7b3f636a213777838ffbd5", "fusion_lon": 0.0, "lon": -77.0270605, "name": "3db786aa2a7b3f636a213777838ffbd5", "is_disabled": 0, "rental_uris": {"android": "https://dc.lft.to/lastmile_qr_scan", "ios": "https://dc.lft.to/lastmile_qr_scan"}, "type": "electric_scooter", "lat": 38.90668566666667, "is_reserved": 0, "fusion_lat": 0.0}, {"bike_id": "9a8f64fc75911d1e7f55a27cf030e271", "fusion_lon": 0.0, "lon": -77.0234935, "name": "9a8f64fc75911d1e7f55a27cf030e271", "is_disabled": 0, "rental_uris": {"android": "https://dc.lft.to/lastmile_qr_scan", "ios": "https://dc.lft.to/lastmile_qr_scan"}, "type": "electric_scooter", "lat": 38.9461555, "is_reserved": 0, "fusion_lat": 0.0}, {"bike_id": "bca5207b90e7229863fb42c281462242", "fusion_lon": 0.0, "lon": -77.01570966666667, "name": "bca5207b90e7229863fb42c281462242", "is_disabled": 0, "rental_uris": {"android": "https://dc.lft.to/lastmile_qr_scan", "ios": "https://dc.lft.to/lastmile_qr_scan"}, "type": "electric_scooter", "lat": 38.926821, "is_reserved": 0, "fusion_lat": 0.0}, {"bike_id": "2dd6b879216a9bda0aa03885d87ba6b8", "fusion_lon": 0.0, "lon": -77.02225616666666, "name": "2dd6b879216a9bda0aa03885d87ba6b8", "is_disabled": 0, "rental_uris": {"android": "https://dc.lft.to/lastmile_qr_scan", "ios": "https://dc.lft.to/lastmile_qr_scan"}, "type": "electric_scooter", "lat": 38.896229, "is_reserved": 0, "fusion_lat": 0.0}, {"bike_id": "f0b8828981956bda96674dd3acb28e20", "fusion_lon": 0.0, "lon": -76.9870955, "name": "f0b8828981956bda96674dd3acb28e20", "is_disabled": 0, "rental_uris": {"android": "https://dc.lft.to/lastmile_qr_scan", "ios": "https://dc.lft.to/lastmile_qr_scan"}, "type": "electric_scooter", "lat": 38.866990666666666, "is_reserved": 0, "fusion_lat": 0.0}, {"bike_id": "ea07837352b9865ee70db267154213d0", "fusion_lon": 0.0, "lon": -77.03270683333334, "name": "ea07837352b9865ee70db267154213d0", "is_disabled": 0, "rental_uris": {"android": "https://dc.lft.to/lastmile_qr_scan", "ios": "https://dc.lft.to/lastmile_qr_scan"}, "type": "electric_scooter", "lat": 38.914079, "is_reserved": 0, "fusion_lat": 0.0}, {"bike_id": "438e1ea49e439b332eb20147c9aae5db", "fusion_lon": 0.0, "lon": -77.02089333333333, "name": "438e1ea49e439b332eb20147c9aae5db", "is_disabled": 0, "rental_uris": {"android": "https://dc.lft.to/lastmile_qr_scan", "ios": "https://dc.lft.to/lastmile_qr_scan"}, "type": "electric_scooter", "lat": 38.93111866666667, "is_reserved": 0, "fusion_lat": 0.0}, {"bike_id": "86ed60d8c82c4f2d91900d5b44926468", "fusion_lon": 0.0, "lon": -77.01904233333333, "name": "86ed60d8c82c4f2d91900d5b44926468", "is_disabled": 0, "rental_uris": {"android": "https://dc.lft.to/lastmile_qr_scan", "ios": "https://dc.lft.to/lastmile_qr_scan"}, "type": "electric_scooter", "lat": 38.915103, "is_reserved": 0, "fusion_lat": 0.0}, {"bike_id": "e3dc714d89f4c72f8c189c5d3599a647", "fusion_lon": 0.0, "lon": -77.05910983333334, "name": "e3dc714d89f4c72f8c189c5d3599a647", "is_disabled": 0, "rental_uris": {"android": "https://dc.lft.to/lastmile_qr_scan", "ios": "https://dc.lft.to/lastmile_qr_scan"}, "type": "electric_scooter", "lat": 38.90501666666667, "is_reserved": 0, "fusion_lat": 0.0}, {"bike_id": "aab85742c6ef3852a99758b24e3aaa9a", "fusion_lon": 0.0, "lon": -76.978377, "name": "aab85742c6ef3852a99758b24e3aaa9a", "is_disabled": 0, "rental_uris": {"android": "https://dc.lft.to/lastmile_qr_scan", "ios": "https://dc.lft.to/lastmile_qr_scan"}, "type": "electric_bike", "lat": 38.87070216666667, "is_reserved": 0, "fusion_lat": 0.0}, {"bike_id": "3f5d4492c44776aba9b60b0cd31945ec", "fusion_lon": 0.0, "lon": -77.029717, "name": "3f5d4492c44776aba9b60b0cd31945ec", "is_disabled": 0, "rental_uris": {"android": "https://dc.lft.to/lastmile_qr_scan", "ios": "https://dc.lft.to/lastmile_qr_scan"}, "type": "electric_scooter", "lat": 38.932309000000004, "is_reserved": 0, "fusion_lat": 0.0}, {"bike_id": "eef967e90acf6026bc01675a100d5520", "fusion_lon": 0.0, "lon": -77.02640966666667, "name": "eef967e90acf6026bc01675a100d5520", "is_disabled": 0, "rental_uris": {"android": "https://dc.lft.to/lastmile_qr_scan", "ios": "https://dc.lft.to/lastmile_qr_scan"}, "type": "electric_scooter", "lat": 38.902389666666664, "is_reserved": 0, "fusion_lat": 0.0}, {"bike_id": "df2114fe47fc6a616886dba8101cc5be", "fusion_lon": 0.0, "lon": -77.0535385, "name": "df2114fe47fc6a616886dba8101cc5be", "is_disabled": 0, "rental_uris": {"android": "https://dc.lft.to/lastmile_qr_scan", "ios": "https://dc.lft.to/lastmile_qr_scan"}, "type": "electric_scooter", "lat": 38.926572166666666, "is_reserved": 0, "fusion_lat": 0.0}, {"bike_id": "b30e3d9f6a08098bef25cc6cd2095a1e", "fusion_lon": 0.0, "lon": -77.007142, "name": "b30e3d9f6a08098bef25cc6cd2095a1e", "is_disabled": 0, "rental_uris": {"android": "https://dc.lft.to/lastmile_qr_scan", "ios": "https://dc.lft.to/lastmile_qr_scan"}, "type": "electric_scooter", "lat": 38.905934, "is_reserved": 0, "fusion_lat": 0.0}, {"bike_id": "ef95f81798c488ba773dc107144a9381", "fusion_lon": 0.0, "lon": -76.99334, "name": "ef95f81798c488ba773dc107144a9381", "is_disabled": 0, "rental_uris": {"android": "https://dc.lft.to/lastmile_qr_scan", "ios": "https://dc.lft.to/lastmile_qr_scan"}, "type": "electric_scooter", "lat": 38.87144133333334, "is_reserved": 0, "fusion_lat": 0.0}, {"bike_id": "1fca994cfe1eee78358337fdc2f2827a", "fusion_lon": 0.0, "lon": -76.93735416666667, "name": "1fca994cfe1eee78358337fdc2f2827a", "is_disabled": 0, "rental_uris": {"android": "https://dc.lft.to/lastmile_qr_scan", "ios": "https://dc.lft.to/lastmile_qr_scan"}, "type": "electric_scooter", "lat": 38.89016066666667, "is_reserved": 0, "fusion_lat": 0.0}, {"bike_id": "51c707ad44d75438082ed6450b775f86", "fusion_lon": 0.0, "lon": -77.0385595, "name": "51c707ad44d75438082ed6450b775f86", "is_disabled": 0, "rental_uris": {"android": "https://dc.lft.to/lastmile_qr_scan", "ios": "https://dc.lft.to/lastmile_qr_scan"}, "type": "electric_scooter", "lat": 38.86749983333333, "is_reserved": 0, "fusion_lat": 0.0}, {"bike_id": "2de7ffe6f20ae36ea1ba13d5d3209096", "fusion_lon": 0.0, "lon": -77.0173415, "name": "2de7ffe6f20ae36ea1ba13d5d3209096", "is_disabled": 0, "rental_uris": {"android": "https://dc.lft.to/lastmile_qr_scan", "ios": "https://dc.lft.to/lastmile_qr_scan"}, "type": "electric_scooter", "lat": 38.975192166666666, "is_reserved": 0, "fusion_lat": 0.0}, {"bike_id": "b0844a058d18ac4907083ddd1887a86c", "fusion_lon": 0.0, "lon": -76.98867133333333, "name": "b0844a058d18ac4907083ddd1887a86c", "is_disabled": 0, "rental_uris": {"android": "https://dc.lft.to/lastmile_qr_scan", "ios": "https://dc.lft.to/lastmile_qr_scan"}, "type": "electric_bike", "lat": 38.954805666666665, "is_reserved": 0, "fusion_lat": 0.0}, {"bike_id": "22c7736cfb9d6f37c1a8d018b81d7099", "fusion_lon": 0.0, "lon": -76.9480135, "name": "22c7736cfb9d6f37c1a8d018b81d7099", "is_disabled": 0, "rental_uris": {"android": "https://dc.lft.to/lastmile_qr_scan", "ios": "https://dc.lft.to/lastmile_qr_scan"}, "type": "electric_bike", "lat": 38.89399233333333, "is_reserved": 0, "fusion_lat": 0.0}, {"bike_id": "f83ee4f861aba37ddaab8a857854ea43", "fusion_lon": 0.0, "lon": -76.98615183333334, "name": "f83ee4f861aba37ddaab8a857854ea43", "is_disabled": 0, "rental_uris": {"android": "https://dc.lft.to/lastmile_qr_scan", "ios": "https://dc.lft.to/lastmile_qr_scan"}, "type": "electric_scooter", "lat": 38.93828533333333, "is_reserved": 0, "fusion_lat": 0.0}, {"bike_id": "8c8b2d0ddff6d9276e6cff1ae6062447", "fusion_lon": 0.0, "lon": -77.0432635, "name": "8c8b2d0ddff6d9276e6cff1ae6062447", "is_disabled": 0, "rental_uris": {"android": "https://dc.lft.to/lastmile_qr_scan", "ios": "https://dc.lft.to/lastmile_qr_scan"}, "type": "electric_scooter", "lat": 38.899538666666665, "is_reserved": 0, "fusion_lat": 0.0}, {"bike_id": "cd68d7984d930584ddea1565dc6bf253", "fusion_lon": 0.0, "lon": -77.0416555, "name": "cd68d7984d930584ddea1565dc6bf253", "is_disabled": 0, "rental_uris": {"android": "https://dc.lft.to/lastmile_qr_scan", "ios": "https://dc.lft.to/lastmile_qr_scan"}, "type": "electric_scooter", "lat": 38.9165115, "is_reserved": 0, "fusion_lat": 0.0}, {"bike_id": "02ee8d42151c92fc0de21a5c4c837435", "fusion_lon": 0.0, "lon": -76.993916, "name": "02ee8d42151c92fc0de21a5c4c837435", "is_disabled": 0, "rental_uris": {"android": "https://dc.lft.to/lastmile_qr_scan", "ios": "https://dc.lft.to/lastmile_qr_scan"},