{"data": {"bikes": [{"fusion_lon": 0.0, "bike_id": "9137dfe824e6bfd7f27ac7f04d452cdb", "name": "9137dfe824e6bfd7f27ac7f04d452cdb", "type": "electric_scooter", "lon": -77.00594816666667, "rental_uris": {"android": "https://dc.lft.to/lastmile_qr_scan", "ios": "https://dc.lft.to/lastmile_qr_scan"}, "lat": 38.927599, "is_reserved": 0, "is_disabled": 0, "fusion_lat": 0.0}, {"fusion_lon": 0.0, "bike_id": "4abeca0bc4432cf6f3ffc266d97d05fe", "name": "4abeca0bc4432cf6f3ffc266d97d05fe", "type": "electric_scooter", "lon": -77.06530283333333, "rental_uris": {"android": "https://dc.lft.to/lastmile_qr_scan", "ios": "https://dc.lft.to/lastmile_qr_scan"}, "lat": 38.911298, "is_reserved": 0, "is_disabled": 0, "fusion_lat": 0.0}, {"fusion_lon": 0.0, "bike_id": "54dfcceabf584c32d5933901a63a97c0", "name": "54dfcceabf584c32d5933901a63a97c0", "type": "electric_scooter", "lon": -77.03442083333333, "rental_uris": {"android": "https://dc.lft.to/lastmile_qr_scan", "ios": "https://dc.lft.to/lastmile_qr_scan"}, "lat": 38.91807, "is_reserved": 0, "is_disabled": 0, "fusion_lat": 0.0}, {"fusion_lon": 0.0, "bike_id": "a57440a80d15a3bdcdb4a7285499d7e9", "name": "a57440a80d15a3bdcdb4a7285499d7e9", "type": "electric_scooter", "lon": -77.0265135, "rental_uris": {"android": "https://dc.lft.to/lastmile_qr_scan", "ios": "https://dc.lft.to/lastmile_qr_scan"}, "lat": 38.93870316666667, "is_reserved": 0, "is_disabled": 0, "fusion_lat": 0.0}, {"fusion_lon": 0.0, "bike_id": "06c9c3b6ac09ad44fd93c5d455be941f", "name": "06c9c3b6ac09ad44fd93c5d455be941f", "type": "electric_scooter", "lon": -76.941971, "rental_uris": {"android": "https://dc.lft.to/lastmile_qr_scan", "ios": "https://dc.lft.to/lastmile_qr_scan"}, "lat": 38.893754333333334, "is_reserved": 0, "is_disabled": 0, "fusion_lat": 0.0}, {"fusion_lon": 0.0, "bike_id": "bd031d433f6bd9743d07303ac437d863", "name": "bd031d433f6bd9743d07303ac437d863", "type": "electric_scooter", "lon": -77.032062, "rental_uris": {"android": "https://dc.lft.to/lastmile_qr_scan", "ios": "https://dc.lft.to/lastmile_qr_scan"}, "lat": 38.91399216666667, "is_reserved": 0, "is_disabled": 0, "fusion_lat": 0.0}, {"fusion_lon": 0.0, "bike_id": "d901e72c2863ba4bbbc906efaf4f521f", "name": "d901e72c2863ba4bbbc906efaf4f521f", "type": "electric_bike", "lon": -77.099619, "rental_uris": {"android": "https://dc.lft.to/lastmile_qr_scan", "ios": "https://dc.lft.to/lastmile_qr_scan"}, "lat": 38.857927833333335, "is_reserved": 0, "is_disabled": 0, "fusion_lat": 0.0}, {"fusion_lon": 0.0, "bike_id": "eb6fe0d02c6c2d2ba97b6fff722ab5f5", "name": "eb6fe0d02c6c2d2ba97b6fff722ab5f5", "type": "electric_scooter", "lon": -77.03861933333333, "rental_uris": {"android": "https://dc.lft.to/lastmile_qr_scan", "ios": "https://dc.lft.to/lastmile_qr_scan"}, "lat": 38.905873166666666, "is_reserved": 0, "is_disabled": 0, "fusion_lat": 0.0}, {"fusion_lon": 0.0, "bike_id": "98d85b36f719f739c3b1874fa8b4669e", "name": "98d85b36f719f739c3b1874fa8b4669e", "type": "electric_scooter", "lon": -77.02162783333333, "rental_uris": {"android": "https://dc.lft.to/lastmile_qr_scan", "ios": "https://dc.lft.to/lastmile_qr_scan"}, "lat": 38.926163833333334, "is_reserved": 0, "is_disabled": 0, "fusion_lat": 0.0}, {"fusion_lon": 0.0, "bike_id": "8ff12b1b97acf2b4a6b7b4025d0785fd", "name": "8ff12b1b97acf2b4a6b7b4025d0785fd", "type": "electric_scooter", "lon": -77.039962, "rental_uris": {"android": "https://dc.lft.to/lastmile_qr_scan", "ios": "https://dc.lft.to/lastmile_qr_scan"}, "lat": 38.92434516666667, "is_reserved": 0, "is_disabled": 0, "fusion_lat": 0.0}, {"fusion_lon": 0.0, "bike_id": "7d568cb4c8e145b7a4805db40a810232", "name": "7d568cb4c8e145b7a4805db40a810232", "type": "electric_bike", "lon": -76.93197566666667, "rental_uris": {"android": "https://dc.lft.to/lastmile_qr_scan", "ios": "https://dc.lft.to/lastmile_qr_scan"}, "lat": 38.87234933333333, "is_reserved": 0, "is_disabled": 0, "fusion_lat": 0.0}, {"fusion_lon": 0.0, "bike_id": "7d985d5da29aa4ad3cb9366270204e02", "name": "7d985d5da29aa4ad3cb9366270204e02", "type": "electric_scooter", "lon": -77.03906883333333, "rental_uris": {"android": "https://dc.lft.to/lastmile_qr_scan", "ios": "https://dc.lft.to/lastmile_qr_scan"}, "lat": 38.91423283333334, "is_reserved": 0, "is_disabled": 0, "fusion_lat": 0.0}, {"fusion_lon": 0.0, "bike_id": "85ffb9ef1f9ce3715eb99c450e36c0dc", "name": "85ffb9ef1f9ce3715eb99c450e36c0dc", "type": "electric_scooter", "lon": -77.02320566666667, "rental_uris": {"android": "https://dc.lft.to/lastmile_qr_scan", "ios": "https://dc.lft.to/lastmile_qr_scan"}, "lat": 38.91792233333334, "is_reserved": 0, "is_disabled": 0, "fusion_lat": 0.0}, {"fusion_lon": 0.0, "bike_id": "f74bbd174f0b33ef3df1badbd0b66c9b", "name": "f74bbd174f0b33ef3df1badbd0b66c9b", "type": "electric_scooter", "lon": -77.01853483333333, "rental_uris": {"android": "https://dc.lft.to/lastmile_qr_scan", "ios": "https://dc.lft.to/lastmile_qr_scan"}, "lat": 38.95431983333334, "is_reserved": 0, "is_disabled": 0, "fusion_lat": 0.0}, {"fusion_lon": 0.0, "bike_id": "3eafcdaa4d334ae403daf765e8cd97c4", "name": "3eafcdaa4d334ae403daf765e8cd97c4", "type": "electric_scooter", "lon": -77.03154883333333, "rental_uris": {"android": "https://dc.lft.to/lastmile_qr_scan", "ios": "https://dc.lft.to/lastmile_qr_scan"}, "lat": 38.883036, "is_reserved": 0, "is_disabled": 0, "fusion_lat": 0.0}, {"fusion_lon": 0.0, "bike_id": "7fc31ebe1589721ebfc8c756cb95a621", "name": "7fc31ebe1589721ebfc8c756cb95a621", "type": "electric_scooter", "lon": -77.031881, "rental_uris": {"android": "https://dc.lft.to/lastmile_qr_scan", "ios": "https://dc.lft.to/lastmile_qr_scan"}, "lat": 38.91195233333333, "is_reserved": 0, "is_disabled": 0, "fusion_lat": 0.0}, {"fusion_lon": 0.0, "bike_id": "589cae02d2bb9683edeedc5da66ff5a5", "name": "589cae02d2bb9683edeedc5da66ff5a5", "type": "electric_scooter", "lon": -77.03259933333334, "rental_uris": {"android": "https://dc.lft.to/lastmile_qr_scan", "ios": "https://dc.lft.to/lastmile_qr_scan"}, "lat": 38.937553, "is_reserved": 0, "is_disabled": 0, "fusion_lat": 0.0}, {"fusion_lon": 0.0, "bike_id": "16fea0684917f8c31ddf6aeefe6f2bbb", "name": "16fea0684917f8c31ddf6aeefe6f2bbb", "type": "electric_scooter", "lon": -77.04251066666667, "rental_uris": {"android": "https://dc.lft.to/lastmile_qr_scan", "ios": "https://dc.lft.to/lastmile_qr_scan"}, "lat": 38.94552483333333, "is_reserved": 0, "is_disabled": 0, "fusion_lat": 0.0}, {"fusion_lon": 0.0, "bike_id": "e3f082f022b70617fbf0ef8a12004110", "name": "e3f082f022b70617fbf0ef8a12004110", "type": "electric_scooter", "lon": -76.94632633333333, "rental_uris": {"android": "https://dc.lft.to/lastmile_qr_scan", "ios": "https://dc.lft.to/lastmile_qr_scan"}, "lat": 38.898338, "is_reserved": 0, "is_disabled": 0, "fusion_lat": 0.0}, {"fusion_lon": 0.0, "bike_id": "6abb26382bb134ab7b1e3e2545b63b6e", "name": "6abb26382bb134ab7b1e3e2545b63b6e", "type": "electric_scooter", "lon": -76.99852916666667, "rental_uris": {"android": "https://dc.lft.to/lastmile_qr_scan", "ios": "https://dc.lft.to/lastmile_qr_scan"}, "lat": 38.9089825, "is_reserved": 0, "is_disabled": 0, "fusion_lat": 0.0}, {"fusion_lon": 0.0, "bike_id": "d9755a5398e4e991319ba4194324c134", "name": "d9755a5398e4e991319ba4194324c134", "type": "electric_scooter", "lon": -77.03479566666667, "rental_uris": {"android": "https://dc.lft.to/lastmile_qr_scan", "ios": "https://dc.lft.to/lastmile_qr_scan"}, "lat": 38.928701, "is_reserved": 0, "is_disabled": 0, "fusion_lat": 0.0}, {"fusion_lon": 0.0, "bike_id": "891ad41b7b71a16bf0f329494900aad4", "name": "891ad41b7b71a16bf0f329494900aad4", "type": "electric_scooter", "lon": -77.02428766666667, "rental_uris": {"android": "https://dc.lft.to/lastmile_qr_scan", "ios": "https://dc.lft.to/lastmile_qr_scan"}, "lat": 38.926503333333336, "is_reserved": 0, "is_disabled": 0, "fusion_lat": 0.0}, {"fusion_lon": 0.0, "bike_id": "26642b3c10a9ede38e67d18b231e1d59", "name": "26642b3c10a9ede38e67d18b231e1d59", "type": "electric_scooter", "lon": -77.00721666666666, "rental_uris": {"android": "https://dc.lft.to/lastmile_qr_scan", "ios": "https://dc.lft.to/lastmile_qr_scan"}, "lat": 38.896642166666666, "is_reserved": 0, "is_disabled": 0, "fusion_lat": 0.0}, {"fusion_lon": 0.0, "bike_id": "acd48e47bd91e596456366d175d2df8c", "name": "acd48e47bd91e596456366d175d2df8c", "type": "electric_scooter", "lon": -77.06393733333333, "rental_uris": {"android": "https://dc.lft.to/lastmile_qr_scan", "ios": "https://dc.lft.to/lastmile_qr_scan"}, "lat": 38.929077, "is_reserved": 0, "is_disabled": 0, "fusion_lat": 0.0}, {"fusion_lon": 0.0, "bike_id": "04616552a53de0b482cb2a237170665c", "name": "04616552a53de0b482cb2a237170665c", "type": "electric_scooter", "lon": -77.02756333333333, "rental_uris": {"android": "https://dc.lft.to/lastmile_qr_scan", "ios": "https://dc.lft.to/lastmile_qr_scan"}, "lat": 38.954153, "is_reserved": 0, "is_disabled": 0, "fusion_lat": 0.0}, {"fusion_lon": 0.0, "bike_id": "f8565be3d0cd783b33dcbd2fbca9d3ab", "name": "f8565be3d0cd783b33dcbd2fbca9d3ab", "type": "electric_scooter", "lon": -77.04507483333333, "rental_uris": {"android": "https://dc.lft.to/lastmile_qr_scan", "ios": "https://dc.lft.to/lastmile_qr_scan"}, "lat": 38.9128135, "is_reserved": 0, "is_disabled": 0, "fusion_lat": 0.0}, {"fusion_lon": 0.0, "bike_id": "cdeb48a5bff796ed6313293685b3fa8e", "name": "cdeb48a5bff796ed6313293685b3fa8e", "type": "electric_scooter", "lon": -77.023039, "rental_uris": {"android": "https://dc.lft.to/lastmile_qr_scan", "ios": "https://dc.lft.to/lastmile_qr_scan"}, "lat": 38.91619266666667, "is_reserved": 0, "is_disabled": 0, "fusion_lat": 0.0}, {"fusion_lon": 0.0, "bike_id": "8b6afdfa95a228dab1c5abdf79aa0bae", "name": "8b6afdfa95a228dab1c5abdf79aa0bae", "type": "electric_scooter", "lon": -77.06045266666666, "rental_uris": {"android": "https://dc.lft.to/lastmile_qr_scan", "ios": "https://dc.lft.to/lastmile_qr_scan"}, "lat": 38.9391335, "is_reserved": 0, "is_disabled": 0, "fusion_lat": 0.0}, {"fusion_lon": 0.0, "bike_id": "16e35e457d3f6fb34c8d29493225ee7f", "name": "16e35e457d3f6fb34c8d29493225ee7f", "type": "electric_scooter", "lon": -77.0270875, "rental_uris": {"android": "https://dc.lft.to/lastmile_qr_scan", "ios": "https://dc.lft.to/lastmile_qr_scan"}, "lat": 38.9180225, "is_reserved": 0, "is_disabled": 0, "fusion_lat": 0.0}, {"fusion_lon": 0.0, "bike_id": "db06818f3bda7343d1a941492c609293", "name": "db06818f3bda7343d1a941492c609293", "type": "electric_bike", "lon": -76.984734, "rental_uris": {"android": "https://dc.lft.to/lastmile_qr_scan", "ios": "https://dc.lft.to/lastmile_qr_scan"}, "lat": 38.891442, "is_reserved": 0, "is_disabled": 0, "fusion_lat": 0.0}, {"fusion_lon": 0.0, "bike_id": "f88ea45b47ae2eb238b6160e561154f7", "name": "f88ea45b47ae2eb238b6160e561154f7", "type": "electric_scooter", "lon": -77.0409365, "rental_uris": {"android": "https://dc.lft.to/lastmile_qr_scan", "ios": "https://dc.lft.to/lastmile_qr_scan"}, "lat": 38.901528166666665, "is_reserved": 0, "is_disabled": 0, "fusion_lat": 0.0}, {"fusion_lon": 0.0, "bike_id": "504882ff763be40f20cb016cfba24408", "name": "504882ff763be40f20cb016cfba24408", "type": "electric_scooter", "lon": -76.99530116666666, "rental_uris": {"android": "https://dc.lft.to/lastmile_qr_scan", "ios": "https://dc.lft.to/lastmile_qr_scan"}, "lat": 38.9002755, "is_reserved": 0, "is_disabled": 0, "fusion_lat": 0.0}, {"fusion_lon": 0.0, "bike_id": "c533696c9698557dc88868393d38f3ac", "name": "c533696c9698557dc88868393d38f3ac", "type": "electric_scooter", "lon": -77.03461583333333, "rental_uris": {"android": "https://dc.lft.to/lastmile_qr_scan", "ios": "https://dc.lft.to/lastmile_qr_scan"}, "lat": 38.9181175, "is_reserved": 0, "is_disabled": 0, "fusion_lat": 0.0}, {"fusion_lon": 0.0, "bike_id": "6cfa06acbabc7ff9b5dfc078e365bbd7", "name": "6cfa06acbabc7ff9b5dfc078e365bbd7", "type": "electric_scooter", "lon": -77.0222435, "rental_uris": {"android": "https://dc.lft.to/lastmile_qr_scan", "ios": "https://dc.lft.to/lastmile_qr_scan"}, "lat": 38.912702333333336, "is_reserved": 0, "is_disabled": 0, "fusion_lat": 0.0}, {"fusion_lon": 0.0, "bike_id": "f56108cf1ee3e9e610cfdde9e8f3ba3c", "name": "f56108cf1ee3e9e610cfdde9e8f3ba3c", "type": "electric_scooter", "lon": -77.02417816666667, "rental_uris": {"android": "https://dc.lft.to/lastmile_qr_scan", "ios": "https://dc.lft.to/lastmile_qr_scan"}, "lat": 38.918265, "is_reserved": 0, "is_disabled": 0, "fusion_lat": 0.0}, {"fusion_lon": 0.0, "bike_id": "c41e78cdc16bc7517cec50e5b4171345", "name": "c41e78cdc16bc7517cec50e5b4171345", "type": "electric_scooter", "lon": -77.03640333333334, "rental_uris": {"android": "https://dc.lft.to/lastmile_qr_scan", "ios": "https://dc.lft.to/lastmile_qr_scan"}, "lat": 38.91226983333333, "is_reserved": 0, "is_disabled": 0, "fusion_lat": 0.0}, {"fusion_lon": 0.0, "bike_id": "a2d759c55d74e64ceb6d8fb1151d7775", "name": "a2d759c55d74e64ceb6d8fb1151d7775", "type": "electric_scooter", "lon": -77.01439, "rental_uris": {"android": "https://dc.lft.to/lastmile_qr_scan", "ios": "https://dc.lft.to/lastmile_qr_scan"}, "lat": 38.9197085, "is_reserved": 0, "is_disabled": 0, "fusion_lat": 0.0}, {"fusion_lon": 0.0, "bike_id": "9cf5fce5da6ff494b3db9b3e5c00df06", "name": "9cf5fce5da6ff494b3db9b3e5c00df06", "type": "electric_scooter", "lon": -76.978217, "rental_uris": {"android": "https://dc.lft.to/lastmile_qr_scan", "ios": "https://dc.lft.to/lastmile_qr_scan"}, "lat": 38.8461645, "is_reserved": 0, "is_disabled": 0, "fusion_lat": 0.0}, {"fusion_lon": 0.0, "bike_id": "2c410a443834f927e29f3480f4ba0a64", "name": "2c410a443834f927e29f3480f4ba0a64", "type": "electric_bike", "lon": -76.87767133333334, "rental_uris": {"android": "https://dc.lft.to/lastmile_qr_scan", "ios": "https://dc.lft.to/lastmile_qr_scan"}, "lat": 38.99219933333333, "is_reserved": 0, "is_disabled": 0, "fusion_lat": 0.0}, {"fusion_lon": 0.0, "bike_id": "c1a3cb22017a937591fb0a53b4b5803f", "name": "c1a3cb22017a937591fb0a53b4b5803f", "type": "electric_bike", "lon": -76.96387683333333, "rental_uris": {"android": "https://dc.lft.to/lastmile_qr_scan", "ios": "https://dc.lft.to/lastmile_qr_scan"}, "lat": 38.975822, "is_reserved": 0, "is_disabled": 0, "fusion_lat": 0.0}, {"fusion_lon": 0.0, "bike_id": "3bce0538c49b6749051687144ea593b1", "name": "3bce0538c49b6749051687144ea593b1", "type": "electric_scooter", "lon": -77.00329416666666, "rental_uris": {"android": "https://dc.lft.to/lastmile_qr_scan", "ios": "https://dc.lft.to/lastmile_qr_scan"}, "lat": 38.902681333333334, "is_reserved": 0, "is_disabled": 0, "fusion_lat": 0.0}, {"fusion_lon": 0.0, "bike_id": "5f45a0a3ddb2698d2924f8c4e314d0f9", "name": "5f45a0a3ddb2698d2924f8c4e314d0f9", "type": "electric_bike", "lon": -76.98521716666667, "rental_uris": {"android": "https://dc.lft.to/lastmile_qr_scan", "ios": "https://dc.lft.to/lastmile_qr_scan"}, "lat": 38.919939166666666, "is_reserved": 0, "is_disabled": 0, "fusion_lat": 0.0}, {"fusion_lon": 0.0, "bike_id": "c338c1bdcea3b1303b6ae5b0a4afe572", "name": "c338c1bdcea3b1303b6ae5b0a4afe572", "type": "electric_bike", "lon": -76.94862716666667, "rental_uris": {"android": "https://dc.lft.to/lastmile_qr_scan", "ios": "https://dc.lft.to/lastmile_qr_scan"}, "lat": 38.889633333333336, "is_reserved": 0, "is_disabled": 0, "fusion_lat": 0.0}, {"fusion_lon": 0.0, "bike_id": "23544534fc47e4cc672f79b7808e3ea2", "name": "23544534fc47e4cc672f79b7808e3ea2", "type": "electric_scooter", "lon": -77.03420733333333, "rental_uris": {"android": "https://dc.lft.to/lastmile_qr_scan", "ios": "https://dc.lft.to/lastmile_qr_scan"}, "lat": 38.929444333333336, "is_reserved": 0, "is_disabled": 0, "fusion_lat": 0.0}, {"fusion_lon": 0.0, "bike_id": "4d1a76ab164abba1247b6ea43e2affa2", "name": "4d1a76ab164abba1247b6ea43e2affa2", "type": "electric_bike", "lon": -76.9975925, "rental_uris": {"android": "https://dc.lft.to/lastmile_qr_scan", "ios": "https://dc.lft.to/lastmile_qr_scan"}, "lat": 39.005979, "is_reserved": 0, "is_disabled": 0, "fusion_lat": 0.0}, {"fusion_lon": 0.0, "bike_id": "fb31a8e9ce1cbab91da9644d2d75294b", "name": "fb31a8e9ce1cbab91da9644d2d75294b", "type": "electric_bike", "lon": -77.02649133333334, "rental_uris": {"android": "https://dc.lft.to/lastmile_qr_scan", "ios": "https://dc.lft.to/lastmile_qr_scan"}, "lat": 38.988191666666665, "is_reserved": 0, "is_disabled": 0, "fusion_lat": 0.0}, {"fusion_lon": 0.0, "bike_id": "7688b14b23297e0b00a9e427b20f3e8d", "name": "7688b14b23297e0b00a9e427b20f3e8d", "type": "electric_scooter", "lon": -77.027852, "rental_uris": {"android": "https://dc.lft.to/lastmile_qr_scan", "ios": "https://dc.lft.to/lastmile_qr_scan"}, "lat": 38.88163333333333, "is_reserved": 0, "is_disabled": 0, "fusion_lat": 0.0}, {"fusion_lon": 0.0, "bike_id": "8a287850f3548b4267e046a069acb69a", "name": "8a287850f3548b4267e046a069acb69a", "type": "electric_bike", "lon": -77.1317725, "rental_uris": {"android": "https://dc.lft.to/lastmile_qr_scan", "ios": "https://dc.lft.to/lastmile_qr_scan"}, "lat": 38.869071166666664, "is_reserved": 0, "is_disabled": 0, "fusion_lat": 0.0}, {"fusion_lon": 0.0, "bike_id": "281b0508ed30a545aca99a66a431cc64", "name": "281b0508ed30a545aca99a66a431cc64", "type": "electric_scooter", "lon": -77.039355, "rental_uris": {"android": "https://dc.lft.to/lastmile_qr_scan", "ios": "https://dc.lft.to/lastmile_qr_scan"}, "lat": 38.92498966666667, "is_reserved": 0, "is_disabled": 0, "fusion_lat": 0.0}, {"fusion_lon": 0.0, "bike_id": "aca59d8913c2373127c904d2a511ee7e", "name": "aca59d8913c2373127c904d2a511ee7e", "type": "electric_scooter", "lon": -77.02811466666667, "rental_uris": {"android": "https://dc.lft.to/lastmile_qr_scan", "ios": "https://dc.lft.to/lastmile_qr_scan"}, "lat": 38.90628266666667, "is_reserved": 0, "is_disabled": 0, "fusion_lat": 0.0}, {"fusion_lon": 0.0, "bike_id": "d87628f511e4f524c7c13bfb64f5c615", "name": "d87628f511e4f524c7c13bfb64f5c615", "type": "electric_scooter", "lon": -77.01590083333333, "rental_uris": {"android": "https://dc.lft.to/lastmile_qr_scan", "ios": "https://dc.lft.to/lastmile_qr_scan"}, "lat": 38.901109, "is_reserved": 0, "is_disabled": 0, "fusion_lat": 0.0}, {"fusion_lon": 0.0, "bike_id": "ac0df138e4778d2c6f14b3346c3d6cab", "name": "ac0df138e4778d2c6f14b3346c3d6cab", "type": "electric_scooter", "lon": -77.03771383333333, "rental_uris": {"android": "https://dc.lft.to/lastmile_qr_scan", "ios": "https://dc.lft.to/lastmile_qr_scan"}, "lat": 38.924868833333335, "is_reserved": 0, "is_disabled": 0, "fusion_lat": 0.0}, {"fusion_lon": 0.0, "bike_id": "7262267451492e102ad17a6df0be1de7", "name": "7262267451492e102ad17a6df0be1de7", "type": "electric_bike", "lon": -77.01936816666667, "rental_uris": {"android": "https://dc.lft.to/lastmile_qr_scan", "ios": "https://dc.lft.to/lastmile_qr_scan"}, "lat": 38.88315216666667, "is_reserved": 0, "is_disabled": 0, "fusion_lat": 0.0}, {"fusion_lon": 0.0, "bike_id": "2dbb07b35ab81c9f75a1836c1ce081e1", "name": "2dbb07b35ab81c9f75a1836c1ce081e1", "type": "electric_scooter", "lon": -77.03068116666667, "rental_uris": {"android": "https://dc.lft.to/lastmile_qr_scan", "ios": "https://dc.lft.to/lastmile_qr_scan"}, "lat": 38.88045816666666, "is_reserved": 0, "is_disabled": 0, "fusion_lat": 0.0}, {"fusion_lon": 0.0, "bike_id": "5404b3d3ac7aef63dab1fdf9e5dbb0fc", "name": "5404b3d3ac7aef63dab1fdf9e5dbb0fc", "type": "electric_scooter", "lon": -77.0338035, "rental_uris": {"android": "https://dc.lft.to/lastmile_qr_scan", "ios": "https://dc.lft.to/lastmile_qr_scan"}, "lat": 38.92538716666667, "is_reserved": 0, "is_disabled": 0, "fusion_lat": 0.0}, {"fusion_lon": 0.0, "bike_id": "bda251f8a6c9538a4ac0cc23d298a062", "name": "bda251f8a6c9538a4ac0cc23d298a062", "type": "electric_scooter", "lon": -77.01757016666667, "rental_uris": {"android": "https://dc.lft.to/lastmile_qr_scan", "ios": "https://dc.lft.to/lastmile_qr_scan"}, "lat": 38.90262716666667, "is_reserved": 0, "is_disabled": 0, "fusion_lat": 0.0}, {"fusion_lon": 0.0, "bike_id": "23329fdcacd4fb24f1882b68705730f5", "name": "23329fdcacd4fb24f1882b68705730f5", "type": "electric_scooter", "lon": -77.032871, "rental_uris": {"android": "https://dc.lft.to/lastmile_qr_scan", "ios": "https://dc.lft.to/lastmile_qr_scan"}, "lat": 38.938820166666666, "is_reserved": 0, "is_disabled": 0, "fusion_lat": 0.0}, {"fusion_lon": 0.0, "bike_id": "5e54520d629029470ed8bcd0993e4297", "name": "5e54520d629029470ed8bcd0993e4297", "type": "electric_scooter", "lon": -76.98471133333334, "rental_uris": {"android": "https://dc.lft.to/lastmile_qr_scan", "ios": "https://dc.lft.to/lastmile_qr_scan"}, "lat": 38.928949333333335, "is_reserved": 0, "is_disabled": 0, "fusion_lat": 0.0}, {"fusion_lon": 0.0, "bike_id": "d535173a4eb2bd0a12a24ee9fa3065fb", "name": "d535173a4eb2bd0a12a24ee9fa3065fb", "type": "electric_scooter", "lon": -77.01184683333334, "rental_uris": {"android": "https://dc.lft.to/lastmile_qr_scan", "ios": "https://dc.lft.to/lastmile_qr_scan"}, "lat": 38.871553166666665, "is_reserved": 0, "is_disabled": 0, "fusion_lat": 0.0}, {"fusion_lon": 0.0, "bike_id": "eab0b459d5806ad175bb52ed3bcf3b28", "name": "eab0b459d5806ad175bb52ed3bcf3b28", "type": "electric_scooter", "lon": -77.02477183333333, "rental_uris": {"android": "https://dc.lft.to/lastmile_qr_scan", "ios": "https://dc.lft.to/lastmile_qr_scan"}, "lat": 38.904183333333336, "is_reserved": 0, "is_disabled": 0, "fusion_lat": 0.0}, {"fusion_lon": 0.0, "bike_id": "138df565fba75567df5608f23e17593f", "name": "138df565fba75567df5608f23e17593f", "type": "electric_scooter", "lon": -77.02971133333334, "rental_uris": {"android": "https://dc.lft.to/lastmile_qr_scan", "ios": "https://dc.lft.to/lastmile_qr_scan"}, "lat": 38.9227065, "is_reserved": 0, "is_disabled": 0, "fusion_lat": 0.0}, {"fusion_lon": 0.0, "bike_id": "b761fd493d0d859ec3444621bba40b56", "name": "b761fd493d0d859ec3444621bba40b56", "type": "electric_scooter", "lon": -76.929515, "rental_uris": {"android": "https://dc.lft.to/lastmile_qr_scan", "ios": "https://dc.lft.to/lastmile_qr_scan"}, "lat": 38.898797333333334, "is_reserved": 0, "is_disabled": 0, "fusion_lat": 0.0}, {"fusion_lon": 0.0, "bike_id": "edf4e9161f8143e7f75ed23ea9e03866", "name": "edf4e9161f8143e7f75ed23ea9e03866", "type": "electric_scooter", "lon": -77.04671583333334, "rental_uris": {"android": "https://dc.lft.to/lastmile_qr_scan", "ios": "https://dc.lft.to/lastmile_qr_scan"}, "lat": 38.903407666666666, "is_reserved": 0, "is_disabled": 0, "fusion_lat": 0.0}, {"fusion_lon": 0.0, "bike_id": "d5b1a5fa2826b88e0d2d0717e41539a0", "name": "d5b1a5fa2826b88e0d2d0717e41539a0", "type": "electric_scooter", "lon": -77.0387805, "rental_uris": {"android": "https://dc.lft.to/lastmile_qr_scan", "ios": "https://dc.lft.to/lastmile_qr_scan"}, "lat": 38.91983033333333, "is_reserved": 0, "is_disabled": 0, "fusion_lat": 0.0}, {"fusion_lon": 0.0, "bike_id": "cb7ebb944a48a854e6a7cba3a0c03ca1", "name": "cb7ebb944a48a854e6a7cba3a0c03ca1", "type": "electric_scooter", "lon": -77.023747, "rental_uris": {"android": "https://dc.lft.to/lastmile_qr_scan", "ios": "https://dc.lft.to/lastmile_qr_scan"}, "lat": 38.9072935, "is_reserved": 0, "is_disabled": 0, "fusion_lat": 0.0}, {"fusion_lon": 0.0, "bike_id": "107b800f824dbdee485f5bf545eea3e4", "name": "107b800f824dbdee485f5bf545eea3e4", "type": "electric_scooter", "lon": -76.99148733333334, "rental_uris": {"android": "https://dc.lft.to/lastmile_qr_scan", "ios": "https://dc.lft.to/lastmile_qr_scan"}, "lat": 38.87911116666667, "is_reserved": 0, "is_disabled": 0, "fusion_lat": 0.0}, {"fusion_lon": 0.0, "bike_id": "9c95d89e43fca5e5f03a3408c4ba1bca", "name": "9c95d89e43fca5e5f03a3408c4ba1bca", "type": "electric_scooter", "lon": -77.041793, "rental_uris": {"android": "https://dc.lft.to/lastmile_qr_scan", "ios": "https://dc.lft.to/lastmile_qr_scan"}, "lat": 38.91577633333333, "is_reserved": 0, "is_disabled": 0, "fusion_lat": 0.0}, {"fusion_lon": 0.0, "bike_id": "28b0ba2434e7b80b763eb9f2816c99ff", "name": "28b0ba2434e7b80b763eb9f2816c99ff", "type": "electric_bike", "lon": -77.00574416666667, "rental_uris": {"android": "https://dc.lft.to/lastmile_qr_scan", "ios": "https://dc.lft.to/lastmile_qr_scan"}, "lat": 38.8861305, "is_reserved": 0, "is_disabled": 0, "fusion_lat": 0.0}, {"fusion_lon": 0.0, "bike_id": "583850f6bf77afa7944f344a6ad0eb6d", "name": "583850f6bf77afa7944f344a6ad0eb6d", "type": "electric_scooter", "lon": -77.0446145, "rental_uris": {"android": "https://dc.lft.to/lastmile_qr_scan", "ios": "https://dc.lft.to/lastmile_qr_scan"}, "lat": 38.896105166666665, "is_reserved": 0, "is_disabled": 0, "fusion_lat": 0.0}, {"fusion_lon": 0.0, "bike_id": "7f6d6479ffb5a7ceeaf58593b4a3a1f3", "name": "7f6d6479ffb5a7ceeaf58593b4a3a1f3", "type": "electric_scooter", "lon": -77.03735316666666, "rental_uris": {"android": "https://dc.lft.to/lastmile_qr_scan", "ios": "https://dc.lft.to/lastmile_qr_scan"}, "lat": 38.9285555, "is_reserved": 0, "is_disabled": 0, "fusion_lat": 0.0}, {"fusion_lon": 0.0, "bike_id": "28e9bd92755922c5af926d1b949d992d", "name": "28e9bd92755922c5af926d1b949d992d", "type": "electric_scooter", "lon": -77.03292883333333, "rental_uris": {"android": "https://dc.lft.to/lastmile_qr_scan", "ios": "https://dc.lft.to/lastmile_qr_scan"}, "lat": 38.92066916666667, "is_reserved": 0, "is_disabled": 0, "fusion_lat": 0.0}, {"fusion_lon": 0.0, "bike_id": "8d64ce0ee54ab05d90ddd7e661bb6dea", "name": "8d64ce0ee54ab05d90ddd7e661bb6dea", "type": "electric_scooter", "lon": -77.04872016666667, "rental_uris": {"android": "https://dc.lft.to/lastmile_qr_scan", "ios": "https://dc.lft.to/lastmile_qr_scan"}, "lat": 38.892313, "is_reserved": 0, "is_disabled": 0, "fusion_lat": 0.0}, {"fusion_lon": 0.0, "bike_id": "3aaee422d1d9ed5bc9f457d6659a723b", "name": "3aaee422d1d9ed5bc9f457d6659a723b", "type": "electric_scooter", "lon": -77.055899, "rental_uris": {"android": "https://dc.lft.to/lastmile_qr_scan", "ios": "https://dc.lft.to/lastmile_qr_scan"}, "lat": 38.900077333333336, "is_reserved": 0, "is_disabled": 0, "fusion_lat": 0.0}, {"fusion_lon": 0.0, "bike_id": "2bb72dc3cf805af1a480376c9711411f", "name": "2bb72dc3cf805af1a480376c9711411f", "type": "electric_scooter", "lon": -76.9877065, "rental_uris": {"android": "https://dc.lft.to/lastmile_qr_scan", "ios": "https://dc.lft.to/lastmile_qr_scan"}, "lat": 38.844788, "is_reserved": 0, "is_disabled": 0, "fusion_lat": 0.0}, {"fusion_lon": 0.0, "bike_id": "e57a4b4c322d6a0fb299fc32b330afe8", "name": "e57a4b4c322d6a0fb299fc32b330afe8", "type": "electric_scooter", "lon": -76.98886566666667, "rental_uris": {"android": "https://dc.lft.to/lastmile_qr_scan", "ios": "https://dc.lft.to/lastmile_qr_scan"}, "lat": 38.866748666666666, "is_reserved": 0, "is_disabled": 0, "fusion_lat": 0.0}, {"fusion_lon": 0.0, "bike_id": "19c2b1351464c15fdcbbe0338c713391", "name": "19c2b1351464c15fdcbbe0338c713391", "type": "electric_scooter", "lon": -77.02036333333334, "rental_uris": {"android": "https://dc.lft.to/lastmile_qr_scan", "ios": "https://dc.lft.to/lastmile_qr_scan"}, "lat": 38.9156485, "is_reserved": 0, "is_disabled": 0, "fusion_lat": 0.0}, {"fusion_lon": 0.0, "bike_id": "baa91258134d007cf73f0686eb161a71", "name": "baa91258134d007cf73f0686eb161a71", "type": "electric_bike", "lon": -77.0271325, "rental_uris": {"android": "https://dc.lft.to/lastmile_qr_scan", "ios": "https://dc.lft.to/lastmile_qr_scan"}, "lat": 38.98190316666667, "is_reserved": 0, "is_disabled": 0, "fusion_lat": 0.0}, {"fusion_lon": 0.0, "bike_id": "4da69a1302ed818b1a3fbb00bce8879d", "name": "4da69a1302ed818b1a3fbb00bce8879d", "type": "electric_scooter", "lon": -76.9950335, "rental_uris": {"android": "https://dc.lft.to/lastmile_qr_scan", "ios": "https://dc.lft.to/lastmile_qr_scan"}, "lat": 38.885838666666665, "is_reserved": 0, "is_disabled": 0, "fusion_lat": 0.0}, {"fusion_lon": 0.0, "bike_id": "64b8fc01967b6718e0adfa1ffddd974e", "name": "64b8fc01967b6718e0adfa1ffddd974e", "type": "electric_scooter", "lon": -77.01909766666667, "rental_uris": {"android": "https://dc.lft.to/lastmile_qr_scan", "ios": "https://dc.lft.to/lastmile_qr_scan"}, "lat": 38.87879866666667, "is_reserved": 0, "is_disabled": 0, "fusion_lat": 0.0}, {"fusion_lon": 0.0, "bike_id": "353ae60a185b2c446c8e7e7cd88398b6", "name": "353ae60a185b2c446c8e7e7cd88398b6", "type": "electric_scooter", "lon": -77.065378, "rental_uris": {"android": "https://dc.lft.to/lastmile_qr_scan", "ios": "https://dc.lft.to/lastmile_qr_scan"}, "lat": 38.950706833333335, "is_reserved": 0, "is_disabled": 0, "fusion_lat": 0.0}, {"fusion_lon": 0.0, "bike_id": "5223098acc900c650f93331678891aca", "name": "5223098acc900c650f93331678891aca", "type": "electric_scooter", "lon": -77.0716575, "rental_uris": {"android": "https://dc.lft.to/lastmile_qr_scan", "ios": "https://dc.lft.to/lastmile_qr_scan"}, "lat": 38.907798666666665, "is_reserved": 0, "is_disabled": 0, "fusion_lat": 0.0}, {"fusion_lon": 0.0, "bike_id": "011d75cc561a96638c74e04f8e71433d", "name": "011d75cc561a96638c74e04f8e71433d", "type": "electric_scooter", "lon": -77.025994, "rental_uris": {"android": "https://dc.lft.to/lastmile_qr_scan", "ios": "https://dc.lft.to/lastmile_qr_scan"}, "lat": 38.91694366666667, "is_reserved": 0, "is_disabled": 0, "fusion_lat": 0.0}, {"fusion_lon": 0.0, "bike_id": "fe05c89553cc4f80a44669f0bfc321a5", "name": "fe05c89553cc4f80a44669f0bfc321a5", "type": "electric_bike", "lon": -77.0281065, "rental_uris": {"android": "https://dc.lft.to/lastmile_qr_scan", "ios": "https://dc.lft.to/lastmile_qr_scan"}, "lat": 38.96607083333333, "is_reserved": 0, "is_disabled": 0, "fusion_lat": 0.0}, {"fusion_lon": 0.0, "bike_id": "d3ad9851512d8124738fd2626d89eb29", "name": "d3ad9851512d8124738fd2626d89eb29", "type": "electric_bike", "lon": -77.17800716666666, "rental_uris": {"android": "https://dc.lft.to/lastmile_qr_scan", "ios": "https://dc.lft.to/lastmile_qr_scan"}, "lat": 39.08843266666667, "is_reserved": 0, "is_disabled": 0, "fusion_lat": 0.0}, {"fusion_lon": 0.0, "bike_id": "2314bc756f24c06b704ebcc9838bb6da", "name": "2314bc756f24c06b704ebcc9838bb6da", "type": "electric_scooter", "lon": -77.01716, "rental_uris": {"android": "https://dc.lft.to/lastmile_qr_scan", "ios": "https://dc.lft.to/lastmile_qr_scan"}, "lat": 38.9051635, "is_reserved": 0, "is_disabled": 0, "fusion_lat": 0.0}, {"fusion_lon": 0.0, "bike_id": "29512253794993e5915c9c672e385ef5", "name": "29512253794993e5915c9c672e385ef5", "type": "electric_scooter", "lon": -77.0330475, "rental_uris": {"android": "https://dc.lft.to/lastmile_qr_scan", "ios": "https://dc.lft.to/lastmile_qr_scan"}, "lat": 38.90403933333333, "is_reserved": 0, "is_disabled": 0, "fusion_lat": 0.0}, {"fusion_lon": 0.0, "bike_id": "9eac779229c26619df691859b4fbfc8b", "name": "9eac779229c26619df691859b4fbfc8b", "type": "electric_scooter", "lon": -77.043623, "rental_uris": {"android": "https://dc.lft.to/lastmile_qr_scan", "ios": "https://dc.lft.to/lastmile_qr_scan"}, "lat": 38.89240866666667, "is_reserved": 0, "is_disabled": 0, "fusion_lat": 0.0}, {"fusion_lon": 0.0, "bike_id": "7e80b0fe81c499d4226f4b5c775c9cd2", "name": "7e80b0fe81c499d4226f4b5c775c9cd2", "type": "electric_scooter", "lon": -77.03834683333334, "rental_uris": {"android": "https://dc.lft.to/lastmile_qr_scan", "ios": "https://dc.lft.to/lastmile_qr_scan"}, "lat": 38.9156585, "is_reserved": 0, "is_disabled": 0, "fusion_lat": 0.0}, {"fusion_lon": 0.0, "bike_id": "cf16d52f9dea19bea4fe5c33ef59ba7a", "name": "cf16d52f9dea19bea4fe5c33ef59ba7a", "type": "electric_scooter", "lon": -77.04714833333334, "rental_uris": {"android": "https://dc.lft.to/lastmile_qr_scan", "ios": "https://dc.lft.to/lastmile_qr_scan"}, "lat": 38.922310833333334, "is_reserved": 0, "is_disabled": 0, "fusion_lat": 0.0}, {"fusion_lon": 0.0, "bike_id": "c12e085ac4c68b21a23fee614e9b5f90", "name": "c12e085ac4c68b21a23fee614e9b5f90", "type": "electric_scooter", "lon": -76.984638, "rental_uris": {"android": "https://dc.lft.to/lastmile_qr_scan", "ios": "https://dc.lft.to/lastmile_qr_scan"}, "lat": 38.897738833333335, "is_reserved": 0, "is_disabled": 0, "fusion_lat": 0.0}, {"fusion_lon": 0.0, "bike_id": "5ba901e8c33c41e4d7606049ca7b14b2", "name": "5ba901e8c33c41e4d7606049ca7b14b2", "type": "electric_scooter", "lon": -77.03923516666667, "rental_uris": {"android": "https://dc.lft.to/lastmile_qr_scan", "ios": "https://dc.lft.to/lastmile_qr_scan"}, "lat": 38.9119045, "is_reserved": 0, "is_disabled": 0, "fusion_lat": 0.0}, {"fusion_lon": 0.0, "bike_id": "df8096e39a96baa435e5bc1d1a4b344e", "name": "df8096e39a96baa435e5bc1d1a4b344e", "type": "electric_scooter", "lon": -77.00432283333333, "rental_uris": {"android": "https://dc.lft.to/lastmile_qr_scan", "ios": "https://dc.lft.to/lastmile_qr_scan"}, "lat": 38.876683, "is_reserved": 0, "is_disabled": 0, "fusion_lat": 0.0}, {"fusion_lon": 0.0, "bike_id": "34f842f46d6594a3e847378d7a280da4", "name": "34f842f46d6594a3e847378d7a280da4", "type": "electric_scooter", "lon": -76.99003783333333, "rental_uris": {"android": "https://dc.lft.to/lastmile_qr_scan", "ios": "https://dc.lft.to/lastmile_qr_scan"}, "lat": 38.86508033333333, "is_reserved": 0, "is_disabled": 0, "fusion_lat": 0.0}, {"fusion_lon": 0.0, "bike_id": "0f301e5f7dc6c97279bd138d397b8994", "name": "0f301e5f7dc6c97279bd138d397b8994", "type": "electric_scooter", "lon": -77.001402, "rental_uris": {"android": "https://dc.lft.to/lastmile_qr_scan", "ios": "https://dc.lft.to/lastmile_qr_scan"}, "lat": 38.9051635, "is_reserved": 0, "is_disabled": 0, "fusion_lat": 0.0}, {"fusion_lon": 0.0, "bike_id": "f062b7439b8ab1305aa4cd577e89684e", "name": "f062b7439b8ab1305aa4cd577e89684e", "type": "electric_scooter", "lon": -77.022712, "rental_uris": {"android": "https://dc.lft.to/lastmile_qr_scan", "ios": "https://dc.lft.to/lastmile_qr_scan"}, "lat": 38.9472115, "is_reserved": 0, "is_disabled": 0, "fusion_lat": 0.0}, {"fusion_lon": 0.0, "bike_id": "772056bab67a7c225f1dc10a443c10e7", "name": "772056bab67a7c225f1dc10a443c10e7", "type": "electric_scooter", "lon": -77.0220275, "rental_uris": {"android": "https://dc.lft.to/lastmile_qr_scan", "ios": "https://dc.lft.to/lastmile_qr_scan"}, "lat": 38.9153105, "is_reserved": 0, "is_disabled": 0, "fusion_lat": 0.0}, {"fusion_lon": 0.0, "bike_id": "c22b55a6878379ccfc36d2b97364e789", "name": "c22b55a6878379ccfc36d2b97364e789", "type": "electric_scooter", "lon": -77.00883866666666, "rental_uris": {"android": "https://dc.lft.to/lastmile_qr_scan", "ios": "https://dc.lft.to/lastmile_qr_scan"}, "lat": 38.88271833333334, "is_reserved": 0, "is_disabled": 0, "fusion_lat": 0.0}, {"fusion_lon": 0.0, "bike_id": "a9ab663765cbdf5d4a9cdc95e4b68bff", "name": "a9ab663765cbdf5d4a9cdc95e4b68bff", "type": "electric_scooter", "lon": -76.99958216666667, "rental_uris": {"android": "https://dc.lft.to/lastmile_qr_scan", "ios": "https://dc.lft.to/lastmile_qr_scan"}, "lat": 38.84287466666667, "is_reserved": 0, "is_disabled": 0, "fusion_lat": 0.0}, {"fusion_lon": 0.0, "bike_id": "6b1e4839aaa8c01acdc5a477f40b7b76", "name": "6b1e4839aaa8c01acdc5a477f40b7b76", "type": "electric_scooter", "lon": -77.0075435, "rental_uris": {"android": "https://dc.lft.to/lastmile_qr_scan", "ios": "https://dc.lft.to/lastmile_qr_scan"}, "lat": 38.8765965, "is_reserved": 0, "is_disabled": 0, "fusion_lat": 0.0}, {"fusion_lon": 0.0, "bike_id": "74998c053fe3d83c1c6b1f828860f196", "name": "74998c053fe3d83c1c6b1f828860f196", "type": "electric_scooter", "lon": -77.0374945, "rental_uris": {"android": "https://dc.lft.to/lastmile_qr_scan", "ios": "https://dc.lft.to/lastmile_qr_scan"}, "lat": 38.912742, "is_reserved": 0, "is_disabled": 0, "fusion_lat": 0.0}, {"fusion_lon": 0.0, "bike_id": "f26d229cde771b049ab93690118bf71b", "name": "f26d229cde771b049ab93690118bf71b", "type": "electric_scooter", "lon": -77.01114483333333, "rental_uris": {"android": "https://dc.lft.to/lastmile_qr_scan", "ios": "https://dc.lft.to/lastmile_qr_scan"}, "lat": 38.90360016666666, "is_reserved": 0, "is_disabled": 0, "fusion_lat": 0.0}, {"fusion_lon": 0.0, "bike_id": "44c57b9558efac6b624e89b3ec7b9157", "name": "44c57b9558efac6b624e89b3ec7b9157", "type": "electric_scooter", "lon": -77.030313, "rental_uris": {"android": "https://dc.lft.to/lastmile_qr_scan", "ios": "https://dc.lft.to/lastmile_qr_scan"}, "lat": 38.93121583333333, "is_reserved": 0, "is_disabled": 0, "fusion_lat": 0.0}, {"fusion_lon": 0.0, "bike_id": "774f81159d3bd276b363f21f8bea6afa", "name": "774f81159d3bd276b363f21f8bea6afa", "type": "electric_scooter", "lon": -77.01506016666667, "rental_uris": {"android": "https://dc.lft.to/lastmile_qr_scan", "ios": "https://dc.lft.to/lastmile_qr_scan"}, "lat": 38.8994515, "is_reserved": 0, "is_disabled": 0, "fusion_lat": 0.0}, {"fusion_lon": 0.0, "bike_id": "6ea9eb75a654ec90899fec45c52a2c17", "name": "6ea9eb75a654ec90899fec45c52a2c17", "type": "electric_scooter", "lon": -76.98966733333333, "rental_uris": {"android": "https://dc.lft.to/lastmile_qr_scan", "ios": "https://dc.lft.to/lastmile_qr_scan"}, "lat": 38.902485666666664, "is_reserved": 0, "is_disabled": 0, "fusion_lat": 0.0}, {"fusion_lon": 0.0, "bike_id": "309a35d3f60a11ebf13821ee25eae455", "name": "309a35d3f60a11ebf13821ee25eae455", "type": "electric_bike", "lon": -76.949513, "rental_uris": {"android": "https://dc.lft.to/lastmile_qr_scan", "ios": "https://dc.lft.to/lastmile_qr_scan"}, "lat": 38.9350495, "is_reserved": 0, "is_disabled": 0, "fusion_lat": 0.0}, {"fusion_lon": 0.0, "bike_id": "faced8672c3d8b19c5d0b0633477c58e", "name": "faced8672c3d8b19c5d0b0633477c58e", "type": "electric_scooter", "lon": -76.99381183333334, "rental_uris": {"android": "https://dc.lft.to/lastmile_qr_scan", "ios": "https://dc.lft.to/lastmile_qr_scan"}, "lat": 38.92102083333333, "is_reserved": 0, "is_disabled": 0, "fusion_lat": 0.0}, {"fusion_lon": 0.0, "bike_id": "2edfdb14b191738b4471ba714c373098", "name": "2edfdb14b191738b4471ba714c373098", "type": "electric_scooter", "lon": -77.04222066666667, "rental_uris": {"android": "https://dc.lft.to/lastmile_qr_scan", "ios": "https://dc.lft.to/lastmile_qr_scan"}, "lat": 38.92178583333333, "is_reserved": 0, "is_disabled": 0, "fusion_lat": 0.0}, {"fusion_lon": 0.0, "bike_id": "dac2ca57d6580d13e5e31c22ffba5863", "name": "dac2ca57d6580d13e5e31c22ffba5863", "type": "electric_scooter", "lon": -77.041462, "rental_uris": {"android": "https://dc.lft.to/lastmile_qr_scan", "ios": "https://dc.lft.to/lastmile_qr_scan"}, "lat": 38.91791283333333, "is_reserved": 0, "is_disabled": 0, "fusion_lat": 0.0}, {"fusion_lon": 0.0, "bike_id": "826fca26e11db23ee0ca89f8604d3ab0", "name": "826fca26e11db23ee0ca89f8604d3ab0", "type": "electric_scooter", "lon": -77.02393666666667, "rental_uris": {"android": "https://dc.lft.to/lastmile_qr_scan", "ios": "https://dc.lft.to/lastmile_qr_scan"}, "lat": 38.905765, "is_reserved": 0, "is_disabled": 0, "fusion_lat": 0.0}, {"fusion_lon": 0.0, "bike_id": "8188eae61595331df060e2fd17b5f887", "name": "8188eae61595331df060e2fd17b5f887", "type": "electric_scooter", "lon": -77.02712516666666, "rental_uris": {"android": "https://dc.lft.to/lastmile_qr_scan", "ios": "https://dc.lft.to/lastmile_qr_scan"}, "lat": 38.9098085, "is_reserved": 0, "is_disabled": 0, "fusion_lat": 0.0}, {"fusion_lon": 0.0, "bike_id": "be56e0f1ce67613e0fb27ca296719964", "name": "be56e0f1ce67613e0fb27ca296719964", "type": "electric_scooter", "lon": -77.00075166666667, "rental_uris": {"android": "https://dc.lft.to/lastmile_qr_scan", "ios": "https://dc.lft.to/lastmile_qr_scan"}, "lat": 38.91956783333333, "is_reserved": 0, "is_disabled": 0, "fusion_lat": 0.0}, {"fusion_lon": 0.0, "bike_id": "5f43b51f8c769a56509a888d7a920c6c", "name": "5f43b51f8c769a56509a888d7a920c6c", "type": "electric_scooter", "lon": -76.94886916666667, "rental_uris": {"android": "https://dc.lft.to/lastmile_qr_scan", "ios": "https://dc.lft.to/lastmile_qr_scan"}, "lat": 38.89513983333333, "is_reserved": 0, "is_disabled": 0, "fusion_lat": 0.0}, {"fusion_lon": 0.0, "bike_id": "94d0a23329e8a2e7b8cce0f3c488356c", "name": "94d0a23329e8a2e7b8cce0f3c488356c", "type": "electric_scooter", "lon": -76.9855615, "rental_uris": {"android": "https://dc.lft.to/lastmile_qr_scan", "ios": "https://dc.lft.to/lastmile_qr_scan"}, "lat": 38.9004415, "is_reserved": 0, "is_disabled": 0, "fusion_lat": 0.0}, {"fusion_lon": 0.0, "bike_id": "7236eeb09d3bdc923711ae8cbc403b22", "name": "7236eeb09d3bdc923711ae8cbc403b22", "type": "electric_scooter", "lon": -77.00279783333333, "rental_uris": {"android": "https://dc.lft.to/lastmile_qr_scan", "ios": "https://dc.lft.to/lastmile_qr_scan"}, "lat": 38.9392415, "is_reserved": 0, "is_disabled": 0, "fusion_lat": 0.0}, {"fusion_lon": 0.0, "bike_id": "5275285f644d1a18cadd4682ff51e349", "name": "5275285f644d1a18cadd4682ff51e349", "type": "electric_scooter", "lon": -77.01470483333334, "rental_uris": {"android": "https://dc.lft.to/lastmile_qr_scan", "ios": "https://dc.lft.to/lastmile_qr_scan"}, "lat": 38.87640583333334, "is_reserved": 0, "is_disabled": 0, "fusion_lat": 0.0}, {"fusion_lon": 0.0, "bike_id": "82709754a3c4299474bb5bbb4a89b0aa", "name": "82709754a3c4299474bb5bbb4a89b0aa", "type": "electric_scooter", "lon": -77.005172, "rental_uris": {"android": "https://dc.lft.to/lastmile_qr_scan", "ios": "https://dc.lft.to/lastmile_qr_scan"}, "lat": 38.874727, "is_reserved": 0, "is_disabled": 0, "fusion_lat": 0.0}, {"fusion_lon": 0.0, "bike_id": "0d1dc4f3c8ad7189f71030b1d76426ad", "name": "0d1dc4f3c8ad7189f71030b1d76426ad", "type": "electric_scooter", "lon": -77.04708216666667, "rental_uris": {"android": "https://dc.lft.to/lastmile_qr_scan", "ios": "https://dc.lft.to/lastmile_qr_scan"}, "lat": 38.91265816666667, "is_reserved": 0, "is_disabled": 0, "fusion_lat": 0.0}, {"fusion_lon": 0.0, "bike_id": "4b98b25bdee8afba6e30e68d9d5d16cb", "name": "4b98b25bdee8afba6e30e68d9d5d16cb", "type": "electric_scooter", "lon": -77.01438466666667, "rental_uris": {"android": "https://dc.lft.to/lastmile_qr_scan", "ios": "https://dc.lft.to/lastmile_qr_scan"}, "lat": 38.912526166666666, "is_reserved": 0, "is_disabled": 0, "fusion_lat": 0.0}, {"fusion_lon": 0.0, "bike_id": "9b29ba28fce57791587606b29df60354", "name": "9b29ba28fce57791587606b29df60354", "type": "electric_scooter", "lon": -76.9884505, "rental_uris": {"android": "https://dc.lft.to/lastmile_qr_scan", "ios": "https://dc.lft.to/lastmile_qr_scan"}, "lat": 38.900296166666664, "is_reserved": 0, "is_disabled": 0, "fusion_lat": 0.0}, {"fusion_lon": 0.0, "bike_id": "d0b6d3f92ae1f29eb9a5fc46f89e6adb", "name": "d0b6d3f92ae1f29eb9a5fc46f89e6adb", "type": "electric_scooter", "lon": -77.04186366666667, "rental_uris": {"android": "https://dc.lft.to/lastmile_qr_scan", "ios": "https://dc.lft.to/lastmile_qr_scan"}, "lat": 38.923368833333335, "is_reserved": 0, "is_disabled": 0, "fusion_lat": 0.0}, {"fusion_lon": 0.0, "bike_id": "c9b0c218885310e2091cbfea2e913194", "name": "c9b0c218885310e2091cbfea2e913194", "type": "electric_scooter", "lon": -77.03642083333334, "rental_uris": {"android": "https://dc.lft.to/lastmile_qr_scan", "ios": "https://dc.lft.to/lastmile_qr_scan"}, "lat": 38.91765483333333, "is_reserved": 0, "is_disabled": 0, "fusion_lat": 0.0}, {"fusion_lon": 0.0, "bike_id": "c2aa93d37936ea1f57eb95593b917a5e", "name": "c2aa93d37936ea1f57eb95593b917a5e", "type": "electric_scooter", "lon": -77.0317875, "rental_uris": {"android": "https://dc.lft.to/lastmile_qr_scan", "ios": "https://dc.lft.to/lastmile_qr_scan"}, "lat": 38.90519533333333, "is_reserved": 0, "is_disabled": 0, "fusion_lat": 0.0}, {"fusion_lon": 0.0, "bike_id": "a92d414210edf309f22afe77e2bf5e78", "name": "a92d414210edf309f22afe77e2bf5e78", "type": "electric_scooter", "lon": -77.05515416666667, "rental_uris": {"android": "https://dc.lft.to/lastmile_qr_scan", "ios": "https://dc.lft.to/lastmile_qr_scan"}, "lat": 38.944172333333334, "is_reserved": 0, "is_disabled": 0, "fusion_lat": 0.0}, {"fusion_lon": 0.0, "bike_id": "8edba3945295ce975309107c610980b3", "name": "8edba3945295ce975309107c610980b3", "type": "electric_scooter", "lon": -77.0119105, "rental_uris": {"android": "https://dc.lft.to/lastmile_qr_scan", "ios": "https://dc.lft.to/lastmile_qr_scan"}, "lat": 38.88769883333333, "is_reserved": 0, "is_disabled": 0, "fusion_lat": 0.0}, {"fusion_lon": 0.0, "bike_id": "5fb619c7e95d3d5b43e9791ccafb03f3", "name": "5fb619c7e95d3d5b43e9791ccafb03f3", "type": "electric_scooter", "lon": -77.0294625, "rental_uris": {"android": "https://dc.lft.to/lastmile_qr_scan", "ios": "https://dc.lft.to/lastmile_qr_scan"}, "lat": 38.90511766666667, "is_reserved": 0, "is_disabled": 0, "fusion_lat": 0.0}, {"fusion_lon": 0.0, "bike_id": "dfa408d6dd430d551b5d920ff6940616", "name": "dfa408d6dd430d551b5d920ff6940616", "type": "electric_scooter", "lon": -76.98913866666666, "rental_uris": {"android": "https://dc.lft.to/lastmile_qr_scan", "ios": "https://dc.lft.to/lastmile_qr_scan"}, "lat": 38.9022895, "is_reserved": 0, "is_disabled": 0, "fusion_lat": 0.0}, {"fusion_lon": 0.0, "bike_id": "b141574c61833a08311487b93a465e71", "name": "b141574c61833a08311487b93a465e71", "type": "electric_scooter", "lon": -77.00196683333333, "rental_uris": {"android": "https://dc.lft.to/lastmile_qr_scan", "ios": "https://dc.lft.to/lastmile_qr_scan"}, "lat": 38.90014866666667, "is_reserved": 0, "is_disabled": 0, "fusion_lat": 0.0}, {"fusion_lon": 0.0, "bike_id": "7964a289339b6ab7c53bc7da4ae26aac", "name": "7964a289339b6ab7c53bc7da4ae26aac", "type": "electric_scooter", "lon": -76.94995233333333, "rental_uris": {"android": "https://dc.lft.to/lastmile_qr_scan", "ios": "https://dc.lft.to/lastmile_qr_scan"}, "lat": 38.893958166666664, "is_reserved": 0, "is_disabled": 0, "fusion_lat": 0.0}, {"fusion_lon": 0.0, "bike_id": "26208ee751daf3c3a03d86ff5c4d64c2", "name": "26208ee751daf3c3a03d86ff5c4d64c2", "type": "electric_scooter", "lon": -77.03146566666666, "rental_uris": {"android": "https://dc.lft.to/lastmile_qr_scan", "ios": "https://dc.lft.to/lastmile_qr_scan"}, "lat": 38.887454166666664, "is_reserved": 0, "is_disabled": 0, "fusion_lat": 0.0}, {"fusion_lon": 0.0, "bike_id": "5dbde5f993d88247d3fbb2fe6d446661", "name": "5dbde5f993d88247d3fbb2fe6d446661", "type": "electric_scooter", "lon": -77.02452816666667, "rental_uris": {"android": "https://dc.lft.to/lastmile_qr_scan", "ios": "https://dc.lft.to/lastmile_qr_scan"}, "lat": 38.9289265, "is_reserved": 0, "is_disabled": 0, "fusion_lat": 0.0}, {"fusion_lon": 0.0, "bike_id": "01bee5629aa68a70d420ec6cd6336632", "name": "01bee5629aa68a70d420ec6cd6336632", "type": "electric_scooter", "lon": -77.0422115, "rental_uris": {"android": "https://dc.lft.to/lastmile_qr_scan", "ios": "https://dc.lft.to/lastmile_qr_scan"}, "lat": 38.91705416666667, "is_reserved": 0, "is_disabled": 0, "fusion_lat": 0.0}, {"fusion_lon": 0.0, "bike_id": "857f2b7b616aadc1a7eb02db9c3dc3e8", "name": "857f2b7b616aadc1a7eb02db9c3dc3e8", "type": "electric_scooter", "lon": -77.038385, "rental_uris": {"android": "https://dc.lft.to/lastmile_qr_scan", "ios": "https://dc.lft.to/lastmile_qr_scan"}, "lat": 38.915687, "is_reserved": 0, "is_disabled": 0, "fusion_lat": 0.0}, {"fusion_lon": 0.0, "bike_id": "6c5b5c576cfc0177aefdef207f91c616", "name": "6c5b5c576cfc0177aefdef207f91c616", "type": "electric_scooter", "lon": -77.0419075, "rental_uris": {"android": "https://dc.lft.to/lastmile_qr_scan", "ios": "https://dc.lft.to/lastmile_qr_scan"}, "lat": 38.905308, "is_reserved": 0, "is_disabled": 0, "fusion_lat": 0.0}, {"fusion_lon": 0.0, "bike_id": "e2762ec14ef860bc172d26cd71fd0b00", "name": "e2762ec14ef860bc172d26cd71fd0b00", "type": "electric_bike", "lon": -76.98382033333333, "rental_uris": {"android": "https://dc.lft.to/lastmile_qr_scan", "ios": "https://dc.lft.to/lastmile_qr_scan"}, "lat": 38.91475033333333, "is_reserved": 0, "is_disabled": 0, "fusion_lat": 0.0}, {"fusion_lon": 0.0, "bike_id": "9932342b9a03775e6f0177797ba87452", "name": "9932342b9a03775e6f0177797ba87452", "type": "electric_scooter", "lon": -77.0327345, "rental_uris": {"android": "https://dc.lft.to/lastmile_qr_scan", "ios": "https://dc.lft.to/lastmile_qr_scan"}, "lat": 38.937535833333335, "is_reserved": 0, "is_disabled": 0, "fusion_lat": 0.0}, {"fusion_lon": 0.0, "bike_id": "1fcbe11d860ee9ed6e8136a128ea6e79", "name": "1fcbe11d860ee9ed6e8136a128ea6e79", "type": "electric_scooter", "lon": -77.0074825, "rental_uris": {"android": "https://dc.lft.to/lastmile_qr_scan", "ios": "https://dc.lft.to/lastmile_qr_scan"}, "lat": 38.90370766666667, "is_reserved": 0, "is_disabled": 0, "fusion_lat": 0.0}, {"fusion_lon": 0.0, "bike_id": "f506d77cd4206d9ce57437b906a2541b", "name": "f506d77cd4206d9ce57437b906a2541b", "type": "electric_scooter", "lon": -77.02853233333333, "rental_uris": {"android": "https://dc.lft.to/lastmile_qr_scan", "ios": "https://dc.lft.to/lastmile_qr_scan"}, "lat": 38.932702, "is_reserved": 0, "is_disabled": 0, "fusion_lat": 0.0}, {"fusion_lon": 0.0, "bike_id": "a51b5ba494db09ef16a3d970a6febec8", "name": "a51b5ba494db09ef16a3d970a6febec8", "type": "electric_scooter", "lon": -77.05758733333333, "rental_uris": {"android": "https://dc.lft.to/lastmile_qr_scan", "ios": "https://dc.lft.to/lastmile_qr_scan"}, "lat": 38.925016, "is_reserved": 0, "is_disabled": 0, "fusion_lat": 0.0}, {"fusion_lon": 0.0, "bike_id": "c6817ca539fda8cba21b6d8c7e444f2e", "name": "c6817ca539fda8cba21b6d8c7e444f2e", "type": "electric_scooter", "lon": -77.069193, "rental_uris": {"android": "https://dc.lft.to/lastmile_qr_scan", "ios": "https://dc.lft.to/lastmile_qr_scan"}, "lat": 38.913363333333336, "is_reserved": 0, "is_disabled": 0, "fusion_lat": 0.0}, {"fusion_lon": 0.0, "bike_id": "7e501f7d09141b7b6001a3eadb7dfc21", "name": "7e501f7d09141b7b6001a3eadb7dfc21", "type": "electric_scooter", "lon": -77.00254383333333, "rental_uris": {"android": "https://dc.lft.to/lastmile_qr_scan", "ios": "https://dc.lft.to/lastmile_qr_scan"}, "lat": 38.911022, "is_reserved": 0, "is_disabled": 0, "fusion_lat": 0.0}, {"fusion_lon": 0.0, "bike_id": "13a46e3958793cc0690be8e90a236349", "name": "13a46e3958793cc0690be8e90a236349", "type": "electric_scooter", "lon": -77.01372183333334, "rental_uris": {"android": "https://dc.lft.to/lastmile_qr_scan", "ios": "https://dc.lft.to/lastmile_qr_scan"}, "lat": 38.89222, "is_reserved": 0, "is_disabled": 0, "fusion_lat": 0.0}, {"fusion_lon": 0.0, "bike_id": "b893cbb6909505e947799b1db5dde0b2", "name": "b893cbb6909505e947799b1db5dde0b2", "type": "electric_scooter", "lon": -77.0486985, "rental_uris": {"android": "https://dc.lft.to/lastmile_qr_scan", "ios": "https://dc.lft.to/lastmile_qr_scan"}, "lat": 38.909099, "is_reserved": 0, "is_disabled": 0, "fusion_lat": 0.0}, {"fusion_lon": 0.0, "bike_id": "602650bdef4f10254c144d8061664b0a", "name": "602650bdef4f10254c144d8061664b0a", "type": "electric_bike", "lon": -76.90536383333334, "rental_uris": {"android": "https://dc.lft.to/lastmile_qr_scan", "ios": "https://dc.lft.to/lastmile_qr_scan"}, "lat": 38.89735566666667, "is_reserved": 0, "is_disabled": 0, "fusion_lat": 0.0}, {"fusion_lon": 0.0, "bike_id": "99263238b398ba717b0c90261ded9c79", "name": "99263238b398ba717b0c90261ded9c79", "type": "electric_scooter", "lon": -77.03461033333333, "rental_uris": {"android": "https://dc.lft.to/lastmile_qr_scan", "ios": "https://dc.lft.to/lastmile_qr_scan"}, "lat": 38.918113166666664, "is_reserved": 0, "is_disabled": 0, "fusion_lat": 0.0}, {"fusion_lon": 0.0, "bike_id": "c4b4d57c1a5107b5a7b017c5633ad69a", "name": "c4b4d57c1a5107b5a7b017c5633ad69a", "type": "electric_scooter", "lon": -77.0186795, "rental_uris": {"android": "https://dc.lft.to/lastmile_qr_scan", "ios": "https://dc.lft.to/lastmile_qr_scan"}, "lat": 38.90043516666667, "is_reserved": 0, "is_disabled": 0, "fusion_lat": 0.0}, {"fusion_lon": 0.0, "bike_id": "74c2b27b679a030bdf841392f99b55ef", "name": "74c2b27b679a030bdf841392f99b55ef", "type": "electric_scooter", "lon": -77.038377, "rental_uris": {"android": "https://dc.lft.to/lastmile_qr_scan", "ios": "https://dc.lft.to/lastmile_qr_scan"}, "lat": 38.90978533333333, "is_reserved": 0, "is_disabled": 0, "fusion_lat": 0.0}, {"fusion_lon": 0.0, "bike_id": "56b3aad0a98f216483eaa712f55653b9", "name": "56b3aad0a98f216483eaa712f55653b9", "type": "electric_scooter", "lon": -77.01379716666666, "rental_uris": {"android": "https://dc.lft.to/lastmile_qr_scan", "ios": "https://dc.lft.to/lastmile_qr_scan"}, "lat": 38.886464, "is_reserved": 0, "is_disabled": 0, "fusion_lat": 0.0}, {"fusion_lon": 0.0, "bike_id": "6225dd5bce584f87790e4b4e8fe2af36", "name": "6225dd5bce584f87790e4b4e8fe2af36", "type": "electric_scooter", "lon": -77.03843583333334, "rental_uris": {"android": "https://dc.lft.to/lastmile_qr_scan", "ios": "https://dc.lft.to/lastmile_qr_scan"}, "lat": 38.912193, "is_reserved": 0, "is_disabled": 0, "fusion_lat": 0.0}, {"fusion_lon": 0.0, "bike_id": "b1f37d39ce6af032176a40a00cb872d1", "name": "b1f37d39ce6af032176a40a00cb872d1", "type": "electric_scooter", "lon": -77.01647083333333, "rental_uris": {"android": "https://dc.lft.to/lastmile_qr_scan", "ios": "https://dc.lft.to/lastmile_qr_scan"}, "lat": 38.901275, "is_reserved": 0, "is_disabled": 0, "fusion_lat": 0.0}, {"fusion_lon": 0.0, "bike_id": "1b530c93744c5a003b9c0dba0bcd6e66", "name": "1b530c93744c5a003b9c0dba0bcd6e66", "type": "electric_scooter", "lon": -77.0318545, "rental_uris": {"android": "https://dc.lft.to/lastmile_qr_scan", "ios": "https://dc.lft.to/lastmile_qr_scan"}, "lat": 38.9135705, "is_reserved": 0, "is_disabled": 0, "fusion_lat": 0.0}, {"fusion_lon": 0.0, "bike_id": "e00b16a31e05fb1c5f74ffa62499d65b", "name": "e00b16a31e05fb1c5f74ffa62499d65b", "type": "electric_scooter", "lon": -77.013513, "rental_uris": {"android": "https://dc.lft.to/lastmile_qr_scan", "ios": "https://dc.lft.to/lastmile_qr_scan"}, "lat": 38.928757166666664, "is_reserved": 0, "is_disabled": 0, "fusion_lat": 0.0}, {"fusion_lon": 0.0, "bike_id": "0c37aaaa050a707fe3e84dd77e44141e", "name": "0c37aaaa050a707fe3e84dd77e44141e", "type": "electric_bike", "lon": -77.01562583333333, "rental_uris": {"android": "https://dc.lft.to/lastmile_qr_scan", "ios": "https://dc.lft.to/lastmile_qr_scan"}, "lat": 38.95015333333333, "is_reserved": 0, "is_disabled": 0, "fusion_lat": 0.0}, {"fusion_lon": 0.0, "bike_id": "a61fde1ea10833b1ef9058c30e870132", "name": "a61fde1ea10833b1ef9058c30e870132", "type": "electric_scooter", "lon": -77.06240083333333, "rental_uris": {"android": "https://dc.lft.to/lastmile_qr_scan", "ios": "https://dc.lft.to/lastmile_qr_scan"}, "lat": 38.90532133333333, "is_reserved": 0, "is_disabled": 0, "fusion_lat": 0.0}, {"fusion_lon": 0.0, "bike_id": "94bdebe19f9a1961ff5123d895c6ac8d", "name": "94bdebe19f9a1961ff5123d895c6ac8d", "type": "electric_scooter", "lon": -76.98339866666667, "rental_uris": {"android": "https://dc.lft.to/lastmile_qr_scan", "ios": "https://dc.lft.to/lastmile_qr_scan"}, "lat": 38.9127545, "is_reserved": 0, "is_disabled": 0, "fusion_lat": 0.0}, {"fusion_lon": 0.0, "bike_id": "b2c7d8bd22ceecf07797e258fbe0f847", "name": "b2c7d8bd22ceecf07797e258fbe0f847", "type": "electric_scooter", "lon": -77.05094766666667, "rental_uris": {"android": "https://dc.lft.to/lastmile_qr_scan", "ios": "https://dc.lft.to/lastmile_qr_scan"}, "lat": 38.92343533333333, "is_reserved": 0, "is_disabled": 0, "fusion_lat": 0.0}, {"fusion_lon": 0.0, "bike_id": "66d7d32789eca5829b0ba6c57a6abe9a", "name": "66d7d32789eca5829b0ba6c57a6abe9a", "type": "electric_scooter", "lon": -77.02716516666666, "rental_uris": {"android": "https://dc.lft.to/lastmile_qr_scan", "ios": "https://dc.lft.to/lastmile_qr_scan"}, "lat": 38.907503, "is_reserved": 0, "is_disabled": 0, "fusion_lat": 0.0}, {"fusion_lon": 0.0, "bike_id": "e6d28f3ea533ef12c3a029f74123a4f4", "name": "e6d28f3ea533ef12c3a029f74123a4f4", "type": "electric_bike", "lon": -76.91593166666667, "rental_uris": {"android": "https://dc.lft.to/lastmile_qr_scan", "ios": "https://dc.lft.to/lastmile_qr_scan"}, "lat": 38.88012366666667, "is_reserved": 0, "is_disabled": 0, "fusion_lat": 0.0}, {"fusion_lon": 0.0, "bike_id": "6af02dd149b2f0283cc161678bc6c615", "name": "6af02dd149b2f0283cc161678bc6c615", "type": "electric_scooter", "lon": -76.98403316666666, "rental_uris": {"android": "https://dc.lft.to/lastmile_qr_scan", "ios": "https://dc.lft.to/lastmile_qr_scan"}, "lat": 38.8597375, "is_reserved": 0, "is_disabled": 0, "fusion_lat": 0.0}, {"fusion_lon": 0.0, "bike_id": "158d6ef4c91426349e174dc4aec12a9b", "name": "158d6ef4c91426349e174dc4aec12a9b", "type": "electric_scooter", "lon": -77.0331935, "rental_uris": {"android": "https://dc.lft.to/lastmile_qr_scan", "ios": "https://dc.lft.to/lastmile_qr_scan"}, "lat": 38.96020433333333, "is_reserved": 0, "is_disabled": 0, "fusion_lat": 0.0}, {"fusion_lon": 0.0, "bike_id": "5641a92207a18d3278bb1307243b0f24", "name": "5641a92207a18d3278bb1307243b0f24", "type": "electric_scooter", "lon": -77.00337316666666, "rental_uris": {"android": "https://dc.lft.to/lastmile_qr_scan", "ios": "https://dc.lft.to/lastmile_qr_scan"}, "lat": 38.883216833333336, "is_reserved": 0, "is_disabled": 0, "fusion_lat": 0.0}, {"fusion_lon": 0.0, "bike_id": "adbc0a0153f6b147a7f38001880dc9f2", "name": "adbc0a0153f6b147a7f38001880dc9f2", "type": "electric_bike", "lon": -76.9081555, "rental_uris": {"android": "https://dc.lft.to/lastmile_qr_scan", "ios": "https://dc.lft.to/lastmile_qr_scan"}, "lat": 38.994558833333336, "is_reserved": 0, "is_disabled": 0, "fusion_lat": 0.0}, {"fusion_lon": 0.0, "bike_id": "ede1866ad9e23c55d0edd6b9113e02b4", "name": "ede1866ad9e23c55d0edd6b9113e02b4", "type": "electric_scooter", "lon": -77.01904766666667, "rental_uris": {"android": "https://dc.lft.to/lastmile_qr_scan", "ios": "https://dc.lft.to/lastmile_qr_scan"}, "lat": 38.87742316666667, "is_reserved": 0, "is_disabled": 0, "fusion_lat": 0.0}, {"fusion_lon": 0.0, "bike_id": "70db6a51d7c1af85c1be8f862fbffbd0", "name": "70db6a51d7c1af85c1be8f862fbffbd0", "type": "electric_scooter", "lon": -77.02280633333334, "rental_uris": {"android": "https://dc.lft.to/lastmile_qr_scan", "ios": "https://dc.lft.to/lastmile_qr_scan"}, "lat": 38.917682, "is_reserved": 0, "is_disabled": 0, "fusion_lat": 0.0}, {"fusion_lon": 0.0, "bike_id": "079315b7d6b9dccc04722d93d47afaba", "name": "079315b7d6b9dccc04722d93d47afaba", "type": "electric_bike", "lon": -76.97896116666666, "rental_uris": {"android": "https://dc.lft.to/lastmile_qr_scan", "ios": "https://dc.lft.to/lastmile_qr_scan"}, "lat": 38.854915166666665, "is_reserved": 0, "is_disabled": 0, "fusion_lat": 0.0}, {"fusion_lon": 0.0, "bike_id": "b49f2ac5b1c52253f9d1fb54c5221496", "name": "b49f2ac5b1c52253f9d1fb54c5221496", "type": "electric_scooter", "lon": -76.95534383333333, "rental_uris": {"android": "https://dc.lft.to/lastmile_qr_scan", "ios": "https://dc.lft.to/lastmile_qr_scan"}, "lat": 38.8876485, "is_reserved": 0, "is_disabled": 0, "fusion_lat": 0.0}, {"fusion_lon": 0.0, "bike_id": "2b4a9d0a380c66250f19192c1aba1558", "name": "2b4a9d0a380c66250f19192c1aba1558", "type": "electric_scooter", "lon": -77.10314383333333, "rental_uris": {"android": "https://dc.lft.to/lastmile_qr_scan", "ios": "https://dc.lft.to/lastmile_qr_scan"}, "lat": 38.92672066666667, "is_reserved": 0, "is_disabled": 0, "fusion_lat": 0.0}, {"fusion_lon": 0.0, "bike_id": "96874e0b459b1195d658b5e4a827605b", "name": "96874e0b459b1195d658b5e4a827605b", "type": "electric_scooter", "lon": -76.95205783333333, "rental_uris": {"android": "https://dc.lft.to/lastmile_qr_scan", "ios": "https://dc.lft.to/lastmile_qr_scan"}, "lat": 38.892517, "is_reserved": 0, "is_disabled": 0, "fusion_lat": 0.0}, {"fusion_lon": 0.0, "bike_id": "8291a31dcc39e2615d157c0bbfae8a34", "name": "8291a31dcc39e2615d157c0bbfae8a34", "type": "electric_scooter", "lon": -77.00744066666667, "rental_uris": {"android": "https://dc.lft.to/lastmile_qr_scan", "ios": "https://dc.lft.to/lastmile_qr_scan"}, "lat": 38.877055166666665, "is_reserved": 0, "is_disabled": 0, "fusion_lat": 0.0}, {"fusion_lon": 0.0, "bike_id": "71734461a6022d82c0839d1b0cd2b3d0", "name": "71734461a6022d82c0839d1b0cd2b3d0", "type": "electric_bike", "lon": -77.09577516666667, "rental_uris": {"android": "https://dc.lft.to/lastmile_qr_scan", "ios": "https://dc.lft.to/lastmile_qr_scan"}, "lat": 38.83789433333333, "is_reserved": 0, "is_disabled": 0, "fusion_lat": 0.0}, {"fusion_lon": 0.0, "bike_id": "00c8fe372ccd747f7a2e429fad555958", "name": "00c8fe372ccd747f7a2e429fad555958", "type": "electric_scooter", "lon": -77.024685, "rental_uris": {"android": "https://dc.lft.to/lastmile_qr_scan", "ios": "https://dc.lft.to/lastmile_qr_scan"}, "lat": 38.919246, "is_reserved": 0, "is_disabled": 0, "fusion_lat": 0.0}, {"fusion_lon": 0.0, "bike_id": "4c8ceb0cce95d19e1865391b2f371c5f", "name": "4c8ceb0cce95d19e1865391b2f371c5f", "type": "electric_scooter", "lon": -77.0259495, "rental_uris": {"android": "https://dc.lft.to/lastmile_qr_scan", "ios": "https://dc.lft.to/lastmile_qr_scan"}, "lat": 38.92798783333333, "is_reserved": 0, "is_disabled": 0, "fusion_lat": 0.0}, {"fusion_lon": 0.0, "bike_id": "10758877a11b11487641a466a5080cf8", "name": "10758877a11b11487641a466a5080cf8", "type": "electric_scooter", "lon": -77.03186433333333, "rental_uris": {"android": "https://dc.lft.to/lastmile_qr_scan", "ios": "https://dc.lft.to/lastmile_qr_scan"}, "lat": 38.91601216666667, "is_reserved": 0, "is_disabled": 0, "fusion_lat": 0.0}, {"fusion_lon": 0.0, "bike_id": "46cee1c0bf1d15e99c35c08cef9bbc1f", "name": "46cee1c0bf1d15e99c35c08cef9bbc1f", "type": "electric_scooter", "lon": -77.01566133333333, "rental_uris": {"android": "https://dc.lft.to/lastmile_qr_scan", "ios": "https://dc.lft.to/lastmile_qr_scan"}, "lat": 38.876807166666666, "is_reserved": 0, "is_disabled": 0, "fusion_lat": 0.0}, {"fusion_lon": 0.0, "bike_id": "b1b0861e815290e31ae0784860e1079f", "name": "b1b0861e815290e31ae0784860e1079f", "type": "electric_scooter", "lon": -77.0433835, "rental_uris": {"android": "https://dc.lft.to/lastmile_qr_scan", "ios": "https://dc.lft.to/lastmile_qr_scan"}, "lat": 38.89836716666667, "is_reserved": 0, "is_disabled": 0, "fusion_lat": 0.0}, {"fusion_lon": 0.0, "bike_id": "2814052c6d3a41f41128b3f8b0354f88", "name": "2814052c6d3a41f41128b3f8b0354f88", "type": "electric_scooter", "lon": -77.029767, "rental_uris": {"android": "https://dc.lft.to/lastmile_qr_scan", "ios": "https://dc.lft.to/lastmile_qr_scan"}, "lat": 38.916258166666665, "is_reserved": 0, "is_disabled": 0, "fusion_lat": 0.0}, {"fusion_lon": 0.0, "bike_id": "c4620532208d05d6bd4ab1bac8d64f46", "name": "c4620532208d05d6bd4ab1bac8d64f46", "type": "electric_scooter", "lon": -77.04250516666667, "rental_uris": {"android": "https://dc.lft.to/lastmile_qr_scan", "ios": "https://dc.lft.to/lastmile_qr_scan"}, "lat": 38.917795166666664, "is_reserved": 0, "is_disabled": 0, "fusion_lat": 0.0}, {"fusion_lon": 0.0, "bike_id": "595d295394921448090c6c3cce013527", "name": "595d295394921448090c6c3cce013527", "type": "electric_scooter", "lon": -77.02853733333333, "rental_uris": {"android": "https://dc.lft.to/lastmile_qr_scan", "ios": "https://dc.lft.to/lastmile_qr_scan"}, "lat": 38.932701, "is_reserved": 0, "is_disabled": 0, "fusion_lat": 0.0}, {"fusion_lon": 0.0, "bike_id": "9289f6b4ed3a5bc0ff8f82276b467638", "name": "9289f6b4ed3a5bc0ff8f82276b467638", "type": "electric_bike", "lon": -77.10504316666666, "rental_uris": {"android": "https://dc.lft.to/lastmile_qr_scan", "ios": "https://dc.lft.to/lastmile_qr_scan"}, "lat": 38.92848516666667, "is_reserved": 0, "is_disabled": 0, "fusion_lat": 0.0}, {"fusion_lon": 0.0, "bike_id": "56ed4ff90ad5c47d0ec3a47fb680a93a", "name": "56ed4ff90ad5c47d0ec3a47fb680a93a", "type": "electric_scooter", "lon": -77.065707, "rental_uris": {"android": "https://dc.lft.to/lastmile_qr_scan", "ios": "https://dc.lft.to/lastmile_qr_scan"}, "lat": 38.903738, "is_reserved": 0, "is_disabled": 0, "fusion_lat": 0.0}, {"fusion_lon": 0.0, "bike_id": "8f5cc5b83d94d3941cb8f817896dd877", "name": "8f5cc5b83d94d3941cb8f817896dd877", "type": "electric_scooter", "lon": -77.07265866666667, "rental_uris": {"android": "https://dc.lft.to/lastmile_qr_scan", "ios": "https://dc.lft.to/lastmile_qr_scan"}, "lat": 38.913317, "is_reserved": 0, "is_disabled": 0, "fusion_lat": 0.0}, {"fusion_lon": 0.0, "bike_id": "7a3bcf5507cc09d48c0123e0b0a46c28", "name": "7a3bcf5507cc09d48c0123e0b0a46c28", "type": "electric_scooter", "lon": -77.0230025, "rental_uris": {"android": "https://dc.lft.to/lastmile_qr_scan", "ios": "https://dc.lft.to/lastmile_qr_scan"}, "lat": 38.91822966666667, "is_reserved": 0, "is_disabled": 0, "fusion_lat": 0.0}, {"fusion_lon": 0.0, "bike_id": "2567a0d92c1550220c5158243221aafb", "name": "2567a0d92c1550220c5158243221aafb", "type": "electric_scooter", "lon": -76.93743316666666, "rental_uris": {"android": "https://dc.lft.to/lastmile_qr_scan", "ios": "https://dc.lft.to/lastmile_qr_scan"}, "lat": 38.8900515, "is_reserved": 0, "is_disabled": 0, "fusion_lat": 0.0}, {"fusion_lon": 0.0, "bike_id": "a9dced893777c3089146acaa9af3fb34", "name": "a9dced893777c3089146acaa9af3fb34", "type": "electric_scooter", "lon": -77.01040766666667, "rental_uris": {"android": "https://dc.lft.to/lastmile_qr_scan", "ios": "https://dc.lft.to/lastmile_qr_scan"}, "lat": 38.884492, "is_reserved": 0, "is_disabled": 0, "fusion_lat": 0.0}, {"fusion_lon": 0.0, "bike_id": "e1c1e5e6791779bd0176d9835b7c8396", "name": "e1c1e5e6791779bd0176d9835b7c8396", "type": "electric_scooter", "lon": -77.03845516666667, "rental_uris": {"android": "https://dc.lft.to/lastmile_qr_scan", "ios": "https://dc.lft.to/lastmile_qr_scan"}, "lat": 38.9166865, "is_reserved": 0, "is_disabled": 0, "fusion_lat": 0.0}, {"fusion_lon": 0.0, "bike_id": "db27681864ca1ebce03d7fd3bbfebc83", "name": "db27681864ca1ebce03d7fd3bbfebc83", "type": "electric_scooter", "lon": -77.013544, "rental_uris": {"android": "https://dc.lft.to/lastmile_qr_scan", "ios": "https://dc.lft.to/lastmile_qr_scan"}, "lat": 38.9038495, "is_reserved": 0, "is_disabled": 0, "fusion_lat": 0.0}, {"fusion_lon": 0.0, "bike_id": "abc5ac60a4815a493eb199d2dfd3b2f4", "name": "abc5ac60a4815a493eb199d2dfd3b2f4", "type": "electric_scooter", "lon": -77.03182833333334, "rental_uris": {"android": "https://dc.lft.to/lastmile_qr_scan", "ios": "https://dc.lft.to/lastmile_qr_scan"}, "lat": 38.91928133333333, "is_reserved": 0, "is_disabled": 0, "fusion_lat": 0.0}, {"fusion_lon": 0.0, "bike_id": "2184f30d883abb482e0c3d44443ddde8", "name": "2184f30d883abb482e0c3d44443ddde8", "type": "electric_scooter", "lon": -77.0319215, "rental_uris": {"android": "https://dc.lft.to/lastmile_qr_scan", "ios": "https://dc.lft.to/lastmile_qr_scan"}, "lat": 38.90767833333334, "is_reserved": 0, "is_disabled": 0, "fusion_lat": 0.0}, {"fusion_lon": 0.0, "bike_id": "6df595a74f323af70a3de74a2641b2b5", "name": "6df595a74f323af70a3de74a2641b2b5", "type": "electric_scooter", "lon": -77.05266166666667, "rental_uris": {"android": "https://dc.lft.to/lastmile_qr_scan", "ios": "https://dc.lft.to/lastmile_qr_scan"}, "lat": 38.927631833333336, "is_reserved": 0, "is_disabled": 0, "fusion_lat": 0.0}, {"fusion_lon": 0.0, "bike_id": "00d5d8a7cf77e12e8a1272cd9fc59aa2", "name": "00d5d8a7cf77e12e8a1272cd9fc59aa2", "type": "electric_scooter", "lon": -76.95759383333333, "rental_uris": {"android": "https://dc.lft.to/lastmile_qr_scan", "ios": "https://dc.lft.to/lastmile_qr_scan"}, "lat": 38.884364, "is_reserved": 0, "is_disabled": 0, "fusion_lat": 0.0}, {"fusion_lon": 0.0, "bike_id": "b11d831c340b51b44d4eaec532569b66", "name": "b11d831c340b51b44d4eaec532569b66", "type": "electric_scooter", "lon": -77.01890116666667, "rental_uris": {"android": "https://dc.lft.to/lastmile_qr_scan", "ios": "https://dc.lft.to/lastmile_qr_scan"}, "lat": 38.90012616666667, "is_reserved": 0, "is_disabled": 0, "fusion_lat": 0.0}, {"fusion_lon": 0.0, "bike_id": "d717571e6edea37b0cec256bb20b6f2f", "name": "d717571e6edea37b0cec256bb20b6f2f", "type": "electric_scooter", "lon": -76.98593, "rental_uris": {"android": "https://dc.lft.to/lastmile_qr_scan", "ios": "https://dc.lft.to/lastmile_qr_scan"}, "lat": 38.88974733333333, "is_reserved": 0, "is_disabled": 0, "fusion_lat": 0.0}, {"fusion_lon": 0.0, "bike_id": "002549721311879c3ea828aed05298da", "name": "002549721311879c3ea828aed05298da", "type": "electric_scooter", "lon": -77.04343533333333, "rental_uris": {"android": "https://dc.lft.to/lastmile_qr_scan", "ios": "https://dc.lft.to/lastmile_qr_scan"}, "lat": 38.913660666666665, "is_reserved": 0, "is_disabled": 0, "fusion_lat": 0.0}, {"fusion_lon": 0.0, "bike_id": "6988b64a05829938690ffc9ff56bbfeb", "name": "6988b64a05829938690ffc9ff56bbfeb", "type": "electric_bike", "lon": -76.87495316666667, "rental_uris": {"android": "https://dc.lft.to/lastmile_qr_scan", "ios": "https://dc.lft.to/lastmile_qr_scan"}, "lat": 38.99091383333333, "is_reserved": 0, "is_disabled": 0, "fusion_lat": 0.0}, {"fusion_lon": 0.0, "bike_id": "1c0ac79141542b864eb7cac6890d2f52", "name": "1c0ac79141542b864eb7cac6890d2f52", "type": "electric_scooter", "lon": -77.02332883333334, "rental_uris": {"android": "https://dc.lft.to/lastmile_qr_scan", "ios": "https://dc.lft.to/lastmile_qr_scan"}, "lat": 38.915545, "is_reserved": 0, "is_disabled": 0, "fusion_lat": 0.0}, {"fusion_lon": 0.0, "bike_id": "6d6addd601a3ebdcb776f9529227386d", "name": "6d6addd601a3ebdcb776f9529227386d", "type": "electric_scooter", "lon": -76.98560366666666, "rental_uris": {"android": "https://dc.lft.to/lastmile_qr_scan", "ios": "https://dc.lft.to/lastmile_qr_scan"}, "lat": 38.92004133333333, "is_reserved": 0, "is_disabled": 0, "fusion_lat": 0.0}, {"fusion_lon": 0.0, "bike_id": "13f47a1937b031949c8dadfbca3a70fc", "name": "13f47a1937b031949c8dadfbca3a70fc", "type": "electric_scooter", "lon": -77.02278166666666, "rental_uris": {"android": "https://dc.lft.to/lastmile_qr_scan", "ios": "https://dc.lft.to/lastmile_qr_scan"}, "lat": 38.9250415, "is_reserved": 0, "is_disabled": 0, "fusion_lat": 0.0}, {"fusion_lon": 0.0, "bike_id": "7401b35f68e8baabc81921563fedb483", "name": "7401b35f68e8baabc81921563fedb483", "type": "electric_scooter", "lon": -77.00583666666667, "rental_uris": {"android": "https://dc.lft.to/lastmile_qr_scan", "ios": "https://dc.lft.to/lastmile_qr_scan"}, "lat": 38.905641, "is_reserved": 0, "is_disabled": 0, "fusion_lat": 0.0}, {"fusion_lon": 0.0, "bike_id": "76a201d19901b2f3cdd34777c492663c", "name": "76a201d19901b2f3cdd34777c492663c", "type": "electric_bike", "lon": -77.00627583333333, "rental_uris": {"android": "https://dc.lft.to/lastmile_qr_scan", "ios": "https://dc.lft.to/lastmile_qr_scan"}, "lat": 38.98366883333333, "is_reserved": 0, "is_disabled": 0, "fusion_lat": 0.0}, {"fusion_lon": 0.0, "bike_id": "f894aa196b465a4caf97134dbb71aaa1", "name": "f894aa196b465a4caf97134dbb71aaa1", "type": "electric_scooter", "lon": -76.99606233333333, "rental_uris": {"android": "https://dc.lft.to/lastmile_qr_scan", "ios": "https://dc.lft.to/lastmile_qr_scan"}, "lat": 38.92618366666667, "is_reserved": 0, "is_disabled": 0, "fusion_lat": 0.0}, {"fusion_lon": 0.0, "bike_id": "aec56172de824fe5e84da05230800652", "name": "aec56172de824fe5e84da05230800652", "type": "electric_bike", "lon": -77.064783, "rental_uris": {"android": "https://dc.lft.to/lastmile_qr_scan", "ios": "https://dc.lft.to/lastmile_qr_scan"}, "lat": 38.973865333333336, "is_reserved": 0, "is_disabled": 0, "fusion_lat": 0.0}, {"fusion_lon": 0.0, "bike_id": "13a119c8458b78886cd069bff95b7f89", "name": "13a119c8458b78886cd069bff95b7f89", "type": "electric_scooter", "lon": -77.02463466666667, "rental_uris": {"android": "https://dc.lft.to/lastmile_qr_scan", "ios": "https://dc.lft.to/lastmile_qr_scan"}, "lat": 38.90853466666667, "is_reserved": 0, "is_disabled": 0, "fusion_lat": 0.0}, {"fusion_lon": 0.0, "bike_id": "d2569bfd3ae8ef5811b9fef1f3991977", "name": "d2569bfd3ae8ef5811b9fef1f3991977", "type": "electric_scooter", "lon": -76.98560583333334, "rental_uris": {"android": "https://dc.lft.to/lastmile_qr_scan", "ios": "https://dc.lft.to/lastmile_qr_scan"}, "lat": 38.898897166666664, "is_reserved": 0, "is_disabled": 0, "fusion_lat": 0.0}, {"fusion_lon": 0.0, "bike_id": "413c0f6d835629d931b20eeef4a038cc", "name": "413c0f6d835629d931b20eeef4a038cc", "type": "electric_scooter", "lon": -77.01054716666667, "rental_uris": {"android": "https://dc.lft.to/lastmile_qr_scan", "ios": "https://dc.lft.to/lastmile_qr_scan"}, "lat": 38.92986966666667, "is_reserved": 0, "is_disabled": 0, "fusion_lat": 0.0}, {"fusion_lon": 0.0, "bike_id": "8dfae2323290e8631bc7d4dae3828284", "name": "8dfae2323290e8631bc7d4dae3828284", "type": "electric_scooter", "lon": -77.03637366666666, "rental_uris": {"android": "https://dc.lft.to/lastmile_qr_scan", "ios": "https://dc.lft.to/lastmile_qr_scan"}, "lat": 38.91276033333333, "is_reserved": 0, "is_disabled": 0, "fusion_lat": 0.0}, {"fusion_lon": 0.0, "bike_id": "dbcbd37a282d0caa783852a8b53632f3", "name": "dbcbd37a282d0caa783852a8b53632f3", "type": "electric_scooter", "lon": -77.01054366666666, "rental_uris": {"android": "https://dc.lft.to/lastmile_qr_scan", "ios": "https://dc.lft.to/lastmile_qr_scan"}, "lat": 38.87135816666667, "is_reserved": 0, "is_disabled": 0, "fusion_lat": 0.0}, {"fusion_lon": 0.0, "bike_id": "2c1e29dd5f1901468514a39bc16267ee", "name": "2c1e29dd5f1901468514a39bc16267ee", "type": "electric_scooter", "lon": -77.04111833333333, "rental_uris": {"android": "https://dc.lft.to/lastmile_qr_scan", "ios": "https://dc.lft.to/lastmile_qr_scan"}, "lat": 38.915535166666665, "is_reserved": 0, "is_disabled": 0, "fusion_lat": 0.0}, {"fusion_lon": 0.0, "bike_id": "b38e0719adc658505fce316fe3344097", "name": "b38e0719adc658505fce316fe3344097", "type": "electric_scooter", "lon": -77.01654433333333, "rental_uris": {"android": "https://dc.lft.to/lastmile_qr_scan", "ios": "https://dc.lft.to/lastmile_qr_scan"}, "lat": 38.887504666666665, "is_reserved": 0, "is_disabled": 0, "fusion_lat": 0.0}, {"fusion_lon": 0.0, "bike_id": "bcf21296920f7dd4f6b71023d0586bdb", "name": "bcf21296920f7dd4f6b71023d0586bdb", "type": "electric_scooter", "lon": -77.0390395, "rental_uris": {"android": "https://dc.lft.to/lastmile_qr_scan", "ios": "https://dc.lft.to/lastmile_qr_scan"}, "lat": 38.9141805, "is_reserved": 0, "is_disabled": 0, "fusion_lat": 0.0}, {"fusion_lon": 0.0, "bike_id": "6416bd05cdcacde3e1a6eaf66dd0a916", "name": "6416bd05cdcacde3e1a6eaf66dd0a916", "type": "electric_scooter", "lon": -76.99057633333334, "rental_uris": {"android": "https://dc.lft.to/lastmile_qr_scan", "ios": "https://dc.lft.to/lastmile_qr_scan"}, "lat": 38.863627666666666, "is_reserved": 0, "is_disabled": 0, "fusion_lat": 0.0}, {"fusion_lon": 0.0, "bike_id": "56e28413735133dc76ea08618253f057", "name": "56e28413735133dc76ea08618253f057", "type": "electric_scooter", "lon": -77.025879, "rental_uris": {"android": "https://dc.lft.to/lastmile_qr_scan", "ios": "https://dc.lft.to/lastmile_qr_scan"}, "lat": 38.89519666666666, "is_reserved": 0, "is_disabled": 0, "fusion_lat": 0.0}, {"fusion_lon": 0.0, "bike_id": "f4ae93582b08f28faa45b99c5f26468e", "name": "f4ae93582b08f28faa45b99c5f26468e", "type": "electric_scooter", "lon": -77.041868, "rental_uris": {"android": "https://dc.lft.to/lastmile_qr_scan", "ios": "https://dc.lft.to/lastmile_qr_scan"}, "lat": 38.923337333333336, "is_reserved": 0, "is_disabled": 0, "fusion_lat": 0.0}, {"fusion_lon": 0.0, "bike_id": "a70d0b53e609f621c2936d235957d92d", "name": "a70d0b53e609f621c2936d235957d92d", "type": "electric_scooter", "lon": -77.071116, "rental_uris": {"android": "https://dc.lft.to/lastmile_qr_scan", "ios": "https://dc.lft.to/lastmile_qr_scan"}, "lat": 38.91975033333333, "is_reserved": 0, "is_disabled": 0, "fusion_lat": 0.0}, {"fusion_lon": 0.0, "bike_id": "450446c69452e597b826b9799cc71995", "name": "450446c69452e597b826b9799cc71995", "type": "electric_scooter", "lon": -77.038235, "rental_uris": {"android": "https://dc.lft.to/lastmile_qr_scan", "ios": "https://dc.lft.to/lastmile_qr_scan"}, "lat": 38.931315, "is_reserved": 0, "is_disabled": 0, "fusion_lat": 0.0}, {"fusion_lon": 0.0, "bike_id": "72cbc869405d498622694a15c89ff81c", "name": "72cbc869405d498622694a15c89ff81c", "type": "electric_bike", "lon": -77.02301083333333, "rental_uris": {"android": "https://dc.lft.to/lastmile_qr_scan", "ios": "https://dc.lft.to/lastmile_qr_scan"}, "lat": 38.965615666666665, "is_reserved": 0, "is_disabled": 0, "fusion_lat": 0.0}, {"fusion_lon": 0.0, "bike_id": "bf1cca6d82ceb113511180a21195b9a9", "name": "bf1cca6d82ceb113511180a21195b9a9", "type": "electric_scooter", "lon": -77.048705, "rental_uris": {"android": "https://dc.lft.to/lastmile_qr_scan", "ios": "https://dc.lft.to/lastmile_qr_scan"}, "lat": 38.90362566666667, "is_reserved": 0, "is_disabled": 0, "fusion_lat": 0.0}, {"fusion_lon": 0.0, "bike_id": "35fa01f9c624873cdea3b6f180d894ef", "name": "35fa01f9c624873cdea3b6f180d894ef", "type": "electric_scooter", "lon": -76.94993366666667, "rental_uris": {"android": "https://dc.lft.to/lastmile_qr_scan", "ios": "https://dc.lft.to/lastmile_qr_scan"}, "lat": 38.89391916666667, "is_reserved": 0, "is_disabled": 0, "fusion_lat": 0.0}, {"fusion_lon": 0.0, "bike_id": "f59da7f76216af41adbc2dc915a4d70d", "name": "f59da7f76216af41adbc2dc915a4d70d", "type": "electric_bike", "lon": -77.12267616666666, "rental_uris": {"android": "https://dc.lft.to/lastmile_qr_scan", "ios": "https://dc.lft.to/lastmile_qr_scan"}, "lat": 38.89736, "is_reserved": 0, "is_disabled": 0, "fusion_lat": 0.0}, {"fusion_lon": 0.0, "bike_id": "b7fc2fe2a9c4c4c167e4192541edcf65", "name": "b7fc2fe2a9c4c4c167e4192541edcf65", "type": "electric_bike", "lon": -76.91658883333334, "rental_uris": {"android": "https://dc.lft.to/lastmile_qr_scan", "ios": "https://dc.lft.to/lastmile_qr_scan"}, "lat": 38.86863233333333, "is_reserved": 0, "is_disabled": 0, "fusion_lat": 0.0}, {"fusion_lon": 0.0, "bike_id": "41940245ad8735ff94e8a62f2ae5a5bf", "name": "41940245ad8735ff94e8a62f2ae5a5bf", "type": "electric_scooter", "lon": -76.94250733333334, "rental_uris": {"android": "https://dc.lft.to/lastmile_qr_scan", "ios": "https://dc.lft.to/lastmile_qr_scan"}, "lat": 38.896865, "is_reserved": 0, "is_disabled": 0, "fusion_lat": 0.0}, {"fusion_lon": 0.0, "bike_id": "e34044de83328a63ac460f94807061c3", "name": "e34044de83328a63ac460f94807061c3", "type": "electric_scooter", "lon": -77.002177, "rental_uris": {"android": "https://dc.lft.to/lastmile_qr_scan", "ios": "https://dc.lft.to/lastmile_qr_scan"}, "lat": 38.89093183333333, "is_reserved": 0, "is_disabled": 0, "fusion_lat": 0.0}, {"fusion_lon": 0.0, "bike_id": "ca6fc59196254ad78eb58436e96bb96a", "name": "ca6fc59196254ad78eb58436e96bb96a", "type": "electric_scooter", "lon": -77.024028, "rental_uris": {"android": "https://dc.lft.to/lastmile_qr_scan", "ios": "https://dc.lft.to/lastmile_qr_scan"}, "lat": 38.915077833333335, "is_reserved": 0, "is_disabled": 0, "fusion_lat": 0.0}, {"fusion_lon": 0.0, "bike_id": "a8ee82872e26cd1603ab9a9c88794a8e", "name": "a8ee82872e26cd1603ab9a9c88794a8e", "type": "electric_scooter", "lon": -77.0399385, "rental_uris": {"android": "https://dc.lft.to/lastmile_qr_scan", "ios": "https://dc.lft.to/lastmile_qr_scan"}, "lat": 38.913346, "is_reserved": 0, "is_disabled": 0, "fusion_lat": 0.0}, {"fusion_lon": 0.0, "bike_id": "4aa586d2b2b2080f3f530249a36fa7ed", "name": "4aa586d2b2b2080f3f530249a36fa7ed", "type": "electric_scooter", "lon": -76.99610283333334, "rental_uris": {"android": "https://dc.lft.to/lastmile_qr_scan", "ios": "https://dc.lft.to/lastmile_qr_scan"}, "lat": 38.88618116666667, "is_reserved": 0, "is_disabled": 0, "fusion_lat": 0.0}, {"fusion_lon": 0.0, "bike_id": "36e415566fb2f68679bb5ffc651c4310", "name": "36e415566fb2f68679bb5ffc651c4310", "type": "electric_scooter", "lon": -77.072441, "rental_uris": {"android": "https://dc.lft.to/lastmile_qr_scan", "ios": "https://dc.lft.to/lastmile_qr_scan"}, "lat": 38.92266583333333, "is_reserved": 0, "is_disabled": 0, "fusion_lat": 0.0}, {"fusion_lon": 0.0, "bike_id": "2353dc9196d6ae67e7ffcc473a512dc8", "name": "2353dc9196d6ae67e7ffcc473a512dc8", "type": "electric_scooter", "lon": -77.0640775, "rental_uris": {"android": "https://dc.lft.to/lastmile_qr_scan", "ios": "https://dc.lft.to/lastmile_qr_scan"}, "lat": 38.943280333333334, "is_reserved": 0, "is_disabled": 0, "fusion_lat": 0.0}, {"fusion_lon": 0.0, "bike_id": "750902e4c98ea1d0a7fb6dde8123fbaf", "name": "750902e4c98ea1d0a7fb6dde8123fbaf", "type": "electric_scooter", "lon": -77.00941966666667, "rental_uris": {"android": "https://dc.lft.to/lastmile_qr_scan", "ios": "https://dc.lft.to/lastmile_qr_scan"}, "lat": 38.87664316666667, "is_reserved": 0, "is_disabled": 0, "fusion_lat": 0.0}, {"fusion_lon": 0.0, "bike_id": "1a2fe5487d0aed61af43df2cd92996bd", "name": "1a2fe5487d0aed61af43df2cd92996bd", "type": "electric_scooter", "lon": -76.950224, "rental_uris": {"android": "https://dc.lft.to/lastmile_qr_scan", "ios": "https://dc.lft.to/lastmile_qr_scan"}, "lat": 38.883962833333335, "is_reserved": 0, "is_disabled": 0, "fusion_lat": 0.0}, {"fusion_lon": 0.0, "bike_id": "9c69bff7bc27a8674b992cbdc6d85cd7", "name": "9c69bff7bc27a8674b992cbdc6d85cd7", "type": "electric_scooter", "lon": -76.98847383333333, "rental_uris": {"android": "https://dc.lft.to/lastmile_qr_scan", "ios": "https://dc.lft.to/lastmile_qr_scan"}, "lat": 38.90030083333333, "is_reserved": 0, "is_disabled": 0, "fusion_lat": 0.0}, {"fusion_lon": 0.0, "bike_id": "7b860d92ed290f0566406361c2fcf366", "name": "7b860d92ed290f0566406361c2fcf366", "type": "electric_scooter", "lon": -77.0259445, "rental_uris": {"android": "https://dc.lft.to/lastmile_qr_scan", "ios": "https://dc.lft.to/lastmile_qr_scan"}, "lat": 38.9128405, "is_reserved": 0, "is_disabled": 0, "fusion_lat": 0.0}, {"fusion_lon": 0.0, "bike_id": "038de426576fdd179f990a2ea42924f1", "name": "038de426576fdd179f990a2ea42924f1", "type": "electric_scooter", "lon": -76.98384183333333, "rental_uris": {"android": "https://dc.lft.to/lastmile_qr_scan", "ios": "https://dc.lft.to/lastmile_qr_scan"}, "lat": 38.90647166666667, "is_reserved": 0, "is_disabled": 0, "fusion_lat": 0.0}, {"fusion_lon": 0.0, "bike_id": "e7e9d2059d5e45a747b3b0bec1cfaab7", "name": "e7e9d2059d5e45a747b3b0bec1cfaab7", "type": "electric_scooter", "lon": -76.935337, "rental_uris": {"android": "https://dc.lft.to/lastmile_qr_scan", "ios": "https://dc.lft.to/lastmile_qr_scan"}, "lat": 38.896852, "is_reserved": 0, "is_disabled": 0, "fusion_lat": 0.0}, {"fusion_lon": 0.0, "bike_id": "aa9ef308ca7fc70c63a66de76b5fc9e5", "name": "aa9ef308ca7fc70c63a66de76b5fc9e5", "type": "electric_bike", "lon": -76.98119816666667, "rental_uris": {"android": "https://dc.lft.to/lastmile_qr_scan", "ios": "https://dc.lft.to/lastmile_qr_scan"}, "lat": 38.89674483333334, "is_reserved": 0, "is_disabled": 0, "fusion_lat": 0.0}, {"fusion_lon": 0.0, "bike_id": "bcd463722ac3841717f6ab39e9cf8a48", "name": "bcd463722ac3841717f6ab39e9cf8a48", "type": "electric_bike", "lon": -77.10183916666666, "rental_uris": {"android": "https://dc.lft.to/lastmile_qr_scan", "ios": "https://dc.lft.to/lastmile_qr_scan"}, "lat": 38.918139333333336, "is_reserved": 0, "is_disabled": 0, "fusion_lat": 0.0}, {"fusion_lon": 0.0, "bike_id": "bd051efd47cae3c0f06b54eaffc39f27", "name": "bd051efd47cae3c0f06b54eaffc39f27", "type": "electric_bike", "lon": -76.98330083333333, "rental_uris": {"android": "https://dc.lft.to/lastmile_qr_scan", "ios": "https://dc.lft.to/lastmile_qr_scan"}, "lat": 38.9660805, "is_reserved": 0, "is_disabled": 0, "fusion_lat": 0.0}, {"fusion_lon": 0.0, "bike_id": "a482c0580b0dcfc5c3445c5b48f0122c", "name": "a482c0580b0dcfc5c3445c5b48f0122c", "type": "electric_scooter", "lon": -77.02159816666666, "rental_uris": {"android": "https://dc.lft.to/lastmile_qr_scan", "ios": "https://dc.lft.to/lastmile_qr_scan"}, "lat": 38.926041833333336, "is_reserved": 0, "is_disabled": 0, "fusion_lat": 0.0}, {"fusion_lon": 0.0, "bike_id": "e30e0188d4f45ef8b36ac5712cdfec1e", "name": "e30e0188d4f45ef8b36ac5712cdfec1e", "type": "electric_scooter", "lon": -77.03266783333333, "rental_uris": {"android": "https://dc.lft.to/lastmile_qr_scan", "ios": "https://dc.lft.to/lastmile_qr_scan"}, "lat": 38.93333, "is_reserved": 0, "is_disabled": 0, "fusion_lat": 0.0}, {"fusion_lon": 0.0, "bike_id": "7cb4f6a80649ccaced2b7282770c67b3", "name": "7cb4f6a80649ccaced2b7282770c67b3", "type": "electric_bike", "lon": -77.11225983333334, "rental_uris": {"android": "https://dc.lft.to/lastmile_qr_scan", "ios": "https://dc.lft.to/lastmile_qr_scan"}, "lat": 38.812288333333335, "is_reserved": 0, "is_disabled": 0, "fusion_lat": 0.0}, {"fusion_lon": 0.0, "bike_id": "ca03b8323d7015a05f6b83e8984de453", "name": "ca03b8323d7015a05f6b83e8984de453", "type": "electric_bike", "lon": -77.02494483333334, "rental_uris": {"android": "https://dc.lft.to/lastmile_qr_scan", "ios": "https://dc.lft.to/lastmile_qr_scan"}, "lat": 38.9741205, "is_reserved": 0, "is_disabled": 0, "fusion_lat": 0.0}, {"fusion_lon": 0.0, "bike_id": "1fcfe2fe464aa08a5002aa49c288f5fc", "name": "1fcfe2fe464aa08a5002aa49c288f5fc", "type": "electric_bike", "lon": -77.00084083333333, "rental_uris": {"android": "https://dc.lft.to/lastmile_qr_scan", "ios": "https://dc.lft.to/lastmile_qr_scan"}, "lat": 38.886015666666665, "is_reserved": 0, "is_disabled": 0, "fusion_lat": 0.0}, {"fusion_lon": 0.0, "bike_id": "73bcd5612b7668f035f0a6ab7aff631d", "name": "73bcd5612b7668f035f0a6ab7aff631d", "type": "electric_scooter", "lon": -77.02315916666667, "rental_uris": {"android": "https://dc.lft.to/lastmile_qr_scan", "ios": "https://dc.lft.to/lastmile_qr_scan"}, "lat": 38.92074733333333, "is_reserved": 0, "is_disabled": 0, "fusion_lat": 0.0}, {"fusion_lon": 0.0, "bike_id": "59b9a69ea6e5b96af1382831ef4999c0", "name": "59b9a69ea6e5b96af1382831ef4999c0", "type": "electric_scooter", "lon": -77.0216575, "rental_uris": {"android": "https://dc.lft.to/lastmile_qr_scan", "ios": "https://dc.lft.to/lastmile_qr_scan"}, "lat": 38.94297533333334, "is_reserved": 0, "is_disabled": 0, "fusion_lat": 0.0}, {"fusion_lon": 0.0, "bike_id": "ebc01e0473ee403395e87356a3da392e", "name": "ebc01e0473ee403395e87356a3da392e", "type": "electric_scooter", "lon": -76.9907555, "rental_uris": {"android": "https://dc.lft.to/lastmile_qr_scan", "ios": "https://dc.lft.to/lastmile_qr_scan"}, "lat": 38.90426083333333, "is_reserved": 0, "is_disabled": 0, "fusion_lat": 0.0}, {"fusion_lon": 0.0, "bike_id": "8ad495a17a5424c152e9783957031c67", "name": "8ad495a17a5424c152e9783957031c67", "type": "electric_scooter", "lon": -77.05437633333334, "rental_uris": {"android": "https://dc.lft.to/lastmile_qr_scan", "ios": "https://dc.lft.to/lastmile_qr_scan"}, "lat": 38.896034666666665, "is_reserved": 0, "is_disabled": 0, "fusion_lat": 0.0}, {"fusion_lon": 0.0, "bike_id": "0561eb1cfd8d5d7baf841c378b7c136f", "name": "0561eb1cfd8d5d7baf841c378b7c136f", "type": "electric_scooter", "lon": -77.0173045, "rental_uris": {"android": "https://dc.lft.to/lastmile_qr_scan", "ios": "https://dc.lft.to/lastmile_qr_scan"}, "lat": 38.8748415, "is_reserved": 0, "is_disabled": 0, "fusion_lat": 0.0}, {"fusion_lon": 0.0, "bike_id": "526861da008a5b1006f4357d770e2b12", "name": "526861da008a5b1006f4357d770e2b12", "type": "electric_scooter", "lon": -77.00867566666666, "rental_uris": {"android": "https://dc.lft.to/lastmile_qr_scan", "ios": "https://dc.lft.to/lastmile_qr_scan"}, "lat": 38.905678333333334, "is_reserved": 0, "is_disabled": 0, "fusion_lat": 0.0}, {"fusion_lon": 0.0, "bike_id": "cd63bb167a29f45496a6ee9eba4e83b4", "name": "cd63bb167a29f45496a6ee9eba4e83b4", "type": "electric_scooter", "lon": -77.00747816666667, "rental_uris": {"android": "https://dc.lft.to/lastmile_qr_scan", "ios": "https://dc.lft.to/lastmile_qr_scan"}, "lat": 38.876485333333335, "is_reserved": 0, "is_disabled": 0, "fusion_lat": 0.0}, {"fusion_lon": 0.0, "bike_id": "fd8b3cfab9371159b7b6f4ca6f03630d", "name": "fd8b3cfab9371159b7b6f4ca6f03630d", "type": "electric_scooter", "lon": -77.03359183333333, "rental_uris": {"android": "https://dc.lft.to/lastmile_qr_scan", "ios": "https://dc.lft.to/lastmile_qr_scan"}, "lat": 38.911953833333335, "is_reserved": 0, "is_disabled": 0, "fusion_lat": 0.0}, {"fusion_lon": 0.0, "bike_id": "81a2dcb95f3e8d2fdaba6eab690e8d3b", "name": "81a2dcb95f3e8d2fdaba6eab690e8d3b", "type": "electric_scooter", "lon": -76.93184666666667, "rental_uris": {"android": "https://dc.lft.to/lastmile_qr_scan", "ios": "https://dc.lft.to/lastmile_qr_scan"}, "lat": 38.8987815, "is_reserved": 0, "is_disabled": 0, "fusion_lat": 0.0}, {"fusion_lon": 0.0, "bike_id": "6dd6e1c47f59b8e39dea2e7e87db4869", "name": "6dd6e1c47f59b8e39dea2e7e87db4869", "type": "electric_scooter", "lon": -76.98077916666666, "rental_uris": {"android": "https://dc.lft.to/lastmile_qr_scan", "ios": "https://dc.lft.to/lastmile_qr_scan"}, "lat": 38.9167435, "is_reserved": 0, "is_disabled": 0, "fusion_lat": 0.0}, {"fusion_lon": 0.0, "bike_id": "928272e150224bd02f19f48dfcab1549", "name": "928272e150224bd02f19f48dfcab1549", "type": "electric_scooter", "lon": -77.00595066666666, "rental_uris": {"android": "https://dc.lft.to/lastmile_qr_scan", "ios": "https://dc.lft.to/lastmile_qr_scan"}, "lat": 38.87709783333333, "is_reserved": 0, "is_disabled": 0, "fusion_lat": 0.0}, {"fusion_lon": 0.0, "bike_id": "0ce3cf7015e18a4194c75d5459edfd1c", "name": "0ce3cf7015e18a4194c75d5459edfd1c", "type": "electric_scooter", "lon": -77.05297233333333, "rental_uris": {"android": "https://dc.lft.to/lastmile_qr_scan", "ios": "https://dc.lft.to/lastmile_qr_scan"}, "lat": 38.92795133333333, "is_reserved": 0, "is_disabled": 0, "fusion_lat": 0.0}, {"fusion_lon": 0.0, "bike_id": "f3bc76abfe9e892d8b867549d9a2f119", "name": "f3bc76abfe9e892d8b867549d9a2f119", "type": "electric_scooter", "lon": -77.02495083333334, "rental_uris": {"android": "https://dc.lft.to/lastmile_qr_scan", "ios": "https://dc.lft.to/lastmile_qr_scan"}, "lat": 38.91808966666667, "is_reserved": 0, "is_disabled": 0, "fusion_lat": 0.0}, {"fusion_lon": 0.0, "bike_id": "69fe039e5d5c774627c8ab76a9755e1d", "name": "69fe039e5d5c774627c8ab76a9755e1d", "type": "electric_scooter", "lon": -77.025073, "rental_uris": {"android": "https://dc.lft.to/lastmile_qr_scan", "ios": "https://dc.lft.to/lastmile_qr_scan"}, "lat": 38.91962133333333, "is_reserved": 0, "is_disabled": 0, "fusion_lat": 0.0}, {"fusion_lon": 0.0, "bike_id": "0e5f32e8968b46be9ff35c7f3644fdd5", "name": "0e5f32e8968b46be9ff35c7f3644fdd5", "type": "electric_bike", "lon": -76.98329916666667, "rental_uris": {"android": "https://dc.lft.to/lastmile_qr_scan", "ios": "https://dc.lft.to/lastmile_qr_scan"}, "lat": 38.96609766666667, "is_reserved": 0, "is_disabled": 0, "fusion_lat": 0.0}, {"fusion_lon": 0.0, "bike_id": "b21f33309b34e2b7b1a3a5d7a4ea7275", "name": "b21f33309b34e2b7b1a3a5d7a4ea7275", "type": "electric_scooter", "lon": -76.9984945, "rental_uris": {"android": "https://dc.lft.to/lastmile_qr_scan", "ios": "https://dc.lft.to/lastmile_qr_scan"}, "lat": 38.90036466666667, "is_reserved": 0, "is_disabled": 0, "fusion_lat": 0.0}, {"fusion_lon": 0.0, "bike_id": "09ff48567b79b6850ebf48369f9a1de4", "name": "09ff48567b79b6850ebf48369f9a1de4", "type": "electric_scooter", "lon": -76.99000016666666, "rental_uris": {"android": "https://dc.lft.to/lastmile_qr_scan", "ios": "https://dc.lft.to/lastmile_qr_scan"}, "lat": 38.86508533333333, "is_reserved": 0, "is_disabled": 0, "fusion_lat": 0.0}, {"fusion_lon": 0.0, "bike_id": "89a230d5031cc7dcdf210315735f8d5a", "name": "89a230d5031cc7dcdf210315735f8d5a", "type": "electric_scooter", "lon": -76.934322, "rental_uris": {"android": "https://dc.lft.to/lastmile_qr_scan", "ios": "https://dc.lft.to/lastmile_qr_scan"}, "lat": 38.89968483333333, "is_reserved": 0, "is_disabled": 0, "fusion_lat": 0.0}, {"fusion_lon": 0.0, "bike_id": "357f7017a4ac58e3d50593929faf5530", "name": "357f7017a4ac58e3d50593929faf5530", "type": "electric_scooter", "lon": -77.02842733333334, "rental_uris": {"android": "https://dc.lft.to/lastmile_qr_scan", "ios": "https://dc.lft.to/lastmile_qr_scan"}, "lat": 38.922383833333335, "is_reserved": 0, "is_disabled": 0, "fusion_lat": 0.0}, {"fusion_lon": 0.0, "bike_id": "1454765cd72ac76b115c4d3704d40d5a", "name": "1454765cd72ac76b115c4d3704d40d5a", "type": "electric_scooter", "lon": -77.022896, "rental_uris": {"android": "https://dc.lft.to/lastmile_qr_scan", "ios": "https://dc.lft.to/lastmile_qr_scan"}, "lat": 38.916969, "is_reserved": 0, "is_disabled": 0, "fusion_lat": 0.0}, {"fusion_lon": 0.0, "bike_id": "bdbf6290a528397d4c5af1c1bfb019ca", "name": "bdbf6290a528397d4c5af1c1bfb019ca", "type": "electric_scooter", "lon": -76.99818766666667, "rental_uris": {"android": "https://dc.lft.to/lastmile_qr_scan", "ios": "https://dc.lft.to/lastmile_qr_scan"}, "lat": 38.844358, "is_reserved": 0, "is_disabled": 0, "fusion_lat": 0.0}, {"fusion_lon": 0.0, "bike_id": "c38084d7a19bb8f9e2bd51cf1795eb57", "name": "c38084d7a19bb8f9e2bd51cf1795eb57", "type": "electric_scooter", "lon": -77.02275433333334, "rental_uris": {"android": "https://dc.lft.to/lastmile_qr_scan", "ios": "https://dc.lft.to/lastmile_qr_scan"}, "lat": 38.9269295, "is_reserved": 0, "is_disabled": 0, "fusion_lat": 0.0}, {"fusion_lon": 0.0, "bike_id": "30897b35792f276b294ac76619a5f0d9", "name": "30897b35792f276b294ac76619a5f0d9", "type": "electric_scooter", "lon": -77.03663233333333, "rental_uris": {"android": "https://dc.lft.to/lastmile_qr_scan", "ios": "https://dc.lft.to/lastmile_qr_scan"}, "lat": 38.922901, "is_reserved": 0, "is_disabled": 0, "fusion_lat": 0.0}, {"fusion_lon": 0.0, "bike_id": "144db2d185fff61447ee8214965529ba", "name": "144db2d185fff61447ee8214965529ba", "type": "electric_bike", "lon": -77.080524, "rental_uris": {"android": "https://dc.lft.to/lastmile_qr_scan", "ios": "https://dc.lft.to/lastmile_qr_scan"}, "lat": 38.84845933333333, "is_reserved": 0, "is_disabled": 0, "fusion_lat": 0.0}, {"fusion_lon": 0.0, "bike_id": "ab932e546bbc3dc6d5e62441b5b9a101", "name": "ab932e546bbc3dc6d5e62441b5b9a101", "type": "electric_scooter", "lon": -76.98882533333334, "rental_uris": {"android": "https://dc.lft.to/lastmile_qr_scan", "ios": "https://dc.lft.to/lastmile_qr_scan"}, "lat": 38.906341833333336, "is_reserved": 0, "is_disabled": 0, "fusion_lat": 0.0}, {"fusion_lon": 0.0, "bike_id": "4d6fa7309451068bcf36294bdb397f7b", "name": "4d6fa7309451068bcf36294bdb397f7b", "type": "electric_scooter", "lon": -77.04671133333333, "rental_uris": {"android": "https://dc.lft.to/lastmile_qr_scan", "ios": "https://dc.lft.to/lastmile_qr_scan"}, "lat": 38.913184333333334, "is_reserved": 0, "is_disabled": 0, "fusion_lat": 0.0}, {"fusion_lon": 0.0, "bike_id": "7605bb0277765624be0c770dd9eda622", "name": "7605bb0277765624be0c770dd9eda622", "type": "electric_scooter", "lon": -77.012119, "rental_uris": {"android": "https://dc.lft.to/lastmile_qr_scan", "ios": "https://dc.lft.to/lastmile_qr_scan"}, "lat": 38.91984433333333, "is_reserved": 0, "is_disabled": 0, "fusion_lat": 0.0}, {"fusion_lon": 0.0, "bike_id": "d4d275b469c78a6739fbe47f270677e3", "name": "d4d275b469c78a6739fbe47f270677e3", "type": "electric_scooter", "lon": -77.0465885, "rental_uris": {"android": "https://dc.lft.to/lastmile_qr_scan", "ios": "https://dc.lft.to/lastmile_qr_scan"}, "lat": 38.8934135, "is_reserved": 0, "is_disabled": 0, "fusion_lat": 0.0}, {"fusion_lon": 0.0, "bike_id": "1519c15f492ddf63b62bc6a8af4bf638", "name": "1519c15f492ddf63b62bc6a8af4bf638", "type": "electric_bike", "lon": -76.9809215, "rental_uris": {"android": "https://dc.lft.to/lastmile_qr_scan", "ios": "https://dc.lft.to/lastmile_qr_scan"}, "lat": 38.95358133333333, "is_reserved": 0, "is_disabled": 0, "fusion_lat": 0.0}, {"fusion_lon": 0.0, "bike_id": "fe71d44130fa3b23bd7949df9f60c765", "name": "fe71d44130fa3b23bd7949df9f60c765", "type": "electric_scooter", "lon": -77.0437045, "rental_uris": {"android": "https://dc.lft.to/lastmile_qr_scan", "ios": "https://dc.lft.to/lastmile_qr_scan"}, "lat": 38.9257815, "is_reserved": 0, "is_disabled": 0, "fusion_lat": 0.0}, {"fusion_lon": 0.0, "bike_id": "19198bd2ea3ff8fcd823ec8c8e60c600", "name": "19198bd2ea3ff8fcd823ec8c8e60c600", "type": "electric_bike", "lon": -77.01215633333334, "rental_uris": {"android": "https://dc.lft.to/lastmile_qr_scan", "ios": "https://dc.lft.to/lastmile_qr_scan"}, "lat": 38.870953, "is_reserved": 0, "is_disabled": 0, "fusion_lat": 0.0}, {"fusion_lon": 0.0, "bike_id": "fe5830e7920229c3a33ed4d2cb36d9ce", "name": "fe5830e7920229c3a33ed4d2cb36d9ce", "type": "electric_scooter", "lon": -76.95755716666666, "rental_uris": {"android": "https://dc.lft.to/lastmile_qr_scan", "ios": "https://dc.lft.to/lastmile_qr_scan"}, "lat": 38.88431216666667, "is_reserved": 0, "is_disabled": 0, "fusion_lat": 0.0}, {"fusion_lon": 0.0, "bike_id": "3dc50137ba175209442afc87eca0e50b", "name": "3dc50137ba175209442afc87eca0e50b", "type": "electric_scooter", "lon": -77.01162916666667, "rental_uris": {"android": "https://dc.lft.to/lastmile_qr_scan", "ios": "https://dc.lft.to/lastmile_qr_scan"}, "lat": 38.872015833333336, "is_reserved": 0, "is_disabled": 0, "fusion_lat": 0.0}, {"fusion_lon": 0.0, "bike_id": "6e1c1044b073ec2a0d73e246e9e1f853", "name": "6e1c1044b073ec2a0d73e246e9e1f853", "type": "electric_scooter", "lon": -77.04514716666667, "rental_uris": {"android": "https://dc.lft.to/lastmile_qr_scan", "ios": "https://dc.lft.to/lastmile_qr_scan"}, "lat": 38.91829333333333, "is_reserved": 0, "is_disabled": 0, "fusion_lat": 0.0}, {"fusion_lon": 0.0, "bike_id": "9b8203e121eaa33fabb941256318d806", "name": "9b8203e121eaa33fabb941256318d806", "type": "electric_scooter", "lon": -77.0204015, "rental_uris": {"android": "https://dc.lft.to/lastmile_qr_scan", "ios": "https://dc.lft.to/lastmile_qr_scan"}, "lat": 38.91110066666667, "is_reserved": 0, "is_disabled": 0, "fusion_lat": 0.0}, {"fusion_lon": 0.0, "bike_id": "122dec66f140dcad5cf405e672ad3548", "name": "122dec66f140dcad5cf405e672ad3548", "type": "electric_scooter", "lon": -76.9870435, "rental_uris": {"android": "https://dc.lft.to/lastmile_qr_scan", "ios": "https://dc.lft.to/lastmile_qr_scan"}, "lat": 38.90129816666666, "is_reserved": 0, "is_disabled": 0, "fusion_lat": 0.0}, {"fusion_lon": 0.0, "bike_id": "7111a590b40b8d5c4ea2acb6ebf40ceb", "name": "7111a590b40b8d5c4ea2acb6ebf40ceb", "type": "electric_bike", "lon": -76.96689016666667, "rental_uris": {"android": "https://dc.lft.to/lastmile_qr_scan", "ios": "https://dc.lft.to/lastmile_qr_scan"}, "lat": 38.95894216666667, "is_reserved": 0, "is_disabled": 0, "fusion_lat": 0.0}, {"fusion_lon": 0.0, "bike_id": "74a609492d1f5a7ee14a0a72676bb686", "name": "74a609492d1f5a7ee14a0a72676bb686", "type": "electric_scooter", "lon": -77.03641516666667, "rental_uris": {"android": "https://dc.lft.to/lastmile_qr_scan", "ios": "https://dc.lft.to/lastmile_qr_scan"}, "lat": 38.924130166666664, "is_reserved": 0, "is_disabled": 0, "fusion_lat": 0.0}, {"fusion_lon": 0.0, "bike_id": "f26143b972cd3e6f242dfd9eb44343e6", "name": "f26143b972cd3e6f242dfd9eb44343e6", "type": "electric_scooter", "lon": -77.0519305, "rental_uris": {"android": "https://dc.lft.to/lastmile_qr_scan", "ios": "https://dc.lft.to/lastmile_qr_scan"}, "lat": 38.925526166666664, "is_reserved": 0, "is_disabled": 0, "fusion_lat": 0.0}, {"fusion_lon": 0.0, "bike_id": "ea52d53fb98ab872b623223deaf17ff9", "name": "ea52d53fb98ab872b623223deaf17ff9", "type": "electric_scooter", "lon": -77.02481933333334, "rental_uris": {"android": "https://dc.lft.to/lastmile_qr_scan", "ios": "https://dc.lft.to/lastmile_qr_scan"}, "lat": 38.9161675, "is_reserved": 0, "is_disabled": 0, "fusion_lat": 0.0}, {"fusion_lon": 0.0, "bike_id": "25af4db01ce8785a744c1739c1623e60", "name": "25af4db01ce8785a744c1739c1623e60", "type": "electric_bike", "lon": -77.01306066666666, "rental_uris": {"android": "https://dc.lft.to/lastmile_qr_scan", "ios": "https://dc.lft.to/lastmile_qr_scan"}, "lat": 38.8813655, "is_reserved": 0, "is_disabled": 0, "fusion_lat": 0.0}, {"fusion_lon": 0.0, "bike_id": "20dae10c44bdabb212a50985b3d91cbd", "name": "20dae10c44bdabb212a50985b3d91cbd", "type": "electric_scooter", "lon": -77.079923, "rental_uris": {"android": "https://dc.lft.to/lastmile_qr_scan", "ios": "https://dc.lft.to/lastmile_qr_scan"}, "lat": 38.92374516666667, "is_reserved": 0, "is_disabled": 0, "fusion_lat": 0.0}, {"fusion_lon": 0.0, "bike_id": "2bb5313a069bd537cf9b6fc5669b539a", "name": "2bb5313a069bd537cf9b6fc5669b539a", "type": "electric_scooter", "lon": -77.05092466666666, "rental_uris": {"android": "https://dc.lft.to/lastmile_qr_scan", "ios": "https://dc.lft.to/lastmile_qr_scan"}, "lat": 38.9234225, "is_reserved": 0, "is_disabled": 0, "fusion_lat": 0.0}, {"fusion_lon": 0.0, "bike_id": "5a982fc889030dc5dcafab2295bec666", "name": "5a982fc889030dc5dcafab2295bec666", "type": "electric_scooter", "lon": -77.001971, "rental_uris": {"android": "https://dc.lft.to/lastmile_qr_scan", "ios": "https://dc.lft.to/lastmile_qr_scan"},