{"data": {"bikes": [{"lon": -77.03661583333333, "fusion_lat": 0.0, "type": "electric_scooter", "lat": 38.9211715, "is_disabled": 0, "name": "fc5c76a4e9d27a6fa0018abf1455d75e", "is_reserved": 0, "bike_id": "fc5c76a4e9d27a6fa0018abf1455d75e", "fusion_lon": 0.0, "rental_uris": {"ios": "https://dc.lft.to/lastmile_qr_scan", "android": "https://dc.lft.to/lastmile_qr_scan"}}, {"lon": -77.03827616666666, "fusion_lat": 0.0, "type": "electric_scooter", "lat": 38.92468733333333, "is_disabled": 0, "name": "fc184fc205c50a3286a1fb7965016c27", "is_reserved": 0, "bike_id": "fc184fc205c50a3286a1fb7965016c27", "fusion_lon": 0.0, "rental_uris": {"ios": "https://dc.lft.to/lastmile_qr_scan", "android": "https://dc.lft.to/lastmile_qr_scan"}}, {"lon": -77.04276533333334, "fusion_lat": 0.0, "type": "electric_scooter", "lat": 38.906525333333335, "is_disabled": 0, "name": "6c64a6dd7ca664f01629c57003ab975f", "is_reserved": 0, "bike_id": "6c64a6dd7ca664f01629c57003ab975f", "fusion_lon": 0.0, "rental_uris": {"ios": "https://dc.lft.to/lastmile_qr_scan", "android": "https://dc.lft.to/lastmile_qr_scan"}}, {"lon": -77.02376616666666, "fusion_lat": 0.0, "type": "electric_scooter", "lat": 38.941992666666664, "is_disabled": 0, "name": "9ee7174646d2fce68a002e6950a46311", "is_reserved": 0, "bike_id": "9ee7174646d2fce68a002e6950a46311", "fusion_lon": 0.0, "rental_uris": {"ios": "https://dc.lft.to/lastmile_qr_scan", "android": "https://dc.lft.to/lastmile_qr_scan"}}, {"lon": -77.02097966666666, "fusion_lat": 0.0, "type": "electric_scooter", "lat": 38.932612, "is_disabled": 0, "name": "d632ddba0da8b2ba8a9381ee9972d6af", "is_reserved": 0, "bike_id": "d632ddba0da8b2ba8a9381ee9972d6af", "fusion_lon": 0.0, "rental_uris": {"ios": "https://dc.lft.to/lastmile_qr_scan", "android": "https://dc.lft.to/lastmile_qr_scan"}}, {"lon": -77.02401733333333, "fusion_lat": 0.0, "type": "electric_scooter", "lat": 38.90948383333333, "is_disabled": 0, "name": "4fc09e0fffd9d34dfa1d552dd0acf6d8", "is_reserved": 0, "bike_id": "4fc09e0fffd9d34dfa1d552dd0acf6d8", "fusion_lon": 0.0, "rental_uris": {"ios": "https://dc.lft.to/lastmile_qr_scan", "android": "https://dc.lft.to/lastmile_qr_scan"}}, {"lon": -77.055289, "fusion_lat": 0.0, "type": "electric_scooter", "lat": 38.89723016666667, "is_disabled": 0, "name": "fa5d5cc4e0d06e15a73051da917c013e", "is_reserved": 0, "bike_id": "fa5d5cc4e0d06e15a73051da917c013e", "fusion_lon": 0.0, "rental_uris": {"ios": "https://dc.lft.to/lastmile_qr_scan", "android": "https://dc.lft.to/lastmile_qr_scan"}}, {"lon": -77.04873283333333, "fusion_lat": 0.0, "type": "electric_scooter", "lat": 38.904728, "is_disabled": 0, "name": "1d8278b43bda625cfa16368206616b11", "is_reserved": 0, "bike_id": "1d8278b43bda625cfa16368206616b11", "fusion_lon": 0.0, "rental_uris": {"ios": "https://dc.lft.to/lastmile_qr_scan", "android": "https://dc.lft.to/lastmile_qr_scan"}}, {"lon": -77.03081233333333, "fusion_lat": 0.0, "type": "electric_scooter", "lat": 38.898301833333335, "is_disabled": 0, "name": "7bebda2ae539a65ebee93d8e995f2bb2", "is_reserved": 0, "bike_id": "7bebda2ae539a65ebee93d8e995f2bb2", "fusion_lon": 0.0, "rental_uris": {"ios": "https://dc.lft.to/lastmile_qr_scan", "android": "https://dc.lft.to/lastmile_qr_scan"}}, {"lon": -77.0357735, "fusion_lat": 0.0, "type": "electric_scooter", "lat": 38.90466716666667, "is_disabled": 0, "name": "cf9a3a5eb1da162f762fc5ca18c127f5", "is_reserved": 0, "bike_id": "cf9a3a5eb1da162f762fc5ca18c127f5", "fusion_lon": 0.0, "rental_uris": {"ios": "https://dc.lft.to/lastmile_qr_scan", "android": "https://dc.lft.to/lastmile_qr_scan"}}, {"lon": -77.04874433333333, "fusion_lat": 0.0, "type": "electric_scooter", "lat": 38.9162035, "is_disabled": 0, "name": "c9a60b0ab27bfd0e804ea4a4cc7f2953", "is_reserved": 0, "bike_id": "c9a60b0ab27bfd0e804ea4a4cc7f2953", "fusion_lon": 0.0, "rental_uris": {"ios": "https://dc.lft.to/lastmile_qr_scan", "android": "https://dc.lft.to/lastmile_qr_scan"}}, {"lon": -77.01810866666666, "fusion_lat": 0.0, "type": "electric_scooter", "lat": 38.90257, "is_disabled": 0, "name": "bc70739d9bb8bda55cdb0ee0213fa849", "is_reserved": 0, "bike_id": "bc70739d9bb8bda55cdb0ee0213fa849", "fusion_lon": 0.0, "rental_uris": {"ios": "https://dc.lft.to/lastmile_qr_scan", "android": "https://dc.lft.to/lastmile_qr_scan"}}, {"lon": -77.033504, "fusion_lat": 0.0, "type": "electric_scooter", "lat": 38.913558, "is_disabled": 0, "name": "95321e8cd801ce701002bdbc8ce69cf9", "is_reserved": 0, "bike_id": "95321e8cd801ce701002bdbc8ce69cf9", "fusion_lon": 0.0, "rental_uris": {"ios": "https://dc.lft.to/lastmile_qr_scan", "android": "https://dc.lft.to/lastmile_qr_scan"}}, {"lon": -77.0032165, "fusion_lat": 0.0, "type": "electric_scooter", "lat": 38.90745883333334, "is_disabled": 0, "name": "cf52e416f4f13df09c5d5ab6b8fe069a", "is_reserved": 0, "bike_id": "cf52e416f4f13df09c5d5ab6b8fe069a", "fusion_lon": 0.0, "rental_uris": {"ios": "https://dc.lft.to/lastmile_qr_scan", "android": "https://dc.lft.to/lastmile_qr_scan"}}, {"lon": -77.04593083333333, "fusion_lat": 0.0, "type": "electric_scooter", "lat": 38.898770999999996, "is_disabled": 0, "name": "d2f3d03dba6f8106eb99bb99c3996e07", "is_reserved": 0, "bike_id": "d2f3d03dba6f8106eb99bb99c3996e07", "fusion_lon": 0.0, "rental_uris": {"ios": "https://dc.lft.to/lastmile_qr_scan", "android": "https://dc.lft.to/lastmile_qr_scan"}}, {"lon": -77.0237835, "fusion_lat": 0.0, "type": "electric_scooter", "lat": 38.91783233333334, "is_disabled": 0, "name": "bfb28f21d609f621dfdf71edd6202de9", "is_reserved": 0, "bike_id": "bfb28f21d609f621dfdf71edd6202de9", "fusion_lon": 0.0, "rental_uris": {"ios": "https://dc.lft.to/lastmile_qr_scan", "android": "https://dc.lft.to/lastmile_qr_scan"}}, {"lon": -77.00588733333333, "fusion_lat": 0.0, "type": "electric_scooter", "lat": 38.8756755, "is_disabled": 0, "name": "8a8c6845889f9c7382d1c0a746473252", "is_reserved": 0, "bike_id": "8a8c6845889f9c7382d1c0a746473252", "fusion_lon": 0.0, "rental_uris": {"ios": "https://dc.lft.to/lastmile_qr_scan", "android": "https://dc.lft.to/lastmile_qr_scan"}}, {"lon": -77.06925466666667, "fusion_lat": 0.0, "type": "electric_scooter", "lat": 38.91231583333333, "is_disabled": 0, "name": "ac3c6fc17b4f58e53dfc60bade851a34", "is_reserved": 0, "bike_id": "ac3c6fc17b4f58e53dfc60bade851a34", "fusion_lon": 0.0, "rental_uris": {"ios": "https://dc.lft.to/lastmile_qr_scan", "android": "https://dc.lft.to/lastmile_qr_scan"}}, {"lon": -77.02470316666667, "fusion_lat": 0.0, "type": "electric_scooter", "lat": 38.93858, "is_disabled": 0, "name": "2e496c309d8c13b8364c947573e88a81", "is_reserved": 0, "bike_id": "2e496c309d8c13b8364c947573e88a81", "fusion_lon": 0.0, "rental_uris": {"ios": "https://dc.lft.to/lastmile_qr_scan", "android": "https://dc.lft.to/lastmile_qr_scan"}}, {"lon": -77.0362415, "fusion_lat": 0.0, "type": "electric_bike", "lat": 38.928828, "is_disabled": 0, "name": "8b9efbd114609ee45c9c6143ffa45969", "is_reserved": 0, "bike_id": "8b9efbd114609ee45c9c6143ffa45969", "fusion_lon": 0.0, "rental_uris": {"ios": "https://dc.lft.to/lastmile_qr_scan", "android": "https://dc.lft.to/lastmile_qr_scan"}}, {"lon": -77.04300433333333, "fusion_lat": 0.0, "type": "electric_scooter", "lat": 38.90135633333333, "is_disabled": 0, "name": "061cea3841fd7874cb4f9b01103ec84b", "is_reserved": 0, "bike_id": "061cea3841fd7874cb4f9b01103ec84b", "fusion_lon": 0.0, "rental_uris": {"ios": "https://dc.lft.to/lastmile_qr_scan", "android": "https://dc.lft.to/lastmile_qr_scan"}}, {"lon": -77.02958916666667, "fusion_lat": 0.0, "type": "electric_scooter", "lat": 38.91570183333333, "is_disabled": 0, "name": "02efb8d47b2f4d1233ac74c5cfbd4751", "is_reserved": 0, "bike_id": "02efb8d47b2f4d1233ac74c5cfbd4751", "fusion_lon": 0.0, "rental_uris": {"ios": "https://dc.lft.to/lastmile_qr_scan", "android": "https://dc.lft.to/lastmile_qr_scan"}}, {"lon": -77.0485775, "fusion_lat": 0.0, "type": "electric_scooter", "lat": 38.899594666666665, "is_disabled": 0, "name": "4d9cb63936c2899992328d46304ae5d8", "is_reserved": 0, "bike_id": "4d9cb63936c2899992328d46304ae5d8", "fusion_lon": 0.0, "rental_uris": {"ios": "https://dc.lft.to/lastmile_qr_scan", "android": "https://dc.lft.to/lastmile_qr_scan"}}, {"lon": -77.041103, "fusion_lat": 0.0, "type": "electric_scooter", "lat": 38.910612, "is_disabled": 0, "name": "9d1eaa352e32e1ba762eb7ea9763cccb", "is_reserved": 0, "bike_id": "9d1eaa352e32e1ba762eb7ea9763cccb", "fusion_lon": 0.0, "rental_uris": {"ios": "https://dc.lft.to/lastmile_qr_scan", "android": "https://dc.lft.to/lastmile_qr_scan"}}, {"lon": -77.0219315, "fusion_lat": 0.0, "type": "electric_scooter", "lat": 38.915348, "is_disabled": 0, "name": "e0fd8cd874a13161960c797672683131", "is_reserved": 0, "bike_id": "e0fd8cd874a13161960c797672683131", "fusion_lon": 0.0, "rental_uris": {"ios": "https://dc.lft.to/lastmile_qr_scan", "android": "https://dc.lft.to/lastmile_qr_scan"}}, {"lon": -77.05273016666666, "fusion_lat": 0.0, "type": "electric_scooter", "lat": 38.92759366666667, "is_disabled": 0, "name": "1e452ba43cd0118e9cd1b46aa7dcf39d", "is_reserved": 0, "bike_id": "1e452ba43cd0118e9cd1b46aa7dcf39d", "fusion_lon": 0.0, "rental_uris": {"ios": "https://dc.lft.to/lastmile_qr_scan", "android": "https://dc.lft.to/lastmile_qr_scan"}}, {"lon": -77.0436225, "fusion_lat": 0.0, "type": "electric_scooter", "lat": 38.9195675, "is_disabled": 0, "name": "e5247ca1ac14d0229e43d4a5f9506ff1", "is_reserved": 0, "bike_id": "e5247ca1ac14d0229e43d4a5f9506ff1", "fusion_lon": 0.0, "rental_uris": {"ios": "https://dc.lft.to/lastmile_qr_scan", "android": "https://dc.lft.to/lastmile_qr_scan"}}, {"lon": -77.00261183333333, "fusion_lat": 0.0, "type": "electric_scooter", "lat": 38.876547333333335, "is_disabled": 0, "name": "7b7ba030113df94c2c4fb7135c236a44", "is_reserved": 0, "bike_id": "7b7ba030113df94c2c4fb7135c236a44", "fusion_lon": 0.0, "rental_uris": {"ios": "https://dc.lft.to/lastmile_qr_scan", "android": "https://dc.lft.to/lastmile_qr_scan"}}, {"lon": -77.04981733333334, "fusion_lat": 0.0, "type": "electric_scooter", "lat": 38.900793666666665, "is_disabled": 0, "name": "dfe9eab8547f2ca794f18f80f79e3fac", "is_reserved": 0, "bike_id": "dfe9eab8547f2ca794f18f80f79e3fac", "fusion_lon": 0.0, "rental_uris": {"ios": "https://dc.lft.to/lastmile_qr_scan", "android": "https://dc.lft.to/lastmile_qr_scan"}}, {"lon": -77.02004483333333, "fusion_lat": 0.0, "type": "electric_scooter", "lat": 38.90402266666667, "is_disabled": 0, "name": "3790ba54c929d783bfe0c91cd7891757", "is_reserved": 0, "bike_id": "3790ba54c929d783bfe0c91cd7891757", "fusion_lon": 0.0, "rental_uris": {"ios": "https://dc.lft.to/lastmile_qr_scan", "android": "https://dc.lft.to/lastmile_qr_scan"}}, {"lon": -77.03200733333334, "fusion_lat": 0.0, "type": "electric_scooter", "lat": 38.915716, "is_disabled": 0, "name": "8ef7462f9d4b2b08033934b6afcb22dd", "is_reserved": 0, "bike_id": "8ef7462f9d4b2b08033934b6afcb22dd", "fusion_lon": 0.0, "rental_uris": {"ios": "https://dc.lft.to/lastmile_qr_scan", "android": "https://dc.lft.to/lastmile_qr_scan"}}, {"lon": -77.02467616666667, "fusion_lat": 0.0, "type": "electric_scooter", "lat": 38.91662983333333, "is_disabled": 0, "name": "73f105ff59fe2d70c355a2fa182cfd4d", "is_reserved": 0, "bike_id": "73f105ff59fe2d70c355a2fa182cfd4d", "fusion_lon": 0.0, "rental_uris": {"ios": "https://dc.lft.to/lastmile_qr_scan", "android": "https://dc.lft.to/lastmile_qr_scan"}}, {"lon": -77.02654266666667, "fusion_lat": 0.0, "type": "electric_scooter", "lat": 38.897333333333336, "is_disabled": 0, "name": "f7542c48466e43ab7e1a34c0b0ca3abe", "is_reserved": 0, "bike_id": "f7542c48466e43ab7e1a34c0b0ca3abe", "fusion_lon": 0.0, "rental_uris": {"ios": "https://dc.lft.to/lastmile_qr_scan", "android": "https://dc.lft.to/lastmile_qr_scan"}}, {"lon": -77.06047516666666, "fusion_lat": 0.0, "type": "electric_scooter", "lat": 38.93906466666667, "is_disabled": 0, "name": "e62be62c7560618829084afb9d6b009d", "is_reserved": 0, "bike_id": "e62be62c7560618829084afb9d6b009d", "fusion_lon": 0.0, "rental_uris": {"ios": "https://dc.lft.to/lastmile_qr_scan", "android": "https://dc.lft.to/lastmile_qr_scan"}}, {"lon": -77.050695, "fusion_lat": 0.0, "type": "electric_scooter", "lat": 38.90069416666667, "is_disabled": 0, "name": "b783d3c3c7ec2a0a4eca71a99916f2bb", "is_reserved": 0, "bike_id": "b783d3c3c7ec2a0a4eca71a99916f2bb", "fusion_lon": 0.0, "rental_uris": {"ios": "https://dc.lft.to/lastmile_qr_scan", "android": "https://dc.lft.to/lastmile_qr_scan"}}, {"lon": -77.0271105, "fusion_lat": 0.0, "type": "electric_scooter", "lat": 38.897139833333334, "is_disabled": 0, "name": "5c0b41c77a83127ea078bf6755cc8689", "is_reserved": 0, "bike_id": "5c0b41c77a83127ea078bf6755cc8689", "fusion_lon": 0.0, "rental_uris": {"ios": "https://dc.lft.to/lastmile_qr_scan", "android": "https://dc.lft.to/lastmile_qr_scan"}}, {"lon": -77.0328635, "fusion_lat": 0.0, "type": "electric_scooter", "lat": 38.929077, "is_disabled": 0, "name": "a36340c698bc721896f0c1ae820ada5f", "is_reserved": 0, "bike_id": "a36340c698bc721896f0c1ae820ada5f", "fusion_lon": 0.0, "rental_uris": {"ios": "https://dc.lft.to/lastmile_qr_scan", "android": "https://dc.lft.to/lastmile_qr_scan"}}, {"lon": -77.07276983333334, "fusion_lat": 0.0, "type": "electric_scooter", "lat": 38.908941166666665, "is_disabled": 0, "name": "27b8ba87c5da486bf40c533324baf146", "is_reserved": 0, "bike_id": "27b8ba87c5da486bf40c533324baf146", "fusion_lon": 0.0, "rental_uris": {"ios": "https://dc.lft.to/lastmile_qr_scan", "android": "https://dc.lft.to/lastmile_qr_scan"}}, {"lon": -77.00069, "fusion_lat": 0.0, "type": "electric_scooter", "lat": 38.924373833333334, "is_disabled": 0, "name": "75ae7799d1ffe9b05613e7ded9f5be67", "is_reserved": 0, "bike_id": "75ae7799d1ffe9b05613e7ded9f5be67", "fusion_lon": 0.0, "rental_uris": {"ios": "https://dc.lft.to/lastmile_qr_scan", "android": "https://dc.lft.to/lastmile_qr_scan"}}, {"lon": -77.04068866666667, "fusion_lat": 0.0, "type": "electric_scooter", "lat": 38.9004375, "is_disabled": 0, "name": "b2a5dac0cb5f34745fccfe4a2dad932f", "is_reserved": 0, "bike_id": "b2a5dac0cb5f34745fccfe4a2dad932f", "fusion_lon": 0.0, "rental_uris": {"ios": "https://dc.lft.to/lastmile_qr_scan", "android": "https://dc.lft.to/lastmile_qr_scan"}}, {"lon": -77.03085583333333, "fusion_lat": 0.0, "type": "electric_scooter", "lat": 38.9278675, "is_disabled": 0, "name": "a47d3088d62df77287b48ba632227a71", "is_reserved": 0, "bike_id": "a47d3088d62df77287b48ba632227a71", "fusion_lon": 0.0, "rental_uris": {"ios": "https://dc.lft.to/lastmile_qr_scan", "android": "https://dc.lft.to/lastmile_qr_scan"}}, {"lon": -77.028202, "fusion_lat": 0.0, "type": "electric_scooter", "lat": 38.8983285, "is_disabled": 0, "name": "7fb560dcb63ec8f08c02d92ebfefbf8c", "is_reserved": 0, "bike_id": "7fb560dcb63ec8f08c02d92ebfefbf8c", "fusion_lon": 0.0, "rental_uris": {"ios": "https://dc.lft.to/lastmile_qr_scan", "android": "https://dc.lft.to/lastmile_qr_scan"}}, {"lon": -77.0249865, "fusion_lat": 0.0, "type": "electric_scooter", "lat": 38.92600133333333, "is_disabled": 0, "name": "356d3cbaf9636e6706a50ade54f74713", "is_reserved": 0, "bike_id": "356d3cbaf9636e6706a50ade54f74713", "fusion_lon": 0.0, "rental_uris": {"ios": "https://dc.lft.to/lastmile_qr_scan", "android": "https://dc.lft.to/lastmile_qr_scan"}}, {"lon": -77.23410916666667, "fusion_lat": 0.0, "type": "electric_bike", "lat": 38.875773333333335, "is_disabled": 0, "name": "9d6d625577f7a02bd2ae3bdd0082dccd", "is_reserved": 0, "bike_id": "9d6d625577f7a02bd2ae3bdd0082dccd", "fusion_lon": 0.0, "rental_uris": {"ios": "https://dc.lft.to/lastmile_qr_scan", "android": "https://dc.lft.to/lastmile_qr_scan"}}, {"lon": -77.050858, "fusion_lat": 0.0, "type": "electric_scooter", "lat": 38.92353, "is_disabled": 0, "name": "9719c64cc04eb1bef80daf0de8af2adb", "is_reserved": 0, "bike_id": "9719c64cc04eb1bef80daf0de8af2adb", "fusion_lon": 0.0, "rental_uris": {"ios": "https://dc.lft.to/lastmile_qr_scan", "android": "https://dc.lft.to/lastmile_qr_scan"}}, {"lon": -77.024837, "fusion_lat": 0.0, "type": "electric_scooter", "lat": 38.94192133333333, "is_disabled": 0, "name": "80c67af894bda6d377217c9fe4b66e1b", "is_reserved": 0, "bike_id": "80c67af894bda6d377217c9fe4b66e1b", "fusion_lon": 0.0, "rental_uris": {"ios": "https://dc.lft.to/lastmile_qr_scan", "android": "https://dc.lft.to/lastmile_qr_scan"}}, {"lon": -76.98211033333334, "fusion_lat": 0.0, "type": "electric_scooter", "lat": 38.857118166666666, "is_disabled": 0, "name": "5a515ce392671db6493cc4436e88c2f3", "is_reserved": 0, "bike_id": "5a515ce392671db6493cc4436e88c2f3", "fusion_lon": 0.0, "rental_uris": {"ios": "https://dc.lft.to/lastmile_qr_scan", "android": "https://dc.lft.to/lastmile_qr_scan"}}, {"lon": -76.99171516666667, "fusion_lat": 0.0, "type": "electric_scooter", "lat": 38.88075083333333, "is_disabled": 0, "name": "4984e90a977269e152c57c4f420c7633", "is_reserved": 0, "bike_id": "4984e90a977269e152c57c4f420c7633", "fusion_lon": 0.0, "rental_uris": {"ios": "https://dc.lft.to/lastmile_qr_scan", "android": "https://dc.lft.to/lastmile_qr_scan"}}, {"lon": -77.00598483333333, "fusion_lat": 0.0, "type": "electric_scooter", "lat": 38.8756595, "is_disabled": 0, "name": "818623364a71158a4e4ad8fa3b345af9", "is_reserved": 0, "bike_id": "818623364a71158a4e4ad8fa3b345af9", "fusion_lon": 0.0, "rental_uris": {"ios": "https://dc.lft.to/lastmile_qr_scan", "android": "https://dc.lft.to/lastmile_qr_scan"}}, {"lon": -77.0235555, "fusion_lat": 0.0, "type": "electric_scooter", "lat": 38.935335333333335, "is_disabled": 0, "name": "c3039ed3e32bdbac52e5be1f840356d5", "is_reserved": 0, "bike_id": "c3039ed3e32bdbac52e5be1f840356d5", "fusion_lon": 0.0, "rental_uris": {"ios": "https://dc.lft.to/lastmile_qr_scan", "android": "https://dc.lft.to/lastmile_qr_scan"}}, {"lon": -77.02286616666666, "fusion_lat": 0.0, "type": "electric_scooter", "lat": 38.9149, "is_disabled": 0, "name": "1702451b75ea4e7d04ca99969ae8a67a", "is_reserved": 0, "bike_id": "1702451b75ea4e7d04ca99969ae8a67a", "fusion_lon": 0.0, "rental_uris": {"ios": "https://dc.lft.to/lastmile_qr_scan", "android": "https://dc.lft.to/lastmile_qr_scan"}}, {"lon": -77.05806016666666, "fusion_lat": 0.0, "type": "electric_scooter", "lat": 38.934557166666664, "is_disabled": 0, "name": "5cb9e4af23c6703c7899b5b486fa421b", "is_reserved": 0, "bike_id": "5cb9e4af23c6703c7899b5b486fa421b", "fusion_lon": 0.0, "rental_uris": {"ios": "https://dc.lft.to/lastmile_qr_scan", "android": "https://dc.lft.to/lastmile_qr_scan"}}, {"lon": -77.03803966666666, "fusion_lat": 0.0, "type": "electric_scooter", "lat": 38.90967083333334, "is_disabled": 0, "name": "8c1d0f327b01dc38c8860a0d8006d197", "is_reserved": 0, "bike_id": "8c1d0f327b01dc38c8860a0d8006d197", "fusion_lon": 0.0, "rental_uris": {"ios": "https://dc.lft.to/lastmile_qr_scan", "android": "https://dc.lft.to/lastmile_qr_scan"}}, {"lon": -76.982396, "fusion_lat": 0.0, "type": "electric_scooter", "lat": 38.86468683333333, "is_disabled": 0, "name": "eb96670f3ac8402d0136cce26bd4187b", "is_reserved": 0, "bike_id": "eb96670f3ac8402d0136cce26bd4187b", "fusion_lon": 0.0, "rental_uris": {"ios": "https://dc.lft.to/lastmile_qr_scan", "android": "https://dc.lft.to/lastmile_qr_scan"}}, {"lon": -77.04856883333333, "fusion_lat": 0.0, "type": "electric_scooter", "lat": 38.89329, "is_disabled": 0, "name": "d538e4f5fcdc6e5f076e476a2cd5cb1a", "is_reserved": 0, "bike_id": "d538e4f5fcdc6e5f076e476a2cd5cb1a", "fusion_lon": 0.0, "rental_uris": {"ios": "https://dc.lft.to/lastmile_qr_scan", "android": "https://dc.lft.to/lastmile_qr_scan"}}, {"lon": -76.93011166666666, "fusion_lat": 0.0, "type": "electric_scooter", "lat": 38.898186833333334, "is_disabled": 0, "name": "69f6e4fca31234802f8c258722b9adc4", "is_reserved": 0, "bike_id": "69f6e4fca31234802f8c258722b9adc4", "fusion_lon": 0.0, "rental_uris": {"ios": "https://dc.lft.to/lastmile_qr_scan", "android": "https://dc.lft.to/lastmile_qr_scan"}}, {"lon": -76.99024316666667, "fusion_lat": 0.0, "type": "electric_bike", "lat": 38.8358355, "is_disabled": 0, "name": "07bbacaf7fb9596ad833ab4b22a24026", "is_reserved": 0, "bike_id": "07bbacaf7fb9596ad833ab4b22a24026", "fusion_lon": 0.0, "rental_uris": {"ios": "https://dc.lft.to/lastmile_qr_scan", "android": "https://dc.lft.to/lastmile_qr_scan"}}, {"lon": -76.98913666666667, "fusion_lat": 0.0, "type": "electric_scooter", "lat": 38.88201, "is_disabled": 0, "name": "2bed46a2853052009fdfd4c2d08a7015", "is_reserved": 0, "bike_id": "2bed46a2853052009fdfd4c2d08a7015", "fusion_lon": 0.0, "rental_uris": {"ios": "https://dc.lft.to/lastmile_qr_scan", "android": "https://dc.lft.to/lastmile_qr_scan"}}, {"lon": -76.98703116666667, "fusion_lat": 0.0, "type": "electric_scooter", "lat": 38.8634735, "is_disabled": 0, "name": "50d17d5291774a3b682b38b5bae50557", "is_reserved": 0, "bike_id": "50d17d5291774a3b682b38b5bae50557", "fusion_lon": 0.0, "rental_uris": {"ios": "https://dc.lft.to/lastmile_qr_scan", "android": "https://dc.lft.to/lastmile_qr_scan"}}, {"lon": -77.0260465, "fusion_lat": 0.0, "type": "electric_scooter", "lat": 38.89974866666667, "is_disabled": 0, "name": "a2b0a2926b1b36b4aa0d2dbe5daa45de", "is_reserved": 0, "bike_id": "a2b0a2926b1b36b4aa0d2dbe5daa45de", "fusion_lon": 0.0, "rental_uris": {"ios": "https://dc.lft.to/lastmile_qr_scan", "android": "https://dc.lft.to/lastmile_qr_scan"}}, {"lon": -77.03212166666667, "fusion_lat": 0.0, "type": "electric_scooter", "lat": 38.918432333333335, "is_disabled": 0, "name": "a9e6bfaf91659f859de2a075e5e9fbb2", "is_reserved": 0, "bike_id": "a9e6bfaf91659f859de2a075e5e9fbb2", "fusion_lon": 0.0, "rental_uris": {"ios": "https://dc.lft.to/lastmile_qr_scan", "android": "https://dc.lft.to/lastmile_qr_scan"}}, {"lon": -77.03353633333333, "fusion_lat": 0.0, "type": "electric_scooter", "lat": 38.9223125, "is_disabled": 0, "name": "1ec19beae7444d609f9c9853df620e11", "is_reserved": 0, "bike_id": "1ec19beae7444d609f9c9853df620e11", "fusion_lon": 0.0, "rental_uris": {"ios": "https://dc.lft.to/lastmile_qr_scan", "android": "https://dc.lft.to/lastmile_qr_scan"}}, {"lon": -77.02213866666666, "fusion_lat": 0.0, "type": "electric_scooter", "lat": 38.89730633333333, "is_disabled": 0, "name": "e44b09e8631926652a643dd29178fe92", "is_reserved": 0, "bike_id": "e44b09e8631926652a643dd29178fe92", "fusion_lon": 0.0, "rental_uris": {"ios": "https://dc.lft.to/lastmile_qr_scan", "android": "https://dc.lft.to/lastmile_qr_scan"}}, {"lon": -77.0747115, "fusion_lat": 0.0, "type": "electric_scooter", "lat": 38.935508, "is_disabled": 0, "name": "941bb9cc4f5983ab325e4d214f0f79e4", "is_reserved": 0, "bike_id": "941bb9cc4f5983ab325e4d214f0f79e4", "fusion_lon": 0.0, "rental_uris": {"ios": "https://dc.lft.to/lastmile_qr_scan", "android": "https://dc.lft.to/lastmile_qr_scan"}}, {"lon": -77.02219466666666, "fusion_lat": 0.0, "type": "electric_scooter", "lat": 38.924686333333334, "is_disabled": 0, "name": "da071c228b2f58801dcccfb9ec93016f", "is_reserved": 0, "bike_id": "da071c228b2f58801dcccfb9ec93016f", "fusion_lon": 0.0, "rental_uris": {"ios": "https://dc.lft.to/lastmile_qr_scan", "android": "https://dc.lft.to/lastmile_qr_scan"}}, {"lon": -77.037325, "fusion_lat": 0.0, "type": "electric_scooter", "lat": 38.926528833333336, "is_disabled": 0, "name": "a3c6b16fd3626a28e675f9e839414792", "is_reserved": 0, "bike_id": "a3c6b16fd3626a28e675f9e839414792", "fusion_lon": 0.0, "rental_uris": {"ios": "https://dc.lft.to/lastmile_qr_scan", "android": "https://dc.lft.to/lastmile_qr_scan"}}, {"lon": -77.03204483333333, "fusion_lat": 0.0, "type": "electric_scooter", "lat": 38.910666666666664, "is_disabled": 0, "name": "c6affff98d7d07911784e41f7e28284c", "is_reserved": 0, "bike_id": "c6affff98d7d07911784e41f7e28284c", "fusion_lon": 0.0, "rental_uris": {"ios": "https://dc.lft.to/lastmile_qr_scan", "android": "https://dc.lft.to/lastmile_qr_scan"}}, {"lon": -77.04969666666666, "fusion_lat": 0.0, "type": "electric_scooter", "lat": 38.90068566666667, "is_disabled": 0, "name": "01ae1c624cf91534e0f2f6e9177123d9", "is_reserved": 0, "bike_id": "01ae1c624cf91534e0f2f6e9177123d9", "fusion_lon": 0.0, "rental_uris": {"ios": "https://dc.lft.to/lastmile_qr_scan", "android": "https://dc.lft.to/lastmile_qr_scan"}}, {"lon": -77.04010316666667, "fusion_lat": 0.0, "type": "electric_scooter", "lat": 38.888640333333335, "is_disabled": 0, "name": "da71f7c85b6ea937b69dff9c83db4cf4", "is_reserved": 0, "bike_id": "da71f7c85b6ea937b69dff9c83db4cf4", "fusion_lon": 0.0, "rental_uris": {"ios": "https://dc.lft.to/lastmile_qr_scan", "android": "https://dc.lft.to/lastmile_qr_scan"}}, {"lon": -77.03401716666667, "fusion_lat": 0.0, "type": "electric_scooter", "lat": 38.92447666666666, "is_disabled": 0, "name": "6034723b000a27dc080c945bc420785f", "is_reserved": 0, "bike_id": "6034723b000a27dc080c945bc420785f", "fusion_lon": 0.0, "rental_uris": {"ios": "https://dc.lft.to/lastmile_qr_scan", "android": "https://dc.lft.to/lastmile_qr_scan"}}, {"lon": -77.01264183333333, "fusion_lat": 0.0, "type": "electric_scooter", "lat": 38.91570316666667, "is_disabled": 0, "name": "f46b6395ca282047946fd334c57ccd4e", "is_reserved": 0, "bike_id": "f46b6395ca282047946fd334c57ccd4e", "fusion_lon": 0.0, "rental_uris": {"ios": "https://dc.lft.to/lastmile_qr_scan", "android": "https://dc.lft.to/lastmile_qr_scan"}}, {"lon": -77.00346116666667, "fusion_lat": 0.0, "type": "electric_scooter", "lat": 38.884410333333335, "is_disabled": 0, "name": "6c51c53dcb33800ba1fb732dffd97206", "is_reserved": 0, "bike_id": "6c51c53dcb33800ba1fb732dffd97206", "fusion_lon": 0.0, "rental_uris": {"ios": "https://dc.lft.to/lastmile_qr_scan", "android": "https://dc.lft.to/lastmile_qr_scan"}}, {"lon": -77.00296616666667, "fusion_lat": 0.0, "type": "electric_scooter", "lat": 38.909016, "is_disabled": 0, "name": "fccde6e761d9be0128da8dee03140d65", "is_reserved": 0, "bike_id": "fccde6e761d9be0128da8dee03140d65", "fusion_lon": 0.0, "rental_uris": {"ios": "https://dc.lft.to/lastmile_qr_scan", "android": "https://dc.lft.to/lastmile_qr_scan"}}, {"lon": -76.99034233333333, "fusion_lat": 0.0, "type": "electric_scooter", "lat": 38.888768166666665, "is_disabled": 0, "name": "d44bdedb317e665a4c3fa3e4a481e812", "is_reserved": 0, "bike_id": "d44bdedb317e665a4c3fa3e4a481e812", "fusion_lon": 0.0, "rental_uris": {"ios": "https://dc.lft.to/lastmile_qr_scan", "android": "https://dc.lft.to/lastmile_qr_scan"}}, {"lon": -77.01764483333334, "fusion_lat": 0.0, "type": "electric_scooter", "lat": 38.93893833333333, "is_disabled": 0, "name": "7f82f124467e2306268d1499722bdc49", "is_reserved": 0, "bike_id": "7f82f124467e2306268d1499722bdc49", "fusion_lon": 0.0, "rental_uris": {"ios": "https://dc.lft.to/lastmile_qr_scan", "android": "https://dc.lft.to/lastmile_qr_scan"}}, {"lon": -76.97703583333333, "fusion_lat": 0.0, "type": "electric_scooter", "lat": 38.8881745, "is_disabled": 0, "name": "3cd96cc87ebeb7f1917c1ef32f74a001", "is_reserved": 0, "bike_id": "3cd96cc87ebeb7f1917c1ef32f74a001", "fusion_lon": 0.0, "rental_uris": {"ios": "https://dc.lft.to/lastmile_qr_scan", "android": "https://dc.lft.to/lastmile_qr_scan"}}, {"lon": -77.04333566666666, "fusion_lat": 0.0, "type": "electric_scooter", "lat": 38.900170833333334, "is_disabled": 0, "name": "ba08b7fd3ea782c1158ea4da5e32e013", "is_reserved": 0, "bike_id": "ba08b7fd3ea782c1158ea4da5e32e013", "fusion_lon": 0.0, "rental_uris": {"ios": "https://dc.lft.to/lastmile_qr_scan", "android": "https://dc.lft.to/lastmile_qr_scan"}}, {"lon": -77.03182566666666, "fusion_lat": 0.0, "type": "electric_scooter", "lat": 38.8922315, "is_disabled": 0, "name": "92483cb8041c90a10ce30b961b764f98", "is_reserved": 0, "bike_id": "92483cb8041c90a10ce30b961b764f98", "fusion_lon": 0.0, "rental_uris": {"ios": "https://dc.lft.to/lastmile_qr_scan", "android": "https://dc.lft.to/lastmile_qr_scan"}}, {"lon": -77.048826, "fusion_lat": 0.0, "type": "electric_scooter", "lat": 38.8985635, "is_disabled": 0, "name": "b6a358678cea0c332541d4e68016a121", "is_reserved": 0, "bike_id": "b6a358678cea0c332541d4e68016a121", "fusion_lon": 0.0, "rental_uris": {"ios": "https://dc.lft.to/lastmile_qr_scan", "android": "https://dc.lft.to/lastmile_qr_scan"}}, {"lon": -77.05577883333333, "fusion_lat": 0.0, "type": "electric_scooter", "lat": 38.93061383333333, "is_disabled": 0, "name": "cc520b97c18301dc016829a8f4f467d9", "is_reserved": 0, "bike_id": "cc520b97c18301dc016829a8f4f467d9", "fusion_lon": 0.0, "rental_uris": {"ios": "https://dc.lft.to/lastmile_qr_scan", "android": "https://dc.lft.to/lastmile_qr_scan"}}, {"lon": -76.99954283333334, "fusion_lat": 0.0, "type": "electric_scooter", "lat": 38.902575, "is_disabled": 0, "name": "8c46d8a4dfc44784d0f0e2f2271374b9", "is_reserved": 0, "bike_id": "8c46d8a4dfc44784d0f0e2f2271374b9", "fusion_lon": 0.0, "rental_uris": {"ios": "https://dc.lft.to/lastmile_qr_scan", "android": "https://dc.lft.to/lastmile_qr_scan"}}, {"lon": -77.024257, "fusion_lat": 0.0, "type": "electric_scooter", "lat": 38.960243166666665, "is_disabled": 0, "name": "6c3dcdfeae1a04ac2760888e9f8ae27d", "is_reserved": 0, "bike_id": "6c3dcdfeae1a04ac2760888e9f8ae27d", "fusion_lon": 0.0, "rental_uris": {"ios": "https://dc.lft.to/lastmile_qr_scan", "android": "https://dc.lft.to/lastmile_qr_scan"}}, {"lon": -76.97451533333333, "fusion_lat": 0.0, "type": "electric_bike", "lat": 38.8559895, "is_disabled": 0, "name": "607e18985d76f066c6db8f311a4a3434", "is_reserved": 0, "bike_id": "607e18985d76f066c6db8f311a4a3434", "fusion_lon": 0.0, "rental_uris": {"ios": "https://dc.lft.to/lastmile_qr_scan", "android": "https://dc.lft.to/lastmile_qr_scan"}}, {"lon": -77.02205833333333, "fusion_lat": 0.0, "type": "electric_scooter", "lat": 38.92470766666667, "is_disabled": 0, "name": "327b4db8f926996ad218cdd382863739", "is_reserved": 0, "bike_id": "327b4db8f926996ad218cdd382863739", "fusion_lon": 0.0, "rental_uris": {"ios": "https://dc.lft.to/lastmile_qr_scan", "android": "https://dc.lft.to/lastmile_qr_scan"}}, {"lon": -76.990218, "fusion_lat": 0.0, "type": "electric_bike", "lat": 38.9431345, "is_disabled": 0, "name": "8ce9cd49a9855c600e39314b6d81c052", "is_reserved": 0, "bike_id": "8ce9cd49a9855c600e39314b6d81c052", "fusion_lon": 0.0, "rental_uris": {"ios": "https://dc.lft.to/lastmile_qr_scan", "android": "https://dc.lft.to/lastmile_qr_scan"}}, {"lon": -77.03530783333333, "fusion_lat": 0.0, "type": "electric_scooter", "lat": 38.90377816666667, "is_disabled": 0, "name": "7a5466d2a4fc1cc370bf1362a8a58dcf", "is_reserved": 0, "bike_id": "7a5466d2a4fc1cc370bf1362a8a58dcf", "fusion_lon": 0.0, "rental_uris": {"ios": "https://dc.lft.to/lastmile_qr_scan", "android": "https://dc.lft.to/lastmile_qr_scan"}}, {"lon": -77.02822983333333, "fusion_lat": 0.0, "type": "electric_scooter", "lat": 38.902552166666666, "is_disabled": 0, "name": "ceb228754415b28ed2e59d8c974a4338", "is_reserved": 0, "bike_id": "ceb228754415b28ed2e59d8c974a4338", "fusion_lon": 0.0, "rental_uris": {"ios": "https://dc.lft.to/lastmile_qr_scan", "android": "https://dc.lft.to/lastmile_qr_scan"}}, {"lon": -77.00604216666666, "fusion_lat": 0.0, "type": "electric_scooter", "lat": 38.8773955, "is_disabled": 0, "name": "86ea4249dba9311974e3972a881a3435", "is_reserved": 0, "bike_id": "86ea4249dba9311974e3972a881a3435", "fusion_lon": 0.0, "rental_uris": {"ios": "https://dc.lft.to/lastmile_qr_scan", "android": "https://dc.lft.to/lastmile_qr_scan"}}, {"lon": -77.0328585, "fusion_lat": 0.0, "type": "electric_scooter", "lat": 38.929537, "is_disabled": 0, "name": "9b1b2e5a3adc31c176d2c42fe44a3863", "is_reserved": 0, "bike_id": "9b1b2e5a3adc31c176d2c42fe44a3863", "fusion_lon": 0.0, "rental_uris": {"ios": "https://dc.lft.to/lastmile_qr_scan", "android": "https://dc.lft.to/lastmile_qr_scan"}}, {"lon": -77.03460783333334, "fusion_lat": 0.0, "type": "electric_scooter", "lat": 38.9095025, "is_disabled": 0, "name": "d5356f88e13637bd929f39de32c65449", "is_reserved": 0, "bike_id": "d5356f88e13637bd929f39de32c65449", "fusion_lon": 0.0, "rental_uris": {"ios": "https://dc.lft.to/lastmile_qr_scan", "android": "https://dc.lft.to/lastmile_qr_scan"}}, {"lon": -76.98143533333334, "fusion_lat": 0.0, "type": "electric_scooter", "lat": 38.903175833333336, "is_disabled": 0, "name": "67b256cb93755deab7b0be364f9e8fa7", "is_reserved": 0, "bike_id": "67b256cb93755deab7b0be364f9e8fa7", "fusion_lon": 0.0, "rental_uris": {"ios": "https://dc.lft.to/lastmile_qr_scan", "android": "https://dc.lft.to/lastmile_qr_scan"}}, {"lon": -77.04947983333334, "fusion_lat": 0.0, "type": "electric_scooter", "lat": 38.897462833333336, "is_disabled": 0, "name": "f31e5a00a14042ead07634ca8fdebad1", "is_reserved": 0, "bike_id": "f31e5a00a14042ead07634ca8fdebad1", "fusion_lon": 0.0, "rental_uris": {"ios": "https://dc.lft.to/lastmile_qr_scan", "android": "https://dc.lft.to/lastmile_qr_scan"}}, {"lon": -77.08861283333333, "fusion_lat": 0.0, "type": "electric_bike", "lat": 38.935288, "is_disabled": 0, "name": "22a4da4cfd36a592b433a612f1dc72f7", "is_reserved": 0, "bike_id": "22a4da4cfd36a592b433a612f1dc72f7", "fusion_lon": 0.0, "rental_uris": {"ios": "https://dc.lft.to/lastmile_qr_scan", "android": "https://dc.lft.to/lastmile_qr_scan"}}, {"lon": -77.04480483333333, "fusion_lat": 0.0, "type": "electric_scooter", "lat": 38.90073916666667, "is_disabled": 0, "name": "db96ba00a59ccc18656c71b6ef1bc71d", "is_reserved": 0, "bike_id": "db96ba00a59ccc18656c71b6ef1bc71d", "fusion_lon": 0.0, "rental_uris": {"ios": "https://dc.lft.to/lastmile_qr_scan", "android": "https://dc.lft.to/lastmile_qr_scan"}}, {"lon": -77.003435, "fusion_lat": 0.0, "type": "electric_scooter", "lat": 38.893539, "is_disabled": 0, "name": "20d19823fcec4290c03b1a064a141cbe", "is_reserved": 0, "bike_id": "20d19823fcec4290c03b1a064a141cbe", "fusion_lon": 0.0, "rental_uris": {"ios": "https://dc.lft.to/lastmile_qr_scan", "android": "https://dc.lft.to/lastmile_qr_scan"}}, {"lon": -77.00334083333334, "fusion_lat": 0.0, "type": "electric_scooter", "lat": 38.8935565, "is_disabled": 0, "name": "d8e19d813cccfe237b89ce1ce724e1f0", "is_reserved": 0, "bike_id": "d8e19d813cccfe237b89ce1ce724e1f0", "fusion_lon": 0.0, "rental_uris": {"ios": "https://dc.lft.to/lastmile_qr_scan", "android": "https://dc.lft.to/lastmile_qr_scan"}}, {"lon": -77.0322715, "fusion_lat": 0.0, "type": "electric_scooter", "lat": 38.90864533333333, "is_disabled": 0, "name": "077733b18a28d216462000afe864b4b0", "is_reserved": 0, "bike_id": "077733b18a28d216462000afe864b4b0", "fusion_lon": 0.0, "rental_uris": {"ios": "https://dc.lft.to/lastmile_qr_scan", "android": "https://dc.lft.to/lastmile_qr_scan"}}, {"lon": -77.03209616666666, "fusion_lat": 0.0, "type": "electric_scooter", "lat": 38.9147185, "is_disabled": 0, "name": "1fc8f30d56f03cb10eb3d1794d841531", "is_reserved": 0, "bike_id": "1fc8f30d56f03cb10eb3d1794d841531", "fusion_lon": 0.0, "rental_uris": {"ios": "https://dc.lft.to/lastmile_qr_scan", "android": "https://dc.lft.to/lastmile_qr_scan"}}, {"lon": -77.04489916666667, "fusion_lat": 0.0, "type": "electric_scooter", "lat": 38.913270833333335, "is_disabled": 0, "name": "dc04c7c1e489763cccecafa39f8c3743", "is_reserved": 0, "bike_id": "dc04c7c1e489763cccecafa39f8c3743", "fusion_lon": 0.0, "rental_uris": {"ios": "https://dc.lft.to/lastmile_qr_scan", "android": "https://dc.lft.to/lastmile_qr_scan"}}, {"lon": -77.03428783333334, "fusion_lat": 0.0, "type": "electric_scooter", "lat": 38.936044, "is_disabled": 0, "name": "9d48b7a83d0579fa9172c628f991a3c5", "is_reserved": 0, "bike_id": "9d48b7a83d0579fa9172c628f991a3c5", "fusion_lon": 0.0, "rental_uris": {"ios": "https://dc.lft.to/lastmile_qr_scan", "android": "https://dc.lft.to/lastmile_qr_scan"}}, {"lon": -77.01240616666666, "fusion_lat": 0.0, "type": "electric_scooter", "lat": 38.89595166666667, "is_disabled": 0, "name": "45a852529765e5d4059d91608cbde711", "is_reserved": 0, "bike_id": "45a852529765e5d4059d91608cbde711", "fusion_lon": 0.0, "rental_uris": {"ios": "https://dc.lft.to/lastmile_qr_scan", "android": "https://dc.lft.to/lastmile_qr_scan"}}, {"lon": -77.0319775, "fusion_lat": 0.0, "type": "electric_scooter", "lat": 38.9128175, "is_disabled": 0, "name": "579235e227da2b9939015ba8c922530f", "is_reserved": 0, "bike_id": "579235e227da2b9939015ba8c922530f", "fusion_lon": 0.0, "rental_uris": {"ios": "https://dc.lft.to/lastmile_qr_scan", "android": "https://dc.lft.to/lastmile_qr_scan"}}, {"lon": -76.99572883333333, "fusion_lat": 0.0, "type": "electric_scooter", "lat": 38.894781, "is_disabled": 0, "name": "60820c39be5d571f328c9149de116ad9", "is_reserved": 0, "bike_id": "60820c39be5d571f328c9149de116ad9", "fusion_lon": 0.0, "rental_uris": {"ios": "https://dc.lft.to/lastmile_qr_scan", "android": "https://dc.lft.to/lastmile_qr_scan"}}, {"lon": -76.93004183333333, "fusion_lat": 0.0, "type": "electric_scooter", "lat": 38.9018335, "is_disabled": 0, "name": "728cea69b181e903644297705becdb04", "is_reserved": 0, "bike_id": "728cea69b181e903644297705becdb04", "fusion_lon": 0.0, "rental_uris": {"ios": "https://dc.lft.to/lastmile_qr_scan", "android": "https://dc.lft.to/lastmile_qr_scan"}}, {"lon": -77.02133283333333, "fusion_lat": 0.0, "type": "electric_scooter", "lat": 38.922739, "is_disabled": 0, "name": "ae25020d23d362972928827cc40ea6ad", "is_reserved": 0, "bike_id": "ae25020d23d362972928827cc40ea6ad", "fusion_lon": 0.0, "rental_uris": {"ios": "https://dc.lft.to/lastmile_qr_scan", "android": "https://dc.lft.to/lastmile_qr_scan"}}, {"lon": -77.03572566666666, "fusion_lat": 0.0, "type": "electric_scooter", "lat": 38.918042, "is_disabled": 0, "name": "952964be63c852dd2664ee2f06757b95", "is_reserved": 0, "bike_id": "952964be63c852dd2664ee2f06757b95", "fusion_lon": 0.0, "rental_uris": {"ios": "https://dc.lft.to/lastmile_qr_scan", "android": "https://dc.lft.to/lastmile_qr_scan"}}, {"lon": -76.9745975, "fusion_lat": 0.0, "type": "electric_scooter", "lat": 38.86535216666667, "is_disabled": 0, "name": "5e6f4ac38e3a4fb81be4f1fa65a67ae0", "is_reserved": 0, "bike_id": "5e6f4ac38e3a4fb81be4f1fa65a67ae0", "fusion_lon": 0.0, "rental_uris": {"ios": "https://dc.lft.to/lastmile_qr_scan", "android": "https://dc.lft.to/lastmile_qr_scan"}}, {"lon": -76.92973333333333, "fusion_lat": 0.0, "type": "electric_scooter", "lat": 38.89614733333333, "is_disabled": 0, "name": "0e318dc95d4cb07075732187999a52c4", "is_reserved": 0, "bike_id": "0e318dc95d4cb07075732187999a52c4", "fusion_lon": 0.0, "rental_uris": {"ios": "https://dc.lft.to/lastmile_qr_scan", "android": "https://dc.lft.to/lastmile_qr_scan"}}, {"lon": -77.01934916666667, "fusion_lat": 0.0, "type": "electric_scooter", "lat": 38.883885666666664, "is_disabled": 0, "name": "048591cf144f37247ccba7f7f91490d5", "is_reserved": 0, "bike_id": "048591cf144f37247ccba7f7f91490d5", "fusion_lon": 0.0, "rental_uris": {"ios": "https://dc.lft.to/lastmile_qr_scan", "android": "https://dc.lft.to/lastmile_qr_scan"}}, {"lon": -77.04701416666667, "fusion_lat": 0.0, "type": "electric_bike", "lat": 38.9173925, "is_disabled": 0, "name": "16fae6f54cf583f4f9fb27c02a536012", "is_reserved": 0, "bike_id": "16fae6f54cf583f4f9fb27c02a536012", "fusion_lon": 0.0, "rental_uris": {"ios": "https://dc.lft.to/lastmile_qr_scan", "android": "https://dc.lft.to/lastmile_qr_scan"}}, {"lon": -76.984625, "fusion_lat": 0.0, "type": "electric_scooter", "lat": 38.89362333333333, "is_disabled": 0, "name": "6148070b8d9c3794f6f95a5ffac09cbe", "is_reserved": 0, "bike_id": "6148070b8d9c3794f6f95a5ffac09cbe", "fusion_lon": 0.0, "rental_uris": {"ios": "https://dc.lft.to/lastmile_qr_scan", "android": "https://dc.lft.to/lastmile_qr_scan"}}, {"lon": -77.02954883333334, "fusion_lat": 0.0, "type": "electric_scooter", "lat": 38.9562875, "is_disabled": 0, "name": "d76b4c4b16fee076fc2c6479c631af0f", "is_reserved": 0, "bike_id": "d76b4c4b16fee076fc2c6479c631af0f", "fusion_lon": 0.0, "rental_uris": {"ios": "https://dc.lft.to/lastmile_qr_scan", "android": "https://dc.lft.to/lastmile_qr_scan"}}, {"lon": -77.0346055, "fusion_lat": 0.0, "type": "electric_scooter", "lat": 38.917968, "is_disabled": 0, "name": "a6bbc2fcf28d76131c8009ef08a63adb", "is_reserved": 0, "bike_id": "a6bbc2fcf28d76131c8009ef08a63adb", "fusion_lon": 0.0, "rental_uris": {"ios": "https://dc.lft.to/lastmile_qr_scan", "android": "https://dc.lft.to/lastmile_qr_scan"}}, {"lon": -77.0372355, "fusion_lat": 0.0, "type": "electric_scooter", "lat": 38.88072283333333, "is_disabled": 0, "name": "40ef4a5fcda1dd13ad638ad738b55d60", "is_reserved": 0, "bike_id": "40ef4a5fcda1dd13ad638ad738b55d60", "fusion_lon": 0.0, "rental_uris": {"ios": "https://dc.lft.to/lastmile_qr_scan", "android": "https://dc.lft.to/lastmile_qr_scan"}}, {"lon": -76.95918, "fusion_lat": 0.0, "type": "electric_bike", "lat": 38.949224666666666, "is_disabled": 0, "name": "2648f1d3e14c0499a3573af2261ffff8", "is_reserved": 0, "bike_id": "2648f1d3e14c0499a3573af2261ffff8", "fusion_lon": 0.0, "rental_uris": {"ios": "https://dc.lft.to/lastmile_qr_scan", "android": "https://dc.lft.to/lastmile_qr_scan"}}, {"lon": -77.02189116666666, "fusion_lat": 0.0, "type": "electric_scooter", "lat": 38.89610283333333, "is_disabled": 0, "name": "630b52f0f860b263a14fb5d6cf958562", "is_reserved": 0, "bike_id": "630b52f0f860b263a14fb5d6cf958562", "fusion_lon": 0.0, "rental_uris": {"ios": "https://dc.lft.to/lastmile_qr_scan", "android": "https://dc.lft.to/lastmile_qr_scan"}}, {"lon": -77.04323616666667, "fusion_lat": 0.0, "type": "electric_scooter", "lat": 38.90051416666667, "is_disabled": 0, "name": "02f9f6325d99200d35aedf203128d93d", "is_reserved": 0, "bike_id": "02f9f6325d99200d35aedf203128d93d", "fusion_lon": 0.0, "rental_uris": {"ios": "https://dc.lft.to/lastmile_qr_scan", "android": "https://dc.lft.to/lastmile_qr_scan"}}, {"lon": -77.03174966666667, "fusion_lat": 0.0, "type": "electric_scooter", "lat": 38.91552766666667, "is_disabled": 0, "name": "0ff105678ab4df2aa5cee4033d0bd3b1", "is_reserved": 0, "bike_id": "0ff105678ab4df2aa5cee4033d0bd3b1", "fusion_lon": 0.0, "rental_uris": {"ios": "https://dc.lft.to/lastmile_qr_scan", "android": "https://dc.lft.to/lastmile_qr_scan"}}, {"lon": -77.02303966666666, "fusion_lat": 0.0, "type": "electric_bike", "lat": 38.929885166666665, "is_disabled": 0, "name": "ab27c01e7ce103c9b5e91e89881b86b4", "is_reserved": 0, "bike_id": "ab27c01e7ce103c9b5e91e89881b86b4", "fusion_lon": 0.0, "rental_uris": {"ios": "https://dc.lft.to/lastmile_qr_scan", "android": "https://dc.lft.to/lastmile_qr_scan"}}, {"lon": -77.03191166666667, "fusion_lat": 0.0, "type": "electric_scooter", "lat": 38.91593183333333, "is_disabled": 0, "name": "25320a69c8f1fcd4843e79d87c939569", "is_reserved": 0, "bike_id": "25320a69c8f1fcd4843e79d87c939569", "fusion_lon": 0.0, "rental_uris": {"ios": "https://dc.lft.to/lastmile_qr_scan", "android": "https://dc.lft.to/lastmile_qr_scan"}}, {"lon": -77.0338105, "fusion_lat": 0.0, "type": "electric_scooter", "lat": 38.9215135, "is_disabled": 0, "name": "b7a889d6fd1662bbf86bacfaf52267a8", "is_reserved": 0, "bike_id": "b7a889d6fd1662bbf86bacfaf52267a8", "fusion_lon": 0.0, "rental_uris": {"ios": "https://dc.lft.to/lastmile_qr_scan", "android": "https://dc.lft.to/lastmile_qr_scan"}}, {"lon": -77.0414595, "fusion_lat": 0.0, "type": "electric_scooter", "lat": 38.92295433333334, "is_disabled": 0, "name": "3dade61041a74f9e34b1c3ad69d88a59", "is_reserved": 0, "bike_id": "3dade61041a74f9e34b1c3ad69d88a59", "fusion_lon": 0.0, "rental_uris": {"ios": "https://dc.lft.to/lastmile_qr_scan", "android": "https://dc.lft.to/lastmile_qr_scan"}}, {"lon": -77.0320685, "fusion_lat": 0.0, "type": "electric_scooter", "lat": 38.913421666666665, "is_disabled": 0, "name": "7e19e09f8c98a529111f8863f5ececdd", "is_reserved": 0, "bike_id": "7e19e09f8c98a529111f8863f5ececdd", "fusion_lon": 0.0, "rental_uris": {"ios": "https://dc.lft.to/lastmile_qr_scan", "android": "https://dc.lft.to/lastmile_qr_scan"}}, {"lon": -77.00442266666667, "fusion_lat": 0.0, "type": "electric_scooter", "lat": 38.94140816666667, "is_disabled": 0, "name": "af113b56338e99abd097d5ca1659026b", "is_reserved": 0, "bike_id": "af113b56338e99abd097d5ca1659026b", "fusion_lon": 0.0, "rental_uris": {"ios": "https://dc.lft.to/lastmile_qr_scan", "android": "https://dc.lft.to/lastmile_qr_scan"}}, {"lon": -77.03272866666667, "fusion_lat": 0.0, "type": "electric_scooter", "lat": 38.93015316666666, "is_disabled": 0, "name": "26b017b4d467ecf6046734864ff85b42", "is_reserved": 0, "bike_id": "26b017b4d467ecf6046734864ff85b42", "fusion_lon": 0.0, "rental_uris": {"ios": "https://dc.lft.to/lastmile_qr_scan", "android": "https://dc.lft.to/lastmile_qr_scan"}}, {"lon": -77.01944883333333, "fusion_lat": 0.0, "type": "electric_scooter", "lat": 38.92417666666667, "is_disabled": 0, "name": "534289b7a6e5b54749b699964a21f058", "is_reserved": 0, "bike_id": "534289b7a6e5b54749b699964a21f058", "fusion_lon": 0.0, "rental_uris": {"ios": "https://dc.lft.to/lastmile_qr_scan", "android": "https://dc.lft.to/lastmile_qr_scan"}}, {"lon": -76.94250883333333, "fusion_lat": 0.0, "type": "electric_bike", "lat": 38.94798083333333, "is_disabled": 0, "name": "461479c9d98bcd7940746d98f27826f3", "is_reserved": 0, "bike_id": "461479c9d98bcd7940746d98f27826f3", "fusion_lon": 0.0, "rental_uris": {"ios": "https://dc.lft.to/lastmile_qr_scan", "android": "https://dc.lft.to/lastmile_qr_scan"}}, {"lon": -77.01776183333334, "fusion_lat": 0.0, "type": "electric_scooter", "lat": 38.88116616666667, "is_disabled": 0, "name": "5a8ad276586cab10579583ef44182d97", "is_reserved": 0, "bike_id": "5a8ad276586cab10579583ef44182d97", "fusion_lon": 0.0, "rental_uris": {"ios": "https://dc.lft.to/lastmile_qr_scan", "android": "https://dc.lft.to/lastmile_qr_scan"}}, {"lon": -77.02608183333334, "fusion_lat": 0.0, "type": "electric_scooter", "lat": 38.91835533333333, "is_disabled": 0, "name": "18af454e4c5fd9f783752d2b6ccae121", "is_reserved": 0, "bike_id": "18af454e4c5fd9f783752d2b6ccae121", "fusion_lon": 0.0, "rental_uris": {"ios": "https://dc.lft.to/lastmile_qr_scan", "android": "https://dc.lft.to/lastmile_qr_scan"}}, {"lon": -76.983423, "fusion_lat": 0.0, "type": "electric_scooter", "lat": 38.895392, "is_disabled": 0, "name": "c35f8c5ae2c79037bebd1fba111fa116", "is_reserved": 0, "bike_id": "c35f8c5ae2c79037bebd1fba111fa116", "fusion_lon": 0.0, "rental_uris": {"ios": "https://dc.lft.to/lastmile_qr_scan", "android": "https://dc.lft.to/lastmile_qr_scan"}}, {"lon": -76.99622733333334, "fusion_lat": 0.0, "type": "electric_scooter", "lat": 38.876641166666666, "is_disabled": 0, "name": "a884189bfa968c3c51cf7875eff2b5a6", "is_reserved": 0, "bike_id": "a884189bfa968c3c51cf7875eff2b5a6", "fusion_lon": 0.0, "rental_uris": {"ios": "https://dc.lft.to/lastmile_qr_scan", "android": "https://dc.lft.to/lastmile_qr_scan"}}, {"lon": -77.02368716666666, "fusion_lat": 0.0, "type": "electric_scooter", "lat": 38.91547883333333, "is_disabled": 0, "name": "83f1b3710a3ad3bab879995e8ed492a8", "is_reserved": 0, "bike_id": "83f1b3710a3ad3bab879995e8ed492a8", "fusion_lon": 0.0, "rental_uris": {"ios": "https://dc.lft.to/lastmile_qr_scan", "android": "https://dc.lft.to/lastmile_qr_scan"}}, {"lon": -77.03096316666667, "fusion_lat": 0.0, "type": "electric_scooter", "lat": 38.932525166666665, "is_disabled": 0, "name": "949ec52935c5adb71b5b287676fededd", "is_reserved": 0, "bike_id": "949ec52935c5adb71b5b287676fededd", "fusion_lon": 0.0, "rental_uris": {"ios": "https://dc.lft.to/lastmile_qr_scan", "android": "https://dc.lft.to/lastmile_qr_scan"}}, {"lon": -77.03044483333333, "fusion_lat": 0.0, "type": "electric_scooter", "lat": 38.91108533333333, "is_disabled": 0, "name": "127d5a7227986ba4a14373d9d7004904", "is_reserved": 0, "bike_id": "127d5a7227986ba4a14373d9d7004904", "fusion_lon": 0.0, "rental_uris": {"ios": "https://dc.lft.to/lastmile_qr_scan", "android": "https://dc.lft.to/lastmile_qr_scan"}}, {"lon": -77.02214166666667, "fusion_lat": 0.0, "type": "electric_scooter", "lat": 38.895699, "is_disabled": 0, "name": "62fb90195c39f35608b739d6d4a21886", "is_reserved": 0, "bike_id": "62fb90195c39f35608b739d6d4a21886", "fusion_lon": 0.0, "rental_uris": {"ios": "https://dc.lft.to/lastmile_qr_scan", "android": "https://dc.lft.to/lastmile_qr_scan"}}, {"lon": -77.01673533333333, "fusion_lat": 0.0, "type": "electric_scooter", "lat": 38.897385666666665, "is_disabled": 0, "name": "01f31e5cd94233edf1414071c7c22e64", "is_reserved": 0, "bike_id": "01f31e5cd94233edf1414071c7c22e64", "fusion_lon": 0.0, "rental_uris": {"ios": "https://dc.lft.to/lastmile_qr_scan", "android": "https://dc.lft.to/lastmile_qr_scan"}}, {"lon": -77.00300066666667, "fusion_lat": 0.0, "type": "electric_scooter", "lat": 38.90549683333333, "is_disabled": 0, "name": "62161b4298403be2b6bc8f100c955205", "is_reserved": 0, "bike_id": "62161b4298403be2b6bc8f100c955205", "fusion_lon": 0.0, "rental_uris": {"ios": "https://dc.lft.to/lastmile_qr_scan", "android": "https://dc.lft.to/lastmile_qr_scan"}}, {"lon": -76.93178516666667, "fusion_lat": 0.0, "type": "electric_scooter", "lat": 38.898837, "is_disabled": 0, "name": "b90f64acf0aa4e0a3dbe161889324d7a", "is_reserved": 0, "bike_id": "b90f64acf0aa4e0a3dbe161889324d7a", "fusion_lon": 0.0, "rental_uris": {"ios": "https://dc.lft.to/lastmile_qr_scan", "android": "https://dc.lft.to/lastmile_qr_scan"}}, {"lon": -77.04827283333333, "fusion_lat": 0.0, "type": "electric_scooter", "lat": 38.900690833333336, "is_disabled": 0, "name": "f8574520e7eb504a04c2cdaebe9fe679", "is_reserved": 0, "bike_id": "f8574520e7eb504a04c2cdaebe9fe679", "fusion_lon": 0.0, "rental_uris": {"ios": "https://dc.lft.to/lastmile_qr_scan", "android": "https://dc.lft.to/lastmile_qr_scan"}}, {"lon": -77.0211125, "fusion_lat": 0.0, "type": "electric_scooter", "lat": 38.90217633333334, "is_disabled": 0, "name": "cdb24c8725762eb3923ff00fccbccc3d", "is_reserved": 0, "bike_id": "cdb24c8725762eb3923ff00fccbccc3d", "fusion_lon": 0.0, "rental_uris": {"ios": "https://dc.lft.to/lastmile_qr_scan", "android": "https://dc.lft.to/lastmile_qr_scan"}}, {"lon": -77.03936216666666, "fusion_lat": 0.0, "type": "electric_scooter", "lat": 38.89926083333334, "is_disabled": 0, "name": "285a30e1e3d54ee18fbf6164fd4fd334", "is_reserved": 0, "bike_id": "285a30e1e3d54ee18fbf6164fd4fd334", "fusion_lon": 0.0, "rental_uris": {"ios": "https://dc.lft.to/lastmile_qr_scan", "android": "https://dc.lft.to/lastmile_qr_scan"}}, {"lon": -77.03983916666667, "fusion_lat": 0.0, "type": "electric_scooter", "lat": 38.91811583333333, "is_disabled": 0, "name": "01b2f76243346c8555d3465361419edc", "is_reserved": 0, "bike_id": "01b2f76243346c8555d3465361419edc", "fusion_lon": 0.0, "rental_uris": {"ios": "https://dc.lft.to/lastmile_qr_scan", "android": "https://dc.lft.to/lastmile_qr_scan"}}, {"lon": -77.04847116666667, "fusion_lat": 0.0, "type": "electric_scooter", "lat": 38.899604833333335, "is_disabled": 0, "name": "e574f7803d023c0fd990644d6bde5ec0", "is_reserved": 0, "bike_id": "e574f7803d023c0fd990644d6bde5ec0", "fusion_lon": 0.0, "rental_uris": {"ios": "https://dc.lft.to/lastmile_qr_scan", "android": "https://dc.lft.to/lastmile_qr_scan"}}, {"lon": -76.97698466666667, "fusion_lat": 0.0, "type": "electric_scooter", "lat": 38.888189833333335, "is_disabled": 0, "name": "6dfc8800af336dfb556eb5d67001a229", "is_reserved": 0, "bike_id": "6dfc8800af336dfb556eb5d67001a229", "fusion_lon": 0.0, "rental_uris": {"ios": "https://dc.lft.to/lastmile_qr_scan", "android": "https://dc.lft.to/lastmile_qr_scan"}}, {"lon": -77.026957, "fusion_lat": 0.0, "type": "electric_scooter", "lat": 38.899896166666664, "is_disabled": 0, "name": "c6bb9e54cfde084dae9d394fad1655c0", "is_reserved": 0, "bike_id": "c6bb9e54cfde084dae9d394fad1655c0", "fusion_lon": 0.0, "rental_uris": {"ios": "https://dc.lft.to/lastmile_qr_scan", "android": "https://dc.lft.to/lastmile_qr_scan"}}, {"lon": -76.92996366666667, "fusion_lat": 0.0, "type": "electric_scooter", "lat": 38.89299833333333, "is_disabled": 0, "name": "f1030dd0117e653ec1402c4fee636447", "is_reserved": 0, "bike_id": "f1030dd0117e653ec1402c4fee636447", "fusion_lon": 0.0, "rental_uris": {"ios": "https://dc.lft.to/lastmile_qr_scan", "android": "https://dc.lft.to/lastmile_qr_scan"}}, {"lon": -77.00358483333333, "fusion_lat": 0.0, "type": "electric_scooter", "lat": 38.90851083333333, "is_disabled": 0, "name": "eb747eb1a9996a3ce4b80af28e75d344", "is_reserved": 0, "bike_id": "eb747eb1a9996a3ce4b80af28e75d344", "fusion_lon": 0.0, "rental_uris": {"ios": "https://dc.lft.to/lastmile_qr_scan", "android": "https://dc.lft.to/lastmile_qr_scan"}}, {"lon": -77.0302345, "fusion_lat": 0.0, "type": "electric_scooter", "lat": 38.92665866666667, "is_disabled": 0, "name": "47f069d038c2869d47e615266a04b694", "is_reserved": 0, "bike_id": "47f069d038c2869d47e615266a04b694", "fusion_lon": 0.0, "rental_uris": {"ios": "https://dc.lft.to/lastmile_qr_scan", "android": "https://dc.lft.to/lastmile_qr_scan"}}, {"lon": -77.03117616666667, "fusion_lat": 0.0, "type": "electric_scooter", "lat": 38.9169775, "is_disabled": 0, "name": "8bf53ef19e86c514e65a742dc2ea80fc", "is_reserved": 0, "bike_id": "8bf53ef19e86c514e65a742dc2ea80fc", "fusion_lon": 0.0, "rental_uris": {"ios": "https://dc.lft.to/lastmile_qr_scan", "android": "https://dc.lft.to/lastmile_qr_scan"}}, {"lon": -77.02537716666667, "fusion_lat": 0.0, "type": "electric_scooter", "lat": 38.905687666666665, "is_disabled": 0, "name": "1c1ba1fc6b776249f4c0e4f35c67bb15", "is_reserved": 0, "bike_id": "1c1ba1fc6b776249f4c0e4f35c67bb15", "fusion_lon": 0.0, "rental_uris": {"ios": "https://dc.lft.to/lastmile_qr_scan", "android": "https://dc.lft.to/lastmile_qr_scan"}}, {"lon": -77.0018715, "fusion_lat": 0.0, "type": "electric_scooter", "lat": 38.90245783333334, "is_disabled": 0, "name": "d9ca14d681cf21c30c275ab2c194fb6c", "is_reserved": 0, "bike_id": "d9ca14d681cf21c30c275ab2c194fb6c", "fusion_lon": 0.0, "rental_uris": {"ios": "https://dc.lft.to/lastmile_qr_scan", "android": "https://dc.lft.to/lastmile_qr_scan"}}, {"lon": -77.02159783333333, "fusion_lat": 0.0, "type": "electric_scooter", "lat": 38.926088666666665, "is_disabled": 0, "name": "dfaef1b6bbf3729d2a5a3c527132ba3b", "is_reserved": 0, "bike_id": "dfaef1b6bbf3729d2a5a3c527132ba3b", "fusion_lon": 0.0, "rental_uris": {"ios": "https://dc.lft.to/lastmile_qr_scan", "android": "https://dc.lft.to/lastmile_qr_scan"}}, {"lon": -77.000638, "fusion_lat": 0.0, "type": "electric_scooter", "lat": 38.89994033333333, "is_disabled": 0, "name": "0d6b7a78ddc230ba3dcabc6f9890c6a7", "is_reserved": 0, "bike_id": "0d6b7a78ddc230ba3dcabc6f9890c6a7", "fusion_lon": 0.0, "rental_uris": {"ios": "https://dc.lft.to/lastmile_qr_scan", "android": "https://dc.lft.to/lastmile_qr_scan"}}, {"lon": -76.99140433333334, "fusion_lat": 0.0, "type": "electric_scooter", "lat": 38.9090265, "is_disabled": 0, "name": "142b5264e33eb53c1ad38b4741d9abeb", "is_reserved": 0, "bike_id": "142b5264e33eb53c1ad38b4741d9abeb", "fusion_lon": 0.0, "rental_uris": {"ios": "https://dc.lft.to/lastmile_qr_scan", "android": "https://dc.lft.to/lastmile_qr_scan"}}, {"lon": -76.93025116666666, "fusion_lat": 0.0, "type": "electric_scooter", "lat": 38.900135166666665, "is_disabled": 0, "name": "ddeff461694a6e06c801750420e481b1", "is_reserved": 0, "bike_id": "ddeff461694a6e06c801750420e481b1", "fusion_lon": 0.0, "rental_uris": {"ios": "https://dc.lft.to/lastmile_qr_scan", "android": "https://dc.lft.to/lastmile_qr_scan"}}, {"lon": -76.93709083333333, "fusion_lat": 0.0, "type": "electric_scooter", "lat": 38.8901925, "is_disabled": 0, "name": "b9182f7671120c8348b1187c71d230d7", "is_reserved": 0, "bike_id": "b9182f7671120c8348b1187c71d230d7", "fusion_lon": 0.0, "rental_uris": {"ios": "https://dc.lft.to/lastmile_qr_scan", "android": "https://dc.lft.to/lastmile_qr_scan"}}, {"lon": -76.99703316666667, "fusion_lat": 0.0, "type": "electric_scooter", "lat": 38.908349666666666, "is_disabled": 0, "name": "9c6215f760715a19715ff7858de062ec", "is_reserved": 0, "bike_id": "9c6215f760715a19715ff7858de062ec", "fusion_lon": 0.0, "rental_uris": {"ios": "https://dc.lft.to/lastmile_qr_scan", "android": "https://dc.lft.to/lastmile_qr_scan"}}, {"lon": -77.02158083333333, "fusion_lat": 0.0, "type": "electric_scooter", "lat": 38.879197833333336, "is_disabled": 0, "name": "09cb741afe48f3bca4eb232a774913c0", "is_reserved": 0, "bike_id": "09cb741afe48f3bca4eb232a774913c0", "fusion_lon": 0.0, "rental_uris": {"ios": "https://dc.lft.to/lastmile_qr_scan", "android": "https://dc.lft.to/lastmile_qr_scan"}}, {"lon": -77.00190283333333, "fusion_lat": 0.0, "type": "electric_scooter", "lat": 38.900357666666665, "is_disabled": 0, "name": "278c0d86041fbc002e19643c78672979", "is_reserved": 0, "bike_id": "278c0d86041fbc002e19643c78672979", "fusion_lon": 0.0, "rental_uris": {"ios": "https://dc.lft.to/lastmile_qr_scan", "android": "https://dc.lft.to/lastmile_qr_scan"}}, {"lon": -77.03858616666666, "fusion_lat": 0.0, "type": "electric_scooter", "lat": 38.911981833333336, "is_disabled": 0, "name": "d27939c383f0b49660a18a9795e648ec", "is_reserved": 0, "bike_id": "d27939c383f0b49660a18a9795e648ec", "fusion_lon": 0.0, "rental_uris": {"ios": "https://dc.lft.to/lastmile_qr_scan", "android": "https://dc.lft.to/lastmile_qr_scan"}}, {"lon": -76.9995975, "fusion_lat": 0.0, "type": "electric_scooter", "lat": 38.923488, "is_disabled": 0, "name": "d3b920c6f43749d1408482f19adafec8", "is_reserved": 0, "bike_id": "d3b920c6f43749d1408482f19adafec8", "fusion_lon": 0.0, "rental_uris": {"ios": "https://dc.lft.to/lastmile_qr_scan", "android": "https://dc.lft.to/lastmile_qr_scan"}}, {"lon": -76.9985135, "fusion_lat": 0.0, "type": "electric_scooter", "lat": 38.896228666666666, "is_disabled": 0, "name": "c77ebf046fe33f82bb891eebcf084def", "is_reserved": 0, "bike_id": "c77ebf046fe33f82bb891eebcf084def", "fusion_lon": 0.0, "rental_uris": {"ios": "https://dc.lft.to/lastmile_qr_scan", "android": "https://dc.lft.to/lastmile_qr_scan"}}, {"lon": -77.0174765, "fusion_lat": 0.0, "type": "electric_scooter", "lat": 38.88733933333334, "is_disabled": 0, "name": "9872e9eeefe35608b3b0fa66a9220573", "is_reserved": 0, "bike_id": "9872e9eeefe35608b3b0fa66a9220573", "fusion_lon": 0.0, "rental_uris": {"ios": "https://dc.lft.to/lastmile_qr_scan", "android": "https://dc.lft.to/lastmile_qr_scan"}}, {"lon": -77.02195016666667, "fusion_lat": 0.0, "type": "electric_scooter", "lat": 38.916507333333335, "is_disabled": 0, "name": "4e66e41f8eb05facba26e2af3b3c5a12", "is_reserved": 0, "bike_id": "4e66e41f8eb05facba26e2af3b3c5a12", "fusion_lon": 0.0, "rental_uris": {"ios": "https://dc.lft.to/lastmile_qr_scan", "android": "https://dc.lft.to/lastmile_qr_scan"}}, {"lon": -76.986629, "fusion_lat": 0.0, "type": "electric_scooter", "lat": 38.8687135, "is_disabled": 0, "name": "5ebcec9f23e13c3064d647d7999e865d", "is_reserved": 0, "bike_id": "5ebcec9f23e13c3064d647d7999e865d", "fusion_lon": 0.0, "rental_uris": {"ios": "https://dc.lft.to/lastmile_qr_scan", "android": "https://dc.lft.to/lastmile_qr_scan"}}, {"lon": -77.04525266666667, "fusion_lat": 0.0, "type": "electric_scooter", "lat": 38.90581383333333, "is_disabled": 0, "name": "f0d9e92c0c9257a633d9b877e6831d51", "is_reserved": 0, "bike_id": "f0d9e92c0c9257a633d9b877e6831d51", "fusion_lon": 0.0, "rental_uris": {"ios": "https://dc.lft.to/lastmile_qr_scan", "android": "https://dc.lft.to/lastmile_qr_scan"}}, {"lon": -77.02419466666667, "fusion_lat": 0.0, "type": "electric_scooter", "lat": 38.879619166666664, "is_disabled": 0, "name": "482993464bdd4b295504261d3a401521", "is_reserved": 0, "bike_id": "482993464bdd4b295504261d3a401521", "fusion_lon": 0.0, "rental_uris": {"ios": "https://dc.lft.to/lastmile_qr_scan", "android": "https://dc.lft.to/lastmile_qr_scan"}}, {"lon": -77.0270205, "fusion_lat": 0.0, "type": "electric_scooter", "lat": 38.924663333333335, "is_disabled": 0, "name": "ad200385b73da44e8e9983585265f7a6", "is_reserved": 0, "bike_id": "ad200385b73da44e8e9983585265f7a6", "fusion_lon": 0.0, "rental_uris": {"ios": "https://dc.lft.to/lastmile_qr_scan", "android": "https://dc.lft.to/lastmile_qr_scan"}}, {"lon": -77.03201866666667, "fusion_lat": 0.0, "type": "electric_scooter", "lat": 38.91167016666667, "is_disabled": 0, "name": "37d0422cb99ef5c3b288ce31a1786b28", "is_reserved": 0, "bike_id": "37d0422cb99ef5c3b288ce31a1786b28", "fusion_lon": 0.0, "rental_uris": {"ios": "https://dc.lft.to/lastmile_qr_scan", "android": "https://dc.lft.to/lastmile_qr_scan"}}, {"lon": -77.00198783333333, "fusion_lat": 0.0, "type": "electric_scooter", "lat": 38.8867535, "is_disabled": 0, "name": "7513d1fbe58f2ed950fc2cacf966312f", "is_reserved": 0, "bike_id": "7513d1fbe58f2ed950fc2cacf966312f", "fusion_lon": 0.0, "rental_uris": {"ios": "https://dc.lft.to/lastmile_qr_scan", "android": "https://dc.lft.to/lastmile_qr_scan"}}, {"lon": -76.99576683333333, "fusion_lat": 0.0, "type": "electric_scooter", "lat": 38.89479583333333, "is_disabled": 0, "name": "3548564a220a52455ba7fd1304ff2deb", "is_reserved": 0, "bike_id": "3548564a220a52455ba7fd1304ff2deb", "fusion_lon": 0.0, "rental_uris": {"ios": "https://dc.lft.to/lastmile_qr_scan", "android": "https://dc.lft.to/lastmile_qr_scan"}}, {"lon": -76.99636066666666, "fusion_lat": 0.0, "type": "electric_scooter", "lat": 38.881343333333334, "is_disabled": 0, "name": "76ad1b646d5881b03a310a44fff5c4f4", "is_reserved": 0, "bike_id": "76ad1b646d5881b03a310a44fff5c4f4", "fusion_lon": 0.0, "rental_uris": {"ios": "https://dc.lft.to/lastmile_qr_scan", "android": "https://dc.lft.to/lastmile_qr_scan"}}, {"lon": -77.048737, "fusion_lat": 0.0, "type": "electric_scooter", "lat": 38.906413, "is_disabled": 0, "name": "b3910da6171a7b7c4ac9713c13501702", "is_reserved": 0, "bike_id": "b3910da6171a7b7c4ac9713c13501702", "fusion_lon": 0.0, "rental_uris": {"ios": "https://dc.lft.to/lastmile_qr_scan", "android": "https://dc.lft.to/lastmile_qr_scan"}}, {"lon": -77.02781583333334, "fusion_lat": 0.0, "type": "electric_scooter", "lat": 38.96181216666667, "is_disabled": 0, "name": "4a567e23f947811f093bfa4ebe92c1c4", "is_reserved": 0, "bike_id": "4a567e23f947811f093bfa4ebe92c1c4", "fusion_lon": 0.0, "rental_uris": {"ios": "https://dc.lft.to/lastmile_qr_scan", "android": "https://dc.lft.to/lastmile_qr_scan"}}, {"lon": -77.02301666666666, "fusion_lat": 0.0, "type": "electric_scooter", "lat": 38.90890183333333, "is_disabled": 0, "name": "c789d920b0d2a741c4c174e95bdbafd7", "is_reserved": 0, "bike_id": "c789d920b0d2a741c4c174e95bdbafd7", "fusion_lon": 0.0, "rental_uris": {"ios": "https://dc.lft.to/lastmile_qr_scan", "android": "https://dc.lft.to/lastmile_qr_scan"}}, {"lon": -76.978404, "fusion_lat": 0.0, "type": "electric_scooter", "lat": 38.89912866666667, "is_disabled": 0, "name": "d502d3785a0c5952c0cad548f96b40e5", "is_reserved": 0, "bike_id": "d502d3785a0c5952c0cad548f96b40e5", "fusion_lon": 0.0, "rental_uris": {"ios": "https://dc.lft.to/lastmile_qr_scan", "android": "https://dc.lft.to/lastmile_qr_scan"}}, {"lon": -76.98560266666667, "fusion_lat": 0.0, "type": "electric_scooter", "lat": 38.89764533333334, "is_disabled": 0, "name": "dc20b3d015a900fcc8a7467636ebd918", "is_reserved": 0, "bike_id": "dc20b3d015a900fcc8a7467636ebd918", "fusion_lon": 0.0, "rental_uris": {"ios": "https://dc.lft.to/lastmile_qr_scan", "android": "https://dc.lft.to/lastmile_qr_scan"}}, {"lon": -77.04898016666667, "fusion_lat": 0.0, "type": "electric_scooter", "lat": 38.905438, "is_disabled": 0, "name": "de0a52498c925fd210a8b74b54db5bcc", "is_reserved": 0, "bike_id": "de0a52498c925fd210a8b74b54db5bcc", "fusion_lon": 0.0, "rental_uris": {"ios": "https://dc.lft.to/lastmile_qr_scan", "android": "https://dc.lft.to/lastmile_qr_scan"}}, {"lon": -77.01757416666666, "fusion_lat": 0.0, "type": "electric_scooter", "lat": 38.90261116666667, "is_disabled": 0, "name": "7f2081f01ae2d587733520250fcf6a0e", "is_reserved": 0, "bike_id": "7f2081f01ae2d587733520250fcf6a0e", "fusion_lon": 0.0, "rental_uris": {"ios": "https://dc.lft.to/lastmile_qr_scan", "android": "https://dc.lft.to/lastmile_qr_scan"}}, {"lon": -77.0048495, "fusion_lat": 0.0, "type": "electric_scooter", "lat": 38.90570016666667, "is_disabled": 0, "name": "d14a49df94bc69d4436aaa58f80013e6", "is_reserved": 0, "bike_id": "d14a49df94bc69d4436aaa58f80013e6", "fusion_lon": 0.0, "rental_uris": {"ios": "https://dc.lft.to/lastmile_qr_scan", "android": "https://dc.lft.to/lastmile_qr_scan"}}, {"lon": -77.061903, "fusion_lat": 0.0, "type": "electric_scooter", "lat": 38.9300935, "is_disabled": 0, "name": "f987f456c93a06716e7ac968893857ff", "is_reserved": 0, "bike_id": "f987f456c93a06716e7ac968893857ff", "fusion_lon": 0.0, "rental_uris": {"ios": "https://dc.lft.to/lastmile_qr_scan", "android": "https://dc.lft.to/lastmile_qr_scan"}}, {"lon": -76.97051733333333, "fusion_lat": 0.0, "type": "electric_bike", "lat": 38.95887366666667, "is_disabled": 0, "name": "0249da3befe602171fa3a37a6d432bb1", "is_reserved": 0, "bike_id": "0249da3befe602171fa3a37a6d432bb1", "fusion_lon": 0.0, "rental_uris": {"ios": "https://dc.lft.to/lastmile_qr_scan", "android": "https://dc.lft.to/lastmile_qr_scan"}}, {"lon": -77.00049666666666, "fusion_lat": 0.0, "type": "electric_scooter", "lat": 38.87634933333333, "is_disabled": 0, "name": "8b629f8679f4d3e0f1ba56d1778bdd06", "is_reserved": 0, "bike_id": "8b629f8679f4d3e0f1ba56d1778bdd06", "fusion_lon": 0.0, "rental_uris": {"ios": "https://dc.lft.to/lastmile_qr_scan", "android": "https://dc.lft.to/lastmile_qr_scan"}}, {"lon": -77.0057685, "fusion_lat": 0.0, "type": "electric_scooter", "lat": 38.87403183333333, "is_disabled": 0, "name": "f59988b19987e2878faa4355bddabd5a", "is_reserved": 0, "bike_id": "f59988b19987e2878faa4355bddabd5a", "fusion_lon": 0.0, "rental_uris": {"ios": "https://dc.lft.to/lastmile_qr_scan", "android": "https://dc.lft.to/lastmile_qr_scan"}}, {"lon": -77.04910333333333, "fusion_lat": 0.0, "type": "electric_scooter", "lat": 38.919389833333334, "is_disabled": 0, "name": "8dcc9c62d07884fbad400d410912fb92", "is_reserved": 0, "bike_id": "8dcc9c62d07884fbad400d410912fb92", "fusion_lon": 0.0, "rental_uris": {"ios": "https://dc.lft.to/lastmile_qr_scan", "android": "https://dc.lft.to/lastmile_qr_scan"}}, {"lon": -77.039936, "fusion_lat": 0.0, "type": "electric_scooter", "lat": 38.892203333333335, "is_disabled": 0, "name": "8f55b53eeafc295f7a3f4859ccbb2a17", "is_reserved": 0, "bike_id": "8f55b53eeafc295f7a3f4859ccbb2a17", "fusion_lon": 0.0, "rental_uris": {"ios": "https://dc.lft.to/lastmile_qr_scan", "android": "https://dc.lft.to/lastmile_qr_scan"}}, {"lon": -77.026871, "fusion_lat": 0.0, "type": "electric_scooter", "lat": 38.923807833333335, "is_disabled": 0, "name": "8a9e6d2fd5c9f3c9206ad543cad5be51", "is_reserved": 0, "bike_id": "8a9e6d2fd5c9f3c9206ad543cad5be51", "fusion_lon": 0.0, "rental_uris": {"ios": "https://dc.lft.to/lastmile_qr_scan", "android": "https://dc.lft.to/lastmile_qr_scan"}}, {"lon": -76.99431883333334, "fusion_lat": 0.0, "type": "electric_scooter", "lat": 38.8521675, "is_disabled": 0, "name": "ae1236e3b7cd73092456f854b5c76ef3", "is_reserved": 0, "bike_id": "ae1236e3b7cd73092456f854b5c76ef3", "fusion_lon": 0.0, "rental_uris": {"ios": "https://dc.lft.to/lastmile_qr_scan", "android": "https://dc.lft.to/lastmile_qr_scan"}}, {"lon": -76.989009, "fusion_lat": 0.0, "type": "electric_scooter", "lat": 38.913418166666666, "is_disabled": 0, "name": "e6bf8df67b7bfc296af79864f06eccf4", "is_reserved": 0, "bike_id": "e6bf8df67b7bfc296af79864f06eccf4", "fusion_lon": 0.0, "rental_uris": {"ios": "https://dc.lft.to/lastmile_qr_scan", "android": "https://dc.lft.to/lastmile_qr_scan"}}, {"lon": -77.04610983333333, "fusion_lat": 0.0, "type": "electric_scooter", "lat": 38.909585666666665, "is_disabled": 0, "name": "37eb5f8e1723de92eed9f5350fc38190", "is_reserved": 0, "bike_id": "37eb5f8e1723de92eed9f5350fc38190", "fusion_lon": 0.0, "rental_uris": {"ios": "https://dc.lft.to/lastmile_qr_scan", "android": "https://dc.lft.to/lastmile_qr_scan"}}, {"lon": -77.031662, "fusion_lat": 0.0, "type": "electric_scooter", "lat": 38.91694583333334, "is_disabled": 0, "name": "19eb0dc224af394c9d6fb1469c550973", "is_reserved": 0, "bike_id": "19eb0dc224af394c9d6fb1469c550973", "fusion_lon": 0.0, "rental_uris": {"ios": "https://dc.lft.to/lastmile_qr_scan", "android": "https://dc.lft.to/lastmile_qr_scan"}}, {"lon": -76.99267583333334, "fusion_lat": 0.0, "type": "electric_scooter", "lat": 38.8810785, "is_disabled": 0, "name": "59109e79aa966f69ab24d069ce5ea922", "is_reserved": 0, "bike_id": "59109e79aa966f69ab24d069ce5ea922", "fusion_lon": 0.0, "rental_uris": {"ios": "https://dc.lft.to/lastmile_qr_scan", "android": "https://dc.lft.to/lastmile_qr_scan"}}, {"lon": -77.032135, "fusion_lat": 0.0, "type": "electric_scooter", "lat": 38.93614083333333, "is_disabled": 0, "name": "b32c332b1471b9bec67fecc3a1509844", "is_reserved": 0, "bike_id": "b32c332b1471b9bec67fecc3a1509844", "fusion_lon": 0.0, "rental_uris": {"ios": "https://dc.lft.to/lastmile_qr_scan", "android": "https://dc.lft.to/lastmile_qr_scan"}}, {"lon": -76.92137283333334, "fusion_lat": 0.0, "type": "electric_scooter", "lat": 38.90150166666667, "is_disabled": 0, "name": "d11953169209f6fee895146bc65e2508", "is_reserved": 0, "bike_id": "d11953169209f6fee895146bc65e2508", "fusion_lon": 0.0, "rental_uris": {"ios": "https://dc.lft.to/lastmile_qr_scan", "android": "https://dc.lft.to/lastmile_qr_scan"}}, {"lon": -77.041304, "fusion_lat": 0.0, "type": "electric_scooter", "lat": 38.933566666666664, "is_disabled": 0, "name": "d3de072847a5accd6edd327aadff317a", "is_reserved": 0, "bike_id": "d3de072847a5accd6edd327aadff317a", "fusion_lon": 0.0, "rental_uris": {"ios": "https://dc.lft.to/lastmile_qr_scan", "android": "https://dc.lft.to/lastmile_qr_scan"}}, {"lon": -77.02605466666667, "fusion_lat": 0.0, "type": "electric_scooter", "lat": 38.903454333333336, "is_disabled": 0, "name": "c368320ebee8a2444844be669b3f7ce0", "is_reserved": 0, "bike_id": "c368320ebee8a2444844be669b3f7ce0", "fusion_lon": 0.0, "rental_uris": {"ios": "https://dc.lft.to/lastmile_qr_scan", "android": "https://dc.lft.to/lastmile_qr_scan"}}, {"lon": -77.03486883333333, "fusion_lat": 0.0, "type": "electric_scooter", "lat": 38.903701166666664, "is_disabled": 0, "name": "9691425ee96a7156025e5f0de90ff16c", "is_reserved": 0, "bike_id": "9691425ee96a7156025e5f0de90ff16c", "fusion_lon": 0.0, "rental_uris": {"ios": "https://dc.lft.to/lastmile_qr_scan", "android": "https://dc.lft.to/lastmile_qr_scan"}}, {"lon": -76.9841035, "fusion_lat": 0.0, "type": "electric_scooter", "lat": 38.90522516666667, "is_disabled": 0, "name": "f28211740b4eb0356f17da2f2e2c88b6", "is_reserved": 0, "bike_id": "f28211740b4eb0356f17da2f2e2c88b6", "fusion_lon": 0.0, "rental_uris": {"ios": "https://dc.lft.to/lastmile_qr_scan", "android": "https://dc.lft.to/lastmile_qr_scan"}}, {"lon": -77.011019, "fusion_lat": 0.0, "type": "electric_scooter", "lat": 38.910427166666665, "is_disabled": 0, "name": "851b2d7f4cb827cbbf31bce723136431", "is_reserved": 0, "bike_id": "851b2d7f4cb827cbbf31bce723136431", "fusion_lon": 0.0, "rental_uris": {"ios": "https://dc.lft.to/lastmile_qr_scan", "android": "https://dc.lft.to/lastmile_qr_scan"}}, {"lon": -77.088732, "fusion_lat": 0.0, "type": "electric_bike", "lat": 38.951108, "is_disabled": 0, "name": "4300d8edbc9d69a229940247a570eed5", "is_reserved": 0, "bike_id": "4300d8edbc9d69a229940247a570eed5", "fusion_lon": 0.0, "rental_uris": {"ios": "https://dc.lft.to/lastmile_qr_scan", "android": "https://dc.lft.to/lastmile_qr_scan"}}, {"lon": -77.0158025, "fusion_lat": 0.0, "type": "electric_scooter", "lat": 38.9167535, "is_disabled": 0, "name": "dfc81eabc41b3e74306e184fc61fadcc", "is_reserved": 0, "bike_id": "dfc81eabc41b3e74306e184fc61fadcc", "fusion_lon": 0.0, "rental_uris": {"ios": "https://dc.lft.to/lastmile_qr_scan", "android": "https://dc.lft.to/lastmile_qr_scan"}}, {"lon": -76.98548116666667, "fusion_lat": 0.0, "type": "electric_scooter", "lat": 38.87831283333333, "is_disabled": 0, "name": "d87afbc1da28a5d48524c018bcb4e606", "is_reserved": 0, "bike_id": "d87afbc1da28a5d48524c018bcb4e606", "fusion_lon": 0.0, "rental_uris": {"ios": "https://dc.lft.to/lastmile_qr_scan", "android": "https://dc.lft.to/lastmile_qr_scan"}}, {"lon": -77.01700316666667, "fusion_lat": 0.0, "type": "electric_bike", "lat": 38.93989533333333, "is_disabled": 0, "name": "67f0f6fced8bebf1301299078ec0a783", "is_reserved": 0, "bike_id": "67f0f6fced8bebf1301299078ec0a783", "fusion_lon": 0.0, "rental_uris": {"ios": "https://dc.lft.to/lastmile_qr_scan", "android": "https://dc.lft.to/lastmile_qr_scan"}}, {"lon": -77.019113, "fusion_lat": 0.0, "type": "electric_scooter", "lat": 38.92374816666667, "is_disabled": 0, "name": "02317606f02780645db9539768bd3dc7", "is_reserved": 0, "bike_id": "02317606f02780645db9539768bd3dc7", "fusion_lon": 0.0, "rental_uris": {"ios": "https://dc.lft.to/lastmile_qr_scan", "android": "https://dc.lft.to/lastmile_qr_scan"}}, {"lon": -76.986764, "fusion_lat": 0.0, "type": "electric_scooter", "lat": 38.900156333333335, "is_disabled": 0, "name": "e6c4d339e0ab29814dda670817890855", "is_reserved": 0, "bike_id": "e6c4d339e0ab29814dda670817890855", "fusion_lon": 0.0, "rental_uris": {"ios": "https://dc.lft.to/lastmile_qr_scan", "android": "https://dc.lft.to/lastmile_qr_scan"}}, {"lon": -76.98542216666667, "fusion_lat": 0.0, "type": "electric_scooter", "lat": 38.88524316666667, "is_disabled": 0, "name": "47adc36307ffc8c70ed23a84e736e023", "is_reserved": 0, "bike_id": "47adc36307ffc8c70ed23a84e736e023", "fusion_lon": 0.0, "rental_uris": {"ios": "https://dc.lft.to/lastmile_qr_scan", "android": "https://dc.lft.to/lastmile_qr_scan"}}, {"lon": -77.01105883333334, "fusion_lat": 0.0, "type": "electric_scooter", "lat": 38.89493216666666, "is_disabled": 0, "name": "008c9905946c5c133e9526d21d002524", "is_reserved": 0, "bike_id": "008c9905946c5c133e9526d21d002524", "fusion_lon": 0.0, "rental_uris": {"ios": "https://dc.lft.to/lastmile_qr_scan", "android": "https://dc.lft.to/lastmile_qr_scan"}}, {"lon": -77.03211, "fusion_lat": 0.0, "type": "electric_scooter", "lat": 38.91193483333333, "is_disabled": 0, "name": "9436b8b6916b42ef4ca2699e23e815b1", "is_reserved": 0, "bike_id": "9436b8b6916b42ef4ca2699e23e815b1", "fusion_lon": 0.0, "rental_uris": {"ios": "https://dc.lft.to/lastmile_qr_scan", "android": "https://dc.lft.to/lastmile_qr_scan"}}, {"lon": -77.01550533333334, "fusion_lat": 0.0, "type": "electric_scooter", "lat": 38.9077155, "is_disabled": 0, "name": "26280c812a0542386ed3c267612d4f1d", "is_reserved": 0, "bike_id": "26280c812a0542386ed3c267612d4f1d", "fusion_lon": 0.0, "rental_uris": {"ios": "https://dc.lft.to/lastmile_qr_scan", "android": "https://dc.lft.to/lastmile_qr_scan"}}, {"lon": -77.03915316666667, "fusion_lat": 0.0, "type": "electric_bike", "lat": 39.03561716666667, "is_disabled": 0, "name": "732d5b9be67088c018032e95c6f350eb", "is_reserved": 0, "bike_id": "732d5b9be67088c018032e95c6f350eb", "fusion_lon": 0.0, "rental_uris": {"ios": "https://dc.lft.to/lastmile_qr_scan", "android": "https://dc.lft.to/lastmile_qr_scan"}}, {"lon": -77.02736433333334, "fusion_lat": 0.0, "type": "electric_scooter", "lat": 38.8965685, "is_disabled": 0, "name": "9ef2fe0a260ff8fc38ae05c0bc0c9eac", "is_reserved": 0, "bike_id": "9ef2fe0a260ff8fc38ae05c0bc0c9eac", "fusion_lon": 0.0, "rental_uris": {"ios": "https://dc.lft.to/lastmile_qr_scan", "android": "https://dc.lft.to/lastmile_qr_scan"}}, {"lon": -77.032269, "fusion_lat": 0.0, "type": "electric_scooter", "lat": 38.897775333333335, "is_disabled": 0, "name": "47106f369feff49061a29c2c689bd83b", "is_reserved": 0, "bike_id": "47106f369feff49061a29c2c689bd83b", "fusion_lon": 0.0, "rental_uris": {"ios": "https://dc.lft.to/lastmile_qr_scan", "android": "https://dc.lft.to/lastmile_qr_scan"}}, {"lon": -77.071158, "fusion_lat": 0.0, "type": "electric_scooter", "lat": 38.919718, "is_disabled": 0, "name": "cabb6908a7adbd8a4a11dd20772c03cc", "is_reserved": 0, "bike_id": "cabb6908a7adbd8a4a11dd20772c03cc", "fusion_lon": 0.0, "rental_uris": {"ios": "https://dc.lft.to/lastmile_qr_scan", "android": "https://dc.lft.to/lastmile_qr_scan"}}, {"lon": -77.014974, "fusion_lat": 0.0, "type": "electric_scooter", "lat": 38.926885666666664, "is_disabled": 0, "name": "34b6f364098c5e4ceeece200c501d610", "is_reserved": 0, "bike_id": "34b6f364098c5e4ceeece200c501d610", "fusion_lon": 0.0, "rental_uris": {"ios": "https://dc.lft.to/lastmile_qr_scan", "android": "https://dc.lft.to/lastmile_qr_scan"}}, {"lon": -77.00581283333334, "fusion_lat": 0.0, "type": "electric_scooter", "lat": 38.87573583333333, "is_disabled": 0, "name": "6499d47703f0c1218856dbd173d91ef6", "is_reserved": 0, "bike_id": "6499d47703f0c1218856dbd173d91ef6", "fusion_lon": 0.0, "rental_uris": {"ios": "https://dc.lft.to/lastmile_qr_scan", "android": "https://dc.lft.to/lastmile_qr_scan"}}, {"lon": -76.99795583333334, "fusion_lat": 0.0, "type": "electric_scooter", "lat": 38.935539, "is_disabled": 0, "name": "48e89dd79de08344ed4400ee544bc79e", "is_reserved": 0, "bike_id": "48e89dd79de08344ed4400ee544bc79e", "fusion_lon": 0.0, "rental_uris": {"ios": "https://dc.lft.to/lastmile_qr_scan", "android": "https://dc.lft.to/lastmile_qr_scan"}}, {"lon": -77.001214, "fusion_lat": 0.0, "type": "electric_scooter", "lat": 38.873682333333335, "is_disabled": 0, "name": "ca7218e79cdc0196cb46cdff7439d263", "is_reserved": 0, "bike_id": "ca7218e79cdc0196cb46cdff7439d263", "fusion_lon": 0.0, "rental_uris": {"ios": "https://dc.lft.to/lastmile_qr_scan", "android": "https://dc.lft.to/lastmile_qr_scan"}}, {"lon": -77.0319735, "fusion_lat": 0.0, "type": "electric_scooter", "lat": 38.893297, "is_disabled": 0, "name": "44b4063c11833be5d2c3d69b633c64dd", "is_reserved": 0, "bike_id": "44b4063c11833be5d2c3d69b633c64dd", "fusion_lon": 0.0, "rental_uris": {"ios": "https://dc.lft.to/lastmile_qr_scan", "android": "https://dc.lft.to/lastmile_qr_scan"}}, {"lon": -77.028509, "fusion_lat": 0.0, "type": "electric_scooter", "lat": 38.935267333333336, "is_disabled": 0, "name": "25e25c21c8f96316f31cf007f6115e82", "is_reserved": 0, "bike_id": "25e25c21c8f96316f31cf007f6115e82", "fusion_lon": 0.0, "rental_uris": {"ios": "https://dc.lft.to/lastmile_qr_scan", "android": "https://dc.lft.to/lastmile_qr_scan"}}, {"lon": -77.05082633333333, "fusion_lat": 0.0, "type": "electric_scooter", "lat": 38.9010285, "is_disabled": 0, "name": "6913ab79c87ac3a0b78f98e83774382c", "is_reserved": 0, "bike_id": "6913ab79c87ac3a0b78f98e83774382c", "fusion_lon": 0.0, "rental_uris": {"ios": "https://dc.lft.to/lastmile_qr_scan", "android": "https://dc.lft.to/lastmile_qr_scan"}}, {"lon": -77.03653266666667, "fusion_lat": 0.0, "type": "electric_scooter", "lat": 38.90393533333334, "is_disabled": 0, "name": "01b82bd028168f1b66d67427b6e07d54", "is_reserved": 0, "bike_id": "01b82bd028168f1b66d67427b6e07d54", "fusion_lon": 0.0, "rental_uris": {"ios": "https://dc.lft.to/lastmile_qr_scan", "android": "https://dc.lft.to/lastmile_qr_scan"}}, {"lon": -77.03262616666666, "fusion_lat": 0.0, "type": "electric_scooter", "lat": 38.919175833333334, "is_disabled": 0, "name": "c8bd86f0235be74f671cf9fa3891b8a4", "is_reserved": 0, "bike_id": "c8bd86f0235be74f671cf9fa3891b8a4", "fusion_lon": 0.0, "rental_uris": {"ios": "https://dc.lft.to/lastmile_qr_scan", "android": "https://dc.lft.to/lastmile_qr_scan"}}, {"lon": -77.019346, "fusion_lat": 0.0, "type": "electric_scooter", "lat": 38.919249, "is_disabled": 0, "name": "ba069f0d4823f87d402641cae6cb7158", "is_reserved": 0, "bike_id": "ba069f0d4823f87d402641cae6cb7158", "fusion_lon": 0.0, "rental_uris": {"ios": "https://dc.lft.to/lastmile_qr_scan", "android": "https://dc.lft.to/lastmile_qr_scan"}}, {"lon": -77.04209033333333, "fusion_lat": 0.0, "type": "electric_scooter", "lat": 38.892662, "is_disabled": 0, "name": "e9b37725b48612d974da405e6fb0c290", "is_reserved": 0, "bike_id": "e9b37725b48612d974da405e6fb0c290", "fusion_lon": 0.0, "rental_uris": {"ios": "https://dc.lft.to/lastmile_qr_scan", "android": "https://dc.lft.to/lastmile_qr_scan"}}, {"lon": -77.0319255, "fusion_lat": 0.0, "type": "electric_scooter", "lat": 38.88736333333333, "is_disabled": 0, "name": "be00d221ee6a42b86580b7d82933f142", "is_reserved": 0, "bike_id": "be00d221ee6a42b86580b7d82933f142", "fusion_lon": 0.0, "rental_uris": {"ios": "https://dc.lft.to/lastmile_qr_scan", "android": "https://dc.lft.to/lastmile_qr_scan"}}, {"lon": -77.00999966666667, "fusion_lat": 0.0, "type": "electric_scooter", "lat": 38.91921083333333, "is_disabled": 0, "name": "d0bffbf706d7464f820c7c7c7b7e06ed", "is_reserved": 0, "bike_id": "d0bffbf706d7464f820c7c7c7b7e06ed", "fusion_lon": 0.0, "rental_uris": {"ios": "https://dc.lft.to/lastmile_qr_scan", "android": "https://dc.lft.to/lastmile_qr_scan"}}, {"lon": -76.95149683333334, "fusion_lat": 0.0, "type": "electric_bike", "lat": 39.084299, "is_disabled": 0, "name": "5b7e11759dc7c0d8b939ec3160717868", "is_reserved": 0, "bike_id": "5b7e11759dc7c0d8b939ec3160717868", "fusion_lon": 0.0, "rental_uris": {"ios": "https://dc.lft.to/lastmile_qr_scan", "android": "https://dc.lft.to/lastmile_qr_scan"}}, {"lon": -77.04014416666666, "fusion_lat": 0.0, "type": "electric_scooter", "lat": 38.9053545, "is_disabled": 0, "name": "f60e49f99c71e7c52ae7fcce885ffce4", "is_reserved": 0, "bike_id": "f60e49f99c71e7c52ae7fcce885ffce4", "fusion_lon": 0.0, "rental_uris": {"ios": "https://dc.lft.to/lastmile_qr_scan", "android": "https://dc.lft.to/lastmile_qr_scan"}}, {"lon": -77.04165216666667, "fusion_lat": 0.0, "type": "electric_scooter", "lat": 38.91519266666667, "is_disabled": 0, "name": "8179a474e8bebe9e138e3ccc235b009a", "is_reserved": 0, "bike_id": "8179a474e8bebe9e138e3ccc235b009a", "fusion_lon": 0.0, "rental_uris": {"ios": "https://dc.lft.to/lastmile_qr_scan", "android": "https://dc.lft.to/lastmile_qr_scan"}}, {"lon": -76.93673933333334, "fusion_lat": 0.0, "type": "electric_scooter", "lat": 38.88659216666667, "is_disabled": 0, "name": "b1e2280a44c8f2f18122d0ce8a28b96b", "is_reserved": 0, "bike_id": "b1e2280a44c8f2f18122d0ce8a28b96b", "fusion_lon": 0.0, "rental_uris": {"ios": "https://dc.lft.to/lastmile_qr_scan", "android": "https://dc.lft.to/lastmile_qr_scan"}}, {"lon": -77.34469616666667, "fusion_lat": 0.0, "type": "electric_bike", "lat": 38.945384833333335, "is_disabled": 0, "name": "78781ac801ef9a6397cdda05fe436f44", "is_reserved": 0, "bike_id": "78781ac801ef9a6397cdda05fe436f44", "fusion_lon": 0.0, "rental_uris": {"ios": "https://dc.lft.to/lastmile_qr_scan", "android": "https://dc.lft.to/lastmile_qr_scan"}}, {"lon": -77.02166283333334, "fusion_lat": 0.0, "type": "electric_scooter", "lat": 38.924498666666665, "is_disabled": 0, "name": "0e3ef07e586d91a70aef589eba0b47df", "is_reserved": 0, "bike_id": "0e3ef07e586d91a70aef589eba0b47df", "fusion_lon": 0.0, "rental_uris": {"ios": "https://dc.lft.to/lastmile_qr_scan", "android": "https://dc.lft.to/lastmile_qr_scan"}}, {"lon": -77.02196516666666, "fusion_lat": 0.0, "type": "electric_bike", "lat": 38.91127766666666, "is_disabled": 0, "name": "dcf892d888f6ed668f964e3076ad19fc", "is_reserved": 0, "bike_id": "dcf892d888f6ed668f964e3076ad19fc", "fusion_lon": 0.0, "rental_uris": {"ios": "https://dc.lft.to/lastmile_qr_scan", "android": "https://dc.lft.to/lastmile_qr_scan"}}, {"lon": -76.99810233333334, "fusion_lat": 0.0, "type": "electric_scooter", "lat": 38.908479166666666, "is_disabled": 0, "name": "5738e015fe250cd12cd37703359f77bf", "is_reserved": 0, "bike_id": "5738e015fe250cd12cd37703359f77bf", "fusion_lon": 0.0, "rental_uris": {"ios": "https://dc.lft.to/lastmile_qr_scan", "android": "https://dc.lft.to/lastmile_qr_scan"}}, {"lon": -77.04613366666666, "fusion_lat": 0.0, "type": "electric_scooter", "lat": 38.89828766666667, "is_disabled": 0, "name": "85cdd5ff4ee46c2ac19b4320c9de3453", "is_reserved": 0, "bike_id": "85cdd5ff4ee46c2ac19b4320c9de3453", "fusion_lon": 0.0, "rental_uris": {"ios": "https://dc.lft.to/lastmile_qr_scan", "android": "https://dc.lft.to/lastmile_qr_scan"}}, {"lon": -77.02400516666667, "fusion_lat": 0.0, "type": "electric_scooter", "lat": 38.900394666666664, "is_disabled": 0, "name": "79e5e358616482202d422b61078aa130", "is_reserved": 0, "bike_id": "79e5e358616482202d422b61078aa130", "fusion_lon": 0.0, "rental_uris": {"ios": "https://dc.lft.to/lastmile_qr_scan", "android": "https://dc.lft.to/lastmile_qr_scan"}}, {"lon": -77.02507166666666, "fusion_lat": 0.0, "type": "electric_scooter", "lat": 38.9278865, "is_disabled": 0, "name": "f4a705ef6e6b43f59ee427b4d9897285", "is_reserved": 0, "bike_id": "f4a705ef6e6b43f59ee427b4d9897285", "fusion_lon": 0.0, "rental_uris": {"ios": "https://dc.lft.to/lastmile_qr_scan", "android": "https://dc.lft.to/lastmile_qr_scan"}}, {"lon": -77.04506366666666, "fusion_lat": 0.0, "type": "electric_scooter", "lat": 38.91486333333334, "is_disabled": 0, "name": "53765becc7819627c4035d3e794638b8", "is_reserved": 0, "bike_id": "53765becc7819627c4035d3e794638b8", "fusion_lon": 0.0, "rental_uris": {"ios": "https://dc.lft.to/lastmile_qr_scan", "android": "https://dc.lft.to/lastmile_qr_scan"}}, {"lon": -77.03958, "fusion_lat": 0.0, "type": "electric_scooter", "lat": 38.892457, "is_disabled": 0, "name": "7846bef51246200a1e0a386de422f5eb", "is_reserved": 0, "bike_id": "7846bef51246200a1e0a386de422f5eb", "fusion_lon": 0.0, "rental_uris": {"ios": "https://dc.lft.to/lastmile_qr_scan", "android": "https://dc.lft.to/lastmile_qr_scan"}}, {"lon": -76.93915, "fusion_lat": 0.0, "type": "electric_scooter", "lat": 38.882191166666665, "is_disabled": 0, "name": "17b5569e82e2ba01f8bd5626468db807", "is_reserved": 0, "bike_id": "17b5569e82e2ba01f8bd5626468db807", "fusion_lon": 0.0, "rental_uris": {"ios": "https://dc.lft.to/lastmile_qr_scan", "android": "https://dc.lft.to/lastmile_qr_scan"}}, {"lon": -77.02004116666667, "fusion_lat": 0.0, "type": "electric_scooter", "lat": 38.902660166666664, "is_disabled": 0, "name": "aa41536fab9ad25c7f39b7ce6f6430b0", "is_reserved": 0, "bike_id": "aa41536fab9ad25c7f39b7ce6f6430b0", "fusion_lon": 0.0, "rental_uris": {"ios": "https://dc.lft.to/lastmile_qr_scan", "android": "https://dc.lft.to/lastmile_qr_scan"}}, {"lon": -77.02222416666666, "fusion_lat": 0.0, "type": "electric_scooter", "lat": 38.89189833333333, "is_disabled": 0, "name": "dfad849a92913b5d3f43a67564c5b07f", "is_reserved": 0, "bike_id": "dfad849a92913b5d3f43a67564c5b07f", "fusion_lon": 0.0, "rental_uris": {"ios": "https://dc.lft.to/lastmile_qr_scan", "android": "https://dc.lft.to/lastmile_qr_scan"}}, {"lon": -77.03601933333333, "fusion_lat": 0.0, "type": "electric_scooter", "lat": 38.92322133333333, "is_disabled": 0, "name": "df83770468731179c1b6babc88cdb842", "is_reserved": 0, "bike_id": "df83770468731179c1b6babc88cdb842", "fusion_lon": 0.0, "rental_uris": {"ios": "https://dc.lft.to/lastmile_qr_scan", "android": "https://dc.lft.to/lastmile_qr_scan"}}, {"lon": -76.97410566666667, "fusion_lat": 0.0, "type": "electric_scooter", "lat": 38.9023255, "is_disabled": 0, "name": "41d9da5a7089dcc6f90a32d817a235f1", "is_reserved": 0, "bike_id": "41d9da5a7089dcc6f90a32d817a235f1", "fusion_lon": 0.0, "rental_uris": {"ios": "https://dc.lft.to/lastmile_qr_scan", "android": "https://dc.lft.to/lastmile_qr_scan"}}, {"lon": -76.91092066666667, "fusion_lat": 0.0, "type": "electric_bike", "lat": 38.88315883333333, "is_disabled": 0, "name": "cb81d887660eb78584338da1cd4e2204", "is_reserved": 0, "bike_id": "cb81d887660eb78584338da1cd4e2204", "fusion_lon": 0.0, "rental_uris": {"ios": "https://dc.lft.to/lastmile_qr_scan", "android": "https://dc.lft.to/lastmile_qr_scan"}}, {"lon": -76.997772, "fusion_lat": 0.0, "type": "electric_scooter", "lat": 38.894191, "is_disabled": 0, "name": "5cfcbb95d9c013f7130c0df163d0bd57", "is_reserved": 0, "bike_id": "5cfcbb95d9c013f7130c0df163d0bd57", "fusion_lon": 0.0, "rental_uris": {"ios": "https://dc.lft.to/lastmile_qr_scan", "android": "https://dc.lft.to/lastmile_qr_scan"}}, {"lon": -77.0025995, "fusion_lat": 0.0, "type": "electric_scooter", "lat": 38.87657733333333, "is_disabled": 0, "name": "0471a3bad2262adaa058eb441e98a47a", "is_reserved": 0, "bike_id": "0471a3bad2262adaa058eb441e98a47a", "fusion_lon": 0.0, "rental_uris": {"ios": "https://dc.lft.to/lastmile_qr_scan", "android": "https://dc.lft.to/lastmile_qr_scan"}}, {"lon": -77.042216, "fusion_lat": 0.0, "type": "electric_bike", "lat": 39.038167666666666, "is_disabled": 0, "name": "19d98cae3a7cd30d57e113e1a0a6027a", "is_reserved": 0, "bike_id": "19d98cae3a7cd30d57e113e1a0a6027a", "fusion_lon": 0.0, "rental_uris": {"ios": "https://dc.lft.to/lastmile_qr_scan", "android": "https://dc.lft.to/lastmile_qr_scan"}}, {"lon": -77.02501733333334, "fusion_lat": 0.0, "type": "electric_scooter", "lat": 38.90162083333333, "is_disabled": 0, "name": "437e836fe9b9be2fcbf67fdecea2f7de", "is_reserved": 0, "bike_id": "437e836fe9b9be2fcbf67fdecea2f7de", "fusion_lon": 0.0, "rental_uris": {"ios": "https://dc.lft.to/lastmile_qr_scan", "android": "https://dc.lft.to/lastmile_qr_scan"}}, {"lon": -77.043677, "fusion_lat": 0.0, "type": "electric_scooter", "lat": 38.89223283333333, "is_disabled": 0, "name": "d86a6ba8988c97ecaa45052cc298d2d6", "is_reserved": 0, "bike_id": "d86a6ba8988c97ecaa45052cc298d2d6", "fusion_lon": 0.0, "rental_uris": {"ios": "https://dc.lft.to/lastmile_qr_scan", "android": "https://dc.lft.to/lastmile_qr_scan"}}, {"lon": -77.01853466666667, "fusion_lat": 0.0, "type": "electric_scooter", "lat": 38.90967583333333, "is_disabled": 0, "name": "7d01422e109db62ac8c1953a65ea2bda", "is_reserved": 0, "bike_id": "7d01422e109db62ac8c1953a65ea2bda", "fusion_lon": 0.0, "rental_uris": {"ios": "https://dc.lft.to/lastmile_qr_scan", "android": "https://dc.lft.to/lastmile_qr_scan"}}, {"lon": -76.9967815, "fusion_lat": 0.0, "type": "electric_scooter", "lat": 38.887215833333336, "is_disabled": 0, "name": "3c7f8c7275d54c28742cf62256908b1e", "is_reserved": 0, "bike_id": "3c7f8c7275d54c28742cf62256908b1e", "fusion_lon": 0.0, "rental_uris": {"ios": "https://dc.lft.to/lastmile_qr_scan", "android": "https://dc.lft.to/lastmile_qr_scan"}}, {"lon": -77.0282025, "fusion_lat": 0.0, "type": "electric_scooter", "lat": 38.89831016666667, "is_disabled": 0, "name": "5e1eaff72a405d7e63e69b7dbfe5eabc", "is_reserved": 0, "bike_id": "5e1eaff72a405d7e63e69b7dbfe5eabc", "fusion_lon": 0.0, "rental_uris": {"ios": "https://dc.lft.to/lastmile_qr_scan", "android": "https://dc.lft.to/lastmile_qr_scan"}}, {"lon": -76.99509766666667, "fusion_lat": 0.0, "type": "electric_bike", "lat": 38.87777366666667, "is_disabled": 0, "name": "6dbfb737ca222dc8c0aa487b9747f4ce", "is_reserved": 0, "bike_id": "6dbfb737ca222dc8c0aa487b9747f4ce", "fusion_lon": 0.0, "rental_uris": {"ios": "https://dc.lft.to/lastmile_qr_scan", "android": "https://dc.lft.to/lastmile_qr_scan"}}, {"lon": -77.0219995, "fusion_lat": 0.0, "type": "electric_scooter", "lat": 38.91524283333333, "is_disabled": 0, "name": "0294a2c48dd62734117a2b982fe31aa9", "is_reserved": 0, "bike_id": "0294a2c48dd62734117a2b982fe31aa9", "fusion_lon": 0.0, "rental_uris": {"ios": "https://dc.lft.to/lastmile_qr_scan", "android": "https://dc.lft.to/lastmile_qr_scan"}}, {"lon": -77.0378185, "fusion_lat": 0.0, "type": "electric_scooter", "lat": 38.916912333333336, "is_disabled": 0, "name": "ddbac59a47c7a1339de2feac43cb0e87", "is_reserved": 0, "bike_id": "ddbac59a47c7a1339de2feac43cb0e87", "fusion_lon": 0.0, "rental_uris": {"ios": "https://dc.lft.to/lastmile_qr_scan", "android": "https://dc.lft.to/lastmile_qr_scan"}}, {"lon": -77.003379, "fusion_lat": 0.0, "type": "electric_scooter", "lat": 38.89348733333333, "is_disabled": 0, "name": "8471ed9433cf1974c5083d0704d016ac", "is_reserved": 0, "bike_id": "8471ed9433cf1974c5083d0704d016ac", "fusion_lon": 0.0, "rental_uris": {"ios": "https://dc.lft.to/lastmile_qr_scan", "android": "https://dc.lft.to/lastmile_qr_scan"}}, {"lon": -77.02720633333334, "fusion_lat": 0.0, "type": "electric_scooter", "lat": 38.93691666666667, "is_disabled": 0, "name": "8b206baa00b4d508f52cce4d74a8ef6d", "is_reserved": 0, "bike_id": "8b206baa00b4d508f52cce4d74a8ef6d", "fusion_lon": 0.0, "rental_uris": {"ios": "https://dc.lft.to/lastmile_qr_scan", "android": "https://dc.lft.to/lastmile_qr_scan"}}, {"lon": -77.01431583333333, "fusion_lat": 0.0, "type": "electric_scooter", "lat": 38.906345333333334, "is_disabled": 0, "name": "7ab709e8b9f45a349c6b009efd22b74d", "is_reserved": 0, "bike_id": "7ab709e8b9f45a349c6b009efd22b74d", "fusion_lon": 0.0, "rental_uris": {"ios": "https://dc.lft.to/lastmile_qr_scan", "android": "https://dc.lft.to/lastmile_qr_scan"}}, {"lon": -77.0612815, "fusion_lat": 0.0, "type": "electric_scooter", "lat": 38.90206233333333, "is_disabled": 0, "name": "f3d79b8c62275e530cf7d5f0200feb2a", "is_reserved": 0, "bike_id": "f3d79b8c62275e530cf7d5f0200feb2a", "fusion_lon": 0.0, "rental_uris": {"ios": "https://dc.lft.to/lastmile_qr_scan", "android": "https://dc.lft.to/lastmile_qr_scan"}}, {"lon": -77.02231566666667, "fusion_lat": 0.0, "type": "electric_scooter", "lat": 38.923365, "is_disabled": 0, "name": "5c12f8ff749710295f3528f3c5f4ad04", "is_reserved": 0, "bike_id": "5c12f8ff749710295f3528f3c5f4ad04", "fusion_lon": 0.0, "rental_uris": {"ios": "https://dc.lft.to/lastmile_qr_scan", "android": "https://dc.lft.to/lastmile_qr_scan"}}, {"lon": -77.0444805, "fusion_lat": 0.0, "type": "electric_bike", "lat": 39.02539683333333, "is_disabled": 0, "name": "56b5e7e564452f5f140d5e4a974514cb", "is_reserved": 0, "bike_id": "56b5e7e564452f5f140d5e4a974514cb", "fusion_lon": 0.0, "rental_uris": {"ios": "https://dc.lft.to/lastmile_qr_scan", "android": "https://dc.lft.to/lastmile_qr_scan"}}, {"lon": -77.0032755, "fusion_lat": 0.0, "type": "electric_scooter", "lat": 38.87761916666667, "is_disabled": 0, "name": "f7a934f51be7c93fced30edd1b946d46", "is_reserved": 0, "bike_id": "f7a934f51be7c93fced30edd1b946d46", "fusion_lon": 0.0, "rental_uris": {"ios": "https://dc.lft.to/lastmile_qr_scan", "android": "https://dc.lft.to/lastmile_qr_scan"}}, {"lon": -77.032059, "fusion_lat": 0.0, "type": "electric_scooter", "lat": 38.909517666666666, "is_disabled": 0, "name": "e24dd0accb215fb04e171facff995f01", "is_reserved": 0, "bike_id": "e24dd0accb215fb04e171facff995f01", "fusion_lon": 0.0, "rental_uris": {"ios": "https://dc.lft.to/lastmile_qr_scan", "android": "https://dc.lft.to/lastmile_qr_scan"}}, {"lon": -77.03260833333333, "fusion_lat": 0.0, "type": "electric_scooter", "lat": 38.93736666666667, "is_disabled": 0, "name": "0e68af43304500b63af1a993bbc9d9ac", "is_reserved": 0, "bike_id": "0e68af43304500b63af1a993bbc9d9ac", "fusion_lon": 0.0, "rental_uris": {"ios": "https://dc.lft.to/lastmile_qr_scan", "android": "https://dc.lft.to/lastmile_qr_scan"}}, {"lon": -77.0321865, "fusion_lat": 0.0, "type": "electric_scooter", "lat": 38.919971, "is_disabled": 0, "name": "87810a8fb8342f98a1d3dfe13d4cfe08", "is_reserved": 0, "bike_id": "87810a8fb8342f98a1d3dfe13d4cfe08", "fusion_lon": 0.0, "rental_uris": {"ios": "https://dc.lft.to/lastmile_qr_scan", "android": "https://dc.lft.to/lastmile_qr_scan"}}, {"lon": -77.03194466666666, "fusion_lat": 0.0, "type": "electric_scooter", "lat": 38.9098035, "is_disabled": 0, "name": "3965198077a440e5caa1dc503cf5b091", "is_reserved": 0, "bike_id": "3965198077a440e5caa1dc503cf5b091", "fusion_lon": 0.0, "rental_uris": {"ios": "https://dc.lft.to/lastmile_qr_scan", "android": "https://dc.lft.to/lastmile_qr_scan"}}, {"lon": -76.98911966666667, "fusion_lat": 0.0, "type": "electric_scooter", "lat": 38.900309, "is_disabled": 0, "name": "256ca37415e9fb118b26a3f87cf10f5a", "is_reserved": 0, "bike_id": "256ca37415e9fb118b26a3f87cf10f5a", "fusion_lon": 0.0, "rental_uris": {"ios": "https://dc.lft.to/lastmile_qr_scan", "android": "https://dc.lft.to/lastmile_qr_scan"}}, {"lon": -76.99164366666666, "fusion_lat": 0.0, "type": "electric_bike", "lat": 38.89129, "is_disabled": 0, "name": "29dc227f8bec95509d7af555fa548c7b", "is_reserved": 0, "bike_id": "29dc227f8bec95509d7af555fa548c7b", "fusion_lon": 0.0, "rental_uris": {"ios": "https://dc.lft.to/lastmile_qr_scan", "android": "https://dc.lft.to/lastmile_qr_scan"}}, {"lon": -77.02400683333333, "fusion_lat": 0.0, "type": "electric_scooter", "lat": 38.9160735, "is_disabled": 0, "name": "b29da71ef83e55df587dea29818bb5f4", "is_reserved": 0, "bike_id": "b29da71ef83e55df587dea29818bb5f4", "fusion_lon": 0.0, "rental_uris": {"ios": "https://dc.lft.to/lastmile_qr_scan", "android": "https://dc.lft.to/lastmile_qr_scan"}}, {"lon": -77.13461833333334, "fusion_lat": 0.0, "type": "electric_bike", "lat": 39.094396833333334, "is_disabled": 0, "name": "b06603cd6ebaf9ba77a7119f9f643183", "is_reserved": 0, "bike_id": "b06603cd6ebaf9ba77a7119f9f643183", "fusion_lon": 0.0, "rental_uris": {"ios": "https://dc.lft.to/lastmile_qr_scan", "android": "https://dc.lft.to/lastmile_qr_scan"}}, {"lon": -77.06014, "fusion_lat": 0.0, "type": "electric_scooter", "lat": 38.936414166666665, "is_disabled": 0, "name": "7abaa9abb37dbca0d74e0194b94c834b", "is_reserved": 0, "bike_id": "7abaa9abb37dbca0d74e0194b94c834b", "fusion_lon": 0.0, "rental_uris": {"ios": "https://dc.lft.to/lastmile_qr_scan", "android": "https://dc.lft.to/lastmile_qr_scan"}}, {"lon": -77.031879, "fusion_lat": 0.0, "type": "electric_scooter", "lat": 38.915680333333334, "is_disabled": 0, "name": "540d281ee623bc5123579464e5661223", "is_reserved": 0, "bike_id": "540d281ee623bc5123579464e5661223", "fusion_lon": 0.0, "rental_uris": {"ios": "https://dc.lft.to/lastmile_qr_scan", "android": "https://dc.lft.to/lastmile_qr_scan"}}, {"lon": -76.991172, "fusion_lat": 0.0, "type": "electric_scooter", "lat": 38.89706566666667, "is_disabled": 0, "name": "8c3bb93d51d467f9faa52e44223ab4af", "is_reserved": 0, "bike_id": "8c3bb93d51d467f9faa52e44223ab4af", "fusion_lon": 0.0, "rental_uris": {"ios": "https://dc.lft.to/lastmile_qr_scan", "android": "https://dc.lft.to/lastmile_qr_scan"}}, {"lon": -77.04477616666667, "fusion_lat": 0.0, "type": "electric_scooter", "lat": 38.900073166666665, "is_disabled": 0, "name": "68d88c89fe44df8cbc54e65136abc4ee", "is_reserved": 0, "bike_id": "68d88c89fe44df8cbc54e65136abc4ee", "fusion_lon": 0.0, "rental_uris": {"ios": "https://dc.lft.to/lastmile_qr_scan", "android": "https://dc.lft.to/lastmile_qr_scan"}}, {"lon": -77.03274266666666, "fusion_lat": 0.0, "type": "electric_scooter", "lat": 38.93946533333333, "is_disabled": 0, "name": "867e175e7e2de397e5dd4a1482aa293a", "is_reserved": 0, "bike_id": "867e175e7e2de397e5dd4a1482aa293a", "fusion_lon": 0.0, "rental_uris": {"ios": "https://dc.lft.to/lastmile_qr_scan", "android": "https://dc.lft.to/lastmile_qr_scan"}}, {"lon": -77.01231583333333, "fusion_lat": 0.0, "type": "electric_scooter", "lat": 38.915935, "is_disabled": 0, "name": "517f5ec2223d8343aeb570b73e03f072", "is_reserved": 0, "bike_id": "517f5ec2223d8343aeb570b73e03f072", "fusion_lon": 0.0, "rental_uris": {"ios": "https://dc.lft.to/lastmile_qr_scan", "android": "https://dc.lft.to/lastmile_qr_scan"}}, {"lon": -77.0295635, "fusion_lat": 0.0, "type": "electric_scooter", "lat": 38.89557833333333, "is_disabled": 0, "name": "cbe228ec51cd94a139613f44ac229ae5", "is_reserved": 0, "bike_id": "cbe228ec51cd94a139613f44ac229ae5", "fusion_lon": 0.0, "rental_uris": {"ios": "https://dc.lft.to/lastmile_qr_scan", "android": "https://dc.lft.to/lastmile_qr_scan"}}, {"lon": -77.03224666666667, "fusion_lat": 0.0, "type": "electric_scooter", "lat": 38.8972265, "is_disabled": 0, "name": "fefbabf490a5b6d36a12b84900544d5a", "is_reserved": 0, "bike_id": "fefbabf490a5b6d36a12b84900544d5a", "fusion_lon": 0.0, "rental_uris": {"ios": "https://dc.lft.to/lastmile_qr_scan", "android": "https://dc.lft.to/lastmile_qr_scan"}}, {"lon": -77.0235245, "fusion_lat": 0.0, "type": "electric_scooter", "lat": 38.93175733333333, "is_disabled": 0, "name": "e67140bdd28225f45e4b8738e58afaf1", "is_reserved": 0, "bike_id": "e67140bdd28225f45e4b8738e58afaf1", "fusion_lon": 0.0, "rental_uris": {"ios": "https://dc.lft.to/lastmile_qr_scan", "android": "https://dc.lft.to/lastmile_qr_scan"}}, {"lon": -77.03690816666666, "fusion_lat": 0.0, "type": "electric_scooter", "lat": 38.901252, "is_disabled": 0, "name": "1b29462f7066d46b69085cc562b285fa", "is_reserved": 0, "bike_id": "1b29462f7066d46b69085cc562b285fa", "fusion_lon": 0.0, "rental_uris": {"ios": "https://dc.lft.to/lastmile_qr_scan", "android": "https://dc.lft.to/lastmile_qr_scan"}}, {"lon": -77.07272966666666, "fusion_lat": 0.0, "type": "electric_scooter", "lat": 38.90902116666667, "is_disabled": 0, "name": "e902f982d050a7771d08a49b9fc6081d", "is_reserved": 0, "bike_id": "e902f982d050a7771d08a49b9fc6081d", "fusion_lon": 0.0, "rental_uris": {"ios": "https://dc.lft.to/lastmile_qr_scan", "android": "https://dc.lft.to/lastmile_qr_scan"}},