{"data": {"bikes": [{"bike_id": "390f6c7b1c732fb7bb966d7a6e2b0d1b", "type": "electric_scooter", "is_disabled": 0, "lat": 38.92335166666667, "rental_uris": {"ios": "https://dc.lft.to/lastmile_qr_scan", "android": "https://dc.lft.to/lastmile_qr_scan"}, "is_reserved": 0, "fusion_lon": 0.0, "fusion_lat": 0.0, "lon": -77.03613216666666, "name": "390f6c7b1c732fb7bb966d7a6e2b0d1b"}, {"bike_id": "4fd76b39e2250d4f1563221aafccec43", "type": "electric_scooter", "is_disabled": 0, "lat": 38.91033816666667, "rental_uris": {"ios": "https://dc.lft.to/lastmile_qr_scan", "android": "https://dc.lft.to/lastmile_qr_scan"}, "is_reserved": 0, "fusion_lon": 0.0, "fusion_lat": 0.0, "lon": -77.043494, "name": "4fd76b39e2250d4f1563221aafccec43"}, {"bike_id": "3f11ef711f8de1e888ae8d5570155499", "type": "electric_scooter", "is_disabled": 0, "lat": 38.905938666666664, "rental_uris": {"ios": "https://dc.lft.to/lastmile_qr_scan", "android": "https://dc.lft.to/lastmile_qr_scan"}, "is_reserved": 0, "fusion_lon": 0.0, "fusion_lat": 0.0, "lon": -77.07356933333334, "name": "3f11ef711f8de1e888ae8d5570155499"}, {"bike_id": "23def8faf46f1d8c6e984f1ba5b77a90", "type": "electric_scooter", "is_disabled": 0, "lat": 38.92207783333333, "rental_uris": {"ios": "https://dc.lft.to/lastmile_qr_scan", "android": "https://dc.lft.to/lastmile_qr_scan"}, "is_reserved": 0, "fusion_lon": 0.0, "fusion_lat": 0.0, "lon": -77.03660183333334, "name": "23def8faf46f1d8c6e984f1ba5b77a90"}, {"bike_id": "b2bf85d728ed439734d5f97c6cc4e5a0", "type": "electric_scooter", "is_disabled": 0, "lat": 38.9247365, "rental_uris": {"ios": "https://dc.lft.to/lastmile_qr_scan", "android": "https://dc.lft.to/lastmile_qr_scan"}, "is_reserved": 0, "fusion_lon": 0.0, "fusion_lat": 0.0, "lon": -77.02836316666667, "name": "b2bf85d728ed439734d5f97c6cc4e5a0"}, {"bike_id": "e64721e65e185e2135664e6a5b1a8d7d", "type": "electric_scooter", "is_disabled": 0, "lat": 38.91069233333333, "rental_uris": {"ios": "https://dc.lft.to/lastmile_qr_scan", "android": "https://dc.lft.to/lastmile_qr_scan"}, "is_reserved": 0, "fusion_lon": 0.0, "fusion_lat": 0.0, "lon": -77.02718, "name": "e64721e65e185e2135664e6a5b1a8d7d"}, {"bike_id": "e0fd3cfd3e26c3211d135e52c1995749", "type": "electric_scooter", "is_disabled": 0, "lat": 38.863745, "rental_uris": {"ios": "https://dc.lft.to/lastmile_qr_scan", "android": "https://dc.lft.to/lastmile_qr_scan"}, "is_reserved": 0, "fusion_lon": 0.0, "fusion_lat": 0.0, "lon": -76.99061816666666, "name": "e0fd3cfd3e26c3211d135e52c1995749"}, {"bike_id": "a35ce87abb33cc22277387a0b456dad0", "type": "electric_scooter", "is_disabled": 0, "lat": 38.9049325, "rental_uris": {"ios": "https://dc.lft.to/lastmile_qr_scan", "android": "https://dc.lft.to/lastmile_qr_scan"}, "is_reserved": 0, "fusion_lon": 0.0, "fusion_lat": 0.0, "lon": -76.9496445, "name": "a35ce87abb33cc22277387a0b456dad0"}, {"bike_id": "7b9ebf5bf85ec6770b56ebb12ad1aa2e", "type": "electric_scooter", "is_disabled": 0, "lat": 38.866776333333334, "rental_uris": {"ios": "https://dc.lft.to/lastmile_qr_scan", "android": "https://dc.lft.to/lastmile_qr_scan"}, "is_reserved": 0, "fusion_lon": 0.0, "fusion_lat": 0.0, "lon": -76.985595, "name": "7b9ebf5bf85ec6770b56ebb12ad1aa2e"}, {"bike_id": "65840394c440d2e8873af31c5d5b61db", "type": "electric_scooter", "is_disabled": 0, "lat": 38.90023216666667, "rental_uris": {"ios": "https://dc.lft.to/lastmile_qr_scan", "android": "https://dc.lft.to/lastmile_qr_scan"}, "is_reserved": 0, "fusion_lon": 0.0, "fusion_lat": 0.0, "lon": -77.01129683333333, "name": "65840394c440d2e8873af31c5d5b61db"}, {"bike_id": "afaa38aeefba2a30f89133233ee4af17", "type": "electric_scooter", "is_disabled": 0, "lat": 38.939707, "rental_uris": {"ios": "https://dc.lft.to/lastmile_qr_scan", "android": "https://dc.lft.to/lastmile_qr_scan"}, "is_reserved": 0, "fusion_lon": 0.0, "fusion_lat": 0.0, "lon": -77.03755733333334, "name": "afaa38aeefba2a30f89133233ee4af17"}, {"bike_id": "3ecb0776a5efa4ca92502843935df424", "type": "electric_scooter", "is_disabled": 0, "lat": 38.90348783333334, "rental_uris": {"ios": "https://dc.lft.to/lastmile_qr_scan", "android": "https://dc.lft.to/lastmile_qr_scan"}, "is_reserved": 0, "fusion_lon": 0.0, "fusion_lat": 0.0, "lon": -77.03664766666667, "name": "3ecb0776a5efa4ca92502843935df424"}, {"bike_id": "c7bcbe54c28483de3ae78f191682c3f4", "type": "electric_scooter", "is_disabled": 0, "lat": 38.876446333333334, "rental_uris": {"ios": "https://dc.lft.to/lastmile_qr_scan", "android": "https://dc.lft.to/lastmile_qr_scan"}, "is_reserved": 0, "fusion_lon": 0.0, "fusion_lat": 0.0, "lon": -76.96506383333333, "name": "c7bcbe54c28483de3ae78f191682c3f4"}, {"bike_id": "5d1c3074a7a68296aff3df2cd7a3f699", "type": "electric_scooter", "is_disabled": 0, "lat": 38.96565116666667, "rental_uris": {"ios": "https://dc.lft.to/lastmile_qr_scan", "android": "https://dc.lft.to/lastmile_qr_scan"}, "is_reserved": 0, "fusion_lon": 0.0, "fusion_lat": 0.0, "lon": -77.027768, "name": "5d1c3074a7a68296aff3df2cd7a3f699"}, {"bike_id": "8fcd66568423d09e3be45e80ac9d2e3a", "type": "electric_bike", "is_disabled": 0, "lat": 38.995317, "rental_uris": {"ios": "https://dc.lft.to/lastmile_qr_scan", "android": "https://dc.lft.to/lastmile_qr_scan"}, "is_reserved": 0, "fusion_lon": 0.0, "fusion_lat": 0.0, "lon": -77.0695085, "name": "8fcd66568423d09e3be45e80ac9d2e3a"}, {"bike_id": "96455c3026d905863ce67d5838bb3649", "type": "electric_scooter", "is_disabled": 0, "lat": 38.89741216666667, "rental_uris": {"ios": "https://dc.lft.to/lastmile_qr_scan", "android": "https://dc.lft.to/lastmile_qr_scan"}, "is_reserved": 0, "fusion_lon": 0.0, "fusion_lat": 0.0, "lon": -77.02919283333334, "name": "96455c3026d905863ce67d5838bb3649"}, {"bike_id": "32357f25f978d0f9eedaffe1ccda7a42", "type": "electric_scooter", "is_disabled": 0, "lat": 38.973678166666666, "rental_uris": {"ios": "https://dc.lft.to/lastmile_qr_scan", "android": "https://dc.lft.to/lastmile_qr_scan"}, "is_reserved": 0, "fusion_lon": 0.0, "fusion_lat": 0.0, "lon": -77.018656, "name": "32357f25f978d0f9eedaffe1ccda7a42"}, {"bike_id": "3bdd7500272a5dd9f6bf44dbddb1f368", "type": "electric_scooter", "is_disabled": 0, "lat": 38.86247216666667, "rental_uris": {"ios": "https://dc.lft.to/lastmile_qr_scan", "android": "https://dc.lft.to/lastmile_qr_scan"}, "is_reserved": 0, "fusion_lon": 0.0, "fusion_lat": 0.0, "lon": -76.9950415, "name": "3bdd7500272a5dd9f6bf44dbddb1f368"}, {"bike_id": "fa3a47b290e224ad9a23a4f998b47173", "type": "electric_scooter", "is_disabled": 0, "lat": 38.9372755, "rental_uris": {"ios": "https://dc.lft.to/lastmile_qr_scan", "android": "https://dc.lft.to/lastmile_qr_scan"}, "is_reserved": 0, "fusion_lon": 0.0, "fusion_lat": 0.0, "lon": -77.02523483333333, "name": "fa3a47b290e224ad9a23a4f998b47173"}, {"bike_id": "41f4b135f2f2c47063461804e52c3772", "type": "electric_scooter", "is_disabled": 0, "lat": 38.861855, "rental_uris": {"ios": "https://dc.lft.to/lastmile_qr_scan", "android": "https://dc.lft.to/lastmile_qr_scan"}, "is_reserved": 0, "fusion_lon": 0.0, "fusion_lat": 0.0, "lon": -76.95950916666666, "name": "41f4b135f2f2c47063461804e52c3772"}, {"bike_id": "ac7f0c2a563b273c80aff31a2661c929", "type": "electric_scooter", "is_disabled": 0, "lat": 38.896959333333335, "rental_uris": {"ios": "https://dc.lft.to/lastmile_qr_scan", "android": "https://dc.lft.to/lastmile_qr_scan"}, "is_reserved": 0, "fusion_lon": 0.0, "fusion_lat": 0.0, "lon": -77.00493283333333, "name": "ac7f0c2a563b273c80aff31a2661c929"}, {"bike_id": "cf1b9c18e5ae6a3efd96f237a18bdf9b", "type": "electric_scooter", "is_disabled": 0, "lat": 38.92518116666667, "rental_uris": {"ios": "https://dc.lft.to/lastmile_qr_scan", "android": "https://dc.lft.to/lastmile_qr_scan"}, "is_reserved": 0, "fusion_lon": 0.0, "fusion_lat": 0.0, "lon": -77.05128066666667, "name": "cf1b9c18e5ae6a3efd96f237a18bdf9b"}, {"bike_id": "333d35f168062c60a0f7f4b906b6224d", "type": "electric_scooter", "is_disabled": 0, "lat": 38.9367405, "rental_uris": {"ios": "https://dc.lft.to/lastmile_qr_scan", "android": "https://dc.lft.to/lastmile_qr_scan"}, "is_reserved": 0, "fusion_lon": 0.0, "fusion_lat": 0.0, "lon": -77.035946, "name": "333d35f168062c60a0f7f4b906b6224d"}, {"bike_id": "1dfbef47079ab4aa2e4266608180940d", "type": "electric_scooter", "is_disabled": 0, "lat": 38.909681166666665, "rental_uris": {"ios": "https://dc.lft.to/lastmile_qr_scan", "android": "https://dc.lft.to/lastmile_qr_scan"}, "is_reserved": 0, "fusion_lon": 0.0, "fusion_lat": 0.0, "lon": -77.03868616666666, "name": "1dfbef47079ab4aa2e4266608180940d"}, {"bike_id": "1afbcff7045581d346d90c72ae3445cf", "type": "electric_scooter", "is_disabled": 0, "lat": 38.927533, "rental_uris": {"ios": "https://dc.lft.to/lastmile_qr_scan", "android": "https://dc.lft.to/lastmile_qr_scan"}, "is_reserved": 0, "fusion_lon": 0.0, "fusion_lat": 0.0, "lon": -77.02536933333333, "name": "1afbcff7045581d346d90c72ae3445cf"}, {"bike_id": "5ed67fc8e95d229025b0481a76d42059", "type": "electric_bike", "is_disabled": 0, "lat": 38.8707935, "rental_uris": {"ios": "https://dc.lft.to/lastmile_qr_scan", "android": "https://dc.lft.to/lastmile_qr_scan"}, "is_reserved": 0, "fusion_lon": 0.0, "fusion_lat": 0.0, "lon": -76.9643965, "name": "5ed67fc8e95d229025b0481a76d42059"}, {"bike_id": "c45f025505fc53b43b669f9741d3a048", "type": "electric_scooter", "is_disabled": 0, "lat": 38.911767833333336, "rental_uris": {"ios": "https://dc.lft.to/lastmile_qr_scan", "android": "https://dc.lft.to/lastmile_qr_scan"}, "is_reserved": 0, "fusion_lon": 0.0, "fusion_lat": 0.0, "lon": -77.01121966666666, "name": "c45f025505fc53b43b669f9741d3a048"}, {"bike_id": "69706d4901d54cf4c4dde1943840f7c4", "type": "electric_scooter", "is_disabled": 0, "lat": 38.90815683333334, "rental_uris": {"ios": "https://dc.lft.to/lastmile_qr_scan", "android": "https://dc.lft.to/lastmile_qr_scan"}, "is_reserved": 0, "fusion_lon": 0.0, "fusion_lat": 0.0, "lon": -77.034435, "name": "69706d4901d54cf4c4dde1943840f7c4"}, {"bike_id": "ece4164e21f950e5a5e1f35cd82ea9ae", "type": "electric_scooter", "is_disabled": 0, "lat": 38.914084333333335, "rental_uris": {"ios": "https://dc.lft.to/lastmile_qr_scan", "android": "https://dc.lft.to/lastmile_qr_scan"}, "is_reserved": 0, "fusion_lon": 0.0, "fusion_lat": 0.0, "lon": -77.03030816666667, "name": "ece4164e21f950e5a5e1f35cd82ea9ae"}, {"bike_id": "8f558ddf4d74aa6caf71f9c35b7579ce", "type": "electric_scooter", "is_disabled": 0, "lat": 38.92473533333333, "rental_uris": {"ios": "https://dc.lft.to/lastmile_qr_scan", "android": "https://dc.lft.to/lastmile_qr_scan"}, "is_reserved": 0, "fusion_lon": 0.0, "fusion_lat": 0.0, "lon": -77.0276275, "name": "8f558ddf4d74aa6caf71f9c35b7579ce"}, {"bike_id": "a13438d5a982319af23d9c06484b7352", "type": "electric_scooter", "is_disabled": 0, "lat": 38.942921166666665, "rental_uris": {"ios": "https://dc.lft.to/lastmile_qr_scan", "android": "https://dc.lft.to/lastmile_qr_scan"}, "is_reserved": 0, "fusion_lon": 0.0, "fusion_lat": 0.0, "lon": -77.02173083333334, "name": "a13438d5a982319af23d9c06484b7352"}, {"bike_id": "bc7e41533780a9f936e5da9a1d33b9e2", "type": "electric_bike", "is_disabled": 0, "lat": 38.85358866666667, "rental_uris": {"ios": "https://dc.lft.to/lastmile_qr_scan", "android": "https://dc.lft.to/lastmile_qr_scan"}, "is_reserved": 0, "fusion_lon": 0.0, "fusion_lat": 0.0, "lon": -77.13461716666667, "name": "bc7e41533780a9f936e5da9a1d33b9e2"}, {"bike_id": "30b8696176bb1c1f3864d0c4953e274b", "type": "electric_scooter", "is_disabled": 0, "lat": 38.913413, "rental_uris": {"ios": "https://dc.lft.to/lastmile_qr_scan", "android": "https://dc.lft.to/lastmile_qr_scan"}, "is_reserved": 0, "fusion_lon": 0.0, "fusion_lat": 0.0, "lon": -77.03205083333333, "name": "30b8696176bb1c1f3864d0c4953e274b"}, {"bike_id": "296005587bbf88eac40c6cb7243abb29", "type": "electric_scooter", "is_disabled": 0, "lat": 38.89591716666666, "rental_uris": {"ios": "https://dc.lft.to/lastmile_qr_scan", "android": "https://dc.lft.to/lastmile_qr_scan"}, "is_reserved": 0, "fusion_lon": 0.0, "fusion_lat": 0.0, "lon": -77.00502716666666, "name": "296005587bbf88eac40c6cb7243abb29"}, {"bike_id": "fb37ccd02b99c311b015920327d1781d", "type": "electric_scooter", "is_disabled": 0, "lat": 38.909315666666664, "rental_uris": {"ios": "https://dc.lft.to/lastmile_qr_scan", "android": "https://dc.lft.to/lastmile_qr_scan"}, "is_reserved": 0, "fusion_lon": 0.0, "fusion_lat": 0.0, "lon": -77.073974, "name": "fb37ccd02b99c311b015920327d1781d"}, {"bike_id": "38a8e9853538850408867e1330a22545", "type": "electric_scooter", "is_disabled": 0, "lat": 38.900977833333336, "rental_uris": {"ios": "https://dc.lft.to/lastmile_qr_scan", "android": "https://dc.lft.to/lastmile_qr_scan"}, "is_reserved": 0, "fusion_lon": 0.0, "fusion_lat": 0.0, "lon": -77.01767816666667, "name": "38a8e9853538850408867e1330a22545"}, {"bike_id": "b86fd2e674506707c5efd915efdae358", "type": "electric_bike", "is_disabled": 0, "lat": 38.87303416666666, "rental_uris": {"ios": "https://dc.lft.to/lastmile_qr_scan", "android": "https://dc.lft.to/lastmile_qr_scan"}, "is_reserved": 0, "fusion_lon": 0.0, "fusion_lat": 0.0, "lon": -77.13926166666667, "name": "b86fd2e674506707c5efd915efdae358"}, {"bike_id": "ab423d024a97222e1689c9cc58652467", "type": "electric_scooter", "is_disabled": 0, "lat": 38.91136866666667, "rental_uris": {"ios": "https://dc.lft.to/lastmile_qr_scan", "android": "https://dc.lft.to/lastmile_qr_scan"}, "is_reserved": 0, "fusion_lon": 0.0, "fusion_lat": 0.0, "lon": -76.99013316666667, "name": "ab423d024a97222e1689c9cc58652467"}, {"bike_id": "b47f980511d133bc507028d7a95726cf", "type": "electric_scooter", "is_disabled": 0, "lat": 38.92425633333333, "rental_uris": {"ios": "https://dc.lft.to/lastmile_qr_scan", "android": "https://dc.lft.to/lastmile_qr_scan"}, "is_reserved": 0, "fusion_lon": 0.0, "fusion_lat": 0.0, "lon": -77.0424575, "name": "b47f980511d133bc507028d7a95726cf"}, {"bike_id": "eebffbc77d7d250f8588d5493d9e9d92", "type": "electric_scooter", "is_disabled": 0, "lat": 38.933609, "rental_uris": {"ios": "https://dc.lft.to/lastmile_qr_scan", "android": "https://dc.lft.to/lastmile_qr_scan"}, "is_reserved": 0, "fusion_lon": 0.0, "fusion_lat": 0.0, "lon": -77.0621175, "name": "eebffbc77d7d250f8588d5493d9e9d92"}, {"bike_id": "19cd59e2e5bac042a758e254d670035d", "type": "electric_scooter", "is_disabled": 0, "lat": 38.93604833333333, "rental_uris": {"ios": "https://dc.lft.to/lastmile_qr_scan", "android": "https://dc.lft.to/lastmile_qr_scan"}, "is_reserved": 0, "fusion_lon": 0.0, "fusion_lat": 0.0, "lon": -77.03804283333334, "name": "19cd59e2e5bac042a758e254d670035d"}, {"bike_id": "3c5e8e9cfe4b0fd7017ee7467116a624", "type": "electric_scooter", "is_disabled": 0, "lat": 38.9531575, "rental_uris": {"ios": "https://dc.lft.to/lastmile_qr_scan", "android": "https://dc.lft.to/lastmile_qr_scan"}, "is_reserved": 0, "fusion_lon": 0.0, "fusion_lat": 0.0, "lon": -77.069806, "name": "3c5e8e9cfe4b0fd7017ee7467116a624"}, {"bike_id": "e36ea1ebf6d5a6940f434bf488898ef6", "type": "electric_scooter", "is_disabled": 0, "lat": 38.90269166666667, "rental_uris": {"ios": "https://dc.lft.to/lastmile_qr_scan", "android": "https://dc.lft.to/lastmile_qr_scan"}, "is_reserved": 0, "fusion_lon": 0.0, "fusion_lat": 0.0, "lon": -77.026461, "name": "e36ea1ebf6d5a6940f434bf488898ef6"}, {"bike_id": "ab6ae7d73996470f2dbd553619c7577c", "type": "electric_scooter", "is_disabled": 0, "lat": 38.93861533333333, "rental_uris": {"ios": "https://dc.lft.to/lastmile_qr_scan", "android": "https://dc.lft.to/lastmile_qr_scan"}, "is_reserved": 0, "fusion_lon": 0.0, "fusion_lat": 0.0, "lon": -77.02704383333334, "name": "ab6ae7d73996470f2dbd553619c7577c"}, {"bike_id": "b368821826f46416267409dc1596cc14", "type": "electric_scooter", "is_disabled": 0, "lat": 38.8949545, "rental_uris": {"ios": "https://dc.lft.to/lastmile_qr_scan", "android": "https://dc.lft.to/lastmile_qr_scan"}, "is_reserved": 0, "fusion_lon": 0.0, "fusion_lat": 0.0, "lon": -77.01103466666666, "name": "b368821826f46416267409dc1596cc14"}, {"bike_id": "bdcc07ed847a8e8cc995ce567e61e491", "type": "electric_scooter", "is_disabled": 0, "lat": 38.907299333333334, "rental_uris": {"ios": "https://dc.lft.to/lastmile_qr_scan", "android": "https://dc.lft.to/lastmile_qr_scan"}, "is_reserved": 0, "fusion_lon": 0.0, "fusion_lat": 0.0, "lon": -77.04335433333334, "name": "bdcc07ed847a8e8cc995ce567e61e491"}, {"bike_id": "e763b68b0f90678a560007e0c89455b5", "type": "electric_scooter", "is_disabled": 0, "lat": 38.928763333333336, "rental_uris": {"ios": "https://dc.lft.to/lastmile_qr_scan", "android": "https://dc.lft.to/lastmile_qr_scan"}, "is_reserved": 0, "fusion_lon": 0.0, "fusion_lat": 0.0, "lon": -77.0342295, "name": "e763b68b0f90678a560007e0c89455b5"}, {"bike_id": "dbbcc826abb7be4413225a8d89ad4777", "type": "electric_scooter", "is_disabled": 0, "lat": 38.95658666666667, "rental_uris": {"ios": "https://dc.lft.to/lastmile_qr_scan", "android": "https://dc.lft.to/lastmile_qr_scan"}, "is_reserved": 0, "fusion_lon": 0.0, "fusion_lat": 0.0, "lon": -77.02400716666666, "name": "dbbcc826abb7be4413225a8d89ad4777"}, {"bike_id": "cddf3486f0653b3465c917059d822d93", "type": "electric_bike", "is_disabled": 0, "lat": 38.993017333333334, "rental_uris": {"ios": "https://dc.lft.to/lastmile_qr_scan", "android": "https://dc.lft.to/lastmile_qr_scan"}, "is_reserved": 0, "fusion_lon": 0.0, "fusion_lat": 0.0, "lon": -77.0251155, "name": "cddf3486f0653b3465c917059d822d93"}, {"bike_id": "a3f00cdd49edf6cbefc751c220e3ac53", "type": "electric_scooter", "is_disabled": 0, "lat": 38.919279833333334, "rental_uris": {"ios": "https://dc.lft.to/lastmile_qr_scan", "android": "https://dc.lft.to/lastmile_qr_scan"}, "is_reserved": 0, "fusion_lon": 0.0, "fusion_lat": 0.0, "lon": -77.02575233333333, "name": "a3f00cdd49edf6cbefc751c220e3ac53"}, {"bike_id": "662b14138dc4914905055f8af51202fe", "type": "electric_scooter", "is_disabled": 0, "lat": 38.92327616666667, "rental_uris": {"ios": "https://dc.lft.to/lastmile_qr_scan", "android": "https://dc.lft.to/lastmile_qr_scan"}, "is_reserved": 0, "fusion_lon": 0.0, "fusion_lat": 0.0, "lon": -77.039021, "name": "662b14138dc4914905055f8af51202fe"}, {"bike_id": "e3ef3176f1b42b567da2813d425e7f77", "type": "electric_scooter", "is_disabled": 0, "lat": 38.880653833333334, "rental_uris": {"ios": "https://dc.lft.to/lastmile_qr_scan", "android": "https://dc.lft.to/lastmile_qr_scan"}, "is_reserved": 0, "fusion_lon": 0.0, "fusion_lat": 0.0, "lon": -77.0055865, "name": "e3ef3176f1b42b567da2813d425e7f77"}, {"bike_id": "986645fbcf42a2d69619893000133abf", "type": "electric_scooter", "is_disabled": 0, "lat": 38.920984, "rental_uris": {"ios": "https://dc.lft.to/lastmile_qr_scan", "android": "https://dc.lft.to/lastmile_qr_scan"}, "is_reserved": 0, "fusion_lon": 0.0, "fusion_lat": 0.0, "lon": -77.03162333333333, "name": "986645fbcf42a2d69619893000133abf"}, {"bike_id": "bb60039822a309afa91254638cab16ea", "type": "electric_scooter", "is_disabled": 0, "lat": 38.9172735, "rental_uris": {"ios": "https://dc.lft.to/lastmile_qr_scan", "android": "https://dc.lft.to/lastmile_qr_scan"}, "is_reserved": 0, "fusion_lon": 0.0, "fusion_lat": 0.0, "lon": -77.02606066666667, "name": "bb60039822a309afa91254638cab16ea"}, {"bike_id": "81d8996724918ac98e526c42f0b2d814", "type": "electric_scooter", "is_disabled": 0, "lat": 38.892514, "rental_uris": {"ios": "https://dc.lft.to/lastmile_qr_scan", "android": "https://dc.lft.to/lastmile_qr_scan"}, "is_reserved": 0, "fusion_lon": 0.0, "fusion_lat": 0.0, "lon": -76.92569816666666, "name": "81d8996724918ac98e526c42f0b2d814"}, {"bike_id": "faae9bd3080cf5c5117b9f7ef91161b8", "type": "electric_scooter", "is_disabled": 0, "lat": 38.90289833333333, "rental_uris": {"ios": "https://dc.lft.to/lastmile_qr_scan", "android": "https://dc.lft.to/lastmile_qr_scan"}, "is_reserved": 0, "fusion_lon": 0.0, "fusion_lat": 0.0, "lon": -77.04141583333333, "name": "faae9bd3080cf5c5117b9f7ef91161b8"}, {"bike_id": "44496a6d852467df6a5b16fc285f3f5d", "type": "electric_scooter", "is_disabled": 0, "lat": 38.90717683333333, "rental_uris": {"ios": "https://dc.lft.to/lastmile_qr_scan", "android": "https://dc.lft.to/lastmile_qr_scan"}, "is_reserved": 0, "fusion_lon": 0.0, "fusion_lat": 0.0, "lon": -77.03436716666667, "name": "44496a6d852467df6a5b16fc285f3f5d"}, {"bike_id": "a8dfa1b8fd3eea96613f7c6ed2b2d623", "type": "electric_scooter", "is_disabled": 0, "lat": 38.92157666666667, "rental_uris": {"ios": "https://dc.lft.to/lastmile_qr_scan", "android": "https://dc.lft.to/lastmile_qr_scan"}, "is_reserved": 0, "fusion_lon": 0.0, "fusion_lat": 0.0, "lon": -77.0337815, "name": "a8dfa1b8fd3eea96613f7c6ed2b2d623"}, {"bike_id": "77c85da6384083bda3a7deb0e20e269a", "type": "electric_scooter", "is_disabled": 0, "lat": 38.8643815, "rental_uris": {"ios": "https://dc.lft.to/lastmile_qr_scan", "android": "https://dc.lft.to/lastmile_qr_scan"}, "is_reserved": 0, "fusion_lon": 0.0, "fusion_lat": 0.0, "lon": -76.98002516666666, "name": "77c85da6384083bda3a7deb0e20e269a"}, {"bike_id": "f07f1b275f20b9770ca707207fe88f0e", "type": "electric_scooter", "is_disabled": 0, "lat": 38.926057, "rental_uris": {"ios": "https://dc.lft.to/lastmile_qr_scan", "android": "https://dc.lft.to/lastmile_qr_scan"}, "is_reserved": 0, "fusion_lon": 0.0, "fusion_lat": 0.0, "lon": -77.0244475, "name": "f07f1b275f20b9770ca707207fe88f0e"}, {"bike_id": "2baceb3b69cb6ab820a86e4c6a8dc1e4", "type": "electric_scooter", "is_disabled": 0, "lat": 38.898764166666666, "rental_uris": {"ios": "https://dc.lft.to/lastmile_qr_scan", "android": "https://dc.lft.to/lastmile_qr_scan"}, "is_reserved": 0, "fusion_lon": 0.0, "fusion_lat": 0.0, "lon": -76.931851, "name": "2baceb3b69cb6ab820a86e4c6a8dc1e4"}, {"bike_id": "dee4b03fce0b55a1a6dc80ffe782a515", "type": "electric_scooter", "is_disabled": 0, "lat": 38.9180525, "rental_uris": {"ios": "https://dc.lft.to/lastmile_qr_scan", "android": "https://dc.lft.to/lastmile_qr_scan"}, "is_reserved": 0, "fusion_lon": 0.0, "fusion_lat": 0.0, "lon": -77.03630883333334, "name": "dee4b03fce0b55a1a6dc80ffe782a515"}, {"bike_id": "64297b0b0acc74be0687ed71923d3d15", "type": "electric_bike", "is_disabled": 0, "lat": 38.93969633333333, "rental_uris": {"ios": "https://dc.lft.to/lastmile_qr_scan", "android": "https://dc.lft.to/lastmile_qr_scan"}, "is_reserved": 0, "fusion_lon": 0.0, "fusion_lat": 0.0, "lon": -77.05258716666667, "name": "64297b0b0acc74be0687ed71923d3d15"}, {"bike_id": "8b24ac51df542207e88079f58cf0dfcb", "type": "electric_scooter", "is_disabled": 0, "lat": 38.90570966666667, "rental_uris": {"ios": "https://dc.lft.to/lastmile_qr_scan", "android": "https://dc.lft.to/lastmile_qr_scan"}, "is_reserved": 0, "fusion_lon": 0.0, "fusion_lat": 0.0, "lon": -77.04239116666666, "name": "8b24ac51df542207e88079f58cf0dfcb"}, {"bike_id": "7b2cfb2e41c69155f95f4b9b1f9774d9", "type": "electric_scooter", "is_disabled": 0, "lat": 38.923780666666666, "rental_uris": {"ios": "https://dc.lft.to/lastmile_qr_scan", "android": "https://dc.lft.to/lastmile_qr_scan"}, "is_reserved": 0, "fusion_lon": 0.0, "fusion_lat": 0.0, "lon": -77.02988116666667, "name": "7b2cfb2e41c69155f95f4b9b1f9774d9"}, {"bike_id": "a0a0cfa898a8cb26a950d96b3cc2b527", "type": "electric_scooter", "is_disabled": 0, "lat": 38.88208233333334, "rental_uris": {"ios": "https://dc.lft.to/lastmile_qr_scan", "android": "https://dc.lft.to/lastmile_qr_scan"}, "is_reserved": 0, "fusion_lon": 0.0, "fusion_lat": 0.0, "lon": -76.98923, "name": "a0a0cfa898a8cb26a950d96b3cc2b527"}, {"bike_id": "9f26cc643727eebdf2d41cecb83f8af3", "type": "electric_bike", "is_disabled": 0, "lat": 38.93357916666667, "rental_uris": {"ios": "https://dc.lft.to/lastmile_qr_scan", "android": "https://dc.lft.to/lastmile_qr_scan"}, "is_reserved": 0, "fusion_lon": 0.0, "fusion_lat": 0.0, "lon": -77.0242455, "name": "9f26cc643727eebdf2d41cecb83f8af3"}, {"bike_id": "299d2bae9359e51d8d9838b2d946ec5c", "type": "electric_scooter", "is_disabled": 0, "lat": 38.918175833333336, "rental_uris": {"ios": "https://dc.lft.to/lastmile_qr_scan", "android": "https://dc.lft.to/lastmile_qr_scan"}, "is_reserved": 0, "fusion_lon": 0.0, "fusion_lat": 0.0, "lon": -77.02477583333334, "name": "299d2bae9359e51d8d9838b2d946ec5c"}, {"bike_id": "455433d6c175b090c0d79adb3183bf7a", "type": "electric_scooter", "is_disabled": 0, "lat": 38.917753166666664, "rental_uris": {"ios": "https://dc.lft.to/lastmile_qr_scan", "android": "https://dc.lft.to/lastmile_qr_scan"}, "is_reserved": 0, "fusion_lon": 0.0, "fusion_lat": 0.0, "lon": -77.02318816666667, "name": "455433d6c175b090c0d79adb3183bf7a"}, {"bike_id": "8b9bb751e2a2873b046da4c8de79edef", "type": "electric_scooter", "is_disabled": 0, "lat": 38.90601866666667, "rental_uris": {"ios": "https://dc.lft.to/lastmile_qr_scan", "android": "https://dc.lft.to/lastmile_qr_scan"}, "is_reserved": 0, "fusion_lon": 0.0, "fusion_lat": 0.0, "lon": -77.04049533333334, "name": "8b9bb751e2a2873b046da4c8de79edef"}, {"bike_id": "5758c979246633fdd149332976c2a912", "type": "electric_scooter", "is_disabled": 0, "lat": 38.9075255, "rental_uris": {"ios": "https://dc.lft.to/lastmile_qr_scan", "android": "https://dc.lft.to/lastmile_qr_scan"}, "is_reserved": 0, "fusion_lon": 0.0, "fusion_lat": 0.0, "lon": -77.04342433333333, "name": "5758c979246633fdd149332976c2a912"}, {"bike_id": "740505b115ebb8119db80ec0d269a12e", "type": "electric_scooter", "is_disabled": 0, "lat": 38.900779666666665, "rental_uris": {"ios": "https://dc.lft.to/lastmile_qr_scan", "android": "https://dc.lft.to/lastmile_qr_scan"}, "is_reserved": 0, "fusion_lon": 0.0, "fusion_lat": 0.0, "lon": -77.04832383333333, "name": "740505b115ebb8119db80ec0d269a12e"}, {"bike_id": "7d28a3f64a786bfcae5a4d54c8c74f74", "type": "electric_scooter", "is_disabled": 0, "lat": 38.92477483333333, "rental_uris": {"ios": "https://dc.lft.to/lastmile_qr_scan", "android": "https://dc.lft.to/lastmile_qr_scan"}, "is_reserved": 0, "fusion_lon": 0.0, "fusion_lat": 0.0, "lon": -77.02836783333333, "name": "7d28a3f64a786bfcae5a4d54c8c74f74"}, {"bike_id": "310f4d8462e47bb62ac436f159ca3844", "type": "electric_scooter", "is_disabled": 0, "lat": 38.90226966666667, "rental_uris": {"ios": "https://dc.lft.to/lastmile_qr_scan", "android": "https://dc.lft.to/lastmile_qr_scan"}, "is_reserved": 0, "fusion_lon": 0.0, "fusion_lat": 0.0, "lon": -77.04331533333334, "name": "310f4d8462e47bb62ac436f159ca3844"}, {"bike_id": "d90e2b15088857b95ff3656fd3fdf103", "type": "electric_scooter", "is_disabled": 0, "lat": 38.885361, "rental_uris": {"ios": "https://dc.lft.to/lastmile_qr_scan", "android": "https://dc.lft.to/lastmile_qr_scan"}, "is_reserved": 0, "fusion_lon": 0.0, "fusion_lat": 0.0, "lon": -76.998281, "name": "d90e2b15088857b95ff3656fd3fdf103"}, {"bike_id": "b981409b66d2e9f50218c89d879d058a", "type": "electric_scooter", "is_disabled": 0, "lat": 38.89241716666667, "rental_uris": {"ios": "https://dc.lft.to/lastmile_qr_scan", "android": "https://dc.lft.to/lastmile_qr_scan"}, "is_reserved": 0, "fusion_lon": 0.0, "fusion_lat": 0.0, "lon": -76.9533225, "name": "b981409b66d2e9f50218c89d879d058a"}, {"bike_id": "a14901c3a2615a0b76ec7342f838180b", "type": "electric_scooter", "is_disabled": 0, "lat": 38.933703, "rental_uris": {"ios": "https://dc.lft.to/lastmile_qr_scan", "android": "https://dc.lft.to/lastmile_qr_scan"}, "is_reserved": 0, "fusion_lon": 0.0, "fusion_lat": 0.0, "lon": -77.05728283333333, "name": "a14901c3a2615a0b76ec7342f838180b"}, {"bike_id": "04396dec95f958791b25f585d0368632", "type": "electric_bike", "is_disabled": 0, "lat": 38.8089945, "rental_uris": {"ios": "https://dc.lft.to/lastmile_qr_scan", "android": "https://dc.lft.to/lastmile_qr_scan"}, "is_reserved": 0, "fusion_lon": 0.0, "fusion_lat": 0.0, "lon": -77.08659083333333, "name": "04396dec95f958791b25f585d0368632"}, {"bike_id": "8a8d969244d245a4ef5a806c72a54c6f", "type": "electric_scooter", "is_disabled": 0, "lat": 38.91152866666667, "rental_uris": {"ios": "https://dc.lft.to/lastmile_qr_scan", "android": "https://dc.lft.to/lastmile_qr_scan"}, "is_reserved": 0, "fusion_lon": 0.0, "fusion_lat": 0.0, "lon": -77.0296105, "name": "8a8d969244d245a4ef5a806c72a54c6f"}, {"bike_id": "3400a1e519cf596e049057264a5b197f", "type": "electric_scooter", "is_disabled": 0, "lat": 38.90965416666667, "rental_uris": {"ios": "https://dc.lft.to/lastmile_qr_scan", "android": "https://dc.lft.to/lastmile_qr_scan"}, "is_reserved": 0, "fusion_lon": 0.0, "fusion_lat": 0.0, "lon": -77.03340966666667, "name": "3400a1e519cf596e049057264a5b197f"}, {"bike_id": "26b1766454e2e9d98f34aa121a55cc7e", "type": "electric_scooter", "is_disabled": 0, "lat": 38.926884666666666, "rental_uris": {"ios": "https://dc.lft.to/lastmile_qr_scan", "android": "https://dc.lft.to/lastmile_qr_scan"}, "is_reserved": 0, "fusion_lon": 0.0, "fusion_lat": 0.0, "lon": -77.07343433333334, "name": "26b1766454e2e9d98f34aa121a55cc7e"}, {"bike_id": "d99c573e51fcb73c93e46bf0e76b0a01", "type": "electric_scooter", "is_disabled": 0, "lat": 38.91130666666667, "rental_uris": {"ios": "https://dc.lft.to/lastmile_qr_scan", "android": "https://dc.lft.to/lastmile_qr_scan"}, "is_reserved": 0, "fusion_lon": 0.0, "fusion_lat": 0.0, "lon": -77.0219945, "name": "d99c573e51fcb73c93e46bf0e76b0a01"}, {"bike_id": "bc174703f753d0e58729e8953cf5db69", "type": "electric_scooter", "is_disabled": 0, "lat": 38.92638733333333, "rental_uris": {"ios": "https://dc.lft.to/lastmile_qr_scan", "android": "https://dc.lft.to/lastmile_qr_scan"}, "is_reserved": 0, "fusion_lon": 0.0, "fusion_lat": 0.0, "lon": -77.013823, "name": "bc174703f753d0e58729e8953cf5db69"}, {"bike_id": "0bf4262cde34c686d2fa3db8384bffe4", "type": "electric_scooter", "is_disabled": 0, "lat": 38.91215183333333, "rental_uris": {"ios": "https://dc.lft.to/lastmile_qr_scan", "android": "https://dc.lft.to/lastmile_qr_scan"}, "is_reserved": 0, "fusion_lon": 0.0, "fusion_lat": 0.0, "lon": -77.03204916666667, "name": "0bf4262cde34c686d2fa3db8384bffe4"}, {"bike_id": "1a9da4fd7693e2c8a43857631c145183", "type": "electric_scooter", "is_disabled": 0, "lat": 38.92222816666666, "rental_uris": {"ios": "https://dc.lft.to/lastmile_qr_scan", "android": "https://dc.lft.to/lastmile_qr_scan"}, "is_reserved": 0, "fusion_lon": 0.0, "fusion_lat": 0.0, "lon": -77.02214066666667, "name": "1a9da4fd7693e2c8a43857631c145183"}, {"bike_id": "b92f6be358a981c097c8b0d2d046d3ba", "type": "electric_scooter", "is_disabled": 0, "lat": 38.87421033333333, "rental_uris": {"ios": "https://dc.lft.to/lastmile_qr_scan", "android": "https://dc.lft.to/lastmile_qr_scan"}, "is_reserved": 0, "fusion_lon": 0.0, "fusion_lat": 0.0, "lon": -76.96908416666666, "name": "b92f6be358a981c097c8b0d2d046d3ba"}, {"bike_id": "cdd12f3208f729a5e598f9a9e3319e47", "type": "electric_bike", "is_disabled": 0, "lat": 38.96290116666667, "rental_uris": {"ios": "https://dc.lft.to/lastmile_qr_scan", "android": "https://dc.lft.to/lastmile_qr_scan"}, "is_reserved": 0, "fusion_lon": 0.0, "fusion_lat": 0.0, "lon": -77.01112316666666, "name": "cdd12f3208f729a5e598f9a9e3319e47"}, {"bike_id": "a0714864fa65bb3e6437c82975ce2919", "type": "electric_bike", "is_disabled": 0, "lat": 38.952475, "rental_uris": {"ios": "https://dc.lft.to/lastmile_qr_scan", "android": "https://dc.lft.to/lastmile_qr_scan"}, "is_reserved": 0, "fusion_lon": 0.0, "fusion_lat": 0.0, "lon": -76.976757, "name": "a0714864fa65bb3e6437c82975ce2919"}, {"bike_id": "08ac4674f907b7d81d546a458b13862d", "type": "electric_scooter", "is_disabled": 0, "lat": 38.923893, "rental_uris": {"ios": "https://dc.lft.to/lastmile_qr_scan", "android": "https://dc.lft.to/lastmile_qr_scan"}, "is_reserved": 0, "fusion_lon": 0.0, "fusion_lat": 0.0, "lon": -77.05058116666666, "name": "08ac4674f907b7d81d546a458b13862d"}, {"bike_id": "b13ec161efc6b85378c1692194e764b2", "type": "electric_scooter", "is_disabled": 0, "lat": 38.908277166666664, "rental_uris": {"ios": "https://dc.lft.to/lastmile_qr_scan", "android": "https://dc.lft.to/lastmile_qr_scan"}, "is_reserved": 0, "fusion_lon": 0.0, "fusion_lat": 0.0, "lon": -77.044921, "name": "b13ec161efc6b85378c1692194e764b2"}, {"bike_id": "62e15a9c975846c6304f5b94b477a23d", "type": "electric_scooter", "is_disabled": 0, "lat": 38.908078, "rental_uris": {"ios": "https://dc.lft.to/lastmile_qr_scan", "android": "https://dc.lft.to/lastmile_qr_scan"}, "is_reserved": 0, "fusion_lon": 0.0, "fusion_lat": 0.0, "lon": -77.08415366666667, "name": "62e15a9c975846c6304f5b94b477a23d"}, {"bike_id": "951b4b3410a0413bc3612b663419ec77", "type": "electric_scooter", "is_disabled": 0, "lat": 38.8717405, "rental_uris": {"ios": "https://dc.lft.to/lastmile_qr_scan", "android": "https://dc.lft.to/lastmile_qr_scan"}, "is_reserved": 0, "fusion_lon": 0.0, "fusion_lat": 0.0, "lon": -77.0061755, "name": "951b4b3410a0413bc3612b663419ec77"}, {"bike_id": "ace037afb692136aa09126dc5e366396", "type": "electric_scooter", "is_disabled": 0, "lat": 38.915349, "rental_uris": {"ios": "https://dc.lft.to/lastmile_qr_scan", "android": "https://dc.lft.to/lastmile_qr_scan"}, "is_reserved": 0, "fusion_lon": 0.0, "fusion_lat": 0.0, "lon": -77.0385645, "name": "ace037afb692136aa09126dc5e366396"}, {"bike_id": "efb7d3dc0ae2323f840add7e6bcee0b0", "type": "electric_scooter", "is_disabled": 0, "lat": 38.9106395, "rental_uris": {"ios": "https://dc.lft.to/lastmile_qr_scan", "android": "https://dc.lft.to/lastmile_qr_scan"}, "is_reserved": 0, "fusion_lon": 0.0, "fusion_lat": 0.0, "lon": -77.0372065, "name": "efb7d3dc0ae2323f840add7e6bcee0b0"}, {"bike_id": "df13cddf3776ceb0721caf8579772e5f", "type": "electric_scooter", "is_disabled": 0, "lat": 38.866995333333335, "rental_uris": {"ios": "https://dc.lft.to/lastmile_qr_scan", "android": "https://dc.lft.to/lastmile_qr_scan"}, "is_reserved": 0, "fusion_lon": 0.0, "fusion_lat": 0.0, "lon": -76.98715066666666, "name": "df13cddf3776ceb0721caf8579772e5f"}, {"bike_id": "01819bd0c101904f0b387c26ac38c63a", "type": "electric_scooter", "is_disabled": 0, "lat": 38.90566416666667, "rental_uris": {"ios": "https://dc.lft.to/lastmile_qr_scan", "android": "https://dc.lft.to/lastmile_qr_scan"}, "is_reserved": 0, "fusion_lon": 0.0, "fusion_lat": 0.0, "lon": -76.97623866666666, "name": "01819bd0c101904f0b387c26ac38c63a"}, {"bike_id": "da7e4904af85ff795ba41841d2670069", "type": "electric_scooter", "is_disabled": 0, "lat": 38.8709335, "rental_uris": {"ios": "https://dc.lft.to/lastmile_qr_scan", "android": "https://dc.lft.to/lastmile_qr_scan"}, "is_reserved": 0, "fusion_lon": 0.0, "fusion_lat": 0.0, "lon": -77.01204383333334, "name": "da7e4904af85ff795ba41841d2670069"}, {"bike_id": "599cf88ed6583c1d0c19a3ee38838603", "type": "electric_scooter", "is_disabled": 0, "lat": 38.925576666666664, "rental_uris": {"ios": "https://dc.lft.to/lastmile_qr_scan", "android": "https://dc.lft.to/lastmile_qr_scan"}, "is_reserved": 0, "fusion_lon": 0.0, "fusion_lat": 0.0, "lon": -77.0378335, "name": "599cf88ed6583c1d0c19a3ee38838603"}, {"bike_id": "82c1072b6c03c481f57dc3178b425ab6", "type": "electric_scooter", "is_disabled": 0, "lat": 38.90867466666667, "rental_uris": {"ios": "https://dc.lft.to/lastmile_qr_scan", "android": "https://dc.lft.to/lastmile_qr_scan"}, "is_reserved": 0, "fusion_lon": 0.0, "fusion_lat": 0.0, "lon": -77.085914, "name": "82c1072b6c03c481f57dc3178b425ab6"}, {"bike_id": "7abe20c0a2dfcb776c9d40d5934d2bb0", "type": "electric_scooter", "is_disabled": 0, "lat": 38.922554, "rental_uris": {"ios": "https://dc.lft.to/lastmile_qr_scan", "android": "https://dc.lft.to/lastmile_qr_scan"}, "is_reserved": 0, "fusion_lon": 0.0, "fusion_lat": 0.0, "lon": -77.04300666666667, "name": "7abe20c0a2dfcb776c9d40d5934d2bb0"}, {"bike_id": "c58a668de0d4d46f66a192ff965cacae", "type": "electric_bike", "is_disabled": 0, "lat": 38.9082585, "rental_uris": {"ios": "https://dc.lft.to/lastmile_qr_scan", "android": "https://dc.lft.to/lastmile_qr_scan"}, "is_reserved": 0, "fusion_lon": 0.0, "fusion_lat": 0.0, "lon": -76.94028983333334, "name": "c58a668de0d4d46f66a192ff965cacae"}, {"bike_id": "3d750f8efccc219e3c24c8b8df236152", "type": "electric_scooter", "is_disabled": 0, "lat": 38.884002833333334, "rental_uris": {"ios": "https://dc.lft.to/lastmile_qr_scan", "android": "https://dc.lft.to/lastmile_qr_scan"}, "is_reserved": 0, "fusion_lon": 0.0, "fusion_lat": 0.0, "lon": -76.95388733333333, "name": "3d750f8efccc219e3c24c8b8df236152"}, {"bike_id": "dd57c049d8e3de6d9bc212f026abc3e6", "type": "electric_scooter", "is_disabled": 0, "lat": 38.892304, "rental_uris": {"ios": "https://dc.lft.to/lastmile_qr_scan", "android": "https://dc.lft.to/lastmile_qr_scan"}, "is_reserved": 0, "fusion_lon": 0.0, "fusion_lat": 0.0, "lon": -77.0334455, "name": "dd57c049d8e3de6d9bc212f026abc3e6"}, {"bike_id": "c5d3aa13adf761b247cdb35f0f8484d5", "type": "electric_scooter", "is_disabled": 0, "lat": 38.89099, "rental_uris": {"ios": "https://dc.lft.to/lastmile_qr_scan", "android": "https://dc.lft.to/lastmile_qr_scan"}, "is_reserved": 0, "fusion_lon": 0.0, "fusion_lat": 0.0, "lon": -76.93852283333334, "name": "c5d3aa13adf761b247cdb35f0f8484d5"}, {"bike_id": "5951c6148026d37466cf5ca1e1824609", "type": "electric_scooter", "is_disabled": 0, "lat": 38.932454166666666, "rental_uris": {"ios": "https://dc.lft.to/lastmile_qr_scan", "android": "https://dc.lft.to/lastmile_qr_scan"}, "is_reserved": 0, "fusion_lon": 0.0, "fusion_lat": 0.0, "lon": -77.03271316666667, "name": "5951c6148026d37466cf5ca1e1824609"}, {"bike_id": "511b6b96f8db353e18cbe461084ee4e5", "type": "electric_scooter", "is_disabled": 0, "lat": 38.934597333333336, "rental_uris": {"ios": "https://dc.lft.to/lastmile_qr_scan", "android": "https://dc.lft.to/lastmile_qr_scan"}, "is_reserved": 0, "fusion_lon": 0.0, "fusion_lat": 0.0, "lon": -77.0224335, "name": "511b6b96f8db353e18cbe461084ee4e5"}, {"bike_id": "b4ca46cdff5560dcb0c3d62e65a28eb8", "type": "electric_scooter", "is_disabled": 0, "lat": 38.9327465, "rental_uris": {"ios": "https://dc.lft.to/lastmile_qr_scan", "android": "https://dc.lft.to/lastmile_qr_scan"}, "is_reserved": 0, "fusion_lon": 0.0, "fusion_lat": 0.0, "lon": -77.039374, "name": "b4ca46cdff5560dcb0c3d62e65a28eb8"}, {"bike_id": "0d0cfab420f0ff742c47866085615f62", "type": "electric_scooter", "is_disabled": 0, "lat": 38.92606983333334, "rental_uris": {"ios": "https://dc.lft.to/lastmile_qr_scan", "android": "https://dc.lft.to/lastmile_qr_scan"}, "is_reserved": 0, "fusion_lon": 0.0, "fusion_lat": 0.0, "lon": -77.03760966666667, "name": "0d0cfab420f0ff742c47866085615f62"}, {"bike_id": "caf9679723c0d97e2e1da65da2645eaf", "type": "electric_scooter", "is_disabled": 0, "lat": 38.907947, "rental_uris": {"ios": "https://dc.lft.to/lastmile_qr_scan", "android": "https://dc.lft.to/lastmile_qr_scan"}, "is_reserved": 0, "fusion_lon": 0.0, "fusion_lat": 0.0, "lon": -77.043588, "name": "caf9679723c0d97e2e1da65da2645eaf"}, {"bike_id": "4b44c31a45856cd115e3464209578414", "type": "electric_scooter", "is_disabled": 0, "lat": 38.904106, "rental_uris": {"ios": "https://dc.lft.to/lastmile_qr_scan", "android": "https://dc.lft.to/lastmile_qr_scan"}, "is_reserved": 0, "fusion_lon": 0.0, "fusion_lat": 0.0, "lon": -76.97334816666667, "name": "4b44c31a45856cd115e3464209578414"}, {"bike_id": "88b00aed6da1c7bf8c935a3847e1049b", "type": "electric_scooter", "is_disabled": 0, "lat": 38.901413, "rental_uris": {"ios": "https://dc.lft.to/lastmile_qr_scan", "android": "https://dc.lft.to/lastmile_qr_scan"}, "is_reserved": 0, "fusion_lon": 0.0, "fusion_lat": 0.0, "lon": -76.930876, "name": "88b00aed6da1c7bf8c935a3847e1049b"}, {"bike_id": "290f1ec0cb8cf4679160e547b207207f", "type": "electric_scooter", "is_disabled": 0, "lat": 38.9062955, "rental_uris": {"ios": "https://dc.lft.to/lastmile_qr_scan", "android": "https://dc.lft.to/lastmile_qr_scan"}, "is_reserved": 0, "fusion_lon": 0.0, "fusion_lat": 0.0, "lon": -77.04127183333334, "name": "290f1ec0cb8cf4679160e547b207207f"}, {"bike_id": "ef25cb6a901794badda2b0ba6d6f970e", "type": "electric_scooter", "is_disabled": 0, "lat": 38.89914316666667, "rental_uris": {"ios": "https://dc.lft.to/lastmile_qr_scan", "android": "https://dc.lft.to/lastmile_qr_scan"}, "is_reserved": 0, "fusion_lon": 0.0, "fusion_lat": 0.0, "lon": -76.933695, "name": "ef25cb6a901794badda2b0ba6d6f970e"}, {"bike_id": "a86ceb2eba91292f7c76c262683c9a63", "type": "electric_bike", "is_disabled": 0, "lat": 38.978832, "rental_uris": {"ios": "https://dc.lft.to/lastmile_qr_scan", "android": "https://dc.lft.to/lastmile_qr_scan"}, "is_reserved": 0, "fusion_lon": 0.0, "fusion_lat": 0.0, "lon": -77.06031183333333, "name": "a86ceb2eba91292f7c76c262683c9a63"}, {"bike_id": "a9ddc8e0d1236fc31125be096e8554eb", "type": "electric_bike", "is_disabled": 0, "lat": 38.93328316666667, "rental_uris": {"ios": "https://dc.lft.to/lastmile_qr_scan", "android": "https://dc.lft.to/lastmile_qr_scan"}, "is_reserved": 0, "fusion_lon": 0.0, "fusion_lat": 0.0, "lon": -77.03971733333333, "name": "a9ddc8e0d1236fc31125be096e8554eb"}, {"bike_id": "accb430107f533387430f279d86ab6d9", "type": "electric_scooter", "is_disabled": 0, "lat": 38.909800833333335, "rental_uris": {"ios": "https://dc.lft.to/lastmile_qr_scan", "android": "https://dc.lft.to/lastmile_qr_scan"}, "is_reserved": 0, "fusion_lon": 0.0, "fusion_lat": 0.0, "lon": -77.04782583333333, "name": "accb430107f533387430f279d86ab6d9"}, {"bike_id": "22af303dedb1c06d19c68546df0296cf", "type": "electric_scooter", "is_disabled": 0, "lat": 38.93620283333333, "rental_uris": {"ios": "https://dc.lft.to/lastmile_qr_scan", "android": "https://dc.lft.to/lastmile_qr_scan"}, "is_reserved": 0, "fusion_lon": 0.0, "fusion_lat": 0.0, "lon": -76.97616133333334, "name": "22af303dedb1c06d19c68546df0296cf"}, {"bike_id": "acff61df648f732ce5df3d0be26355a3", "type": "electric_scooter", "is_disabled": 0, "lat": 38.89480016666667, "rental_uris": {"ios": "https://dc.lft.to/lastmile_qr_scan", "android": "https://dc.lft.to/lastmile_qr_scan"}, "is_reserved": 0, "fusion_lon": 0.0, "fusion_lat": 0.0, "lon": -76.94861216666666, "name": "acff61df648f732ce5df3d0be26355a3"}, {"bike_id": "73404ac276702c54dd1c4a8c9395c75d", "type": "electric_scooter", "is_disabled": 0, "lat": 38.876471, "rental_uris": {"ios": "https://dc.lft.to/lastmile_qr_scan", "android": "https://dc.lft.to/lastmile_qr_scan"}, "is_reserved": 0, "fusion_lon": 0.0, "fusion_lat": 0.0, "lon": -77.0041525, "name": "73404ac276702c54dd1c4a8c9395c75d"}, {"bike_id": "34f7a8456b05009992c8d35841e3d122", "type": "electric_scooter", "is_disabled": 0, "lat": 38.9315355, "rental_uris": {"ios": "https://dc.lft.to/lastmile_qr_scan", "android": "https://dc.lft.to/lastmile_qr_scan"}, "is_reserved": 0, "fusion_lon": 0.0, "fusion_lat": 0.0, "lon": -77.033488, "name": "34f7a8456b05009992c8d35841e3d122"}, {"bike_id": "156608752a5e3a10106921a23dd144d4", "type": "electric_scooter", "is_disabled": 0, "lat": 38.9018775, "rental_uris": {"ios": "https://dc.lft.to/lastmile_qr_scan", "android": "https://dc.lft.to/lastmile_qr_scan"}, "is_reserved": 0, "fusion_lon": 0.0, "fusion_lat": 0.0, "lon": -77.01290216666666, "name": "156608752a5e3a10106921a23dd144d4"}, {"bike_id": "0549cabdd87059ebe9986656f63e2727", "type": "electric_scooter", "is_disabled": 0, "lat": 38.915897, "rental_uris": {"ios": "https://dc.lft.to/lastmile_qr_scan", "android": "https://dc.lft.to/lastmile_qr_scan"}, "is_reserved": 0, "fusion_lon": 0.0, "fusion_lat": 0.0, "lon": -77.001994, "name": "0549cabdd87059ebe9986656f63e2727"}, {"bike_id": "40d2b2379f610932d95f93731cff460c", "type": "electric_scooter", "is_disabled": 0, "lat": 38.9041175, "rental_uris": {"ios": "https://dc.lft.to/lastmile_qr_scan", "android": "https://dc.lft.to/lastmile_qr_scan"}, "is_reserved": 0, "fusion_lon": 0.0, "fusion_lat": 0.0, "lon": -76.97331816666667, "name": "40d2b2379f610932d95f93731cff460c"}, {"bike_id": "a1005e84de97689c8150ae3c4da1c9e3", "type": "electric_bike", "is_disabled": 0, "lat": 38.8589285, "rental_uris": {"ios": "https://dc.lft.to/lastmile_qr_scan", "android": "https://dc.lft.to/lastmile_qr_scan"}, "is_reserved": 0, "fusion_lon": 0.0, "fusion_lat": 0.0, "lon": -77.118619, "name": "a1005e84de97689c8150ae3c4da1c9e3"}, {"bike_id": "8c379d4403eb3e5ac8c17e84f28524aa", "type": "electric_scooter", "is_disabled": 0, "lat": 38.899738, "rental_uris": {"ios": "https://dc.lft.to/lastmile_qr_scan", "android": "https://dc.lft.to/lastmile_qr_scan"}, "is_reserved": 0, "fusion_lon": 0.0, "fusion_lat": 0.0, "lon": -76.9831115, "name": "8c379d4403eb3e5ac8c17e84f28524aa"}, {"bike_id": "0f0c6289324442811db9add366a06727", "type": "electric_scooter", "is_disabled": 0, "lat": 38.91695933333333, "rental_uris": {"ios": "https://dc.lft.to/lastmile_qr_scan", "android": "https://dc.lft.to/lastmile_qr_scan"}, "is_reserved": 0, "fusion_lon": 0.0, "fusion_lat": 0.0, "lon": -77.02892366666667, "name": "0f0c6289324442811db9add366a06727"}, {"bike_id": "dd6aed7690288465b1938a610b7062e9", "type": "electric_scooter", "is_disabled": 0, "lat": 38.9047105, "rental_uris": {"ios": "https://dc.lft.to/lastmile_qr_scan", "android": "https://dc.lft.to/lastmile_qr_scan"}, "is_reserved": 0, "fusion_lon": 0.0, "fusion_lat": 0.0, "lon": -77.00928066666667, "name": "dd6aed7690288465b1938a610b7062e9"}, {"bike_id": "53130b4dba088e3b68cdc1dfc293217d", "type": "electric_scooter", "is_disabled": 0, "lat": 38.94556466666667, "rental_uris": {"ios": "https://dc.lft.to/lastmile_qr_scan", "android": "https://dc.lft.to/lastmile_qr_scan"}, "is_reserved": 0, "fusion_lon": 0.0, "fusion_lat": 0.0, "lon": -77.0712365, "name": "53130b4dba088e3b68cdc1dfc293217d"}, {"bike_id": "66eefedf8afed397e0fb1eb6fd1e73db", "type": "electric_bike", "is_disabled": 0, "lat": 38.95787633333333, "rental_uris": {"ios": "https://dc.lft.to/lastmile_qr_scan", "android": "https://dc.lft.to/lastmile_qr_scan"}, "is_reserved": 0, "fusion_lon": 0.0, "fusion_lat": 0.0, "lon": -77.0200385, "name": "66eefedf8afed397e0fb1eb6fd1e73db"}, {"bike_id": "b48b88eb75f778a2e126b490035eeb0e", "type": "electric_scooter", "is_disabled": 0, "lat": 38.884512, "rental_uris": {"ios": "https://dc.lft.to/lastmile_qr_scan", "android": "https://dc.lft.to/lastmile_qr_scan"}, "is_reserved": 0, "fusion_lon": 0.0, "fusion_lat": 0.0, "lon": -76.95099766666667, "name": "b48b88eb75f778a2e126b490035eeb0e"}, {"bike_id": "ae334ae964731d70aecae90cfb892969", "type": "electric_scooter", "is_disabled": 0, "lat": 38.9056645, "rental_uris": {"ios": "https://dc.lft.to/lastmile_qr_scan", "android": "https://dc.lft.to/lastmile_qr_scan"}, "is_reserved": 0, "fusion_lon": 0.0, "fusion_lat": 0.0, "lon": -77.00615583333334, "name": "ae334ae964731d70aecae90cfb892969"}, {"bike_id": "1fe9e6360faaa65bc0eec135bf4556e5", "type": "electric_scooter", "is_disabled": 0, "lat": 38.90798516666667, "rental_uris": {"ios": "https://dc.lft.to/lastmile_qr_scan", "android": "https://dc.lft.to/lastmile_qr_scan"}, "is_reserved": 0, "fusion_lon": 0.0, "fusion_lat": 0.0, "lon": -77.04176416666667, "name": "1fe9e6360faaa65bc0eec135bf4556e5"}, {"bike_id": "9ad27971ee9062455aff9296098056c4", "type": "electric_scooter", "is_disabled": 0, "lat": 38.939493666666664, "rental_uris": {"ios": "https://dc.lft.to/lastmile_qr_scan", "android": "https://dc.lft.to/lastmile_qr_scan"}, "is_reserved": 0, "fusion_lon": 0.0, "fusion_lat": 0.0, "lon": -77.07255366666666, "name": "9ad27971ee9062455aff9296098056c4"}, {"bike_id": "82371cc32bbeaaf39f3cabcafb654550", "type": "electric_scooter", "is_disabled": 0, "lat": 38.90114966666667, "rental_uris": {"ios": "https://dc.lft.to/lastmile_qr_scan", "android": "https://dc.lft.to/lastmile_qr_scan"}, "is_reserved": 0, "fusion_lon": 0.0, "fusion_lat": 0.0, "lon": -77.03828133333333, "name": "82371cc32bbeaaf39f3cabcafb654550"}, {"bike_id": "b7973d2dc36b08f1e0fec7c99c39a078", "type": "electric_scooter", "is_disabled": 0, "lat": 38.843168, "rental_uris": {"ios": "https://dc.lft.to/lastmile_qr_scan", "android": "https://dc.lft.to/lastmile_qr_scan"}, "is_reserved": 0, "fusion_lon": 0.0, "fusion_lat": 0.0, "lon": -76.99931283333333, "name": "b7973d2dc36b08f1e0fec7c99c39a078"}, {"bike_id": "a2e64c4f5bc433f0b83afdf44aebb167", "type": "electric_scooter", "is_disabled": 0, "lat": 38.91981716666667, "rental_uris": {"ios": "https://dc.lft.to/lastmile_qr_scan", "android": "https://dc.lft.to/lastmile_qr_scan"}, "is_reserved": 0, "fusion_lon": 0.0, "fusion_lat": 0.0, "lon": -77.01795, "name": "a2e64c4f5bc433f0b83afdf44aebb167"}, {"bike_id": "f10296604131f24bdcab7e3703a93147", "type": "electric_scooter", "is_disabled": 0, "lat": 38.91121916666667, "rental_uris": {"ios": "https://dc.lft.to/lastmile_qr_scan", "android": "https://dc.lft.to/lastmile_qr_scan"}, "is_reserved": 0, "fusion_lon": 0.0, "fusion_lat": 0.0, "lon": -77.04517333333334, "name": "f10296604131f24bdcab7e3703a93147"}, {"bike_id": "477209c93d4207524e090a89994a3704", "type": "electric_bike", "is_disabled": 0, "lat": 38.8361005, "rental_uris": {"ios": "https://dc.lft.to/lastmile_qr_scan", "android": "https://dc.lft.to/lastmile_qr_scan"}, "is_reserved": 0, "fusion_lon": 0.0, "fusion_lat": 0.0, "lon": -77.00382116666667, "name": "477209c93d4207524e090a89994a3704"}, {"bike_id": "aa73f11057d1faaf3dd0cfdabcee86f3", "type": "electric_scooter", "is_disabled": 0, "lat": 38.9146375, "rental_uris": {"ios": "https://dc.lft.to/lastmile_qr_scan", "android": "https://dc.lft.to/lastmile_qr_scan"}, "is_reserved": 0, "fusion_lon": 0.0, "fusion_lat": 0.0, "lon": -77.00204933333333, "name": "aa73f11057d1faaf3dd0cfdabcee86f3"}, {"bike_id": "7a4a4ce80fa1ba68ae53ce3d43f85475", "type": "electric_scooter", "is_disabled": 0, "lat": 38.9236695, "rental_uris": {"ios": "https://dc.lft.to/lastmile_qr_scan", "android": "https://dc.lft.to/lastmile_qr_scan"}, "is_reserved": 0, "fusion_lon": 0.0, "fusion_lat": 0.0, "lon": -77.05126783333333, "name": "7a4a4ce80fa1ba68ae53ce3d43f85475"}, {"bike_id": "d710dfccfcb18e2f1f2af7a9d61aa026", "type": "electric_scooter", "is_disabled": 0, "lat": 38.922749, "rental_uris": {"ios": "https://dc.lft.to/lastmile_qr_scan", "android": "https://dc.lft.to/lastmile_qr_scan"}, "is_reserved": 0, "fusion_lon": 0.0, "fusion_lat": 0.0, "lon": -77.036666, "name": "d710dfccfcb18e2f1f2af7a9d61aa026"}, {"bike_id": "07b24b70d99041b803328ca5c52380ce", "type": "electric_bike", "is_disabled": 0, "lat": 38.8956465, "rental_uris": {"ios": "https://dc.lft.to/lastmile_qr_scan", "android": "https://dc.lft.to/lastmile_qr_scan"}, "is_reserved": 0, "fusion_lon": 0.0, "fusion_lat": 0.0, "lon": -77.12740816666667, "name": "07b24b70d99041b803328ca5c52380ce"}, {"bike_id": "72e35295d631834c17562451fb6aa946", "type": "electric_scooter", "is_disabled": 0, "lat": 38.864724, "rental_uris": {"ios": "https://dc.lft.to/lastmile_qr_scan", "android": "https://dc.lft.to/lastmile_qr_scan"}, "is_reserved": 0, "fusion_lon": 0.0, "fusion_lat": 0.0, "lon": -77.000113, "name": "72e35295d631834c17562451fb6aa946"}, {"bike_id": "ff7fe7afb257aa2e77aae9ec9883128a", "type": "electric_scooter", "is_disabled": 0, "lat": 38.931927333333334, "rental_uris": {"ios": "https://dc.lft.to/lastmile_qr_scan", "android": "https://dc.lft.to/lastmile_qr_scan"}, "is_reserved": 0, "fusion_lon": 0.0, "fusion_lat": 0.0, "lon": -77.02018566666666, "name": "ff7fe7afb257aa2e77aae9ec9883128a"}, {"bike_id": "7df384c4d9c6d426a4b0d28a8f6e18c7", "type": "electric_scooter", "is_disabled": 0, "lat": 38.91631983333333, "rental_uris": {"ios": "https://dc.lft.to/lastmile_qr_scan", "android": "https://dc.lft.to/lastmile_qr_scan"}, "is_reserved": 0, "fusion_lon": 0.0, "fusion_lat": 0.0, "lon": -77.03965733333334, "name": "7df384c4d9c6d426a4b0d28a8f6e18c7"}, {"bike_id": "d2b00af1a4335db032e715f4fc6c2506", "type": "electric_scooter", "is_disabled": 0, "lat": 38.90161, "rental_uris": {"ios": "https://dc.lft.to/lastmile_qr_scan", "android": "https://dc.lft.to/lastmile_qr_scan"}, "is_reserved": 0, "fusion_lon": 0.0, "fusion_lat": 0.0, "lon": -77.0162745, "name": "d2b00af1a4335db032e715f4fc6c2506"}, {"bike_id": "23c69b4bf0712e1a0a53b70d48d8a9f9", "type": "electric_scooter", "is_disabled": 0, "lat": 38.92344166666667, "rental_uris": {"ios": "https://dc.lft.to/lastmile_qr_scan", "android": "https://dc.lft.to/lastmile_qr_scan"}, "is_reserved": 0, "fusion_lon": 0.0, "fusion_lat": 0.0, "lon": -77.05095233333333, "name": "23c69b4bf0712e1a0a53b70d48d8a9f9"}, {"bike_id": "af98d480d4205813b25716676f3850c4", "type": "electric_scooter", "is_disabled": 0, "lat": 38.867239, "rental_uris": {"ios": "https://dc.lft.to/lastmile_qr_scan", "android": "https://dc.lft.to/lastmile_qr_scan"}, "is_reserved": 0, "fusion_lon": 0.0, "fusion_lat": 0.0, "lon": -77.0101525, "name": "af98d480d4205813b25716676f3850c4"}, {"bike_id": "9de5e442f783b787ccbcc08d636293f2", "type": "electric_scooter", "is_disabled": 0, "lat": 38.909988166666665, "rental_uris": {"ios": "https://dc.lft.to/lastmile_qr_scan", "android": "https://dc.lft.to/lastmile_qr_scan"}, "is_reserved": 0, "fusion_lon": 0.0, "fusion_lat": 0.0, "lon": -77.04011216666666, "name": "9de5e442f783b787ccbcc08d636293f2"}, {"bike_id": "2489a5841fe3ad5f6d1d02b20dd08722", "type": "electric_scooter", "is_disabled": 0, "lat": 38.93731183333333, "rental_uris": {"ios": "https://dc.lft.to/lastmile_qr_scan", "android": "https://dc.lft.to/lastmile_qr_scan"}, "is_reserved": 0, "fusion_lon": 0.0, "fusion_lat": 0.0, "lon": -77.059646, "name": "2489a5841fe3ad5f6d1d02b20dd08722"}, {"bike_id": "9323f561981256b7ea053a7c7a1ae3f7", "type": "electric_scooter", "is_disabled": 0, "lat": 38.90726566666667, "rental_uris": {"ios": "https://dc.lft.to/lastmile_qr_scan", "android": "https://dc.lft.to/lastmile_qr_scan"}, "is_reserved": 0, "fusion_lon": 0.0, "fusion_lat": 0.0, "lon": -77.005738, "name": "9323f561981256b7ea053a7c7a1ae3f7"}, {"bike_id": "4662a1d1c6617dbd18ba4a092b68ea86", "type": "electric_scooter", "is_disabled": 0, "lat": 38.8637565, "rental_uris": {"ios": "https://dc.lft.to/lastmile_qr_scan", "android": "https://dc.lft.to/lastmile_qr_scan"}, "is_reserved": 0, "fusion_lon": 0.0, "fusion_lat": 0.0, "lon": -76.99060783333333, "name": "4662a1d1c6617dbd18ba4a092b68ea86"}, {"bike_id": "2f28fe438dc7b91a9cc01493eda11c28", "type": "electric_scooter", "is_disabled": 0, "lat": 38.927248166666665, "rental_uris": {"ios": "https://dc.lft.to/lastmile_qr_scan", "android": "https://dc.lft.to/lastmile_qr_scan"}, "is_reserved": 0, "fusion_lon": 0.0, "fusion_lat": 0.0, "lon": -77.02102683333334, "name": "2f28fe438dc7b91a9cc01493eda11c28"}, {"bike_id": "6bcc01fcadbf5e4706e6c8653b352fdc", "type": "electric_bike", "is_disabled": 0, "lat": 38.92926883333333, "rental_uris": {"ios": "https://dc.lft.to/lastmile_qr_scan", "android": "https://dc.lft.to/lastmile_qr_scan"}, "is_reserved": 0, "fusion_lon": 0.0, "fusion_lat": 0.0, "lon": -77.03690116666667, "name": "6bcc01fcadbf5e4706e6c8653b352fdc"}, {"bike_id": "9f7d506659fc4c63f7756d5f7d913ab0", "type": "electric_scooter", "is_disabled": 0, "lat": 38.907251, "rental_uris": {"ios": "https://dc.lft.to/lastmile_qr_scan", "android": "https://dc.lft.to/lastmile_qr_scan"}, "is_reserved": 0, "fusion_lon": 0.0, "fusion_lat": 0.0, "lon": -77.02538083333333, "name": "9f7d506659fc4c63f7756d5f7d913ab0"}, {"bike_id": "040c1a4367683d0e174e6c09b41488a3", "type": "electric_scooter", "is_disabled": 0, "lat": 38.9057005, "rental_uris": {"ios": "https://dc.lft.to/lastmile_qr_scan", "android": "https://dc.lft.to/lastmile_qr_scan"}, "is_reserved": 0, "fusion_lon": 0.0, "fusion_lat": 0.0, "lon": -77.00560483333334, "name": "040c1a4367683d0e174e6c09b41488a3"}, {"bike_id": "6f36e01b1a6de67429e0fe5b58c62954", "type": "electric_scooter", "is_disabled": 0, "lat": 38.902695, "rental_uris": {"ios": "https://dc.lft.to/lastmile_qr_scan", "android": "https://dc.lft.to/lastmile_qr_scan"}, "is_reserved": 0, "fusion_lon": 0.0, "fusion_lat": 0.0, "lon": -77.01785083333333, "name": "6f36e01b1a6de67429e0fe5b58c62954"}, {"bike_id": "e36270d70872701fd1bd5ca799940e47", "type": "electric_scooter", "is_disabled": 0, "lat": 38.91649966666667, "rental_uris": {"ios": "https://dc.lft.to/lastmile_qr_scan", "android": "https://dc.lft.to/lastmile_qr_scan"}, "is_reserved": 0, "fusion_lon": 0.0, "fusion_lat": 0.0, "lon": -77.04824983333333, "name": "e36270d70872701fd1bd5ca799940e47"}, {"bike_id": "fd12d4590d5bc77b004f19f349fafd1b", "type": "electric_scooter", "is_disabled": 0, "lat": 38.92349766666667, "rental_uris": {"ios": "https://dc.lft.to/lastmile_qr_scan", "android": "https://dc.lft.to/lastmile_qr_scan"}, "is_reserved": 0, "fusion_lon": 0.0, "fusion_lat": 0.0, "lon": -77.0353125, "name": "fd12d4590d5bc77b004f19f349fafd1b"}, {"bike_id": "0f1dac1aa892be2979266d3b99f612e7", "type": "electric_scooter", "is_disabled": 0, "lat": 38.886979, "rental_uris": {"ios": "https://dc.lft.to/lastmile_qr_scan", "android": "https://dc.lft.to/lastmile_qr_scan"}, "is_reserved": 0, "fusion_lon": 0.0, "fusion_lat": 0.0, "lon": -77.01378333333334, "name": "0f1dac1aa892be2979266d3b99f612e7"}, {"bike_id": "1fd84e6ec3b89b13b3ecc031a81e6d03", "type": "electric_scooter", "is_disabled": 0, "lat": 38.862503833333335, "rental_uris": {"ios": "https://dc.lft.to/lastmile_qr_scan", "android": "https://dc.lft.to/lastmile_qr_scan"}, "is_reserved": 0, "fusion_lon": 0.0, "fusion_lat": 0.0, "lon": -76.9926675, "name": "1fd84e6ec3b89b13b3ecc031a81e6d03"}, {"bike_id": "4d4607d186fc91b8c18af12be238201c", "type": "electric_bike", "is_disabled": 0, "lat": 38.87299216666667, "rental_uris": {"ios": "https://dc.lft.to/lastmile_qr_scan", "android": "https://dc.lft.to/lastmile_qr_scan"}, "is_reserved": 0, "fusion_lon": 0.0, "fusion_lat": 0.0, "lon": -76.96980183333334, "name": "4d4607d186fc91b8c18af12be238201c"}, {"bike_id": "14f926cf19f8d589160526698756106e", "type": "electric_scooter", "is_disabled": 0, "lat": 38.906909, "rental_uris": {"ios": "https://dc.lft.to/lastmile_qr_scan", "android": "https://dc.lft.to/lastmile_qr_scan"}, "is_reserved": 0, "fusion_lon": 0.0, "fusion_lat": 0.0, "lon": -77.05326466666666, "name": "14f926cf19f8d589160526698756106e"}, {"bike_id": "39976ef13bb26e055c509be681bfbd5c", "type": "electric_scooter", "is_disabled": 0, "lat": 38.930031, "rental_uris": {"ios": "https://dc.lft.to/lastmile_qr_scan", "android": "https://dc.lft.to/lastmile_qr_scan"}, "is_reserved": 0, "fusion_lon": 0.0, "fusion_lat": 0.0, "lon": -77.037764, "name": "39976ef13bb26e055c509be681bfbd5c"}, {"bike_id": "3f27335e3bf697086cbe2bec8ebf2ffd", "type": "electric_scooter", "is_disabled": 0, "lat": 38.932843166666665, "rental_uris": {"ios": "https://dc.lft.to/lastmile_qr_scan", "android": "https://dc.lft.to/lastmile_qr_scan"}, "is_reserved": 0, "fusion_lon": 0.0, "fusion_lat": 0.0, "lon": -77.04037566666666, "name": "3f27335e3bf697086cbe2bec8ebf2ffd"}, {"bike_id": "6156fae8e555602f3d74694ff875a033", "type": "electric_scooter", "is_disabled": 0, "lat": 38.9265225, "rental_uris": {"ios": "https://dc.lft.to/lastmile_qr_scan", "android": "https://dc.lft.to/lastmile_qr_scan"}, "is_reserved": 0, "fusion_lon": 0.0, "fusion_lat": 0.0, "lon": -77.03736366666666, "name": "6156fae8e555602f3d74694ff875a033"}, {"bike_id": "f9fa79ac2aa8ae0a2a572c7e2b4e331c", "type": "electric_bike", "is_disabled": 0, "lat": 38.908309833333334, "rental_uris": {"ios": "https://dc.lft.to/lastmile_qr_scan", "android": "https://dc.lft.to/lastmile_qr_scan"}, "is_reserved": 0, "fusion_lon": 0.0, "fusion_lat": 0.0, "lon": -76.94158833333333, "name": "f9fa79ac2aa8ae0a2a572c7e2b4e331c"}, {"bike_id": "cc873706e7050aa0da677eaf183f3ea1", "type": "electric_scooter", "is_disabled": 0, "lat": 38.92320383333333, "rental_uris": {"ios": "https://dc.lft.to/lastmile_qr_scan", "android": "https://dc.lft.to/lastmile_qr_scan"}, "is_reserved": 0, "fusion_lon": 0.0, "fusion_lat": 0.0, "lon": -77.02141766666666, "name": "cc873706e7050aa0da677eaf183f3ea1"}, {"bike_id": "1ff85d457afabb3ddc1bb8570d675eaa", "type": "electric_scooter", "is_disabled": 0, "lat": 38.916163, "rental_uris": {"ios": "https://dc.lft.to/lastmile_qr_scan", "android": "https://dc.lft.to/lastmile_qr_scan"}, "is_reserved": 0, "fusion_lon": 0.0, "fusion_lat": 0.0, "lon": -77.03643933333333, "name": "1ff85d457afabb3ddc1bb8570d675eaa"}, {"bike_id": "94ccfadb098e9525e8cbd7a595d99cec", "type": "electric_scooter", "is_disabled": 0, "lat": 38.919233166666665, "rental_uris": {"ios": "https://dc.lft.to/lastmile_qr_scan", "android": "https://dc.lft.to/lastmile_qr_scan"}, "is_reserved": 0, "fusion_lon": 0.0, "fusion_lat": 0.0, "lon": -77.034227, "name": "94ccfadb098e9525e8cbd7a595d99cec"}, {"bike_id": "b1412b31d66b9318d6e75a20e81e5252", "type": "electric_scooter", "is_disabled": 0, "lat": 38.926800166666666, "rental_uris": {"ios": "https://dc.lft.to/lastmile_qr_scan", "android": "https://dc.lft.to/lastmile_qr_scan"}, "is_reserved": 0, "fusion_lon": 0.0, "fusion_lat": 0.0, "lon": -77.02979483333333, "name": "b1412b31d66b9318d6e75a20e81e5252"}, {"bike_id": "20f06d9ce8548fd20924e2fb149f9caf", "type": "electric_scooter", "is_disabled": 0, "lat": 38.89864583333333, "rental_uris": {"ios": "https://dc.lft.to/lastmile_qr_scan", "android": "https://dc.lft.to/lastmile_qr_scan"}, "is_reserved": 0, "fusion_lon": 0.0, "fusion_lat": 0.0, "lon": -77.0407705, "name": "20f06d9ce8548fd20924e2fb149f9caf"}, {"bike_id": "6dbfc798543ef31b00ff3d467c921db2", "type": "electric_scooter", "is_disabled": 0, "lat": 38.9261945, "rental_uris": {"ios": "https://dc.lft.to/lastmile_qr_scan", "android": "https://dc.lft.to/lastmile_qr_scan"}, "is_reserved": 0, "fusion_lon": 0.0, "fusion_lat": 0.0, "lon": -77.04190633333333, "name": "6dbfc798543ef31b00ff3d467c921db2"}, {"bike_id": "bf9a420129a67bb378bbec7aab7f24d0", "type": "electric_scooter", "is_disabled": 0, "lat": 38.9124375, "rental_uris": {"ios": "https://dc.lft.to/lastmile_qr_scan", "android": "https://dc.lft.to/lastmile_qr_scan"}, "is_reserved": 0, "fusion_lon": 0.0, "fusion_lat": 0.0, "lon": -77.02429683333334, "name": "bf9a420129a67bb378bbec7aab7f24d0"}, {"bike_id": "41d6d3275cc625c6f13caa4beda192d3", "type": "electric_scooter", "is_disabled": 0, "lat": 38.947142, "rental_uris": {"ios": "https://dc.lft.to/lastmile_qr_scan", "android": "https://dc.lft.to/lastmile_qr_scan"}, "is_reserved": 0, "fusion_lon": 0.0, "fusion_lat": 0.0, "lon": -77.03327116666667, "name": "41d6d3275cc625c6f13caa4beda192d3"}, {"bike_id": "2d428f0e2cfd2f48bafd06cf32e06e2e", "type": "electric_scooter", "is_disabled": 0, "lat": 38.907974, "rental_uris": {"ios": "https://dc.lft.to/lastmile_qr_scan", "android": "https://dc.lft.to/lastmile_qr_scan"}, "is_reserved": 0, "fusion_lon": 0.0, "fusion_lat": 0.0, "lon": -77.04798266666667, "name": "2d428f0e2cfd2f48bafd06cf32e06e2e"}, {"bike_id": "222e17393a0a5cfc6827f5fdd2cc203c", "type": "electric_bike", "is_disabled": 0, "lat": 38.845289333333334, "rental_uris": {"ios": "https://dc.lft.to/lastmile_qr_scan", "android": "https://dc.lft.to/lastmile_qr_scan"}, "is_reserved": 0, "fusion_lon": 0.0, "fusion_lat": 0.0, "lon": -76.97399983333334, "name": "222e17393a0a5cfc6827f5fdd2cc203c"}, {"bike_id": "b0f8932d50a57f423032d4c02e51fb6a", "type": "electric_scooter", "is_disabled": 0, "lat": 38.89486616666667, "rental_uris": {"ios": "https://dc.lft.to/lastmile_qr_scan", "android": "https://dc.lft.to/lastmile_qr_scan"}, "is_reserved": 0, "fusion_lon": 0.0, "fusion_lat": 0.0, "lon": -77.01109, "name": "b0f8932d50a57f423032d4c02e51fb6a"}, {"bike_id": "57e35f5baf7901a67f56cfa1a104b4ee", "type": "electric_scooter", "is_disabled": 0, "lat": 38.904740333333336, "rental_uris": {"ios": "https://dc.lft.to/lastmile_qr_scan", "android": "https://dc.lft.to/lastmile_qr_scan"}, "is_reserved": 0, "fusion_lon": 0.0, "fusion_lat": 0.0, "lon": -77.0260375, "name": "57e35f5baf7901a67f56cfa1a104b4ee"}, {"bike_id": "89a4a04df7e9455eec7efc4c06dc0245", "type": "electric_scooter", "is_disabled": 0, "lat": 38.93751916666667, "rental_uris": {"ios": "https://dc.lft.to/lastmile_qr_scan", "android": "https://dc.lft.to/lastmile_qr_scan"}, "is_reserved": 0, "fusion_lon": 0.0, "fusion_lat": 0.0, "lon": -77.03581366666667, "name": "89a4a04df7e9455eec7efc4c06dc0245"}, {"bike_id": "663ad1a05c8a7fe6626b40919df8c5e0", "type": "electric_scooter", "is_disabled": 0, "lat": 38.905712, "rental_uris": {"ios": "https://dc.lft.to/lastmile_qr_scan", "android": "https://dc.lft.to/lastmile_qr_scan"}, "is_reserved": 0, "fusion_lon": 0.0, "fusion_lat": 0.0, "lon": -77.00562616666667, "name": "663ad1a05c8a7fe6626b40919df8c5e0"}, {"bike_id": "50a7ef681b3a1254859c55a7690e0add", "type": "electric_scooter", "is_disabled": 0, "lat": 38.9407065, "rental_uris": {"ios": "https://dc.lft.to/lastmile_qr_scan", "android": "https://dc.lft.to/lastmile_qr_scan"}, "is_reserved": 0, "fusion_lon": 0.0, "fusion_lat": 0.0, "lon": -77.06113933333333, "name": "50a7ef681b3a1254859c55a7690e0add"}, {"bike_id": "f4cd9c0d759b2782a9edbd835779da8c", "type": "electric_scooter", "is_disabled": 0, "lat": 38.9258215, "rental_uris": {"ios": "https://dc.lft.to/lastmile_qr_scan", "android": "https://dc.lft.to/lastmile_qr_scan"}, "is_reserved": 0, "fusion_lon": 0.0, "fusion_lat": 0.0, "lon": -77.030283, "name": "f4cd9c0d759b2782a9edbd835779da8c"}, {"bike_id": "95f43e8d362a23fc647ad6aecd317cf2", "type": "electric_scooter", "is_disabled": 0, "lat": 38.9170305, "rental_uris": {"ios": "https://dc.lft.to/lastmile_qr_scan", "android": "https://dc.lft.to/lastmile_qr_scan"}, "is_reserved": 0, "fusion_lon": 0.0, "fusion_lat": 0.0, "lon": -77.0347605, "name": "95f43e8d362a23fc647ad6aecd317cf2"}, {"bike_id": "81c2707670586688f1b05126c430b07f", "type": "electric_scooter", "is_disabled": 0, "lat": 38.907076833333335, "rental_uris": {"ios": "https://dc.lft.to/lastmile_qr_scan", "android": "https://dc.lft.to/lastmile_qr_scan"}, "is_reserved": 0, "fusion_lon": 0.0, "fusion_lat": 0.0, "lon": -77.02391716666666, "name": "81c2707670586688f1b05126c430b07f"}, {"bike_id": "48b3f74f0edeb7afdb2dacccfe6dacca", "type": "electric_scooter", "is_disabled": 0, "lat": 38.93390433333333, "rental_uris": {"ios": "https://dc.lft.to/lastmile_qr_scan", "android": "https://dc.lft.to/lastmile_qr_scan"}, "is_reserved": 0, "fusion_lon": 0.0, "fusion_lat": 0.0, "lon": -77.022264, "name": "48b3f74f0edeb7afdb2dacccfe6dacca"}, {"bike_id": "a7a445c1a961068ad5ba2a3673a80232", "type": "electric_scooter", "is_disabled": 0, "lat": 38.916583333333335, "rental_uris": {"ios": "https://dc.lft.to/lastmile_qr_scan", "android": "https://dc.lft.to/lastmile_qr_scan"}, "is_reserved": 0, "fusion_lon": 0.0, "fusion_lat": 0.0, "lon": -77.023921, "name": "a7a445c1a961068ad5ba2a3673a80232"}, {"bike_id": "7e427db42485142508c1f48ecdd98ba7", "type": "electric_scooter", "is_disabled": 0, "lat": 38.912461, "rental_uris": {"ios": "https://dc.lft.to/lastmile_qr_scan", "android": "https://dc.lft.to/lastmile_qr_scan"}, "is_reserved": 0, "fusion_lon": 0.0, "fusion_lat": 0.0, "lon": -77.0221865, "name": "7e427db42485142508c1f48ecdd98ba7"}, {"bike_id": "6f61feead4271ee393448a9677e3839f", "type": "electric_bike", "is_disabled": 0, "lat": 38.9486055, "rental_uris": {"ios": "https://dc.lft.to/lastmile_qr_scan", "android": "https://dc.lft.to/lastmile_qr_scan"}, "is_reserved": 0, "fusion_lon": 0.0, "fusion_lat": 0.0, "lon": -77.02201, "name": "6f61feead4271ee393448a9677e3839f"}, {"bike_id": "b7bf81e024ed085476114d0f0ee8275b", "type": "electric_scooter", "is_disabled": 0, "lat": 38.921167, "rental_uris": {"ios": "https://dc.lft.to/lastmile_qr_scan", "android": "https://dc.lft.to/lastmile_qr_scan"}, "is_reserved": 0, "fusion_lon": 0.0, "fusion_lat": 0.0, "lon": -77.04380416666666, "name": "b7bf81e024ed085476114d0f0ee8275b"}, {"bike_id": "6dd7e5aebace091bb36c0a639b7f2ccc", "type": "electric_scooter", "is_disabled": 0, "lat": 38.942969833333336, "rental_uris": {"ios": "https://dc.lft.to/lastmile_qr_scan", "android": "https://dc.lft.to/lastmile_qr_scan"}, "is_reserved": 0, "fusion_lon": 0.0, "fusion_lat": 0.0, "lon": -77.02175333333334, "name": "6dd7e5aebace091bb36c0a639b7f2ccc"}, {"bike_id": "3789178f2e0c133858b3088a1cd6599b", "type": "electric_scooter", "is_disabled": 0, "lat": 38.91721833333333, "rental_uris": {"ios": "https://dc.lft.to/lastmile_qr_scan", "android": "https://dc.lft.to/lastmile_qr_scan"}, "is_reserved": 0, "fusion_lon": 0.0, "fusion_lat": 0.0, "lon": -77.01934233333333, "name": "3789178f2e0c133858b3088a1cd6599b"}, {"bike_id": "3c7eb2c369169588269e23445dfbdac3", "type": "electric_scooter", "is_disabled": 0, "lat": 38.87666016666667, "rental_uris": {"ios": "https://dc.lft.to/lastmile_qr_scan", "android": "https://dc.lft.to/lastmile_qr_scan"}, "is_reserved": 0, "fusion_lon": 0.0, "fusion_lat": 0.0, "lon": -77.00807316666666, "name": "3c7eb2c369169588269e23445dfbdac3"}, {"bike_id": "db40835bdff7ae40014cd57454a61100", "type": "electric_scooter", "is_disabled": 0, "lat": 38.916908166666666, "rental_uris": {"ios": "https://dc.lft.to/lastmile_qr_scan", "android": "https://dc.lft.to/lastmile_qr_scan"}, "is_reserved": 0, "fusion_lon": 0.0, "fusion_lat": 0.0, "lon": -77.03055666666667, "name": "db40835bdff7ae40014cd57454a61100"}, {"bike_id": "d61c8a0f7ec6c3b05074fbe675834a90", "type": "electric_scooter", "is_disabled": 0, "lat": 38.897493, "rental_uris": {"ios": "https://dc.lft.to/lastmile_qr_scan", "android": "https://dc.lft.to/lastmile_qr_scan"}, "is_reserved": 0, "fusion_lon": 0.0, "fusion_lat": 0.0, "lon": -77.02694416666667, "name": "d61c8a0f7ec6c3b05074fbe675834a90"}, {"bike_id": "28436fec3fdf7075ff81b7c5057263a8", "type": "electric_scooter", "is_disabled": 0, "lat": 38.907173666666665, "rental_uris": {"ios": "https://dc.lft.to/lastmile_qr_scan", "android": "https://dc.lft.to/lastmile_qr_scan"}, "is_reserved": 0, "fusion_lon": 0.0, "fusion_lat": 0.0, "lon": -77.023905, "name": "28436fec3fdf7075ff81b7c5057263a8"}, {"bike_id": "7f09d36b069e564d6114f75321e3c841", "type": "electric_scooter", "is_disabled": 0, "lat": 38.939505833333335, "rental_uris": {"ios": "https://dc.lft.to/lastmile_qr_scan", "android": "https://dc.lft.to/lastmile_qr_scan"}, "is_reserved": 0, "fusion_lon": 0.0, "fusion_lat": 0.0, "lon": -77.06076283333333, "name": "7f09d36b069e564d6114f75321e3c841"}, {"bike_id": "dacf1b12d3f68c1e046f3e3a95198f56", "type": "electric_scooter", "is_disabled": 0, "lat": 38.90151383333333, "rental_uris": {"ios": "https://dc.lft.to/lastmile_qr_scan", "android": "https://dc.lft.to/lastmile_qr_scan"}, "is_reserved": 0, "fusion_lon": 0.0, "fusion_lat": 0.0, "lon": -77.04350133333334, "name": "dacf1b12d3f68c1e046f3e3a95198f56"}, {"bike_id": "56098fd30c7e9cbf02421ca9acd24c7c", "type": "electric_scooter", "is_disabled": 0, "lat": 38.920539, "rental_uris": {"ios": "https://dc.lft.to/lastmile_qr_scan", "android": "https://dc.lft.to/lastmile_qr_scan"}, "is_reserved": 0, "fusion_lon": 0.0, "fusion_lat": 0.0, "lon": -76.99872983333333, "name": "56098fd30c7e9cbf02421ca9acd24c7c"}, {"bike_id": "73f256cad4f7c200b26ed0c0cd444f9a", "type": "electric_scooter", "is_disabled": 0, "lat": 38.876263, "rental_uris": {"ios": "https://dc.lft.to/lastmile_qr_scan", "android": "https://dc.lft.to/lastmile_qr_scan"}, "is_reserved": 0, "fusion_lon": 0.0, "fusion_lat": 0.0, "lon": -76.96528383333333, "name": "73f256cad4f7c200b26ed0c0cd444f9a"}, {"bike_id": "448e878a5456ad5b3933c9fe5a2f18e8", "type": "electric_scooter", "is_disabled": 0, "lat": 38.95617, "rental_uris": {"ios": "https://dc.lft.to/lastmile_qr_scan", "android": "https://dc.lft.to/lastmile_qr_scan"}, "is_reserved": 0, "fusion_lon": 0.0, "fusion_lat": 0.0, "lon": -77.0102025, "name": "448e878a5456ad5b3933c9fe5a2f18e8"}, {"bike_id": "453c204cce264df637f4e0344ca872cb", "type": "electric_scooter", "is_disabled": 0, "lat": 38.9023475, "rental_uris": {"ios": "https://dc.lft.to/lastmile_qr_scan", "android": "https://dc.lft.to/lastmile_qr_scan"}, "is_reserved": 0, "fusion_lon": 0.0, "fusion_lat": 0.0, "lon": -77.04334733333333, "name": "453c204cce264df637f4e0344ca872cb"}, {"bike_id": "c29d30597d94c33c5983710c4769e0bc", "type": "electric_scooter", "is_disabled": 0, "lat": 38.90970316666667, "rental_uris": {"ios": "https://dc.lft.to/lastmile_qr_scan", "android": "https://dc.lft.to/lastmile_qr_scan"}, "is_reserved": 0, "fusion_lon": 0.0, "fusion_lat": 0.0, "lon": -77.03867183333334, "name": "c29d30597d94c33c5983710c4769e0bc"}, {"bike_id": "bf2f61bfdd79560715c384a08b56aabc", "type": "electric_scooter", "is_disabled": 0, "lat": 38.9401735, "rental_uris": {"ios": "https://dc.lft.to/lastmile_qr_scan", "android": "https://dc.lft.to/lastmile_qr_scan"}, "is_reserved": 0, "fusion_lon": 0.0, "fusion_lat": 0.0, "lon": -77.02643316666666, "name": "bf2f61bfdd79560715c384a08b56aabc"}, {"bike_id": "2fe88558d9f7f5957b1847a520979fa9", "type": "electric_scooter", "is_disabled": 0, "lat": 38.91598033333333, "rental_uris": {"ios": "https://dc.lft.to/lastmile_qr_scan", "android": "https://dc.lft.to/lastmile_qr_scan"}, "is_reserved": 0, "fusion_lon": 0.0, "fusion_lat": 0.0, "lon": -77.03215616666667, "name": "2fe88558d9f7f5957b1847a520979fa9"}, {"bike_id": "f9f8d846965540e2e18bfdaef2df4d84", "type": "electric_scooter", "is_disabled": 0, "lat": 38.9021295, "rental_uris": {"ios": "https://dc.lft.to/lastmile_qr_scan", "android": "https://dc.lft.to/lastmile_qr_scan"}, "is_reserved": 0, "fusion_lon": 0.0, "fusion_lat": 0.0, "lon": -77.04023833333333, "name": "f9f8d846965540e2e18bfdaef2df4d84"}, {"bike_id": "098f7adc4baf4bfc6c1425707eb1de26", "type": "electric_scooter", "is_disabled": 0, "lat": 38.92976866666667, "rental_uris": {"ios": "https://dc.lft.to/lastmile_qr_scan", "android": "https://dc.lft.to/lastmile_qr_scan"}, "is_reserved": 0, "fusion_lon": 0.0, "fusion_lat": 0.0, "lon": -77.03654933333334, "name": "098f7adc4baf4bfc6c1425707eb1de26"}, {"bike_id": "ccc8e2b3b4c8b579988fa51528efad31", "type": "electric_scooter", "is_disabled": 0, "lat": 38.9192705, "rental_uris": {"ios": "https://dc.lft.to/lastmile_qr_scan", "android": "https://dc.lft.to/lastmile_qr_scan"}, "is_reserved": 0, "fusion_lon": 0.0, "fusion_lat": 0.0, "lon": -77.03208383333333, "name": "ccc8e2b3b4c8b579988fa51528efad31"}, {"bike_id": "d606658f1babc4345227996dcc85fee8", "type": "electric_scooter", "is_disabled": 0, "lat": 38.933551, "rental_uris": {"ios": "https://dc.lft.to/lastmile_qr_scan", "android": "https://dc.lft.to/lastmile_qr_scan"}, "is_reserved": 0, "fusion_lon": 0.0, "fusion_lat": 0.0, "lon": -77.07360766666666, "name": "d606658f1babc4345227996dcc85fee8"}, {"bike_id": "55531bb51ff3b2f89ccc1b4571b26746", "type": "electric_scooter", "is_disabled": 0, "lat": 38.922085333333335, "rental_uris": {"ios": "https://dc.lft.to/lastmile_qr_scan", "android": "https://dc.lft.to/lastmile_qr_scan"}, "is_reserved": 0, "fusion_lon": 0.0, "fusion_lat": 0.0, "lon": -77.03659833333333, "name": "55531bb51ff3b2f89ccc1b4571b26746"}, {"bike_id": "cd26fd166149b43d5515d787b0dc5294", "type": "electric_bike", "is_disabled": 0, "lat": 38.99328466666667, "rental_uris": {"ios": "https://dc.lft.to/lastmile_qr_scan", "android": "https://dc.lft.to/lastmile_qr_scan"}, "is_reserved": 0, "fusion_lon": 0.0, "fusion_lat": 0.0, "lon": -76.94615133333333, "name": "cd26fd166149b43d5515d787b0dc5294"}, {"bike_id": "341e55971cc725b5543d89229344d54c", "type": "electric_scooter", "is_disabled": 0, "lat": 38.90766266666667, "rental_uris": {"ios": "https://dc.lft.to/lastmile_qr_scan", "android": "https://dc.lft.to/lastmile_qr_scan"}, "is_reserved": 0, "fusion_lon": 0.0, "fusion_lat": 0.0, "lon": -77.00219833333334, "name": "341e55971cc725b5543d89229344d54c"}, {"bike_id": "edd66047dd2bea93a08225e4564be7ac", "type": "electric_scooter", "is_disabled": 0, "lat": 38.903006500000004, "rental_uris": {"ios": "https://dc.lft.to/lastmile_qr_scan", "android": "https://dc.lft.to/lastmile_qr_scan"}, "is_reserved": 0, "fusion_lon": 0.0, "fusion_lat": 0.0, "lon": -77.0495505, "name": "edd66047dd2bea93a08225e4564be7ac"}, {"bike_id": "b6318181b1b1204cf69221556e025ac4", "type": "electric_bike", "is_disabled": 0, "lat": 38.85531816666666, "rental_uris": {"ios": "https://dc.lft.to/lastmile_qr_scan", "android": "https://dc.lft.to/lastmile_qr_scan"}, "is_reserved": 0, "fusion_lon": 0.0, "fusion_lat": 0.0, "lon": -77.12002683333333, "name": "b6318181b1b1204cf69221556e025ac4"}, {"bike_id": "cb31833427de71a4a1cebc13b5d6f29c", "type": "electric_scooter", "is_disabled": 0, "lat": 38.907257, "rental_uris": {"ios": "https://dc.lft.to/lastmile_qr_scan", "android": "https://dc.lft.to/lastmile_qr_scan"}, "is_reserved": 0, "fusion_lon": 0.0, "fusion_lat": 0.0, "lon": -77.05327766666667, "name": "cb31833427de71a4a1cebc13b5d6f29c"}, {"bike_id": "ff2b5ffd2012e98291f2e783eb6c47d1", "type": "electric_scooter", "is_disabled": 0, "lat": 38.9238765, "rental_uris": {"ios": "https://dc.lft.to/lastmile_qr_scan", "android": "https://dc.lft.to/lastmile_qr_scan"}, "is_reserved": 0, "fusion_lon": 0.0, "fusion_lat": 0.0, "lon": -77.02469966666666, "name": "ff2b5ffd2012e98291f2e783eb6c47d1"}, {"bike_id": "aad2dff6ec5dfc36def31490cf86079a", "type": "electric_scooter", "is_disabled": 0, "lat": 38.907217333333335, "rental_uris": {"ios": "https://dc.lft.to/lastmile_qr_scan", "android": "https://dc.lft.to/lastmile_qr_scan"}, "is_reserved": 0, "fusion_lon": 0.0, "fusion_lat": 0.0, "lon": -77.048239, "name": "aad2dff6ec5dfc36def31490cf86079a"}, {"bike_id": "0ecc8de9a121486651b369a70d3ad3a3", "type": "electric_scooter", "is_disabled": 0, "lat": 38.919218666666666, "rental_uris": {"ios": "https://dc.lft.to/lastmile_qr_scan", "android": "https://dc.lft.to/lastmile_qr_scan"}, "is_reserved": 0, "fusion_lon": 0.0, "fusion_lat": 0.0, "lon": -77.02575433333334, "name": "0ecc8de9a121486651b369a70d3ad3a3"}, {"bike_id": "f1d0b982d478f926417a1a727b33be96", "type": "electric_scooter", "is_disabled": 0, "lat": 38.918162, "rental_uris": {"ios": "https://dc.lft.to/lastmile_qr_scan", "android": "https://dc.lft.to/lastmile_qr_scan"}, "is_reserved": 0, "fusion_lon": 0.0, "fusion_lat": 0.0, "lon": -77.031667, "name": "f1d0b982d478f926417a1a727b33be96"}, {"bike_id": "73324e7d73ff9c005483942eee7e2a7a", "type": "electric_scooter", "is_disabled": 0, "lat": 38.95688783333333, "rental_uris": {"ios": "https://dc.lft.to/lastmile_qr_scan", "android": "https://dc.lft.to/lastmile_qr_scan"}, "is_reserved": 0, "fusion_lon": 0.0, "fusion_lat": 0.0, "lon": -77.02402633333334, "name": "73324e7d73ff9c005483942eee7e2a7a"}, {"bike_id": "9a0dd469c0d61566771f8a6a99ee778c", "type": "electric_scooter", "is_disabled": 0, "lat": 38.92059033333334, "rental_uris": {"ios": "https://dc.lft.to/lastmile_qr_scan", "android": "https://dc.lft.to/lastmile_qr_scan"}, "is_reserved": 0, "fusion_lon": 0.0, "fusion_lat": 0.0, "lon": -77.03464866666667, "name": "9a0dd469c0d61566771f8a6a99ee778c"}, {"bike_id": "9ed9740df8b978ce7b010dab92dd01d2", "type": "electric_scooter", "is_disabled": 0, "lat": 38.91781016666667, "rental_uris": {"ios": "https://dc.lft.to/lastmile_qr_scan", "android": "https://dc.lft.to/lastmile_qr_scan"}, "is_reserved": 0, "fusion_lon": 0.0, "fusion_lat": 0.0, "lon": -77.029731, "name": "9ed9740df8b978ce7b010dab92dd01d2"}, {"bike_id": "d9a51609b8e3a1c6712a829e0568f748", "type": "electric_scooter", "is_disabled": 0, "lat": 38.901196666666664, "rental_uris": {"ios": "https://dc.lft.to/lastmile_qr_scan", "android": "https://dc.lft.to/lastmile_qr_scan"}, "is_reserved": 0, "fusion_lon": 0.0, "fusion_lat": 0.0, "lon": -77.0367425, "name": "d9a51609b8e3a1c6712a829e0568f748"}, {"bike_id": "ba5d65acbe60f0e0070b4240cc9abece", "type": "electric_scooter", "is_disabled": 0, "lat": 38.9109815, "rental_uris": {"ios": "https://dc.lft.to/lastmile_qr_scan", "android": "https://dc.lft.to/lastmile_qr_scan"}, "is_reserved": 0, "fusion_lon": 0.0, "fusion_lat": 0.0, "lon": -77.029728, "name": "ba5d65acbe60f0e0070b4240cc9abece"}, {"bike_id": "a5629e35dd6c9b93936f19bb95a1cc76", "type": "electric_scooter", "is_disabled": 0, "lat": 38.907209, "rental_uris": {"ios": "https://dc.lft.to/lastmile_qr_scan", "android": "https://dc.lft.to/lastmile_qr_scan"}, "is_reserved": 0, "fusion_lon": 0.0, "fusion_lat": 0.0, "lon": -77.046509, "name": "a5629e35dd6c9b93936f19bb95a1cc76"}, {"bike_id": "0f65b2624f9e329061c900b7c5efbe1e", "type": "electric_scooter", "is_disabled": 0, "lat": 38.9215, "rental_uris": {"ios": "https://dc.lft.to/lastmile_qr_scan", "android": "https://dc.lft.to/lastmile_qr_scan"}, "is_reserved": 0, "fusion_lon": 0.0, "fusion_lat": 0.0, "lon": -77.038803, "name": "0f65b2624f9e329061c900b7c5efbe1e"}, {"bike_id": "31d03f09a7222e8e294c1dcea8f885b8", "type": "electric_scooter", "is_disabled": 0, "lat": 38.90720983333333, "rental_uris": {"ios": "https://dc.lft.to/lastmile_qr_scan", "android": "https://dc.lft.to/lastmile_qr_scan"}, "is_reserved": 0, "fusion_lon": 0.0, "fusion_lat": 0.0, "lon": -77.050259, "name": "31d03f09a7222e8e294c1dcea8f885b8"}, {"bike_id": "d33fbbd0a7534857aa5266182d4a3c47", "type": "electric_scooter", "is_disabled": 0, "lat": 38.926840166666665, "rental_uris": {"ios": "https://dc.lft.to/lastmile_qr_scan", "android": "https://dc.lft.to/lastmile_qr_scan"}, "is_reserved": 0, "fusion_lon": 0.0, "fusion_lat": 0.0, "lon": -77.02160333333333, "name": "d33fbbd0a7534857aa5266182d4a3c47"}, {"bike_id": "798f9a976fde662b99c6b4ad87c0cb8f", "type": "electric_scooter", "is_disabled": 0, "lat": 38.87287583333333, "rental_uris": {"ios": "https://dc.lft.to/lastmile_qr_scan", "android": "https://dc.lft.to/lastmile_qr_scan"}, "is_reserved": 0, "fusion_lon": 0.0, "fusion_lat": 0.0, "lon": -77.00990316666666, "name": "798f9a976fde662b99c6b4ad87c0cb8f"}, {"bike_id": "cde57d2b35fb0cf3f30bb2b366e187dd", "type": "electric_scooter", "is_disabled": 0, "lat": 38.898216833333336, "rental_uris": {"ios": "https://dc.lft.to/lastmile_qr_scan", "android": "https://dc.lft.to/lastmile_qr_scan"}, "is_reserved": 0, "fusion_lon": 0.0, "fusion_lat": 0.0, "lon": -77.04561666666666, "name": "cde57d2b35fb0cf3f30bb2b366e187dd"}, {"bike_id": "2a2539aa47a4672df3533aed6ed577b8", "type": "electric_scooter", "is_disabled": 0, "lat": 38.9226715, "rental_uris": {"ios": "https://dc.lft.to/lastmile_qr_scan", "android": "https://dc.lft.to/lastmile_qr_scan"}, "is_reserved": 0, "fusion_lon": 0.0, "fusion_lat": 0.0, "lon": -77.03397616666666, "name": "2a2539aa47a4672df3533aed6ed577b8"}, {"bike_id": "90575a752df79cf31f0350574b9eaae3", "type": "electric_scooter", "is_disabled": 0, "lat": 38.90276016666667, "rental_uris": {"ios": "https://dc.lft.to/lastmile_qr_scan", "android": "https://dc.lft.to/lastmile_qr_scan"}, "is_reserved": 0, "fusion_lon": 0.0, "fusion_lat": 0.0, "lon": -77.026515, "name": "90575a752df79cf31f0350574b9eaae3"}, {"bike_id": "50d2c7fbc6b03f6611ace958889e1a58", "type": "electric_scooter", "is_disabled": 0, "lat": 38.900443, "rental_uris": {"ios": "https://dc.lft.to/lastmile_qr_scan", "android": "https://dc.lft.to/lastmile_qr_scan"}, "is_reserved": 0, "fusion_lon": 0.0, "fusion_lat": 0.0, "lon": -77.035218, "name": "50d2c7fbc6b03f6611ace958889e1a58"}, {"bike_id": "9c330e1c723005a42a189c8a9214f492", "type": "electric_scooter", "is_disabled": 0, "lat": 38.90715566666667, "rental_uris": {"ios": "https://dc.lft.to/lastmile_qr_scan", "android": "https://dc.lft.to/lastmile_qr_scan"}, "is_reserved": 0, "fusion_lon": 0.0, "fusion_lat": 0.0, "lon": -77.03434383333334, "name": "9c330e1c723005a42a189c8a9214f492"}, {"bike_id": "704e743d8ad997f63057c03bd87b91aa", "type": "electric_scooter", "is_disabled": 0, "lat": 38.910753166666666, "rental_uris": {"ios": "https://dc.lft.to/lastmile_qr_scan", "android": "https://dc.lft.to/lastmile_qr_scan"}, "is_reserved": 0, "fusion_lon": 0.0, "fusion_lat": 0.0, "lon": -77.0219725, "name": "704e743d8ad997f63057c03bd87b91aa"}, {"bike_id": "7547c77e0d2f64dbfa9f97219a351f49", "type": "electric_scooter", "is_disabled": 0, "lat": 38.91775666666667, "rental_uris": {"ios": "https://dc.lft.to/lastmile_qr_scan", "android": "https://dc.lft.to/lastmile_qr_scan"}, "is_reserved": 0, "fusion_lon": 0.0, "fusion_lat": 0.0, "lon": -77.02419233333333, "name": "7547c77e0d2f64dbfa9f97219a351f49"}, {"bike_id": "01d08c90f409a8b1f8b2484dbbdea3c1", "type": "electric_scooter", "is_disabled": 0, "lat": 38.921493, "rental_uris": {"ios": "https://dc.lft.to/lastmile_qr_scan", "android": "https://dc.lft.to/lastmile_qr_scan"}, "is_reserved": 0, "fusion_lon": 0.0, "fusion_lat": 0.0, "lon": -77.03875866666667, "name": "01d08c90f409a8b1f8b2484dbbdea3c1"}, {"bike_id": "75ddc9b660e9ed08230595e558c56d15", "type": "electric_scooter", "is_disabled": 0, "lat": 38.910191, "rental_uris": {"ios": "https://dc.lft.to/lastmile_qr_scan", "android": "https://dc.lft.to/lastmile_qr_scan"}, "is_reserved": 0, "fusion_lon": 0.0, "fusion_lat": 0.0, "lon": -77.028155, "name": "75ddc9b660e9ed08230595e558c56d15"}, {"bike_id": "00de932d5a8f2af78a345c2fb99ed87e", "type": "electric_scooter", "is_disabled": 0, "lat": 38.91801616666667, "rental_uris": {"ios": "https://dc.lft.to/lastmile_qr_scan", "android": "https://dc.lft.to/lastmile_qr_scan"}, "is_reserved": 0, "fusion_lon": 0.0, "fusion_lat": 0.0, "lon": -77.03438283333334, "name": "00de932d5a8f2af78a345c2fb99ed87e"}, {"bike_id": "6d1244f80b042ef1dc8e70299f9e8aca", "type": "electric_scooter", "is_disabled": 0, "lat": 38.928863666666665, "rental_uris": {"ios": "https://dc.lft.to/lastmile_qr_scan", "android": "https://dc.lft.to/lastmile_qr_scan"}, "is_reserved": 0, "fusion_lon": 0.0, "fusion_lat": 0.0, "lon": -77.03272883333334, "name": "6d1244f80b042ef1dc8e70299f9e8aca"}, {"bike_id": "31593916bd3cd0cd293d7b23b0def6d9", "type": "electric_scooter", "is_disabled": 0, "lat": 38.8921905, "rental_uris": {"ios": "https://dc.lft.to/lastmile_qr_scan", "android": "https://dc.lft.to/lastmile_qr_scan"}, "is_reserved": 0, "fusion_lon": 0.0, "fusion_lat": 0.0, "lon": -77.03979116666666, "name": "31593916bd3cd0cd293d7b23b0def6d9"}, {"bike_id": "652915056052329173c700fc6b23fa17", "type": "electric_scooter", "is_disabled": 0, "lat": 38.90962066666667, "rental_uris": {"ios": "https://dc.lft.to/lastmile_qr_scan", "android": "https://dc.lft.to/lastmile_qr_scan"}, "is_reserved": 0, "fusion_lon": 0.0, "fusion_lat": 0.0, "lon": -77.014292, "name": "652915056052329173c700fc6b23fa17"}, {"bike_id": "1c920a753743a5a02852eeda6880437b", "type": "electric_scooter", "is_disabled": 0, "lat": 38.858948833333336, "rental_uris": {"ios": "https://dc.lft.to/lastmile_qr_scan", "android": "https://dc.lft.to/lastmile_qr_scan"}, "is_reserved": 0, "fusion_lon": 0.0, "fusion_lat": 0.0, "lon": -76.9973365, "name": "1c920a753743a5a02852eeda6880437b"}, {"bike_id": "bf738db5e13d6ce9ad49b0d6c68f1780", "type": "electric_scooter", "is_disabled": 0, "lat": 38.920584, "rental_uris": {"ios": "https://dc.lft.to/lastmile_qr_scan", "android": "https://dc.lft.to/lastmile_qr_scan"}, "is_reserved": 0, "fusion_lon": 0.0, "fusion_lat": 0.0, "lon": -77.0243025, "name": "bf738db5e13d6ce9ad49b0d6c68f1780"}, {"bike_id": "b9daff13726efcccfbb6720579ed709a", "type": "electric_scooter", "is_disabled": 0, "lat": 38.87813083333333, "rental_uris": {"ios": "https://dc.lft.to/lastmile_qr_scan", "android": "https://dc.lft.to/lastmile_qr_scan"}, "is_reserved": 0, "fusion_lon": 0.0, "fusion_lat": 0.0, "lon": -76.9717055, "name": "b9daff13726efcccfbb6720579ed709a"}, {"bike_id": "2999617020ac3143ad4e9473c941b926", "type": "electric_scooter", "is_disabled": 0, "lat": 38.88143516666667, "rental_uris": {"ios": "https://dc.lft.to/lastmile_qr_scan", "android": "https://dc.lft.to/lastmile_qr_scan"}, "is_reserved": 0, "fusion_lon": 0.0, "fusion_lat": 0.0, "lon": -77.02747316666667, "name": "2999617020ac3143ad4e9473c941b926"}, {"bike_id": "d84cadd6d7ba30e254dccbf307b6c7a5", "type": "electric_scooter", "is_disabled": 0, "lat": 38.9377425, "rental_uris": {"ios": "https://dc.lft.to/lastmile_qr_scan", "android": "https://dc.lft.to/lastmile_qr_scan"}, "is_reserved": 0, "fusion_lon": 0.0, "fusion_lat": 0.0, "lon": -77.01970283333333, "name": "d84cadd6d7ba30e254dccbf307b6c7a5"}, {"bike_id": "f542065a73f9e9abd90687f7e17ce8ab", "type": "electric_scooter", "is_disabled": 0, "lat": 38.89986183333333, "rental_uris": {"ios": "https://dc.lft.to/lastmile_qr_scan", "android": "https://dc.lft.to/lastmile_qr_scan"}, "is_reserved": 0, "fusion_lon": 0.0, "fusion_lat": 0.0, "lon": -76.95000133333333, "name": "f542065a73f9e9abd90687f7e17ce8ab"}, {"bike_id": "295d3136eab594288d16ac693c24f512", "type": "electric_bike", "is_disabled": 0, "lat": 38.863697333333334, "rental_uris": {"ios": "https://dc.lft.to/lastmile_qr_scan", "android": "https://dc.lft.to/lastmile_qr_scan"}, "is_reserved": 0, "fusion_lon": 0.0, "fusion_lat": 0.0, "lon": -76.9701285, "name": "295d3136eab594288d16ac693c24f512"}, {"bike_id": "559a3c1fa20c33c435f35e3e175bd483", "type": "electric_scooter", "is_disabled": 0, "lat": 38.906666, "rental_uris": {"ios": "https://dc.lft.to/lastmile_qr_scan", "android": "https://dc.lft.to/lastmile_qr_scan"}, "is_reserved": 0, "fusion_lon": 0.0, "fusion_lat": 0.0, "lon": -77.06121583333334, "name": "559a3c1fa20c33c435f35e3e175bd483"}, {"bike_id": "9987c2d04d5c4e6e064b1621dac2667f", "type": "electric_scooter", "is_disabled": 0, "lat": 38.9217955, "rental_uris": {"ios": "https://dc.lft.to/lastmile_qr_scan", "android": "https://dc.lft.to/lastmile_qr_scan"}, "is_reserved": 0, "fusion_lon": 0.0, "fusion_lat": 0.0, "lon": -76.99795033333334, "name": "9987c2d04d5c4e6e064b1621dac2667f"}, {"bike_id": "51079603136d91615a36f945b7cc0565", "type": "electric_bike", "is_disabled": 0, "lat": 38.85756333333333, "rental_uris": {"ios": "https://dc.lft.to/lastmile_qr_scan", "android": "https://dc.lft.to/lastmile_qr_scan"}, "is_reserved": 0, "fusion_lon": 0.0, "fusion_lat": 0.0, "lon": -76.987608, "name": "51079603136d91615a36f945b7cc0565"}, {"bike_id": "58557891ab23c4f0f051c261a0fb7d52", "type": "electric_scooter", "is_disabled": 0, "lat": 38.8951675, "rental_uris": {"ios": "https://dc.lft.to/lastmile_qr_scan", "android": "https://dc.lft.to/lastmile_qr_scan"}, "is_reserved": 0, "fusion_lon": 0.0, "fusion_lat": 0.0, "lon": -77.04355066666666, "name": "58557891ab23c4f0f051c261a0fb7d52"}, {"bike_id": "9634be5811fb96104eafca4084a3eb9f", "type": "electric_scooter", "is_disabled": 0, "lat": 38.903534666666665, "rental_uris": {"ios": "https://dc.lft.to/lastmile_qr_scan", "android": "https://dc.lft.to/lastmile_qr_scan"}, "is_reserved": 0, "fusion_lon": 0.0, "fusion_lat": 0.0, "lon": -76.99221466666667, "name": "9634be5811fb96104eafca4084a3eb9f"}, {"bike_id": "db1c011c07f66ff4bc42cc34d474a91b", "type": "electric_scooter", "is_disabled": 0, "lat": 38.911096666666666, "rental_uris": {"ios": "https://dc.lft.to/lastmile_qr_scan", "android": "https://dc.lft.to/lastmile_qr_scan"}, "is_reserved": 0, "fusion_lon": 0.0, "fusion_lat": 0.0, "lon": -77.02767416666667, "name": "db1c011c07f66ff4bc42cc34d474a91b"}, {"bike_id": "ce5da712370cfdeea7b29650f977e83c", "type": "electric_bike", "is_disabled": 0, "lat": 38.96217766666667, "rental_uris": {"ios": "https://dc.lft.to/lastmile_qr_scan", "android": "https://dc.lft.to/lastmile_qr_scan"}, "is_reserved": 0, "fusion_lon": 0.0, "fusion_lat": 0.0, "lon": -77.022383, "name": "ce5da712370cfdeea7b29650f977e83c"}, {"bike_id": "bb715f94d8f2a181e2e32b4d91b72011", "type": "electric_scooter", "is_disabled": 0, "lat": 38.912686, "rental_uris": {"ios": "https://dc.lft.to/lastmile_qr_scan", "android": "https://dc.lft.to/lastmile_qr_scan"}, "is_reserved": 0, "fusion_lon": 0.0, "fusion_lat": 0.0, "lon": -77.02209683333334, "name": "bb715f94d8f2a181e2e32b4d91b72011"}, {"bike_id": "a4d88946c4351e3a6fe65a7e8616ab1e", "type": "electric_bike", "is_disabled": 0, "lat": 39.050993166666665, "rental_uris": {"ios": "https://dc.lft.to/lastmile_qr_scan", "android": "https://dc.lft.to/lastmile_qr_scan"}, "is_reserved": 0, "fusion_lon": 0.0, "fusion_lat": 0.0, "lon": -77.11738316666667, "name": "a4d88946c4351e3a6fe65a7e8616ab1e"}, {"bike_id": "19e83f26d5c6aea725d7bee61dd3c340", "type": "electric_scooter", "is_disabled": 0, "lat": 38.93313833333333, "rental_uris": {"ios": "https://dc.lft.to/lastmile_qr_scan", "android": "https://dc.lft.to/lastmile_qr_scan"}, "is_reserved": 0, "fusion_lon": 0.0, "fusion_lat": 0.0, "lon": -77.02750016666667, "name": "19e83f26d5c6aea725d7bee61dd3c340"}, {"bike_id": "e30f202d147b00c42a9c6a779741b44a", "type": "electric_scooter", "is_disabled": 0, "lat": 38.90536483333333, "rental_uris": {"ios": "https://dc.lft.to/lastmile_qr_scan", "android": "https://dc.lft.to/lastmile_qr_scan"}, "is_reserved": 0, "fusion_lon": 0.0, "fusion_lat": 0.0, "lon": -77.04616433333334, "name": "e30f202d147b00c42a9c6a779741b44a"}, {"bike_id": "7fb35728e4d3b78031cae969d956b8bb", "type": "electric_scooter", "is_disabled": 0, "lat": 38.922270833333336, "rental_uris": {"ios": "https://dc.lft.to/lastmile_qr_scan", "android": "https://dc.lft.to/lastmile_qr_scan"}, "is_reserved": 0, "fusion_lon": 0.0, "fusion_lat": 0.0, "lon": -76.97532366666667, "name": "7fb35728e4d3b78031cae969d956b8bb"}, {"bike_id": "c846eb7e80ea82352670f4526bba3054", "type": "electric_scooter", "is_disabled": 0, "lat": 38.92794333333333, "rental_uris": {"ios": "https://dc.lft.to/lastmile_qr_scan", "android": "https://dc.lft.to/lastmile_qr_scan"}, "is_reserved": 0, "fusion_lon": 0.0, "fusion_lat": 0.0, "lon": -77.04324066666666, "name": "c846eb7e80ea82352670f4526bba3054"}, {"bike_id": "4c4283b0c28b98a8c06330a82a897555", "type": "electric_scooter", "is_disabled": 0, "lat": 38.92191733333333, "rental_uris": {"ios": "https://dc.lft.to/lastmile_qr_scan", "android": "https://dc.lft.to/lastmile_qr_scan"}, "is_reserved": 0, "fusion_lon": 0.0, "fusion_lat": 0.0, "lon": -77.019742, "name": "4c4283b0c28b98a8c06330a82a897555"}, {"bike_id": "e3073a72d6f2657f3682735aafdb3d47", "type": "electric_scooter", "is_disabled": 0, "lat": 38.90490583333333, "rental_uris": {"ios": "https://dc.lft.to/lastmile_qr_scan", "android": "https://dc.lft.to/lastmile_qr_scan"}, "is_reserved": 0, "fusion_lon": 0.0, "fusion_lat": 0.0, "lon": -77.02720533333333, "name": "e3073a72d6f2657f3682735aafdb3d47"}, {"bike_id": "d5faf352c58e2c76821fe02d2c17782b", "type": "electric_bike", "is_disabled": 0, "lat": 38.897433, "rental_uris": {"ios": "https://dc.lft.to/lastmile_qr_scan", "android": "https://dc.lft.to/lastmile_qr_scan"}, "is_reserved": 0, "fusion_lon": 0.0, "fusion_lat": 0.0, "lon": -76.92046283333333, "name": "d5faf352c58e2c76821fe02d2c17782b"}, {"bike_id": "5a1f988c36e4dfc6fc02b36b43a47ceb", "type": "electric_scooter", "is_disabled": 0, "lat": 38.964122, "rental_uris": {"ios": "https://dc.lft.to/lastmile_qr_scan", "android": "https://dc.lft.to/lastmile_qr_scan"}, "is_reserved": 0, "fusion_lon": 0.0, "fusion_lat": 0.0, "lon": -77.0242775, "name": "5a1f988c36e4dfc6fc02b36b43a47ceb"}, {"bike_id": "3beb94e8eef0960213ebe62bc261628f", "type": "electric_scooter", "is_disabled": 0, "lat": 38.898398, "rental_uris": {"ios": "https://dc.lft.to/lastmile_qr_scan", "android": "https://dc.lft.to/lastmile_qr_scan"}, "is_reserved": 0, "fusion_lon": 0.0, "fusion_lat": 0.0, "lon": -77.046611, "name": "3beb94e8eef0960213ebe62bc261628f"}, {"bike_id": "ab9a0e810195a6f8d8334853349fe4f9", "type": "electric_scooter", "is_disabled": 0, "lat": 38.8972, "rental_uris": {"ios": "https://dc.lft.to/lastmile_qr_scan", "android": "https://dc.lft.to/lastmile_qr_scan"}, "is_reserved": 0, "fusion_lon": 0.0, "fusion_lat": 0.0, "lon": -77.0243425, "name": "ab9a0e810195a6f8d8334853349fe4f9"}, {"bike_id": "7f846a9a6526984eb673d20e8d3323be", "type": "electric_scooter", "is_disabled": 0, "lat": 38.92445883333333, "rental_uris": {"ios": "https://dc.lft.to/lastmile_qr_scan", "android": "https://dc.lft.to/lastmile_qr_scan"}, "is_reserved": 0, "fusion_lon": 0.0, "fusion_lat": 0.0, "lon": -77.04202133333334, "name": "7f846a9a6526984eb673d20e8d3323be"}, {"bike_id": "149e67b20e5e11a23ccaa6ca45cf4f79", "type": "electric_scooter", "is_disabled": 0, "lat": 38.92207583333333, "rental_uris": {"ios": "https://dc.lft.to/lastmile_qr_scan", "android": "https://dc.lft.to/lastmile_qr_scan"}, "is_reserved": 0, "fusion_lon": 0.0, "fusion_lat": 0.0, "lon": -77.03296266666666, "name": "149e67b20e5e11a23ccaa6ca45cf4f79"}, {"bike_id": "9e8ffe05de320a9f81295c6fb7ea4c44", "type": "electric_scooter", "is_disabled": 0, "lat": 38.918219, "rental_uris": {"ios": "https://dc.lft.to/lastmile_qr_scan", "android": "https://dc.lft.to/lastmile_qr_scan"}, "is_reserved": 0, "fusion_lon": 0.0, "fusion_lat": 0.0, "lon": -77.04941883333333, "name": "9e8ffe05de320a9f81295c6fb7ea4c44"}, {"bike_id": "b73df7b245d64ae26ea50a1e44f3e339", "type": "electric_scooter", "is_disabled": 0, "lat": 38.911145166666664, "rental_uris": {"ios": "https://dc.lft.to/lastmile_qr_scan", "android": "https://dc.lft.to/lastmile_qr_scan"}, "is_reserved": 0, "fusion_lon": 0.0, "fusion_lat": 0.0, "lon": -77.04460066666667, "name": "b73df7b245d64ae26ea50a1e44f3e339"}, {"bike_id": "3a1d34a95e81ab84c2ae82f08cb92432", "type": "electric_scooter", "is_disabled": 0, "lat": 38.91420166666666, "rental_uris": {"ios": "https://dc.lft.to/lastmile_qr_scan", "android": "https://dc.lft.to/lastmile_qr_scan"}, "is_reserved": 0, "fusion_lon": 0.0, "fusion_lat": 0.0, "lon": -77.02202666666666, "name": "3a1d34a95e81ab84c2ae82f08cb92432"}, {"bike_id": "908ea0c3ef63af8f7c434ae04f18b69b", "type": "electric_scooter", "is_disabled": 0, "lat": 38.91579766666667, "rental_uris": {"ios": "https://dc.lft.to/lastmile_qr_scan", "android": "https://dc.lft.to/lastmile_qr_scan"}, "is_reserved": 0, "fusion_lon": 0.0, "fusion_lat": 0.0, "lon": -77.04462116666667, "name": "908ea0c3ef63af8f7c434ae04f18b69b"}, {"bike_id": "2d6287d89000b5b644d80f1d88aa19f4", "type": "electric_bike", "is_disabled": 0, "lat": 38.87299066666667, "rental_uris": {"ios": "https://dc.lft.to/lastmile_qr_scan", "android": "https://dc.lft.to/lastmile_qr_scan"}, "is_reserved": 0, "fusion_lon": 0.0, "fusion_lat": 0.0, "lon": -77.13936716666667, "name": "2d6287d89000b5b644d80f1d88aa19f4"}, {"bike_id": "ed2477b34a4baba3b6872ba4c136010b", "type": "electric_scooter", "is_disabled": 0, "lat": 38.8847545, "rental_uris": {"ios": "https://dc.lft.to/lastmile_qr_scan", "android": "https://dc.lft.to/lastmile_qr_scan"}, "is_reserved": 0, "fusion_lon": 0.0, "fusion_lat": 0.0, "lon": -76.98223233333333, "name": "ed2477b34a4baba3b6872ba4c136010b"}, {"bike_id": "c7644eee9ca38658b89591dc8747afe7", "type": "electric_scooter", "is_disabled": 0, "lat": 38.8973555, "rental_uris": {"ios": "https://dc.lft.to/lastmile_qr_scan", "android": "https://dc.lft.to/lastmile_qr_scan"}, "is_reserved": 0, "fusion_lon": 0.0, "fusion_lat": 0.0, "lon": -77.032544, "name": "c7644eee9ca38658b89591dc8747afe7"}, {"bike_id": "9183c46765a5b08c829c9fa2b22a617d", "type": "electric_scooter", "is_disabled": 0, "lat": 38.91634833333333, "rental_uris": {"ios": "https://dc.lft.to/lastmile_qr_scan", "android": "https://dc.lft.to/lastmile_qr_scan"}, "is_reserved": 0, "fusion_lon": 0.0, "fusion_lat": 0.0, "lon": -77.025533, "name": "9183c46765a5b08c829c9fa2b22a617d"}, {"bike_id": "f12e994757efe134615bd3ae9994f984", "type": "electric_scooter", "is_disabled": 0, "lat": 38.9207135, "rental_uris": {"ios": "https://dc.lft.to/lastmile_qr_scan", "android": "https://dc.lft.to/lastmile_qr_scan"}, "is_reserved": 0, "fusion_lon": 0.0, "fusion_lat": 0.0, "lon": -77.02840616666667, "name": "f12e994757efe134615bd3ae9994f984"}, {"bike_id": "59cc34d0db398c8b8f435c2268b6e53c", "type": "electric_scooter", "is_disabled": 0, "lat": 38.916326833333336, "rental_uris": {"ios": "https://dc.lft.to/lastmile_qr_scan", "android": "https://dc.lft.to/lastmile_qr_scan"}, "is_reserved": 0, "fusion_lon": 0.0, "fusion_lat": 0.0, "lon": -77.04005216666667, "name": "59cc34d0db398c8b8f435c2268b6e53c"}, {"bike_id": "379e39f86ca0ce566d7e99819ca58a2c", "type": "electric_scooter", "is_disabled": 0, "lat": 38.920335333333334, "rental_uris": {"ios": "https://dc.lft.to/lastmile_qr_scan", "android": "https://dc.lft.to/lastmile_qr_scan"}, "is_reserved": 0, "fusion_lon": 0.0, "fusion_lat": 0.0, "lon": -77.0131165, "name": "379e39f86ca0ce566d7e99819ca58a2c"}, {"bike_id": "6b5189aba06faffa618f41cf61a6f66a", "type": "electric_scooter", "is_disabled": 0, "lat": 38.91561333333333, "rental_uris": {"ios": "https://dc.lft.to/lastmile_qr_scan", "android": "https://dc.lft.to/lastmile_qr_scan"}, "is_reserved": 0, "fusion_lon": 0.0, "fusion_lat": 0.0, "lon": -77.024113, "name": "6b5189aba06faffa618f41cf61a6f66a"}, {"bike_id": "9ccbaa7e2f1c4443e7d459aadfab9109", "type": "electric_scooter", "is_disabled": 0, "lat": 38.90579733333333, "rental_uris": {"ios": "https://dc.lft.to/lastmile_qr_scan", "android": "https://dc.lft.to/lastmile_qr_scan"}, "is_reserved": 0, "fusion_lon": 0.0, "fusion_lat": 0.0, "lon": -76.98435116666667, "name": "9ccbaa7e2f1c4443e7d459aadfab9109"},