{"data": {"bikes": [{"is_disabled": 0, "is_reserved": 0, "fusion_lat": 0.0, "lat": 38.906487, "fusion_lon": 0.0, "rental_uris": {"ios": "https://dc.lft.to/lastmile_qr_scan", "android": "https://dc.lft.to/lastmile_qr_scan"}, "lon": -77.00070833333334, "bike_id": "f729e6bd200339e49af6c50351647798", "type": "electric_scooter", "name": "f729e6bd200339e49af6c50351647798"}, {"is_disabled": 0, "is_reserved": 0, "fusion_lat": 0.0, "lat": 38.89485916666667, "fusion_lon": 0.0, "rental_uris": {"ios": "https://dc.lft.to/lastmile_qr_scan", "android": "https://dc.lft.to/lastmile_qr_scan"}, "lon": -76.97881316666667, "bike_id": "42c7e6794160928d8505873ec503063c", "type": "electric_scooter", "name": "42c7e6794160928d8505873ec503063c"}, {"is_disabled": 0, "is_reserved": 0, "fusion_lat": 0.0, "lat": 38.920876666666665, "fusion_lon": 0.0, "rental_uris": {"ios": "https://dc.lft.to/lastmile_qr_scan", "android": "https://dc.lft.to/lastmile_qr_scan"}, "lon": -77.03159233333334, "bike_id": "55c9f1e0ba923c70b86d75e67cd00dd9", "type": "electric_scooter", "name": "55c9f1e0ba923c70b86d75e67cd00dd9"}, {"is_disabled": 0, "is_reserved": 0, "fusion_lat": 0.0, "lat": 38.8812155, "fusion_lon": 0.0, "rental_uris": {"ios": "https://dc.lft.to/lastmile_qr_scan", "android": "https://dc.lft.to/lastmile_qr_scan"}, "lon": -76.9934255, "bike_id": "709c7d581be20fd999369f2437939e92", "type": "electric_scooter", "name": "709c7d581be20fd999369f2437939e92"}, {"is_disabled": 0, "is_reserved": 0, "fusion_lat": 0.0, "lat": 38.920002, "fusion_lon": 0.0, "rental_uris": {"ios": "https://dc.lft.to/lastmile_qr_scan", "android": "https://dc.lft.to/lastmile_qr_scan"}, "lon": -77.041836, "bike_id": "06ab02acf447bdc39465da22156fa7e4", "type": "electric_scooter", "name": "06ab02acf447bdc39465da22156fa7e4"}, {"is_disabled": 0, "is_reserved": 0, "fusion_lat": 0.0, "lat": 38.932352, "fusion_lon": 0.0, "rental_uris": {"ios": "https://dc.lft.to/lastmile_qr_scan", "android": "https://dc.lft.to/lastmile_qr_scan"}, "lon": -76.99711533333334, "bike_id": "c2d4ec2bd5fbe4d18073f22bbc8c30cf", "type": "electric_scooter", "name": "c2d4ec2bd5fbe4d18073f22bbc8c30cf"}, {"is_disabled": 0, "is_reserved": 0, "fusion_lat": 0.0, "lat": 38.90853583333333, "fusion_lon": 0.0, "rental_uris": {"ios": "https://dc.lft.to/lastmile_qr_scan", "android": "https://dc.lft.to/lastmile_qr_scan"}, "lon": -77.0459135, "bike_id": "f9cefc7e111732e9d833ad6e0bd1c7f5", "type": "electric_scooter", "name": "f9cefc7e111732e9d833ad6e0bd1c7f5"}, {"is_disabled": 0, "is_reserved": 0, "fusion_lat": 0.0, "lat": 38.91557533333334, "fusion_lon": 0.0, "rental_uris": {"ios": "https://dc.lft.to/lastmile_qr_scan", "android": "https://dc.lft.to/lastmile_qr_scan"}, "lon": -77.046208, "bike_id": "d92a9461736cd642a3fce21758c0aeb5", "type": "electric_scooter", "name": "d92a9461736cd642a3fce21758c0aeb5"}, {"is_disabled": 0, "is_reserved": 0, "fusion_lat": 0.0, "lat": 38.915539833333334, "fusion_lon": 0.0, "rental_uris": {"ios": "https://dc.lft.to/lastmile_qr_scan", "android": "https://dc.lft.to/lastmile_qr_scan"}, "lon": -77.0463015, "bike_id": "84fa1203d89b18b99047f6cb7243fb7f", "type": "electric_scooter", "name": "84fa1203d89b18b99047f6cb7243fb7f"}, {"is_disabled": 0, "is_reserved": 0, "fusion_lat": 0.0, "lat": 38.97477533333333, "fusion_lon": 0.0, "rental_uris": {"ios": "https://dc.lft.to/lastmile_qr_scan", "android": "https://dc.lft.to/lastmile_qr_scan"}, "lon": -77.01487016666667, "bike_id": "2edd8c442c52a680cf2a82bccbe3f52f", "type": "electric_scooter", "name": "2edd8c442c52a680cf2a82bccbe3f52f"}, {"is_disabled": 0, "is_reserved": 0, "fusion_lat": 0.0, "lat": 38.903706166666666, "fusion_lon": 0.0, "rental_uris": {"ios": "https://dc.lft.to/lastmile_qr_scan", "android": "https://dc.lft.to/lastmile_qr_scan"}, "lon": -77.05078583333334, "bike_id": "2e1182a879ad868d56ceb6d948413f97", "type": "electric_bike", "name": "2e1182a879ad868d56ceb6d948413f97"}, {"is_disabled": 0, "is_reserved": 0, "fusion_lat": 0.0, "lat": 38.85523833333333, "fusion_lon": 0.0, "rental_uris": {"ios": "https://dc.lft.to/lastmile_qr_scan", "android": "https://dc.lft.to/lastmile_qr_scan"}, "lon": -77.12065883333334, "bike_id": "d3e43b857cd19d2d4fe50bc19667d8f1", "type": "electric_bike", "name": "d3e43b857cd19d2d4fe50bc19667d8f1"}, {"is_disabled": 0, "is_reserved": 0, "fusion_lat": 0.0, "lat": 38.92338616666667, "fusion_lon": 0.0, "rental_uris": {"ios": "https://dc.lft.to/lastmile_qr_scan", "android": "https://dc.lft.to/lastmile_qr_scan"}, "lon": -76.99876833333333, "bike_id": "1c2f747044492c819f18bc9fe56666e7", "type": "electric_scooter", "name": "1c2f747044492c819f18bc9fe56666e7"}, {"is_disabled": 0, "is_reserved": 0, "fusion_lat": 0.0, "lat": 38.922226333333334, "fusion_lon": 0.0, "rental_uris": {"ios": "https://dc.lft.to/lastmile_qr_scan", "android": "https://dc.lft.to/lastmile_qr_scan"}, "lon": -77.01875533333333, "bike_id": "0e9b2dac46df71a26d7fcfbcb279862e", "type": "electric_scooter", "name": "0e9b2dac46df71a26d7fcfbcb279862e"}, {"is_disabled": 0, "is_reserved": 0, "fusion_lat": 0.0, "lat": 38.908319, "fusion_lon": 0.0, "rental_uris": {"ios": "https://dc.lft.to/lastmile_qr_scan", "android": "https://dc.lft.to/lastmile_qr_scan"}, "lon": -76.99692033333334, "bike_id": "a44d41ad405f5e8a4dfd08e6bff88ad3", "type": "electric_scooter", "name": "a44d41ad405f5e8a4dfd08e6bff88ad3"}, {"is_disabled": 0, "is_reserved": 0, "fusion_lat": 0.0, "lat": 38.8827135, "fusion_lon": 0.0, "rental_uris": {"ios": "https://dc.lft.to/lastmile_qr_scan", "android": "https://dc.lft.to/lastmile_qr_scan"}, "lon": -76.99017933333333, "bike_id": "9b874c24df38c3d7713b9133b9f4f212", "type": "electric_scooter", "name": "9b874c24df38c3d7713b9133b9f4f212"}, {"is_disabled": 0, "is_reserved": 0, "fusion_lat": 0.0, "lat": 38.9191035, "fusion_lon": 0.0, "rental_uris": {"ios": "https://dc.lft.to/lastmile_qr_scan", "android": "https://dc.lft.to/lastmile_qr_scan"}, "lon": -77.05999783333333, "bike_id": "ffdf0f6fb084578fc0f95f0eb447c4ff", "type": "electric_bike", "name": "ffdf0f6fb084578fc0f95f0eb447c4ff"}, {"is_disabled": 0, "is_reserved": 0, "fusion_lat": 0.0, "lat": 38.897164333333336, "fusion_lon": 0.0, "rental_uris": {"ios": "https://dc.lft.to/lastmile_qr_scan", "android": "https://dc.lft.to/lastmile_qr_scan"}, "lon": -77.03180233333333, "bike_id": "ca15b1c511fa741cd2ebbe83778ab548", "type": "electric_scooter", "name": "ca15b1c511fa741cd2ebbe83778ab548"}, {"is_disabled": 0, "is_reserved": 0, "fusion_lat": 0.0, "lat": 38.892297, "fusion_lon": 0.0, "rental_uris": {"ios": "https://dc.lft.to/lastmile_qr_scan", "android": "https://dc.lft.to/lastmile_qr_scan"}, "lon": -77.05002133333333, "bike_id": "da0755fd0dd6dfd0c5f848c748a54310", "type": "electric_scooter", "name": "da0755fd0dd6dfd0c5f848c748a54310"}, {"is_disabled": 0, "is_reserved": 0, "fusion_lat": 0.0, "lat": 39.00378766666667, "fusion_lon": 0.0, "rental_uris": {"ios": "https://dc.lft.to/lastmile_qr_scan", "android": "https://dc.lft.to/lastmile_qr_scan"}, "lon": -77.01292816666667, "bike_id": "1e1b379957b3be3d8fe0b9b7378ad4c8", "type": "electric_bike", "name": "1e1b379957b3be3d8fe0b9b7378ad4c8"}, {"is_disabled": 0, "is_reserved": 0, "fusion_lat": 0.0, "lat": 38.91555666666667, "fusion_lon": 0.0, "rental_uris": {"ios": "https://dc.lft.to/lastmile_qr_scan", "android": "https://dc.lft.to/lastmile_qr_scan"}, "lon": -77.0347095, "bike_id": "7a3ed380c110a844b0650cbed80caa2a", "type": "electric_scooter", "name": "7a3ed380c110a844b0650cbed80caa2a"}, {"is_disabled": 0, "is_reserved": 0, "fusion_lat": 0.0, "lat": 38.935605833333334, "fusion_lon": 0.0, "rental_uris": {"ios": "https://dc.lft.to/lastmile_qr_scan", "android": "https://dc.lft.to/lastmile_qr_scan"}, "lon": -76.9910245, "bike_id": "abc5ccccb39ff61ac5d8e5ca2f6617ce", "type": "electric_scooter", "name": "abc5ccccb39ff61ac5d8e5ca2f6617ce"}, {"is_disabled": 0, "is_reserved": 0, "fusion_lat": 0.0, "lat": 38.915485333333336, "fusion_lon": 0.0, "rental_uris": {"ios": "https://dc.lft.to/lastmile_qr_scan", "android": "https://dc.lft.to/lastmile_qr_scan"}, "lon": -77.02181316666666, "bike_id": "a01a2269b31bd9a1cb96f4c9b20b800d", "type": "electric_scooter", "name": "a01a2269b31bd9a1cb96f4c9b20b800d"}, {"is_disabled": 0, "is_reserved": 0, "fusion_lat": 0.0, "lat": 38.953626, "fusion_lon": 0.0, "rental_uris": {"ios": "https://dc.lft.to/lastmile_qr_scan", "android": "https://dc.lft.to/lastmile_qr_scan"}, "lon": -76.94293566666667, "bike_id": "ae3726e2745537fe20cd9987950a6b58", "type": "electric_bike", "name": "ae3726e2745537fe20cd9987950a6b58"}, {"is_disabled": 0, "is_reserved": 0, "fusion_lat": 0.0, "lat": 38.930727, "fusion_lon": 0.0, "rental_uris": {"ios": "https://dc.lft.to/lastmile_qr_scan", "android": "https://dc.lft.to/lastmile_qr_scan"}, "lon": -77.07767416666667, "bike_id": "de992e7f3d314f8c300f5f00f16981e9", "type": "electric_scooter", "name": "de992e7f3d314f8c300f5f00f16981e9"}, {"is_disabled": 0, "is_reserved": 0, "fusion_lat": 0.0, "lat": 38.912631, "fusion_lon": 0.0, "rental_uris": {"ios": "https://dc.lft.to/lastmile_qr_scan", "android": "https://dc.lft.to/lastmile_qr_scan"}, "lon": -77.022535, "bike_id": "2c85541afa32b66919210401d709df9a", "type": "electric_scooter", "name": "2c85541afa32b66919210401d709df9a"}, {"is_disabled": 0, "is_reserved": 0, "fusion_lat": 0.0, "lat": 38.9396845, "fusion_lon": 0.0, "rental_uris": {"ios": "https://dc.lft.to/lastmile_qr_scan", "android": "https://dc.lft.to/lastmile_qr_scan"}, "lon": -77.0343345, "bike_id": "4128d9efcc3438f1e567aa76840dae64", "type": "electric_scooter", "name": "4128d9efcc3438f1e567aa76840dae64"}, {"is_disabled": 0, "is_reserved": 0, "fusion_lat": 0.0, "lat": 38.9180595, "fusion_lon": 0.0, "rental_uris": {"ios": "https://dc.lft.to/lastmile_qr_scan", "android": "https://dc.lft.to/lastmile_qr_scan"}, "lon": -77.0343575, "bike_id": "fd3e4dfa692e6500b9c3fc6552f5a203", "type": "electric_scooter", "name": "fd3e4dfa692e6500b9c3fc6552f5a203"}, {"is_disabled": 0, "is_reserved": 0, "fusion_lat": 0.0, "lat": 38.87293866666667, "fusion_lon": 0.0, "rental_uris": {"ios": "https://dc.lft.to/lastmile_qr_scan", "android": "https://dc.lft.to/lastmile_qr_scan"}, "lon": -77.0098805, "bike_id": "2d890d20a3d9b6dfa67e6108dd48876b", "type": "electric_scooter", "name": "2d890d20a3d9b6dfa67e6108dd48876b"}, {"is_disabled": 0, "is_reserved": 0, "fusion_lat": 0.0, "lat": 38.91964983333333, "fusion_lon": 0.0, "rental_uris": {"ios": "https://dc.lft.to/lastmile_qr_scan", "android": "https://dc.lft.to/lastmile_qr_scan"}, "lon": -77.02300333333334, "bike_id": "5e835c9582341be9e64633fd3264184f", "type": "electric_scooter", "name": "5e835c9582341be9e64633fd3264184f"}, {"is_disabled": 0, "is_reserved": 0, "fusion_lat": 0.0, "lat": 38.8629235, "fusion_lon": 0.0, "rental_uris": {"ios": "https://dc.lft.to/lastmile_qr_scan", "android": "https://dc.lft.to/lastmile_qr_scan"}, "lon": -76.94523066666666, "bike_id": "d9cacdd6b2961925032fd743fec8adf7", "type": "electric_bike", "name": "d9cacdd6b2961925032fd743fec8adf7"}, {"is_disabled": 0, "is_reserved": 0, "fusion_lat": 0.0, "lat": 38.93510333333333, "fusion_lon": 0.0, "rental_uris": {"ios": "https://dc.lft.to/lastmile_qr_scan", "android": "https://dc.lft.to/lastmile_qr_scan"}, "lon": -77.02855683333334, "bike_id": "705f4eb55e6eea107092e06f9d9ee5a0", "type": "electric_scooter", "name": "705f4eb55e6eea107092e06f9d9ee5a0"}, {"is_disabled": 0, "is_reserved": 0, "fusion_lat": 0.0, "lat": 38.919127, "fusion_lon": 0.0, "rental_uris": {"ios": "https://dc.lft.to/lastmile_qr_scan", "android": "https://dc.lft.to/lastmile_qr_scan"}, "lon": -77.044682, "bike_id": "ef0572ffc03638f7eb3c15ba5151b5d8", "type": "electric_scooter", "name": "ef0572ffc03638f7eb3c15ba5151b5d8"}, {"is_disabled": 0, "is_reserved": 0, "fusion_lat": 0.0, "lat": 38.900325, "fusion_lon": 0.0, "rental_uris": {"ios": "https://dc.lft.to/lastmile_qr_scan", "android": "https://dc.lft.to/lastmile_qr_scan"}, "lon": -77.00365733333334, "bike_id": "60f0ae7291210f7fcbfbbb4436e37973", "type": "electric_scooter", "name": "60f0ae7291210f7fcbfbbb4436e37973"}, {"is_disabled": 0, "is_reserved": 0, "fusion_lat": 0.0, "lat": 38.9165845, "fusion_lon": 0.0, "rental_uris": {"ios": "https://dc.lft.to/lastmile_qr_scan", "android": "https://dc.lft.to/lastmile_qr_scan"}, "lon": -77.0385295, "bike_id": "a119ce17767701fa71f4d6f92ec76fd5", "type": "electric_scooter", "name": "a119ce17767701fa71f4d6f92ec76fd5"}, {"is_disabled": 0, "is_reserved": 0, "fusion_lat": 0.0, "lat": 38.92670183333333, "fusion_lon": 0.0, "rental_uris": {"ios": "https://dc.lft.to/lastmile_qr_scan", "android": "https://dc.lft.to/lastmile_qr_scan"}, "lon": -77.03029133333334, "bike_id": "7c65b8c3d542025deeb7399ca43836ca", "type": "electric_scooter", "name": "7c65b8c3d542025deeb7399ca43836ca"}, {"is_disabled": 0, "is_reserved": 0, "fusion_lat": 0.0, "lat": 38.9168755, "fusion_lon": 0.0, "rental_uris": {"ios": "https://dc.lft.to/lastmile_qr_scan", "android": "https://dc.lft.to/lastmile_qr_scan"}, "lon": -77.02968116666666, "bike_id": "e157e2fcc476272204b18e5afa0f8aed", "type": "electric_scooter", "name": "e157e2fcc476272204b18e5afa0f8aed"}, {"is_disabled": 0, "is_reserved": 0, "fusion_lat": 0.0, "lat": 38.91654333333334, "fusion_lon": 0.0, "rental_uris": {"ios": "https://dc.lft.to/lastmile_qr_scan", "android": "https://dc.lft.to/lastmile_qr_scan"}, "lon": -77.02416833333334, "bike_id": "d88619f1a74647ee1d20add5fd72a61f", "type": "electric_scooter", "name": "d88619f1a74647ee1d20add5fd72a61f"}, {"is_disabled": 0, "is_reserved": 0, "fusion_lat": 0.0, "lat": 38.9109755, "fusion_lon": 0.0, "rental_uris": {"ios": "https://dc.lft.to/lastmile_qr_scan", "android": "https://dc.lft.to/lastmile_qr_scan"}, "lon": -77.038412, "bike_id": "f50fc5f965e38d3709ec1b2a5736eb4e", "type": "electric_scooter", "name": "f50fc5f965e38d3709ec1b2a5736eb4e"}, {"is_disabled": 0, "is_reserved": 0, "fusion_lat": 0.0, "lat": 38.95687866666667, "fusion_lon": 0.0, "rental_uris": {"ios": "https://dc.lft.to/lastmile_qr_scan", "android": "https://dc.lft.to/lastmile_qr_scan"}, "lon": -77.02230083333333, "bike_id": "76fe1b40b51277e8f66e8cfc1808ad50", "type": "electric_scooter", "name": "76fe1b40b51277e8f66e8cfc1808ad50"}, {"is_disabled": 0, "is_reserved": 0, "fusion_lat": 0.0, "lat": 38.896240166666665, "fusion_lon": 0.0, "rental_uris": {"ios": "https://dc.lft.to/lastmile_qr_scan", "android": "https://dc.lft.to/lastmile_qr_scan"}, "lon": -76.90752633333334, "bike_id": "d805716680ecee1994f7b86ce5f8f0b5", "type": "electric_bike", "name": "d805716680ecee1994f7b86ce5f8f0b5"}, {"is_disabled": 0, "is_reserved": 0, "fusion_lat": 0.0, "lat": 38.92297416666667, "fusion_lon": 0.0, "rental_uris": {"ios": "https://dc.lft.to/lastmile_qr_scan", "android": "https://dc.lft.to/lastmile_qr_scan"}, "lon": -77.0297295, "bike_id": "7621166df6ceb05a19bfe87bddf4065e", "type": "electric_scooter", "name": "7621166df6ceb05a19bfe87bddf4065e"}, {"is_disabled": 0, "is_reserved": 0, "fusion_lat": 0.0, "lat": 38.90257783333333, "fusion_lon": 0.0, "rental_uris": {"ios": "https://dc.lft.to/lastmile_qr_scan", "android": "https://dc.lft.to/lastmile_qr_scan"}, "lon": -77.03963583333334, "bike_id": "d2d295900da683c5a6a76bd2a23e9f19", "type": "electric_scooter", "name": "d2d295900da683c5a6a76bd2a23e9f19"}, {"is_disabled": 0, "is_reserved": 0, "fusion_lat": 0.0, "lat": 38.876664833333336, "fusion_lon": 0.0, "rental_uris": {"ios": "https://dc.lft.to/lastmile_qr_scan", "android": "https://dc.lft.to/lastmile_qr_scan"}, "lon": -76.9962625, "bike_id": "4b9a55bca1c8a7ce803062192c5e8cf1", "type": "electric_scooter", "name": "4b9a55bca1c8a7ce803062192c5e8cf1"}, {"is_disabled": 0, "is_reserved": 0, "fusion_lat": 0.0, "lat": 38.90262966666667, "fusion_lon": 0.0, "rental_uris": {"ios": "https://dc.lft.to/lastmile_qr_scan", "android": "https://dc.lft.to/lastmile_qr_scan"}, "lon": -77.05196533333333, "bike_id": "38a61c11a09d91c4954801c761f6632c", "type": "electric_scooter", "name": "38a61c11a09d91c4954801c761f6632c"}, {"is_disabled": 0, "is_reserved": 0, "fusion_lat": 0.0, "lat": 38.912463, "fusion_lon": 0.0, "rental_uris": {"ios": "https://dc.lft.to/lastmile_qr_scan", "android": "https://dc.lft.to/lastmile_qr_scan"}, "lon": -77.0477325, "bike_id": "b4becafd654bea494af45588da7a9bd7", "type": "electric_scooter", "name": "b4becafd654bea494af45588da7a9bd7"}, {"is_disabled": 0, "is_reserved": 0, "fusion_lat": 0.0, "lat": 38.820334, "fusion_lon": 0.0, "rental_uris": {"ios": "https://dc.lft.to/lastmile_qr_scan", "android": "https://dc.lft.to/lastmile_qr_scan"}, "lon": -77.05454716666667, "bike_id": "fecb59f7e79d2ec544ae703b8bc77a0b", "type": "electric_bike", "name": "fecb59f7e79d2ec544ae703b8bc77a0b"}, {"is_disabled": 0, "is_reserved": 0, "fusion_lat": 0.0, "lat": 38.9110025, "fusion_lon": 0.0, "rental_uris": {"ios": "https://dc.lft.to/lastmile_qr_scan", "android": "https://dc.lft.to/lastmile_qr_scan"}, "lon": -77.03198816666666, "bike_id": "2523ba7f9ab5da2f8ec4e82b48604d03", "type": "electric_scooter", "name": "2523ba7f9ab5da2f8ec4e82b48604d03"}, {"is_disabled": 0, "is_reserved": 0, "fusion_lat": 0.0, "lat": 38.8948285, "fusion_lon": 0.0, "rental_uris": {"ios": "https://dc.lft.to/lastmile_qr_scan", "android": "https://dc.lft.to/lastmile_qr_scan"}, "lon": -77.02288183333333, "bike_id": "cab6a9bd233d3821ea040f1a725a1fd6", "type": "electric_scooter", "name": "cab6a9bd233d3821ea040f1a725a1fd6"}, {"is_disabled": 0, "is_reserved": 0, "fusion_lat": 0.0, "lat": 38.905249166666664, "fusion_lon": 0.0, "rental_uris": {"ios": "https://dc.lft.to/lastmile_qr_scan", "android": "https://dc.lft.to/lastmile_qr_scan"}, "lon": -77.06516116666667, "bike_id": "1535b2e10f88593a89a7ded9d2656d3e", "type": "electric_scooter", "name": "1535b2e10f88593a89a7ded9d2656d3e"}, {"is_disabled": 0, "is_reserved": 0, "fusion_lat": 0.0, "lat": 38.8964825, "fusion_lon": 0.0, "rental_uris": {"ios": "https://dc.lft.to/lastmile_qr_scan", "android": "https://dc.lft.to/lastmile_qr_scan"}, "lon": -77.02583566666667, "bike_id": "3eda7f6eff31c2866efee40c30a23a3a", "type": "electric_scooter", "name": "3eda7f6eff31c2866efee40c30a23a3a"}, {"is_disabled": 0, "is_reserved": 0, "fusion_lat": 0.0, "lat": 38.910175833333334, "fusion_lon": 0.0, "rental_uris": {"ios": "https://dc.lft.to/lastmile_qr_scan", "android": "https://dc.lft.to/lastmile_qr_scan"}, "lon": -77.0318775, "bike_id": "d9721ab48b466799c6dc59c12efff95e", "type": "electric_scooter", "name": "d9721ab48b466799c6dc59c12efff95e"}, {"is_disabled": 0, "is_reserved": 0, "fusion_lat": 0.0, "lat": 38.896055, "fusion_lon": 0.0, "rental_uris": {"ios": "https://dc.lft.to/lastmile_qr_scan", "android": "https://dc.lft.to/lastmile_qr_scan"}, "lon": -76.98313466666667, "bike_id": "5a7d68fac1d53d73903933f4c90b4c95", "type": "electric_scooter", "name": "5a7d68fac1d53d73903933f4c90b4c95"}, {"is_disabled": 0, "is_reserved": 0, "fusion_lat": 0.0, "lat": 38.91569366666667, "fusion_lon": 0.0, "rental_uris": {"ios": "https://dc.lft.to/lastmile_qr_scan", "android": "https://dc.lft.to/lastmile_qr_scan"}, "lon": -77.05038283333333, "bike_id": "259c9c6c7bcdf426be37556acfd61ff2", "type": "electric_scooter", "name": "259c9c6c7bcdf426be37556acfd61ff2"}, {"is_disabled": 0, "is_reserved": 0, "fusion_lat": 0.0, "lat": 38.912621333333334, "fusion_lon": 0.0, "rental_uris": {"ios": "https://dc.lft.to/lastmile_qr_scan", "android": "https://dc.lft.to/lastmile_qr_scan"}, "lon": -77.03300533333334, "bike_id": "49b8887ceb37562de3d0a73c7c85bc3f", "type": "electric_scooter", "name": "49b8887ceb37562de3d0a73c7c85bc3f"}, {"is_disabled": 0, "is_reserved": 0, "fusion_lat": 0.0, "lat": 38.86888033333334, "fusion_lon": 0.0, "rental_uris": {"ios": "https://dc.lft.to/lastmile_qr_scan", "android": "https://dc.lft.to/lastmile_qr_scan"}, "lon": -76.989975, "bike_id": "fbfceac91508bde05f3811cee51cff88", "type": "electric_scooter", "name": "fbfceac91508bde05f3811cee51cff88"}, {"is_disabled": 0, "is_reserved": 0, "fusion_lat": 0.0, "lat": 38.88047683333333, "fusion_lon": 0.0, "rental_uris": {"ios": "https://dc.lft.to/lastmile_qr_scan", "android": "https://dc.lft.to/lastmile_qr_scan"}, "lon": -77.0132975, "bike_id": "228d0e33e5c29c59da1f2f839316b9fb", "type": "electric_scooter", "name": "228d0e33e5c29c59da1f2f839316b9fb"}, {"is_disabled": 0, "is_reserved": 0, "fusion_lat": 0.0, "lat": 38.824308, "fusion_lon": 0.0, "rental_uris": {"ios": "https://dc.lft.to/lastmile_qr_scan", "android": "https://dc.lft.to/lastmile_qr_scan"}, "lon": -77.12041416666666, "bike_id": "169e5aed365a62710ad79191f34ceaba", "type": "electric_bike", "name": "169e5aed365a62710ad79191f34ceaba"}, {"is_disabled": 0, "is_reserved": 0, "fusion_lat": 0.0, "lat": 38.897342333333334, "fusion_lon": 0.0, "rental_uris": {"ios": "https://dc.lft.to/lastmile_qr_scan", "android": "https://dc.lft.to/lastmile_qr_scan"}, "lon": -77.02732783333333, "bike_id": "2f3800f1734cce09540b80d583fb7fe0", "type": "electric_scooter", "name": "2f3800f1734cce09540b80d583fb7fe0"}, {"is_disabled": 0, "is_reserved": 0, "fusion_lat": 0.0, "lat": 38.8822, "fusion_lon": 0.0, "rental_uris": {"ios": "https://dc.lft.to/lastmile_qr_scan", "android": "https://dc.lft.to/lastmile_qr_scan"}, "lon": -76.9973405, "bike_id": "64544378015d08688056f7c253d99c74", "type": "electric_scooter", "name": "64544378015d08688056f7c253d99c74"}, {"is_disabled": 0, "is_reserved": 0, "fusion_lat": 0.0, "lat": 38.856396833333335, "fusion_lon": 0.0, "rental_uris": {"ios": "https://dc.lft.to/lastmile_qr_scan", "android": "https://dc.lft.to/lastmile_qr_scan"}, "lon": -77.06832966666667, "bike_id": "08cb4eedf76c371e7007e486991ccf6c", "type": "electric_bike", "name": "08cb4eedf76c371e7007e486991ccf6c"}, {"is_disabled": 0, "is_reserved": 0, "fusion_lat": 0.0, "lat": 38.89232116666667, "fusion_lon": 0.0, "rental_uris": {"ios": "https://dc.lft.to/lastmile_qr_scan", "android": "https://dc.lft.to/lastmile_qr_scan"}, "lon": -77.02172216666666, "bike_id": "c50f69a3d42926290a90f9048b489749", "type": "electric_scooter", "name": "c50f69a3d42926290a90f9048b489749"}, {"is_disabled": 0, "is_reserved": 0, "fusion_lat": 0.0, "lat": 38.916977833333334, "fusion_lon": 0.0, "rental_uris": {"ios": "https://dc.lft.to/lastmile_qr_scan", "android": "https://dc.lft.to/lastmile_qr_scan"}, "lon": -77.028504, "bike_id": "42ca0d54fbee8f1f09e610365b1bb57b", "type": "electric_scooter", "name": "42ca0d54fbee8f1f09e610365b1bb57b"}, {"is_disabled": 0, "is_reserved": 0, "fusion_lat": 0.0, "lat": 38.86552666666667, "fusion_lon": 0.0, "rental_uris": {"ios": "https://dc.lft.to/lastmile_qr_scan", "android": "https://dc.lft.to/lastmile_qr_scan"}, "lon": -76.9747615, "bike_id": "57e647c78530d751269d17a4327c4f28", "type": "electric_bike", "name": "57e647c78530d751269d17a4327c4f28"}, {"is_disabled": 0, "is_reserved": 0, "fusion_lat": 0.0, "lat": 38.90065583333333, "fusion_lon": 0.0, "rental_uris": {"ios": "https://dc.lft.to/lastmile_qr_scan", "android": "https://dc.lft.to/lastmile_qr_scan"}, "lon": -77.0382025, "bike_id": "86ef7aebee2f27c9131df80171a63c12", "type": "electric_scooter", "name": "86ef7aebee2f27c9131df80171a63c12"}, {"is_disabled": 0, "is_reserved": 0, "fusion_lat": 0.0, "lat": 38.8730135, "fusion_lon": 0.0, "rental_uris": {"ios": "https://dc.lft.to/lastmile_qr_scan", "android": "https://dc.lft.to/lastmile_qr_scan"}, "lon": -77.010705, "bike_id": "95dcfa7d39e8a388377d0d084a1840c8", "type": "electric_scooter", "name": "95dcfa7d39e8a388377d0d084a1840c8"}, {"is_disabled": 0, "is_reserved": 0, "fusion_lat": 0.0, "lat": 38.91665416666667, "fusion_lon": 0.0, "rental_uris": {"ios": "https://dc.lft.to/lastmile_qr_scan", "android": "https://dc.lft.to/lastmile_qr_scan"}, "lon": -77.04648216666666, "bike_id": "fd419984797c87eaf7bf8223fa053ca1", "type": "electric_scooter", "name": "fd419984797c87eaf7bf8223fa053ca1"}, {"is_disabled": 0, "is_reserved": 0, "fusion_lat": 0.0, "lat": 38.911799333333335, "fusion_lon": 0.0, "rental_uris": {"ios": "https://dc.lft.to/lastmile_qr_scan", "android": "https://dc.lft.to/lastmile_qr_scan"}, "lon": -77.0121305, "bike_id": "43c9cdcf83acc2c85b80e2df6d242d4a", "type": "electric_scooter", "name": "43c9cdcf83acc2c85b80e2df6d242d4a"}, {"is_disabled": 0, "is_reserved": 0, "fusion_lat": 0.0, "lat": 38.90958166666667, "fusion_lon": 0.0, "rental_uris": {"ios": "https://dc.lft.to/lastmile_qr_scan", "android": "https://dc.lft.to/lastmile_qr_scan"}, "lon": -77.02388866666666, "bike_id": "834356f661661ae244f30b59e0e54dce", "type": "electric_scooter", "name": "834356f661661ae244f30b59e0e54dce"}, {"is_disabled": 0, "is_reserved": 0, "fusion_lat": 0.0, "lat": 38.91808266666666, "fusion_lon": 0.0, "rental_uris": {"ios": "https://dc.lft.to/lastmile_qr_scan", "android": "https://dc.lft.to/lastmile_qr_scan"}, "lon": -77.0000335, "bike_id": "8d5ce3986cf249a3271cd4a54ecbf390", "type": "electric_scooter", "name": "8d5ce3986cf249a3271cd4a54ecbf390"}, {"is_disabled": 0, "is_reserved": 0, "fusion_lat": 0.0, "lat": 38.89940883333333, "fusion_lon": 0.0, "rental_uris": {"ios": "https://dc.lft.to/lastmile_qr_scan", "android": "https://dc.lft.to/lastmile_qr_scan"}, "lon": -76.9376265, "bike_id": "80e9745360a6f23844f11edb24d25f02", "type": "electric_scooter", "name": "80e9745360a6f23844f11edb24d25f02"}, {"is_disabled": 0, "is_reserved": 0, "fusion_lat": 0.0, "lat": 38.92830083333333, "fusion_lon": 0.0, "rental_uris": {"ios": "https://dc.lft.to/lastmile_qr_scan", "android": "https://dc.lft.to/lastmile_qr_scan"}, "lon": -77.05965583333334, "bike_id": "06bb7f241fdd72f280e41a629a128ca1", "type": "electric_bike", "name": "06bb7f241fdd72f280e41a629a128ca1"}, {"is_disabled": 0, "is_reserved": 0, "fusion_lat": 0.0, "lat": 38.889744, "fusion_lon": 0.0, "rental_uris": {"ios": "https://dc.lft.to/lastmile_qr_scan", "android": "https://dc.lft.to/lastmile_qr_scan"}, "lon": -76.98174983333334, "bike_id": "762e00c7273a1cc644e2a67351bb66e7", "type": "electric_scooter", "name": "762e00c7273a1cc644e2a67351bb66e7"}, {"is_disabled": 0, "is_reserved": 0, "fusion_lat": 0.0, "lat": 38.904857166666666, "fusion_lon": 0.0, "rental_uris": {"ios": "https://dc.lft.to/lastmile_qr_scan", "android": "https://dc.lft.to/lastmile_qr_scan"}, "lon": -77.02967383333333, "bike_id": "6c1d2e86527786d220473e5ce0e36bf5", "type": "electric_scooter", "name": "6c1d2e86527786d220473e5ce0e36bf5"}, {"is_disabled": 0, "is_reserved": 0, "fusion_lat": 0.0, "lat": 38.90399333333333, "fusion_lon": 0.0, "rental_uris": {"ios": "https://dc.lft.to/lastmile_qr_scan", "android": "https://dc.lft.to/lastmile_qr_scan"}, "lon": -77.03822466666666, "bike_id": "885e51170f38585f63185bab236d7f5f", "type": "electric_scooter", "name": "885e51170f38585f63185bab236d7f5f"}, {"is_disabled": 0, "is_reserved": 0, "fusion_lat": 0.0, "lat": 38.907454666666666, "fusion_lon": 0.0, "rental_uris": {"ios": "https://dc.lft.to/lastmile_qr_scan", "android": "https://dc.lft.to/lastmile_qr_scan"}, "lon": -77.045413, "bike_id": "e41b65d9f600f261421e4f1c1153d722", "type": "electric_scooter", "name": "e41b65d9f600f261421e4f1c1153d722"}, {"is_disabled": 0, "is_reserved": 0, "fusion_lat": 0.0, "lat": 38.892185166666664, "fusion_lon": 0.0, "rental_uris": {"ios": "https://dc.lft.to/lastmile_qr_scan", "android": "https://dc.lft.to/lastmile_qr_scan"}, "lon": -77.0320095, "bike_id": "e5f1ca0148371f27b8ba9c4f5ef269b0", "type": "electric_scooter", "name": "e5f1ca0148371f27b8ba9c4f5ef269b0"}, {"is_disabled": 0, "is_reserved": 0, "fusion_lat": 0.0, "lat": 38.917107666666666, "fusion_lon": 0.0, "rental_uris": {"ios": "https://dc.lft.to/lastmile_qr_scan", "android": "https://dc.lft.to/lastmile_qr_scan"}, "lon": -77.03209783333334, "bike_id": "0d6f9810c2e11a5b5f148ffa3622aafc", "type": "electric_scooter", "name": "0d6f9810c2e11a5b5f148ffa3622aafc"}, {"is_disabled": 0, "is_reserved": 0, "fusion_lat": 0.0, "lat": 38.920267333333335, "fusion_lon": 0.0, "rental_uris": {"ios": "https://dc.lft.to/lastmile_qr_scan", "android": "https://dc.lft.to/lastmile_qr_scan"}, "lon": -77.03125116666666, "bike_id": "e5e644d08e756be8a118b9b8729c97b0", "type": "electric_scooter", "name": "e5e644d08e756be8a118b9b8729c97b0"}, {"is_disabled": 0, "is_reserved": 0, "fusion_lat": 0.0, "lat": 38.974481833333336, "fusion_lon": 0.0, "rental_uris": {"ios": "https://dc.lft.to/lastmile_qr_scan", "android": "https://dc.lft.to/lastmile_qr_scan"}, "lon": -77.09587216666667, "bike_id": "ef625b1aae3f8164535b9cccb9de5469", "type": "electric_bike", "name": "ef625b1aae3f8164535b9cccb9de5469"}, {"is_disabled": 0, "is_reserved": 0, "fusion_lat": 0.0, "lat": 38.897395833333334, "fusion_lon": 0.0, "rental_uris": {"ios": "https://dc.lft.to/lastmile_qr_scan", "android": "https://dc.lft.to/lastmile_qr_scan"}, "lon": -77.00775666666667, "bike_id": "bf63b4320d7d1a0dbb18e50d0a9a2cbc", "type": "electric_scooter", "name": "bf63b4320d7d1a0dbb18e50d0a9a2cbc"}, {"is_disabled": 0, "is_reserved": 0, "fusion_lat": 0.0, "lat": 38.8984765, "fusion_lon": 0.0, "rental_uris": {"ios": "https://dc.lft.to/lastmile_qr_scan", "android": "https://dc.lft.to/lastmile_qr_scan"}, "lon": -77.00199783333333, "bike_id": "90cf8dd70404c83f678cb643a274dc21", "type": "electric_scooter", "name": "90cf8dd70404c83f678cb643a274dc21"}, {"is_disabled": 0, "is_reserved": 0, "fusion_lat": 0.0, "lat": 38.92293516666667, "fusion_lon": 0.0, "rental_uris": {"ios": "https://dc.lft.to/lastmile_qr_scan", "android": "https://dc.lft.to/lastmile_qr_scan"}, "lon": -77.03413233333333, "bike_id": "c0c2f03823f3d0f864f01c1798b90d04", "type": "electric_scooter", "name": "c0c2f03823f3d0f864f01c1798b90d04"}, {"is_disabled": 0, "is_reserved": 0, "fusion_lat": 0.0, "lat": 38.876564, "fusion_lon": 0.0, "rental_uris": {"ios": "https://dc.lft.to/lastmile_qr_scan", "android": "https://dc.lft.to/lastmile_qr_scan"}, "lon": -77.00882216666666, "bike_id": "21a677f8dd85707737b06a78e477530f", "type": "electric_scooter", "name": "21a677f8dd85707737b06a78e477530f"}, {"is_disabled": 0, "is_reserved": 0, "fusion_lat": 0.0, "lat": 38.92224133333333, "fusion_lon": 0.0, "rental_uris": {"ios": "https://dc.lft.to/lastmile_qr_scan", "android": "https://dc.lft.to/lastmile_qr_scan"}, "lon": -77.04242566666667, "bike_id": "b48130a0106bc8d8023a75d50f414bcc", "type": "electric_scooter", "name": "b48130a0106bc8d8023a75d50f414bcc"}, {"is_disabled": 0, "is_reserved": 0, "fusion_lat": 0.0, "lat": 38.894572, "fusion_lon": 0.0, "rental_uris": {"ios": "https://dc.lft.to/lastmile_qr_scan", "android": "https://dc.lft.to/lastmile_qr_scan"}, "lon": -76.93677683333334, "bike_id": "5a9d272ced875a4eb58965fcee46381d", "type": "electric_bike", "name": "5a9d272ced875a4eb58965fcee46381d"}, {"is_disabled": 0, "is_reserved": 0, "fusion_lat": 0.0, "lat": 38.90373566666667, "fusion_lon": 0.0, "rental_uris": {"ios": "https://dc.lft.to/lastmile_qr_scan", "android": "https://dc.lft.to/lastmile_qr_scan"}, "lon": -77.04838383333333, "bike_id": "df6818a9b6b1da2b36f03a1935b7a7a0", "type": "electric_scooter", "name": "df6818a9b6b1da2b36f03a1935b7a7a0"}, {"is_disabled": 0, "is_reserved": 0, "fusion_lat": 0.0, "lat": 38.902662166666666, "fusion_lon": 0.0, "rental_uris": {"ios": "https://dc.lft.to/lastmile_qr_scan", "android": "https://dc.lft.to/lastmile_qr_scan"}, "lon": -77.05202433333334, "bike_id": "a78446b5c7aba0558023bd402d08ab59", "type": "electric_scooter", "name": "a78446b5c7aba0558023bd402d08ab59"}, {"is_disabled": 0, "is_reserved": 0, "fusion_lat": 0.0, "lat": 38.894208, "fusion_lon": 0.0, "rental_uris": {"ios": "https://dc.lft.to/lastmile_qr_scan", "android": "https://dc.lft.to/lastmile_qr_scan"}, "lon": -77.03379316666667, "bike_id": "eebffdcd488552868a9588f39e95c00a", "type": "electric_scooter", "name": "eebffdcd488552868a9588f39e95c00a"}, {"is_disabled": 0, "is_reserved": 0, "fusion_lat": 0.0, "lat": 38.90949333333333, "fusion_lon": 0.0, "rental_uris": {"ios": "https://dc.lft.to/lastmile_qr_scan", "android": "https://dc.lft.to/lastmile_qr_scan"}, "lon": -77.031835, "bike_id": "df5fb44f96b46fbcf0be1ebc0c9f74fa", "type": "electric_scooter", "name": "df5fb44f96b46fbcf0be1ebc0c9f74fa"}, {"is_disabled": 0, "is_reserved": 0, "fusion_lat": 0.0, "lat": 38.9450125, "fusion_lon": 0.0, "rental_uris": {"ios": "https://dc.lft.to/lastmile_qr_scan", "android": "https://dc.lft.to/lastmile_qr_scan"}, "lon": -77.034311, "bike_id": "a08cc8b606563fc84ddec3d48478f9b8", "type": "electric_scooter", "name": "a08cc8b606563fc84ddec3d48478f9b8"}, {"is_disabled": 0, "is_reserved": 0, "fusion_lat": 0.0, "lat": 38.902521, "fusion_lon": 0.0, "rental_uris": {"ios": "https://dc.lft.to/lastmile_qr_scan", "android": "https://dc.lft.to/lastmile_qr_scan"}, "lon": -76.9770415, "bike_id": "5ec3e614e41da2cea41899e654e39119", "type": "electric_scooter", "name": "5ec3e614e41da2cea41899e654e39119"}, {"is_disabled": 0, "is_reserved": 0, "fusion_lat": 0.0, "lat": 38.918526666666665, "fusion_lon": 0.0, "rental_uris": {"ios": "https://dc.lft.to/lastmile_qr_scan", "android": "https://dc.lft.to/lastmile_qr_scan"}, "lon": -76.96088233333333, "bike_id": "f21901f2452fbe42178603d68dd2fdc2", "type": "electric_scooter", "name": "f21901f2452fbe42178603d68dd2fdc2"}, {"is_disabled": 0, "is_reserved": 0, "fusion_lat": 0.0, "lat": 38.909558, "fusion_lon": 0.0, "rental_uris": {"ios": "https://dc.lft.to/lastmile_qr_scan", "android": "https://dc.lft.to/lastmile_qr_scan"}, "lon": -77.04844266666667, "bike_id": "b21b4b844ad066abfcb7b22591c1b006", "type": "electric_scooter", "name": "b21b4b844ad066abfcb7b22591c1b006"}, {"is_disabled": 0, "is_reserved": 0, "fusion_lat": 0.0, "lat": 38.890049, "fusion_lon": 0.0, "rental_uris": {"ios": "https://dc.lft.to/lastmile_qr_scan", "android": "https://dc.lft.to/lastmile_qr_scan"}, "lon": -76.93739933333333, "bike_id": "904c8563b6eef79520f0348e018af54d", "type": "electric_scooter", "name": "904c8563b6eef79520f0348e018af54d"}, {"is_disabled": 0, "is_reserved": 0, "fusion_lat": 0.0, "lat": 38.918271833333336, "fusion_lon": 0.0, "rental_uris": {"ios": "https://dc.lft.to/lastmile_qr_scan", "android": "https://dc.lft.to/lastmile_qr_scan"}, "lon": -77.0242485, "bike_id": "73df90e507ee13cfe49fdbe7c747c7b9", "type": "electric_scooter", "name": "73df90e507ee13cfe49fdbe7c747c7b9"}, {"is_disabled": 0, "is_reserved": 0, "fusion_lat": 0.0, "lat": 38.90735166666666, "fusion_lon": 0.0, "rental_uris": {"ios": "https://dc.lft.to/lastmile_qr_scan", "android": "https://dc.lft.to/lastmile_qr_scan"}, "lon": -77.03457416666667, "bike_id": "fb31db24e9d55d46e4581f6473a13327", "type": "electric_scooter", "name": "fb31db24e9d55d46e4581f6473a13327"}, {"is_disabled": 0, "is_reserved": 0, "fusion_lat": 0.0, "lat": 38.89509133333333, "fusion_lon": 0.0, "rental_uris": {"ios": "https://dc.lft.to/lastmile_qr_scan", "android": "https://dc.lft.to/lastmile_qr_scan"}, "lon": -76.9811005, "bike_id": "346b2795ecf0ff5835745cd8f481a558", "type": "electric_scooter", "name": "346b2795ecf0ff5835745cd8f481a558"}, {"is_disabled": 0, "is_reserved": 0, "fusion_lat": 0.0, "lat": 38.8862765, "fusion_lon": 0.0, "rental_uris": {"ios": "https://dc.lft.to/lastmile_qr_scan", "android": "https://dc.lft.to/lastmile_qr_scan"}, "lon": -76.9263475, "bike_id": "bdfecb06d1e770ccd4018e145990800e", "type": "electric_scooter", "name": "bdfecb06d1e770ccd4018e145990800e"}, {"is_disabled": 0, "is_reserved": 0, "fusion_lat": 0.0, "lat": 38.91417, "fusion_lon": 0.0, "rental_uris": {"ios": "https://dc.lft.to/lastmile_qr_scan", "android": "https://dc.lft.to/lastmile_qr_scan"}, "lon": -77.0520805, "bike_id": "49bd65a6ad3eb9d7df3365cd5244d19e", "type": "electric_scooter", "name": "49bd65a6ad3eb9d7df3365cd5244d19e"}, {"is_disabled": 0, "is_reserved": 0, "fusion_lat": 0.0, "lat": 39.026441166666665, "fusion_lon": 0.0, "rental_uris": {"ios": "https://dc.lft.to/lastmile_qr_scan", "android": "https://dc.lft.to/lastmile_qr_scan"}, "lon": -77.036883, "bike_id": "72625c660203adc361d999728b25f3f2", "type": "electric_bike", "name": "72625c660203adc361d999728b25f3f2"}, {"is_disabled": 0, "is_reserved": 0, "fusion_lat": 0.0, "lat": 38.94330633333333, "fusion_lon": 0.0, "rental_uris": {"ios": "https://dc.lft.to/lastmile_qr_scan", "android": "https://dc.lft.to/lastmile_qr_scan"}, "lon": -77.02691766666666, "bike_id": "0e3ad3ad52156fb39be749fdfc2b8b6b", "type": "electric_scooter", "name": "0e3ad3ad52156fb39be749fdfc2b8b6b"}, {"is_disabled": 0, "is_reserved": 0, "fusion_lat": 0.0, "lat": 38.920497833333336, "fusion_lon": 0.0, "rental_uris": {"ios": "https://dc.lft.to/lastmile_qr_scan", "android": "https://dc.lft.to/lastmile_qr_scan"}, "lon": -77.031189, "bike_id": "243401ec140a9a4df16210d7bde7a01b", "type": "electric_scooter", "name": "243401ec140a9a4df16210d7bde7a01b"}, {"is_disabled": 0, "is_reserved": 0, "fusion_lat": 0.0, "lat": 38.92767283333333, "fusion_lon": 0.0, "rental_uris": {"ios": "https://dc.lft.to/lastmile_qr_scan", "android": "https://dc.lft.to/lastmile_qr_scan"}, "lon": -77.05254183333334, "bike_id": "603cce1e536592317932fe0ec84412de", "type": "electric_scooter", "name": "603cce1e536592317932fe0ec84412de"}, {"is_disabled": 0, "is_reserved": 0, "fusion_lat": 0.0, "lat": 38.930572, "fusion_lon": 0.0, "rental_uris": {"ios": "https://dc.lft.to/lastmile_qr_scan", "android": "https://dc.lft.to/lastmile_qr_scan"}, "lon": -77.02319216666666, "bike_id": "39814d8cc23655aa239b4944a963f0f1", "type": "electric_scooter", "name": "39814d8cc23655aa239b4944a963f0f1"}, {"is_disabled": 0, "is_reserved": 0, "fusion_lat": 0.0, "lat": 38.9051175, "fusion_lon": 0.0, "rental_uris": {"ios": "https://dc.lft.to/lastmile_qr_scan", "android": "https://dc.lft.to/lastmile_qr_scan"}, "lon": -76.95200333333334, "bike_id": "73011a4b9bb228310e0c6d59068a0eef", "type": "electric_scooter", "name": "73011a4b9bb228310e0c6d59068a0eef"}, {"is_disabled": 0, "is_reserved": 0, "fusion_lat": 0.0, "lat": 38.92201883333333, "fusion_lon": 0.0, "rental_uris": {"ios": "https://dc.lft.to/lastmile_qr_scan", "android": "https://dc.lft.to/lastmile_qr_scan"}, "lon": -77.020438, "bike_id": "2f599964b90867a30b0bdb050110362c", "type": "electric_scooter", "name": "2f599964b90867a30b0bdb050110362c"}, {"is_disabled": 0, "is_reserved": 0, "fusion_lat": 0.0, "lat": 38.910188166666664, "fusion_lon": 0.0, "rental_uris": {"ios": "https://dc.lft.to/lastmile_qr_scan", "android": "https://dc.lft.to/lastmile_qr_scan"}, "lon": -77.04875833333334, "bike_id": "a69beed31119b5dc03b4cfd403e89f99", "type": "electric_scooter", "name": "a69beed31119b5dc03b4cfd403e89f99"}, {"is_disabled": 0, "is_reserved": 0, "fusion_lat": 0.0, "lat": 38.890333166666665, "fusion_lon": 0.0, "rental_uris": {"ios": "https://dc.lft.to/lastmile_qr_scan", "android": "https://dc.lft.to/lastmile_qr_scan"}, "lon": -76.93752583333334, "bike_id": "a7b79f4af5396dcf66b7bccff60c63fb", "type": "electric_scooter", "name": "a7b79f4af5396dcf66b7bccff60c63fb"}, {"is_disabled": 0, "is_reserved": 0, "fusion_lat": 0.0, "lat": 38.924446833333334, "fusion_lon": 0.0, "rental_uris": {"ios": "https://dc.lft.to/lastmile_qr_scan", "android": "https://dc.lft.to/lastmile_qr_scan"}, "lon": -77.0202015, "bike_id": "c867ce68dc6818a20debd76fa5693d2b", "type": "electric_scooter", "name": "c867ce68dc6818a20debd76fa5693d2b"}, {"is_disabled": 0, "is_reserved": 0, "fusion_lat": 0.0, "lat": 38.89233766666667, "fusion_lon": 0.0, "rental_uris": {"ios": "https://dc.lft.to/lastmile_qr_scan", "android": "https://dc.lft.to/lastmile_qr_scan"}, "lon": -77.04359716666667, "bike_id": "e26dd9072fe71500f849ae8b93c11f97", "type": "electric_scooter", "name": "e26dd9072fe71500f849ae8b93c11f97"}, {"is_disabled": 0, "is_reserved": 0, "fusion_lat": 0.0, "lat": 38.89640083333333, "fusion_lon": 0.0, "rental_uris": {"ios": "https://dc.lft.to/lastmile_qr_scan", "android": "https://dc.lft.to/lastmile_qr_scan"}, "lon": -77.007526, "bike_id": "c72c4fb65a28b74f40fe03d763570d6f", "type": "electric_scooter", "name": "c72c4fb65a28b74f40fe03d763570d6f"}, {"is_disabled": 0, "is_reserved": 0, "fusion_lat": 0.0, "lat": 38.88423266666667, "fusion_lon": 0.0, "rental_uris": {"ios": "https://dc.lft.to/lastmile_qr_scan", "android": "https://dc.lft.to/lastmile_qr_scan"}, "lon": -76.98357433333334, "bike_id": "86b79b363f085519fc7bbb6d8c0591ad", "type": "electric_scooter", "name": "86b79b363f085519fc7bbb6d8c0591ad"}, {"is_disabled": 0, "is_reserved": 0, "fusion_lat": 0.0, "lat": 38.898714, "fusion_lon": 0.0, "rental_uris": {"ios": "https://dc.lft.to/lastmile_qr_scan", "android": "https://dc.lft.to/lastmile_qr_scan"}, "lon": -77.02039166666667, "bike_id": "6f4621a6bac91e378d6804a99e7f9605", "type": "electric_scooter", "name": "6f4621a6bac91e378d6804a99e7f9605"}, {"is_disabled": 0, "is_reserved": 0, "fusion_lat": 0.0, "lat": 38.9113815, "fusion_lon": 0.0, "rental_uris": {"ios": "https://dc.lft.to/lastmile_qr_scan", "android": "https://dc.lft.to/lastmile_qr_scan"}, "lon": -77.02193633333333, "bike_id": "19a33015e0d5a4a0918b8bc811f0d069", "type": "electric_scooter", "name": "19a33015e0d5a4a0918b8bc811f0d069"}, {"is_disabled": 0, "is_reserved": 0, "fusion_lat": 0.0, "lat": 38.921383166666665, "fusion_lon": 0.0, "rental_uris": {"ios": "https://dc.lft.to/lastmile_qr_scan", "android": "https://dc.lft.to/lastmile_qr_scan"}, "lon": -77.04562066666666, "bike_id": "85a60b743e345ae8fc7fea38ace803d4", "type": "electric_scooter", "name": "85a60b743e345ae8fc7fea38ace803d4"}, {"is_disabled": 0, "is_reserved": 0, "fusion_lat": 0.0, "lat": 38.90502083333333, "fusion_lon": 0.0, "rental_uris": {"ios": "https://dc.lft.to/lastmile_qr_scan", "android": "https://dc.lft.to/lastmile_qr_scan"}, "lon": -77.06018983333334, "bike_id": "c915ab45986c86a9aabb673e51c3443b", "type": "electric_scooter", "name": "c915ab45986c86a9aabb673e51c3443b"}, {"is_disabled": 0, "is_reserved": 0, "fusion_lat": 0.0, "lat": 38.90456366666667, "fusion_lon": 0.0, "rental_uris": {"ios": "https://dc.lft.to/lastmile_qr_scan", "android": "https://dc.lft.to/lastmile_qr_scan"}, "lon": -77.0312035, "bike_id": "d4b84be87852a1a38655c8de192ac22f", "type": "electric_scooter", "name": "d4b84be87852a1a38655c8de192ac22f"}, {"is_disabled": 0, "is_reserved": 0, "fusion_lat": 0.0, "lat": 38.92193983333333, "fusion_lon": 0.0, "rental_uris": {"ios": "https://dc.lft.to/lastmile_qr_scan", "android": "https://dc.lft.to/lastmile_qr_scan"}, "lon": -77.0423505, "bike_id": "8ac4e143ee57f52950e99f1d6e55396f", "type": "electric_scooter", "name": "8ac4e143ee57f52950e99f1d6e55396f"}, {"is_disabled": 0, "is_reserved": 0, "fusion_lat": 0.0, "lat": 38.884349, "fusion_lon": 0.0, "rental_uris": {"ios": "https://dc.lft.to/lastmile_qr_scan", "android": "https://dc.lft.to/lastmile_qr_scan"}, "lon": -77.02525833333333, "bike_id": "beeea95ad89effb180ddf2e061a26957", "type": "electric_scooter", "name": "beeea95ad89effb180ddf2e061a26957"}, {"is_disabled": 0, "is_reserved": 0, "fusion_lat": 0.0, "lat": 38.9561175, "fusion_lon": 0.0, "rental_uris": {"ios": "https://dc.lft.to/lastmile_qr_scan", "android": "https://dc.lft.to/lastmile_qr_scan"}, "lon": -77.03310566666667, "bike_id": "aec4340cb248a9ce2de3f52077313b9a", "type": "electric_scooter", "name": "aec4340cb248a9ce2de3f52077313b9a"}, {"is_disabled": 0, "is_reserved": 0, "fusion_lat": 0.0, "lat": 38.895035666666665, "fusion_lon": 0.0, "rental_uris": {"ios": "https://dc.lft.to/lastmile_qr_scan", "android": "https://dc.lft.to/lastmile_qr_scan"}, "lon": -77.02194416666667, "bike_id": "8eb698152de47acd075471ea47fbaf2f", "type": "electric_scooter", "name": "8eb698152de47acd075471ea47fbaf2f"}, {"is_disabled": 0, "is_reserved": 0, "fusion_lat": 0.0, "lat": 38.91955566666667, "fusion_lon": 0.0, "rental_uris": {"ios": "https://dc.lft.to/lastmile_qr_scan", "android": "https://dc.lft.to/lastmile_qr_scan"}, "lon": -77.023097, "bike_id": "43510c5fbf280e0be6d4cbf041d5f61b", "type": "electric_scooter", "name": "43510c5fbf280e0be6d4cbf041d5f61b"}, {"is_disabled": 0, "is_reserved": 0, "fusion_lat": 0.0, "lat": 38.9039805, "fusion_lon": 0.0, "rental_uris": {"ios": "https://dc.lft.to/lastmile_qr_scan", "android": "https://dc.lft.to/lastmile_qr_scan"}, "lon": -77.062973, "bike_id": "12ccfdb3083fd9596fe05a386112527d", "type": "electric_scooter", "name": "12ccfdb3083fd9596fe05a386112527d"}, {"is_disabled": 0, "is_reserved": 0, "fusion_lat": 0.0, "lat": 38.93085216666667, "fusion_lon": 0.0, "rental_uris": {"ios": "https://dc.lft.to/lastmile_qr_scan", "android": "https://dc.lft.to/lastmile_qr_scan"}, "lon": -77.028046, "bike_id": "e296368d6a5ba73635f4c95d62fa80e1", "type": "electric_scooter", "name": "e296368d6a5ba73635f4c95d62fa80e1"}, {"is_disabled": 0, "is_reserved": 0, "fusion_lat": 0.0, "lat": 38.91420216666667, "fusion_lon": 0.0, "rental_uris": {"ios": "https://dc.lft.to/lastmile_qr_scan", "android": "https://dc.lft.to/lastmile_qr_scan"}, "lon": -77.02952616666667, "bike_id": "25764ae164814ce622b1c0db09f808b7", "type": "electric_scooter", "name": "25764ae164814ce622b1c0db09f808b7"}, {"is_disabled": 0, "is_reserved": 0, "fusion_lat": 0.0, "lat": 38.90652816666667, "fusion_lon": 0.0, "rental_uris": {"ios": "https://dc.lft.to/lastmile_qr_scan", "android": "https://dc.lft.to/lastmile_qr_scan"}, "lon": -76.9794095, "bike_id": "b8786810270224f0a00a7c29f4b96278", "type": "electric_scooter", "name": "b8786810270224f0a00a7c29f4b96278"}, {"is_disabled": 0, "is_reserved": 0, "fusion_lat": 0.0, "lat": 38.92872583333333, "fusion_lon": 0.0, "rental_uris": {"ios": "https://dc.lft.to/lastmile_qr_scan", "android": "https://dc.lft.to/lastmile_qr_scan"}, "lon": -77.03991016666667, "bike_id": "abd1d7f33b620ce3f43e691bd3403f70", "type": "electric_scooter", "name": "abd1d7f33b620ce3f43e691bd3403f70"}, {"is_disabled": 0, "is_reserved": 0, "fusion_lat": 0.0, "lat": 38.89432466666667, "fusion_lon": 0.0, "rental_uris": {"ios": "https://dc.lft.to/lastmile_qr_scan", "android": "https://dc.lft.to/lastmile_qr_scan"}, "lon": -77.02405416666667, "bike_id": "87df314fd285221dc99320fc6e1e8902", "type": "electric_scooter", "name": "87df314fd285221dc99320fc6e1e8902"}, {"is_disabled": 0, "is_reserved": 0, "fusion_lat": 0.0, "lat": 38.905178166666666, "fusion_lon": 0.0, "rental_uris": {"ios": "https://dc.lft.to/lastmile_qr_scan", "android": "https://dc.lft.to/lastmile_qr_scan"}, "lon": -77.0087875, "bike_id": "2bb50545f9488edd4f82494502cce8c5", "type": "electric_scooter", "name": "2bb50545f9488edd4f82494502cce8c5"}, {"is_disabled": 0, "is_reserved": 0, "fusion_lat": 0.0, "lat": 38.904114166666666, "fusion_lon": 0.0, "rental_uris": {"ios": "https://dc.lft.to/lastmile_qr_scan", "android": "https://dc.lft.to/lastmile_qr_scan"}, "lon": -77.06125333333334, "bike_id": "bf0c3a63076da6de967ed64f20e01b46", "type": "electric_scooter", "name": "bf0c3a63076da6de967ed64f20e01b46"}, {"is_disabled": 0, "is_reserved": 0, "fusion_lat": 0.0, "lat": 38.94448466666667, "fusion_lon": 0.0, "rental_uris": {"ios": "https://dc.lft.to/lastmile_qr_scan", "android": "https://dc.lft.to/lastmile_qr_scan"}, "lon": -77.032782, "bike_id": "e4a62e1bc19970aebdc70cb6410fc8db", "type": "electric_scooter", "name": "e4a62e1bc19970aebdc70cb6410fc8db"}, {"is_disabled": 0, "is_reserved": 0, "fusion_lat": 0.0, "lat": 38.9169495, "fusion_lon": 0.0, "rental_uris": {"ios": "https://dc.lft.to/lastmile_qr_scan", "android": "https://dc.lft.to/lastmile_qr_scan"}, "lon": -77.03769183333333, "bike_id": "bf4587627f311be843e2daf828c881db", "type": "electric_scooter", "name": "bf4587627f311be843e2daf828c881db"}, {"is_disabled": 0, "is_reserved": 0, "fusion_lat": 0.0, "lat": 38.903556333333334, "fusion_lon": 0.0, "rental_uris": {"ios": "https://dc.lft.to/lastmile_qr_scan", "android": "https://dc.lft.to/lastmile_qr_scan"}, "lon": -77.04828883333333, "bike_id": "1ac5910e4683f5bdd0a089ee2fdbadff", "type": "electric_scooter", "name": "1ac5910e4683f5bdd0a089ee2fdbadff"}, {"is_disabled": 0, "is_reserved": 0, "fusion_lat": 0.0, "lat": 38.907079833333334, "fusion_lon": 0.0, "rental_uris": {"ios": "https://dc.lft.to/lastmile_qr_scan", "android": "https://dc.lft.to/lastmile_qr_scan"}, "lon": -77.03203433333333, "bike_id": "a029464b8a09ec90e9bc2a0b6e86caa6", "type": "electric_scooter", "name": "a029464b8a09ec90e9bc2a0b6e86caa6"}, {"is_disabled": 0, "is_reserved": 0, "fusion_lat": 0.0, "lat": 38.93059233333334, "fusion_lon": 0.0, "rental_uris": {"ios": "https://dc.lft.to/lastmile_qr_scan", "android": "https://dc.lft.to/lastmile_qr_scan"}, "lon": -77.0318685, "bike_id": "472c2f31cfd18aeaccf0080e80146320", "type": "electric_scooter", "name": "472c2f31cfd18aeaccf0080e80146320"}, {"is_disabled": 0, "is_reserved": 0, "fusion_lat": 0.0, "lat": 38.9122045, "fusion_lon": 0.0, "rental_uris": {"ios": "https://dc.lft.to/lastmile_qr_scan", "android": "https://dc.lft.to/lastmile_qr_scan"}, "lon": -77.02102333333333, "bike_id": "d8e14568e357800ac56fa395e1ce3017", "type": "electric_scooter", "name": "d8e14568e357800ac56fa395e1ce3017"}, {"is_disabled": 0, "is_reserved": 0, "fusion_lat": 0.0, "lat": 38.91155, "fusion_lon": 0.0, "rental_uris": {"ios": "https://dc.lft.to/lastmile_qr_scan", "android": "https://dc.lft.to/lastmile_qr_scan"}, "lon": -77.02380183333334, "bike_id": "d956ca67d33b455fe8d027d9052acdf3", "type": "electric_scooter", "name": "d956ca67d33b455fe8d027d9052acdf3"}, {"is_disabled": 0, "is_reserved": 0, "fusion_lat": 0.0, "lat": 38.9182345, "fusion_lon": 0.0, "rental_uris": {"ios": "https://dc.lft.to/lastmile_qr_scan", "android": "https://dc.lft.to/lastmile_qr_scan"}, "lon": -77.02524516666666, "bike_id": "8e996bc648d9d56820e2c9a852e0c0bb", "type": "electric_scooter", "name": "8e996bc648d9d56820e2c9a852e0c0bb"}, {"is_disabled": 0, "is_reserved": 0, "fusion_lat": 0.0, "lat": 38.9098305, "fusion_lon": 0.0, "rental_uris": {"ios": "https://dc.lft.to/lastmile_qr_scan", "android": "https://dc.lft.to/lastmile_qr_scan"}, "lon": -77.0337845, "bike_id": "0b9c8c291d604a7aa86ef0ee85131c54", "type": "electric_scooter", "name": "0b9c8c291d604a7aa86ef0ee85131c54"}, {"is_disabled": 0, "is_reserved": 0, "fusion_lat": 0.0, "lat": 38.921631166666664, "fusion_lon": 0.0, "rental_uris": {"ios": "https://dc.lft.to/lastmile_qr_scan", "android": "https://dc.lft.to/lastmile_qr_scan"}, "lon": -77.0366855, "bike_id": "ea568eee08447d86021c5b77b99d17a8", "type": "electric_scooter", "name": "ea568eee08447d86021c5b77b99d17a8"}, {"is_disabled": 0, "is_reserved": 0, "fusion_lat": 0.0, "lat": 38.893513, "fusion_lon": 0.0, "rental_uris": {"ios": "https://dc.lft.to/lastmile_qr_scan", "android": "https://dc.lft.to/lastmile_qr_scan"}, "lon": -76.99212283333334, "bike_id": "9100e9537599a51b006a16f8b5181fb7", "type": "electric_scooter", "name": "9100e9537599a51b006a16f8b5181fb7"}, {"is_disabled": 0, "is_reserved": 0, "fusion_lat": 0.0, "lat": 38.9072125, "fusion_lon": 0.0, "rental_uris": {"ios": "https://dc.lft.to/lastmile_qr_scan", "android": "https://dc.lft.to/lastmile_qr_scan"}, "lon": -77.053122, "bike_id": "d3f30a0e2a0b6d56410a7f1144ef2526", "type": "electric_scooter", "name": "d3f30a0e2a0b6d56410a7f1144ef2526"}, {"is_disabled": 0, "is_reserved": 0, "fusion_lat": 0.0, "lat": 38.926407166666664, "fusion_lon": 0.0, "rental_uris": {"ios": "https://dc.lft.to/lastmile_qr_scan", "android": "https://dc.lft.to/lastmile_qr_scan"}, "lon": -77.0370455, "bike_id": "2d232fc3b137b4d3c77b02639de58a82", "type": "electric_scooter", "name": "2d232fc3b137b4d3c77b02639de58a82"}, {"is_disabled": 0, "is_reserved": 0, "fusion_lat": 0.0, "lat": 38.88744416666667, "fusion_lon": 0.0, "rental_uris": {"ios": "https://dc.lft.to/lastmile_qr_scan", "android": "https://dc.lft.to/lastmile_qr_scan"}, "lon": -77.03173783333334, "bike_id": "c9a0baaf2e3ffd029cbfed46842c87fd", "type": "electric_scooter", "name": "c9a0baaf2e3ffd029cbfed46842c87fd"}, {"is_disabled": 0, "is_reserved": 0, "fusion_lat": 0.0, "lat": 38.893927166666664, "fusion_lon": 0.0, "rental_uris": {"ios": "https://dc.lft.to/lastmile_qr_scan", "android": "https://dc.lft.to/lastmile_qr_scan"}, "lon": -76.92306283333333, "bike_id": "869ee5437c37ea7766f75e0114eb73a0", "type": "electric_scooter", "name": "869ee5437c37ea7766f75e0114eb73a0"}, {"is_disabled": 0, "is_reserved": 0, "fusion_lat": 0.0, "lat": 38.90539866666667, "fusion_lon": 0.0, "rental_uris": {"ios": "https://dc.lft.to/lastmile_qr_scan", "android": "https://dc.lft.to/lastmile_qr_scan"}, "lon": -77.02192, "bike_id": "f7c3ad0b8f806d93c3d96bfbdb49b9ea", "type": "electric_scooter", "name": "f7c3ad0b8f806d93c3d96bfbdb49b9ea"}, {"is_disabled": 0, "is_reserved": 0, "fusion_lat": 0.0, "lat": 38.909738833333336, "fusion_lon": 0.0, "rental_uris": {"ios": "https://dc.lft.to/lastmile_qr_scan", "android": "https://dc.lft.to/lastmile_qr_scan"}, "lon": -77.03175266666666, "bike_id": "47adb1907c44f357b76d6e8012d09a5b", "type": "electric_scooter", "name": "47adb1907c44f357b76d6e8012d09a5b"}, {"is_disabled": 0, "is_reserved": 0, "fusion_lat": 0.0, "lat": 38.93356216666667, "fusion_lon": 0.0, "rental_uris": {"ios": "https://dc.lft.to/lastmile_qr_scan", "android": "https://dc.lft.to/lastmile_qr_scan"}, "lon": -77.072883, "bike_id": "7c490a5e3740c8fb5f509dddf7ae6354", "type": "electric_scooter", "name": "7c490a5e3740c8fb5f509dddf7ae6354"}, {"is_disabled": 0, "is_reserved": 0, "fusion_lat": 0.0, "lat": 38.944927666666665, "fusion_lon": 0.0, "rental_uris": {"ios": "https://dc.lft.to/lastmile_qr_scan", "android": "https://dc.lft.to/lastmile_qr_scan"}, "lon": -77.0073835, "bike_id": "163ada2545e28d90512605c697c10bd7", "type": "electric_bike", "name": "163ada2545e28d90512605c697c10bd7"}, {"is_disabled": 0, "is_reserved": 0, "fusion_lat": 0.0, "lat": 38.920551833333334, "fusion_lon": 0.0, "rental_uris": {"ios": "https://dc.lft.to/lastmile_qr_scan", "android": "https://dc.lft.to/lastmile_qr_scan"}, "lon": -77.04188483333333, "bike_id": "e84a178330482cd8dff92811e66e0a08", "type": "electric_scooter", "name": "e84a178330482cd8dff92811e66e0a08"}, {"is_disabled": 0, "is_reserved": 0, "fusion_lat": 0.0, "lat": 38.9028275, "fusion_lon": 0.0, "rental_uris": {"ios": "https://dc.lft.to/lastmile_qr_scan", "android": "https://dc.lft.to/lastmile_qr_scan"}, "lon": -77.01546733333333, "bike_id": "db0da488a0eda8009521f421426e60e1", "type": "electric_scooter", "name": "db0da488a0eda8009521f421426e60e1"}, {"is_disabled": 0, "is_reserved": 0, "fusion_lat": 0.0, "lat": 38.919109166666665, "fusion_lon": 0.0, "rental_uris": {"ios": "https://dc.lft.to/lastmile_qr_scan", "android": "https://dc.lft.to/lastmile_qr_scan"}, "lon": -77.0446445, "bike_id": "da7ba8845143f89f27b7eeaabf8355c1", "type": "electric_scooter", "name": "da7ba8845143f89f27b7eeaabf8355c1"}, {"is_disabled": 0, "is_reserved": 0, "fusion_lat": 0.0, "lat": 38.87852083333333, "fusion_lon": 0.0, "rental_uris": {"ios": "https://dc.lft.to/lastmile_qr_scan", "android": "https://dc.lft.to/lastmile_qr_scan"}, "lon": -77.01754966666667, "bike_id": "3c74a8373fe79bb30a14c7cb76084a66", "type": "electric_scooter", "name": "3c74a8373fe79bb30a14c7cb76084a66"}, {"is_disabled": 0, "is_reserved": 0, "fusion_lat": 0.0, "lat": 38.92744183333333, "fusion_lon": 0.0, "rental_uris": {"ios": "https://dc.lft.to/lastmile_qr_scan", "android": "https://dc.lft.to/lastmile_qr_scan"}, "lon": -77.032995, "bike_id": "3ff52ed3db20471a7a5aa585fc066e67", "type": "electric_scooter", "name": "3ff52ed3db20471a7a5aa585fc066e67"}, {"is_disabled": 0, "is_reserved": 0, "fusion_lat": 0.0, "lat": 38.908495, "fusion_lon": 0.0, "rental_uris": {"ios": "https://dc.lft.to/lastmile_qr_scan", "android": "https://dc.lft.to/lastmile_qr_scan"}, "lon": -76.93448033333334, "bike_id": "2f67d07b3a7d89dd40fc2efacb53b922", "type": "electric_scooter", "name": "2f67d07b3a7d89dd40fc2efacb53b922"}, {"is_disabled": 0, "is_reserved": 0, "fusion_lat": 0.0, "lat": 38.927513166666664, "fusion_lon": 0.0, "rental_uris": {"ios": "https://dc.lft.to/lastmile_qr_scan", "android": "https://dc.lft.to/lastmile_qr_scan"}, "lon": -77.033033, "bike_id": "5aa504abbdb761664a441a2c0e2c94e1", "type": "electric_scooter", "name": "5aa504abbdb761664a441a2c0e2c94e1"}, {"is_disabled": 0, "is_reserved": 0, "fusion_lat": 0.0, "lat": 38.893777666666665, "fusion_lon": 0.0, "rental_uris": {"ios": "https://dc.lft.to/lastmile_qr_scan", "android": "https://dc.lft.to/lastmile_qr_scan"}, "lon": -77.022009, "bike_id": "248cd2db7f74ac83c00b1827fcf6ec8a", "type": "electric_scooter", "name": "248cd2db7f74ac83c00b1827fcf6ec8a"}, {"is_disabled": 0, "is_reserved": 0, "fusion_lat": 0.0, "lat": 38.96796916666667, "fusion_lon": 0.0, "rental_uris": {"ios": "https://dc.lft.to/lastmile_qr_scan", "android": "https://dc.lft.to/lastmile_qr_scan"}, "lon": -77.02429733333334, "bike_id": "dc7afdd8730a24746a9fa287a85083bc", "type": "electric_scooter", "name": "dc7afdd8730a24746a9fa287a85083bc"}, {"is_disabled": 0, "is_reserved": 0, "fusion_lat": 0.0, "lat": 38.88371766666667, "fusion_lon": 0.0, "rental_uris": {"ios": "https://dc.lft.to/lastmile_qr_scan", "android": "https://dc.lft.to/lastmile_qr_scan"}, "lon": -76.92372316666666, "bike_id": "d65e88185438a31213b58f6e7c59cbfa", "type": "electric_bike", "name": "d65e88185438a31213b58f6e7c59cbfa"}, {"is_disabled": 0, "is_reserved": 0, "fusion_lat": 0.0, "lat": 38.91928216666667, "fusion_lon": 0.0, "rental_uris": {"ios": "https://dc.lft.to/lastmile_qr_scan", "android": "https://dc.lft.to/lastmile_qr_scan"}, "lon": -77.04151383333334, "bike_id": "b34a48f27b88c597f4e1018b3232b33c", "type": "electric_scooter", "name": "b34a48f27b88c597f4e1018b3232b33c"}, {"is_disabled": 0, "is_reserved": 0, "fusion_lat": 0.0, "lat": 38.88389566666667, "fusion_lon": 0.0, "rental_uris": {"ios": "https://dc.lft.to/lastmile_qr_scan", "android": "https://dc.lft.to/lastmile_qr_scan"}, "lon": -76.9304005, "bike_id": "ff2c30e2c0fe0bc107038fb90b3d3ae4", "type": "electric_scooter", "name": "ff2c30e2c0fe0bc107038fb90b3d3ae4"}, {"is_disabled": 0, "is_reserved": 0, "fusion_lat": 0.0, "lat": 38.90832183333333, "fusion_lon": 0.0, "rental_uris": {"ios": "https://dc.lft.to/lastmile_qr_scan", "android": "https://dc.lft.to/lastmile_qr_scan"}, "lon": -77.0007885, "bike_id": "30452b077da9fb01f0afecc07c8528e1", "type": "electric_scooter", "name": "30452b077da9fb01f0afecc07c8528e1"}, {"is_disabled": 0, "is_reserved": 0, "fusion_lat": 0.0, "lat": 38.88449816666667, "fusion_lon": 0.0, "rental_uris": {"ios": "https://dc.lft.to/lastmile_qr_scan", "android": "https://dc.lft.to/lastmile_qr_scan"}, "lon": -77.0089855, "bike_id": "8a561293ff2d35a849d6d8e5f4d63d20", "type": "electric_scooter", "name": "8a561293ff2d35a849d6d8e5f4d63d20"}, {"is_disabled": 0, "is_reserved": 0, "fusion_lat": 0.0, "lat": 38.91711166666666, "fusion_lon": 0.0, "rental_uris": {"ios": "https://dc.lft.to/lastmile_qr_scan", "android": "https://dc.lft.to/lastmile_qr_scan"}, "lon": -77.03211883333333, "bike_id": "c0919d438a0d3a034341f319ab8ff577", "type": "electric_scooter", "name": "c0919d438a0d3a034341f319ab8ff577"}, {"is_disabled": 0, "is_reserved": 0, "fusion_lat": 0.0, "lat": 38.89262183333334, "fusion_lon": 0.0, "rental_uris": {"ios": "https://dc.lft.to/lastmile_qr_scan", "android": "https://dc.lft.to/lastmile_qr_scan"}, "lon": -77.05021716666667, "bike_id": "bbd4a47191c6fdc63b53cf0c10418322", "type": "electric_scooter", "name": "bbd4a47191c6fdc63b53cf0c10418322"}, {"is_disabled": 0, "is_reserved": 0, "fusion_lat": 0.0, "lat": 38.95703733333333, "fusion_lon": 0.0, "rental_uris": {"ios": "https://dc.lft.to/lastmile_qr_scan", "android": "https://dc.lft.to/lastmile_qr_scan"}, "lon": -77.3597215, "bike_id": "575e58b1bbd64305000b28e54eccff8a", "type": "electric_bike", "name": "575e58b1bbd64305000b28e54eccff8a"}, {"is_disabled": 0, "is_reserved": 0, "fusion_lat": 0.0, "lat": 38.92999983333333, "fusion_lon": 0.0, "rental_uris": {"ios": "https://dc.lft.to/lastmile_qr_scan", "android": "https://dc.lft.to/lastmile_qr_scan"}, "lon": -77.02374916666666, "bike_id": "41cb8fa630c83bfcae25689840a5e2bc", "type": "electric_scooter", "name": "41cb8fa630c83bfcae25689840a5e2bc"}, {"is_disabled": 0, "is_reserved": 0, "fusion_lat": 0.0, "lat": 39.08430833333333, "fusion_lon": 0.0, "rental_uris": {"ios": "https://dc.lft.to/lastmile_qr_scan", "android": "https://dc.lft.to/lastmile_qr_scan"}, "lon": -76.95140533333333, "bike_id": "e175b508d1dd904cb2c84893be2e7426", "type": "electric_bike", "name": "e175b508d1dd904cb2c84893be2e7426"}, {"is_disabled": 0, "is_reserved": 0, "fusion_lat": 0.0, "lat": 38.85908633333333, "fusion_lon": 0.0, "rental_uris": {"ios": "https://dc.lft.to/lastmile_qr_scan", "android": "https://dc.lft.to/lastmile_qr_scan"}, "lon": -77.09554583333333, "bike_id": "7ce89ca6dd57c6ca7c94480cede8ae2d", "type": "electric_bike", "name": "7ce89ca6dd57c6ca7c94480cede8ae2d"}, {"is_disabled": 0, "is_reserved": 0, "fusion_lat": 0.0, "lat": 38.921692666666665, "fusion_lon": 0.0, "rental_uris": {"ios": "https://dc.lft.to/lastmile_qr_scan", "android": "https://dc.lft.to/lastmile_qr_scan"}, "lon": -77.021107, "bike_id": "bff3ecc574195569a5ee57d3da84a4b7", "type": "electric_scooter", "name": "bff3ecc574195569a5ee57d3da84a4b7"}, {"is_disabled": 0, "is_reserved": 0, "fusion_lat": 0.0, "lat": 38.9140575, "fusion_lon": 0.0, "rental_uris": {"ios": "https://dc.lft.to/lastmile_qr_scan", "android": "https://dc.lft.to/lastmile_qr_scan"}, "lon": -77.0114305, "bike_id": "3002fe8a8ec5c0308ffc97a793f878f6", "type": "electric_scooter", "name": "3002fe8a8ec5c0308ffc97a793f878f6"}, {"is_disabled": 0, "is_reserved": 0, "fusion_lat": 0.0, "lat": 38.94099383333333, "fusion_lon": 0.0, "rental_uris": {"ios": "https://dc.lft.to/lastmile_qr_scan", "android": "https://dc.lft.to/lastmile_qr_scan"}, "lon": -77.02510066666666, "bike_id": "b43a3929da962e9e09e5d13d41a6acc4", "type": "electric_scooter", "name": "b43a3929da962e9e09e5d13d41a6acc4"}, {"is_disabled": 0, "is_reserved": 0, "fusion_lat": 0.0, "lat": 38.809775, "fusion_lon": 0.0, "rental_uris": {"ios": "https://dc.lft.to/lastmile_qr_scan", "android": "https://dc.lft.to/lastmile_qr_scan"}, "lon": -77.07660466666667, "bike_id": "43f443470e542cf65f48a4db72956030", "type": "electric_bike", "name": "43f443470e542cf65f48a4db72956030"}, {"is_disabled": 0, "is_reserved": 0, "fusion_lat": 0.0, "lat": 38.95621366666666, "fusion_lon": 0.0, "rental_uris": {"ios": "https://dc.lft.to/lastmile_qr_scan", "android": "https://dc.lft.to/lastmile_qr_scan"}, "lon": -76.96181033333333, "bike_id": "9f6088aa0de612c5ba1cb7323d4adb85", "type": "electric_bike", "name": "9f6088aa0de612c5ba1cb7323d4adb85"}, {"is_disabled": 0, "is_reserved": 0, "fusion_lat": 0.0, "lat": 38.889892833333334, "fusion_lon": 0.0, "rental_uris": {"ios": "https://dc.lft.to/lastmile_qr_scan", "android": "https://dc.lft.to/lastmile_qr_scan"}, "lon": -77.03531916666667, "bike_id": "edaf5e688d4c673069f9c832c4cd487d", "type": "electric_scooter", "name": "edaf5e688d4c673069f9c832c4cd487d"}, {"is_disabled": 0, "is_reserved": 0, "fusion_lat": 0.0, "lat": 38.89864016666667, "fusion_lon": 0.0, "rental_uris": {"ios": "https://dc.lft.to/lastmile_qr_scan", "android": "https://dc.lft.to/lastmile_qr_scan"}, "lon": -77.05005133333333, "bike_id": "bbd12e54f07a1eb2834db3dc9471cc56", "type": "electric_scooter", "name": "bbd12e54f07a1eb2834db3dc9471cc56"}, {"is_disabled": 0, "is_reserved": 0, "fusion_lat": 0.0, "lat": 38.898031833333334, "fusion_lon": 0.0, "rental_uris": {"ios": "https://dc.lft.to/lastmile_qr_scan", "android": "https://dc.lft.to/lastmile_qr_scan"}, "lon": -77.02788133333334, "bike_id": "03f1453b021d429ccf6588c5a2009f65", "type": "electric_scooter", "name": "03f1453b021d429ccf6588c5a2009f65"}, {"is_disabled": 0, "is_reserved": 0, "fusion_lat": 0.0, "lat": 38.893334, "fusion_lon": 0.0, "rental_uris": {"ios": "https://dc.lft.to/lastmile_qr_scan", "android": "https://dc.lft.to/lastmile_qr_scan"}, "lon": -76.92888083333334, "bike_id": "419d8e3ccca40b609a1123067e2430be", "type": "electric_scooter", "name": "419d8e3ccca40b609a1123067e2430be"}, {"is_disabled": 0, "is_reserved": 0, "fusion_lat": 0.0, "lat": 38.9058575, "fusion_lon": 0.0, "rental_uris": {"ios": "https://dc.lft.to/lastmile_qr_scan", "android": "https://dc.lft.to/lastmile_qr_scan"}, "lon": -77.0080975, "bike_id": "88109b507bbf1a80fcd678d9a21668f2", "type": "electric_scooter", "name": "88109b507bbf1a80fcd678d9a21668f2"}, {"is_disabled": 0, "is_reserved": 0, "fusion_lat": 0.0, "lat": 39.02521183333333, "fusion_lon": 0.0, "rental_uris": {"ios": "https://dc.lft.to/lastmile_qr_scan", "android": "https://dc.lft.to/lastmile_qr_scan"}, "lon": -77.01967283333333, "bike_id": "8c28209ae1249b9e01d26002d0d149f5", "type": "electric_bike", "name": "8c28209ae1249b9e01d26002d0d149f5"}, {"is_disabled": 0, "is_reserved": 0, "fusion_lat": 0.0, "lat": 38.916953166666666, "fusion_lon": 0.0, "rental_uris": {"ios": "https://dc.lft.to/lastmile_qr_scan", "android": "https://dc.lft.to/lastmile_qr_scan"}, "lon": -77.0229675, "bike_id": "9cb1916fc8575076108c8d502a3d255a", "type": "electric_scooter", "name": "9cb1916fc8575076108c8d502a3d255a"}, {"is_disabled": 0, "is_reserved": 0, "fusion_lat": 0.0, "lat": 38.89935466666667, "fusion_lon": 0.0, "rental_uris": {"ios": "https://dc.lft.to/lastmile_qr_scan", "android": "https://dc.lft.to/lastmile_qr_scan"}, "lon": -77.01451366666667, "bike_id": "af36fe5d1f62d3fe083d50766472f926", "type": "electric_scooter", "name": "af36fe5d1f62d3fe083d50766472f926"}, {"is_disabled": 0, "is_reserved": 0, "fusion_lat": 0.0, "lat": 39.084712833333334, "fusion_lon": 0.0, "rental_uris": {"ios": "https://dc.lft.to/lastmile_qr_scan", "android": "https://dc.lft.to/lastmile_qr_scan"}, "lon": -76.950605, "bike_id": "7757c909d841259f3859ae6e872ace94", "type": "electric_bike", "name": "7757c909d841259f3859ae6e872ace94"}, {"is_disabled": 0, "is_reserved": 0, "fusion_lat": 0.0, "lat": 38.9029165, "fusion_lon": 0.0, "rental_uris": {"ios": "https://dc.lft.to/lastmile_qr_scan", "android": "https://dc.lft.to/lastmile_qr_scan"}, "lon": -77.03213366666667, "bike_id": "0c1fe669a8e53bb0aeb1776d01b9da8b", "type": "electric_scooter", "name": "0c1fe669a8e53bb0aeb1776d01b9da8b"}, {"is_disabled": 0, "is_reserved": 0, "fusion_lat": 0.0, "lat": 38.8997125, "fusion_lon": 0.0, "rental_uris": {"ios": "https://dc.lft.to/lastmile_qr_scan", "android": "https://dc.lft.to/lastmile_qr_scan"}, "lon": -76.9263065, "bike_id": "7dc3e8336b8ccb502534ddfedc633323", "type": "electric_scooter", "name": "7dc3e8336b8ccb502534ddfedc633323"}, {"is_disabled": 0, "is_reserved": 0, "fusion_lat": 0.0, "lat": 38.90955266666667, "fusion_lon": 0.0, "rental_uris": {"ios": "https://dc.lft.to/lastmile_qr_scan", "android": "https://dc.lft.to/lastmile_qr_scan"}, "lon": -77.02390366666667, "bike_id": "8dbedcb3b1fc01d84b316bca88a12b8f", "type": "electric_scooter", "name": "8dbedcb3b1fc01d84b316bca88a12b8f"}, {"is_disabled": 0, "is_reserved": 0, "fusion_lat": 0.0, "lat": 38.953502666666665, "fusion_lon": 0.0, "rental_uris": {"ios": "https://dc.lft.to/lastmile_qr_scan", "android": "https://dc.lft.to/lastmile_qr_scan"}, "lon": -77.0815145, "bike_id": "8c2168b7e009fc9fee0582bcd4573b53", "type": "electric_scooter", "name": "8c2168b7e009fc9fee0582bcd4573b53"}, {"is_disabled": 0, "is_reserved": 0, "fusion_lat": 0.0, "lat": 38.921571, "fusion_lon": 0.0, "rental_uris": {"ios": "https://dc.lft.to/lastmile_qr_scan", "android": "https://dc.lft.to/lastmile_qr_scan"}, "lon": -77.04023433333333, "bike_id": "da8dac7435d39ae7b6b584b42462a0b0", "type": "electric_scooter", "name": "da8dac7435d39ae7b6b584b42462a0b0"}, {"is_disabled": 0, "is_reserved": 0, "fusion_lat": 0.0, "lat": 38.905659166666666, "fusion_lon": 0.0, "rental_uris": {"ios": "https://dc.lft.to/lastmile_qr_scan", "android": "https://dc.lft.to/lastmile_qr_scan"}, "lon": -77.03274416666666, "bike_id": "40d002d57425aaaf20fadc2d39400804", "type": "electric_scooter", "name": "40d002d57425aaaf20fadc2d39400804"}, {"is_disabled": 0, "is_reserved": 0, "fusion_lat": 0.0, "lat": 38.923517, "fusion_lon": 0.0, "rental_uris": {"ios": "https://dc.lft.to/lastmile_qr_scan", "android": "https://dc.lft.to/lastmile_qr_scan"}, "lon": -76.972076, "bike_id": "038f0ed111c3c1095454637598aa9323", "type": "electric_scooter", "name": "038f0ed111c3c1095454637598aa9323"}, {"is_disabled": 0, "is_reserved": 0, "fusion_lat": 0.0, "lat": 38.91420883333333, "fusion_lon": 0.0, "rental_uris": {"ios": "https://dc.lft.to/lastmile_qr_scan", "android": "https://dc.lft.to/lastmile_qr_scan"}, "lon": -77.02233016666666, "bike_id": "4a82406e38f5a9903525423ec65e9958", "type": "electric_scooter", "name": "4a82406e38f5a9903525423ec65e9958"}, {"is_disabled": 0, "is_reserved": 0, "fusion_lat": 0.0, "lat": 38.9002345, "fusion_lon": 0.0, "rental_uris": {"ios": "https://dc.lft.to/lastmile_qr_scan", "android": "https://dc.lft.to/lastmile_qr_scan"}, "lon": -76.99447816666667, "bike_id": "21fd8ccf29e24b32f262061e1278e6d6", "type": "electric_scooter", "name": "21fd8ccf29e24b32f262061e1278e6d6"}, {"is_disabled": 0, "is_reserved": 0, "fusion_lat": 0.0, "lat": 38.89623783333333, "fusion_lon": 0.0, "rental_uris": {"ios": "https://dc.lft.to/lastmile_qr_scan", "android": "https://dc.lft.to/lastmile_qr_scan"}, "lon": -77.04050966666667, "bike_id": "beb035078f04e85b0adaa55827e72d81", "type": "electric_scooter", "name": "beb035078f04e85b0adaa55827e72d81"}, {"is_disabled": 0, "is_reserved": 0, "fusion_lat": 0.0, "lat": 38.9006415, "fusion_lon": 0.0, "rental_uris": {"ios": "https://dc.lft.to/lastmile_qr_scan", "android": "https://dc.lft.to/lastmile_qr_scan"}, "lon": -77.04532533333334, "bike_id": "56a5cc9ca943720618b3fe7022950462", "type": "electric_scooter", "name": "56a5cc9ca943720618b3fe7022950462"}, {"is_disabled": 0, "is_reserved": 0, "fusion_lat": 0.0, "lat": 38.84008883333333, "fusion_lon": 0.0, "rental_uris": {"ios": "https://dc.lft.to/lastmile_qr_scan", "android": "https://dc.lft.to/lastmile_qr_scan"}, "lon": -76.988582, "bike_id": "05a92ad730a5eac76e434ce8d5d04244", "type": "electric_bike", "name": "05a92ad730a5eac76e434ce8d5d04244"}, {"is_disabled": 0, "is_reserved": 0, "fusion_lat": 0.0, "lat": 38.895015, "fusion_lon": 0.0, "rental_uris": {"ios": "https://dc.lft.to/lastmile_qr_scan", "android": "https://dc.lft.to/lastmile_qr_scan"}, "lon": -76.97413016666667, "bike_id": "652b4f7ecca799971bf9b59ad9a3ba4a", "type": "electric_scooter", "name": "652b4f7ecca799971bf9b59ad9a3ba4a"}, {"is_disabled": 0, "is_reserved": 0, "fusion_lat": 0.0, "lat": 38.936048666666665, "fusion_lon": 0.0, "rental_uris": {"ios": "https://dc.lft.to/lastmile_qr_scan", "android": "https://dc.lft.to/lastmile_qr_scan"}, "lon": -77.0559245, "bike_id": "064e6e6214691b8d332aac718c47c9db", "type": "electric_scooter", "name": "064e6e6214691b8d332aac718c47c9db"}, {"is_disabled": 0, "is_reserved": 0, "fusion_lat": 0.0, "lat": 38.88540916666667, "fusion_lon": 0.0, "rental_uris": {"ios": "https://dc.lft.to/lastmile_qr_scan", "android": "https://dc.lft.to/lastmile_qr_scan"}, "lon": -77.11693533333333, "bike_id": "102df37052e3c00b2075bae522827861", "type": "electric_bike", "name": "102df37052e3c00b2075bae522827861"}, {"is_disabled": 0, "is_reserved": 0, "fusion_lat": 0.0, "lat": 38.84675516666667, "fusion_lon": 0.0, "rental_uris": {"ios": "https://dc.lft.to/lastmile_qr_scan", "android": "https://dc.lft.to/lastmile_qr_scan"}, "lon": -77.1392435, "bike_id": "7e6a6f3c29357c6ac5bf97e0e9c79b99", "type": "electric_bike", "name": "7e6a6f3c29357c6ac5bf97e0e9c79b99"}, {"is_disabled": 0, "is_reserved": 0, "fusion_lat": 0.0, "lat": 38.9180845, "fusion_lon": 0.0, "rental_uris": {"ios": "https://dc.lft.to/lastmile_qr_scan", "android": "https://dc.lft.to/lastmile_qr_scan"}, "lon": -77.03201333333334, "bike_id": "6bfdf180832437ae514f3fa89e050e56", "type": "electric_scooter", "name": "6bfdf180832437ae514f3fa89e050e56"}, {"is_disabled": 0, "is_reserved": 0, "fusion_lat": 0.0, "lat": 38.91546183333333, "fusion_lon": 0.0, "rental_uris": {"ios": "https://dc.lft.to/lastmile_qr_scan", "android": "https://dc.lft.to/lastmile_qr_scan"}, "lon": -77.05105083333333, "bike_id": "a853fa1f45997601bf42e13d26ff94fb", "type": "electric_scooter", "name": "a853fa1f45997601bf42e13d26ff94fb"}, {"is_disabled": 0, "is_reserved": 0, "fusion_lat": 0.0, "lat": 38.911227, "fusion_lon": 0.0, "rental_uris": {"ios": "https://dc.lft.to/lastmile_qr_scan", "android": "https://dc.lft.to/lastmile_qr_scan"}, "lon": -77.0219185, "bike_id": "03b7d96ea7702fb90566c77dacb4a7ea", "type": "electric_scooter", "name": "03b7d96ea7702fb90566c77dacb4a7ea"}, {"is_disabled": 0, "is_reserved": 0, "fusion_lat": 0.0, "lat": 38.915078, "fusion_lon": 0.0, "rental_uris": {"ios": "https://dc.lft.to/lastmile_qr_scan", "android": "https://dc.lft.to/lastmile_qr_scan"}, "lon": -77.0191085, "bike_id": "12a63d1a297b65c528030d70fc814147", "type": "electric_scooter", "name": "12a63d1a297b65c528030d70fc814147"}, {"is_disabled": 0, "is_reserved": 0, "fusion_lat": 0.0, "lat": 38.88966716666667, "fusion_lon": 0.0, "rental_uris": {"ios": "https://dc.lft.to/lastmile_qr_scan", "android": "https://dc.lft.to/lastmile_qr_scan"}, "lon": -76.98033166666667, "bike_id": "a152eb3a737566facfa1803201780966", "type": "electric_scooter", "name": "a152eb3a737566facfa1803201780966"}, {"is_disabled": 0, "is_reserved": 0, "fusion_lat": 0.0, "lat": 38.884915, "fusion_lon": 0.0, "rental_uris": {"ios": "https://dc.lft.to/lastmile_qr_scan", "android": "https://dc.lft.to/lastmile_qr_scan"}, "lon": -77.03476166666667, "bike_id": "0359c7589e7bcc0932f875eb605b365d", "type": "electric_scooter", "name": "0359c7589e7bcc0932f875eb605b365d"}, {"is_disabled": 0, "is_reserved": 0, "fusion_lat": 0.0, "lat": 38.892830833333335, "fusion_lon": 0.0, "rental_uris": {"ios": "https://dc.lft.to/lastmile_qr_scan", "android": "https://dc.lft.to/lastmile_qr_scan"}, "lon": -77.04192933333333, "bike_id": "2fa38216b92098d92b7ac865b5c6aa90", "type": "electric_scooter", "name": "2fa38216b92098d92b7ac865b5c6aa90"}, {"is_disabled": 0, "is_reserved": 0, "fusion_lat": 0.0, "lat": 38.836135666666664, "fusion_lon": 0.0, "rental_uris": {"ios": "https://dc.lft.to/lastmile_qr_scan", "android": "https://dc.lft.to/lastmile_qr_scan"}, "lon": -77.00380433333333, "bike_id": "f429317765a33dd43667bc299336f58f", "type": "electric_bike", "name": "f429317765a33dd43667bc299336f58f"}, {"is_disabled": 0, "is_reserved": 0, "fusion_lat": 0.0, "lat": 38.91039333333333, "fusion_lon": 0.0, "rental_uris": {"ios": "https://dc.lft.to/lastmile_qr_scan", "android": "https://dc.lft.to/lastmile_qr_scan"}, "lon": -77.0371125, "bike_id": "a5e8194e1b9913ddc939b539a142d10f", "type": "electric_scooter", "name": "a5e8194e1b9913ddc939b539a142d10f"}, {"is_disabled": 0, "is_reserved": 0, "fusion_lat": 0.0, "lat": 38.92375, "fusion_lon": 0.0, "rental_uris": {"ios": "https://dc.lft.to/lastmile_qr_scan", "android": "https://dc.lft.to/lastmile_qr_scan"}, "lon": -77.04023633333334, "bike_id": "0fa4744a75ce72029672546a1bb63d96", "type": "electric_scooter", "name": "0fa4744a75ce72029672546a1bb63d96"}, {"is_disabled": 0, "is_reserved": 0, "fusion_lat": 0.0, "lat": 38.934302833333334, "fusion_lon": 0.0, "rental_uris": {"ios": "https://dc.lft.to/lastmile_qr_scan", "android": "https://dc.lft.to/lastmile_qr_scan"}, "lon": -77.04309583333334, "bike_id": "87b571f98b3babcf238a03e81b93fe88", "type": "electric_scooter", "name": "87b571f98b3babcf238a03e81b93fe88"}, {"is_disabled": 0, "is_reserved": 0, "fusion_lat": 0.0, "lat": 38.8960095, "fusion_lon": 0.0, "rental_uris": {"ios": "https://dc.lft.to/lastmile_qr_scan", "android": "https://dc.lft.to/lastmile_qr_scan"}, "lon": -77.02194466666667, "bike_id": "d6b9b17806c3926636dfb836f12b8b22", "type": "electric_scooter", "name": "d6b9b17806c3926636dfb836f12b8b22"}, {"is_disabled": 0, "is_reserved": 0, "fusion_lat": 0.0, "lat": 38.918199333333334, "fusion_lon": 0.0, "rental_uris": {"ios": "https://dc.lft.to/lastmile_qr_scan", "android": "https://dc.lft.to/lastmile_qr_scan"}, "lon": -77.027042, "bike_id": "3a131c12a5e72fb27d5a194e04d79d2e", "type": "electric_scooter", "name": "3a131c12a5e72fb27d5a194e04d79d2e"}, {"is_disabled": 0, "is_reserved": 0, "fusion_lat": 0.0, "lat": 38.8067945, "fusion_lon": 0.0, "rental_uris": {"ios": "https://dc.lft.to/lastmile_qr_scan", "android": "https://dc.lft.to/lastmile_qr_scan"}, "lon": -77.06915216666667, "bike_id": "8fda21c4c77e7be71a3672a9b3a2bcbb", "type": "electric_bike", "name": "8fda21c4c77e7be71a3672a9b3a2bcbb"}, {"is_disabled": 0, "is_reserved": 0, "fusion_lat": 0.0, "lat": 38.906696, "fusion_lon": 0.0, "rental_uris": {"ios": "https://dc.lft.to/lastmile_qr_scan", "android": "https://dc.lft.to/lastmile_qr_scan"}, "lon": -77.0454625, "bike_id": "0f70cb17678f5c80044936f9e41c6eba", "type": "electric_scooter", "name": "0f70cb17678f5c80044936f9e41c6eba"}, {"is_disabled": 0, "is_reserved": 0, "fusion_lat": 0.0, "lat": 38.910471333333334, "fusion_lon": 0.0, "rental_uris": {"ios": "https://dc.lft.to/lastmile_qr_scan", "android": "https://dc.lft.to/lastmile_qr_scan"}, "lon": -77.015104, "bike_id": "40aec8b0ea5c92b55890546b625a37af", "type": "electric_scooter", "name": "40aec8b0ea5c92b55890546b625a37af"}, {"is_disabled": 0, "is_reserved": 0, "fusion_lat": 0.0, "lat": 38.906866, "fusion_lon": 0.0, "rental_uris": {"ios": "https://dc.lft.to/lastmile_qr_scan", "android": "https://dc.lft.to/lastmile_qr_scan"}, "lon": -77.0625155, "bike_id": "9cf2ceb03408a1eae5bf4b5485240232", "type": "electric_scooter", "name": "9cf2ceb03408a1eae5bf4b5485240232"}, {"is_disabled": 0, "is_reserved": 0, "fusion_lat": 0.0, "lat": 38.94591416666667, "fusion_lon": 0.0, "rental_uris": {"ios": "https://dc.lft.to/lastmile_qr_scan", "android": "https://dc.lft.to/lastmile_qr_scan"}, "lon": -77.0203295, "bike_id": "36635f3d0a1d7591b033419d582d9ea4", "type": "electric_scooter", "name": "36635f3d0a1d7591b033419d582d9ea4"}, {"is_disabled": 0, "is_reserved": 0, "fusion_lat": 0.0, "lat": 38.94633316666667, "fusion_lon": 0.0, "rental_uris": {"ios": "https://dc.lft.to/lastmile_qr_scan", "android": "https://dc.lft.to/lastmile_qr_scan"}, "lon": -77.01841733333333, "bike_id": "d739c173dd36cf65be11aaa84f215445", "type": "electric_scooter", "name": "d739c173dd36cf65be11aaa84f215445"}, {"is_disabled": 0, "is_reserved": 0, "fusion_lat": 0.0, "lat": 38.89352433333333, "fusion_lon": 0.0, "rental_uris": {"ios": "https://dc.lft.to/lastmile_qr_scan", "android": "https://dc.lft.to/lastmile_qr_scan"}, "lon": -77.03964383333333, "bike_id": "bfbd24e91a52af7a53100cbca85473e9", "type": "electric_scooter", "name": "bfbd24e91a52af7a53100cbca85473e9"}, {"is_disabled": 0, "is_reserved": 0, "fusion_lat": 0.0, "lat": 38.947544, "fusion_lon": 0.0, "rental_uris": {"ios": "https://dc.lft.to/lastmile_qr_scan", "android": "https://dc.lft.to/lastmile_qr_scan"}, "lon": -77.02355266666666, "bike_id": "97172e0490744302251f1a054ceee26a", "type": "electric_scooter", "name": "97172e0490744302251f1a054ceee26a"}, {"is_disabled": 0, "is_reserved": 0, "fusion_lat": 0.0, "lat": 38.856008833333334, "fusion_lon": 0.0, "rental_uris": {"ios": "https://dc.lft.to/lastmile_qr_scan", "android": "https://dc.lft.to/lastmile_qr_scan"}, "lon": -76.9728285, "bike_id": "edba879558b3f054dab90729adf9bad7", "type": "electric_bike", "name": "edba879558b3f054dab90729adf9bad7"}, {"is_disabled": 0, "is_reserved": 0, "fusion_lat": 0.0, "lat": 38.89848083333333, "fusion_lon": 0.0, "rental_uris": {"ios": "https://dc.lft.to/lastmile_qr_scan", "android": "https://dc.lft.to/lastmile_qr_scan"}, "lon": -77.03952483333333, "bike_id": "40018a8d2b2fdbcecbda4c0491d3dd64", "type": "electric_scooter", "name": "40018a8d2b2fdbcecbda4c0491d3dd64"}, {"is_disabled": 0, "is_reserved": 0, "fusion_lat": 0.0, "lat": 38.9110335, "fusion_lon": 0.0, "rental_uris": {"ios": "https://dc.lft.to/lastmile_qr_scan", "android": "https://dc.lft.to/lastmile_qr_scan"}, "lon": -77.02804333333333, "bike_id": "6a6a6197891c50eb77c7596bb8cb67fc", "type": "electric_scooter", "name": "6a6a6197891c50eb77c7596bb8cb67fc"}, {"is_disabled": 0, "is_reserved": 0, "fusion_lat": 0.0, "lat": 38.918193333333335, "fusion_lon": 0.0, "rental_uris": {"ios": "https://dc.lft.to/lastmile_qr_scan", "android": "https://dc.lft.to/lastmile_qr_scan"}, "lon": -77.02524933333333, "bike_id": "25ac6908e7a853e99ff4e814eb62f09e", "type": "electric_scooter", "name": "25ac6908e7a853e99ff4e814eb62f09e"}, {"is_disabled": 0, "is_reserved": 0, "fusion_lat": 0.0, "lat": 38.804105666666665, "fusion_lon": 0.0, "rental_uris": {"ios": "https://dc.lft.to/lastmile_qr_scan", "android": "https://dc.lft.to/lastmile_qr_scan"}, "lon": -77.11330083333333, "bike_id": "d4374d0add37e9bfd9e6ea9c3bf94305", "type": "electric_bike", "name": "d4374d0add37e9bfd9e6ea9c3bf94305"}, {"is_disabled": 0, "is_reserved": 0, "fusion_lat": 0.0, "lat": 38.92334916666667, "fusion_lon": 0.0, "rental_uris": {"ios": "https://dc.lft.to/lastmile_qr_scan", "android": "https://dc.lft.to/lastmile_qr_scan"}, "lon": -77.04187183333333, "bike_id": "368605a85acc3f777b7dc5776146c16d", "type": "electric_scooter", "name": "368605a85acc3f777b7dc5776146c16d"}, {"is_disabled": 0, "is_reserved": 0, "fusion_lat": 0.0, "lat": 39.07441716666667, "fusion_lon": 0.0, "rental_uris": {"ios": "https://dc.lft.to/lastmile_qr_scan", "android": "https://dc.lft.to/lastmile_qr_scan"}, "lon": -77.11516233333333, "bike_id": "8df07abbab4ccc20c06b6bd6586fd7c5", "type": "electric_bike", "name": "8df07abbab4ccc20c06b6bd6586fd7c5"}, {"is_disabled": 0, "is_reserved": 0, "fusion_lat": 0.0, "lat": 38.903706666666665, "fusion_lon": 0.0, "rental_uris": {"ios": "https://dc.lft.to/lastmile_qr_scan", "android": "https://dc.lft.to/lastmile_qr_scan"}, "lon": -77.06022116666666, "bike_id": "b4dc758f0db93c762132f89df2ce013c", "type": "electric_scooter", "name": "b4dc758f0db93c762132f89df2ce013c"}, {"is_disabled": 0, "is_reserved": 0, "fusion_lat": 0.0, "lat": 38.91608433333333, "fusion_lon": 0.0, "rental_uris": {"ios": "https://dc.lft.to/lastmile_qr_scan", "android": "https://dc.lft.to/lastmile_qr_scan"}, "lon": -77.032055, "bike_id": "bb5689f92d0198b35bb07649a4134592", "type": "electric_scooter", "name": "bb5689f92d0198b35bb07649a4134592"}, {"is_disabled": 0, "is_reserved": 0, "fusion_lat": 0.0, "lat": 38.8983145, "fusion_lon": 0.0, "rental_uris": {"ios": "https://dc.lft.to/lastmile_qr_scan", "android": "https://dc.lft.to/lastmile_qr_scan"}, "lon": -76.94634333333333, "bike_id": "96ca2e2f8fbf63c90d879f988a16efda", "type": "electric_scooter", "name": "96ca2e2f8fbf63c90d879f988a16efda"}, {"is_disabled": 0, "is_reserved": 0, "fusion_lat": 0.0, "lat": 38.896737, "fusion_lon": 0.0, "rental_uris": {"ios": "https://dc.lft.to/lastmile_qr_scan", "android": "https://dc.lft.to/lastmile_qr_scan"}, "lon": -77.05096416666666, "bike_id": "c5b7d9b2ff4d9426af851c3975ce6713", "type": "electric_scooter", "name": "c5b7d9b2ff4d9426af851c3975ce6713"}, {"is_disabled": 0, "is_reserved": 0, "fusion_lat": 0.0, "lat": 38.9201775, "fusion_lon": 0.0, "rental_uris": {"ios": "https://dc.lft.to/lastmile_qr_scan", "android": "https://dc.lft.to/lastmile_qr_scan"}, "lon": -77.03134883333334, "bike_id": "f8f1b662d308f39e6a1467a7010ab2d7", "type": "electric_scooter", "name": "f8f1b662d308f39e6a1467a7010ab2d7"}, {"is_disabled": 0, "is_reserved": 0, "fusion_lat": 0.0, "lat": 38.89856983333333, "fusion_lon": 0.0, "rental_uris": {"ios": "https://dc.lft.to/lastmile_qr_scan", "android": "https://dc.lft.to/lastmile_qr_scan"}, "lon": -76.94638433333333, "bike_id": "808970bc5c35c627eb9834aed05f5304", "type": "electric_scooter", "name": "808970bc5c35c627eb9834aed05f5304"}, {"is_disabled": 0, "is_reserved": 0, "fusion_lat": 0.0, "lat": 38.89725516666667, "fusion_lon": 0.0, "rental_uris": {"ios": "https://dc.lft.to/lastmile_qr_scan", "android": "https://dc.lft.to/lastmile_qr_scan"}, "lon": -77.02734216666667, "bike_id": "09c8aefbf8afeb35bd34b44dd252d0e6", "type": "electric_scooter", "name": "09c8aefbf8afeb35bd34b44dd252d0e6"}, {"is_disabled": 0, "is_reserved": 0, "fusion_lat": 0.0, "lat": 38.90729283333334, "fusion_lon": 0.0, "rental_uris": {"ios": "https://dc.lft.to/lastmile_qr_scan", "android": "https://dc.lft.to/lastmile_qr_scan"}, "lon": -77.00063, "bike_id": "495058273bff211249045e61dedaf3f6", "type": "electric_scooter", "name": "495058273bff211249045e61dedaf3f6"}, {"is_disabled": 0, "is_reserved": 0, "fusion_lat": 0.0, "lat": 38.91177533333333, "fusion_lon": 0.0, "rental_uris": {"ios": "https://dc.lft.to/lastmile_qr_scan", "android": "https://dc.lft.to/lastmile_qr_scan"}, "lon": -77.00210633333333, "bike_id": "ad8b321ed6e1d727fe83c3858acfbf96", "type": "electric_scooter", "name": "ad8b321ed6e1d727fe83c3858acfbf96"}, {"is_disabled": 0, "is_reserved": 0, "fusion_lat": 0.0, "lat": 38.93877766666667, "fusion_lon": 0.0, "rental_uris": {"ios": "https://dc.lft.to/lastmile_qr_scan", "android": "https://dc.lft.to/lastmile_qr_scan"}, "lon": -77.0304085, "bike_id": "b05b0efe7d651220003dde2d09cdf4dc", "type": "electric_scooter", "name": "b05b0efe7d651220003dde2d09cdf4dc"}, {"is_disabled": 0, "is_reserved": 0, "fusion_lat": 0.0, "lat": 38.9199305, "fusion_lon": 0.0, "rental_uris": {"ios": "https://dc.lft.to/lastmile_qr_scan", "android": "https://dc.lft.to/lastmile_qr_scan"}, "lon": -77.03247833333333, "bike_id": "552f3518443edc9420742191beab8c34", "type": "electric_scooter", "name": "552f3518443edc9420742191beab8c34"}, {"is_disabled": 0, "is_reserved": 0, "fusion_lat": 0.0, "lat": 38.90498766666666, "fusion_lon": 0.0, "rental_uris": {"ios": "https://dc.lft.to/lastmile_qr_scan", "android": "https://dc.lft.to/lastmile_qr_scan"}, "lon": -77.01692233333333, "bike_id": "ce1710722c9b4d3fc17425dcca379de7", "type": "electric_scooter", "name": "ce1710722c9b4d3fc17425dcca379de7"}, {"is_disabled": 0, "is_reserved": 0, "fusion_lat": 0.0, "lat": 38.919937, "fusion_lon": 0.0, "rental_uris": {"ios": "https://dc.lft.to/lastmile_qr_scan", "android": "https://dc.lft.to/lastmile_qr_scan"}, "lon": -77.032493, "bike_id": "c1c994657a3591379ef9d34607577abc", "type": "electric_scooter", "name": "c1c994657a3591379ef9d34607577abc"}, {"is_disabled": 0, "is_reserved": 0, "fusion_lat": 0.0, "lat": 38.87076316666667, "fusion_lon": 0.0, "rental_uris": {"ios": "https://dc.lft.to/lastmile_qr_scan", "android": "https://dc.lft.to/lastmile_qr_scan"}, "lon": -76.97941416666667, "bike_id": "7cac2cf6325cc6b8c0262c188856eda8", "type": "electric_scooter", "name": "7cac2cf6325cc6b8c0262c188856eda8"}, {"is_disabled": 0, "is_reserved": 0, "fusion_lat": 0.0, "lat": 38.89295716666667, "fusion_lon": 0.0, "rental_uris": {"ios": "https://dc.lft.to/lastmile_qr_scan", "android": "https://dc.lft.to/lastmile_qr_scan"}, "lon": -76.99959416666667, "bike_id": "7636c0c01237051fb4b4116b24214608", "type": "electric_scooter", "name": "7636c0c01237051fb4b4116b24214608"}, {"is_disabled": 0, "is_reserved": 0, "fusion_lat": 0.0, "lat": 38.93063516666667, "fusion_lon": 0.0, "rental_uris": {"ios": "https://dc.lft.to/lastmile_qr_scan", "android": "https://dc.lft.to/lastmile_qr_scan"}, "lon": -76.97326866666667, "bike_id": "31bf6d91c802f0ed0dadc679b1625925", "type": "electric_scooter", "name": "31bf6d91c802f0ed0dadc679b1625925"}, {"is_disabled": 0, "is_reserved": 0, "fusion_lat": 0.0, "lat": 38.9165275, "fusion_lon": 0.0, "rental_uris": {"ios": "https://dc.lft.to/lastmile_qr_scan", "android": "https://dc.lft.to/lastmile_qr_scan"}, "lon": -77.02181766666666, "bike_id": "672ab4b792c5a37f5af0433220e4676a", "type": "electric_scooter", "name": "672ab4b792c5a37f5af0433220e4676a"}, {"is_disabled": 0, "is_reserved": 0, "fusion_lat": 0.0, "lat": 38.925521, "fusion_lon": 0.0, "rental_uris": {"ios": "https://dc.lft.to/lastmile_qr_scan", "android": "https://dc.lft.to/lastmile_qr_scan"}, "lon": -77.0270365, "bike_id": "2261497032fd2560709e19fbcccee1a3", "type": "electric_scooter", "name": "2261497032fd2560709e19fbcccee1a3"}, {"is_disabled": 0, "is_reserved": 0, "fusion_lat": 0.0, "lat": 38.95641, "fusion_lon": 0.0, "rental_uris": {"ios": "https://dc.lft.to/lastmile_qr_scan", "android": "https://dc.lft.to/lastmile_qr_scan"}, "lon": -77.036288, "bike_id": "1d772edaf0929e7846bd7b2eca95cc02", "type": "electric_scooter", "name": "1d772edaf0929e7846bd7b2eca95cc02"}, {"is_disabled": 0, "is_reserved": 0, "fusion_lat": 0.0, "lat": 38.890795833333335, "fusion_lon": 0.0, "rental_uris": {"ios": "https://dc.lft.to/lastmile_qr_scan", "android": "https://dc.lft.to/lastmile_qr_scan"}, "lon": -76.954688, "bike_id": "e9ac26b034ce6e82733c4e0465f000b1", "type": "electric_bike", "name": "e9ac26b034ce6e82733c4e0465f000b1"}, {"is_disabled": 0, "is_reserved": 0, "fusion_lat": 0.0, "lat": 38.932399333333336, "fusion_lon": 0.0, "rental_uris": {"ios": "https://dc.lft.to/lastmile_qr_scan", "android": "https://dc.lft.to/lastmile_qr_scan"}, "lon": -77.02028283333334, "bike_id": "a582983413139dc292cee598589b0947", "type": "electric_scooter", "name": "a582983413139dc292cee598589b0947"}, {"is_disabled": 0, "is_reserved": 0, "fusion_lat": 0.0, "lat": 38.931893333333335, "fusion_lon": 0.0, "rental_uris": {"ios": "https://dc.lft.to/lastmile_qr_scan", "android": "https://dc.lft.to/lastmile_qr_scan"}, "lon": -77.018689, "bike_id": "568f3d2420b762e480ef0dec896454c2", "type": "electric_scooter", "name": "568f3d2420b762e480ef0dec896454c2"}, {"is_disabled": 0, "is_reserved": 0, "fusion_lat": 0.0, "lat": 38.935433333333336, "fusion_lon": 0.0, "rental_uris": {"ios": "https://dc.lft.to/lastmile_qr_scan", "android": "https://dc.lft.to/lastmile_qr_scan"}, "lon": -76.98361933333334, "bike_id": "066437530e18389d416d1b9e307d25f7", "type": "electric_bike", "name": "066437530e18389d416d1b9e307d25f7"}, {"is_disabled": 0, "is_reserved": 0, "fusion_lat": 0.0, "lat": 38.926900333333336, "fusion_lon": 0.0, "rental_uris": {"ios": "https://dc.lft.to/lastmile_qr_scan", "android": "https://dc.lft.to/lastmile_qr_scan"}, "lon": -77.02107983333333, "bike_id": "e686467a8f02686071193911579c0eef", "type": "electric_scooter", "name": "e686467a8f02686071193911579c0eef"}, {"is_disabled": 0, "is_reserved": 0, "fusion_lat": 0.0, "lat": 38.91695, "fusion_lon": 0.0, "rental_uris": {"ios": "https://dc.lft.to/lastmile_qr_scan", "android": "https://dc.lft.to/lastmile_qr_scan"}, "lon": -77.03763966666666, "bike_id": "c5e9b5d8a6311a623bffecc12d1ce225", "type": "electric_scooter", "name": "c5e9b5d8a6311a623bffecc12d1ce225"}, {"is_disabled": 0, "is_reserved": 0, "fusion_lat": 0.0, "lat": 39.02627, "fusion_lon": 0.0, "rental_uris": {"ios": "https://dc.lft.to/lastmile_qr_scan", "android": "https://dc.lft.to/lastmile_qr_scan"}, "lon": -77.03877583333333, "bike_id": "34992d86b1c29e5e26a3e1f493f36d38", "type": "electric_bike", "name": "34992d86b1c29e5e26a3e1f493f36d38"}, {"is_disabled": 0, "is_reserved": 0, "fusion_lat": 0.0, "lat": 38.919132, "fusion_lon": 0.0, "rental_uris": {"ios": "https://dc.lft.to/lastmile_qr_scan", "android": "https://dc.lft.to/lastmile_qr_scan"}, "lon": -77.04461366666666, "bike_id": "6bf88aff0bb3802b4e2809477f82eaf7", "type": "electric_scooter", "name": "6bf88aff0bb3802b4e2809477f82eaf7"}, {"is_disabled": 0, "is_reserved": 0, "fusion_lat": 0.0, "lat": 38.857988666666664, "fusion_lon": 0.0, "rental_uris": {"ios": "https://dc.lft.to/lastmile_qr_scan", "android": "https://dc.lft.to/lastmile_qr_scan"}, "lon": -76.98753283333333, "bike_id": "c04e97db8856a433b9701457bf61b1fa", "type": "electric_bike", "name": "c04e97db8856a433b9701457bf61b1fa"}, {"is_disabled": 0, "is_reserved": 0, "fusion_lat": 0.0, "lat": 38.90229683333333, "fusion_lon": 0.0, "rental_uris": {"ios": "https://dc.lft.to/lastmile_qr_scan", "android": "https://dc.lft.to/lastmile_qr_scan"}, "lon": -77.03466516666667, "bike_id": "d45622a09d79487d436817f1db239c18", "type": "electric_scooter", "name": "d45622a09d79487d436817f1db239c18"}, {"is_disabled": 0, "is_reserved": 0, "fusion_lat": 0.0, "lat": 38.90468766666667, "fusion_lon": 0.0, "rental_uris": {"ios": "https://dc.lft.to/lastmile_qr_scan", "android": "https://dc.lft.to/lastmile_qr_scan"}, "lon": -76.98421483333334, "bike_id": "b900ca1a741cfc5f2a4a8701560e005e", "type": "electric_bike", "name": "b900ca1a741cfc5f2a4a8701560e005e"}, {"is_disabled": 0, "is_reserved": 0, "fusion_lat": 0.0, "lat": 38.899645166666666, "fusion_lon": 0.0, "rental_uris": {"ios": "https://dc.lft.to/lastmile_qr_scan", "android": "https://dc.lft.to/lastmile_qr_scan"}, "lon": -77.01611416666667, "bike_id": "be1154c2221386aae3a2977937d43761", "type": "electric_scooter", "name": "be1154c2221386aae3a2977937d43761"}, {"is_disabled": 0, "is_reserved": 0, "fusion_lat": 0.0, "lat": 38.917173166666664, "fusion_lon": 0.0, "rental_uris": {"ios": "https://dc.lft.to/lastmile_qr_scan", "android": "https://dc.lft.to/lastmile_qr_scan"}, "lon": -77.04172083333333, "bike_id": "cf1b90fe16cbeb36128010688d030def", "type": "electric_scooter", "name": "cf1b90fe16cbeb36128010688d030def"}, {"is_disabled": 0, "is_reserved": 0, "fusion_lat": 0.0, "lat": 38.84627666666667, "fusion_lon": 0.0, "rental_uris": {"ios": "https://dc.lft.to/lastmile_qr_scan", "android": "https://dc.lft.to/lastmile_qr_scan"}, "lon": -76.96900883333333, "bike_id": "b5d3c5203a862ad4d4649e8280648373", "type": "electric_bike", "name": "b5d3c5203a862ad4d4649e8280648373"}, {"is_disabled": 0, "is_reserved": 0, "fusion_lat": 0.0, "lat": 38.9026595, "fusion_lon": 0.0, "rental_uris": {"ios": "https://dc.lft.to/lastmile_qr_scan", "android": "https://dc.lft.to/lastmile_qr_scan"}, "lon": -77.02642533333334, "bike_id": "b3b94628ed64aabfafc6ffa83b59e215", "type": "electric_scooter", "name": "b3b94628ed64aabfafc6ffa83b59e215"}, {"is_disabled": 0, "is_reserved": 0, "fusion_lat": 0.0, "lat": 38.83492316666667, "fusion_lon": 0.0, "rental_uris": {"ios": "https://dc.lft.to/lastmile_qr_scan", "android": "https://dc.lft.to/lastmile_qr_scan"}, "lon": -77.00435566666667, "bike_id": "7606371614fa65edcb89e07f4e9e30c9", "type": "electric_bike", "name": "7606371614fa65edcb89e07f4e9e30c9"}, {"is_disabled": 0, "is_reserved": 0, "fusion_lat": 0.0, "lat": 39.022978333333334, "fusion_lon": 0.0, "rental_uris": {"ios": "https://dc.lft.to/lastmile_qr_scan", "android": "https://dc.lft.to/lastmile_qr_scan"}, "lon": -77.0210205, "bike_id": "bcdcf9e76d193bfc9b89157920288679", "type": "electric_bike", "name": "bcdcf9e76d193bfc9b89157920288679"}, {"is_disabled": 0, "is_reserved": 0, "fusion_lat": 0.0, "lat": 38.8871645, "fusion_lon": 0.0, "rental_uris": {"ios": "https://dc.lft.to/lastmile_qr_scan", "android": "https://dc.lft.to/lastmile_qr_scan"}, "lon": -76.99610183333333, "bike_id": "4a2d0a0bff9128543f3321f6e7af3eff", "type": "electric_scooter", "name": "4a2d0a0bff9128543f3321f6e7af3eff"}, {"is_disabled": 0, "is_reserved": 0, "fusion_lat": 0.0, "lat": 38.898978, "fusion_lon": 0.0, "rental_uris": {"ios": "https://dc.lft.to/lastmile_qr_scan", "android": "https://dc.lft.to/lastmile_qr_scan"}, "lon": -77.03968283333333, "bike_id": "fa86445eaf38e8112e4749d4c5a91c19", "type": "electric_scooter", "name": "fa86445eaf38e8112e4749d4c5a91c19"}, {"is_disabled": 0, "is_reserved": 0, "fusion_lat": 0.0, "lat": 38.92739666666667, "fusion_lon": 0.0, "rental_uris": {"ios": "https://dc.lft.to/lastmile_qr_scan", "android": "https://dc.lft.to/lastmile_qr_scan"}, "lon": -77.07323716666667, "bike_id": "5a1124cdc65d21188ae0225baa225b38", "type": "electric_bike", "name": "5a1124cdc65d21188ae0225baa225b38"}, {"is_disabled": 0, "is_reserved": 0, "fusion_lat": 0.0, "lat": 38.97477533333333, "fusion_lon": 0.0, "rental_uris": {"ios": "https://dc.lft.to/lastmile_qr_scan", "android": "https://dc.lft.to/lastmile_qr_scan"}, "lon": -76.98665666666666, "bike_id": "44dad727188989845a021941f01ff20a", "type": "electric_bike", "name": "44dad727188989845a021941f01ff20a"}, {"is_disabled": 0, "is_reserved": 0, "fusion_lat": 0.0, "lat": 38.916611, "fusion_lon": 0.0, "rental_uris": {"ios": "https://dc.lft.to/lastmile_qr_scan", "android": "https://dc.lft.to/lastmile_qr_scan"}, "lon": -77.03217416666666, "bike_id": "0d32722401a17148db7b12200c29f9d4", "type": "electric_scooter", "name": "0d32722401a17148db7b12200c29f9d4"}, {"is_disabled": 0, "is_reserved": 0, "fusion_lat": 0.0, "lat": 38.90850283333333, "fusion_lon": 0.0, "rental_uris": {"ios": "https://dc.lft.to/lastmile_qr_scan", "android": "https://dc.lft.to/lastmile_qr_scan"}, "lon": -76.99795816666666, "bike_id": "f83a77b37a06d25d69c103906b516318", "type": "electric_scooter", "name": "f83a77b37a06d25d69c103906b516318"}, {"is_disabled": 0, "is_reserved": 0, "fusion_lat": 0.0, "lat": 38.88869283333333, "fusion_lon": 0.0, "rental_uris": {"ios": "https://dc.lft.to/lastmile_qr_scan", "android": "https://dc.lft.to/lastmile_qr_scan"}, "lon": -76.95700883333333, "bike_id": "70417c9599e9548067b1d008c5de99ad", "type": "electric_bike", "name": "70417c9599e9548067b1d008c5de99ad"}, {"is_disabled": 0, "is_reserved": 0, "fusion_lat": 0.0, "lat": 38.903986333333336, "fusion_lon": 0.0, "rental_uris": {"ios": "https://dc.lft.to/lastmile_qr_scan", "android": "https://dc.lft.to/lastmile_qr_scan"}, "lon": -77.01609783333333, "bike_id": "6fe6095cecb06c789ebb0689f57464ee", "type": "electric_scooter", "name": "6fe6095cecb06c789ebb0689f57464ee"}, {"is_disabled": 0, "is_reserved": 0, "fusion_lat": 0.0, "lat": 38.910423333333334, "fusion_lon": 0.0, "rental_uris": {"ios": "https://dc.lft.to/lastmile_qr_scan", "android": "https://dc.lft.to/lastmile_qr_scan"}, "lon": -77.04064483333333, "bike_id": "1ba112ffdadde016cfddbdaa016233d3", "type": "electric_scooter", "name": "1ba112ffdadde016cfddbdaa016233d3"}, {"is_disabled": 0, "is_reserved": 0, "fusion_lat": 0.0, "lat": 38.9027125, "fusion_lon": 0.0, "rental_uris": {"ios": "https://dc.lft.to/lastmile_qr_scan", "android": "https://dc.lft.to/lastmile_qr_scan"}, "lon": -77.00891633333333, "bike_id": "ac7e6b7c46d54baf37ced344e01c1c21", "type": "electric_scooter", "name": "ac7e6b7c46d54baf37ced344e01c1c21"}, {"is_disabled": 0, "is_reserved": 0, "fusion_lat": 0.0, "lat": 38.90813883333333, "fusion_lon": 0.0, "rental_uris": {"ios": "https://dc.lft.to/lastmile_qr_scan", "android": "https://dc.lft.to/lastmile_qr_scan"}, "lon": -77.006101, "bike_id": "5ab4ef07cc17be4bbe3ab1927ceb3ff3", "type": "electric_scooter", "name": "5ab4ef07cc17be4bbe3ab1927ceb3ff3"}, {"is_disabled": 0, "is_reserved": 0, "fusion_lat": 0.0, "lat": 38.907721333333335, "fusion_lon": 0.0, "rental_uris": {"ios": "https://dc.lft.to/lastmile_qr_scan", "android": "https://dc.lft.to/lastmile_qr_scan"}, "lon": -77.02381033333333, "bike_id": "e8f5512c029cc373198452933b67e0e8", "type": "electric_scooter", "name": "e8f5512c029cc373198452933b67e0e8"}, {"is_disabled": 0, "is_reserved": 0, "fusion_lat": 0.0, "lat": 38.901511166666666, "fusion_lon": 0.0, "rental_uris": {"ios": "https://dc.lft.to/lastmile_qr_scan", "android": "https://dc.lft.to/lastmile_qr_scan"}, "lon": -77.03934483333333, "bike_id": "fbd30c9f6571b861bcdcb0011d7235a6", "type": "electric_scooter", "name": "fbd30c9f6571b861bcdcb0011d7235a6"}, {"is_disabled": 0, "is_reserved": 0, "fusion_lat": 0.0, "lat": 38.9110795, "fusion_lon": 0.0, "rental_uris": {"ios": "https://dc.lft.to/lastmile_qr_scan", "android": "https://dc.lft.to/lastmile_qr_scan"}, "lon": -77.0222245, "bike_id": "772983bc2317a34b2756548c7c957b3f", "type": "electric_scooter", "name": "772983bc2317a34b2756548c7c957b3f"}, {"is_disabled": 0, "is_reserved": 0, "fusion_lat": 0.0, "lat": 38.9024, "fusion_lon": 0.0, "rental_uris": {"ios": "https://dc.lft.to/lastmile_qr_scan", "android": "https://dc.lft.to/lastmile_qr_scan"}, "lon": -77.03481366666666, "bike_id": "811c155a31e6cb1092859924fc21b8ad", "type": "electric_scooter", "name": "811c155a31e6cb1092859924fc21b8ad"}, {"is_disabled": 0, "is_reserved": 0, "fusion_lat": 0.0, "lat": 38.95237516666667, "fusion_lon": 0.0, "rental_uris": {"ios": "https://dc.lft.to/lastmile_qr_scan", "android": "https://dc.lft.to/lastmile_qr_scan"}, "lon": -76.98245366666667, "bike_id": "b79b6588acf80e582bbc9b962a0e97f7", "type": "electric_bike", "name": "b79b6588acf80e582bbc9b962a0e97f7"}, {"is_disabled": 0, "is_reserved": 0, "fusion_lat": 0.0, "lat": 38.885596, "fusion_lon": 0.0, "rental_uris": {"ios": "https://dc.lft.to/lastmile_qr_scan", "android": "https://dc.lft.to/lastmile_qr_scan"}, "lon": -77.01178433333334, "bike_id": "c84d8f6e08af79af353701e0b5409891", "type": "electric_scooter", "name": "c84d8f6e08af79af353701e0b5409891"}, {"is_disabled": 0, "is_reserved": 0, "fusion_lat": 0.0, "lat": 38.87132583333333, "fusion_lon": 0.0, "rental_uris": {"ios": "https://dc.lft.to/lastmile_qr_scan", "android": "https://dc.lft.to/lastmile_qr_scan"}, "lon": -77.0075695, "bike_id": "6962cb73acb969f07b624ffdddeda230", "type": "electric_bike", "name": "6962cb73acb969f07b624ffdddeda230"}, {"is_disabled": 0, "is_reserved": 0, "fusion_lat": 0.0, "lat": 38.9306805, "fusion_lon": 0.0, "rental_uris": {"ios": "https://dc.lft.to/lastmile_qr_scan", "android": "https://dc.lft.to/lastmile_qr_scan"},