{"data": {"bikes": [{"lon": -77.004022, "is_disabled": 0, "lat": 38.92134383333333, "fusion_lat": 0.0, "is_reserved": 0, "rental_uris": {"ios": "https://dc.lft.to/lastmile_qr_scan", "android": "https://dc.lft.to/lastmile_qr_scan"}, "fusion_lon": 0.0, "type": "electric_scooter", "bike_id": "3cbc88a8a9a3d97b5cddfe37b8590ba5", "name": "3cbc88a8a9a3d97b5cddfe37b8590ba5"}, {"lon": -76.95953833333333, "is_disabled": 0, "lat": 38.86192783333333, "fusion_lat": 0.0, "is_reserved": 0, "rental_uris": {"ios": "https://dc.lft.to/lastmile_qr_scan", "android": "https://dc.lft.to/lastmile_qr_scan"}, "fusion_lon": 0.0, "type": "electric_scooter", "bike_id": "60dd6e3b6c200bc9f3e17e343b45e5ff", "name": "60dd6e3b6c200bc9f3e17e343b45e5ff"}, {"lon": -77.044527, "is_disabled": 0, "lat": 38.915419166666666, "fusion_lat": 0.0, "is_reserved": 0, "rental_uris": {"ios": "https://dc.lft.to/lastmile_qr_scan", "android": "https://dc.lft.to/lastmile_qr_scan"}, "fusion_lon": 0.0, "type": "electric_scooter", "bike_id": "3eb7a01365658d0ea81074682696b70b", "name": "3eb7a01365658d0ea81074682696b70b"}, {"lon": -77.022103, "is_disabled": 0, "lat": 38.89609166666666, "fusion_lat": 0.0, "is_reserved": 0, "rental_uris": {"ios": "https://dc.lft.to/lastmile_qr_scan", "android": "https://dc.lft.to/lastmile_qr_scan"}, "fusion_lon": 0.0, "type": "electric_scooter", "bike_id": "820d9108343c1cb4bb353cdcc8d1e1c1", "name": "820d9108343c1cb4bb353cdcc8d1e1c1"}, {"lon": -76.96501133333334, "is_disabled": 0, "lat": 38.87645766666667, "fusion_lat": 0.0, "is_reserved": 0, "rental_uris": {"ios": "https://dc.lft.to/lastmile_qr_scan", "android": "https://dc.lft.to/lastmile_qr_scan"}, "fusion_lon": 0.0, "type": "electric_scooter", "bike_id": "8cf201980f03203453fd00f78eff5046", "name": "8cf201980f03203453fd00f78eff5046"}, {"lon": -77.0215045, "is_disabled": 0, "lat": 38.9246385, "fusion_lat": 0.0, "is_reserved": 0, "rental_uris": {"ios": "https://dc.lft.to/lastmile_qr_scan", "android": "https://dc.lft.to/lastmile_qr_scan"}, "fusion_lon": 0.0, "type": "electric_scooter", "bike_id": "f1ee456d5effe3548342ddac879b0a7f", "name": "f1ee456d5effe3548342ddac879b0a7f"}, {"lon": -77.03393366666667, "is_disabled": 0, "lat": 38.923459666666666, "fusion_lat": 0.0, "is_reserved": 0, "rental_uris": {"ios": "https://dc.lft.to/lastmile_qr_scan", "android": "https://dc.lft.to/lastmile_qr_scan"}, "fusion_lon": 0.0, "type": "electric_scooter", "bike_id": "3ce2af2e901994e6086c39481e8feeff", "name": "3ce2af2e901994e6086c39481e8feeff"}, {"lon": -77.040114, "is_disabled": 0, "lat": 38.903049833333334, "fusion_lat": 0.0, "is_reserved": 0, "rental_uris": {"ios": "https://dc.lft.to/lastmile_qr_scan", "android": "https://dc.lft.to/lastmile_qr_scan"}, "fusion_lon": 0.0, "type": "electric_scooter", "bike_id": "0d3d1f031160f144b81d02fd30fdb381", "name": "0d3d1f031160f144b81d02fd30fdb381"}, {"lon": -77.01743166666667, "is_disabled": 0, "lat": 38.91715333333333, "fusion_lat": 0.0, "is_reserved": 0, "rental_uris": {"ios": "https://dc.lft.to/lastmile_qr_scan", "android": "https://dc.lft.to/lastmile_qr_scan"}, "fusion_lon": 0.0, "type": "electric_scooter", "bike_id": "3d8144b682c63c78deec80ac7122274a", "name": "3d8144b682c63c78deec80ac7122274a"}, {"lon": -77.08858333333333, "is_disabled": 0, "lat": 38.91641766666667, "fusion_lat": 0.0, "is_reserved": 0, "rental_uris": {"ios": "https://dc.lft.to/lastmile_qr_scan", "android": "https://dc.lft.to/lastmile_qr_scan"}, "fusion_lon": 0.0, "type": "electric_scooter", "bike_id": "15d7961d7392effbf9df5b4e1e10989a", "name": "15d7961d7392effbf9df5b4e1e10989a"}, {"lon": -76.98142583333333, "is_disabled": 0, "lat": 38.89738633333333, "fusion_lat": 0.0, "is_reserved": 0, "rental_uris": {"ios": "https://dc.lft.to/lastmile_qr_scan", "android": "https://dc.lft.to/lastmile_qr_scan"}, "fusion_lon": 0.0, "type": "electric_scooter", "bike_id": "49c3d4373703c2a2188e8cac5a053c82", "name": "49c3d4373703c2a2188e8cac5a053c82"}, {"lon": -76.98538266666667, "is_disabled": 0, "lat": 38.90955483333333, "fusion_lat": 0.0, "is_reserved": 0, "rental_uris": {"ios": "https://dc.lft.to/lastmile_qr_scan", "android": "https://dc.lft.to/lastmile_qr_scan"}, "fusion_lon": 0.0, "type": "electric_scooter", "bike_id": "e5cff24523e9fed0252af786f6cdab29", "name": "e5cff24523e9fed0252af786f6cdab29"}, {"lon": -76.96507233333334, "is_disabled": 0, "lat": 38.876505, "fusion_lat": 0.0, "is_reserved": 0, "rental_uris": {"ios": "https://dc.lft.to/lastmile_qr_scan", "android": "https://dc.lft.to/lastmile_qr_scan"}, "fusion_lon": 0.0, "type": "electric_scooter", "bike_id": "ec379baed82ac5722338a60afba1b257", "name": "ec379baed82ac5722338a60afba1b257"}, {"lon": -76.99156416666666, "is_disabled": 0, "lat": 38.901430166666664, "fusion_lat": 0.0, "is_reserved": 0, "rental_uris": {"ios": "https://dc.lft.to/lastmile_qr_scan", "android": "https://dc.lft.to/lastmile_qr_scan"}, "fusion_lon": 0.0, "type": "electric_scooter", "bike_id": "850124b9d83d1151452497f117efdeab", "name": "850124b9d83d1151452497f117efdeab"}, {"lon": -77.05257216666666, "is_disabled": 0, "lat": 38.92783416666666, "fusion_lat": 0.0, "is_reserved": 0, "rental_uris": {"ios": "https://dc.lft.to/lastmile_qr_scan", "android": "https://dc.lft.to/lastmile_qr_scan"}, "fusion_lon": 0.0, "type": "electric_scooter", "bike_id": "0290981f979590d49b27e9c0e25ad602", "name": "0290981f979590d49b27e9c0e25ad602"}, {"lon": -76.99138766666667, "is_disabled": 0, "lat": 38.9085855, "fusion_lat": 0.0, "is_reserved": 0, "rental_uris": {"ios": "https://dc.lft.to/lastmile_qr_scan", "android": "https://dc.lft.to/lastmile_qr_scan"}, "fusion_lon": 0.0, "type": "electric_bike", "bike_id": "83fbfaa094e0f0814de9c2285f1951e7", "name": "83fbfaa094e0f0814de9c2285f1951e7"}, {"lon": -77.01406716666666, "is_disabled": 0, "lat": 38.928356, "fusion_lat": 0.0, "is_reserved": 0, "rental_uris": {"ios": "https://dc.lft.to/lastmile_qr_scan", "android": "https://dc.lft.to/lastmile_qr_scan"}, "fusion_lon": 0.0, "type": "electric_scooter", "bike_id": "41069d8684b5db162d285a36523f903c", "name": "41069d8684b5db162d285a36523f903c"}, {"lon": -76.94891433333333, "is_disabled": 0, "lat": 38.8953165, "fusion_lat": 0.0, "is_reserved": 0, "rental_uris": {"ios": "https://dc.lft.to/lastmile_qr_scan", "android": "https://dc.lft.to/lastmile_qr_scan"}, "fusion_lon": 0.0, "type": "electric_scooter", "bike_id": "c6b5339843aab7e3900075e9cdfd2947", "name": "c6b5339843aab7e3900075e9cdfd2947"}, {"lon": -76.94890666666667, "is_disabled": 0, "lat": 38.895343, "fusion_lat": 0.0, "is_reserved": 0, "rental_uris": {"ios": "https://dc.lft.to/lastmile_qr_scan", "android": "https://dc.lft.to/lastmile_qr_scan"}, "fusion_lon": 0.0, "type": "electric_scooter", "bike_id": "e6faa1f20d2aec779668c8bb129876a7", "name": "e6faa1f20d2aec779668c8bb129876a7"}, {"lon": -77.03332616666667, "is_disabled": 0, "lat": 38.915612, "fusion_lat": 0.0, "is_reserved": 0, "rental_uris": {"ios": "https://dc.lft.to/lastmile_qr_scan", "android": "https://dc.lft.to/lastmile_qr_scan"}, "fusion_lon": 0.0, "type": "electric_scooter", "bike_id": "8f46176f8f7d3371fe8769631628fae0", "name": "8f46176f8f7d3371fe8769631628fae0"}, {"lon": -76.91599, "is_disabled": 0, "lat": 38.8798685, "fusion_lat": 0.0, "is_reserved": 0, "rental_uris": {"ios": "https://dc.lft.to/lastmile_qr_scan", "android": "https://dc.lft.to/lastmile_qr_scan"}, "fusion_lon": 0.0, "type": "electric_bike", "bike_id": "da4e010d16d1bae8edea0c7648413bba", "name": "da4e010d16d1bae8edea0c7648413bba"}, {"lon": -77.03199833333333, "is_disabled": 0, "lat": 38.892408833333334, "fusion_lat": 0.0, "is_reserved": 0, "rental_uris": {"ios": "https://dc.lft.to/lastmile_qr_scan", "android": "https://dc.lft.to/lastmile_qr_scan"}, "fusion_lon": 0.0, "type": "electric_scooter", "bike_id": "6ba5a0636601bbe8288ad50ffabfce11", "name": "6ba5a0636601bbe8288ad50ffabfce11"}, {"lon": -77.0320675, "is_disabled": 0, "lat": 38.89231433333333, "fusion_lat": 0.0, "is_reserved": 0, "rental_uris": {"ios": "https://dc.lft.to/lastmile_qr_scan", "android": "https://dc.lft.to/lastmile_qr_scan"}, "fusion_lon": 0.0, "type": "electric_scooter", "bike_id": "132e6579b62f987e2fe2e6914869a723", "name": "132e6579b62f987e2fe2e6914869a723"}, {"lon": -76.99943683333333, "is_disabled": 0, "lat": 38.918760666666664, "fusion_lat": 0.0, "is_reserved": 0, "rental_uris": {"ios": "https://dc.lft.to/lastmile_qr_scan", "android": "https://dc.lft.to/lastmile_qr_scan"}, "fusion_lon": 0.0, "type": "electric_scooter", "bike_id": "f5e598dd211a2be5fd2cf00b6818ca33", "name": "f5e598dd211a2be5fd2cf00b6818ca33"}, {"lon": -77.034255, "is_disabled": 0, "lat": 38.9191505, "fusion_lat": 0.0, "is_reserved": 0, "rental_uris": {"ios": "https://dc.lft.to/lastmile_qr_scan", "android": "https://dc.lft.to/lastmile_qr_scan"}, "fusion_lon": 0.0, "type": "electric_scooter", "bike_id": "4f130abff4a585e973391672dd1d215e", "name": "4f130abff4a585e973391672dd1d215e"}, {"lon": -77.0305145, "is_disabled": 0, "lat": 38.92971266666667, "fusion_lat": 0.0, "is_reserved": 0, "rental_uris": {"ios": "https://dc.lft.to/lastmile_qr_scan", "android": "https://dc.lft.to/lastmile_qr_scan"}, "fusion_lon": 0.0, "type": "electric_bike", "bike_id": "f20799a15150f146cb720cdbc7d050b7", "name": "f20799a15150f146cb720cdbc7d050b7"}, {"lon": -77.01333633333333, "is_disabled": 0, "lat": 38.9261905, "fusion_lat": 0.0, "is_reserved": 0, "rental_uris": {"ios": "https://dc.lft.to/lastmile_qr_scan", "android": "https://dc.lft.to/lastmile_qr_scan"}, "fusion_lon": 0.0, "type": "electric_scooter", "bike_id": "b2024741530ed5efdfa696016f45ac6f", "name": "b2024741530ed5efdfa696016f45ac6f"}, {"lon": -77.02228966666667, "is_disabled": 0, "lat": 38.891971833333336, "fusion_lat": 0.0, "is_reserved": 0, "rental_uris": {"ios": "https://dc.lft.to/lastmile_qr_scan", "android": "https://dc.lft.to/lastmile_qr_scan"}, "fusion_lon": 0.0, "type": "electric_scooter", "bike_id": "fdc032d73a5dc5a24745fab445b169e6", "name": "fdc032d73a5dc5a24745fab445b169e6"}, {"lon": -77.03763166666667, "is_disabled": 0, "lat": 38.918742333333334, "fusion_lat": 0.0, "is_reserved": 0, "rental_uris": {"ios": "https://dc.lft.to/lastmile_qr_scan", "android": "https://dc.lft.to/lastmile_qr_scan"}, "fusion_lon": 0.0, "type": "electric_scooter", "bike_id": "6c3bb409001126a0b53bb4171aeffcc2", "name": "6c3bb409001126a0b53bb4171aeffcc2"}, {"lon": -77.02729516666666, "is_disabled": 0, "lat": 38.90136233333333, "fusion_lat": 0.0, "is_reserved": 0, "rental_uris": {"ios": "https://dc.lft.to/lastmile_qr_scan", "android": "https://dc.lft.to/lastmile_qr_scan"}, "fusion_lon": 0.0, "type": "electric_scooter", "bike_id": "816f9ac3c8db1b0d95c02abfd7b2b75b", "name": "816f9ac3c8db1b0d95c02abfd7b2b75b"}, {"lon": -77.02693283333333, "is_disabled": 0, "lat": 38.90871283333333, "fusion_lat": 0.0, "is_reserved": 0, "rental_uris": {"ios": "https://dc.lft.to/lastmile_qr_scan", "android": "https://dc.lft.to/lastmile_qr_scan"}, "fusion_lon": 0.0, "type": "electric_scooter", "bike_id": "b355158ab28eda677e0feead2c33a62b", "name": "b355158ab28eda677e0feead2c33a62b"}, {"lon": -77.01345916666666, "is_disabled": 0, "lat": 38.919132, "fusion_lat": 0.0, "is_reserved": 0, "rental_uris": {"ios": "https://dc.lft.to/lastmile_qr_scan", "android": "https://dc.lft.to/lastmile_qr_scan"}, "fusion_lon": 0.0, "type": "electric_scooter", "bike_id": "41e75f141720afabaa5b42ae5bc4a282", "name": "41e75f141720afabaa5b42ae5bc4a282"}, {"lon": -77.01226233333334, "is_disabled": 0, "lat": 38.9142785, "fusion_lat": 0.0, "is_reserved": 0, "rental_uris": {"ios": "https://dc.lft.to/lastmile_qr_scan", "android": "https://dc.lft.to/lastmile_qr_scan"}, "fusion_lon": 0.0, "type": "electric_scooter", "bike_id": "2ed433281a93b6c82c8d3d85f6a318af", "name": "2ed433281a93b6c82c8d3d85f6a318af"}, {"lon": -77.00571466666666, "is_disabled": 0, "lat": 38.905503, "fusion_lat": 0.0, "is_reserved": 0, "rental_uris": {"ios": "https://dc.lft.to/lastmile_qr_scan", "android": "https://dc.lft.to/lastmile_qr_scan"}, "fusion_lon": 0.0, "type": "electric_scooter", "bike_id": "c69369d3ffef8ac6294befe5a693d491", "name": "c69369d3ffef8ac6294befe5a693d491"}, {"lon": -76.97881433333333, "is_disabled": 0, "lat": 38.90190883333333, "fusion_lat": 0.0, "is_reserved": 0, "rental_uris": {"ios": "https://dc.lft.to/lastmile_qr_scan", "android": "https://dc.lft.to/lastmile_qr_scan"}, "fusion_lon": 0.0, "type": "electric_scooter", "bike_id": "839ba02da32d6d8ece6ec0ad496e914c", "name": "839ba02da32d6d8ece6ec0ad496e914c"}, {"lon": -77.04587083333334, "is_disabled": 0, "lat": 38.919185666666664, "fusion_lat": 0.0, "is_reserved": 0, "rental_uris": {"ios": "https://dc.lft.to/lastmile_qr_scan", "android": "https://dc.lft.to/lastmile_qr_scan"}, "fusion_lon": 0.0, "type": "electric_scooter", "bike_id": "58450dd499f752a5e6345b7e3c26476d", "name": "58450dd499f752a5e6345b7e3c26476d"}, {"lon": -77.017824, "is_disabled": 0, "lat": 38.90388983333333, "fusion_lat": 0.0, "is_reserved": 0, "rental_uris": {"ios": "https://dc.lft.to/lastmile_qr_scan", "android": "https://dc.lft.to/lastmile_qr_scan"}, "fusion_lon": 0.0, "type": "electric_scooter", "bike_id": "941166201fc3db126240277fe1362be2", "name": "941166201fc3db126240277fe1362be2"}, {"lon": -76.98574766666667, "is_disabled": 0, "lat": 38.86684733333333, "fusion_lat": 0.0, "is_reserved": 0, "rental_uris": {"ios": "https://dc.lft.to/lastmile_qr_scan", "android": "https://dc.lft.to/lastmile_qr_scan"}, "fusion_lon": 0.0, "type": "electric_scooter", "bike_id": "de16796263275e3b5a332b6fb4553344", "name": "de16796263275e3b5a332b6fb4553344"}, {"lon": -77.02480533333333, "is_disabled": 0, "lat": 38.91903816666667, "fusion_lat": 0.0, "is_reserved": 0, "rental_uris": {"ios": "https://dc.lft.to/lastmile_qr_scan", "android": "https://dc.lft.to/lastmile_qr_scan"}, "fusion_lon": 0.0, "type": "electric_scooter", "bike_id": "4815c9764547fedffab7f3092b35f182", "name": "4815c9764547fedffab7f3092b35f182"}, {"lon": -77.04353466666667, "is_disabled": 0, "lat": 38.90448716666667, "fusion_lat": 0.0, "is_reserved": 0, "rental_uris": {"ios": "https://dc.lft.to/lastmile_qr_scan", "android": "https://dc.lft.to/lastmile_qr_scan"}, "fusion_lon": 0.0, "type": "electric_scooter", "bike_id": "ca2a835fbc1a53066156bd9718f0776d", "name": "ca2a835fbc1a53066156bd9718f0776d"}, {"lon": -77.0568445, "is_disabled": 0, "lat": 38.92330583333333, "fusion_lat": 0.0, "is_reserved": 0, "rental_uris": {"ios": "https://dc.lft.to/lastmile_qr_scan", "android": "https://dc.lft.to/lastmile_qr_scan"}, "fusion_lon": 0.0, "type": "electric_scooter", "bike_id": "75d1454280a30fd71b48e04ea32b74be", "name": "75d1454280a30fd71b48e04ea32b74be"}, {"lon": -77.00317566666666, "is_disabled": 0, "lat": 38.919290833333335, "fusion_lat": 0.0, "is_reserved": 0, "rental_uris": {"ios": "https://dc.lft.to/lastmile_qr_scan", "android": "https://dc.lft.to/lastmile_qr_scan"}, "fusion_lon": 0.0, "type": "electric_scooter", "bike_id": "c5fb8fb96d2e5bad7cc73dd0c5b3b2c8", "name": "c5fb8fb96d2e5bad7cc73dd0c5b3b2c8"}, {"lon": -76.969813, "is_disabled": 0, "lat": 38.87864883333334, "fusion_lat": 0.0, "is_reserved": 0, "rental_uris": {"ios": "https://dc.lft.to/lastmile_qr_scan", "android": "https://dc.lft.to/lastmile_qr_scan"}, "fusion_lon": 0.0, "type": "electric_scooter", "bike_id": "a84fe2c48ca5f34e76d4a04b06ca16ad", "name": "a84fe2c48ca5f34e76d4a04b06ca16ad"}, {"lon": -77.015323, "is_disabled": 0, "lat": 38.950267, "fusion_lat": 0.0, "is_reserved": 0, "rental_uris": {"ios": "https://dc.lft.to/lastmile_qr_scan", "android": "https://dc.lft.to/lastmile_qr_scan"}, "fusion_lon": 0.0, "type": "electric_bike", "bike_id": "de268eef20afc5a76245cd8303bd4247", "name": "de268eef20afc5a76245cd8303bd4247"}, {"lon": -77.01198016666666, "is_disabled": 0, "lat": 38.91565633333333, "fusion_lat": 0.0, "is_reserved": 0, "rental_uris": {"ios": "https://dc.lft.to/lastmile_qr_scan", "android": "https://dc.lft.to/lastmile_qr_scan"}, "fusion_lon": 0.0, "type": "electric_scooter", "bike_id": "a8ebbaf5cd86174a6604b4c79576a58c", "name": "a8ebbaf5cd86174a6604b4c79576a58c"}, {"lon": -76.96908516666667, "is_disabled": 0, "lat": 38.874192666666666, "fusion_lat": 0.0, "is_reserved": 0, "rental_uris": {"ios": "https://dc.lft.to/lastmile_qr_scan", "android": "https://dc.lft.to/lastmile_qr_scan"}, "fusion_lon": 0.0, "type": "electric_scooter", "bike_id": "af50b6eded083f25e47e1a01dbaee3c5", "name": "af50b6eded083f25e47e1a01dbaee3c5"}, {"lon": -77.037584, "is_disabled": 0, "lat": 38.91264016666667, "fusion_lat": 0.0, "is_reserved": 0, "rental_uris": {"ios": "https://dc.lft.to/lastmile_qr_scan", "android": "https://dc.lft.to/lastmile_qr_scan"}, "fusion_lon": 0.0, "type": "electric_scooter", "bike_id": "5d378810810b5a9274844999a99dd85d", "name": "5d378810810b5a9274844999a99dd85d"}, {"lon": -76.9801825, "is_disabled": 0, "lat": 38.853169333333334, "fusion_lat": 0.0, "is_reserved": 0, "rental_uris": {"ios": "https://dc.lft.to/lastmile_qr_scan", "android": "https://dc.lft.to/lastmile_qr_scan"}, "fusion_lon": 0.0, "type": "electric_scooter", "bike_id": "ddde7a3b0a98952afb6dd24a7240926a", "name": "ddde7a3b0a98952afb6dd24a7240926a"}, {"lon": -77.03518666666666, "is_disabled": 0, "lat": 38.90662716666667, "fusion_lat": 0.0, "is_reserved": 0, "rental_uris": {"ios": "https://dc.lft.to/lastmile_qr_scan", "android": "https://dc.lft.to/lastmile_qr_scan"}, "fusion_lon": 0.0, "type": "electric_scooter", "bike_id": "dc8bba54b9a74c33e6b59c11cb4e11d3", "name": "dc8bba54b9a74c33e6b59c11cb4e11d3"}, {"lon": -76.9956065, "is_disabled": 0, "lat": 38.939917666666666, "fusion_lat": 0.0, "is_reserved": 0, "rental_uris": {"ios": "https://dc.lft.to/lastmile_qr_scan", "android": "https://dc.lft.to/lastmile_qr_scan"}, "fusion_lon": 0.0, "type": "electric_bike", "bike_id": "e8016b56b74f28ce499be1f92e72ea7a", "name": "e8016b56b74f28ce499be1f92e72ea7a"}, {"lon": -76.9425035, "is_disabled": 0, "lat": 38.898449666666664, "fusion_lat": 0.0, "is_reserved": 0, "rental_uris": {"ios": "https://dc.lft.to/lastmile_qr_scan", "android": "https://dc.lft.to/lastmile_qr_scan"}, "fusion_lon": 0.0, "type": "electric_scooter", "bike_id": "57d9d5d1156c36fe5ccecbb93f6bf9b3", "name": "57d9d5d1156c36fe5ccecbb93f6bf9b3"}, {"lon": -76.92678533333333, "is_disabled": 0, "lat": 38.88848933333333, "fusion_lat": 0.0, "is_reserved": 0, "rental_uris": {"ios": "https://dc.lft.to/lastmile_qr_scan", "android": "https://dc.lft.to/lastmile_qr_scan"}, "fusion_lon": 0.0, "type": "electric_scooter", "bike_id": "b67b69f2737819a486c081897366a9cb", "name": "b67b69f2737819a486c081897366a9cb"}, {"lon": -77.0195865, "is_disabled": 0, "lat": 38.88393933333333, "fusion_lat": 0.0, "is_reserved": 0, "rental_uris": {"ios": "https://dc.lft.to/lastmile_qr_scan", "android": "https://dc.lft.to/lastmile_qr_scan"}, "fusion_lon": 0.0, "type": "electric_scooter", "bike_id": "58a6565b57f224b3a403a45f9d107afd", "name": "58a6565b57f224b3a403a45f9d107afd"}, {"lon": -76.98412733333333, "is_disabled": 0, "lat": 38.91389483333333, "fusion_lat": 0.0, "is_reserved": 0, "rental_uris": {"ios": "https://dc.lft.to/lastmile_qr_scan", "android": "https://dc.lft.to/lastmile_qr_scan"}, "fusion_lon": 0.0, "type": "electric_scooter", "bike_id": "c19b408697d2fbd387c005e1c744a062", "name": "c19b408697d2fbd387c005e1c744a062"}, {"lon": -77.03154983333333, "is_disabled": 0, "lat": 38.964414166666664, "fusion_lat": 0.0, "is_reserved": 0, "rental_uris": {"ios": "https://dc.lft.to/lastmile_qr_scan", "android": "https://dc.lft.to/lastmile_qr_scan"}, "fusion_lon": 0.0, "type": "electric_bike", "bike_id": "a5469de7af44f2d4f84e2c5f0d2150c7", "name": "a5469de7af44f2d4f84e2c5f0d2150c7"}, {"lon": -77.022052, "is_disabled": 0, "lat": 38.915634, "fusion_lat": 0.0, "is_reserved": 0, "rental_uris": {"ios": "https://dc.lft.to/lastmile_qr_scan", "android": "https://dc.lft.to/lastmile_qr_scan"}, "fusion_lon": 0.0, "type": "electric_scooter", "bike_id": "18cb4725c0bed2f3c7b5b37263da670f", "name": "18cb4725c0bed2f3c7b5b37263da670f"}, {"lon": -77.04747933333333, "is_disabled": 0, "lat": 38.91869633333334, "fusion_lat": 0.0, "is_reserved": 0, "rental_uris": {"ios": "https://dc.lft.to/lastmile_qr_scan", "android": "https://dc.lft.to/lastmile_qr_scan"}, "fusion_lon": 0.0, "type": "electric_scooter", "bike_id": "ca545265c0422adb7e5bdcc02fe0d347", "name": "ca545265c0422adb7e5bdcc02fe0d347"}, {"lon": -77.05742833333333, "is_disabled": 0, "lat": 38.933901666666664, "fusion_lat": 0.0, "is_reserved": 0, "rental_uris": {"ios": "https://dc.lft.to/lastmile_qr_scan", "android": "https://dc.lft.to/lastmile_qr_scan"}, "fusion_lon": 0.0, "type": "electric_scooter", "bike_id": "54473153002bce441580c392ba9e09f4", "name": "54473153002bce441580c392ba9e09f4"}, {"lon": -77.04679183333333, "is_disabled": 0, "lat": 38.89331583333333, "fusion_lat": 0.0, "is_reserved": 0, "rental_uris": {"ios": "https://dc.lft.to/lastmile_qr_scan", "android": "https://dc.lft.to/lastmile_qr_scan"}, "fusion_lon": 0.0, "type": "electric_scooter", "bike_id": "001354c6b2b5513537fa923edd4ea436", "name": "001354c6b2b5513537fa923edd4ea436"}, {"lon": -77.02395466666667, "is_disabled": 0, "lat": 38.91760816666667, "fusion_lat": 0.0, "is_reserved": 0, "rental_uris": {"ios": "https://dc.lft.to/lastmile_qr_scan", "android": "https://dc.lft.to/lastmile_qr_scan"}, "fusion_lon": 0.0, "type": "electric_scooter", "bike_id": "1f37dabba6451ccda41737a6f306ac59", "name": "1f37dabba6451ccda41737a6f306ac59"}, {"lon": -76.97095283333333, "is_disabled": 0, "lat": 38.8706445, "fusion_lat": 0.0, "is_reserved": 0, "rental_uris": {"ios": "https://dc.lft.to/lastmile_qr_scan", "android": "https://dc.lft.to/lastmile_qr_scan"}, "fusion_lon": 0.0, "type": "electric_scooter", "bike_id": "b8295f0a99ec06eab7c1fcb322913ab6", "name": "b8295f0a99ec06eab7c1fcb322913ab6"}, {"lon": -76.94638483333334, "is_disabled": 0, "lat": 38.89868116666667, "fusion_lat": 0.0, "is_reserved": 0, "rental_uris": {"ios": "https://dc.lft.to/lastmile_qr_scan", "android": "https://dc.lft.to/lastmile_qr_scan"}, "fusion_lon": 0.0, "type": "electric_scooter", "bike_id": "3f3ad7d955643a219523af20299e2ee8", "name": "3f3ad7d955643a219523af20299e2ee8"}, {"lon": -77.022265, "is_disabled": 0, "lat": 38.93478233333333, "fusion_lat": 0.0, "is_reserved": 0, "rental_uris": {"ios": "https://dc.lft.to/lastmile_qr_scan", "android": "https://dc.lft.to/lastmile_qr_scan"}, "fusion_lon": 0.0, "type": "electric_scooter", "bike_id": "9938e6afc5e13a674e1dbee542904619", "name": "9938e6afc5e13a674e1dbee542904619"}, {"lon": -77.20136916666667, "is_disabled": 0, "lat": 38.92220316666667, "fusion_lat": 0.0, "is_reserved": 0, "rental_uris": {"ios": "https://dc.lft.to/lastmile_qr_scan", "android": "https://dc.lft.to/lastmile_qr_scan"}, "fusion_lon": 0.0, "type": "electric_bike", "bike_id": "a1b433bf6cea1723e689111be51774b4", "name": "a1b433bf6cea1723e689111be51774b4"}, {"lon": -77.091462, "is_disabled": 0, "lat": 38.86145166666667, "fusion_lat": 0.0, "is_reserved": 0, "rental_uris": {"ios": "https://dc.lft.to/lastmile_qr_scan", "android": "https://dc.lft.to/lastmile_qr_scan"}, "fusion_lon": 0.0, "type": "electric_bike", "bike_id": "58c9d68184614b98d4cb06078f47243b", "name": "58c9d68184614b98d4cb06078f47243b"}, {"lon": -77.032844, "is_disabled": 0, "lat": 38.92273616666667, "fusion_lat": 0.0, "is_reserved": 0, "rental_uris": {"ios": "https://dc.lft.to/lastmile_qr_scan", "android": "https://dc.lft.to/lastmile_qr_scan"}, "fusion_lon": 0.0, "type": "electric_scooter", "bike_id": "d2a489c91a459df946ba1d1d7769bedf", "name": "d2a489c91a459df946ba1d1d7769bedf"}, {"lon": -77.025865, "is_disabled": 0, "lat": 38.9420675, "fusion_lat": 0.0, "is_reserved": 0, "rental_uris": {"ios": "https://dc.lft.to/lastmile_qr_scan", "android": "https://dc.lft.to/lastmile_qr_scan"}, "fusion_lon": 0.0, "type": "electric_scooter", "bike_id": "ffeb88916caa14e43b8183896a576419", "name": "ffeb88916caa14e43b8183896a576419"}, {"lon": -77.025837, "is_disabled": 0, "lat": 38.94206966666667, "fusion_lat": 0.0, "is_reserved": 0, "rental_uris": {"ios": "https://dc.lft.to/lastmile_qr_scan", "android": "https://dc.lft.to/lastmile_qr_scan"}, "fusion_lon": 0.0, "type": "electric_scooter", "bike_id": "99df74353b5e75fd6cf5d435e7a88d7c", "name": "99df74353b5e75fd6cf5d435e7a88d7c"}, {"lon": -77.02239866666666, "is_disabled": 0, "lat": 38.8789665, "fusion_lat": 0.0, "is_reserved": 0, "rental_uris": {"ios": "https://dc.lft.to/lastmile_qr_scan", "android": "https://dc.lft.to/lastmile_qr_scan"}, "fusion_lon": 0.0, "type": "electric_scooter", "bike_id": "82bb13eb52843ab17187d73e6930154d", "name": "82bb13eb52843ab17187d73e6930154d"}, {"lon": -77.00343466666666, "is_disabled": 0, "lat": 38.892224, "fusion_lat": 0.0, "is_reserved": 0, "rental_uris": {"ios": "https://dc.lft.to/lastmile_qr_scan", "android": "https://dc.lft.to/lastmile_qr_scan"}, "fusion_lon": 0.0, "type": "electric_scooter", "bike_id": "549fde53eab6f343d94b20a483f01f70", "name": "549fde53eab6f343d94b20a483f01f70"}, {"lon": -77.0344375, "is_disabled": 0, "lat": 38.9170535, "fusion_lat": 0.0, "is_reserved": 0, "rental_uris": {"ios": "https://dc.lft.to/lastmile_qr_scan", "android": "https://dc.lft.to/lastmile_qr_scan"}, "fusion_lon": 0.0, "type": "electric_scooter", "bike_id": "f84d9f2b878a42b0c7941a5f73f61e15", "name": "f84d9f2b878a42b0c7941a5f73f61e15"}, {"lon": -77.03927066666667, "is_disabled": 0, "lat": 38.92184566666667, "fusion_lat": 0.0, "is_reserved": 0, "rental_uris": {"ios": "https://dc.lft.to/lastmile_qr_scan", "android": "https://dc.lft.to/lastmile_qr_scan"}, "fusion_lon": 0.0, "type": "electric_scooter", "bike_id": "f2a8ece520f335754ac56f9c67ca9dec", "name": "f2a8ece520f335754ac56f9c67ca9dec"}, {"lon": -76.9737455, "is_disabled": 0, "lat": 38.96317633333334, "fusion_lat": 0.0, "is_reserved": 0, "rental_uris": {"ios": "https://dc.lft.to/lastmile_qr_scan", "android": "https://dc.lft.to/lastmile_qr_scan"}, "fusion_lon": 0.0, "type": "electric_bike", "bike_id": "27d04bd0274f40391e7f6ea8d7f6e0ae", "name": "27d04bd0274f40391e7f6ea8d7f6e0ae"}, {"lon": -77.03656016666666, "is_disabled": 0, "lat": 38.908015, "fusion_lat": 0.0, "is_reserved": 0, "rental_uris": {"ios": "https://dc.lft.to/lastmile_qr_scan", "android": "https://dc.lft.to/lastmile_qr_scan"}, "fusion_lon": 0.0, "type": "electric_scooter", "bike_id": "aebcac1c51fd4f3be352ef6d9f162dc9", "name": "aebcac1c51fd4f3be352ef6d9f162dc9"}, {"lon": -76.93154433333333, "is_disabled": 0, "lat": 38.8993055, "fusion_lat": 0.0, "is_reserved": 0, "rental_uris": {"ios": "https://dc.lft.to/lastmile_qr_scan", "android": "https://dc.lft.to/lastmile_qr_scan"}, "fusion_lon": 0.0, "type": "electric_scooter", "bike_id": "251e5928c62dd6096c13f3a9a425f203", "name": "251e5928c62dd6096c13f3a9a425f203"}, {"lon": -76.95284166666667, "is_disabled": 0, "lat": 38.862341666666666, "fusion_lat": 0.0, "is_reserved": 0, "rental_uris": {"ios": "https://dc.lft.to/lastmile_qr_scan", "android": "https://dc.lft.to/lastmile_qr_scan"}, "fusion_lon": 0.0, "type": "electric_bike", "bike_id": "5521a42ab56888ceb3407ea83fd18fed", "name": "5521a42ab56888ceb3407ea83fd18fed"}, {"lon": -77.001469, "is_disabled": 0, "lat": 38.87311483333333, "fusion_lat": 0.0, "is_reserved": 0, "rental_uris": {"ios": "https://dc.lft.to/lastmile_qr_scan", "android": "https://dc.lft.to/lastmile_qr_scan"}, "fusion_lon": 0.0, "type": "electric_scooter", "bike_id": "f168102b5e6f07b1a13e82aa1e470704", "name": "f168102b5e6f07b1a13e82aa1e470704"}, {"lon": -77.09439033333334, "is_disabled": 0, "lat": 38.944884, "fusion_lat": 0.0, "is_reserved": 0, "rental_uris": {"ios": "https://dc.lft.to/lastmile_qr_scan", "android": "https://dc.lft.to/lastmile_qr_scan"}, "fusion_lon": 0.0, "type": "electric_scooter", "bike_id": "8f3056046f69ca343950fc5bff8ea954", "name": "8f3056046f69ca343950fc5bff8ea954"}, {"lon": -76.97254783333334, "is_disabled": 0, "lat": 38.9574695, "fusion_lat": 0.0, "is_reserved": 0, "rental_uris": {"ios": "https://dc.lft.to/lastmile_qr_scan", "android": "https://dc.lft.to/lastmile_qr_scan"}, "fusion_lon": 0.0, "type": "electric_bike", "bike_id": "9dc405a3b1308efb81f84f63428ebf77", "name": "9dc405a3b1308efb81f84f63428ebf77"}, {"lon": -77.03294816666667, "is_disabled": 0, "lat": 38.9205675, "fusion_lat": 0.0, "is_reserved": 0, "rental_uris": {"ios": "https://dc.lft.to/lastmile_qr_scan", "android": "https://dc.lft.to/lastmile_qr_scan"}, "fusion_lon": 0.0, "type": "electric_scooter", "bike_id": "77528c48ab19033bdd1f7deecbbbc1bf", "name": "77528c48ab19033bdd1f7deecbbbc1bf"}, {"lon": -77.03181666666667, "is_disabled": 0, "lat": 38.920961, "fusion_lat": 0.0, "is_reserved": 0, "rental_uris": {"ios": "https://dc.lft.to/lastmile_qr_scan", "android": "https://dc.lft.to/lastmile_qr_scan"}, "fusion_lon": 0.0, "type": "electric_scooter", "bike_id": "4cf6d9de18a837c03dfda2f6fad52221", "name": "4cf6d9de18a837c03dfda2f6fad52221"}, {"lon": -77.0231305, "is_disabled": 0, "lat": 38.9552595, "fusion_lat": 0.0, "is_reserved": 0, "rental_uris": {"ios": "https://dc.lft.to/lastmile_qr_scan", "android": "https://dc.lft.to/lastmile_qr_scan"}, "fusion_lon": 0.0, "type": "electric_scooter", "bike_id": "c3e55460724ba705b54ce7da69cd2ebf", "name": "c3e55460724ba705b54ce7da69cd2ebf"}, {"lon": -77.01071933333333, "is_disabled": 0, "lat": 38.90960366666667, "fusion_lat": 0.0, "is_reserved": 0, "rental_uris": {"ios": "https://dc.lft.to/lastmile_qr_scan", "android": "https://dc.lft.to/lastmile_qr_scan"}, "fusion_lon": 0.0, "type": "electric_scooter", "bike_id": "ee5148f6d82662cb152e540416bd287d", "name": "ee5148f6d82662cb152e540416bd287d"}, {"lon": -77.0702615, "is_disabled": 0, "lat": 38.90529683333333, "fusion_lat": 0.0, "is_reserved": 0, "rental_uris": {"ios": "https://dc.lft.to/lastmile_qr_scan", "android": "https://dc.lft.to/lastmile_qr_scan"}, "fusion_lon": 0.0, "type": "electric_scooter", "bike_id": "e90c36249b830193b647f9d9cc35bf89", "name": "e90c36249b830193b647f9d9cc35bf89"}, {"lon": -77.03731816666667, "is_disabled": 0, "lat": 38.9202665, "fusion_lat": 0.0, "is_reserved": 0, "rental_uris": {"ios": "https://dc.lft.to/lastmile_qr_scan", "android": "https://dc.lft.to/lastmile_qr_scan"}, "fusion_lon": 0.0, "type": "electric_scooter", "bike_id": "2b23cd81b7aa4a77f97af7e3351e99ad", "name": "2b23cd81b7aa4a77f97af7e3351e99ad"}, {"lon": -77.04338966666667, "is_disabled": 0, "lat": 38.9073035, "fusion_lat": 0.0, "is_reserved": 0, "rental_uris": {"ios": "https://dc.lft.to/lastmile_qr_scan", "android": "https://dc.lft.to/lastmile_qr_scan"}, "fusion_lon": 0.0, "type": "electric_scooter", "bike_id": "f7ed6240c0bf04039f56f3f99fe59940", "name": "f7ed6240c0bf04039f56f3f99fe59940"}, {"lon": -77.04342466666667, "is_disabled": 0, "lat": 38.9044095, "fusion_lat": 0.0, "is_reserved": 0, "rental_uris": {"ios": "https://dc.lft.to/lastmile_qr_scan", "android": "https://dc.lft.to/lastmile_qr_scan"}, "fusion_lon": 0.0, "type": "electric_scooter", "bike_id": "1043a6ce726b5109151b2db82087ef6a", "name": "1043a6ce726b5109151b2db82087ef6a"}, {"lon": -76.99984616666667, "is_disabled": 0, "lat": 38.96405716666666, "fusion_lat": 0.0, "is_reserved": 0, "rental_uris": {"ios": "https://dc.lft.to/lastmile_qr_scan", "android": "https://dc.lft.to/lastmile_qr_scan"}, "fusion_lon": 0.0, "type": "electric_bike", "bike_id": "b55a0ce3d943fa051d1fab9d8a8235fc", "name": "b55a0ce3d943fa051d1fab9d8a8235fc"}, {"lon": -77.038762, "is_disabled": 0, "lat": 38.93251216666667, "fusion_lat": 0.0, "is_reserved": 0, "rental_uris": {"ios": "https://dc.lft.to/lastmile_qr_scan", "android": "https://dc.lft.to/lastmile_qr_scan"}, "fusion_lon": 0.0, "type": "electric_scooter", "bike_id": "131d81893af85bd8fced944649a5bffd", "name": "131d81893af85bd8fced944649a5bffd"}, {"lon": -77.0629965, "is_disabled": 0, "lat": 38.903953, "fusion_lat": 0.0, "is_reserved": 0, "rental_uris": {"ios": "https://dc.lft.to/lastmile_qr_scan", "android": "https://dc.lft.to/lastmile_qr_scan"}, "fusion_lon": 0.0, "type": "electric_scooter", "bike_id": "847d897c5c7d2454826264f0e90672ca", "name": "847d897c5c7d2454826264f0e90672ca"}, {"lon": -77.03917783333333, "is_disabled": 0, "lat": 38.91707266666667, "fusion_lat": 0.0, "is_reserved": 0, "rental_uris": {"ios": "https://dc.lft.to/lastmile_qr_scan", "android": "https://dc.lft.to/lastmile_qr_scan"}, "fusion_lon": 0.0, "type": "electric_scooter", "bike_id": "7d37d7d1cfb2453356e8111949dd8d65", "name": "7d37d7d1cfb2453356e8111949dd8d65"}, {"lon": -77.02514416666666, "is_disabled": 0, "lat": 38.91928683333333, "fusion_lat": 0.0, "is_reserved": 0, "rental_uris": {"ios": "https://dc.lft.to/lastmile_qr_scan", "android": "https://dc.lft.to/lastmile_qr_scan"}, "fusion_lon": 0.0, "type": "electric_scooter", "bike_id": "902ee80340a28b57e51a669397090eb5", "name": "902ee80340a28b57e51a669397090eb5"}, {"lon": -76.99545983333333, "is_disabled": 0, "lat": 38.900266333333335, "fusion_lat": 0.0, "is_reserved": 0, "rental_uris": {"ios": "https://dc.lft.to/lastmile_qr_scan", "android": "https://dc.lft.to/lastmile_qr_scan"}, "fusion_lon": 0.0, "type": "electric_scooter", "bike_id": "c4f3ee3d6408acc3e1c8def89d6888fc", "name": "c4f3ee3d6408acc3e1c8def89d6888fc"}, {"lon": -77.048602, "is_disabled": 0, "lat": 38.9039415, "fusion_lat": 0.0, "is_reserved": 0, "rental_uris": {"ios": "https://dc.lft.to/lastmile_qr_scan", "android": "https://dc.lft.to/lastmile_qr_scan"}, "fusion_lon": 0.0, "type": "electric_scooter", "bike_id": "f09f7e1f1822ca4cf5269463ac283ed2", "name": "f09f7e1f1822ca4cf5269463ac283ed2"}, {"lon": -77.04687683333333, "is_disabled": 0, "lat": 38.895506, "fusion_lat": 0.0, "is_reserved": 0, "rental_uris": {"ios": "https://dc.lft.to/lastmile_qr_scan", "android": "https://dc.lft.to/lastmile_qr_scan"}, "fusion_lon": 0.0, "type": "electric_scooter", "bike_id": "e87d947209206126af4f0d6f4ca5b5e2", "name": "e87d947209206126af4f0d6f4ca5b5e2"}, {"lon": -77.02827666666667, "is_disabled": 0, "lat": 38.899148, "fusion_lat": 0.0, "is_reserved": 0, "rental_uris": {"ios": "https://dc.lft.to/lastmile_qr_scan", "android": "https://dc.lft.to/lastmile_qr_scan"}, "fusion_lon": 0.0, "type": "electric_scooter", "bike_id": "23abad9908fda5fe95070b398182378e", "name": "23abad9908fda5fe95070b398182378e"}, {"lon": -77.04347333333334, "is_disabled": 0, "lat": 38.90501016666666, "fusion_lat": 0.0, "is_reserved": 0, "rental_uris": {"ios": "https://dc.lft.to/lastmile_qr_scan", "android": "https://dc.lft.to/lastmile_qr_scan"}, "fusion_lon": 0.0, "type": "electric_scooter", "bike_id": "dc7ec27d602924be52c9fb4811ce5a38", "name": "dc7ec27d602924be52c9fb4811ce5a38"}, {"lon": -77.00337183333333, "is_disabled": 0, "lat": 38.8770515, "fusion_lat": 0.0, "is_reserved": 0, "rental_uris": {"ios": "https://dc.lft.to/lastmile_qr_scan", "android": "https://dc.lft.to/lastmile_qr_scan"}, "fusion_lon": 0.0, "type": "electric_scooter", "bike_id": "b68d977627690062b8b335bd40bebef8", "name": "b68d977627690062b8b335bd40bebef8"}, {"lon": -77.04033966666667, "is_disabled": 0, "lat": 38.903828, "fusion_lat": 0.0, "is_reserved": 0, "rental_uris": {"ios": "https://dc.lft.to/lastmile_qr_scan", "android": "https://dc.lft.to/lastmile_qr_scan"}, "fusion_lon": 0.0, "type": "electric_scooter", "bike_id": "11f34adb292ad0eb6f9784bb0a1ecd4a", "name": "11f34adb292ad0eb6f9784bb0a1ecd4a"}, {"lon": -76.9818795, "is_disabled": 0, "lat": 38.86205866666667, "fusion_lat": 0.0, "is_reserved": 0, "rental_uris": {"ios": "https://dc.lft.to/lastmile_qr_scan", "android": "https://dc.lft.to/lastmile_qr_scan"}, "fusion_lon": 0.0, "type": "electric_scooter", "bike_id": "7d965afcfcaac394b3fbc1b3fbb89024", "name": "7d965afcfcaac394b3fbc1b3fbb89024"}, {"lon": -77.04355216666667, "is_disabled": 0, "lat": 38.9045805, "fusion_lat": 0.0, "is_reserved": 0, "rental_uris": {"ios": "https://dc.lft.to/lastmile_qr_scan", "android": "https://dc.lft.to/lastmile_qr_scan"}, "fusion_lon": 0.0, "type": "electric_scooter", "bike_id": "30df18a377fd98b9aa85c0a04254ee14", "name": "30df18a377fd98b9aa85c0a04254ee14"}, {"lon": -77.02303366666666, "is_disabled": 0, "lat": 38.9177355, "fusion_lat": 0.0, "is_reserved": 0, "rental_uris": {"ios": "https://dc.lft.to/lastmile_qr_scan", "android": "https://dc.lft.to/lastmile_qr_scan"}, "fusion_lon": 0.0, "type": "electric_scooter", "bike_id": "76eb4466dd23486f939a4a7be9af2508", "name": "76eb4466dd23486f939a4a7be9af2508"}, {"lon": -77.03661516666666, "is_disabled": 0, "lat": 38.9226365, "fusion_lat": 0.0, "is_reserved": 0, "rental_uris": {"ios": "https://dc.lft.to/lastmile_qr_scan", "android": "https://dc.lft.to/lastmile_qr_scan"}, "fusion_lon": 0.0, "type": "electric_scooter", "bike_id": "be783d527055eeec9ddc6af45b5dbbf7", "name": "be783d527055eeec9ddc6af45b5dbbf7"}, {"lon": -77.0230915, "is_disabled": 0, "lat": 38.90956883333333, "fusion_lat": 0.0, "is_reserved": 0, "rental_uris": {"ios": "https://dc.lft.to/lastmile_qr_scan", "android": "https://dc.lft.to/lastmile_qr_scan"}, "fusion_lon": 0.0, "type": "electric_scooter", "bike_id": "f44607119c8a06b69e4afdcdd43929b5", "name": "f44607119c8a06b69e4afdcdd43929b5"}, {"lon": -77.02007983333333, "is_disabled": 0, "lat": 38.914059333333334, "fusion_lat": 0.0, "is_reserved": 0, "rental_uris": {"ios": "https://dc.lft.to/lastmile_qr_scan", "android": "https://dc.lft.to/lastmile_qr_scan"}, "fusion_lon": 0.0, "type": "electric_scooter", "bike_id": "d1746f926156ff3087f0ac164c5fb38d", "name": "d1746f926156ff3087f0ac164c5fb38d"}, {"lon": -77.05723116666667, "is_disabled": 0, "lat": 38.9048285, "fusion_lat": 0.0, "is_reserved": 0, "rental_uris": {"ios": "https://dc.lft.to/lastmile_qr_scan", "android": "https://dc.lft.to/lastmile_qr_scan"}, "fusion_lon": 0.0, "type": "electric_scooter", "bike_id": "32b809a4626521c119cbee5857183dc8", "name": "32b809a4626521c119cbee5857183dc8"}, {"lon": -77.041723, "is_disabled": 0, "lat": 38.91131216666667, "fusion_lat": 0.0, "is_reserved": 0, "rental_uris": {"ios": "https://dc.lft.to/lastmile_qr_scan", "android": "https://dc.lft.to/lastmile_qr_scan"}, "fusion_lon": 0.0, "type": "electric_scooter", "bike_id": "99368f36e47164053591fa6910103311", "name": "99368f36e47164053591fa6910103311"}, {"lon": -77.0231795, "is_disabled": 0, "lat": 38.89606066666666, "fusion_lat": 0.0, "is_reserved": 0, "rental_uris": {"ios": "https://dc.lft.to/lastmile_qr_scan", "android": "https://dc.lft.to/lastmile_qr_scan"}, "fusion_lon": 0.0, "type": "electric_scooter", "bike_id": "627371a9a9f3798fb36d76e19192610a", "name": "627371a9a9f3798fb36d76e19192610a"}, {"lon": -77.02487666666667, "is_disabled": 0, "lat": 38.94184816666667, "fusion_lat": 0.0, "is_reserved": 0, "rental_uris": {"ios": "https://dc.lft.to/lastmile_qr_scan", "android": "https://dc.lft.to/lastmile_qr_scan"}, "fusion_lon": 0.0, "type": "electric_scooter", "bike_id": "e1e558cf54326fcc7b1ab88be88347b2", "name": "e1e558cf54326fcc7b1ab88be88347b2"}, {"lon": -77.00192683333333, "is_disabled": 0, "lat": 38.90268233333333, "fusion_lat": 0.0, "is_reserved": 0, "rental_uris": {"ios": "https://dc.lft.to/lastmile_qr_scan", "android": "https://dc.lft.to/lastmile_qr_scan"}, "fusion_lon": 0.0, "type": "electric_scooter", "bike_id": "88e5b883e04b8c11a7f90120157c9e3a", "name": "88e5b883e04b8c11a7f90120157c9e3a"}, {"lon": -77.03984566666666, "is_disabled": 0, "lat": 38.89224816666667, "fusion_lat": 0.0, "is_reserved": 0, "rental_uris": {"ios": "https://dc.lft.to/lastmile_qr_scan", "android": "https://dc.lft.to/lastmile_qr_scan"}, "fusion_lon": 0.0, "type": "electric_scooter", "bike_id": "8b5158aa5ede8fd4ec98680049ac63ec", "name": "8b5158aa5ede8fd4ec98680049ac63ec"}, {"lon": -77.05025916666666, "is_disabled": 0, "lat": 38.89248833333333, "fusion_lat": 0.0, "is_reserved": 0, "rental_uris": {"ios": "https://dc.lft.to/lastmile_qr_scan", "android": "https://dc.lft.to/lastmile_qr_scan"}, "fusion_lon": 0.0, "type": "electric_scooter", "bike_id": "948d707b618583d3bc0336e6dbe56d84", "name": "948d707b618583d3bc0336e6dbe56d84"}, {"lon": -77.02191983333333, "is_disabled": 0, "lat": 38.950058, "fusion_lat": 0.0, "is_reserved": 0, "rental_uris": {"ios": "https://dc.lft.to/lastmile_qr_scan", "android": "https://dc.lft.to/lastmile_qr_scan"}, "fusion_lon": 0.0, "type": "electric_scooter", "bike_id": "d7830acdec7030d876356c4d0d552dc2", "name": "d7830acdec7030d876356c4d0d552dc2"}, {"lon": -77.02395, "is_disabled": 0, "lat": 38.934573666666665, "fusion_lat": 0.0, "is_reserved": 0, "rental_uris": {"ios": "https://dc.lft.to/lastmile_qr_scan", "android": "https://dc.lft.to/lastmile_qr_scan"}, "fusion_lon": 0.0, "type": "electric_scooter", "bike_id": "79cf5f1ba6e60026da3cc3aa7fdfeb66", "name": "79cf5f1ba6e60026da3cc3aa7fdfeb66"}, {"lon": -77.02304183333334, "is_disabled": 0, "lat": 38.901304333333336, "fusion_lat": 0.0, "is_reserved": 0, "rental_uris": {"ios": "https://dc.lft.to/lastmile_qr_scan", "android": "https://dc.lft.to/lastmile_qr_scan"}, "fusion_lon": 0.0, "type": "electric_scooter", "bike_id": "2bcfd0eae1a30736e74c313119d0d4d0", "name": "2bcfd0eae1a30736e74c313119d0d4d0"}, {"lon": -77.0334075, "is_disabled": 0, "lat": 38.928789333333334, "fusion_lat": 0.0, "is_reserved": 0, "rental_uris": {"ios": "https://dc.lft.to/lastmile_qr_scan", "android": "https://dc.lft.to/lastmile_qr_scan"}, "fusion_lon": 0.0, "type": "electric_scooter", "bike_id": "93736fd56c92b3ea343190e9bc09b0f1", "name": "93736fd56c92b3ea343190e9bc09b0f1"}, {"lon": -76.97908016666666, "is_disabled": 0, "lat": 38.904302333333334, "fusion_lat": 0.0, "is_reserved": 0, "rental_uris": {"ios": "https://dc.lft.to/lastmile_qr_scan", "android": "https://dc.lft.to/lastmile_qr_scan"}, "fusion_lon": 0.0, "type": "electric_scooter", "bike_id": "4212f2feb64fc8559b15ff7026d65fa7", "name": "4212f2feb64fc8559b15ff7026d65fa7"}, {"lon": -77.01697766666666, "is_disabled": 0, "lat": 38.9076115, "fusion_lat": 0.0, "is_reserved": 0, "rental_uris": {"ios": "https://dc.lft.to/lastmile_qr_scan", "android": "https://dc.lft.to/lastmile_qr_scan"}, "fusion_lon": 0.0, "type": "electric_scooter", "bike_id": "24d0d6baf336788bc42cfb4be469834b", "name": "24d0d6baf336788bc42cfb4be469834b"}, {"lon": -76.98844633333333, "is_disabled": 0, "lat": 38.90029216666667, "fusion_lat": 0.0, "is_reserved": 0, "rental_uris": {"ios": "https://dc.lft.to/lastmile_qr_scan", "android": "https://dc.lft.to/lastmile_qr_scan"}, "fusion_lon": 0.0, "type": "electric_scooter", "bike_id": "180a38a371b9406f91ca90c32ab36358", "name": "180a38a371b9406f91ca90c32ab36358"}, {"lon": -77.04237066666667, "is_disabled": 0, "lat": 38.9012575, "fusion_lat": 0.0, "is_reserved": 0, "rental_uris": {"ios": "https://dc.lft.to/lastmile_qr_scan", "android": "https://dc.lft.to/lastmile_qr_scan"}, "fusion_lon": 0.0, "type": "electric_scooter", "bike_id": "2a83d9cc2884201f7cb897dfc8674e12", "name": "2a83d9cc2884201f7cb897dfc8674e12"}, {"lon": -77.04372283333333, "is_disabled": 0, "lat": 38.892211333333336, "fusion_lat": 0.0, "is_reserved": 0, "rental_uris": {"ios": "https://dc.lft.to/lastmile_qr_scan", "android": "https://dc.lft.to/lastmile_qr_scan"}, "fusion_lon": 0.0, "type": "electric_scooter", "bike_id": "842477eda2ac5985df2ac1d5fb9917c9", "name": "842477eda2ac5985df2ac1d5fb9917c9"}, {"lon": -76.94635566666666, "is_disabled": 0, "lat": 38.898662333333334, "fusion_lat": 0.0, "is_reserved": 0, "rental_uris": {"ios": "https://dc.lft.to/lastmile_qr_scan", "android": "https://dc.lft.to/lastmile_qr_scan"}, "fusion_lon": 0.0, "type": "electric_scooter", "bike_id": "b60b8142b87081a948d120e6ab81f0dc", "name": "b60b8142b87081a948d120e6ab81f0dc"}, {"lon": -77.01764016666667, "is_disabled": 0, "lat": 38.92049166666666, "fusion_lat": 0.0, "is_reserved": 0, "rental_uris": {"ios": "https://dc.lft.to/lastmile_qr_scan", "android": "https://dc.lft.to/lastmile_qr_scan"}, "fusion_lon": 0.0, "type": "electric_scooter", "bike_id": "b2585bba085bfd6538889f61717f57b4", "name": "b2585bba085bfd6538889f61717f57b4"}, {"lon": -77.023199, "is_disabled": 0, "lat": 38.90722616666667, "fusion_lat": 0.0, "is_reserved": 0, "rental_uris": {"ios": "https://dc.lft.to/lastmile_qr_scan", "android": "https://dc.lft.to/lastmile_qr_scan"}, "fusion_lon": 0.0, "type": "electric_scooter", "bike_id": "d7059c6e09c17bd2b53c49f493f1cb16", "name": "d7059c6e09c17bd2b53c49f493f1cb16"}, {"lon": -77.07059183333334, "is_disabled": 0, "lat": 38.901075166666665, "fusion_lat": 0.0, "is_reserved": 0, "rental_uris": {"ios": "https://dc.lft.to/lastmile_qr_scan", "android": "https://dc.lft.to/lastmile_qr_scan"}, "fusion_lon": 0.0, "type": "electric_scooter", "bike_id": "c3a1d71421d508f879b131f435c8b35f", "name": "c3a1d71421d508f879b131f435c8b35f"}, {"lon": -77.02498416666667, "is_disabled": 0, "lat": 38.940957833333336, "fusion_lat": 0.0, "is_reserved": 0, "rental_uris": {"ios": "https://dc.lft.to/lastmile_qr_scan", "android": "https://dc.lft.to/lastmile_qr_scan"}, "fusion_lon": 0.0, "type": "electric_scooter", "bike_id": "741d21de0943697dadbdce909c128ff1", "name": "741d21de0943697dadbdce909c128ff1"}, {"lon": -77.0094595, "is_disabled": 0, "lat": 38.91816683333333, "fusion_lat": 0.0, "is_reserved": 0, "rental_uris": {"ios": "https://dc.lft.to/lastmile_qr_scan", "android": "https://dc.lft.to/lastmile_qr_scan"}, "fusion_lon": 0.0, "type": "electric_scooter", "bike_id": "0aa791a33005c167a99cf9d9d2449f4d", "name": "0aa791a33005c167a99cf9d9d2449f4d"}, {"lon": -77.02924116666667, "is_disabled": 0, "lat": 38.899973, "fusion_lat": 0.0, "is_reserved": 0, "rental_uris": {"ios": "https://dc.lft.to/lastmile_qr_scan", "android": "https://dc.lft.to/lastmile_qr_scan"}, "fusion_lon": 0.0, "type": "electric_scooter", "bike_id": "6f78ed8232286191373d653549cc1533", "name": "6f78ed8232286191373d653549cc1533"}, {"lon": -77.02401116666667, "is_disabled": 0, "lat": 38.95694133333333, "fusion_lat": 0.0, "is_reserved": 0, "rental_uris": {"ios": "https://dc.lft.to/lastmile_qr_scan", "android": "https://dc.lft.to/lastmile_qr_scan"}, "fusion_lon": 0.0, "type": "electric_scooter", "bike_id": "6e0bc164a063e381ecc170480ac74e3a", "name": "6e0bc164a063e381ecc170480ac74e3a"}, {"lon": -77.03031966666667, "is_disabled": 0, "lat": 38.93121083333333, "fusion_lat": 0.0, "is_reserved": 0, "rental_uris": {"ios": "https://dc.lft.to/lastmile_qr_scan", "android": "https://dc.lft.to/lastmile_qr_scan"}, "fusion_lon": 0.0, "type": "electric_scooter", "bike_id": "16d69820ab4483dc1c43b11a91fe2790", "name": "16d69820ab4483dc1c43b11a91fe2790"}, {"lon": -77.00790966666666, "is_disabled": 0, "lat": 38.94924016666667, "fusion_lat": 0.0, "is_reserved": 0, "rental_uris": {"ios": "https://dc.lft.to/lastmile_qr_scan", "android": "https://dc.lft.to/lastmile_qr_scan"}, "fusion_lon": 0.0, "type": "electric_bike", "bike_id": "7de4f934fdae5f46e2800e89c80302f9", "name": "7de4f934fdae5f46e2800e89c80302f9"}, {"lon": -77.04109083333333, "is_disabled": 0, "lat": 38.910705, "fusion_lat": 0.0, "is_reserved": 0, "rental_uris": {"ios": "https://dc.lft.to/lastmile_qr_scan", "android": "https://dc.lft.to/lastmile_qr_scan"}, "fusion_lon": 0.0, "type": "electric_scooter", "bike_id": "b2137f5fc9b38e3f4f1f452190ecb3ac", "name": "b2137f5fc9b38e3f4f1f452190ecb3ac"}, {"lon": -77.04155583333333, "is_disabled": 0, "lat": 38.9074375, "fusion_lat": 0.0, "is_reserved": 0, "rental_uris": {"ios": "https://dc.lft.to/lastmile_qr_scan", "android": "https://dc.lft.to/lastmile_qr_scan"}, "fusion_lon": 0.0, "type": "electric_scooter", "bike_id": "8bcbc90a137f7c8df19b972ea745f6fb", "name": "8bcbc90a137f7c8df19b972ea745f6fb"}, {"lon": -77.068692, "is_disabled": 0, "lat": 38.936364, "fusion_lat": 0.0, "is_reserved": 0, "rental_uris": {"ios": "https://dc.lft.to/lastmile_qr_scan", "android": "https://dc.lft.to/lastmile_qr_scan"}, "fusion_lon": 0.0, "type": "electric_scooter", "bike_id": "55be98213190a9bc0da615cf24fdaf6d", "name": "55be98213190a9bc0da615cf24fdaf6d"}, {"lon": -76.928913, "is_disabled": 0, "lat": 38.90190233333333, "fusion_lat": 0.0, "is_reserved": 0, "rental_uris": {"ios": "https://dc.lft.to/lastmile_qr_scan", "android": "https://dc.lft.to/lastmile_qr_scan"}, "fusion_lon": 0.0, "type": "electric_scooter", "bike_id": "3ab0f91f6c808a2e21ff49b6ed5514c2", "name": "3ab0f91f6c808a2e21ff49b6ed5514c2"}, {"lon": -77.00889966666666, "is_disabled": 0, "lat": 38.9248325, "fusion_lat": 0.0, "is_reserved": 0, "rental_uris": {"ios": "https://dc.lft.to/lastmile_qr_scan", "android": "https://dc.lft.to/lastmile_qr_scan"}, "fusion_lon": 0.0, "type": "electric_scooter", "bike_id": "d07b0ae01c52495f8367bcf28d2e251c", "name": "d07b0ae01c52495f8367bcf28d2e251c"}, {"lon": -77.09608333333334, "is_disabled": 0, "lat": 38.87881933333333, "fusion_lat": 0.0, "is_reserved": 0, "rental_uris": {"ios": "https://dc.lft.to/lastmile_qr_scan", "android": "https://dc.lft.to/lastmile_qr_scan"}, "fusion_lon": 0.0, "type": "electric_bike", "bike_id": "2ec121abdee70c997d70f1f5045c8bdb", "name": "2ec121abdee70c997d70f1f5045c8bdb"}, {"lon": -77.0106885, "is_disabled": 0, "lat": 38.874772666666665, "fusion_lat": 0.0, "is_reserved": 0, "rental_uris": {"ios": "https://dc.lft.to/lastmile_qr_scan", "android": "https://dc.lft.to/lastmile_qr_scan"}, "fusion_lon": 0.0, "type": "electric_scooter", "bike_id": "f563dd6d79a01b5c9901fdb8d779247a", "name": "f563dd6d79a01b5c9901fdb8d779247a"}, {"lon": -77.04869633333334, "is_disabled": 0, "lat": 38.906598333333335, "fusion_lat": 0.0, "is_reserved": 0, "rental_uris": {"ios": "https://dc.lft.to/lastmile_qr_scan", "android": "https://dc.lft.to/lastmile_qr_scan"}, "fusion_lon": 0.0, "type": "electric_scooter", "bike_id": "a940c66698985e36613dd5197e97b977", "name": "a940c66698985e36613dd5197e97b977"}, {"lon": -77.04106183333333, "is_disabled": 0, "lat": 38.92313216666667, "fusion_lat": 0.0, "is_reserved": 0, "rental_uris": {"ios": "https://dc.lft.to/lastmile_qr_scan", "android": "https://dc.lft.to/lastmile_qr_scan"}, "fusion_lon": 0.0, "type": "electric_scooter", "bike_id": "632ca6e31dfeefd40cb2fb6032bb6db5", "name": "632ca6e31dfeefd40cb2fb6032bb6db5"}, {"lon": -77.02451166666667, "is_disabled": 0, "lat": 38.918348333333334, "fusion_lat": 0.0, "is_reserved": 0, "rental_uris": {"ios": "https://dc.lft.to/lastmile_qr_scan", "android": "https://dc.lft.to/lastmile_qr_scan"}, "fusion_lon": 0.0, "type": "electric_scooter", "bike_id": "59acda807a82b65fa9e1de2c5045614a", "name": "59acda807a82b65fa9e1de2c5045614a"}, {"lon": -77.05342833333333, "is_disabled": 0, "lat": 38.92717716666667, "fusion_lat": 0.0, "is_reserved": 0, "rental_uris": {"ios": "https://dc.lft.to/lastmile_qr_scan", "android": "https://dc.lft.to/lastmile_qr_scan"}, "fusion_lon": 0.0, "type": "electric_scooter", "bike_id": "126ff0a4f140d41e81b8f12fd01cfdad", "name": "126ff0a4f140d41e81b8f12fd01cfdad"}, {"lon": -77.0154545, "is_disabled": 0, "lat": 38.885775333333335, "fusion_lat": 0.0, "is_reserved": 0, "rental_uris": {"ios": "https://dc.lft.to/lastmile_qr_scan", "android": "https://dc.lft.to/lastmile_qr_scan"}, "fusion_lon": 0.0, "type": "electric_scooter", "bike_id": "9fe66adcec4b22d952ed79088c5f311e", "name": "9fe66adcec4b22d952ed79088c5f311e"}, {"lon": -77.03754166666667, "is_disabled": 0, "lat": 38.929414333333334, "fusion_lat": 0.0, "is_reserved": 0, "rental_uris": {"ios": "https://dc.lft.to/lastmile_qr_scan", "android": "https://dc.lft.to/lastmile_qr_scan"}, "fusion_lon": 0.0, "type": "electric_scooter", "bike_id": "b3edd19489b8bf23e12690dcbf40de5f", "name": "b3edd19489b8bf23e12690dcbf40de5f"}, {"lon": -76.93372066666667, "is_disabled": 0, "lat": 38.899112, "fusion_lat": 0.0, "is_reserved": 0, "rental_uris": {"ios": "https://dc.lft.to/lastmile_qr_scan", "android": "https://dc.lft.to/lastmile_qr_scan"}, "fusion_lon": 0.0, "type": "electric_scooter", "bike_id": "2778d5c6a53708741fb87482452a5f62", "name": "2778d5c6a53708741fb87482452a5f62"}, {"lon": -77.00202333333333, "is_disabled": 0, "lat": 38.9003355, "fusion_lat": 0.0, "is_reserved": 0, "rental_uris": {"ios": "https://dc.lft.to/lastmile_qr_scan", "android": "https://dc.lft.to/lastmile_qr_scan"}, "fusion_lon": 0.0, "type": "electric_scooter", "bike_id": "1cfd44dd732c7d5438b5918403076b36", "name": "1cfd44dd732c7d5438b5918403076b36"}, {"lon": -77.0383955, "is_disabled": 0, "lat": 38.92177433333333, "fusion_lat": 0.0, "is_reserved": 0, "rental_uris": {"ios": "https://dc.lft.to/lastmile_qr_scan", "android": "https://dc.lft.to/lastmile_qr_scan"}, "fusion_lon": 0.0, "type": "electric_scooter", "bike_id": "f2c0d63469b78266291940b07115e016", "name": "f2c0d63469b78266291940b07115e016"}, {"lon": -77.02024816666666, "is_disabled": 0, "lat": 38.924377, "fusion_lat": 0.0, "is_reserved": 0, "rental_uris": {"ios": "https://dc.lft.to/lastmile_qr_scan", "android": "https://dc.lft.to/lastmile_qr_scan"}, "fusion_lon": 0.0, "type": "electric_scooter", "bike_id": "e54e2b58a9749b07d03f7336dcfd5228", "name": "e54e2b58a9749b07d03f7336dcfd5228"}, {"lon": -77.13928833333334, "is_disabled": 0, "lat": 38.873006, "fusion_lat": 0.0, "is_reserved": 0, "rental_uris": {"ios": "https://dc.lft.to/lastmile_qr_scan", "android": "https://dc.lft.to/lastmile_qr_scan"}, "fusion_lon": 0.0, "type": "electric_bike", "bike_id": "202ac43975eb2a2c8457e71fad85167e", "name": "202ac43975eb2a2c8457e71fad85167e"}, {"lon": -76.98841516666667, "is_disabled": 0, "lat": 38.842836166666665, "fusion_lat": 0.0, "is_reserved": 0, "rental_uris": {"ios": "https://dc.lft.to/lastmile_qr_scan", "android": "https://dc.lft.to/lastmile_qr_scan"}, "fusion_lon": 0.0, "type": "electric_bike", "bike_id": "ff250b01cf1e7de85337a7ba8d444e21", "name": "ff250b01cf1e7de85337a7ba8d444e21"}, {"lon": -77.02289466666667, "is_disabled": 0, "lat": 38.91573116666667, "fusion_lat": 0.0, "is_reserved": 0, "rental_uris": {"ios": "https://dc.lft.to/lastmile_qr_scan", "android": "https://dc.lft.to/lastmile_qr_scan"}, "fusion_lon": 0.0, "type": "electric_scooter", "bike_id": "8869ff97553d11dbf012f7fa33368828", "name": "8869ff97553d11dbf012f7fa33368828"}, {"lon": -77.02961783333333, "is_disabled": 0, "lat": 38.92749, "fusion_lat": 0.0, "is_reserved": 0, "rental_uris": {"ios": "https://dc.lft.to/lastmile_qr_scan", "android": "https://dc.lft.to/lastmile_qr_scan"}, "fusion_lon": 0.0, "type": "electric_scooter", "bike_id": "0db16de0e2b6bde392fc9a72986ed5be", "name": "0db16de0e2b6bde392fc9a72986ed5be"}, {"lon": -77.02949583333333, "is_disabled": 0, "lat": 38.90500933333333, "fusion_lat": 0.0, "is_reserved": 0, "rental_uris": {"ios": "https://dc.lft.to/lastmile_qr_scan", "android": "https://dc.lft.to/lastmile_qr_scan"}, "fusion_lon": 0.0, "type": "electric_scooter", "bike_id": "fd563cfa4541c1ed2d8e8b7b4dd9be41", "name": "fd563cfa4541c1ed2d8e8b7b4dd9be41"}, {"lon": -77.025571, "is_disabled": 0, "lat": 38.919109, "fusion_lat": 0.0, "is_reserved": 0, "rental_uris": {"ios": "https://dc.lft.to/lastmile_qr_scan", "android": "https://dc.lft.to/lastmile_qr_scan"}, "fusion_lon": 0.0, "type": "electric_scooter", "bike_id": "2809e613e609c22ee3674e247fd48b2d", "name": "2809e613e609c22ee3674e247fd48b2d"}, {"lon": -76.96056616666667, "is_disabled": 0, "lat": 38.883254666666666, "fusion_lat": 0.0, "is_reserved": 0, "rental_uris": {"ios": "https://dc.lft.to/lastmile_qr_scan", "android": "https://dc.lft.to/lastmile_qr_scan"}, "fusion_lon": 0.0, "type": "electric_bike", "bike_id": "6a67ffc1982982cbb7feaf48084a9532", "name": "6a67ffc1982982cbb7feaf48084a9532"}, {"lon": -77.03102666666666, "is_disabled": 0, "lat": 38.89836316666667, "fusion_lat": 0.0, "is_reserved": 0, "rental_uris": {"ios": "https://dc.lft.to/lastmile_qr_scan", "android": "https://dc.lft.to/lastmile_qr_scan"}, "fusion_lon": 0.0, "type": "electric_scooter", "bike_id": "c3e75e00f05e84dae5a7af50a1e56bb7", "name": "c3e75e00f05e84dae5a7af50a1e56bb7"}, {"lon": -77.04347433333334, "is_disabled": 0, "lat": 38.921911, "fusion_lat": 0.0, "is_reserved": 0, "rental_uris": {"ios": "https://dc.lft.to/lastmile_qr_scan", "android": "https://dc.lft.to/lastmile_qr_scan"}, "fusion_lon": 0.0, "type": "electric_scooter", "bike_id": "5229433fbf1f6f2c176583de7946bcf6", "name": "5229433fbf1f6f2c176583de7946bcf6"}, {"lon": -77.00237083333333, "is_disabled": 0, "lat": 38.874904, "fusion_lat": 0.0, "is_reserved": 0, "rental_uris": {"ios": "https://dc.lft.to/lastmile_qr_scan", "android": "https://dc.lft.to/lastmile_qr_scan"}, "fusion_lon": 0.0, "type": "electric_scooter", "bike_id": "d6968381b6654a2df13ff1d224758848", "name": "d6968381b6654a2df13ff1d224758848"}, {"lon": -77.02845483333333, "is_disabled": 0, "lat": 38.916904, "fusion_lat": 0.0, "is_reserved": 0, "rental_uris": {"ios": "https://dc.lft.to/lastmile_qr_scan", "android": "https://dc.lft.to/lastmile_qr_scan"}, "fusion_lon": 0.0, "type": "electric_scooter", "bike_id": "7dba915a6cffc813bc1886e25967f9eb", "name": "7dba915a6cffc813bc1886e25967f9eb"}, {"lon": -76.97027783333333, "is_disabled": 0, "lat": 38.8736185, "fusion_lat": 0.0, "is_reserved": 0, "rental_uris": {"ios": "https://dc.lft.to/lastmile_qr_scan", "android": "https://dc.lft.to/lastmile_qr_scan"}, "fusion_lon": 0.0, "type": "electric_scooter", "bike_id": "a4b84ed892c6ae50e145980a8123af89", "name": "a4b84ed892c6ae50e145980a8123af89"}, {"lon": -76.97949, "is_disabled": 0, "lat": 38.90435033333333, "fusion_lat": 0.0, "is_reserved": 0, "rental_uris": {"ios": "https://dc.lft.to/lastmile_qr_scan", "android": "https://dc.lft.to/lastmile_qr_scan"}, "fusion_lon": 0.0, "type": "electric_scooter", "bike_id": "487160717049330ef8547e73bb63c866", "name": "487160717049330ef8547e73bb63c866"}, {"lon": -76.99002533333334, "is_disabled": 0, "lat": 38.8650525, "fusion_lat": 0.0, "is_reserved": 0, "rental_uris": {"ios": "https://dc.lft.to/lastmile_qr_scan", "android": "https://dc.lft.to/lastmile_qr_scan"}, "fusion_lon": 0.0, "type": "electric_scooter", "bike_id": "dc0345da874e80231c605e6ad820b614", "name": "dc0345da874e80231c605e6ad820b614"}, {"lon": -77.026142, "is_disabled": 0, "lat": 38.91414833333333, "fusion_lat": 0.0, "is_reserved": 0, "rental_uris": {"ios": "https://dc.lft.to/lastmile_qr_scan", "android": "https://dc.lft.to/lastmile_qr_scan"}, "fusion_lon": 0.0, "type": "electric_scooter", "bike_id": "17ed3730421b3f216e7d04520ec718d8", "name": "17ed3730421b3f216e7d04520ec718d8"}, {"lon": -77.02423583333334, "is_disabled": 0, "lat": 38.92043966666667, "fusion_lat": 0.0, "is_reserved": 0, "rental_uris": {"ios": "https://dc.lft.to/lastmile_qr_scan", "android": "https://dc.lft.to/lastmile_qr_scan"}, "fusion_lon": 0.0, "type": "electric_scooter", "bike_id": "1f68d24c649c4d465793d884fb66afba", "name": "1f68d24c649c4d465793d884fb66afba"}, {"lon": -77.02977416666667, "is_disabled": 0, "lat": 38.92783266666667, "fusion_lat": 0.0, "is_reserved": 0, "rental_uris": {"ios": "https://dc.lft.to/lastmile_qr_scan", "android": "https://dc.lft.to/lastmile_qr_scan"}, "fusion_lon": 0.0, "type": "electric_bike", "bike_id": "7e4a1e1f0ccff749b3199a91b8b0f221", "name": "7e4a1e1f0ccff749b3199a91b8b0f221"}, {"lon": -77.02650433333334, "is_disabled": 0, "lat": 38.930115, "fusion_lat": 0.0, "is_reserved": 0, "rental_uris": {"ios": "https://dc.lft.to/lastmile_qr_scan", "android": "https://dc.lft.to/lastmile_qr_scan"}, "fusion_lon": 0.0, "type": "electric_scooter", "bike_id": "7eb8b3c0a500e63dfcf1da988e5eec83", "name": "7eb8b3c0a500e63dfcf1da988e5eec83"}, {"lon": -77.0830615, "is_disabled": 0, "lat": 38.85436966666666, "fusion_lat": 0.0, "is_reserved": 0, "rental_uris": {"ios": "https://dc.lft.to/lastmile_qr_scan", "android": "https://dc.lft.to/lastmile_qr_scan"}, "fusion_lon": 0.0, "type": "electric_bike", "bike_id": "662e9d2abd2945ff10c9510ccf5aa439", "name": "662e9d2abd2945ff10c9510ccf5aa439"}, {"lon": -77.02951433333334, "is_disabled": 0, "lat": 38.90498616666667, "fusion_lat": 0.0, "is_reserved": 0, "rental_uris": {"ios": "https://dc.lft.to/lastmile_qr_scan", "android": "https://dc.lft.to/lastmile_qr_scan"}, "fusion_lon": 0.0, "type": "electric_scooter", "bike_id": "90ff78f4e0b7c53dc52882b07965440c", "name": "90ff78f4e0b7c53dc52882b07965440c"}, {"lon": -77.229233, "is_disabled": 0, "lat": 38.9319355, "fusion_lat": 0.0, "is_reserved": 0, "rental_uris": {"ios": "https://dc.lft.to/lastmile_qr_scan", "android": "https://dc.lft.to/lastmile_qr_scan"}, "fusion_lon": 0.0, "type": "electric_bike", "bike_id": "896cfe52a5311a1a4a52663a4f207238", "name": "896cfe52a5311a1a4a52663a4f207238"}, {"lon": -77.0271285, "is_disabled": 0, "lat": 38.927651833333336, "fusion_lat": 0.0, "is_reserved": 0, "rental_uris": {"ios": "https://dc.lft.to/lastmile_qr_scan", "android": "https://dc.lft.to/lastmile_qr_scan"}, "fusion_lon": 0.0, "type": "electric_scooter", "bike_id": "101ac9a9477dc56205cf5ddb56f4c5d5", "name": "101ac9a9477dc56205cf5ddb56f4c5d5"}, {"lon": -77.03213333333333, "is_disabled": 0, "lat": 38.9133125, "fusion_lat": 0.0, "is_reserved": 0, "rental_uris": {"ios": "https://dc.lft.to/lastmile_qr_scan", "android": "https://dc.lft.to/lastmile_qr_scan"}, "fusion_lon": 0.0, "type": "electric_scooter", "bike_id": "1dbfcbed4e28186d7b43f32b93ede23d", "name": "1dbfcbed4e28186d7b43f32b93ede23d"}, {"lon": -77.036367, "is_disabled": 0, "lat": 38.930602, "fusion_lat": 0.0, "is_reserved": 0, "rental_uris": {"ios": "https://dc.lft.to/lastmile_qr_scan", "android": "https://dc.lft.to/lastmile_qr_scan"}, "fusion_lon": 0.0, "type": "electric_scooter", "bike_id": "e911fcc4199b09261367162da138ad80", "name": "e911fcc4199b09261367162da138ad80"}, {"lon": -77.02728566666667, "is_disabled": 0, "lat": 38.898243666666666, "fusion_lat": 0.0, "is_reserved": 0, "rental_uris": {"ios": "https://dc.lft.to/lastmile_qr_scan", "android": "https://dc.lft.to/lastmile_qr_scan"}, "fusion_lon": 0.0, "type": "electric_scooter", "bike_id": "465d074548a07c7896045e085e772fc4", "name": "465d074548a07c7896045e085e772fc4"}, {"lon": -77.027278, "is_disabled": 0, "lat": 38.9558225, "fusion_lat": 0.0, "is_reserved": 0, "rental_uris": {"ios": "https://dc.lft.to/lastmile_qr_scan", "android": "https://dc.lft.to/lastmile_qr_scan"}, "fusion_lon": 0.0, "type": "electric_scooter", "bike_id": "c134c0506c54d6e6b7efb8782ca3c86c", "name": "c134c0506c54d6e6b7efb8782ca3c86c"}, {"lon": -77.04931216666667, "is_disabled": 0, "lat": 38.9182685, "fusion_lat": 0.0, "is_reserved": 0, "rental_uris": {"ios": "https://dc.lft.to/lastmile_qr_scan", "android": "https://dc.lft.to/lastmile_qr_scan"}, "fusion_lon": 0.0, "type": "electric_scooter", "bike_id": "5decfc7cbcda57e3c7ccecadbc0ee83b", "name": "5decfc7cbcda57e3c7ccecadbc0ee83b"}, {"lon": -77.0281525, "is_disabled": 0, "lat": 38.911334333333336, "fusion_lat": 0.0, "is_reserved": 0, "rental_uris": {"ios": "https://dc.lft.to/lastmile_qr_scan", "android": "https://dc.lft.to/lastmile_qr_scan"}, "fusion_lon": 0.0, "type": "electric_scooter", "bike_id": "461964bff330c968ab65141e6f04bcc1", "name": "461964bff330c968ab65141e6f04bcc1"}, {"lon": -77.03867816666667, "is_disabled": 0, "lat": 38.9215455, "fusion_lat": 0.0, "is_reserved": 0, "rental_uris": {"ios": "https://dc.lft.to/lastmile_qr_scan", "android": "https://dc.lft.to/lastmile_qr_scan"}, "fusion_lon": 0.0, "type": "electric_scooter", "bike_id": "7651e938978fda81870b9be65cd9267d", "name": "7651e938978fda81870b9be65cd9267d"}, {"lon": -77.0297445, "is_disabled": 0, "lat": 38.919885, "fusion_lat": 0.0, "is_reserved": 0, "rental_uris": {"ios": "https://dc.lft.to/lastmile_qr_scan", "android": "https://dc.lft.to/lastmile_qr_scan"}, "fusion_lon": 0.0, "type": "electric_scooter", "bike_id": "274475361fa306d2c3c84ea178ee3d73", "name": "274475361fa306d2c3c84ea178ee3d73"}, {"lon": -77.02059833333334, "is_disabled": 0, "lat": 38.928477, "fusion_lat": 0.0, "is_reserved": 0, "rental_uris": {"ios": "https://dc.lft.to/lastmile_qr_scan", "android": "https://dc.lft.to/lastmile_qr_scan"}, "fusion_lon": 0.0, "type": "electric_bike", "bike_id": "b25ae52eb529dcefb3a98037bfb03a10", "name": "b25ae52eb529dcefb3a98037bfb03a10"}, {"lon": -77.0526575, "is_disabled": 0, "lat": 38.92774133333333, "fusion_lat": 0.0, "is_reserved": 0, "rental_uris": {"ios": "https://dc.lft.to/lastmile_qr_scan", "android": "https://dc.lft.to/lastmile_qr_scan"}, "fusion_lon": 0.0, "type": "electric_scooter", "bike_id": "2fa11bc5e61ad7c913a1ca46516013b3", "name": "2fa11bc5e61ad7c913a1ca46516013b3"}, {"lon": -77.032222, "is_disabled": 0, "lat": 38.90866583333333, "fusion_lat": 0.0, "is_reserved": 0, "rental_uris": {"ios": "https://dc.lft.to/lastmile_qr_scan", "android": "https://dc.lft.to/lastmile_qr_scan"}, "fusion_lon": 0.0, "type": "electric_scooter", "bike_id": "56d3ee40649e692d1fc75593bc759a80", "name": "56d3ee40649e692d1fc75593bc759a80"}, {"lon": -77.03867916666667, "is_disabled": 0, "lat": 38.921533333333336, "fusion_lat": 0.0, "is_reserved": 0, "rental_uris": {"ios": "https://dc.lft.to/lastmile_qr_scan", "android": "https://dc.lft.to/lastmile_qr_scan"}, "fusion_lon": 0.0, "type": "electric_scooter", "bike_id": "320f27b9223a95a698a929d72a8d6ace", "name": "320f27b9223a95a698a929d72a8d6ace"}, {"lon": -76.98963266666667, "is_disabled": 0, "lat": 38.85875583333333, "fusion_lat": 0.0, "is_reserved": 0, "rental_uris": {"ios": "https://dc.lft.to/lastmile_qr_scan", "android": "https://dc.lft.to/lastmile_qr_scan"}, "fusion_lon": 0.0, "type": "electric_scooter", "bike_id": "e249e68196c26cbc1d486433bccec548", "name": "e249e68196c26cbc1d486433bccec548"}, {"lon": -77.03101766666667, "is_disabled": 0, "lat": 38.883214333333335, "fusion_lat": 0.0, "is_reserved": 0, "rental_uris": {"ios": "https://dc.lft.to/lastmile_qr_scan", "android": "https://dc.lft.to/lastmile_qr_scan"}, "fusion_lon": 0.0, "type": "electric_scooter", "bike_id": "8fa0a9b1c45e1769803ccdb70176f683", "name": "8fa0a9b1c45e1769803ccdb70176f683"}, {"lon": -77.010475, "is_disabled": 0, "lat": 38.877654666666665, "fusion_lat": 0.0, "is_reserved": 0, "rental_uris": {"ios": "https://dc.lft.to/lastmile_qr_scan", "android": "https://dc.lft.to/lastmile_qr_scan"}, "fusion_lon": 0.0, "type": "electric_bike", "bike_id": "47880fef9de84bc141dd8e75ea69b04f", "name": "47880fef9de84bc141dd8e75ea69b04f"}, {"lon": -77.04831383333334, "is_disabled": 0, "lat": 38.89838666666667, "fusion_lat": 0.0, "is_reserved": 0, "rental_uris": {"ios": "https://dc.lft.to/lastmile_qr_scan", "android": "https://dc.lft.to/lastmile_qr_scan"}, "fusion_lon": 0.0, "type": "electric_scooter", "bike_id": "61179064663fda45d6ff72d73c9af10e", "name": "61179064663fda45d6ff72d73c9af10e"}, {"lon": -77.043052, "is_disabled": 0, "lat": 38.931797, "fusion_lat": 0.0, "is_reserved": 0, "rental_uris": {"ios": "https://dc.lft.to/lastmile_qr_scan", "android": "https://dc.lft.to/lastmile_qr_scan"}, "fusion_lon": 0.0, "type": "electric_scooter", "bike_id": "34725fc874605cd02ad919d1964b973b", "name": "34725fc874605cd02ad919d1964b973b"}, {"lon": -77.00224533333333, "is_disabled": 0, "lat": 38.9250935, "fusion_lat": 0.0, "is_reserved": 0, "rental_uris": {"ios": "https://dc.lft.to/lastmile_qr_scan", "android": "https://dc.lft.to/lastmile_qr_scan"}, "fusion_lon": 0.0, "type": "electric_scooter", "bike_id": "fa1ef4faaae2e0c702c4795209ebba03", "name": "fa1ef4faaae2e0c702c4795209ebba03"}, {"lon": -76.92903183333334, "is_disabled": 0, "lat": 38.89853466666667, "fusion_lat": 0.0, "is_reserved": 0, "rental_uris": {"ios": "https://dc.lft.to/lastmile_qr_scan", "android": "https://dc.lft.to/lastmile_qr_scan"}, "fusion_lon": 0.0, "type": "electric_scooter", "bike_id": "430ce0e2f714497015fb179a177550a7", "name": "430ce0e2f714497015fb179a177550a7"}, {"lon": -77.04145483333333, "is_disabled": 0, "lat": 38.900117, "fusion_lat": 0.0, "is_reserved": 0, "rental_uris": {"ios": "https://dc.lft.to/lastmile_qr_scan", "android": "https://dc.lft.to/lastmile_qr_scan"}, "fusion_lon": 0.0, "type": "electric_scooter", "bike_id": "a2a2323a46665019802fd9ed056adeb1", "name": "a2a2323a46665019802fd9ed056adeb1"}, {"lon": -77.0269875, "is_disabled": 0, "lat": 38.8975285, "fusion_lat": 0.0, "is_reserved": 0, "rental_uris": {"ios": "https://dc.lft.to/lastmile_qr_scan", "android": "https://dc.lft.to/lastmile_qr_scan"}, "fusion_lon": 0.0, "type": "electric_scooter", "bike_id": "4449cec87ce5389357163db2efd1a767", "name": "4449cec87ce5389357163db2efd1a767"}, {"lon": -76.98504666666666, "is_disabled": 0, "lat": 38.90346016666667, "fusion_lat": 0.0, "is_reserved": 0, "rental_uris": {"ios": "https://dc.lft.to/lastmile_qr_scan", "android": "https://dc.lft.to/lastmile_qr_scan"}, "fusion_lon": 0.0, "type": "electric_scooter", "bike_id": "b1ab9bc00e7040c704ba81853fe9bad2", "name": "b1ab9bc00e7040c704ba81853fe9bad2"}, {"lon": -77.042903, "is_disabled": 0, "lat": 38.91555016666667, "fusion_lat": 0.0, "is_reserved": 0, "rental_uris": {"ios": "https://dc.lft.to/lastmile_qr_scan", "android": "https://dc.lft.to/lastmile_qr_scan"}, "fusion_lon": 0.0, "type": "electric_scooter", "bike_id": "ce128a4cf03d20ba8679fffc9873f579", "name": "ce128a4cf03d20ba8679fffc9873f579"}, {"lon": -77.03316583333333, "is_disabled": 0, "lat": 38.921550333333336, "fusion_lat": 0.0, "is_reserved": 0, "rental_uris": {"ios": "https://dc.lft.to/lastmile_qr_scan", "android": "https://dc.lft.to/lastmile_qr_scan"}, "fusion_lon": 0.0, "type": "electric_scooter", "bike_id": "153f699a8803da00029287128d473fb4", "name": "153f699a8803da00029287128d473fb4"}, {"lon": -77.03205566666666, "is_disabled": 0, "lat": 38.920205333333335, "fusion_lat": 0.0, "is_reserved": 0, "rental_uris": {"ios": "https://dc.lft.to/lastmile_qr_scan", "android": "https://dc.lft.to/lastmile_qr_scan"}, "fusion_lon": 0.0, "type": "electric_scooter", "bike_id": "8890d5f15f7b942b4467ef9607003413", "name": "8890d5f15f7b942b4467ef9607003413"}, {"lon": -77.02178783333333, "is_disabled": 0, "lat": 38.90197633333333, "fusion_lat": 0.0, "is_reserved": 0, "rental_uris": {"ios": "https://dc.lft.to/lastmile_qr_scan", "android": "https://dc.lft.to/lastmile_qr_scan"}, "fusion_lon": 0.0, "type": "electric_scooter", "bike_id": "2f29d06d4a989c4360779ebdf3f2d047", "name": "2f29d06d4a989c4360779ebdf3f2d047"}, {"lon": -77.02271366666666, "is_disabled": 0, "lat": 38.914139, "fusion_lat": 0.0, "is_reserved": 0, "rental_uris": {"ios": "https://dc.lft.to/lastmile_qr_scan", "android": "https://dc.lft.to/lastmile_qr_scan"}, "fusion_lon": 0.0, "type": "electric_scooter", "bike_id": "8fa7f7b11c5c086fc47176e5497b87bf", "name": "8fa7f7b11c5c086fc47176e5497b87bf"}, {"lon": -77.00549733333334, "is_disabled": 0, "lat": 38.905635, "fusion_lat": 0.0, "is_reserved": 0, "rental_uris": {"ios": "https://dc.lft.to/lastmile_qr_scan", "android": "https://dc.lft.to/lastmile_qr_scan"}, "fusion_lon": 0.0, "type": "electric_scooter", "bike_id": "17aa9bb2b3377541f327e33e66f08c26", "name": "17aa9bb2b3377541f327e33e66f08c26"}, {"lon": -77.02836533333333, "is_disabled": 0, "lat": 38.88738466666667, "fusion_lat": 0.0, "is_reserved": 0, "rental_uris": {"ios": "https://dc.lft.to/lastmile_qr_scan", "android": "https://dc.lft.to/lastmile_qr_scan"}, "fusion_lon": 0.0, "type": "electric_scooter", "bike_id": "9864582702ce9d6d6fcae048aa4fa030", "name": "9864582702ce9d6d6fcae048aa4fa030"}, {"lon": -77.0318455, "is_disabled": 0, "lat": 38.91350933333333, "fusion_lat": 0.0, "is_reserved": 0, "rental_uris": {"ios": "https://dc.lft.to/lastmile_qr_scan", "android": "https://dc.lft.to/lastmile_qr_scan"}, "fusion_lon": 0.0, "type": "electric_scooter", "bike_id": "534806338eb6df8d30eb5d4fae423639", "name": "534806338eb6df8d30eb5d4fae423639"}, {"lon": -77.03179033333333, "is_disabled": 0, "lat": 38.919137166666665, "fusion_lat": 0.0, "is_reserved": 0, "rental_uris": {"ios": "https://dc.lft.to/lastmile_qr_scan", "android": "https://dc.lft.to/lastmile_qr_scan"}, "fusion_lon": 0.0, "type": "electric_scooter", "bike_id": "6cb74d44f7863fd169358a0a649692ce", "name": "6cb74d44f7863fd169358a0a649692ce"}, {"lon": -77.05886383333333, "is_disabled": 0, "lat": 38.936355, "fusion_lat": 0.0, "is_reserved": 0, "rental_uris": {"ios": "https://dc.lft.to/lastmile_qr_scan", "android": "https://dc.lft.to/lastmile_qr_scan"}, "fusion_lon": 0.0, "type": "electric_scooter", "bike_id": "430af27eb9a5fd7f282ff27a1e81895e", "name": "430af27eb9a5fd7f282ff27a1e81895e"}, {"lon": -77.03829433333334, "is_disabled": 0, "lat": 38.91157116666667, "fusion_lat": 0.0, "is_reserved": 0, "rental_uris": {"ios": "https://dc.lft.to/lastmile_qr_scan", "android": "https://dc.lft.to/lastmile_qr_scan"}, "fusion_lon": 0.0, "type": "electric_scooter", "bike_id": "c1a393ace46cf407b50467bebf0edaa0", "name": "c1a393ace46cf407b50467bebf0edaa0"}, {"lon": -77.00132283333333, "is_disabled": 0, "lat": 38.835802, "fusion_lat": 0.0, "is_reserved": 0, "rental_uris": {"ios": "https://dc.lft.to/lastmile_qr_scan", "android": "https://dc.lft.to/lastmile_qr_scan"}, "fusion_lon": 0.0, "type": "electric_scooter", "bike_id": "c5137fb71411986cffa5d8a26f42883d", "name": "c5137fb71411986cffa5d8a26f42883d"}, {"lon": -77.02365683333333, "is_disabled": 0, "lat": 38.92050533333333, "fusion_lat": 0.0, "is_reserved": 0, "rental_uris": {"ios": "https://dc.lft.to/lastmile_qr_scan", "android": "https://dc.lft.to/lastmile_qr_scan"}, "fusion_lon": 0.0, "type": "electric_scooter", "bike_id": "24acccaa7a4e3291834b9abb8512d3ba", "name": "24acccaa7a4e3291834b9abb8512d3ba"}, {"lon": -77.00338566666667, "is_disabled": 0, "lat": 38.894617333333336, "fusion_lat": 0.0, "is_reserved": 0, "rental_uris": {"ios": "https://dc.lft.to/lastmile_qr_scan", "android": "https://dc.lft.to/lastmile_qr_scan"}, "fusion_lon": 0.0, "type": "electric_scooter", "bike_id": "b8596791f18848cd270b53f102bbbc04", "name": "b8596791f18848cd270b53f102bbbc04"}, {"lon": -76.9978435, "is_disabled": 0, "lat": 38.90868, "fusion_lat": 0.0, "is_reserved": 0, "rental_uris": {"ios": "https://dc.lft.to/lastmile_qr_scan", "android": "https://dc.lft.to/lastmile_qr_scan"}, "fusion_lon": 0.0, "type": "electric_scooter", "bike_id": "bc78a666ee7bd72e20f9c5f1d3f7ded6", "name": "bc78a666ee7bd72e20f9c5f1d3f7ded6"}, {"lon": -77.01782016666667, "is_disabled": 0, "lat": 38.877091, "fusion_lat": 0.0, "is_reserved": 0, "rental_uris": {"ios": "https://dc.lft.to/lastmile_qr_scan", "android": "https://dc.lft.to/lastmile_qr_scan"}, "fusion_lon": 0.0, "type": "electric_scooter", "bike_id": "62637e0fe68127fa6e38707afffc1bea", "name": "62637e0fe68127fa6e38707afffc1bea"}, {"lon": -77.03726933333333, "is_disabled": 0, "lat": 38.9266055, "fusion_lat": 0.0, "is_reserved": 0, "rental_uris": {"ios": "https://dc.lft.to/lastmile_qr_scan", "android": "https://dc.lft.to/lastmile_qr_scan"}, "fusion_lon": 0.0, "type": "electric_scooter", "bike_id": "95e21bcb1dfab1e1daa8850c48970c61", "name": "95e21bcb1dfab1e1daa8850c48970c61"}, {"lon": -77.03258366666667, "is_disabled": 0, "lat": 38.934375833333334, "fusion_lat": 0.0, "is_reserved": 0, "rental_uris": {"ios": "https://dc.lft.to/lastmile_qr_scan", "android": "https://dc.lft.to/lastmile_qr_scan"}, "fusion_lon": 0.0, "type": "electric_scooter", "bike_id": "c799f7e391dac88e14711f824c35b365", "name": "c799f7e391dac88e14711f824c35b365"}, {"lon": -77.09983466666667, "is_disabled": 0, "lat": 38.883988, "fusion_lat": 0.0, "is_reserved": 0, "rental_uris": {"ios": "https://dc.lft.to/lastmile_qr_scan", "android": "https://dc.lft.to/lastmile_qr_scan"}, "fusion_lon": 0.0, "type": "electric_bike", "bike_id": "33c77aebd776061d367ba638f4c7879a", "name": "33c77aebd776061d367ba638f4c7879a"}, {"lon": -77.043338, "is_disabled": 0, "lat": 38.92219883333333, "fusion_lat": 0.0, "is_reserved": 0, "rental_uris": {"ios": "https://dc.lft.to/lastmile_qr_scan", "android": "https://dc.lft.to/lastmile_qr_scan"}, "fusion_lon": 0.0, "type": "electric_scooter", "bike_id": "cb593b2697eeedf754e2374576bdc833", "name": "cb593b2697eeedf754e2374576bdc833"}, {"lon": -77.01671583333334, "is_disabled": 0, "lat": 38.881276166666666, "fusion_lat": 0.0, "is_reserved": 0, "rental_uris": {"ios": "https://dc.lft.to/lastmile_qr_scan", "android": "https://dc.lft.to/lastmile_qr_scan"}, "fusion_lon": 0.0, "type": "electric_scooter", "bike_id": "77636dc99155b2e754a32614e61a5db4", "name": "77636dc99155b2e754a32614e61a5db4"}, {"lon": -77.0415475, "is_disabled": 0, "lat": 38.91419483333333, "fusion_lat": 0.0, "is_reserved": 0, "rental_uris": {"ios": "https://dc.lft.to/lastmile_qr_scan", "android": "https://dc.lft.to/lastmile_qr_scan"}, "fusion_lon": 0.0, "type": "electric_scooter", "bike_id": "aed2d36f6832eba811f38087b40dcf89", "name": "aed2d36f6832eba811f38087b40dcf89"}, {"lon": -77.03771116666667, "is_disabled": 0, "lat": 38.925713333333334, "fusion_lat": 0.0, "is_reserved": 0, "rental_uris": {"ios": "https://dc.lft.to/lastmile_qr_scan", "android": "https://dc.lft.to/lastmile_qr_scan"}, "fusion_lon": 0.0, "type": "electric_scooter", "bike_id": "88fdf44d55dab502fe612007180b4f1e", "name": "88fdf44d55dab502fe612007180b4f1e"}, {"lon": -77.0448115, "is_disabled": 0, "lat": 38.89915283333333, "fusion_lat": 0.0, "is_reserved": 0, "rental_uris": {"ios": "https://dc.lft.to/lastmile_qr_scan", "android": "https://dc.lft.to/lastmile_qr_scan"}, "fusion_lon": 0.0, "type": "electric_scooter", "bike_id": "ea90a6a7c4dd37d809bffed8cbb3a8f3", "name": "ea90a6a7c4dd37d809bffed8cbb3a8f3"}, {"lon": -77.00555516666667, "is_disabled": 0, "lat": 38.880114666666664, "fusion_lat": 0.0, "is_reserved": 0, "rental_uris": {"ios": "https://dc.lft.to/lastmile_qr_scan", "android": "https://dc.lft.to/lastmile_qr_scan"}, "fusion_lon": 0.0, "type": "electric_scooter", "bike_id": "341f4f8eab1748438d35612ee7595d8f", "name": "341f4f8eab1748438d35612ee7595d8f"}, {"lon": -77.02042666666667, "is_disabled": 0, "lat": 38.92108066666667, "fusion_lat": 0.0, "is_reserved": 0, "rental_uris": {"ios": "https://dc.lft.to/lastmile_qr_scan", "android": "https://dc.lft.to/lastmile_qr_scan"}, "fusion_lon": 0.0, "type": "electric_scooter", "bike_id": "0d1792ee4043c1ac258adc6d7d809b90", "name": "0d1792ee4043c1ac258adc6d7d809b90"}, {"lon": -77.02998966666667, "is_disabled": 0, "lat": 38.901250166666664, "fusion_lat": 0.0, "is_reserved": 0, "rental_uris": {"ios": "https://dc.lft.to/lastmile_qr_scan", "android": "https://dc.lft.to/lastmile_qr_scan"}, "fusion_lon": 0.0, "type": "electric_scooter", "bike_id": "c646cddc406b5de3bae79fa87454c1fb", "name": "c646cddc406b5de3bae79fa87454c1fb"}, {"lon": -77.04162433333333, "is_disabled": 0, "lat": 38.917683833333335, "fusion_lat": 0.0, "is_reserved": 0, "rental_uris": {"ios": "https://dc.lft.to/lastmile_qr_scan", "android": "https://dc.lft.to/lastmile_qr_scan"}, "fusion_lon": 0.0, "type": "electric_scooter", "bike_id": "050f93d5a401e69716ef18a990b71ae0", "name": "050f93d5a401e69716ef18a990b71ae0"}, {"lon": -77.0437115, "is_disabled": 0, "lat": 38.921379333333334, "fusion_lat": 0.0, "is_reserved": 0, "rental_uris": {"ios": "https://dc.lft.to/lastmile_qr_scan", "android": "https://dc.lft.to/lastmile_qr_scan"}, "fusion_lon": 0.0, "type": "electric_scooter", "bike_id": "d523fe8cdae8f5331d0c8357c5c222bb", "name": "d523fe8cdae8f5331d0c8357c5c222bb"}, {"lon": -77.0409535, "is_disabled": 0, "lat": 38.9177465, "fusion_lat": 0.0, "is_reserved": 0, "rental_uris": {"ios": "https://dc.lft.to/lastmile_qr_scan", "android": "https://dc.lft.to/lastmile_qr_scan"}, "fusion_lon": 0.0, "type": "electric_scooter", "bike_id": "e08e57264da27bf33875f9db1973e1e0", "name": "e08e57264da27bf33875f9db1973e1e0"}, {"lon": -77.0533765, "is_disabled": 0, "lat": 39.040851333333336, "fusion_lat": 0.0, "is_reserved": 0, "rental_uris": {"ios": "https://dc.lft.to/lastmile_qr_scan", "android": "https://dc.lft.to/lastmile_qr_scan"}, "fusion_lon": 0.0, "type": "electric_bike", "bike_id": "9db98f2ae2141c7e3e3a004200cfcf27", "name": "9db98f2ae2141c7e3e3a004200cfcf27"}, {"lon": -77.00071983333333, "is_disabled": 0, "lat": 38.87382916666667, "fusion_lat": 0.0, "is_reserved": 0, "rental_uris": {"ios": "https://dc.lft.to/lastmile_qr_scan", "android": "https://dc.lft.to/lastmile_qr_scan"}, "fusion_lon": 0.0, "type": "electric_scooter", "bike_id": "0c7d076d04d9f08f4e60ae9ba4d36edc", "name": "0c7d076d04d9f08f4e60ae9ba4d36edc"}, {"lon": -77.03290183333333, "is_disabled": 0, "lat": 38.93513983333333, "fusion_lat": 0.0, "is_reserved": 0, "rental_uris": {"ios": "https://dc.lft.to/lastmile_qr_scan", "android": "https://dc.lft.to/lastmile_qr_scan"}, "fusion_lon": 0.0, "type": "electric_scooter", "bike_id": "c12eda5c823135b74e1f36ad988e44d2", "name": "c12eda5c823135b74e1f36ad988e44d2"}, {"lon": -77.02457283333334, "is_disabled": 0, "lat": 38.93865616666667, "fusion_lat": 0.0, "is_reserved": 0, "rental_uris": {"ios": "https://dc.lft.to/lastmile_qr_scan", "android": "https://dc.lft.to/lastmile_qr_scan"}, "fusion_lon": 0.0, "type": "electric_scooter", "bike_id": "d9062302753d77cee4c85436e004091a", "name": "d9062302753d77cee4c85436e004091a"}, {"lon": -77.05171966666667, "is_disabled": 0, "lat": 38.905169, "fusion_lat": 0.0, "is_reserved": 0, "rental_uris": {"ios": "https://dc.lft.to/lastmile_qr_scan", "android": "https://dc.lft.to/lastmile_qr_scan"}, "fusion_lon": 0.0, "type": "electric_scooter", "bike_id": "937a85da6c5c69cd44d13679f66f4928", "name": "937a85da6c5c69cd44d13679f66f4928"}, {"lon": -77.0266415, "is_disabled": 0, "lat": 38.90256816666667, "fusion_lat": 0.0, "is_reserved": 0, "rental_uris": {"ios": "https://dc.lft.to/lastmile_qr_scan", "android": "https://dc.lft.to/lastmile_qr_scan"}, "fusion_lon": 0.0, "type": "electric_scooter", "bike_id": "7f5d9ba01bb794addaca12dc86726030", "name": "7f5d9ba01bb794addaca12dc86726030"}, {"lon": -77.014881, "is_disabled": 0, "lat": 38.89220683333333, "fusion_lat": 0.0, "is_reserved": 0, "rental_uris": {"ios": "https://dc.lft.to/lastmile_qr_scan", "android": "https://dc.lft.to/lastmile_qr_scan"}, "fusion_lon": 0.0, "type": "electric_scooter", "bike_id": "b01570a425a91d1107eab30e89d18a13", "name": "b01570a425a91d1107eab30e89d18a13"}, {"lon": -77.0251485, "is_disabled": 0, "lat": 38.91927166666667, "fusion_lat": 0.0, "is_reserved": 0, "rental_uris": {"ios": "https://dc.lft.to/lastmile_qr_scan", "android": "https://dc.lft.to/lastmile_qr_scan"}, "fusion_lon": 0.0, "type": "electric_scooter", "bike_id": "b8a78048fcef6f9954af1218078c71e3", "name": "b8a78048fcef6f9954af1218078c71e3"}, {"lon": -77.032813, "is_disabled": 0, "lat": 38.929073333333335, "fusion_lat": 0.0, "is_reserved": 0, "rental_uris": {"ios": "https://dc.lft.to/lastmile_qr_scan", "android": "https://dc.lft.to/lastmile_qr_scan"}, "fusion_lon": 0.0, "type": "electric_scooter", "bike_id": "72c2718022c23594660931e43b508315", "name": "72c2718022c23594660931e43b508315"}, {"lon": -77.02887383333334, "is_disabled": 0, "lat": 38.9045975, "fusion_lat": 0.0, "is_reserved": 0, "rental_uris": {"ios": "https://dc.lft.to/lastmile_qr_scan", "android": "https://dc.lft.to/lastmile_qr_scan"}, "fusion_lon": 0.0, "type": "electric_scooter", "bike_id": "e5bf70956788660b64c62c073af7f198", "name": "e5bf70956788660b64c62c073af7f198"}, {"lon": -76.9509685, "is_disabled": 0, "lat": 38.88450133333333, "fusion_lat": 0.0, "is_reserved": 0, "rental_uris": {"ios": "https://dc.lft.to/lastmile_qr_scan", "android": "https://dc.lft.to/lastmile_qr_scan"}, "fusion_lon": 0.0, "type": "electric_scooter", "bike_id": "c57996dda24215e8a27515428d2d074f", "name": "c57996dda24215e8a27515428d2d074f"}, {"lon": -77.02409083333333, "is_disabled": 0, "lat": 38.91394833333333, "fusion_lat": 0.0, "is_reserved": 0, "rental_uris": {"ios": "https://dc.lft.to/lastmile_qr_scan", "android": "https://dc.lft.to/lastmile_qr_scan"}, "fusion_lon": 0.0, "type": "electric_scooter", "bike_id": "02f9d624c8439ef49e522efa7497fa48", "name": "02f9d624c8439ef49e522efa7497fa48"}, {"lon": -76.9843775, "is_disabled": 0, "lat": 38.9057925, "fusion_lat": 0.0, "is_reserved": 0, "rental_uris": {"ios": "https://dc.lft.to/lastmile_qr_scan", "android": "https://dc.lft.to/lastmile_qr_scan"}, "fusion_lon": 0.0, "type": "electric_scooter", "bike_id": "d6384909c88553af1e917e7e30ee25df", "name": "d6384909c88553af1e917e7e30ee25df"}, {"lon": -77.02496166666667, "is_disabled": 0, "lat": 38.9180675, "fusion_lat": 0.0, "is_reserved": 0, "rental_uris": {"ios": "https://dc.lft.to/lastmile_qr_scan", "android": "https://dc.lft.to/lastmile_qr_scan"}, "fusion_lon": 0.0, "type": "electric_scooter", "bike_id": "325adec6334bdb3ec691cd50ca99cd20", "name": "325adec6334bdb3ec691cd50ca99cd20"}, {"lon": -77.073475, "is_disabled": 0, "lat": 38.92265666666667, "fusion_lat": 0.0, "is_reserved": 0, "rental_uris": {"ios": "https://dc.lft.to/lastmile_qr_scan", "android": "https://dc.lft.to/lastmile_qr_scan"}, "fusion_lon": 0.0, "type": "electric_scooter", "bike_id": "e0ad1f5a4c7fce73de437371ecd7106c", "name": "e0ad1f5a4c7fce73de437371ecd7106c"}, {"lon": -77.01897383333333, "is_disabled": 0, "lat": 38.9092615, "fusion_lat": 0.0, "is_reserved": 0, "rental_uris": {"ios": "https://dc.lft.to/lastmile_qr_scan", "android": "https://dc.lft.to/lastmile_qr_scan"}, "fusion_lon": 0.0, "type": "electric_scooter", "bike_id": "f9bf72ae3db15bc33fc6c5a3377aa41a", "name": "f9bf72ae3db15bc33fc6c5a3377aa41a"}, {"lon": -77.022487, "is_disabled": 0, "lat": 38.893716, "fusion_lat": 0.0, "is_reserved": 0, "rental_uris": {"ios": "https://dc.lft.to/lastmile_qr_scan", "android": "https://dc.lft.to/lastmile_qr_scan"}, "fusion_lon": 0.0, "type": "electric_scooter", "bike_id": "515dd8d589ccf494ca95791d5f57971b", "name": "515dd8d589ccf494ca95791d5f57971b"}, {"lon": -77.01990266666667, "is_disabled": 0, "lat": 38.914254666666665, "fusion_lat": 0.0, "is_reserved": 0, "rental_uris": {"ios": "https://dc.lft.to/lastmile_qr_scan", "android": "https://dc.lft.to/lastmile_qr_scan"}, "fusion_lon": 0.0, "type": "electric_scooter", "bike_id": "7295b317acce7a770bebbb0e8b857e2a", "name": "7295b317acce7a770bebbb0e8b857e2a"}, {"lon": -77.00194433333333, "is_disabled": 0, "lat": 38.902640833333336, "fusion_lat": 0.0, "is_reserved": 0, "rental_uris": {"ios": "https://dc.lft.to/lastmile_qr_scan", "android": "https://dc.lft.to/lastmile_qr_scan"}, "fusion_lon": 0.0, "type": "electric_scooter", "bike_id": "348d97536f04c00e3915fa875b0f53a6", "name": "348d97536f04c00e3915fa875b0f53a6"}, {"lon": -77.0383775, "is_disabled": 0, "lat": 38.912271833333335, "fusion_lat": 0.0, "is_reserved": 0, "rental_uris": {"ios": "https://dc.lft.to/lastmile_qr_scan", "android": "https://dc.lft.to/lastmile_qr_scan"}, "fusion_lon": 0.0, "type": "electric_scooter", "bike_id": "3d8b3a99ef88a7882ae6f4ae026828f9", "name": "3d8b3a99ef88a7882ae6f4ae026828f9"}, {"lon": -77.0294905, "is_disabled": 0, "lat": 38.905023166666666, "fusion_lat": 0.0, "is_reserved": 0, "rental_uris": {"ios": "https://dc.lft.to/lastmile_qr_scan", "android": "https://dc.lft.to/lastmile_qr_scan"}, "fusion_lon": 0.0, "type": "electric_bike", "bike_id": "5408fdf423d2cb15bc6ecc323d3434c4", "name": "5408fdf423d2cb15bc6ecc323d3434c4"}, {"lon": -76.97555516666667, "is_disabled": 0, "lat": 38.924586833333336, "fusion_lat": 0.0, "is_reserved": 0, "rental_uris": {"ios": "https://dc.lft.to/lastmile_qr_scan", "android": "https://dc.lft.to/lastmile_qr_scan"}, "fusion_lon": 0.0, "type": "electric_bike", "bike_id": "531cff9415d579f94e91d8de46dfa549", "name": "531cff9415d579f94e91d8de46dfa549"}, {"lon": -77.02285716666667, "is_disabled": 0, "lat": 38.915716, "fusion_lat": 0.0, "is_reserved": 0, "rental_uris": {"ios": "https://dc.lft.to/lastmile_qr_scan", "android": "https://dc.lft.to/lastmile_qr_scan"}, "fusion_lon": 0.0, "type": "electric_scooter", "bike_id": "b8747a55674981918c8509748ad0dafb", "name": "b8747a55674981918c8509748ad0dafb"}, {"lon": -77.03405383333333, "is_disabled": 0, "lat": 38.90957816666667, "fusion_lat": 0.0, "is_reserved": 0, "rental_uris": {"ios": "https://dc.lft.to/lastmile_qr_scan", "android": "https://dc.lft.to/lastmile_qr_scan"}, "fusion_lon": 0.0, "type": "electric_scooter", "bike_id": "554ba1ef380cdaea33eccc8c5e45ed0a", "name": "554ba1ef380cdaea33eccc8c5e45ed0a"}, {"lon": -77.12736383333333, "is_disabled": 0, "lat": 38.89567133333333, "fusion_lat": 0.0, "is_reserved": 0, "rental_uris": {"ios": "https://dc.lft.to/lastmile_qr_scan", "android": "https://dc.lft.to/lastmile_qr_scan"}, "fusion_lon": 0.0, "type": "electric_bike", "bike_id": "142461056555c94f643e2e137f52c231", "name": "142461056555c94f643e2e137f52c231"}, {"lon": -77.0038145, "is_disabled": 0, "lat": 38.83609416666667, "fusion_lat": 0.0, "is_reserved": 0, "rental_uris": {"ios": "https://dc.lft.to/lastmile_qr_scan", "android": "https://dc.lft.to/lastmile_qr_scan"}, "fusion_lon": 0.0, "type": "electric_bike", "bike_id": "0d99cd65d950f889734363206a9d3e09", "name": "0d99cd65d950f889734363206a9d3e09"}, {"lon": -77.02708683333333, "is_disabled": 0, "lat": 38.906705333333335, "fusion_lat": 0.0, "is_reserved": 0, "rental_uris": {"ios": "https://dc.lft.to/lastmile_qr_scan", "android": "https://dc.lft.to/lastmile_qr_scan"}, "fusion_lon": 0.0, "type": "electric_scooter", "bike_id": "39b061dccd5c2c24de257fedc75a8657", "name": "39b061dccd5c2c24de257fedc75a8657"}, {"lon": -77.012232, "is_disabled": 0, "lat": 38.917582333333335, "fusion_lat": 0.0, "is_reserved": 0, "rental_uris": {"ios": "https://dc.lft.to/lastmile_qr_scan", "android": "https://dc.lft.to/lastmile_qr_scan"}, "fusion_lon": 0.0, "type": "electric_scooter", "bike_id": "6f180ad039a74a8a3a16c777f7910209", "name": "6f180ad039a74a8a3a16c777f7910209"}, {"lon": -77.0597305, "is_disabled": 0, "lat": 38.9010495, "fusion_lat": 0.0, "is_reserved": 0, "rental_uris": {"ios": "https://dc.lft.to/lastmile_qr_scan", "android": "https://dc.lft.to/lastmile_qr_scan"}, "fusion_lon": 0.0, "type": "electric_scooter", "bike_id": "efaddb6fb1082a9f985cfd96458626f8", "name": "efaddb6fb1082a9f985cfd96458626f8"}, {"lon": -77.0411685, "is_disabled": 0, "lat": 38.933611, "fusion_lat": 0.0, "is_reserved": 0, "rental_uris": {"ios": "https://dc.lft.to/lastmile_qr_scan", "android": "https://dc.lft.to/lastmile_qr_scan"}, "fusion_lon": 0.0, "type": "electric_scooter", "bike_id": "8c958d0552793ff4e32637e3ea122954", "name": "8c958d0552793ff4e32637e3ea122954"}, {"lon": -77.00914866666666, "is_disabled": 0, "lat": 38.91339283333333, "fusion_lat": 0.0, "is_reserved": 0, "rental_uris": {"ios": "https://dc.lft.to/lastmile_qr_scan", "android": "https://dc.lft.to/lastmile_qr_scan"}, "fusion_lon": 0.0, "type": "electric_scooter", "bike_id": "802e8612164f51c68fa174799257e25e", "name": "802e8612164f51c68fa174799257e25e"}, {"lon": -77.094549, "is_disabled": 0, "lat": 38.8076095, "fusion_lat": 0.0, "is_reserved": 0, "rental_uris": {"ios": "https://dc.lft.to/lastmile_qr_scan", "android": "https://dc.lft.to/lastmile_qr_scan"}, "fusion_lon": 0.0, "type": "electric_bike", "bike_id": "5f8b90812faf1f8fda47853e46146fe9", "name": "5f8b90812faf1f8fda47853e46146fe9"}, {"lon": -77.06316183333334, "is_disabled": 0, "lat": 38.80035816666667, "fusion_lat": 0.0, "is_reserved": 0, "rental_uris": {"ios": "https://dc.lft.to/lastmile_qr_scan", "android": "https://dc.lft.to/lastmile_qr_scan"}, "fusion_lon": 0.0, "type": "electric_bike", "bike_id": "e59f429431168770c2e2e0eb6ff00c55", "name": "e59f429431168770c2e2e0eb6ff00c55"}, {"lon": -76.985871, "is_disabled": 0, "lat": 38.858705666666665, "fusion_lat": 0.0, "is_reserved": 0, "rental_uris": {"ios": "https://dc.lft.to/lastmile_qr_scan", "android": "https://dc.lft.to/lastmile_qr_scan"}, "fusion_lon": 0.0, "type": "electric_scooter", "bike_id": "32cdc666da1de22f0d1637c928203381", "name": "32cdc666da1de22f0d1637c928203381"}, {"lon": -77.01841566666667, "is_disabled": 0, "lat": 38.928800333333335, "fusion_lat": 0.0, "is_reserved": 0, "rental_uris": {"ios": "https://dc.lft.to/lastmile_qr_scan", "android": "https://dc.lft.to/lastmile_qr_scan"}, "fusion_lon": 0.0, "type": "electric_scooter", "bike_id": "4ac79bbd474644450e5a5068028514a9", "name": "4ac79bbd474644450e5a5068028514a9"}, {"lon": -77.02789433333334, "is_disabled": 0, "lat": 38.9297105, "fusion_lat": 0.0, "is_reserved": 0, "rental_uris": {"ios": "https://dc.lft.to/lastmile_qr_scan", "android": "https://dc.lft.to/lastmile_qr_scan"}, "fusion_lon": 0.0, "type": "electric_scooter", "bike_id": "39f862107dd0531e9092e6bdabbb7fc3", "name": "39f862107dd0531e9092e6bdabbb7fc3"}, {"lon": -77.02756516666666, "is_disabled": 0, "lat": 38.9169405, "fusion_lat": 0.0, "is_reserved": 0, "rental_uris": {"ios": "https://dc.lft.to/lastmile_qr_scan", "android": "https://dc.lft.to/lastmile_qr_scan"}, "fusion_lon": 0.0, "type": "electric_scooter", "bike_id": "116f5df68a32f002d008baf821de0fbc", "name": "116f5df68a32f002d008baf821de0fbc"}, {"lon": -77.0363475, "is_disabled": 0, "lat": 38.931731166666665, "fusion_lat": 0.0, "is_reserved": 0, "rental_uris": {"ios": "https://dc.lft.to/lastmile_qr_scan", "android": "https://dc.lft.to/lastmile_qr_scan"}, "fusion_lon": 0.0, "type": "electric_scooter", "bike_id": "b41d01a2a0266714239654c479ab72b5", "name": "b41d01a2a0266714239654c479ab72b5"}, {"lon": -77.02382833333333, "is_disabled": 0, "lat": 38.9167405, "fusion_lat": 0.0, "is_reserved": 0, "rental_uris": {"ios": "https://dc.lft.to/lastmile_qr_scan", "android": "https://dc.lft.to/lastmile_qr_scan"}, "fusion_lon": 0.0, "type": "electric_scooter", "bike_id": "c8a0c8c1307261237da5ce64eba680a0", "name": "c8a0c8c1307261237da5ce64eba680a0"}, {"lon": -77.00056633333334, "is_disabled": 0, "lat": 38.90031916666667, "fusion_lat": 0.0, "is_reserved": 0, "rental_uris": {"ios": "https://dc.lft.to/lastmile_qr_scan", "android": "https://dc.lft.to/lastmile_qr_scan"}, "fusion_lon": 0.0, "type": "electric_scooter", "bike_id": "2c35c16cd297680481b3bfb779fa6f2c", "name": "2c35c16cd297680481b3bfb779fa6f2c"}, {"lon": -77.02578316666667, "is_disabled": 0, "lat": 38.8982915, "fusion_lat": 0.0, "is_reserved": 0, "rental_uris": {"ios": "https://dc.lft.to/lastmile_qr_scan", "android": "https://dc.lft.to/lastmile_qr_scan"}, "fusion_lon": 0.0, "type": "electric_scooter", "bike_id": "7dab4635d9532532dd098b1aeabcee70", "name": "7dab4635d9532532dd098b1aeabcee70"}, {"lon": -77.038712, "is_disabled": 0, "lat": 38.93449433333333, "fusion_lat": 0.0, "is_reserved": 0, "rental_uris": {"ios": "https://dc.lft.to/lastmile_qr_scan", "android": "https://dc.lft.to/lastmile_qr_scan"}, "fusion_lon": 0.0, "type": "electric_scooter", "bike_id": "d41c255afd13b70f228680f030ed2db1", "name": "d41c255afd13b70f228680f030ed2db1"}, {"lon": -76.985736, "is_disabled": 0, "lat": 38.866813666666665, "fusion_lat": 0.0, "is_reserved": 0, "rental_uris": {"ios": "https://dc.lft.to/lastmile_qr_scan", "android": "https://dc.lft.to/lastmile_qr_scan"}, "fusion_lon": 0.0, "type": "electric_scooter", "bike_id": "021f25741d2ecef49b490be33a652942", "name": "021f25741d2ecef49b490be33a652942"}, {"lon": -77.03846716666666, "is_disabled": 0, "lat": 38.913517166666665, "fusion_lat": 0.0, "is_reserved": 0, "rental_uris": {"ios": "https://dc.lft.to/lastmile_qr_scan", "android": "https://dc.lft.to/lastmile_qr_scan"}, "fusion_lon": 0.0, "type": "electric_scooter", "bike_id": "5ecd31a7262957694bd49131e432a653", "name": "5ecd31a7262957694bd49131e432a653"}, {"lon": -77.000461, "is_disabled": 0, "lat": 38.8738135, "fusion_lat": 0.0, "is_reserved": 0, "rental_uris": {"ios": "https://dc.lft.to/lastmile_qr_scan", "android": "https://dc.lft.to/lastmile_qr_scan"}, "fusion_lon": 0.0, "type": "electric_scooter", "bike_id": "a2c0a28fd5219da231a270f4993c9e6d", "name": "a2c0a28fd5219da231a270f4993c9e6d"}, {"lon": -77.0383905, "is_disabled": 0, "lat": 38.92171733333333, "fusion_lat": 0.0, "is_reserved": 0, "rental_uris": {"ios": "https://dc.lft.to/lastmile_qr_scan", "android": "https://dc.lft.to/lastmile_qr_scan"}, "fusion_lon": 0.0, "type": "electric_scooter", "bike_id": "85e8a348ccd2cea45addd607f6895199", "name": "85e8a348ccd2cea45addd607f6895199"}, {"lon": -77.02707966666667, "is_disabled": 0, "lat": 38.90669883333333, "fusion_lat": 0.0, "is_reserved": 0, "rental_uris": {"ios": "https://dc.lft.to/lastmile_qr_scan", "android": "https://dc.lft.to/lastmile_qr_scan"}, "fusion_lon": 0.0, "type": "electric_scooter", "bike_id": "71dba6edd02c05c27715ce689ca30593", "name": "71dba6edd02c05c27715ce689ca30593"}, {"lon": -77.033348, "is_disabled": 0, "lat": 38.923561166666666, "fusion_lat": 0.0, "is_reserved": 0, "rental_uris": {"ios": "https://dc.lft.to/lastmile_qr_scan", "android": "https://dc.lft.to/lastmile_qr_scan"}, "fusion_lon": 0.0, "type": "electric_scooter", "bike_id": "2691335e54683cd92f500c699e006d45", "name": "2691335e54683cd92f500c699e006d45"}, {"lon": -77.02387016666667, "is_disabled": 0, "lat": 38.919904, "fusion_lat": 0.0, "is_reserved": 0, "rental_uris": {"ios": "https://dc.lft.to/lastmile_qr_scan", "android": "https://dc.lft.to/lastmile_qr_scan"}, "fusion_lon": 0.0, "type": "electric_scooter", "bike_id": "f587fe0baa4dd26224ffa0cf54402a4d", "name": "f587fe0baa4dd26224ffa0cf54402a4d"}, {"lon": -77.050418, "is_disabled": 0, "lat": 38.92407733333334, "fusion_lat": 0.0, "is_reserved": 0, "rental_uris": {"ios": "https://dc.lft.to/lastmile_qr_scan", "android": "https://dc.lft.to/lastmile_qr_scan"}, "fusion_lon": 0.0, "type": "electric_bike", "bike_id": "2e2904416c7ceb693f4ab6ef17643421", "name": "2e2904416c7ceb693f4ab6ef17643421"}, {"lon": -77.02079116666667, "is_disabled": 0, "lat": 38.88184716666667, "fusion_lat": 0.0, "is_reserved": 0, "rental_uris": {"ios": "https://dc.lft.to/lastmile_qr_scan", "android": "https://dc.lft.to/lastmile_qr_scan"}, "fusion_lon": 0.0, "type": "electric_scooter", "bike_id": "0562120fe5fd4db495446007d3fe4d1e", "name": "0562120fe5fd4db495446007d3fe4d1e"}, {"lon": -77.029917, "is_disabled": 0, "lat": 38.897422, "fusion_lat": 0.0, "is_reserved": 0, "rental_uris": {"ios": "https://dc.lft.to/lastmile_qr_scan", "android": "https://dc.lft.to/lastmile_qr_scan"}, "fusion_lon": 0.0, "type": "electric_scooter", "bike_id": "8212663a25384e5d2bc6678ee152e0c0", "name": "8212663a25384e5d2bc6678ee152e0c0"}, {"lon": -77.00565266666666, "is_disabled": 0, "lat": 38.9060265, "fusion_lat": 0.0, "is_reserved": 0, "rental_uris": {"ios": "https://dc.lft.to/lastmile_qr_scan", "android": "https://dc.lft.to/lastmile_qr_scan"}, "fusion_lon": 0.0, "type": "electric_scooter", "bike_id": "4a5ab8920bf70904ae25ebd61216e093", "name": "4a5ab8920bf70904ae25ebd61216e093"}, {"lon": -77.0335775, "is_disabled": 0, "lat": 38.920519, "fusion_lat": 0.0, "is_reserved": 0, "rental_uris": {"ios": "https://dc.lft.to/lastmile_qr_scan", "android": "https://dc.lft.to/lastmile_qr_scan"}, "fusion_lon": 0.0, "type": "electric_scooter", "bike_id": "e9acaff42d2a3639cc02050495a51938", "name": "e9acaff42d2a3639cc02050495a51938"}, {"lon": -76.92655283333333, "is_disabled": 0, "lat": 38.90172316666666, "fusion_lat": 0.0, "is_reserved": 0, "rental_uris": {"ios": "https://dc.lft.to/lastmile_qr_scan", "android": "https://dc.lft.to/lastmile_qr_scan"}, "fusion_lon": 0.0, "type": "electric_scooter", "bike_id": "11a290eb917948f1e510cd011034a9ff", "name": "11a290eb917948f1e510cd011034a9ff"}, {"lon": -77.05086783333333, "is_disabled": 0, "lat": 38.923404166666664, "fusion_lat": 0.0, "is_reserved": 0, "rental_uris": {"ios": "https://dc.lft.to/lastmile_qr_scan", "android": "https://dc.lft.to/lastmile_qr_scan"}, "fusion_lon": 0.0, "type": "electric_scooter", "bike_id": "e0e6ab3e48e60e4aeca703bb54492126", "name": "e0e6ab3e48e60e4aeca703bb54492126"}, {"lon": -77.01975416666667, "is_disabled": 0, "lat": 38.915311333333335, "fusion_lat": 0.0, "is_reserved": 0, "rental_uris": {"ios": "https://dc.lft.to/lastmile_qr_scan", "android": "https://dc.lft.to/lastmile_qr_scan"}, "fusion_lon": 0.0, "type": "electric_scooter", "bike_id": "2494bb9bb374b892f85a1ad8cde64d1c", "name": "2494bb9bb374b892f85a1ad8cde64d1c"}, {"lon": -77.00096766666667, "is_disabled": 0, "lat": 38.907559666666664, "fusion_lat": 0.0, "is_reserved": 0, "rental_uris": {"ios": "https://dc.lft.to/lastmile_qr_scan", "android": "https://dc.lft.to/lastmile_qr_scan"}, "fusion_lon": 0.0, "type": "electric_scooter", "bike_id": "ab3fc21c8e4cf0e4d4ec7ab4ec1a7826", "name": "ab3fc21c8e4cf0e4d4ec7ab4ec1a7826"}, {"lon": -77.02954, "is_disabled": 0, "lat": 38.902377666666666, "fusion_lat": 0.0, "is_reserved": 0, "rental_uris": {"ios": "https://dc.lft.to/lastmile_qr_scan", "android": "https://dc.lft.to/lastmile_qr_scan"}, "fusion_lon": 0.0, "type": "electric_scooter", "bike_id": "c655cc523abbe310d9d83f31e13e5c01", "name": "c655cc523abbe310d9d83f31e13e5c01"}, {"lon": -77.04716833333333, "is_disabled": 0, "lat": 38.913333, "fusion_lat": 0.0, "is_reserved": 0, "rental_uris": {"ios": "https://dc.lft.to/lastmile_qr_scan", "android": "https://dc.lft.to/lastmile_qr_scan"}, "fusion_lon": 0.0, "type": "electric_scooter", "bike_id": "9dcc0f216113d0df5080db7b2fcb2730", "name": "9dcc0f216113d0df5080db7b2fcb2730"}, {"lon": -77.02120783333334, "is_disabled": 0, "lat": 38.9300325, "fusion_lat": 0.0, "is_reserved": 0, "rental_uris": {"ios": "https://dc.lft.to/lastmile_qr_scan", "android": "https://dc.lft.to/lastmile_qr_scan"},