{"data": {"bikes": [{"type": "electric_scooter", "name": "a078da74a9fec3324c0607189e867b42", "is_reserved": 0, "fusion_lat": 0.0, "lon": -77.02275333333333, "is_disabled": 0, "rental_uris": {"android": "https://dc.lft.to/lastmile_qr_scan", "ios": "https://dc.lft.to/lastmile_qr_scan"}, "bike_id": "a078da74a9fec3324c0607189e867b42", "fusion_lon": 0.0, "lat": 38.90225566666667}, {"type": "electric_scooter", "name": "751af106941e71cc771ab2dd8ba973e1", "is_reserved": 0, "fusion_lat": 0.0, "lon": -77.03224533333334, "is_disabled": 0, "rental_uris": {"android": "https://dc.lft.to/lastmile_qr_scan", "ios": "https://dc.lft.to/lastmile_qr_scan"}, "bike_id": "751af106941e71cc771ab2dd8ba973e1", "fusion_lon": 0.0, "lat": 38.91632933333333}, {"type": "electric_scooter", "name": "f8ef633cc922d9cece56ad9224b3d99e", "is_reserved": 0, "fusion_lat": 0.0, "lon": -77.04621666666667, "is_disabled": 0, "rental_uris": {"android": "https://dc.lft.to/lastmile_qr_scan", "ios": "https://dc.lft.to/lastmile_qr_scan"}, "bike_id": "f8ef633cc922d9cece56ad9224b3d99e", "fusion_lon": 0.0, "lat": 38.92319966666667}, {"type": "electric_scooter", "name": "22ec4397cdf2a8e9f0464452583dedd8", "is_reserved": 0, "fusion_lat": 0.0, "lon": -77.04161883333333, "is_disabled": 0, "rental_uris": {"android": "https://dc.lft.to/lastmile_qr_scan", "ios": "https://dc.lft.to/lastmile_qr_scan"}, "bike_id": "22ec4397cdf2a8e9f0464452583dedd8", "fusion_lon": 0.0, "lat": 38.9059195}, {"type": "electric_scooter", "name": "54740a6f41647a92e5a87ce315cd1f4a", "is_reserved": 0, "fusion_lat": 0.0, "lon": -77.029064, "is_disabled": 0, "rental_uris": {"android": "https://dc.lft.to/lastmile_qr_scan", "ios": "https://dc.lft.to/lastmile_qr_scan"}, "bike_id": "54740a6f41647a92e5a87ce315cd1f4a", "fusion_lon": 0.0, "lat": 38.9169825}, {"type": "electric_scooter", "name": "1e0893004f8fa6d7d90da3f4139f0f4c", "is_reserved": 0, "fusion_lat": 0.0, "lon": -77.04434633333334, "is_disabled": 0, "rental_uris": {"android": "https://dc.lft.to/lastmile_qr_scan", "ios": "https://dc.lft.to/lastmile_qr_scan"}, "bike_id": "1e0893004f8fa6d7d90da3f4139f0f4c", "fusion_lon": 0.0, "lat": 38.921219666666666}, {"type": "electric_scooter", "name": "e9e69977c5936c4e348d7e021098d97c", "is_reserved": 0, "fusion_lat": 0.0, "lon": -77.04872916666666, "is_disabled": 0, "rental_uris": {"android": "https://dc.lft.to/lastmile_qr_scan", "ios": "https://dc.lft.to/lastmile_qr_scan"}, "bike_id": "e9e69977c5936c4e348d7e021098d97c", "fusion_lon": 0.0, "lat": 38.892734833333336}, {"type": "electric_scooter", "name": "c6534b153929b66f694688246f76105d", "is_reserved": 0, "fusion_lat": 0.0, "lon": -77.029579, "is_disabled": 0, "rental_uris": {"android": "https://dc.lft.to/lastmile_qr_scan", "ios": "https://dc.lft.to/lastmile_qr_scan"}, "bike_id": "c6534b153929b66f694688246f76105d", "fusion_lon": 0.0, "lat": 38.897407666666666}, {"type": "electric_bike", "name": "cdb22dbfac5856789788e3b8c6836a13", "is_reserved": 0, "fusion_lat": 0.0, "lon": -77.11569366666667, "is_disabled": 0, "rental_uris": {"android": "https://dc.lft.to/lastmile_qr_scan", "ios": "https://dc.lft.to/lastmile_qr_scan"}, "bike_id": "cdb22dbfac5856789788e3b8c6836a13", "fusion_lon": 0.0, "lat": 38.993336}, {"type": "electric_scooter", "name": "703a153764028f8e07495b83102169ff", "is_reserved": 0, "fusion_lat": 0.0, "lon": -77.049295, "is_disabled": 0, "rental_uris": {"android": "https://dc.lft.to/lastmile_qr_scan", "ios": "https://dc.lft.to/lastmile_qr_scan"}, "bike_id": "703a153764028f8e07495b83102169ff", "fusion_lon": 0.0, "lat": 38.909987666666666}, {"type": "electric_scooter", "name": "d199db3bcd8a67915dc8b78f7f5b352e", "is_reserved": 0, "fusion_lat": 0.0, "lon": -77.026935, "is_disabled": 0, "rental_uris": {"android": "https://dc.lft.to/lastmile_qr_scan", "ios": "https://dc.lft.to/lastmile_qr_scan"}, "bike_id": "d199db3bcd8a67915dc8b78f7f5b352e", "fusion_lon": 0.0, "lat": 38.91817783333333}, {"type": "electric_scooter", "name": "ff8a3bb960a5c146ca789d1151953c73", "is_reserved": 0, "fusion_lat": 0.0, "lon": -77.016915, "is_disabled": 0, "rental_uris": {"android": "https://dc.lft.to/lastmile_qr_scan", "ios": "https://dc.lft.to/lastmile_qr_scan"}, "bike_id": "ff8a3bb960a5c146ca789d1151953c73", "fusion_lon": 0.0, "lat": 38.975001166666665}, {"type": "electric_scooter", "name": "07ab2e9da0b622329a9804275958ebe8", "is_reserved": 0, "fusion_lat": 0.0, "lon": -76.98874983333333, "is_disabled": 0, "rental_uris": {"android": "https://dc.lft.to/lastmile_qr_scan", "ios": "https://dc.lft.to/lastmile_qr_scan"}, "bike_id": "07ab2e9da0b622329a9804275958ebe8", "fusion_lon": 0.0, "lat": 38.8664915}, {"type": "electric_scooter", "name": "3d506d44cbc7f0411139be9eb2b9062a", "is_reserved": 0, "fusion_lat": 0.0, "lon": -77.01289816666667, "is_disabled": 0, "rental_uris": {"android": "https://dc.lft.to/lastmile_qr_scan", "ios": "https://dc.lft.to/lastmile_qr_scan"}, "bike_id": "3d506d44cbc7f0411139be9eb2b9062a", "fusion_lon": 0.0, "lat": 38.89472966666666}, {"type": "electric_scooter", "name": "65e0be4c8581efd595ce18b8cb8b6a11", "is_reserved": 0, "fusion_lat": 0.0, "lon": -77.01964633333333, "is_disabled": 0, "rental_uris": {"android": "https://dc.lft.to/lastmile_qr_scan", "ios": "https://dc.lft.to/lastmile_qr_scan"}, "bike_id": "65e0be4c8581efd595ce18b8cb8b6a11", "fusion_lon": 0.0, "lat": 38.95656316666667}, {"type": "electric_scooter", "name": "ac25142efdc106ae56bd26ad8ee33932", "is_reserved": 0, "fusion_lat": 0.0, "lon": -77.02951833333333, "is_disabled": 0, "rental_uris": {"android": "https://dc.lft.to/lastmile_qr_scan", "ios": "https://dc.lft.to/lastmile_qr_scan"}, "bike_id": "ac25142efdc106ae56bd26ad8ee33932", "fusion_lon": 0.0, "lat": 38.897407333333334}, {"type": "electric_scooter", "name": "920ca67490785c4d01c91a848508f813", "is_reserved": 0, "fusion_lat": 0.0, "lon": -77.02400033333333, "is_disabled": 0, "rental_uris": {"android": "https://dc.lft.to/lastmile_qr_scan", "ios": "https://dc.lft.to/lastmile_qr_scan"}, "bike_id": "920ca67490785c4d01c91a848508f813", "fusion_lon": 0.0, "lat": 38.91997683333334}, {"type": "electric_scooter", "name": "b13257abb9228edcbadf2205d3a19107", "is_reserved": 0, "fusion_lat": 0.0, "lon": -77.02332683333333, "is_disabled": 0, "rental_uris": {"android": "https://dc.lft.to/lastmile_qr_scan", "ios": "https://dc.lft.to/lastmile_qr_scan"}, "bike_id": "b13257abb9228edcbadf2205d3a19107", "fusion_lon": 0.0, "lat": 38.924783833333336}, {"type": "electric_scooter", "name": "470d474969d55a1eb0aeff65abb401c5", "is_reserved": 0, "fusion_lat": 0.0, "lon": -77.04041566666666, "is_disabled": 0, "rental_uris": {"android": "https://dc.lft.to/lastmile_qr_scan", "ios": "https://dc.lft.to/lastmile_qr_scan"}, "bike_id": "470d474969d55a1eb0aeff65abb401c5", "fusion_lon": 0.0, "lat": 38.918626333333336}, {"type": "electric_scooter", "name": "df441b4152d1538480fa77c87e1947e3", "is_reserved": 0, "fusion_lat": 0.0, "lon": -77.0271735, "is_disabled": 0, "rental_uris": {"android": "https://dc.lft.to/lastmile_qr_scan", "ios": "https://dc.lft.to/lastmile_qr_scan"}, "bike_id": "df441b4152d1538480fa77c87e1947e3", "fusion_lon": 0.0, "lat": 38.9181835}, {"type": "electric_scooter", "name": "4d7c654db594e6ebf05406c19c684252", "is_reserved": 0, "fusion_lat": 0.0, "lon": -76.974238, "is_disabled": 0, "rental_uris": {"android": "https://dc.lft.to/lastmile_qr_scan", "ios": "https://dc.lft.to/lastmile_qr_scan"}, "bike_id": "4d7c654db594e6ebf05406c19c684252", "fusion_lon": 0.0, "lat": 38.904485333333334}, {"type": "electric_scooter", "name": "63522891c9ce02d6cca3884866523980", "is_reserved": 0, "fusion_lat": 0.0, "lon": -77.0283235, "is_disabled": 0, "rental_uris": {"android": "https://dc.lft.to/lastmile_qr_scan", "ios": "https://dc.lft.to/lastmile_qr_scan"}, "bike_id": "63522891c9ce02d6cca3884866523980", "fusion_lon": 0.0, "lat": 39.037380666666664}, {"type": "electric_scooter", "name": "146ac65e6bc4376585d809651e890fe8", "is_reserved": 0, "fusion_lat": 0.0, "lon": -76.97480433333334, "is_disabled": 0, "rental_uris": {"android": "https://dc.lft.to/lastmile_qr_scan", "ios": "https://dc.lft.to/lastmile_qr_scan"}, "bike_id": "146ac65e6bc4376585d809651e890fe8", "fusion_lon": 0.0, "lat": 38.90349833333333}, {"type": "electric_scooter", "name": "88be6169430b51b07a5eac5a8cc21af1", "is_reserved": 0, "fusion_lat": 0.0, "lon": -77.02694016666666, "is_disabled": 0, "rental_uris": {"android": "https://dc.lft.to/lastmile_qr_scan", "ios": "https://dc.lft.to/lastmile_qr_scan"}, "bike_id": "88be6169430b51b07a5eac5a8cc21af1", "fusion_lon": 0.0, "lat": 38.908705}, {"type": "electric_bike", "name": "52cbaf0949311eb51712e5cd58a1f777", "is_reserved": 0, "fusion_lat": 0.0, "lon": -77.09480366666666, "is_disabled": 0, "rental_uris": {"android": "https://dc.lft.to/lastmile_qr_scan", "ios": "https://dc.lft.to/lastmile_qr_scan"}, "bike_id": "52cbaf0949311eb51712e5cd58a1f777", "fusion_lon": 0.0, "lat": 39.03051933333333}, {"type": "electric_scooter", "name": "ca7968402f0e698a4865a1552f6def74", "is_reserved": 0, "fusion_lat": 0.0, "lon": -77.00684283333334, "is_disabled": 0, "rental_uris": {"android": "https://dc.lft.to/lastmile_qr_scan", "ios": "https://dc.lft.to/lastmile_qr_scan"}, "bike_id": "ca7968402f0e698a4865a1552f6def74", "fusion_lon": 0.0, "lat": 38.90019983333333}, {"type": "electric_scooter", "name": "e2b06d2056359d70bf8fdccce49bc5b1", "is_reserved": 0, "fusion_lat": 0.0, "lon": -77.0451325, "is_disabled": 0, "rental_uris": {"android": "https://dc.lft.to/lastmile_qr_scan", "ios": "https://dc.lft.to/lastmile_qr_scan"}, "bike_id": "e2b06d2056359d70bf8fdccce49bc5b1", "fusion_lon": 0.0, "lat": 38.9037285}, {"type": "electric_scooter", "name": "2bc8a3469ca1bb26af7532fdb3aa26ba", "is_reserved": 0, "fusion_lat": 0.0, "lon": -77.05813616666667, "is_disabled": 0, "rental_uris": {"android": "https://dc.lft.to/lastmile_qr_scan", "ios": "https://dc.lft.to/lastmile_qr_scan"}, "bike_id": "2bc8a3469ca1bb26af7532fdb3aa26ba", "fusion_lon": 0.0, "lat": 38.935118}, {"type": "electric_scooter", "name": "6a269b1d8c66a3998cb17d097745283b", "is_reserved": 0, "fusion_lat": 0.0, "lon": -76.98672583333334, "is_disabled": 0, "rental_uris": {"android": "https://dc.lft.to/lastmile_qr_scan", "ios": "https://dc.lft.to/lastmile_qr_scan"}, "bike_id": "6a269b1d8c66a3998cb17d097745283b", "fusion_lon": 0.0, "lat": 38.90975483333333}, {"type": "electric_scooter", "name": "193652d6bbb5bc325a09559cd2e2a05b", "is_reserved": 0, "fusion_lat": 0.0, "lon": -77.02494066666667, "is_disabled": 0, "rental_uris": {"android": "https://dc.lft.to/lastmile_qr_scan", "ios": "https://dc.lft.to/lastmile_qr_scan"}, "bike_id": "193652d6bbb5bc325a09559cd2e2a05b", "fusion_lon": 0.0, "lat": 38.9180835}, {"type": "electric_scooter", "name": "addef90d164587c15e76656b40f74a92", "is_reserved": 0, "fusion_lat": 0.0, "lon": -77.00970516666666, "is_disabled": 0, "rental_uris": {"android": "https://dc.lft.to/lastmile_qr_scan", "ios": "https://dc.lft.to/lastmile_qr_scan"}, "bike_id": "addef90d164587c15e76656b40f74a92", "fusion_lon": 0.0, "lat": 38.9141815}, {"type": "electric_scooter", "name": "f9778fece23f8237792056172edc40b3", "is_reserved": 0, "fusion_lat": 0.0, "lon": -77.03643433333333, "is_disabled": 0, "rental_uris": {"android": "https://dc.lft.to/lastmile_qr_scan", "ios": "https://dc.lft.to/lastmile_qr_scan"}, "bike_id": "f9778fece23f8237792056172edc40b3", "fusion_lon": 0.0, "lat": 38.90284666666667}, {"type": "electric_scooter", "name": "78ea4b4b3d5bc259f66b50aaccac298a", "is_reserved": 0, "fusion_lat": 0.0, "lon": -76.93751133333333, "is_disabled": 0, "rental_uris": {"android": "https://dc.lft.to/lastmile_qr_scan", "ios": "https://dc.lft.to/lastmile_qr_scan"}, "bike_id": "78ea4b4b3d5bc259f66b50aaccac298a", "fusion_lon": 0.0, "lat": 38.890467666666666}, {"type": "electric_scooter", "name": "6a24bf7107a3e6e4905227795843a61b", "is_reserved": 0, "fusion_lat": 0.0, "lon": -77.02689683333334, "is_disabled": 0, "rental_uris": {"android": "https://dc.lft.to/lastmile_qr_scan", "ios": "https://dc.lft.to/lastmile_qr_scan"}, "bike_id": "6a24bf7107a3e6e4905227795843a61b", "fusion_lon": 0.0, "lat": 38.90669233333333}, {"type": "electric_scooter", "name": "7942d01d4bf3f09088e3db6e1fdb1c40", "is_reserved": 0, "fusion_lat": 0.0, "lon": -77.070751, "is_disabled": 0, "rental_uris": {"android": "https://dc.lft.to/lastmile_qr_scan", "ios": "https://dc.lft.to/lastmile_qr_scan"}, "bike_id": "7942d01d4bf3f09088e3db6e1fdb1c40", "fusion_lon": 0.0, "lat": 38.93169483333333}, {"type": "electric_scooter", "name": "9b76d5be83c8aafb55476857a318137c", "is_reserved": 0, "fusion_lat": 0.0, "lon": -77.01795916666667, "is_disabled": 0, "rental_uris": {"android": "https://dc.lft.to/lastmile_qr_scan", "ios": "https://dc.lft.to/lastmile_qr_scan"}, "bike_id": "9b76d5be83c8aafb55476857a318137c", "fusion_lon": 0.0, "lat": 38.902555}, {"type": "electric_scooter", "name": "8f1c2dec29f6d4ebb65a1203c2726607", "is_reserved": 0, "fusion_lat": 0.0, "lon": -77.00919083333334, "is_disabled": 0, "rental_uris": {"android": "https://dc.lft.to/lastmile_qr_scan", "ios": "https://dc.lft.to/lastmile_qr_scan"}, "bike_id": "8f1c2dec29f6d4ebb65a1203c2726607", "fusion_lon": 0.0, "lat": 38.827862}, {"type": "electric_scooter", "name": "97859772aded799c7d9c5fa18d444395", "is_reserved": 0, "fusion_lat": 0.0, "lon": -77.0558685, "is_disabled": 0, "rental_uris": {"android": "https://dc.lft.to/lastmile_qr_scan", "ios": "https://dc.lft.to/lastmile_qr_scan"}, "bike_id": "97859772aded799c7d9c5fa18d444395", "fusion_lon": 0.0, "lat": 38.93617666666667}, {"type": "electric_scooter", "name": "546434e54c483f29b051f921ff2e06d0", "is_reserved": 0, "fusion_lat": 0.0, "lon": -77.01709683333333, "is_disabled": 0, "rental_uris": {"android": "https://dc.lft.to/lastmile_qr_scan", "ios": "https://dc.lft.to/lastmile_qr_scan"}, "bike_id": "546434e54c483f29b051f921ff2e06d0", "fusion_lon": 0.0, "lat": 38.91486616666667}, {"type": "electric_scooter", "name": "88e250c17f994c5e3cba3bf1c2d5ff2d", "is_reserved": 0, "fusion_lat": 0.0, "lon": -77.04483216666667, "is_disabled": 0, "rental_uris": {"android": "https://dc.lft.to/lastmile_qr_scan", "ios": "https://dc.lft.to/lastmile_qr_scan"}, "bike_id": "88e250c17f994c5e3cba3bf1c2d5ff2d", "fusion_lon": 0.0, "lat": 38.9240455}, {"type": "electric_scooter", "name": "db7e2be7b2266da9d784dc869ae401aa", "is_reserved": 0, "fusion_lat": 0.0, "lon": -77.03526066666667, "is_disabled": 0, "rental_uris": {"android": "https://dc.lft.to/lastmile_qr_scan", "ios": "https://dc.lft.to/lastmile_qr_scan"}, "bike_id": "db7e2be7b2266da9d784dc869ae401aa", "fusion_lon": 0.0, "lat": 38.923147666666665}, {"type": "electric_scooter", "name": "644c55e75b58ccfbb559be6bfebd49f7", "is_reserved": 0, "fusion_lat": 0.0, "lon": -77.00154883333333, "is_disabled": 0, "rental_uris": {"android": "https://dc.lft.to/lastmile_qr_scan", "ios": "https://dc.lft.to/lastmile_qr_scan"}, "bike_id": "644c55e75b58ccfbb559be6bfebd49f7", "fusion_lon": 0.0, "lat": 38.87640566666666}, {"type": "electric_scooter", "name": "0e71d8f5cbddc0a931b84803aab4af79", "is_reserved": 0, "fusion_lat": 0.0, "lon": -77.00588516666667, "is_disabled": 0, "rental_uris": {"android": "https://dc.lft.to/lastmile_qr_scan", "ios": "https://dc.lft.to/lastmile_qr_scan"}, "bike_id": "0e71d8f5cbddc0a931b84803aab4af79", "fusion_lon": 0.0, "lat": 38.90642166666667}, {"type": "electric_scooter", "name": "ac7b192ee27a14a6a50e7ad9cca68c59", "is_reserved": 0, "fusion_lat": 0.0, "lon": -77.00343733333334, "is_disabled": 0, "rental_uris": {"android": "https://dc.lft.to/lastmile_qr_scan", "ios": "https://dc.lft.to/lastmile_qr_scan"}, "bike_id": "ac7b192ee27a14a6a50e7ad9cca68c59", "fusion_lon": 0.0, "lat": 38.880474}, {"type": "electric_scooter", "name": "99fadff919fff53367bfcab6ad318fae", "is_reserved": 0, "fusion_lat": 0.0, "lon": -77.04866716666666, "is_disabled": 0, "rental_uris": {"android": "https://dc.lft.to/lastmile_qr_scan", "ios": "https://dc.lft.to/lastmile_qr_scan"}, "bike_id": "99fadff919fff53367bfcab6ad318fae", "fusion_lon": 0.0, "lat": 38.90381933333333}, {"type": "electric_scooter", "name": "f2409a939ad10910ef1dd9b018ab4078", "is_reserved": 0, "fusion_lat": 0.0, "lon": -77.05122783333333, "is_disabled": 0, "rental_uris": {"android": "https://dc.lft.to/lastmile_qr_scan", "ios": "https://dc.lft.to/lastmile_qr_scan"}, "bike_id": "f2409a939ad10910ef1dd9b018ab4078", "fusion_lon": 0.0, "lat": 38.923455}, {"type": "electric_scooter", "name": "d924271c8ac65c25f85dc69d12fe9b7d", "is_reserved": 0, "fusion_lat": 0.0, "lon": -76.9934685, "is_disabled": 0, "rental_uris": {"android": "https://dc.lft.to/lastmile_qr_scan", "ios": "https://dc.lft.to/lastmile_qr_scan"}, "bike_id": "d924271c8ac65c25f85dc69d12fe9b7d", "fusion_lon": 0.0, "lat": 38.91483683333333}, {"type": "electric_scooter", "name": "5487cf9e0e19e887f79f178357834b97", "is_reserved": 0, "fusion_lat": 0.0, "lon": -77.04338083333333, "is_disabled": 0, "rental_uris": {"android": "https://dc.lft.to/lastmile_qr_scan", "ios": "https://dc.lft.to/lastmile_qr_scan"}, "bike_id": "5487cf9e0e19e887f79f178357834b97", "fusion_lon": 0.0, "lat": 38.92229716666667}, {"type": "electric_scooter", "name": "1322afe7fe211ec8b6c9813aa69ddd49", "is_reserved": 0, "fusion_lat": 0.0, "lon": -76.98603366666667, "is_disabled": 0, "rental_uris": {"android": "https://dc.lft.to/lastmile_qr_scan", "ios": "https://dc.lft.to/lastmile_qr_scan"}, "bike_id": "1322afe7fe211ec8b6c9813aa69ddd49", "fusion_lon": 0.0, "lat": 38.908586666666665}, {"type": "electric_scooter", "name": "b6cc21d2e22f8ae4bcedc60975a8bc2a", "is_reserved": 0, "fusion_lat": 0.0, "lon": -77.03207133333333, "is_disabled": 0, "rental_uris": {"android": "https://dc.lft.to/lastmile_qr_scan", "ios": "https://dc.lft.to/lastmile_qr_scan"}, "bike_id": "b6cc21d2e22f8ae4bcedc60975a8bc2a", "fusion_lon": 0.0, "lat": 38.895871}, {"type": "electric_scooter", "name": "0c1ab0f844ead4e16dbdce0094d99edc", "is_reserved": 0, "fusion_lat": 0.0, "lon": -77.05255366666667, "is_disabled": 0, "rental_uris": {"android": "https://dc.lft.to/lastmile_qr_scan", "ios": "https://dc.lft.to/lastmile_qr_scan"}, "bike_id": "0c1ab0f844ead4e16dbdce0094d99edc", "fusion_lon": 0.0, "lat": 38.92376616666667}, {"type": "electric_scooter", "name": "0193ac515a8756de04e0f1bffd25f7b4", "is_reserved": 0, "fusion_lat": 0.0, "lon": -76.9950405, "is_disabled": 0, "rental_uris": {"android": "https://dc.lft.to/lastmile_qr_scan", "ios": "https://dc.lft.to/lastmile_qr_scan"}, "bike_id": "0193ac515a8756de04e0f1bffd25f7b4", "fusion_lon": 0.0, "lat": 38.909807}, {"type": "electric_scooter", "name": "a6036147fc28f9c576ba8f8a2b239476", "is_reserved": 0, "fusion_lat": 0.0, "lon": -77.007444, "is_disabled": 0, "rental_uris": {"android": "https://dc.lft.to/lastmile_qr_scan", "ios": "https://dc.lft.to/lastmile_qr_scan"}, "bike_id": "a6036147fc28f9c576ba8f8a2b239476", "fusion_lon": 0.0, "lat": 38.898317166666665}, {"type": "electric_scooter", "name": "aef572327c85876d7cb35800d44f83e3", "is_reserved": 0, "fusion_lat": 0.0, "lon": -77.03100483333333, "is_disabled": 0, "rental_uris": {"android": "https://dc.lft.to/lastmile_qr_scan", "ios": "https://dc.lft.to/lastmile_qr_scan"}, "bike_id": "aef572327c85876d7cb35800d44f83e3", "fusion_lon": 0.0, "lat": 38.9041685}, {"type": "electric_scooter", "name": "9423148c48ea52cc8814a096ad546d0d", "is_reserved": 0, "fusion_lat": 0.0, "lon": -77.01599283333333, "is_disabled": 0, "rental_uris": {"android": "https://dc.lft.to/lastmile_qr_scan", "ios": "https://dc.lft.to/lastmile_qr_scan"}, "bike_id": "9423148c48ea52cc8814a096ad546d0d", "fusion_lon": 0.0, "lat": 38.949425}, {"type": "electric_bike", "name": "9f4b5cd1884905f6a0cfcca62fd2935b", "is_reserved": 0, "fusion_lat": 0.0, "lon": -76.981037, "is_disabled": 0, "rental_uris": {"android": "https://dc.lft.to/lastmile_qr_scan", "ios": "https://dc.lft.to/lastmile_qr_scan"}, "bike_id": "9f4b5cd1884905f6a0cfcca62fd2935b", "fusion_lon": 0.0, "lat": 38.87732233333333}, {"type": "electric_scooter", "name": "a31967b6c3da64727d1e3d7c4bd8c44b", "is_reserved": 0, "fusion_lat": 0.0, "lon": -77.0370665, "is_disabled": 0, "rental_uris": {"android": "https://dc.lft.to/lastmile_qr_scan", "ios": "https://dc.lft.to/lastmile_qr_scan"}, "bike_id": "a31967b6c3da64727d1e3d7c4bd8c44b", "fusion_lon": 0.0, "lat": 38.9277605}, {"type": "electric_scooter", "name": "051ae9cc3fed938a1a79384118e2b5e5", "is_reserved": 0, "fusion_lat": 0.0, "lon": -77.0419835, "is_disabled": 0, "rental_uris": {"android": "https://dc.lft.to/lastmile_qr_scan", "ios": "https://dc.lft.to/lastmile_qr_scan"}, "bike_id": "051ae9cc3fed938a1a79384118e2b5e5", "fusion_lon": 0.0, "lat": 38.922654666666666}, {"type": "electric_scooter", "name": "b987ce6f5c1298835126395207de7bea", "is_reserved": 0, "fusion_lat": 0.0, "lon": -77.0278835, "is_disabled": 0, "rental_uris": {"android": "https://dc.lft.to/lastmile_qr_scan", "ios": "https://dc.lft.to/lastmile_qr_scan"}, "bike_id": "b987ce6f5c1298835126395207de7bea", "fusion_lon": 0.0, "lat": 38.90068}, {"type": "electric_scooter", "name": "1d8acb0569793d2e0708c30d670c478a", "is_reserved": 0, "fusion_lat": 0.0, "lon": -77.075805, "is_disabled": 0, "rental_uris": {"android": "https://dc.lft.to/lastmile_qr_scan", "ios": "https://dc.lft.to/lastmile_qr_scan"}, "bike_id": "1d8acb0569793d2e0708c30d670c478a", "fusion_lon": 0.0, "lat": 38.93869}, {"type": "electric_scooter", "name": "e619e209f73b1b095bc2fa384797ed4e", "is_reserved": 0, "fusion_lat": 0.0, "lon": -77.02363566666666, "is_disabled": 0, "rental_uris": {"android": "https://dc.lft.to/lastmile_qr_scan", "ios": "https://dc.lft.to/lastmile_qr_scan"}, "bike_id": "e619e209f73b1b095bc2fa384797ed4e", "fusion_lon": 0.0, "lat": 38.933092}, {"type": "electric_scooter", "name": "78ced3d5675dce546beeba80b6fe5354", "is_reserved": 0, "fusion_lat": 0.0, "lon": -76.98784583333334, "is_disabled": 0, "rental_uris": {"android": "https://dc.lft.to/lastmile_qr_scan", "ios": "https://dc.lft.to/lastmile_qr_scan"}, "bike_id": "78ced3d5675dce546beeba80b6fe5354", "fusion_lon": 0.0, "lat": 38.90300666666667}, {"type": "electric_scooter", "name": "d54dba4278bd3f3c64fc111f80eb5bce", "is_reserved": 0, "fusion_lat": 0.0, "lon": -77.00053783333334, "is_disabled": 0, "rental_uris": {"android": "https://dc.lft.to/lastmile_qr_scan", "ios": "https://dc.lft.to/lastmile_qr_scan"}, "bike_id": "d54dba4278bd3f3c64fc111f80eb5bce", "fusion_lon": 0.0, "lat": 38.89160616666667}, {"type": "electric_scooter", "name": "b10ee4e3c72fb7d6b1054bf4fabdcda4", "is_reserved": 0, "fusion_lat": 0.0, "lon": -77.025332, "is_disabled": 0, "rental_uris": {"android": "https://dc.lft.to/lastmile_qr_scan", "ios": "https://dc.lft.to/lastmile_qr_scan"}, "bike_id": "b10ee4e3c72fb7d6b1054bf4fabdcda4", "fusion_lon": 0.0, "lat": 38.927529166666666}, {"type": "electric_scooter", "name": "1728478e5c15b63cd9128ed2f629b8ec", "is_reserved": 0, "fusion_lat": 0.0, "lon": -77.023906, "is_disabled": 0, "rental_uris": {"android": "https://dc.lft.to/lastmile_qr_scan", "ios": "https://dc.lft.to/lastmile_qr_scan"}, "bike_id": "1728478e5c15b63cd9128ed2f629b8ec", "fusion_lon": 0.0, "lat": 38.92078333333333}, {"type": "electric_scooter", "name": "57d6a2fad9d93ae95758808713855c8a", "is_reserved": 0, "fusion_lat": 0.0, "lon": -77.0059805, "is_disabled": 0, "rental_uris": {"android": "https://dc.lft.to/lastmile_qr_scan", "ios": "https://dc.lft.to/lastmile_qr_scan"}, "bike_id": "57d6a2fad9d93ae95758808713855c8a", "fusion_lon": 0.0, "lat": 38.875473666666664}, {"type": "electric_scooter", "name": "63f66646120b08375933abade537548e", "is_reserved": 0, "fusion_lat": 0.0, "lon": -77.0447315, "is_disabled": 0, "rental_uris": {"android": "https://dc.lft.to/lastmile_qr_scan", "ios": "https://dc.lft.to/lastmile_qr_scan"}, "bike_id": "63f66646120b08375933abade537548e", "fusion_lon": 0.0, "lat": 38.92142833333333}, {"type": "electric_scooter", "name": "e318d08f109fa939bc09b8e265ff2925", "is_reserved": 0, "fusion_lat": 0.0, "lon": -77.04321933333334, "is_disabled": 0, "rental_uris": {"android": "https://dc.lft.to/lastmile_qr_scan", "ios": "https://dc.lft.to/lastmile_qr_scan"}, "bike_id": "e318d08f109fa939bc09b8e265ff2925", "fusion_lon": 0.0, "lat": 38.928025166666664}, {"type": "electric_scooter", "name": "cd38346cc78d6e433c923cd8e1402488", "is_reserved": 0, "fusion_lat": 0.0, "lon": -77.02689033333333, "is_disabled": 0, "rental_uris": {"android": "https://dc.lft.to/lastmile_qr_scan", "ios": "https://dc.lft.to/lastmile_qr_scan"}, "bike_id": "cd38346cc78d6e433c923cd8e1402488", "fusion_lon": 0.0, "lat": 38.90974033333333}, {"type": "electric_scooter", "name": "2fbf1cbb458c71858bddba7ae9a569ea", "is_reserved": 0, "fusion_lat": 0.0, "lon": -77.03957583333333, "is_disabled": 0, "rental_uris": {"android": "https://dc.lft.to/lastmile_qr_scan", "ios": "https://dc.lft.to/lastmile_qr_scan"}, "bike_id": "2fbf1cbb458c71858bddba7ae9a569ea", "fusion_lon": 0.0, "lat": 38.9314915}, {"type": "electric_scooter", "name": "80b4ec03e80c53daf2158d1b6bcfeaad", "is_reserved": 0, "fusion_lat": 0.0, "lon": -77.0372205, "is_disabled": 0, "rental_uris": {"android": "https://dc.lft.to/lastmile_qr_scan", "ios": "https://dc.lft.to/lastmile_qr_scan"}, "bike_id": "80b4ec03e80c53daf2158d1b6bcfeaad", "fusion_lon": 0.0, "lat": 38.916904833333334}, {"type": "electric_scooter", "name": "3d38b56400616d8ab6d7b455540afc67", "is_reserved": 0, "fusion_lat": 0.0, "lon": -77.00426983333334, "is_disabled": 0, "rental_uris": {"android": "https://dc.lft.to/lastmile_qr_scan", "ios": "https://dc.lft.to/lastmile_qr_scan"}, "bike_id": "3d38b56400616d8ab6d7b455540afc67", "fusion_lon": 0.0, "lat": 38.876751666666664}, {"type": "electric_bike", "name": "834981a6d661578abfed038c287776b5", "is_reserved": 0, "fusion_lat": 0.0, "lon": -76.98751083333333, "is_disabled": 0, "rental_uris": {"android": "https://dc.lft.to/lastmile_qr_scan", "ios": "https://dc.lft.to/lastmile_qr_scan"}, "bike_id": "834981a6d661578abfed038c287776b5", "fusion_lon": 0.0, "lat": 38.85772516666667}, {"type": "electric_scooter", "name": "1768bb0530aaa43ed05c5d4d671e8a9a", "is_reserved": 0, "fusion_lat": 0.0, "lon": -77.03952433333333, "is_disabled": 0, "rental_uris": {"android": "https://dc.lft.to/lastmile_qr_scan", "ios": "https://dc.lft.to/lastmile_qr_scan"}, "bike_id": "1768bb0530aaa43ed05c5d4d671e8a9a", "fusion_lon": 0.0, "lat": 38.90263516666667}, {"type": "electric_scooter", "name": "8694cee2842130e80c3673f5b992e0c7", "is_reserved": 0, "fusion_lat": 0.0, "lon": -77.018192, "is_disabled": 0, "rental_uris": {"android": "https://dc.lft.to/lastmile_qr_scan", "ios": "https://dc.lft.to/lastmile_qr_scan"}, "bike_id": "8694cee2842130e80c3673f5b992e0c7", "fusion_lon": 0.0, "lat": 38.9226575}, {"type": "electric_scooter", "name": "55bf21af2f120f95ea55d224e9fa4939", "is_reserved": 0, "fusion_lat": 0.0, "lon": -77.02168416666666, "is_disabled": 0, "rental_uris": {"android": "https://dc.lft.to/lastmile_qr_scan", "ios": "https://dc.lft.to/lastmile_qr_scan"}, "bike_id": "55bf21af2f120f95ea55d224e9fa4939", "fusion_lon": 0.0, "lat": 38.89736933333333}, {"type": "electric_scooter", "name": "b8857c86658c943a8e2b25daa3308d04", "is_reserved": 0, "fusion_lat": 0.0, "lon": -77.03246616666667, "is_disabled": 0, "rental_uris": {"android": "https://dc.lft.to/lastmile_qr_scan", "ios": "https://dc.lft.to/lastmile_qr_scan"}, "bike_id": "b8857c86658c943a8e2b25daa3308d04", "fusion_lon": 0.0, "lat": 38.91417166666667}, {"type": "electric_scooter", "name": "7b69deadf702f8c8b82a377291d40838", "is_reserved": 0, "fusion_lat": 0.0, "lon": -77.0269285, "is_disabled": 0, "rental_uris": {"android": "https://dc.lft.to/lastmile_qr_scan", "ios": "https://dc.lft.to/lastmile_qr_scan"}, "bike_id": "7b69deadf702f8c8b82a377291d40838", "fusion_lon": 0.0, "lat": 38.911322166666665}, {"type": "electric_scooter", "name": "fdbaf81a5aea89daae5c2f6593e7dee1", "is_reserved": 0, "fusion_lat": 0.0, "lon": -76.9326085, "is_disabled": 0, "rental_uris": {"android": "https://dc.lft.to/lastmile_qr_scan", "ios": "https://dc.lft.to/lastmile_qr_scan"}, "bike_id": "fdbaf81a5aea89daae5c2f6593e7dee1", "fusion_lon": 0.0, "lat": 38.88775116666667}, {"type": "electric_bike", "name": "c0cc5d969138e406a5cd1a1461853c10", "is_reserved": 0, "fusion_lat": 0.0, "lon": -76.98383566666666, "is_disabled": 0, "rental_uris": {"android": "https://dc.lft.to/lastmile_qr_scan", "ios": "https://dc.lft.to/lastmile_qr_scan"}, "bike_id": "c0cc5d969138e406a5cd1a1461853c10", "fusion_lon": 0.0, "lat": 38.913202166666665}, {"type": "electric_scooter", "name": "dc9a9600857bdc8359ba4361b10db3ad", "is_reserved": 0, "fusion_lat": 0.0, "lon": -77.04327483333333, "is_disabled": 0, "rental_uris": {"android": "https://dc.lft.to/lastmile_qr_scan", "ios": "https://dc.lft.to/lastmile_qr_scan"}, "bike_id": "dc9a9600857bdc8359ba4361b10db3ad", "fusion_lon": 0.0, "lat": 38.892285666666666}, {"type": "electric_scooter", "name": "fa7502d0e041d497cb3f79aa26791c8d", "is_reserved": 0, "fusion_lat": 0.0, "lon": -77.02799033333334, "is_disabled": 0, "rental_uris": {"android": "https://dc.lft.to/lastmile_qr_scan", "ios": "https://dc.lft.to/lastmile_qr_scan"}, "bike_id": "fa7502d0e041d497cb3f79aa26791c8d", "fusion_lon": 0.0, "lat": 38.912220166666664}, {"type": "electric_scooter", "name": "ba2fec21c1f5aaccbea9a48f72839664", "is_reserved": 0, "fusion_lat": 0.0, "lon": -76.98532, "is_disabled": 0, "rental_uris": {"android": "https://dc.lft.to/lastmile_qr_scan", "ios": "https://dc.lft.to/lastmile_qr_scan"}, "bike_id": "ba2fec21c1f5aaccbea9a48f72839664", "fusion_lon": 0.0, "lat": 38.85364633333333}, {"type": "electric_scooter", "name": "d0751b8e2a6749ba0d3c39f62a20f145", "is_reserved": 0, "fusion_lat": 0.0, "lon": -76.9375895, "is_disabled": 0, "rental_uris": {"android": "https://dc.lft.to/lastmile_qr_scan", "ios": "https://dc.lft.to/lastmile_qr_scan"}, "bike_id": "d0751b8e2a6749ba0d3c39f62a20f145", "fusion_lon": 0.0, "lat": 38.890474166666664}, {"type": "electric_scooter", "name": "cfa04e45826645fceef90b25fb2ffd2a", "is_reserved": 0, "fusion_lat": 0.0, "lon": -77.04314583333333, "is_disabled": 0, "rental_uris": {"android": "https://dc.lft.to/lastmile_qr_scan", "ios": "https://dc.lft.to/lastmile_qr_scan"}, "bike_id": "cfa04e45826645fceef90b25fb2ffd2a", "fusion_lon": 0.0, "lat": 38.91878083333334}, {"type": "electric_scooter", "name": "7567f8016c40475b0e4a18fa1ec94d06", "is_reserved": 0, "fusion_lat": 0.0, "lon": -77.047033, "is_disabled": 0, "rental_uris": {"android": "https://dc.lft.to/lastmile_qr_scan", "ios": "https://dc.lft.to/lastmile_qr_scan"}, "bike_id": "7567f8016c40475b0e4a18fa1ec94d06", "fusion_lon": 0.0, "lat": 38.9059535}, {"type": "electric_bike", "name": "98bc9b11d5abfc06fdf5c18f1008dbed", "is_reserved": 0, "fusion_lat": 0.0, "lon": -77.231975, "is_disabled": 0, "rental_uris": {"android": "https://dc.lft.to/lastmile_qr_scan", "ios": "https://dc.lft.to/lastmile_qr_scan"}, "bike_id": "98bc9b11d5abfc06fdf5c18f1008dbed", "fusion_lon": 0.0, "lat": 38.866403}, {"type": "electric_scooter", "name": "60deaf81abaffb9c9b9ba611f5729b19", "is_reserved": 0, "fusion_lat": 0.0, "lon": -77.04483733333333, "is_disabled": 0, "rental_uris": {"android": "https://dc.lft.to/lastmile_qr_scan", "ios": "https://dc.lft.to/lastmile_qr_scan"}, "bike_id": "60deaf81abaffb9c9b9ba611f5729b19", "fusion_lon": 0.0, "lat": 38.924266833333334}, {"type": "electric_scooter", "name": "6e3394fc3aee1b83c5311dcd459bedbe", "is_reserved": 0, "fusion_lat": 0.0, "lon": -77.0312845, "is_disabled": 0, "rental_uris": {"android": "https://dc.lft.to/lastmile_qr_scan", "ios": "https://dc.lft.to/lastmile_qr_scan"}, "bike_id": "6e3394fc3aee1b83c5311dcd459bedbe", "fusion_lon": 0.0, "lat": 38.91690366666667}, {"type": "electric_scooter", "name": "e83283c67d7d1fef9cf7f32b51d2af71", "is_reserved": 0, "fusion_lat": 0.0, "lon": -77.032459, "is_disabled": 0, "rental_uris": {"android": "https://dc.lft.to/lastmile_qr_scan", "ios": "https://dc.lft.to/lastmile_qr_scan"}, "bike_id": "e83283c67d7d1fef9cf7f32b51d2af71", "fusion_lon": 0.0, "lat": 38.961616666666664}, {"type": "electric_scooter", "name": "5dd1a4ff1e493505fa1b5cd569cb34f9", "is_reserved": 0, "fusion_lat": 0.0, "lon": -77.02166516666666, "is_disabled": 0, "rental_uris": {"android": "https://dc.lft.to/lastmile_qr_scan", "ios": "https://dc.lft.to/lastmile_qr_scan"}, "bike_id": "5dd1a4ff1e493505fa1b5cd569cb34f9", "fusion_lon": 0.0, "lat": 38.88325666666667}, {"type": "electric_scooter", "name": "771b8ab0c897fef7e93ac4285bc238b9", "is_reserved": 0, "fusion_lat": 0.0, "lon": -77.021286, "is_disabled": 0, "rental_uris": {"android": "https://dc.lft.to/lastmile_qr_scan", "ios": "https://dc.lft.to/lastmile_qr_scan"}, "bike_id": "771b8ab0c897fef7e93ac4285bc238b9", "fusion_lon": 0.0, "lat": 38.924149}, {"type": "electric_scooter", "name": "0bfd1b99e2c893d7eb1e464b51e39f35", "is_reserved": 0, "fusion_lat": 0.0, "lon": -77.028082, "is_disabled": 0, "rental_uris": {"android": "https://dc.lft.to/lastmile_qr_scan", "ios": "https://dc.lft.to/lastmile_qr_scan"}, "bike_id": "0bfd1b99e2c893d7eb1e464b51e39f35", "fusion_lon": 0.0, "lat": 38.9047455}, {"type": "electric_scooter", "name": "056f73e452c76c43adab90ff5688acb8", "is_reserved": 0, "fusion_lat": 0.0, "lon": -77.05506666666666, "is_disabled": 0, "rental_uris": {"android": "https://dc.lft.to/lastmile_qr_scan", "ios": "https://dc.lft.to/lastmile_qr_scan"}, "bike_id": "056f73e452c76c43adab90ff5688acb8", "fusion_lon": 0.0, "lat": 38.9298055}, {"type": "electric_scooter", "name": "bb557aa8f3edba9d34f9b847478feb72", "is_reserved": 0, "fusion_lat": 0.0, "lon": -77.03274166666667, "is_disabled": 0, "rental_uris": {"android": "https://dc.lft.to/lastmile_qr_scan", "ios": "https://dc.lft.to/lastmile_qr_scan"}, "bike_id": "bb557aa8f3edba9d34f9b847478feb72", "fusion_lon": 0.0, "lat": 38.91037866666667}, {"type": "electric_scooter", "name": "ece65fa5e495cc818b04c8d154d94f81", "is_reserved": 0, "fusion_lat": 0.0, "lon": -77.0444125, "is_disabled": 0, "rental_uris": {"android": "https://dc.lft.to/lastmile_qr_scan", "ios": "https://dc.lft.to/lastmile_qr_scan"}, "bike_id": "ece65fa5e495cc818b04c8d154d94f81", "fusion_lon": 0.0, "lat": 38.911016333333336}, {"type": "electric_bike", "name": "42a43989f700131527a1054427e308d6", "is_reserved": 0, "fusion_lat": 0.0, "lon": -76.98118983333333, "is_disabled": 0, "rental_uris": {"android": "https://dc.lft.to/lastmile_qr_scan", "ios": "https://dc.lft.to/lastmile_qr_scan"}, "bike_id": "42a43989f700131527a1054427e308d6", "fusion_lon": 0.0, "lat": 38.91463866666667}, {"type": "electric_bike", "name": "cf2b5973f3b6351ce63ab84b3f4ad852", "is_reserved": 0, "fusion_lat": 0.0, "lon": -77.23320016666666, "is_disabled": 0, "rental_uris": {"android": "https://dc.lft.to/lastmile_qr_scan", "ios": "https://dc.lft.to/lastmile_qr_scan"}, "bike_id": "cf2b5973f3b6351ce63ab84b3f4ad852", "fusion_lon": 0.0, "lat": 38.872845}, {"type": "electric_scooter", "name": "13479c56a0b6ff3ac559d8dafe416c21", "is_reserved": 0, "fusion_lat": 0.0, "lon": -77.0478075, "is_disabled": 0, "rental_uris": {"android": "https://dc.lft.to/lastmile_qr_scan", "ios": "https://dc.lft.to/lastmile_qr_scan"}, "bike_id": "13479c56a0b6ff3ac559d8dafe416c21", "fusion_lon": 0.0, "lat": 38.90523266666667}, {"type": "electric_scooter", "name": "8b5c61e08437ccd25a12ccd57921e1bf", "is_reserved": 0, "fusion_lat": 0.0, "lon": -76.946394, "is_disabled": 0, "rental_uris": {"android": "https://dc.lft.to/lastmile_qr_scan", "ios": "https://dc.lft.to/lastmile_qr_scan"}, "bike_id": "8b5c61e08437ccd25a12ccd57921e1bf", "fusion_lon": 0.0, "lat": 38.89843466666667}, {"type": "electric_scooter", "name": "f39168495c972b30b9b4b72df6b48cb4", "is_reserved": 0, "fusion_lat": 0.0, "lon": -77.0326955, "is_disabled": 0, "rental_uris": {"android": "https://dc.lft.to/lastmile_qr_scan", "ios": "https://dc.lft.to/lastmile_qr_scan"}, "bike_id": "f39168495c972b30b9b4b72df6b48cb4", "fusion_lon": 0.0, "lat": 38.91708916666666}, {"type": "electric_scooter", "name": "0258541d6e59f8faa8ea2fe086be1903", "is_reserved": 0, "fusion_lat": 0.0, "lon": -77.03406066666666, "is_disabled": 0, "rental_uris": {"android": "https://dc.lft.to/lastmile_qr_scan", "ios": "https://dc.lft.to/lastmile_qr_scan"}, "bike_id": "0258541d6e59f8faa8ea2fe086be1903", "fusion_lon": 0.0, "lat": 38.9225375}, {"type": "electric_scooter", "name": "5ff5a63feb6e6be16f86a70c055ee44c", "is_reserved": 0, "fusion_lat": 0.0, "lon": -76.97629133333334, "is_disabled": 0, "rental_uris": {"android": "https://dc.lft.to/lastmile_qr_scan", "ios": "https://dc.lft.to/lastmile_qr_scan"}, "bike_id": "5ff5a63feb6e6be16f86a70c055ee44c", "fusion_lon": 0.0, "lat": 38.905725333333336}, {"type": "electric_scooter", "name": "584644a0b38d77d0cc2cb7ad87ced36d", "is_reserved": 0, "fusion_lat": 0.0, "lon": -77.03317516666667, "is_disabled": 0, "rental_uris": {"android": "https://dc.lft.to/lastmile_qr_scan", "ios": "https://dc.lft.to/lastmile_qr_scan"}, "bike_id": "584644a0b38d77d0cc2cb7ad87ced36d", "fusion_lon": 0.0, "lat": 38.928827}, {"type": "electric_scooter", "name": "d338f0c20170855384944dcca8bc73d7", "is_reserved": 0, "fusion_lat": 0.0, "lon": -77.00754783333333, "is_disabled": 0, "rental_uris": {"android": "https://dc.lft.to/lastmile_qr_scan", "ios": "https://dc.lft.to/lastmile_qr_scan"}, "bike_id": "d338f0c20170855384944dcca8bc73d7", "fusion_lon": 0.0, "lat": 38.898453333333336}, {"type": "electric_scooter", "name": "f66349125f3f622c6b382ef89def9998", "is_reserved": 0, "fusion_lat": 0.0, "lon": -77.0330965, "is_disabled": 0, "rental_uris": {"android": "https://dc.lft.to/lastmile_qr_scan", "ios": "https://dc.lft.to/lastmile_qr_scan"}, "bike_id": "f66349125f3f622c6b382ef89def9998", "fusion_lon": 0.0, "lat": 38.95615766666667}, {"type": "electric_scooter", "name": "412f72c41bc9271568a33018e1f75531", "is_reserved": 0, "fusion_lat": 0.0, "lon": -76.9860695, "is_disabled": 0, "rental_uris": {"android": "https://dc.lft.to/lastmile_qr_scan", "ios": "https://dc.lft.to/lastmile_qr_scan"}, "bike_id": "412f72c41bc9271568a33018e1f75531", "fusion_lon": 0.0, "lat": 38.86524716666667}, {"type": "electric_bike", "name": "208e221f35d886cc04ccbf654ce39cf2", "is_reserved": 0, "fusion_lat": 0.0, "lon": -77.1252675, "is_disabled": 0, "rental_uris": {"android": "https://dc.lft.to/lastmile_qr_scan", "ios": "https://dc.lft.to/lastmile_qr_scan"}, "bike_id": "208e221f35d886cc04ccbf654ce39cf2", "fusion_lon": 0.0, "lat": 39.056341333333336}, {"type": "electric_scooter", "name": "7bc0dc70e19427555da257ccbfdbdd7a", "is_reserved": 0, "fusion_lat": 0.0, "lon": -77.03450583333333, "is_disabled": 0, "rental_uris": {"android": "https://dc.lft.to/lastmile_qr_scan", "ios": "https://dc.lft.to/lastmile_qr_scan"}, "bike_id": "7bc0dc70e19427555da257ccbfdbdd7a", "fusion_lon": 0.0, "lat": 38.90255066666667}, {"type": "electric_scooter", "name": "ebb540d4c5849b797c2cabe5cdf02405", "is_reserved": 0, "fusion_lat": 0.0, "lon": -77.0444075, "is_disabled": 0, "rental_uris": {"android": "https://dc.lft.to/lastmile_qr_scan", "ios": "https://dc.lft.to/lastmile_qr_scan"}, "bike_id": "ebb540d4c5849b797c2cabe5cdf02405", "fusion_lon": 0.0, "lat": 38.91102433333333}, {"type": "electric_scooter", "name": "db7e75c0be67843194ffcc9af6b79421", "is_reserved": 0, "fusion_lat": 0.0, "lon": -77.07491766666666, "is_disabled": 0, "rental_uris": {"android": "https://dc.lft.to/lastmile_qr_scan", "ios": "https://dc.lft.to/lastmile_qr_scan"}, "bike_id": "db7e75c0be67843194ffcc9af6b79421", "fusion_lon": 0.0, "lat": 38.89478366666667}, {"type": "electric_scooter", "name": "8399986fee73ff2e967a4cc6cf08ed80", "is_reserved": 0, "fusion_lat": 0.0, "lon": -77.03529383333333, "is_disabled": 0, "rental_uris": {"android": "https://dc.lft.to/lastmile_qr_scan", "ios": "https://dc.lft.to/lastmile_qr_scan"}, "bike_id": "8399986fee73ff2e967a4cc6cf08ed80", "fusion_lon": 0.0, "lat": 38.900467166666665}, {"type": "electric_scooter", "name": "e3775db24ac648b76cc41a2fd43f49bc", "is_reserved": 0, "fusion_lat": 0.0, "lon": -77.02162983333334, "is_disabled": 0, "rental_uris": {"android": "https://dc.lft.to/lastmile_qr_scan", "ios": "https://dc.lft.to/lastmile_qr_scan"}, "bike_id": "e3775db24ac648b76cc41a2fd43f49bc", "fusion_lon": 0.0, "lat": 38.926125666666664}, {"type": "electric_scooter", "name": "bd521afc2101ad0ff56604cc6fda3ec7", "is_reserved": 0, "fusion_lat": 0.0, "lon": -77.03879016666667, "is_disabled": 0, "rental_uris": {"android": "https://dc.lft.to/lastmile_qr_scan", "ios": "https://dc.lft.to/lastmile_qr_scan"}, "bike_id": "bd521afc2101ad0ff56604cc6fda3ec7", "fusion_lon": 0.0, "lat": 38.914681333333334}, {"type": "electric_scooter", "name": "def316fedda3777da190e134f502b041", "is_reserved": 0, "fusion_lat": 0.0, "lon": -77.08034816666667, "is_disabled": 0, "rental_uris": {"android": "https://dc.lft.to/lastmile_qr_scan", "ios": "https://dc.lft.to/lastmile_qr_scan"}, "bike_id": "def316fedda3777da190e134f502b041", "fusion_lon": 0.0, "lat": 38.92388016666666}, {"type": "electric_scooter", "name": "1ab06d4b2402267565294738820f6e89", "is_reserved": 0, "fusion_lat": 0.0, "lon": -76.9987695, "is_disabled": 0, "rental_uris": {"android": "https://dc.lft.to/lastmile_qr_scan", "ios": "https://dc.lft.to/lastmile_qr_scan"}, "bike_id": "1ab06d4b2402267565294738820f6e89", "fusion_lon": 0.0, "lat": 38.901307}, {"type": "electric_scooter", "name": "e1e80b943a691d45bf908bfaa9badef5", "is_reserved": 0, "fusion_lat": 0.0, "lon": -77.04255483333333, "is_disabled": 0, "rental_uris": {"android": "https://dc.lft.to/lastmile_qr_scan", "ios": "https://dc.lft.to/lastmile_qr_scan"}, "bike_id": "e1e80b943a691d45bf908bfaa9badef5", "fusion_lon": 0.0, "lat": 38.92061016666667}, {"type": "electric_scooter", "name": "b80046257ed7530d153d577fe111c734", "is_reserved": 0, "fusion_lat": 0.0, "lon": -77.02900883333334, "is_disabled": 0, "rental_uris": {"android": "https://dc.lft.to/lastmile_qr_scan", "ios": "https://dc.lft.to/lastmile_qr_scan"}, "bike_id": "b80046257ed7530d153d577fe111c734", "fusion_lon": 0.0, "lat": 38.928175333333336}, {"type": "electric_scooter", "name": "73e4efd87b4d3fcb4a51bacae895b0cb", "is_reserved": 0, "fusion_lat": 0.0, "lon": -77.02192333333333, "is_disabled": 0, "rental_uris": {"android": "https://dc.lft.to/lastmile_qr_scan", "ios": "https://dc.lft.to/lastmile_qr_scan"}, "bike_id": "73e4efd87b4d3fcb4a51bacae895b0cb", "fusion_lon": 0.0, "lat": 38.895114}, {"type": "electric_scooter", "name": "9fc9a3479eea54c3a9b1d79e2e6e46fb", "is_reserved": 0, "fusion_lat": 0.0, "lon": -77.034569, "is_disabled": 0, "rental_uris": {"android": "https://dc.lft.to/lastmile_qr_scan", "ios": "https://dc.lft.to/lastmile_qr_scan"}, "bike_id": "9fc9a3479eea54c3a9b1d79e2e6e46fb", "fusion_lon": 0.0, "lat": 38.9308765}, {"type": "electric_bike", "name": "25b4ae4a2f8a0899794517315d93a602", "is_reserved": 0, "fusion_lat": 0.0, "lon": -77.05294616666667, "is_disabled": 0, "rental_uris": {"android": "https://dc.lft.to/lastmile_qr_scan", "ios": "https://dc.lft.to/lastmile_qr_scan"}, "bike_id": "25b4ae4a2f8a0899794517315d93a602", "fusion_lon": 0.0, "lat": 38.8984805}, {"type": "electric_scooter", "name": "2b226317814edfe9eccb0524f7f01348", "is_reserved": 0, "fusion_lat": 0.0, "lon": -77.029473, "is_disabled": 0, "rental_uris": {"android": "https://dc.lft.to/lastmile_qr_scan", "ios": "https://dc.lft.to/lastmile_qr_scan"}, "bike_id": "2b226317814edfe9eccb0524f7f01348", "fusion_lon": 0.0, "lat": 38.916852}, {"type": "electric_scooter", "name": "1a14d926089c579a161093cb6a215b62", "is_reserved": 0, "fusion_lat": 0.0, "lon": -77.06327283333333, "is_disabled": 0, "rental_uris": {"android": "https://dc.lft.to/lastmile_qr_scan", "ios": "https://dc.lft.to/lastmile_qr_scan"}, "bike_id": "1a14d926089c579a161093cb6a215b62", "fusion_lon": 0.0, "lat": 38.90769816666667}, {"type": "electric_scooter", "name": "72c4f58399aaa451cccdd5070fff00ca", "is_reserved": 0, "fusion_lat": 0.0, "lon": -77.05437416666666, "is_disabled": 0, "rental_uris": {"android": "https://dc.lft.to/lastmile_qr_scan", "ios": "https://dc.lft.to/lastmile_qr_scan"}, "bike_id": "72c4f58399aaa451cccdd5070fff00ca", "fusion_lon": 0.0, "lat": 38.928300666666665}, {"type": "electric_scooter", "name": "b82f77063efd9181ea6c34f6ac7aa2f0", "is_reserved": 0, "fusion_lat": 0.0, "lon": -76.99734866666667, "is_disabled": 0, "rental_uris": {"android": "https://dc.lft.to/lastmile_qr_scan", "ios": "https://dc.lft.to/lastmile_qr_scan"}, "bike_id": "b82f77063efd9181ea6c34f6ac7aa2f0", "fusion_lon": 0.0, "lat": 38.90127}, {"type": "electric_scooter", "name": "01453cd1fe1790436465f8fb8f64bb70", "is_reserved": 0, "fusion_lat": 0.0, "lon": -77.02765433333333, "is_disabled": 0, "rental_uris": {"android": "https://dc.lft.to/lastmile_qr_scan", "ios": "https://dc.lft.to/lastmile_qr_scan"}, "bike_id": "01453cd1fe1790436465f8fb8f64bb70", "fusion_lon": 0.0, "lat": 38.954239666666666}, {"type": "electric_scooter", "name": "6a873f4307c084cfa925a3d5a0767447", "is_reserved": 0, "fusion_lat": 0.0, "lon": -77.033172, "is_disabled": 0, "rental_uris": {"android": "https://dc.lft.to/lastmile_qr_scan", "ios": "https://dc.lft.to/lastmile_qr_scan"}, "bike_id": "6a873f4307c084cfa925a3d5a0767447", "fusion_lon": 0.0, "lat": 38.92157316666667}, {"type": "electric_bike", "name": "0d2342b0069c9a09f509444840ed3eac", "is_reserved": 0, "fusion_lat": 0.0, "lon": -77.008648, "is_disabled": 0, "rental_uris": {"android": "https://dc.lft.to/lastmile_qr_scan", "ios": "https://dc.lft.to/lastmile_qr_scan"}, "bike_id": "0d2342b0069c9a09f509444840ed3eac", "fusion_lon": 0.0, "lat": 38.899308833333336}, {"type": "electric_scooter", "name": "a2bc0254b5960d00cabbdcc794538dab", "is_reserved": 0, "fusion_lat": 0.0, "lon": -77.05347816666666, "is_disabled": 0, "rental_uris": {"android": "https://dc.lft.to/lastmile_qr_scan", "ios": "https://dc.lft.to/lastmile_qr_scan"}, "bike_id": "a2bc0254b5960d00cabbdcc794538dab", "fusion_lon": 0.0, "lat": 38.92353416666667}, {"type": "electric_scooter", "name": "bea150d415588540a1eb9a5120e3e191", "is_reserved": 0, "fusion_lat": 0.0, "lon": -77.032116, "is_disabled": 0, "rental_uris": {"android": "https://dc.lft.to/lastmile_qr_scan", "ios": "https://dc.lft.to/lastmile_qr_scan"}, "bike_id": "bea150d415588540a1eb9a5120e3e191", "fusion_lon": 0.0, "lat": 38.9190295}, {"type": "electric_scooter", "name": "3c5e4173b2b199d778dd5bfd52f79e05", "is_reserved": 0, "fusion_lat": 0.0, "lon": -77.03280533333333, "is_disabled": 0, "rental_uris": {"android": "https://dc.lft.to/lastmile_qr_scan", "ios": "https://dc.lft.to/lastmile_qr_scan"}, "bike_id": "3c5e4173b2b199d778dd5bfd52f79e05", "fusion_lon": 0.0, "lat": 38.936757666666665}, {"type": "electric_scooter", "name": "ee7dd52fed2cdc4506a27c5afb231525", "is_reserved": 0, "fusion_lat": 0.0, "lon": -76.986987, "is_disabled": 0, "rental_uris": {"android": "https://dc.lft.to/lastmile_qr_scan", "ios": "https://dc.lft.to/lastmile_qr_scan"}, "bike_id": "ee7dd52fed2cdc4506a27c5afb231525", "fusion_lon": 0.0, "lat": 38.862534}, {"type": "electric_scooter", "name": "c300a24a5fa85fd6403d7a9d08bcbc2b", "is_reserved": 0, "fusion_lat": 0.0, "lon": -77.01164666666666, "is_disabled": 0, "rental_uris": {"android": "https://dc.lft.to/lastmile_qr_scan", "ios": "https://dc.lft.to/lastmile_qr_scan"}, "bike_id": "c300a24a5fa85fd6403d7a9d08bcbc2b", "fusion_lon": 0.0, "lat": 38.9002705}, {"type": "electric_scooter", "name": "81f3cb80a55337d977306052bc60477a", "is_reserved": 0, "fusion_lat": 0.0, "lon": -77.0213875, "is_disabled": 0, "rental_uris": {"android": "https://dc.lft.to/lastmile_qr_scan", "ios": "https://dc.lft.to/lastmile_qr_scan"}, "bike_id": "81f3cb80a55337d977306052bc60477a", "fusion_lon": 0.0, "lat": 38.92321866666666}, {"type": "electric_scooter", "name": "96e76bdfeee22bfa612fe54301a4f9b4", "is_reserved": 0, "fusion_lat": 0.0, "lon": -77.02205733333334, "is_disabled": 0, "rental_uris": {"android": "https://dc.lft.to/lastmile_qr_scan", "ios": "https://dc.lft.to/lastmile_qr_scan"}, "bike_id": "96e76bdfeee22bfa612fe54301a4f9b4", "fusion_lon": 0.0, "lat": 38.887233333333334}, {"type": "electric_scooter", "name": "1d3ee7df85d71de2b78543d11f8e5059", "is_reserved": 0, "fusion_lat": 0.0, "lon": -77.01312116666666, "is_disabled": 0, "rental_uris": {"android": "https://dc.lft.to/lastmile_qr_scan", "ios": "https://dc.lft.to/lastmile_qr_scan"}, "bike_id": "1d3ee7df85d71de2b78543d11f8e5059", "fusion_lon": 0.0, "lat": 38.90182266666667}, {"type": "electric_scooter", "name": "6ebab33971ee6f783cbcaa7a7c778937", "is_reserved": 0, "fusion_lat": 0.0, "lon": -77.02742916666666, "is_disabled": 0, "rental_uris": {"android": "https://dc.lft.to/lastmile_qr_scan", "ios": "https://dc.lft.to/lastmile_qr_scan"}, "bike_id": "6ebab33971ee6f783cbcaa7a7c778937", "fusion_lon": 0.0, "lat": 38.93584033333333}, {"type": "electric_scooter", "name": "3ad5f0fab360b80093fe99466c754eb7", "is_reserved": 0, "fusion_lat": 0.0, "lon": -77.0296515, "is_disabled": 0, "rental_uris": {"android": "https://dc.lft.to/lastmile_qr_scan", "ios": "https://dc.lft.to/lastmile_qr_scan"}, "bike_id": "3ad5f0fab360b80093fe99466c754eb7", "fusion_lon": 0.0, "lat": 38.9167775}, {"type": "electric_scooter", "name": "dd1c037f58f15b0076927ad59ef95b38", "is_reserved": 0, "fusion_lat": 0.0, "lon": -77.02792466666666, "is_disabled": 0, "rental_uris": {"android": "https://dc.lft.to/lastmile_qr_scan", "ios": "https://dc.lft.to/lastmile_qr_scan"}, "bike_id": "dd1c037f58f15b0076927ad59ef95b38", "fusion_lon": 0.0, "lat": 38.9308335}, {"type": "electric_scooter", "name": "42edbf131016600137b9c11bd06466c1", "is_reserved": 0, "fusion_lat": 0.0, "lon": -77.03216816666666, "is_disabled": 0, "rental_uris": {"android": "https://dc.lft.to/lastmile_qr_scan", "ios": "https://dc.lft.to/lastmile_qr_scan"}, "bike_id": "42edbf131016600137b9c11bd06466c1", "fusion_lon": 0.0, "lat": 38.917931333333335}, {"type": "electric_scooter", "name": "5d2994663b157a74b71da1904bafdd87", "is_reserved": 0, "fusion_lat": 0.0, "lon": -77.04438233333333, "is_disabled": 0, "rental_uris": {"android": "https://dc.lft.to/lastmile_qr_scan", "ios": "https://dc.lft.to/lastmile_qr_scan"}, "bike_id": "5d2994663b157a74b71da1904bafdd87", "fusion_lon": 0.0, "lat": 38.92180416666667}, {"type": "electric_scooter", "name": "0e3d31c5e1739efccf2582b7b9436ab8", "is_reserved": 0, "fusion_lat": 0.0, "lon": -76.99060766666666, "is_disabled": 0, "rental_uris": {"android": "https://dc.lft.to/lastmile_qr_scan", "ios": "https://dc.lft.to/lastmile_qr_scan"}, "bike_id": "0e3d31c5e1739efccf2582b7b9436ab8", "fusion_lon": 0.0, "lat": 38.86361766666667}, {"type": "electric_scooter", "name": "4090364dcc6205a5cda24645dbab59a8", "is_reserved": 0, "fusion_lat": 0.0, "lon": -77.02101483333334, "is_disabled": 0, "rental_uris": {"android": "https://dc.lft.to/lastmile_qr_scan", "ios": "https://dc.lft.to/lastmile_qr_scan"}, "bike_id": "4090364dcc6205a5cda24645dbab59a8", "fusion_lon": 0.0, "lat": 38.92149083333334}, {"type": "electric_scooter", "name": "e0991a59351a219e333693f5e48cc5bb", "is_reserved": 0, "fusion_lat": 0.0, "lon": -77.02349, "is_disabled": 0, "rental_uris": {"android": "https://dc.lft.to/lastmile_qr_scan", "ios": "https://dc.lft.to/lastmile_qr_scan"}, "bike_id": "e0991a59351a219e333693f5e48cc5bb", "fusion_lon": 0.0, "lat": 38.94615133333333}, {"type": "electric_scooter", "name": "b70732ce672d4a98b8347f2895f1b4f8", "is_reserved": 0, "fusion_lat": 0.0, "lon": -76.995098, "is_disabled": 0, "rental_uris": {"android": "https://dc.lft.to/lastmile_qr_scan", "ios": "https://dc.lft.to/lastmile_qr_scan"}, "bike_id": "b70732ce672d4a98b8347f2895f1b4f8", "fusion_lon": 0.0, "lat": 38.86255333333333}, {"type": "electric_scooter", "name": "d4f7e09f476a1f9073169861f7ddfccd", "is_reserved": 0, "fusion_lat": 0.0, "lon": -77.031826, "is_disabled": 0, "rental_uris": {"android": "https://dc.lft.to/lastmile_qr_scan", "ios": "https://dc.lft.to/lastmile_qr_scan"}, "bike_id": "d4f7e09f476a1f9073169861f7ddfccd", "fusion_lon": 0.0, "lat": 38.918}, {"type": "electric_scooter", "name": "e98f4db9f0ca19f14d335637a058585a", "is_reserved": 0, "fusion_lat": 0.0, "lon": -76.9992135, "is_disabled": 0, "rental_uris": {"android": "https://dc.lft.to/lastmile_qr_scan", "ios": "https://dc.lft.to/lastmile_qr_scan"}, "bike_id": "e98f4db9f0ca19f14d335637a058585a", "fusion_lon": 0.0, "lat": 38.946927333333335}, {"type": "electric_scooter", "name": "36b5885eca1125baa49779e09259f702", "is_reserved": 0, "fusion_lat": 0.0, "lon": -77.0692945, "is_disabled": 0, "rental_uris": {"android": "https://dc.lft.to/lastmile_qr_scan", "ios": "https://dc.lft.to/lastmile_qr_scan"}, "bike_id": "36b5885eca1125baa49779e09259f702", "fusion_lon": 0.0, "lat": 38.90775466666667}, {"type": "electric_scooter", "name": "b05689819e8502d2f39a9dee8eed1130", "is_reserved": 0, "fusion_lat": 0.0, "lon": -77.03024283333333, "is_disabled": 0, "rental_uris": {"android": "https://dc.lft.to/lastmile_qr_scan", "ios": "https://dc.lft.to/lastmile_qr_scan"}, "bike_id": "b05689819e8502d2f39a9dee8eed1130", "fusion_lon": 0.0, "lat": 38.89830966666667}, {"type": "electric_scooter", "name": "c78b37b7af9854888f2315c22f56f2f6", "is_reserved": 0, "fusion_lat": 0.0, "lon": -77.04885933333334, "is_disabled": 0, "rental_uris": {"android": "https://dc.lft.to/lastmile_qr_scan", "ios": "https://dc.lft.to/lastmile_qr_scan"}, "bike_id": "c78b37b7af9854888f2315c22f56f2f6", "fusion_lon": 0.0, "lat": 38.906892}, {"type": "electric_scooter", "name": "2f26a79a5af66124efceb0748303e96f", "is_reserved": 0, "fusion_lat": 0.0, "lon": -77.01749316666667, "is_disabled": 0, "rental_uris": {"android": "https://dc.lft.to/lastmile_qr_scan", "ios": "https://dc.lft.to/lastmile_qr_scan"}, "bike_id": "2f26a79a5af66124efceb0748303e96f", "fusion_lon": 0.0, "lat": 38.887421833333335}, {"type": "electric_scooter", "name": "960c8529df1226558b6c3793976f9c18", "is_reserved": 0, "fusion_lat": 0.0, "lon": -77.02980866666667, "is_disabled": 0, "rental_uris": {"android": "https://dc.lft.to/lastmile_qr_scan", "ios": "https://dc.lft.to/lastmile_qr_scan"}, "bike_id": "960c8529df1226558b6c3793976f9c18", "fusion_lon": 0.0, "lat": 38.894278166666666}, {"type": "electric_scooter", "name": "191aec55fd9a4390dfc68d423c9a34b5", "is_reserved": 0, "fusion_lat": 0.0, "lon": -77.03966633333333, "is_disabled": 0, "rental_uris": {"android": "https://dc.lft.to/lastmile_qr_scan", "ios": "https://dc.lft.to/lastmile_qr_scan"}, "bike_id": "191aec55fd9a4390dfc68d423c9a34b5", "fusion_lon": 0.0, "lat": 38.90259533333333}, {"type": "electric_scooter", "name": "49745e21dbec2f5f356cb786a3d114cf", "is_reserved": 0, "fusion_lat": 0.0, "lon": -76.98709733333334, "is_disabled": 0, "rental_uris": {"android": "https://dc.lft.to/lastmile_qr_scan", "ios": "https://dc.lft.to/lastmile_qr_scan"}, "bike_id": "49745e21dbec2f5f356cb786a3d114cf", "fusion_lon": 0.0, "lat": 38.86629}, {"type": "electric_scooter", "name": "0d83b0ff541e0eede8710c434742e2e8", "is_reserved": 0, "fusion_lat": 0.0, "lon": -77.02701783333333, "is_disabled": 0, "rental_uris": {"android": "https://dc.lft.to/lastmile_qr_scan", "ios": "https://dc.lft.to/lastmile_qr_scan"}, "bike_id": "0d83b0ff541e0eede8710c434742e2e8", "fusion_lon": 0.0, "lat": 38.90669466666667}, {"type": "electric_scooter", "name": "6590654b0c05c261b29e9479ce85a516", "is_reserved": 0, "fusion_lat": 0.0, "lon": -77.01980983333333, "is_disabled": 0, "rental_uris": {"android": "https://dc.lft.to/lastmile_qr_scan", "ios": "https://dc.lft.to/lastmile_qr_scan"}, "bike_id": "6590654b0c05c261b29e9479ce85a516", "fusion_lon": 0.0, "lat": 38.95028283333333}, {"type": "electric_scooter", "name": "fb640c47bdde266b3f3560048f0bb14a", "is_reserved": 0, "fusion_lat": 0.0, "lon": -76.95061666666666, "is_disabled": 0, "rental_uris": {"android": "https://dc.lft.to/lastmile_qr_scan", "ios": "https://dc.lft.to/lastmile_qr_scan"}, "bike_id": "fb640c47bdde266b3f3560048f0bb14a", "fusion_lon": 0.0, "lat": 38.904924333333334}, {"type": "electric_scooter", "name": "2d346537262edc6499e33557bad71a21", "is_reserved": 0, "fusion_lat": 0.0, "lon": -77.04646116666666, "is_disabled": 0, "rental_uris": {"android": "https://dc.lft.to/lastmile_qr_scan", "ios": "https://dc.lft.to/lastmile_qr_scan"}, "bike_id": "2d346537262edc6499e33557bad71a21", "fusion_lon": 0.0, "lat": 38.915951666666665}, {"type": "electric_scooter", "name": "1efd874d53db9dfb7faf20006351604a", "is_reserved": 0, "fusion_lat": 0.0, "lon": -77.0500365, "is_disabled": 0, "rental_uris": {"android": "https://dc.lft.to/lastmile_qr_scan", "ios": "https://dc.lft.to/lastmile_qr_scan"}, "bike_id": "1efd874d53db9dfb7faf20006351604a", "fusion_lon": 0.0, "lat": 38.90517916666667}, {"type": "electric_scooter", "name": "429639f9d42a0dc52919e1b014db9867", "is_reserved": 0, "fusion_lat": 0.0, "lon": -77.02676, "is_disabled": 0, "rental_uris": {"android": "https://dc.lft.to/lastmile_qr_scan", "ios": "https://dc.lft.to/lastmile_qr_scan"}, "bike_id": "429639f9d42a0dc52919e1b014db9867", "fusion_lon": 0.0, "lat": 38.8981965}, {"type": "electric_scooter", "name": "52da209e24c800dd10751517858cfb2f", "is_reserved": 0, "fusion_lat": 0.0, "lon": -76.98661566666667, "is_disabled": 0, "rental_uris": {"android": "https://dc.lft.to/lastmile_qr_scan", "ios": "https://dc.lft.to/lastmile_qr_scan"}, "bike_id": "52da209e24c800dd10751517858cfb2f", "fusion_lon": 0.0, "lat": 38.867302333333335}, {"type": "electric_scooter", "name": "869b86c7f14ea24b78bed030a445ea62", "is_reserved": 0, "fusion_lat": 0.0, "lon": -77.0318315, "is_disabled": 0, "rental_uris": {"android": "https://dc.lft.to/lastmile_qr_scan", "ios": "https://dc.lft.to/lastmile_qr_scan"}, "bike_id": "869b86c7f14ea24b78bed030a445ea62", "fusion_lon": 0.0, "lat": 38.91777}, {"type": "electric_scooter", "name": "852eeee2e9da9ae50bb67b5f1d2bb7bf", "is_reserved": 0, "fusion_lat": 0.0, "lon": -77.011711, "is_disabled": 0, "rental_uris": {"android": "https://dc.lft.to/lastmile_qr_scan", "ios": "https://dc.lft.to/lastmile_qr_scan"}, "bike_id": "852eeee2e9da9ae50bb67b5f1d2bb7bf", "fusion_lon": 0.0, "lat": 38.915661166666666}, {"type": "electric_scooter", "name": "7ac8b93ca24323b681914ed323be7ff9", "is_reserved": 0, "fusion_lat": 0.0, "lon": -77.01806016666667, "is_disabled": 0, "rental_uris": {"android": "https://dc.lft.to/lastmile_qr_scan", "ios": "https://dc.lft.to/lastmile_qr_scan"}, "bike_id": "7ac8b93ca24323b681914ed323be7ff9", "fusion_lon": 0.0, "lat": 38.91416}, {"type": "electric_scooter", "name": "ee7b42e614f3351b8362bdf9984c3405", "is_reserved": 0, "fusion_lat": 0.0, "lon": -76.95472583333333, "is_disabled": 0, "rental_uris": {"android": "https://dc.lft.to/lastmile_qr_scan", "ios": "https://dc.lft.to/lastmile_qr_scan"}, "bike_id": "ee7b42e614f3351b8362bdf9984c3405", "fusion_lon": 0.0, "lat": 38.88640066666667}, {"type": "electric_scooter", "name": "74c7d9ace55dcb1e0fe127195d433a0e", "is_reserved": 0, "fusion_lat": 0.0, "lon": -77.033216, "is_disabled": 0, "rental_uris": {"android": "https://dc.lft.to/lastmile_qr_scan", "ios": "https://dc.lft.to/lastmile_qr_scan"}, "bike_id": "74c7d9ace55dcb1e0fe127195d433a0e", "fusion_lon": 0.0, "lat": 38.91322533333334}, {"type": "electric_scooter", "name": "6b36d2069c33868fd42cfc15449fc432", "is_reserved": 0, "fusion_lat": 0.0, "lon": -76.9399055, "is_disabled": 0, "rental_uris": {"android": "https://dc.lft.to/lastmile_qr_scan", "ios": "https://dc.lft.to/lastmile_qr_scan"}, "bike_id": "6b36d2069c33868fd42cfc15449fc432", "fusion_lon": 0.0, "lat": 38.899792166666664}, {"type": "electric_scooter", "name": "2806154c06733dfa84e89af91f605412", "is_reserved": 0, "fusion_lat": 0.0, "lon": -76.98490233333334, "is_disabled": 0, "rental_uris": {"android": "https://dc.lft.to/lastmile_qr_scan", "ios": "https://dc.lft.to/lastmile_qr_scan"}, "bike_id": "2806154c06733dfa84e89af91f605412", "fusion_lon": 0.0, "lat": 38.90390716666667}, {"type": "electric_scooter", "name": "f83e722e773e04571f6b4ec8a440ceeb", "is_reserved": 0, "fusion_lat": 0.0, "lon": -77.04619283333334, "is_disabled": 0, "rental_uris": {"android": "https://dc.lft.to/lastmile_qr_scan", "ios": "https://dc.lft.to/lastmile_qr_scan"}, "bike_id": "f83e722e773e04571f6b4ec8a440ceeb", "fusion_lon": 0.0, "lat": 38.91677083333333}, {"type": "electric_scooter", "name": "48361c0429f241e07b623f50dc84fe5b", "is_reserved": 0, "fusion_lat": 0.0, "lon": -77.001952, "is_disabled": 0, "rental_uris": {"android": "https://dc.lft.to/lastmile_qr_scan", "ios": "https://dc.lft.to/lastmile_qr_scan"}, "bike_id": "48361c0429f241e07b623f50dc84fe5b", "fusion_lon": 0.0, "lat": 38.902382833333334}, {"type": "electric_scooter", "name": "912074fd5152011efee1ce4a83e27f6b", "is_reserved": 0, "fusion_lat": 0.0, "lon": -76.9900965, "is_disabled": 0, "rental_uris": {"android": "https://dc.lft.to/lastmile_qr_scan", "ios": "https://dc.lft.to/lastmile_qr_scan"}, "bike_id": "912074fd5152011efee1ce4a83e27f6b", "fusion_lon": 0.0, "lat": 38.858813166666664}, {"type": "electric_bike", "name": "b2b12a6e14e18da1a9e46a7fdf24a044", "is_reserved": 0, "fusion_lat": 0.0, "lon": -77.183061, "is_disabled": 0, "rental_uris": {"android": "https://dc.lft.to/lastmile_qr_scan", "ios": "https://dc.lft.to/lastmile_qr_scan"}, "bike_id": "b2b12a6e14e18da1a9e46a7fdf24a044", "fusion_lon": 0.0, "lat": 38.8909535}, {"type": "electric_scooter", "name": "0f8d16dc19e4ea0845f7c2b9b9f5502d", "is_reserved": 0, "fusion_lat": 0.0, "lon": -77.03500133333333, "is_disabled": 0, "rental_uris": {"android": "https://dc.lft.to/lastmile_qr_scan", "ios": "https://dc.lft.to/lastmile_qr_scan"}, "bike_id": "0f8d16dc19e4ea0845f7c2b9b9f5502d", "fusion_lon": 0.0, "lat": 38.92334833333334}, {"type": "electric_scooter", "name": "d302a6bf4e4e1b6c2062d788cfcca9b6", "is_reserved": 0, "fusion_lat": 0.0, "lon": -76.95096083333334, "is_disabled": 0, "rental_uris": {"android": "https://dc.lft.to/lastmile_qr_scan", "ios": "https://dc.lft.to/lastmile_qr_scan"}, "bike_id": "d302a6bf4e4e1b6c2062d788cfcca9b6", "fusion_lon": 0.0, "lat": 38.88450533333334}, {"type": "electric_scooter", "name": "dfc097d83133961fe67b6722cf4de38e", "is_reserved": 0, "fusion_lat": 0.0, "lon": -77.01368916666667, "is_disabled": 0, "rental_uris": {"android": "https://dc.lft.to/lastmile_qr_scan", "ios": "https://dc.lft.to/lastmile_qr_scan"}, "bike_id": "dfc097d83133961fe67b6722cf4de38e", "fusion_lon": 0.0, "lat": 38.8870375}, {"type": "electric_scooter", "name": "96a0ca34efa2bc14514d8623ce4969f1", "is_reserved": 0, "fusion_lat": 0.0, "lon": -77.01799466666667, "is_disabled": 0, "rental_uris": {"android": "https://dc.lft.to/lastmile_qr_scan", "ios": "https://dc.lft.to/lastmile_qr_scan"}, "bike_id": "96a0ca34efa2bc14514d8623ce4969f1", "fusion_lon": 0.0, "lat": 38.920226666666665}, {"type": "electric_scooter", "name": "31f42c8a68b7a19b337f077a129e4f77", "is_reserved": 0, "fusion_lat": 0.0, "lon": -77.00383683333334, "is_disabled": 0, "rental_uris": {"android": "https://dc.lft.to/lastmile_qr_scan", "ios": "https://dc.lft.to/lastmile_qr_scan"}, "bike_id": "31f42c8a68b7a19b337f077a129e4f77", "fusion_lon": 0.0, "lat": 38.90735466666667}, {"type": "electric_bike", "name": "8749b19aeb1c05f344503de69f6a3448", "is_reserved": 0, "fusion_lat": 0.0, "lon": -77.012121, "is_disabled": 0, "rental_uris": {"android": "https://dc.lft.to/lastmile_qr_scan", "ios": "https://dc.lft.to/lastmile_qr_scan"}, "bike_id": "8749b19aeb1c05f344503de69f6a3448", "fusion_lon": 0.0, "lat": 38.87094466666667}, {"type": "electric_scooter", "name": "ca259fccfba3bf31f108d5bf458df7d1", "is_reserved": 0, "fusion_lat": 0.0, "lon": -77.04366783333333, "is_disabled": 0, "rental_uris": {"android": "https://dc.lft.to/lastmile_qr_scan", "ios": "https://dc.lft.to/lastmile_qr_scan"}, "bike_id": "ca259fccfba3bf31f108d5bf458df7d1", "fusion_lon": 0.0, "lat": 38.90796666666667}, {"type": "electric_scooter", "name": "9d2463954a712b469277721c4263d906", "is_reserved": 0, "fusion_lat": 0.0, "lon": -77.0422405, "is_disabled": 0, "rental_uris": {"android": "https://dc.lft.to/lastmile_qr_scan", "ios": "https://dc.lft.to/lastmile_qr_scan"}, "bike_id": "9d2463954a712b469277721c4263d906", "fusion_lon": 0.0, "lat": 38.92176416666667}, {"type": "electric_scooter", "name": "6a464d9323ea13ff1733098cf549c659", "is_reserved": 0, "fusion_lat": 0.0, "lon": -77.0308255, "is_disabled": 0, "rental_uris": {"android": "https://dc.lft.to/lastmile_qr_scan", "ios": "https://dc.lft.to/lastmile_qr_scan"}, "bike_id": "6a464d9323ea13ff1733098cf549c659", "fusion_lon": 0.0, "lat": 38.90754616666667}, {"type": "electric_bike", "name": "b180623fa932c264f85a5eba568faeef", "is_reserved": 0, "fusion_lat": 0.0, "lon": -77.0020545, "is_disabled": 0, "rental_uris": {"android": "https://dc.lft.to/lastmile_qr_scan", "ios": "https://dc.lft.to/lastmile_qr_scan"}, "bike_id": "b180623fa932c264f85a5eba568faeef", "fusion_lon": 0.0, "lat": 38.81936616666667}, {"type": "electric_scooter", "name": "aa6f2fe4cfd704911c92909a185b7d97", "is_reserved": 0, "fusion_lat": 0.0, "lon": -76.93364533333333, "is_disabled": 0, "rental_uris": {"android": "https://dc.lft.to/lastmile_qr_scan", "ios": "https://dc.lft.to/lastmile_qr_scan"}, "bike_id": "aa6f2fe4cfd704911c92909a185b7d97", "fusion_lon": 0.0, "lat": 38.8991685}, {"type": "electric_scooter", "name": "26d3e32dc3352ff92ce9b0f1aec059e7", "is_reserved": 0, "fusion_lat": 0.0, "lon": -77.02299683333334, "is_disabled": 0, "rental_uris": {"android": "https://dc.lft.to/lastmile_qr_scan", "ios": "https://dc.lft.to/lastmile_qr_scan"}, "bike_id": "26d3e32dc3352ff92ce9b0f1aec059e7", "fusion_lon": 0.0, "lat": 38.915508}, {"type": "electric_scooter", "name": "748598c254179b5a88e422f33c3afc74", "is_reserved": 0, "fusion_lat": 0.0, "lon": -77.03253, "is_disabled": 0, "rental_uris": {"android": "https://dc.lft.to/lastmile_qr_scan", "ios": "https://dc.lft.to/lastmile_qr_scan"}, "bike_id": "748598c254179b5a88e422f33c3afc74", "fusion_lon": 0.0, "lat": 38.90969316666666}, {"type": "electric_scooter", "name": "d19c75e35e1517413869b11a79e46e16", "is_reserved": 0, "fusion_lat": 0.0, "lon": -77.0005575, "is_disabled": 0, "rental_uris": {"android": "https://dc.lft.to/lastmile_qr_scan", "ios": "https://dc.lft.to/lastmile_qr_scan"}, "bike_id": "d19c75e35e1517413869b11a79e46e16", "fusion_lon": 0.0, "lat": 38.90050166666666}, {"type": "electric_scooter", "name": "1490e091584724e2a1d0264eab69d0d6", "is_reserved": 0, "fusion_lat": 0.0, "lon": -77.02300466666667, "is_disabled": 0, "rental_uris": {"android": "https://dc.lft.to/lastmile_qr_scan", "ios": "https://dc.lft.to/lastmile_qr_scan"}, "bike_id": "1490e091584724e2a1d0264eab69d0d6", "fusion_lon": 0.0, "lat": 38.91677383333333}, {"type": "electric_scooter", "name": "dd121d80885884f09942584af6a8bb67", "is_reserved": 0, "fusion_lat": 0.0, "lon": -77.01996783333334, "is_disabled": 0, "rental_uris": {"android": "https://dc.lft.to/lastmile_qr_scan", "ios": "https://dc.lft.to/lastmile_qr_scan"}, "bike_id": "dd121d80885884f09942584af6a8bb67", "fusion_lon": 0.0, "lat": 38.966285}, {"type": "electric_scooter", "name": "bc9cc71bfc66ede6fee7635f4ccc8bbc", "is_reserved": 0, "fusion_lat": 0.0, "lon": -77.03278916666666, "is_disabled": 0, "rental_uris": {"android": "https://dc.lft.to/lastmile_qr_scan", "ios": "https://dc.lft.to/lastmile_qr_scan"}, "bike_id": "bc9cc71bfc66ede6fee7635f4ccc8bbc", "fusion_lon": 0.0, "lat": 38.937371666666664}, {"type": "electric_scooter", "name": "7d113616d1429e8e02fa9fb057d4e333", "is_reserved": 0, "fusion_lat": 0.0, "lon": -77.05006166666666, "is_disabled": 0, "rental_uris": {"android": "https://dc.lft.to/lastmile_qr_scan", "ios": "https://dc.lft.to/lastmile_qr_scan"}, "bike_id": "7d113616d1429e8e02fa9fb057d4e333", "fusion_lon": 0.0, "lat": 38.89233633333333}, {"type": "electric_scooter", "name": "53ba66827b67eab2539e02eab97a710e", "is_reserved": 0, "fusion_lat": 0.0, "lon": -77.00050016666667, "is_disabled": 0, "rental_uris": {"android": "https://dc.lft.to/lastmile_qr_scan", "ios": "https://dc.lft.to/lastmile_qr_scan"}, "bike_id": "53ba66827b67eab2539e02eab97a710e", "fusion_lon": 0.0, "lat": 38.8812055}, {"type": "electric_scooter", "name": "de6a7c481532d297274a07875e7e9df0", "is_reserved": 0, "fusion_lat": 0.0, "lon": -77.015154, "is_disabled": 0, "rental_uris": {"android": "https://dc.lft.to/lastmile_qr_scan", "ios": "https://dc.lft.to/lastmile_qr_scan"}, "bike_id": "de6a7c481532d297274a07875e7e9df0", "fusion_lon": 0.0, "lat": 38.87709133333333}, {"type": "electric_scooter", "name": "d4a19c398c32dbd34fc0af5ac67decd3", "is_reserved": 0, "fusion_lat": 0.0, "lon": -77.00551016666667, "is_disabled": 0, "rental_uris": {"android": "https://dc.lft.to/lastmile_qr_scan", "ios": "https://dc.lft.to/lastmile_qr_scan"}, "bike_id": "d4a19c398c32dbd34fc0af5ac67decd3", "fusion_lon": 0.0, "lat": 38.9003485}, {"type": "electric_scooter", "name": "c82dbf42a8e9ca0db37347c1c76fa518", "is_reserved": 0, "fusion_lat": 0.0, "lon": -77.02762483333333, "is_disabled": 0, "rental_uris": {"android": "https://dc.lft.to/lastmile_qr_scan", "ios": "https://dc.lft.to/lastmile_qr_scan"}, "bike_id": "c82dbf42a8e9ca0db37347c1c76fa518", "fusion_lon": 0.0, "lat": 38.95427766666667}, {"type": "electric_scooter", "name": "b5c820fb2ba87ace7faf095fe5f75604", "is_reserved": 0, "fusion_lat": 0.0, "lon": -77.04554283333333, "is_disabled": 0, "rental_uris": {"android": "https://dc.lft.to/lastmile_qr_scan", "ios": "https://dc.lft.to/lastmile_qr_scan"}, "bike_id": "b5c820fb2ba87ace7faf095fe5f75604", "fusion_lon": 0.0, "lat": 38.8960685}, {"type": "electric_scooter", "name": "15acd8cb75a49fb3ed0a206b0711169b", "is_reserved": 0, "fusion_lat": 0.0, "lon": -76.933704, "is_disabled": 0, "rental_uris": {"android": "https://dc.lft.to/lastmile_qr_scan", "ios": "https://dc.lft.to/lastmile_qr_scan"}, "bike_id": "15acd8cb75a49fb3ed0a206b0711169b", "fusion_lon": 0.0, "lat": 38.89905816666667}, {"type": "electric_scooter", "name": "417ffea33d367e2ab5e285292fce583b", "is_reserved": 0, "fusion_lat": 0.0, "lon": -77.01900683333334, "is_disabled": 0, "rental_uris": {"android": "https://dc.lft.to/lastmile_qr_scan", "ios": "https://dc.lft.to/lastmile_qr_scan"}, "bike_id": "417ffea33d367e2ab5e285292fce583b", "fusion_lon": 0.0, "lat": 38.92275083333333}, {"type": "electric_scooter", "name": "3403271c572b69f917531ea3e9cf2763", "is_reserved": 0, "fusion_lat": 0.0, "lon": -76.99520833333334, "is_disabled": 0, "rental_uris": {"android": "https://dc.lft.to/lastmile_qr_scan", "ios": "https://dc.lft.to/lastmile_qr_scan"}, "bike_id": "3403271c572b69f917531ea3e9cf2763", "fusion_lon": 0.0, "lat": 38.895466}, {"type": "electric_scooter", "name": "b76ef0b7c5402ca7d078215c4744a1af", "is_reserved": 0, "fusion_lat": 0.0, "lon": -77.03181266666667, "is_disabled": 0, "rental_uris": {"android": "https://dc.lft.to/lastmile_qr_scan", "ios": "https://dc.lft.to/lastmile_qr_scan"}, "bike_id": "b76ef0b7c5402ca7d078215c4744a1af", "fusion_lon": 0.0, "lat": 38.91350466666667}, {"type": "electric_bike", "name": "fa27bc74509b50127ec3a0bc8a66351e", "is_reserved": 0, "fusion_lat": 0.0, "lon": -76.948213, "is_disabled": 0, "rental_uris": {"android": "https://dc.lft.to/lastmile_qr_scan", "ios": "https://dc.lft.to/lastmile_qr_scan"}, "bike_id": "fa27bc74509b50127ec3a0bc8a66351e", "fusion_lon": 0.0, "lat": 38.893843}, {"type": "electric_scooter", "name": "3f0265461c70e32ce99e9d3be56515a2", "is_reserved": 0, "fusion_lat": 0.0, "lon": -77.0179745, "is_disabled": 0, "rental_uris": {"android": "https://dc.lft.to/lastmile_qr_scan", "ios": "https://dc.lft.to/lastmile_qr_scan"}, "bike_id": "3f0265461c70e32ce99e9d3be56515a2", "fusion_lon": 0.0, "lat": 38.87673}, {"type": "electric_scooter", "name": "328514ac5778133dd86d62c30fc13ea1", "is_reserved": 0, "fusion_lat": 0.0, "lon": -76.96778516666667, "is_disabled": 0, "rental_uris": {"android": "https://dc.lft.to/lastmile_qr_scan", "ios": "https://dc.lft.to/lastmile_qr_scan"}, "bike_id": "328514ac5778133dd86d62c30fc13ea1", "fusion_lon": 0.0, "lat": 38.859247833333335}, {"type": "electric_scooter", "name": "90b939c8f5ee08ee2182cb5b721a0c3a", "is_reserved": 0, "fusion_lat": 0.0, "lon": -77.0282415, "is_disabled": 0, "rental_uris": {"android": "https://dc.lft.to/lastmile_qr_scan", "ios": "https://dc.lft.to/lastmile_qr_scan"}, "bike_id": "90b939c8f5ee08ee2182cb5b721a0c3a", "fusion_lon": 0.0, "lat": 38.96082033333333}, {"type": "electric_scooter", "name": "345180e54d2050bb0a213cb60a8cf1e3", "is_reserved": 0, "fusion_lat": 0.0, "lon": -77.07236166666667, "is_disabled": 0, "rental_uris": {"android": "https://dc.lft.to/lastmile_qr_scan", "ios": "https://dc.lft.to/lastmile_qr_scan"}, "bike_id": "345180e54d2050bb0a213cb60a8cf1e3", "fusion_lon": 0.0, "lat": 38.9400565}, {"type": "electric_scooter", "name": "882939e2c5e3a9eaab4748c09d62c66d", "is_reserved": 0, "fusion_lat": 0.0, "lon": -77.01507316666667, "is_disabled": 0, "rental_uris": {"android": "https://dc.lft.to/lastmile_qr_scan", "ios": "https://dc.lft.to/lastmile_qr_scan"}, "bike_id": "882939e2c5e3a9eaab4748c09d62c66d", "fusion_lon": 0.0, "lat": 38.89301666666667}, {"type": "electric_scooter", "name": "bdea274a5970247173cdff4c3df519fd", "is_reserved": 0, "fusion_lat": 0.0, "lon": -76.98376266666666, "is_disabled": 0, "rental_uris": {"android": "https://dc.lft.to/lastmile_qr_scan", "ios": "https://dc.lft.to/lastmile_qr_scan"}, "bike_id": "bdea274a5970247173cdff4c3df519fd", "fusion_lon": 0.0, "lat": 38.86124933333333}, {"type": "electric_scooter", "name": "2939395d618df308f03b10036340f3fa", "is_reserved": 0, "fusion_lat": 0.0, "lon": -77.00169783333334, "is_disabled": 0, "rental_uris": {"android": "https://dc.lft.to/lastmile_qr_scan", "ios": "https://dc.lft.to/lastmile_qr_scan"}, "bike_id": "2939395d618df308f03b10036340f3fa", "fusion_lon": 0.0, "lat": 38.87641966666666}, {"type": "electric_scooter", "name": "b0b81599ea5b6206a7807ede2bd00ec8", "is_reserved": 0, "fusion_lat": 0.0, "lon": -77.00497616666667, "is_disabled": 0, "rental_uris": {"android": "https://dc.lft.to/lastmile_qr_scan", "ios": "https://dc.lft.to/lastmile_qr_scan"}, "bike_id": "b0b81599ea5b6206a7807ede2bd00ec8", "fusion_lon": 0.0, "lat": 38.8970635}, {"type": "electric_scooter", "name": "91c078c99d8c77d2f7e1bca96dcbfcc4", "is_reserved": 0, "fusion_lat": 0.0, "lon": -77.0333795, "is_disabled": 0, "rental_uris": {"android": "https://dc.lft.to/lastmile_qr_scan", "ios": "https://dc.lft.to/lastmile_qr_scan"}, "bike_id": "91c078c99d8c77d2f7e1bca96dcbfcc4", "fusion_lon": 0.0, "lat": 38.897509166666666}, {"type": "electric_scooter", "name": "3faaaafc3e8a530472fc019a732ee708", "is_reserved": 0, "fusion_lat": 0.0, "lon": -77.00905416666667, "is_disabled": 0, "rental_uris": {"android": "https://dc.lft.to/lastmile_qr_scan", "ios": "https://dc.lft.to/lastmile_qr_scan"}, "bike_id": "3faaaafc3e8a530472fc019a732ee708", "fusion_lon": 0.0, "lat": 38.901884333333335}, {"type": "electric_scooter", "name": "80e42800f6b97393e7c52815ee70eee4", "is_reserved": 0, "fusion_lat": 0.0, "lon": -77.01272683333333, "is_disabled": 0, "rental_uris": {"android": "https://dc.lft.to/lastmile_qr_scan", "ios": "https://dc.lft.to/lastmile_qr_scan"}, "bike_id": "80e42800f6b97393e7c52815ee70eee4", "fusion_lon": 0.0, "lat": 38.89741216666667}, {"type": "electric_scooter", "name": "648a70dbd6fe0693f7ccf2e192683f81", "is_reserved": 0, "fusion_lat": 0.0, "lon": -76.9960775, "is_disabled": 0, "rental_uris": {"android": "https://dc.lft.to/lastmile_qr_scan", "ios": "https://dc.lft.to/lastmile_qr_scan"}, "bike_id": "648a70dbd6fe0693f7ccf2e192683f81", "fusion_lon": 0.0, "lat": 38.88556233333333}, {"type": "electric_scooter", "name": "0bfb050aea044866680206da49fc8288", "is_reserved": 0, "fusion_lat": 0.0, "lon": -77.04396733333333, "is_disabled": 0, "rental_uris": {"android": "https://dc.lft.to/lastmile_qr_scan", "ios": "https://dc.lft.to/lastmile_qr_scan"}, "bike_id": "0bfb050aea044866680206da49fc8288", "fusion_lon": 0.0, "lat": 38.91725066666667}, {"type": "electric_scooter", "name": "47331efae2093e2bc3ea55adcf64b32d", "is_reserved": 0, "fusion_lat": 0.0, "lon": -77.00501166666666, "is_disabled": 0, "rental_uris": {"android": "https://dc.lft.to/lastmile_qr_scan", "ios": "https://dc.lft.to/lastmile_qr_scan"}, "bike_id": "47331efae2093e2bc3ea55adcf64b32d", "fusion_lon": 0.0, "lat": 38.9072115}, {"type": "electric_scooter", "name": "77e93e18fe02f7612b87bcf00d0f10e8", "is_reserved": 0, "fusion_lat": 0.0, "lon": -77.0412975, "is_disabled": 0, "rental_uris": {"android": "https://dc.lft.to/lastmile_qr_scan", "ios": "https://dc.lft.to/lastmile_qr_scan"}, "bike_id": "77e93e18fe02f7612b87bcf00d0f10e8", "fusion_lon": 0.0, "lat": 38.933580166666665}, {"type": "electric_scooter", "name": "b3c23f56c014b3beff312bc09d9416b6", "is_reserved": 0, "fusion_lat": 0.0, "lon": -77.043265, "is_disabled": 0, "rental_uris": {"android": "https://dc.lft.to/lastmile_qr_scan", "ios": "https://dc.lft.to/lastmile_qr_scan"}, "bike_id": "b3c23f56c014b3beff312bc09d9416b6", "fusion_lon": 0.0, "lat": 38.904018666666666}, {"type": "electric_scooter", "name": "31244355eafc768fb5c4e5ff17f9c399", "is_reserved": 0, "fusion_lat": 0.0, "lon": -77.03200966666667, "is_disabled": 0, "rental_uris": {"android": "https://dc.lft.to/lastmile_qr_scan", "ios": "https://dc.lft.to/lastmile_qr_scan"}, "bike_id": "31244355eafc768fb5c4e5ff17f9c399", "fusion_lon": 0.0, "lat": 38.91775233333333}, {"type": "electric_scooter", "name": "64030bdefe2809727be77aa472fd666c", "is_reserved": 0, "fusion_lat": 0.0, "lon": -77.040229, "is_disabled": 0, "rental_uris": {"android": "https://dc.lft.to/lastmile_qr_scan", "ios": "https://dc.lft.to/lastmile_qr_scan"}, "bike_id": "64030bdefe2809727be77aa472fd666c", "fusion_lon": 0.0, "lat": 38.900265833333336}, {"type": "electric_scooter", "name": "4e24c88b6ff1f8c85b497a3dea3b1be3", "is_reserved": 0, "fusion_lat": 0.0, "lon": -77.03906583333334, "is_disabled": 0, "rental_uris": {"android": "https://dc.lft.to/lastmile_qr_scan", "ios": "https://dc.lft.to/lastmile_qr_scan"}, "bike_id": "4e24c88b6ff1f8c85b497a3dea3b1be3", "fusion_lon": 0.0, "lat": 38.91830183333333}, {"type": "electric_scooter", "name": "49f95588dfe053825de7b6fcf0b102f4", "is_reserved": 0, "fusion_lat": 0.0, "lon": -76.96528566666667, "is_disabled": 0, "rental_uris": {"android": "https://dc.lft.to/lastmile_qr_scan", "ios": "https://dc.lft.to/lastmile_qr_scan"}, "bike_id": "49f95588dfe053825de7b6fcf0b102f4", "fusion_lon": 0.0, "lat": 38.876296333333336}, {"type": "electric_scooter", "name": "342bf990b74e672fc90699d38492764e", "is_reserved": 0, "fusion_lat": 0.0, "lon": -77.02952566666667, "is_disabled": 0, "rental_uris": {"android": "https://dc.lft.to/lastmile_qr_scan", "ios": "https://dc.lft.to/lastmile_qr_scan"}, "bike_id": "342bf990b74e672fc90699d38492764e", "fusion_lon": 0.0, "lat": 38.92862}, {"type": "electric_scooter", "name": "d25bd18b028496a17e7f03af578cf7ab", "is_reserved": 0, "fusion_lat": 0.0, "lon": -77.03931116666666, "is_disabled": 0, "rental_uris": {"android": "https://dc.lft.to/lastmile_qr_scan", "ios": "https://dc.lft.to/lastmile_qr_scan"}, "bike_id": "d25bd18b028496a17e7f03af578cf7ab", "fusion_lon": 0.0, "lat": 38.91757066666667}, {"type": "electric_scooter", "name": "b234b70162f904d1b0d4ed59362ea3af", "is_reserved": 0, "fusion_lat": 0.0, "lon": -77.0288515, "is_disabled": 0, "rental_uris": {"android": "https://dc.lft.to/lastmile_qr_scan", "ios": "https://dc.lft.to/lastmile_qr_scan"}, "bike_id": "b234b70162f904d1b0d4ed59362ea3af", "fusion_lon": 0.0, "lat": 38.916980833333334}, {"type": "electric_scooter", "name": "a32996bebd27867f61378cf10621eb1a", "is_reserved": 0, "fusion_lat": 0.0, "lon": -77.02343016666667, "is_disabled": 0, "rental_uris": {"android": "https://dc.lft.to/lastmile_qr_scan", "ios": "https://dc.lft.to/lastmile_qr_scan"}, "bike_id": "a32996bebd27867f61378cf10621eb1a", "fusion_lon": 0.0, "lat": 38.908333666666664}, {"type": "electric_scooter", "name": "0905a5ccd105c3bb1a3fd45066478178", "is_reserved": 0, "fusion_lat": 0.0, "lon": -77.024179, "is_disabled": 0, "rental_uris": {"android": "https://dc.lft.to/lastmile_qr_scan", "ios": "https://dc.lft.to/lastmile_qr_scan"}, "bike_id": "0905a5ccd105c3bb1a3fd45066478178", "fusion_lon": 0.0, "lat": 38.89629166666667}, {"type": "electric_scooter", "name": "33d31bbb60178c06f7119166c265a852", "is_reserved": 0, "fusion_lat": 0.0, "lon": -77.03239316666667, "is_disabled": 0, "rental_uris": {"android": "https://dc.lft.to/lastmile_qr_scan", "ios": "https://dc.lft.to/lastmile_qr_scan"}, "bike_id": "33d31bbb60178c06f7119166c265a852", "fusion_lon": 0.0, "lat": 38.926336166666665}, {"type": "electric_scooter", "name": "3a9178ef7266d88ea828dea25502a726", "is_reserved": 0, "fusion_lat": 0.0, "lon": -77.023286, "is_disabled": 0, "rental_uris": {"android": "https://dc.lft.to/lastmile_qr_scan", "ios": "https://dc.lft.to/lastmile_qr_scan"}, "bike_id": "3a9178ef7266d88ea828dea25502a726", "fusion_lon": 0.0, "lat": 38.936003}, {"type": "electric_scooter", "name": "7d815e651d23a1494453ca9ad3f1451a", "is_reserved": 0, "fusion_lat": 0.0, "lon": -77.02392983333333, "is_disabled": 0, "rental_uris": {"android": "https://dc.lft.to/lastmile_qr_scan", "ios": "https://dc.lft.to/lastmile_qr_scan"}, "bike_id": "7d815e651d23a1494453ca9ad3f1451a", "fusion_lon": 0.0, "lat": 38.89251483333334}, {"type": "electric_scooter", "name": "ab083e3baf7320a78b2b32322fab1dc6", "is_reserved": 0, "fusion_lat": 0.0, "lon": -77.03271616666666, "is_disabled": 0, "rental_uris": {"android": "https://dc.lft.to/lastmile_qr_scan", "ios": "https://dc.lft.to/lastmile_qr_scan"}, "bike_id": "ab083e3baf7320a78b2b32322fab1dc6", "fusion_lon": 0.0, "lat": 38.92783683333333}, {"type": "electric_scooter", "name": "018604a73760045165a6ed4c2c2e8476", "is_reserved": 0, "fusion_lat": 0.0, "lon": -77.0410115, "is_disabled": 0, "rental_uris": {"android": "https://dc.lft.to/lastmile_qr_scan", "ios": "https://dc.lft.to/lastmile_qr_scan"}, "bike_id": "018604a73760045165a6ed4c2c2e8476", "fusion_lon": 0.0, "lat": 38.927978}, {"type": "electric_scooter", "name": "f0ce4d2fe22831543955dafb65823b45", "is_reserved": 0, "fusion_lat": 0.0, "lon": -77.04558683333333, "is_disabled": 0, "rental_uris": {"android": "https://dc.lft.to/lastmile_qr_scan", "ios": "https://dc.lft.to/lastmile_qr_scan"}, "bike_id": "f0ce4d2fe22831543955dafb65823b45", "fusion_lon": 0.0, "lat": 38.917651}, {"type": "electric_scooter", "name": "20d6fd59115fd73f9458c1d33f6dd079", "is_reserved": 0, "fusion_lat": 0.0, "lon": -77.04163833333334, "is_disabled": 0, "rental_uris": {"android": "https://dc.lft.to/lastmile_qr_scan", "ios": "https://dc.lft.to/lastmile_qr_scan"}, "bike_id": "20d6fd59115fd73f9458c1d33f6dd079", "fusion_lon": 0.0, "lat": 38.919484833333335}, {"type": "electric_scooter", "name": "3796f0c368cb5ccb101dc8ca11e6ffb5", "is_reserved": 0, "fusion_lat": 0.0, "lon": -77.025748, "is_disabled": 0, "rental_uris": {"android": "https://dc.lft.to/lastmile_qr_scan", "ios": "https://dc.lft.to/lastmile_qr_scan"}, "bike_id": "3796f0c368cb5ccb101dc8ca11e6ffb5", "fusion_lon": 0.0, "lat": 38.919110833333335}, {"type": "electric_scooter", "name": "4e378989fadd37a1aaf6dc8925f82f5d", "is_reserved": 0, "fusion_lat": 0.0, "lon": -77.0247055, "is_disabled": 0, "rental_uris": {"android": "https://dc.lft.to/lastmile_qr_scan", "ios": "https://dc.lft.to/lastmile_qr_scan"}, "bike_id": "4e378989fadd37a1aaf6dc8925f82f5d", "fusion_lon": 0.0, "lat": 38.93300033333333}, {"type": "electric_scooter", "name": "e43fb05148fdc1149017124fb84b0124", "is_reserved": 0, "fusion_lat": 0.0, "lon": -77.009219, "is_disabled": 0, "rental_uris": {"android": "https://dc.lft.to/lastmile_qr_scan", "ios": "https://dc.lft.to/lastmile_qr_scan"}, "bike_id": "e43fb05148fdc1149017124fb84b0124", "fusion_lon": 0.0, "lat": 38.89559333333333}, {"type": "electric_scooter", "name": "339e7fef097a9ed45ca61b776b8b9bc1", "is_reserved": 0, "fusion_lat": 0.0, "lon": -77.03356516666666, "is_disabled": 0, "rental_uris": {"android": "https://dc.lft.to/lastmile_qr_scan", "ios": "https://dc.lft.to/lastmile_qr_scan"}, "bike_id": "339e7fef097a9ed45ca61b776b8b9bc1", "fusion_lon": 0.0, "lat": 38.907220333333335}, {"type": "electric_scooter", "name": "e3b5c0fc1c28e4f8906fe2853509dc30", "is_reserved": 0, "fusion_lat": 0.0, "lon": -77.01345383333333, "is_disabled": 0, "rental_uris": {"android": "https://dc.lft.to/lastmile_qr_scan", "ios": "https://dc.lft.to/lastmile_qr_scan"}, "bike_id": "e3b5c0fc1c28e4f8906fe2853509dc30", "fusion_lon": 0.0, "lat": 38.89915}, {"type": "electric_scooter", "name": "31725acfc9c3f5f50377f76a24c0d3eb", "is_reserved": 0, "fusion_lat": 0.0, "lon": -77.0212955, "is_disabled": 0, "rental_uris": {"android": "https://dc.lft.to/lastmile_qr_scan", "ios": "https://dc.lft.to/lastmile_qr_scan"}, "bike_id": "31725acfc9c3f5f50377f76a24c0d3eb", "fusion_lon": 0.0, "lat": 38.924163}, {"type": "electric_scooter", "name": "4d23056ca9e54b81e01fb4bc28a7ba7a", "is_reserved": 0, "fusion_lat": 0.0, "lon": -77.03054116666667, "is_disabled": 0, "rental_uris": {"android": "https://dc.lft.to/lastmile_qr_scan", "ios": "https://dc.lft.to/lastmile_qr_scan"}, "bike_id": "4d23056ca9e54b81e01fb4bc28a7ba7a", "fusion_lon": 0.0, "lat": 38.88415}, {"type": "electric_scooter", "name": "f9b768793fec1f2a2d6f3ae3cec260a0", "is_reserved": 0, "fusion_lat": 0.0, "lon": -77.051143, "is_disabled": 0, "rental_uris": {"android": "https://dc.lft.to/lastmile_qr_scan", "ios": "https://dc.lft.to/lastmile_qr_scan"}, "bike_id": "f9b768793fec1f2a2d6f3ae3cec260a0", "fusion_lon": 0.0, "lat": 38.923454666666665}, {"type": "electric_scooter", "name": "22ebd45b7d5152492c45ddaca6f7e1a8", "is_reserved": 0, "fusion_lat": 0.0, "lon": -77.0320975, "is_disabled": 0, "rental_uris": {"android": "https://dc.lft.to/lastmile_qr_scan", "ios": "https://dc.lft.to/lastmile_qr_scan"}, "bike_id": "22ebd45b7d5152492c45ddaca6f7e1a8", "fusion_lon": 0.0, "lat": 38.9089735}, {"type": "electric_scooter", "name": "1355a5f3d71e979629a235b1440a76fb", "is_reserved": 0, "fusion_lat": 0.0, "lon": -77.03472983333333, "is_disabled": 0, "rental_uris": {"android": "https://dc.lft.to/lastmile_qr_scan", "ios": "https://dc.lft.to/lastmile_qr_scan"}, "bike_id": "1355a5f3d71e979629a235b1440a76fb", "fusion_lon": 0.0, "lat": 38.92540116666667}, {"type": "electric_scooter", "name": "94373dc6148d05a0f7652e445e7a38cd", "is_reserved": 0, "fusion_lat": 0.0, "lon": -77.04249566666667, "is_disabled": 0, "rental_uris": {"android": "https://dc.lft.to/lastmile_qr_scan", "ios": "https://dc.lft.to/lastmile_qr_scan"}, "bike_id": "94373dc6148d05a0f7652e445e7a38cd", "fusion_lon": 0.0, "lat": 38.9071515}, {"type": "electric_scooter", "name": "64e23bc5c9e2240cf9f5e3a25f369888", "is_reserved": 0, "fusion_lat": 0.0, "lon": -77.02199283333333, "is_disabled": 0, "rental_uris": {"android": "https://dc.lft.to/lastmile_qr_scan", "ios": "https://dc.lft.to/lastmile_qr_scan"}, "bike_id": "64e23bc5c9e2240cf9f5e3a25f369888", "fusion_lon": 0.0, "lat": 38.909518166666665}, {"type": "electric_scooter", "name": "6aa73a7e2642098745624b42edfb75e2", "is_reserved": 0, "fusion_lat": 0.0, "lon": -76.9325965, "is_disabled": 0, "rental_uris": {"android": "https://dc.lft.to/lastmile_qr_scan", "ios": "https://dc.lft.to/lastmile_qr_scan"}, "bike_id": "6aa73a7e2642098745624b42edfb75e2", "fusion_lon": 0.0, "lat": 38.898957833333334}, {"type": "electric_scooter", "name": "1c1d41d712043806ed3f8262e417f5a2", "is_reserved": 0, "fusion_lat": 0.0, "lon": -77.02461583333333, "is_disabled": 0, "rental_uris": {"android": "https://dc.lft.to/lastmile_qr_scan", "ios": "https://dc.lft.to/lastmile_qr_scan"}, "bike_id": "1c1d41d712043806ed3f8262e417f5a2", "fusion_lon": 0.0, "lat": 38.89732133333333}, {"type": "electric_scooter", "name": "6daa559a2405aaf61c4241769b7d1b24", "is_reserved": 0, "fusion_lat": 0.0, "lon": -77.0305995, "is_disabled": 0, "rental_uris": {"android": "https://dc.lft.to/lastmile_qr_scan", "ios": "https://dc.lft.to/lastmile_qr_scan"}, "bike_id": "6daa559a2405aaf61c4241769b7d1b24", "fusion_lon": 0.0, "lat": 38.884122166666664}, {"type": "electric_scooter", "name": "656314f4e04ea159f0ba59b05bd21d7b", "is_reserved": 0, "fusion_lat": 0.0, "lon": -77.039187, "is_disabled": 0, "rental_uris": {"android": "https://dc.lft.to/lastmile_qr_scan", "ios": "https://dc.lft.to/lastmile_qr_scan"}, "bike_id": "656314f4e04ea159f0ba59b05bd21d7b", "fusion_lon": 0.0, "lat": 38.91271016666666}, {"type": "electric_scooter", "name": "ac09fdab9753b6cd74bfa7b10ac007d5", "is_reserved": 0, "fusion_lat": 0.0, "lon": -77.0173445, "is_disabled": 0, "rental_uris": {"android": "https://dc.lft.to/lastmile_qr_scan", "ios": "https://dc.lft.to/lastmile_qr_scan"}, "bike_id": "ac09fdab9753b6cd74bfa7b10ac007d5", "fusion_lon": 0.0, "lat": 38.883385}, {"type": "electric_scooter", "name": "81d22e4e11f417bec61de574fab6f898", "is_reserved": 0, "fusion_lat": 0.0, "lon": -77.04692616666667, "is_disabled": 0, "rental_uris": {"android": "https://dc.lft.to/lastmile_qr_scan", "ios": "https://dc.lft.to/lastmile_qr_scan"}, "bike_id": "81d22e4e11f417bec61de574fab6f898", "fusion_lon": 0.0, "lat": 38.9216095}, {"type": "electric_scooter", "name": "27448910e28061693ca618cdde283c2a", "is_reserved": 0, "fusion_lat": 0.0, "lon": -77.003744, "is_disabled": 0, "rental_uris": {"android": "https://dc.lft.to/lastmile_qr_scan", "ios": "https://dc.lft.to/lastmile_qr_scan"}, "bike_id": "27448910e28061693ca618cdde283c2a", "fusion_lon": 0.0, "lat": 38.89730016666667}, {"type": "electric_scooter", "name": "bca31f4edba290c6b01d24b40524ef4f", "is_reserved": 0, "fusion_lat": 0.0, "lon": -77.05337233333333, "is_disabled": 0, "rental_uris": {"android": "https://dc.lft.to/lastmile_qr_scan", "ios": "https://dc.lft.to/lastmile_qr_scan"}, "bike_id": "bca31f4edba290c6b01d24b40524ef4f", "fusion_lon": 0.0, "lat": 38.90003083333333}, {"type": "electric_scooter", "name": "d8e2d5a24f94e252aac54b083a55b59c", "is_reserved": 0, "fusion_lat": 0.0, "lon": -77.04332966666666, "is_disabled": 0, "rental_uris": {"android": "https://dc.lft.to/lastmile_qr_scan", "ios": "https://dc.lft.to/lastmile_qr_scan"}, "bike_id": "d8e2d5a24f94e252aac54b083a55b59c", "fusion_lon": 0.0, "lat": 38.90043633333333}, {"type": "electric_scooter", "name": "11c119dd71cb9b0af199eb5c025de2be", "is_reserved": 0, "fusion_lat": 0.0, "lon": -77.032008, "is_disabled": 0, "rental_uris": {"android": "https://dc.lft.to/lastmile_qr_scan", "ios": "https://dc.lft.to/lastmile_qr_scan"}, "bike_id": "11c119dd71cb9b0af199eb5c025de2be", "fusion_lon": 0.0, "lat": 38.8999445}, {"type": "electric_scooter", "name": "eccbb8a57eb54c9ef25627b8677bbb91", "is_reserved": 0, "fusion_lat": 0.0, "lon": -77.04310866666667, "is_disabled": 0, "rental_uris": {"android": "https://dc.lft.to/lastmile_qr_scan", "ios": "https://dc.lft.to/lastmile_qr_scan"}, "bike_id": "eccbb8a57eb54c9ef25627b8677bbb91", "fusion_lon": 0.0, "lat": 38.92323966666667}, {"type": "electric_scooter", "name": "de5d6f55ea1395736bef5b2d4cad3c4a", "is_reserved": 0, "fusion_lat": 0.0, "lon": -77.021056, "is_disabled": 0, "rental_uris": {"android": "https://dc.lft.to/lastmile_qr_scan", "ios": "https://dc.lft.to/lastmile_qr_scan"}, "bike_id": "de5d6f55ea1395736bef5b2d4cad3c4a", "fusion_lon": 0.0, "lat": 38.927113}, {"type": "electric_scooter", "name": "cef35cc830d54a50fbbb9d3ce07af3e7", "is_reserved": 0, "fusion_lat": 0.0, "lon": -76.99774016666667, "is_disabled": 0, "rental_uris": {"android": "https://dc.lft.to/lastmile_qr_scan", "ios": "https://dc.lft.to/lastmile_qr_scan"}, "bike_id": "cef35cc830d54a50fbbb9d3ce07af3e7", "fusion_lon": 0.0, "lat": 38.84431433333334}, {"type": "electric_scooter", "name": "03a70535557a9d66c578ed232f423d43", "is_reserved": 0, "fusion_lat": 0.0, "lon": -77.01170216666667, "is_disabled": 0, "rental_uris": {"android": "https://dc.lft.to/lastmile_qr_scan", "ios": "https://dc.lft.to/lastmile_qr_scan"}, "bike_id": "03a70535557a9d66c578ed232f423d43", "fusion_lon": 0.0, "lat": 38.91564433333333}, {"type": "electric_scooter", "name": "05951810d64c0cc68483936657e45312", "is_reserved": 0, "fusion_lat": 0.0, "lon": -76.99546283333333, "is_disabled": 0, "rental_uris": {"android": "https://dc.lft.to/lastmile_qr_scan", "ios": "https://dc.lft.to/lastmile_qr_scan"}, "bike_id": "05951810d64c0cc68483936657e45312", "fusion_lon": 0.0, "lat": 38.8626055}, {"type": "electric_scooter", "name": "6463bac1982ba3f4e102d3a9b505fe2b", "is_reserved": 0, "fusion_lat": 0.0, "lon": -77.01168333333334, "is_disabled": 0, "rental_uris": {"android": "https://dc.lft.to/lastmile_qr_scan", "ios": "https://dc.lft.to/lastmile_qr_scan"}, "bike_id": "6463bac1982ba3f4e102d3a9b505fe2b", "fusion_lon": 0.0, "lat": 38.916939666666664}, {"type": "electric_scooter", "name": "a3b3d55266d11a66dd01ae60df9f0ab9", "is_reserved": 0, "fusion_lat": 0.0, "lon": -76.9903445, "is_disabled": 0, "rental_uris": {"android": "https://dc.lft.to/lastmile_qr_scan", "ios": "https://dc.lft.to/lastmile_qr_scan"}, "bike_id": "a3b3d55266d11a66dd01ae60df9f0ab9", "fusion_lon": 0.0, "lat": 38.902894333333336}, {"type": "electric_scooter", "name": "82c6a5c52195a9724f137d70773e6607", "is_reserved": 0, "fusion_lat": 0.0, "lon": -77.02475316666667, "is_disabled": 0, "rental_uris": {"android": "https://dc.lft.to/lastmile_qr_scan", "ios": "https://dc.lft.to/lastmile_qr_scan"}, "bike_id": "82c6a5c52195a9724f137d70773e6607", "fusion_lon": 0.0, "lat": 38.930969166666664}, {"type": "electric_scooter", "name": "b32a057188f83f505f63cdf3c194822a", "is_reserved": 0, "fusion_lat": 0.0, "lon": -77.0437265, "is_disabled": 0, "rental_uris": {"android": "https://dc.lft.to/lastmile_qr_scan", "ios": "https://dc.lft.to/lastmile_qr_scan"}, "bike_id": "b32a057188f83f505f63cdf3c194822a", "fusion_lon": 0.0, "lat": 38.898485}, {"type": "electric_bike", "name": "22d34bf67bcabd10a5a890b113c17c4f", "is_reserved": 0, "fusion_lat": 0.0, "lon": -77.08578683333333, "is_disabled": 0, "rental_uris": {"android": "https://dc.lft.to/lastmile_qr_scan", "ios": "https://dc.lft.to/lastmile_qr_scan"}, "bike_id": "22d34bf67bcabd10a5a890b113c17c4f", "fusion_lon": 0.0, "lat": 38.84427816666667}, {"type": "electric_bike", "name": "adec9ef174538578c41f173eee38816d", "is_reserved": 0, "fusion_lat": 0.0, "lon": -77.12074733333333, "is_disabled": 0, "rental_uris": {"android": "https://dc.lft.to/lastmile_qr_scan", "ios": "https://dc.lft.to/lastmile_qr_scan"}, "bike_id": "adec9ef174538578c41f173eee38816d", "fusion_lon": 0.0, "lat": 38.85419483333333}, {"type": "electric_scooter", "name": "2c5fd3c1384257bab6cd3c17b9bd91e9", "is_reserved": 0, "fusion_lat": 0.0, "lon": -77.04250333333333, "is_disabled": 0, "rental_uris": {"android": "https://dc.lft.to/lastmile_qr_scan", "ios": "https://dc.lft.to/lastmile_qr_scan"}, "bike_id": "2c5fd3c1384257bab6cd3c17b9bd91e9", "fusion_lon": 0.0, "lat": 38.9206135}, {"type": "electric_scooter", "name": "9716ba76aef990437164847644635446", "is_reserved": 0, "fusion_lat": 0.0, "lon": -77.06331283333333, "is_disabled": 0, "rental_uris": {"android": "https://dc.lft.to/lastmile_qr_scan", "ios": "https://dc.lft.to/lastmile_qr_scan"}, "bike_id": "9716ba76aef990437164847644635446", "fusion_lon": 0.0, "lat": 38.944216}, {"type": "electric_scooter", "name": "6451b1156d769800d971d8341fac2490", "is_reserved": 0, "fusion_lat": 0.0, "lon": -76.99060866666667, "is_disabled": 0, "rental_uris": {"android": "https://dc.lft.to/lastmile_qr_scan", "ios": "https://dc.lft.to/lastmile_qr_scan"}, "bike_id": "6451b1156d769800d971d8341fac2490", "fusion_lon": 0.0, "lat": 38.86353}, {"type": "electric_scooter", "name": "5ba12326d49efa7755add4475abaa6a1", "is_reserved": 0, "fusion_lat": 0.0, "lon": -77.0317095, "is_disabled": 0, "rental_uris": {"android": "https://dc.lft.to/lastmile_qr_scan", "ios": "https://dc.lft.to/lastmile_qr_scan"}, "bike_id": "5ba12326d49efa7755add4475abaa6a1", "fusion_lon": 0.0, "lat": 38.91557566666667}, {"type": "electric_scooter", "name": "53772352b61d4de0f106143bf7af9a9a", "is_reserved": 0, "fusion_lat": 0.0, "lon": -77.07258116666667, "is_disabled": 0, "rental_uris": {"android": "https://dc.lft.to/lastmile_qr_scan", "ios": "https://dc.lft.to/lastmile_qr_scan"}, "bike_id": "53772352b61d4de0f106143bf7af9a9a", "fusion_lon": 0.0, "lat": 38.93522633333333}, {"type": "electric_bike", "name": "8cad19d8e2fe73dcd0902206be7b8ba1", "is_reserved": 0, "fusion_lat": 0.0, "lon": -76.92202316666666, "is_disabled": 0, "rental_uris": {"android": "https://dc.lft.to/lastmile_qr_scan", "ios": "https://dc.lft.to/lastmile_qr_scan"}, "bike_id": "8cad19d8e2fe73dcd0902206be7b8ba1", "fusion_lon": 0.0, "lat": 38.89501583333333}, {"type": "electric_scooter", "name": "bd998482d0e918a343331520b1235f72", "is_reserved": 0, "fusion_lat": 0.0, "lon": -76.9825255, "is_disabled": 0, "rental_uris": {"android": "https://dc.lft.to/lastmile_qr_scan", "ios": "https://dc.lft.to/lastmile_qr_scan"}, "bike_id": "bd998482d0e918a343331520b1235f72", "fusion_lon": 0.0, "lat": 38.90450883333333}, {"type": "electric_scooter", "name": "268d6c2545f61b2fb6e5ea7d761c0324", "is_reserved": 0, "fusion_lat": 0.0, "lon": -76.9375785, "is_disabled": 0, "rental_uris": {"android": "https://dc.lft.to/lastmile_qr_scan", "ios": "https://dc.lft.to/lastmile_qr_scan"}, "bike_id": "268d6c2545f61b2fb6e5ea7d761c0324", "fusion_lon": 0.0, "lat": 38.890435833333335}, {"type": "electric_bike", "name": "508c5613825a78d0b1964b2bd79c9c1b", "is_reserved": 0, "fusion_lat": 0.0, "lon": -77.22573383333334, "is_disabled": 0, "rental_uris": {"android": "https://dc.lft.to/lastmile_qr_scan", "ios": "https://dc.lft.to/lastmile_qr_scan"}, "bike_id": "508c5613825a78d0b1964b2bd79c9c1b", "fusion_lon": 0.0, "lat": 38.92960083333333}, {"type": "electric_scooter", "name": "521aff11f501c8b8c857c18b2088d786", "is_reserved": 0, "fusion_lat": 0.0, "lon": -77.04317933333333, "is_disabled": 0, "rental_uris": {"android": "https://dc.lft.to/lastmile_qr_scan", "ios": "https://dc.lft.to/lastmile_qr_scan"}, "bike_id": "521aff11f501c8b8c857c18b2088d786", "fusion_lon": 0.0, "lat": 38.9265625}, {"type": "electric_scooter", "name": "34af8f2f9e6448cf64230352a9e6552e", "is_reserved": 0, "fusion_lat": 0.0, "lon": -77.00853383333333, "is_disabled": 0, "rental_uris": {"android": "https://dc.lft.to/lastmile_qr_scan", "ios": "https://dc.lft.to/lastmile_qr_scan"}, "bike_id": "34af8f2f9e6448cf64230352a9e6552e", "fusion_lon": 0.0, "lat": 38.899658333333335}, {"type": "electric_scooter", "name": "40045543f9f163aafbfc5f3c84a68702", "is_reserved": 0, "fusion_lat": 0.0, "lon": -77.040737, "is_disabled": 0, "rental_uris": {"android": "https://dc.lft.to/lastmile_qr_scan", "ios": "https://dc.lft.to/lastmile_qr_scan"}, "bike_id": "40045543f9f163aafbfc5f3c84a68702", "fusion_lon": 0.0, "lat": 38.917754}, {"type": "electric_scooter", "name": "4c066c8ed75418df0c8f280bec6b1e2c", "is_reserved": 0, "fusion_lat": 0.0, "lon": -77.05126066666666, "is_disabled": 0, "rental_uris": {"android": "https://dc.lft.to/lastmile_qr_scan", "ios": "https://dc.lft.to/lastmile_qr_scan"}, "bike_id": "4c066c8ed75418df0c8f280bec6b1e2c", "fusion_lon": 0.0, "lat": 38.923440666666664}, {"type": "electric_scooter", "name": "0095c14d8568a33b787d0151e30faeeb", "is_reserved": 0, "fusion_lat": 0.0, "lon": -77.0022405, "is_disabled": 0, "rental_uris": {"android": "https://dc.lft.to/lastmile_qr_scan", "ios": "https://dc.lft.to/lastmile_qr_scan"}, "bike_id": "0095c14d8568a33b787d0151e30faeeb", "fusion_lon": 0.0, "lat": 38.887291}, {"type": "electric_scooter", "name": "f8d75362d293387340148f75d99fb0af", "is_reserved": 0, "fusion_lat": 0.0, "lon": -77.023647, "is_disabled": 0, "rental_uris": {"android": "https://dc.lft.to/lastmile_qr_scan", "ios": "https://dc.lft.to/lastmile_qr_scan"}, "bike_id": "f8d75362d293387340148f75d99fb0af", "fusion_lon": 0.0, "lat": 38.896266833333335}, {"type": "electric_scooter", "name": "ee1f837fd858d5aa1cc50cefe70bdfa4", "is_reserved": 0, "fusion_lat": 0.0, "lon": -77.02202883333334, "is_disabled": 0, "rental_uris": {"android": "https://dc.lft.to/lastmile_qr_scan", "ios": "https://dc.lft.to/lastmile_qr_scan"}, "bike_id": "ee1f837fd858d5aa1cc50cefe70bdfa4", "fusion_lon": 0.0, "lat": 38.909564333333336}, {"type": "electric_scooter", "name": "54e54e1fcf45ce18da32f20efb48557d", "is_reserved": 0, "fusion_lat": 0.0, "lon": -76.988833, "is_disabled": 0, "rental_uris": {"android": "https://dc.lft.to/lastmile_qr_scan", "ios": "https://dc.lft.to/lastmile_qr_scan"}, "bike_id": "54e54e1fcf45ce18da32f20efb48557d", "fusion_lon": 0.0, "lat": 38.866506333333334},