{"data": {"bikes": [{"name": "832806c624706c7c2038d42280484555", "fusion_lat": 0.0, "type": "electric_scooter", "lat": 38.87476016666667, "is_reserved": 0, "is_disabled": 0, "fusion_lon": 0.0, "bike_id": "832806c624706c7c2038d42280484555", "lon": -77.01063816666667, "rental_uris": {"ios": "https://dc.lft.to/lastmile_qr_scan", "android": "https://dc.lft.to/lastmile_qr_scan"}}, {"name": "83118fa121facd5419f80705700cdcc7", "fusion_lat": 0.0, "type": "electric_scooter", "lat": 38.9039305, "is_reserved": 0, "is_disabled": 0, "fusion_lon": 0.0, "bike_id": "83118fa121facd5419f80705700cdcc7", "lon": -76.9893845, "rental_uris": {"ios": "https://dc.lft.to/lastmile_qr_scan", "android": "https://dc.lft.to/lastmile_qr_scan"}}, {"name": "53d7cb55f1b5d2772ac10ce06bd0dbf0", "fusion_lat": 0.0, "type": "electric_bike", "lat": 38.896489833333334, "is_reserved": 0, "is_disabled": 0, "fusion_lon": 0.0, "bike_id": "53d7cb55f1b5d2772ac10ce06bd0dbf0", "lon": -77.10452233333334, "rental_uris": {"ios": "https://dc.lft.to/lastmile_qr_scan", "android": "https://dc.lft.to/lastmile_qr_scan"}}, {"name": "8d7a7572ff11932e785a74be621d4e8c", "fusion_lat": 0.0, "type": "electric_scooter", "lat": 38.89668066666667, "is_reserved": 0, "is_disabled": 0, "fusion_lon": 0.0, "bike_id": "8d7a7572ff11932e785a74be621d4e8c", "lon": -76.94729066666666, "rental_uris": {"ios": "https://dc.lft.to/lastmile_qr_scan", "android": "https://dc.lft.to/lastmile_qr_scan"}}, {"name": "db6ba056cd6c72a20f9dfbb22283decf", "fusion_lat": 0.0, "type": "electric_scooter", "lat": 38.91112616666667, "is_reserved": 0, "is_disabled": 0, "fusion_lon": 0.0, "bike_id": "db6ba056cd6c72a20f9dfbb22283decf", "lon": -77.0450205, "rental_uris": {"ios": "https://dc.lft.to/lastmile_qr_scan", "android": "https://dc.lft.to/lastmile_qr_scan"}}, {"name": "9291a59d416efd4d37827e7592c7d19c", "fusion_lat": 0.0, "type": "electric_scooter", "lat": 38.91414183333333, "is_reserved": 0, "is_disabled": 0, "fusion_lon": 0.0, "bike_id": "9291a59d416efd4d37827e7592c7d19c", "lon": -77.00977466666667, "rental_uris": {"ios": "https://dc.lft.to/lastmile_qr_scan", "android": "https://dc.lft.to/lastmile_qr_scan"}}, {"name": "f8dc88e8fa9d5630130da53aaa24b57a", "fusion_lat": 0.0, "type": "electric_scooter", "lat": 38.9134995, "is_reserved": 0, "is_disabled": 0, "fusion_lon": 0.0, "bike_id": "f8dc88e8fa9d5630130da53aaa24b57a", "lon": -77.03953033333333, "rental_uris": {"ios": "https://dc.lft.to/lastmile_qr_scan", "android": "https://dc.lft.to/lastmile_qr_scan"}}, {"name": "2e3f36c70391269afed249c3998ad2fb", "fusion_lat": 0.0, "type": "electric_scooter", "lat": 38.92353966666667, "is_reserved": 0, "is_disabled": 0, "fusion_lon": 0.0, "bike_id": "2e3f36c70391269afed249c3998ad2fb", "lon": -77.05059583333333, "rental_uris": {"ios": "https://dc.lft.to/lastmile_qr_scan", "android": "https://dc.lft.to/lastmile_qr_scan"}}, {"name": "b4efe0179140dbeb11f0f4b993b11894", "fusion_lat": 0.0, "type": "electric_bike", "lat": 38.868695, "is_reserved": 0, "is_disabled": 0, "fusion_lon": 0.0, "bike_id": "b4efe0179140dbeb11f0f4b993b11894", "lon": -76.916639, "rental_uris": {"ios": "https://dc.lft.to/lastmile_qr_scan", "android": "https://dc.lft.to/lastmile_qr_scan"}}, {"name": "4ca91c9ce72fb5f6aba90c407c63d257", "fusion_lat": 0.0, "type": "electric_scooter", "lat": 38.904180833333335, "is_reserved": 0, "is_disabled": 0, "fusion_lon": 0.0, "bike_id": "4ca91c9ce72fb5f6aba90c407c63d257", "lon": -76.97889916666666, "rental_uris": {"ios": "https://dc.lft.to/lastmile_qr_scan", "android": "https://dc.lft.to/lastmile_qr_scan"}}, {"name": "1a00fe0fba82ddf60e958366407b0034", "fusion_lat": 0.0, "type": "electric_bike", "lat": 38.95954316666667, "is_reserved": 0, "is_disabled": 0, "fusion_lon": 0.0, "bike_id": "1a00fe0fba82ddf60e958366407b0034", "lon": -77.10088, "rental_uris": {"ios": "https://dc.lft.to/lastmile_qr_scan", "android": "https://dc.lft.to/lastmile_qr_scan"}}, {"name": "1976bd9c73603b5740ed9114e9efa5a2", "fusion_lat": 0.0, "type": "electric_scooter", "lat": 38.91851916666667, "is_reserved": 0, "is_disabled": 0, "fusion_lon": 0.0, "bike_id": "1976bd9c73603b5740ed9114e9efa5a2", "lon": -77.0260015, "rental_uris": {"ios": "https://dc.lft.to/lastmile_qr_scan", "android": "https://dc.lft.to/lastmile_qr_scan"}}, {"name": "783e847e9d14017a0ad58b3149bf7167", "fusion_lat": 0.0, "type": "electric_scooter", "lat": 38.895071333333334, "is_reserved": 0, "is_disabled": 0, "fusion_lon": 0.0, "bike_id": "783e847e9d14017a0ad58b3149bf7167", "lon": -76.99156033333334, "rental_uris": {"ios": "https://dc.lft.to/lastmile_qr_scan", "android": "https://dc.lft.to/lastmile_qr_scan"}}, {"name": "f6d2ffec3413187ebd699f5b25b22c3f", "fusion_lat": 0.0, "type": "electric_scooter", "lat": 38.907168666666664, "is_reserved": 0, "is_disabled": 0, "fusion_lon": 0.0, "bike_id": "f6d2ffec3413187ebd699f5b25b22c3f", "lon": -77.00535, "rental_uris": {"ios": "https://dc.lft.to/lastmile_qr_scan", "android": "https://dc.lft.to/lastmile_qr_scan"}}, {"name": "ae25b1e620a4bbf797a6af7372941dab", "fusion_lat": 0.0, "type": "electric_scooter", "lat": 38.91834816666667, "is_reserved": 0, "is_disabled": 0, "fusion_lon": 0.0, "bike_id": "ae25b1e620a4bbf797a6af7372941dab", "lon": -77.02682116666666, "rental_uris": {"ios": "https://dc.lft.to/lastmile_qr_scan", "android": "https://dc.lft.to/lastmile_qr_scan"}}, {"name": "75d3d26a333cabb32fc560d059ada496", "fusion_lat": 0.0, "type": "electric_scooter", "lat": 38.88504433333333, "is_reserved": 0, "is_disabled": 0, "fusion_lon": 0.0, "bike_id": "75d3d26a333cabb32fc560d059ada496", "lon": -77.01718766666667, "rental_uris": {"ios": "https://dc.lft.to/lastmile_qr_scan", "android": "https://dc.lft.to/lastmile_qr_scan"}}, {"name": "f83a2355573ccffd80eb8ff29e278f97", "fusion_lat": 0.0, "type": "electric_scooter", "lat": 38.91632233333333, "is_reserved": 0, "is_disabled": 0, "fusion_lon": 0.0, "bike_id": "f83a2355573ccffd80eb8ff29e278f97", "lon": -77.001098, "rental_uris": {"ios": "https://dc.lft.to/lastmile_qr_scan", "android": "https://dc.lft.to/lastmile_qr_scan"}}, {"name": "50ae87b8c6232b487cedf89e2e1791e0", "fusion_lat": 0.0, "type": "electric_scooter", "lat": 38.91617733333333, "is_reserved": 0, "is_disabled": 0, "fusion_lon": 0.0, "bike_id": "50ae87b8c6232b487cedf89e2e1791e0", "lon": -77.02165883333333, "rental_uris": {"ios": "https://dc.lft.to/lastmile_qr_scan", "android": "https://dc.lft.to/lastmile_qr_scan"}}, {"name": "390ecbbe4c7bd7f5d8b041abf1e5d8bb", "fusion_lat": 0.0, "type": "electric_scooter", "lat": 38.90106133333333, "is_reserved": 0, "is_disabled": 0, "fusion_lon": 0.0, "bike_id": "390ecbbe4c7bd7f5d8b041abf1e5d8bb", "lon": -77.03164333333334, "rental_uris": {"ios": "https://dc.lft.to/lastmile_qr_scan", "android": "https://dc.lft.to/lastmile_qr_scan"}}, {"name": "4243b49fce9c947680963da6596d38a8", "fusion_lat": 0.0, "type": "electric_scooter", "lat": 38.92128116666667, "is_reserved": 0, "is_disabled": 0, "fusion_lon": 0.0, "bike_id": "4243b49fce9c947680963da6596d38a8", "lon": -77.04205666666667, "rental_uris": {"ios": "https://dc.lft.to/lastmile_qr_scan", "android": "https://dc.lft.to/lastmile_qr_scan"}}, {"name": "55a30005adf666b1dd03687b3fd32fa8", "fusion_lat": 0.0, "type": "electric_scooter", "lat": 38.9065165, "is_reserved": 0, "is_disabled": 0, "fusion_lon": 0.0, "bike_id": "55a30005adf666b1dd03687b3fd32fa8", "lon": -77.0381525, "rental_uris": {"ios": "https://dc.lft.to/lastmile_qr_scan", "android": "https://dc.lft.to/lastmile_qr_scan"}}, {"name": "bb0babca2a046c8912affd7792caf423", "fusion_lat": 0.0, "type": "electric_scooter", "lat": 38.912626333333336, "is_reserved": 0, "is_disabled": 0, "fusion_lon": 0.0, "bike_id": "bb0babca2a046c8912affd7792caf423", "lon": -77.00921633333333, "rental_uris": {"ios": "https://dc.lft.to/lastmile_qr_scan", "android": "https://dc.lft.to/lastmile_qr_scan"}}, {"name": "c783ab1d96cb1a187e77abdbc3f6e63c", "fusion_lat": 0.0, "type": "electric_bike", "lat": 38.857883666666666, "is_reserved": 0, "is_disabled": 0, "fusion_lon": 0.0, "bike_id": "c783ab1d96cb1a187e77abdbc3f6e63c", "lon": -76.98737483333333, "rental_uris": {"ios": "https://dc.lft.to/lastmile_qr_scan", "android": "https://dc.lft.to/lastmile_qr_scan"}}, {"name": "d991c5b7b51fdfc09acd0f5cc329796c", "fusion_lat": 0.0, "type": "electric_scooter", "lat": 38.913249666666665, "is_reserved": 0, "is_disabled": 0, "fusion_lon": 0.0, "bike_id": "d991c5b7b51fdfc09acd0f5cc329796c", "lon": -77.0453595, "rental_uris": {"ios": "https://dc.lft.to/lastmile_qr_scan", "android": "https://dc.lft.to/lastmile_qr_scan"}}, {"name": "cb1e55a465cecc6d3328ed5869b26a28", "fusion_lat": 0.0, "type": "electric_scooter", "lat": 38.898501, "is_reserved": 0, "is_disabled": 0, "fusion_lon": 0.0, "bike_id": "cb1e55a465cecc6d3328ed5869b26a28", "lon": -77.02589966666666, "rental_uris": {"ios": "https://dc.lft.to/lastmile_qr_scan", "android": "https://dc.lft.to/lastmile_qr_scan"}}, {"name": "de64f7c211249c96d729ea75d787538c", "fusion_lat": 0.0, "type": "electric_scooter", "lat": 38.910414833333334, "is_reserved": 0, "is_disabled": 0, "fusion_lon": 0.0, "bike_id": "de64f7c211249c96d729ea75d787538c", "lon": -77.04374533333333, "rental_uris": {"ios": "https://dc.lft.to/lastmile_qr_scan", "android": "https://dc.lft.to/lastmile_qr_scan"}}, {"name": "e7fb8d19eb07a3709d98ad2b3c60a509", "fusion_lat": 0.0, "type": "electric_scooter", "lat": 38.90500633333333, "is_reserved": 0, "is_disabled": 0, "fusion_lon": 0.0, "bike_id": "e7fb8d19eb07a3709d98ad2b3c60a509", "lon": -77.06526516666666, "rental_uris": {"ios": "https://dc.lft.to/lastmile_qr_scan", "android": "https://dc.lft.to/lastmile_qr_scan"}}, {"name": "2b9989c7dce53150cf7ee71560ac1d21", "fusion_lat": 0.0, "type": "electric_scooter", "lat": 38.9091335, "is_reserved": 0, "is_disabled": 0, "fusion_lon": 0.0, "bike_id": "2b9989c7dce53150cf7ee71560ac1d21", "lon": -77.06420766666666, "rental_uris": {"ios": "https://dc.lft.to/lastmile_qr_scan", "android": "https://dc.lft.to/lastmile_qr_scan"}}, {"name": "c6200dec707f8bd257ba8862f89c67d7", "fusion_lat": 0.0, "type": "electric_scooter", "lat": 38.90050183333334, "is_reserved": 0, "is_disabled": 0, "fusion_lon": 0.0, "bike_id": "c6200dec707f8bd257ba8862f89c67d7", "lon": -77.00064116666667, "rental_uris": {"ios": "https://dc.lft.to/lastmile_qr_scan", "android": "https://dc.lft.to/lastmile_qr_scan"}}, {"name": "af00a123f0f2768499b458ec8afd1ad7", "fusion_lat": 0.0, "type": "electric_scooter", "lat": 38.90551166666667, "is_reserved": 0, "is_disabled": 0, "fusion_lon": 0.0, "bike_id": "af00a123f0f2768499b458ec8afd1ad7", "lon": -77.03973816666667, "rental_uris": {"ios": "https://dc.lft.to/lastmile_qr_scan", "android": "https://dc.lft.to/lastmile_qr_scan"}}, {"name": "2c451b744515b664edeccbd48df0d6d0", "fusion_lat": 0.0, "type": "electric_scooter", "lat": 38.882255, "is_reserved": 0, "is_disabled": 0, "fusion_lon": 0.0, "bike_id": "2c451b744515b664edeccbd48df0d6d0", "lon": -76.99613166666667, "rental_uris": {"ios": "https://dc.lft.to/lastmile_qr_scan", "android": "https://dc.lft.to/lastmile_qr_scan"}}, {"name": "8884aa4f516dfa1e589301fa4e450f34", "fusion_lat": 0.0, "type": "electric_scooter", "lat": 38.92332583333334, "is_reserved": 0, "is_disabled": 0, "fusion_lon": 0.0, "bike_id": "8884aa4f516dfa1e589301fa4e450f34", "lon": -77.01954, "rental_uris": {"ios": "https://dc.lft.to/lastmile_qr_scan", "android": "https://dc.lft.to/lastmile_qr_scan"}}, {"name": "879b8ff62e96722c57d6f4058435071c", "fusion_lat": 0.0, "type": "electric_scooter", "lat": 38.904661833333336, "is_reserved": 0, "is_disabled": 0, "fusion_lon": 0.0, "bike_id": "879b8ff62e96722c57d6f4058435071c", "lon": -77.03561983333333, "rental_uris": {"ios": "https://dc.lft.to/lastmile_qr_scan", "android": "https://dc.lft.to/lastmile_qr_scan"}}, {"name": "8f43f0bd03fc2c7825bbc7d1e472abed", "fusion_lat": 0.0, "type": "electric_scooter", "lat": 38.92336133333333, "is_reserved": 0, "is_disabled": 0, "fusion_lon": 0.0, "bike_id": "8f43f0bd03fc2c7825bbc7d1e472abed", "lon": -77.041896, "rental_uris": {"ios": "https://dc.lft.to/lastmile_qr_scan", "android": "https://dc.lft.to/lastmile_qr_scan"}}, {"name": "3c08c64cc02f32c78ee1cfbdfb78c706", "fusion_lat": 0.0, "type": "electric_scooter", "lat": 38.929372666666666, "is_reserved": 0, "is_disabled": 0, "fusion_lon": 0.0, "bike_id": "3c08c64cc02f32c78ee1cfbdfb78c706", "lon": -77.03654116666667, "rental_uris": {"ios": "https://dc.lft.to/lastmile_qr_scan", "android": "https://dc.lft.to/lastmile_qr_scan"}}, {"name": "f734788cae49bdf4d0ba18108a623785", "fusion_lat": 0.0, "type": "electric_scooter", "lat": 38.884888, "is_reserved": 0, "is_disabled": 0, "fusion_lon": 0.0, "bike_id": "f734788cae49bdf4d0ba18108a623785", "lon": -77.007101, "rental_uris": {"ios": "https://dc.lft.to/lastmile_qr_scan", "android": "https://dc.lft.to/lastmile_qr_scan"}}, {"name": "a81081b37362ee10991b5107acb50b93", "fusion_lat": 0.0, "type": "electric_scooter", "lat": 38.917171833333335, "is_reserved": 0, "is_disabled": 0, "fusion_lon": 0.0, "bike_id": "a81081b37362ee10991b5107acb50b93", "lon": -77.02897583333333, "rental_uris": {"ios": "https://dc.lft.to/lastmile_qr_scan", "android": "https://dc.lft.to/lastmile_qr_scan"}}, {"name": "b09b912d777d6789fb5ba229a966eb39", "fusion_lat": 0.0, "type": "electric_scooter", "lat": 38.887153833333336, "is_reserved": 0, "is_disabled": 0, "fusion_lon": 0.0, "bike_id": "b09b912d777d6789fb5ba229a966eb39", "lon": -77.0177135, "rental_uris": {"ios": "https://dc.lft.to/lastmile_qr_scan", "android": "https://dc.lft.to/lastmile_qr_scan"}}, {"name": "dd12e223f280c82e953b14bf256a735d", "fusion_lat": 0.0, "type": "electric_scooter", "lat": 38.901131, "is_reserved": 0, "is_disabled": 0, "fusion_lon": 0.0, "bike_id": "dd12e223f280c82e953b14bf256a735d", "lon": -77.03187083333333, "rental_uris": {"ios": "https://dc.lft.to/lastmile_qr_scan", "android": "https://dc.lft.to/lastmile_qr_scan"}}, {"name": "563a63cbbb37d56e8cf50a6a379435e6", "fusion_lat": 0.0, "type": "electric_scooter", "lat": 38.9111885, "is_reserved": 0, "is_disabled": 0, "fusion_lon": 0.0, "bike_id": "563a63cbbb37d56e8cf50a6a379435e6", "lon": -77.04360016666666, "rental_uris": {"ios": "https://dc.lft.to/lastmile_qr_scan", "android": "https://dc.lft.to/lastmile_qr_scan"}}, {"name": "3a71b3119de8b66334d2202e65d773d3", "fusion_lat": 0.0, "type": "electric_scooter", "lat": 38.8976745, "is_reserved": 0, "is_disabled": 0, "fusion_lon": 0.0, "bike_id": "3a71b3119de8b66334d2202e65d773d3", "lon": -77.05153483333333, "rental_uris": {"ios": "https://dc.lft.to/lastmile_qr_scan", "android": "https://dc.lft.to/lastmile_qr_scan"}}, {"name": "ea3e05594cb7c9192355f07904d2f962", "fusion_lat": 0.0, "type": "electric_scooter", "lat": 38.911871833333336, "is_reserved": 0, "is_disabled": 0, "fusion_lon": 0.0, "bike_id": "ea3e05594cb7c9192355f07904d2f962", "lon": -77.01781933333334, "rental_uris": {"ios": "https://dc.lft.to/lastmile_qr_scan", "android": "https://dc.lft.to/lastmile_qr_scan"}}, {"name": "9665640b84281e8a25ab26cc8c516dc3", "fusion_lat": 0.0, "type": "electric_scooter", "lat": 38.92093783333333, "is_reserved": 0, "is_disabled": 0, "fusion_lon": 0.0, "bike_id": "9665640b84281e8a25ab26cc8c516dc3", "lon": -77.03169183333333, "rental_uris": {"ios": "https://dc.lft.to/lastmile_qr_scan", "android": "https://dc.lft.to/lastmile_qr_scan"}}, {"name": "eca367cceed4dd105b5fad209d7fd5ff", "fusion_lat": 0.0, "type": "electric_scooter", "lat": 38.93497683333333, "is_reserved": 0, "is_disabled": 0, "fusion_lon": 0.0, "bike_id": "eca367cceed4dd105b5fad209d7fd5ff", "lon": -77.02544533333334, "rental_uris": {"ios": "https://dc.lft.to/lastmile_qr_scan", "android": "https://dc.lft.to/lastmile_qr_scan"}}, {"name": "3c593bb56e2b72948c574d01067e5eda", "fusion_lat": 0.0, "type": "electric_scooter", "lat": 38.93467833333333, "is_reserved": 0, "is_disabled": 0, "fusion_lon": 0.0, "bike_id": "3c593bb56e2b72948c574d01067e5eda", "lon": -77.0284385, "rental_uris": {"ios": "https://dc.lft.to/lastmile_qr_scan", "android": "https://dc.lft.to/lastmile_qr_scan"}}, {"name": "0a8b49ca8838f7b8ed213dd1c1b4d198", "fusion_lat": 0.0, "type": "electric_scooter", "lat": 38.906016, "is_reserved": 0, "is_disabled": 0, "fusion_lon": 0.0, "bike_id": "0a8b49ca8838f7b8ed213dd1c1b4d198", "lon": -77.04036233333333, "rental_uris": {"ios": "https://dc.lft.to/lastmile_qr_scan", "android": "https://dc.lft.to/lastmile_qr_scan"}}, {"name": "7b3f1bd28472e621eae04b7ff9d28d08", "fusion_lat": 0.0, "type": "electric_scooter", "lat": 38.90943816666667, "is_reserved": 0, "is_disabled": 0, "fusion_lon": 0.0, "bike_id": "7b3f1bd28472e621eae04b7ff9d28d08", "lon": -77.031791, "rental_uris": {"ios": "https://dc.lft.to/lastmile_qr_scan", "android": "https://dc.lft.to/lastmile_qr_scan"}}, {"name": "edf403650da18bd87294810a32fd7951", "fusion_lat": 0.0, "type": "electric_scooter", "lat": 38.88914183333333, "is_reserved": 0, "is_disabled": 0, "fusion_lon": 0.0, "bike_id": "edf403650da18bd87294810a32fd7951", "lon": -76.953712, "rental_uris": {"ios": "https://dc.lft.to/lastmile_qr_scan", "android": "https://dc.lft.to/lastmile_qr_scan"}}, {"name": "36cbc989a3b8edd05371d0ee47264b0f", "fusion_lat": 0.0, "type": "electric_scooter", "lat": 38.928914166666665, "is_reserved": 0, "is_disabled": 0, "fusion_lon": 0.0, "bike_id": "36cbc989a3b8edd05371d0ee47264b0f", "lon": -77.02307316666666, "rental_uris": {"ios": "https://dc.lft.to/lastmile_qr_scan", "android": "https://dc.lft.to/lastmile_qr_scan"}}, {"name": "b02881492d4d85b6418df14f9f171218", "fusion_lat": 0.0, "type": "electric_scooter", "lat": 38.901177, "is_reserved": 0, "is_disabled": 0, "fusion_lon": 0.0, "bike_id": "b02881492d4d85b6418df14f9f171218", "lon": -77.0218585, "rental_uris": {"ios": "https://dc.lft.to/lastmile_qr_scan", "android": "https://dc.lft.to/lastmile_qr_scan"}}, {"name": "cc3e91596a8697d5537f97e9155c2dea", "fusion_lat": 0.0, "type": "electric_scooter", "lat": 38.905683333333336, "is_reserved": 0, "is_disabled": 0, "fusion_lon": 0.0, "bike_id": "cc3e91596a8697d5537f97e9155c2dea", "lon": -77.02209583333334, "rental_uris": {"ios": "https://dc.lft.to/lastmile_qr_scan", "android": "https://dc.lft.to/lastmile_qr_scan"}}, {"name": "2634794bf1f907f939049b26e28b983e", "fusion_lat": 0.0, "type": "electric_scooter", "lat": 38.92645016666667, "is_reserved": 0, "is_disabled": 0, "fusion_lon": 0.0, "bike_id": "2634794bf1f907f939049b26e28b983e", "lon": -77.03691416666666, "rental_uris": {"ios": "https://dc.lft.to/lastmile_qr_scan", "android": "https://dc.lft.to/lastmile_qr_scan"}}, {"name": "8c1a54b623cdba7020d9565b54e1efd7", "fusion_lat": 0.0, "type": "electric_scooter", "lat": 38.8858025, "is_reserved": 0, "is_disabled": 0, "fusion_lon": 0.0, "bike_id": "8c1a54b623cdba7020d9565b54e1efd7", "lon": -76.99496833333333, "rental_uris": {"ios": "https://dc.lft.to/lastmile_qr_scan", "android": "https://dc.lft.to/lastmile_qr_scan"}}, {"name": "0344c59c7a6acba81ea266f91451cf98", "fusion_lat": 0.0, "type": "electric_scooter", "lat": 38.923693666666665, "is_reserved": 0, "is_disabled": 0, "fusion_lon": 0.0, "bike_id": "0344c59c7a6acba81ea266f91451cf98", "lon": -77.019131, "rental_uris": {"ios": "https://dc.lft.to/lastmile_qr_scan", "android": "https://dc.lft.to/lastmile_qr_scan"}}, {"name": "09fc1c333179eba2209d19a869fc8c99", "fusion_lat": 0.0, "type": "electric_bike", "lat": 39.033452833333335, "is_reserved": 0, "is_disabled": 0, "fusion_lon": 0.0, "bike_id": "09fc1c333179eba2209d19a869fc8c99", "lon": -77.04905366666667, "rental_uris": {"ios": "https://dc.lft.to/lastmile_qr_scan", "android": "https://dc.lft.to/lastmile_qr_scan"}}, {"name": "d4f7782b6653709b8e5af7eb07b74785", "fusion_lat": 0.0, "type": "electric_scooter", "lat": 38.8871435, "is_reserved": 0, "is_disabled": 0, "fusion_lon": 0.0, "bike_id": "d4f7782b6653709b8e5af7eb07b74785", "lon": -77.01776716666667, "rental_uris": {"ios": "https://dc.lft.to/lastmile_qr_scan", "android": "https://dc.lft.to/lastmile_qr_scan"}}, {"name": "210815a422e5cf805377896f4060c6ea", "fusion_lat": 0.0, "type": "electric_scooter", "lat": 38.902098333333335, "is_reserved": 0, "is_disabled": 0, "fusion_lon": 0.0, "bike_id": "210815a422e5cf805377896f4060c6ea", "lon": -77.06124716666666, "rental_uris": {"ios": "https://dc.lft.to/lastmile_qr_scan", "android": "https://dc.lft.to/lastmile_qr_scan"}}, {"name": "3d2c51bb2015a579ca35c02a1d8577a1", "fusion_lat": 0.0, "type": "electric_scooter", "lat": 38.9113845, "is_reserved": 0, "is_disabled": 0, "fusion_lon": 0.0, "bike_id": "3d2c51bb2015a579ca35c02a1d8577a1", "lon": -77.04179116666667, "rental_uris": {"ios": "https://dc.lft.to/lastmile_qr_scan", "android": "https://dc.lft.to/lastmile_qr_scan"}}, {"name": "5dcfd64ab9fcfa48181c850e44c61bfd", "fusion_lat": 0.0, "type": "electric_scooter", "lat": 38.93947583333333, "is_reserved": 0, "is_disabled": 0, "fusion_lon": 0.0, "bike_id": "5dcfd64ab9fcfa48181c850e44c61bfd", "lon": -77.0724345, "rental_uris": {"ios": "https://dc.lft.to/lastmile_qr_scan", "android": "https://dc.lft.to/lastmile_qr_scan"}}, {"name": "23b9b3ee8712eb5da4b2b09204c80531", "fusion_lat": 0.0, "type": "electric_scooter", "lat": 38.90491866666667, "is_reserved": 0, "is_disabled": 0, "fusion_lon": 0.0, "bike_id": "23b9b3ee8712eb5da4b2b09204c80531", "lon": -77.0433965, "rental_uris": {"ios": "https://dc.lft.to/lastmile_qr_scan", "android": "https://dc.lft.to/lastmile_qr_scan"}}, {"name": "2a75b4d800f8c060f3ae64d4ff740e3c", "fusion_lat": 0.0, "type": "electric_scooter", "lat": 38.906197166666665, "is_reserved": 0, "is_disabled": 0, "fusion_lon": 0.0, "bike_id": "2a75b4d800f8c060f3ae64d4ff740e3c", "lon": -77.036572, "rental_uris": {"ios": "https://dc.lft.to/lastmile_qr_scan", "android": "https://dc.lft.to/lastmile_qr_scan"}}, {"name": "2b6fd22a6c6abd002d7313072a41376e", "fusion_lat": 0.0, "type": "electric_scooter", "lat": 38.91406666666666, "is_reserved": 0, "is_disabled": 0, "fusion_lon": 0.0, "bike_id": "2b6fd22a6c6abd002d7313072a41376e", "lon": -77.04566416666667, "rental_uris": {"ios": "https://dc.lft.to/lastmile_qr_scan", "android": "https://dc.lft.to/lastmile_qr_scan"}}, {"name": "3a7c3cbe82101ccf2ff7ea9f3d92f38b", "fusion_lat": 0.0, "type": "electric_bike", "lat": 38.9751565, "is_reserved": 0, "is_disabled": 0, "fusion_lon": 0.0, "bike_id": "3a7c3cbe82101ccf2ff7ea9f3d92f38b", "lon": -77.01740366666667, "rental_uris": {"ios": "https://dc.lft.to/lastmile_qr_scan", "android": "https://dc.lft.to/lastmile_qr_scan"}}, {"name": "9944adc6ac7af59074a8932da3495116", "fusion_lat": 0.0, "type": "electric_bike", "lat": 38.85228866666667, "is_reserved": 0, "is_disabled": 0, "fusion_lon": 0.0, "bike_id": "9944adc6ac7af59074a8932da3495116", "lon": -77.10335966666666, "rental_uris": {"ios": "https://dc.lft.to/lastmile_qr_scan", "android": "https://dc.lft.to/lastmile_qr_scan"}}, {"name": "16d4908d1866126c71cdfec17772df65", "fusion_lat": 0.0, "type": "electric_scooter", "lat": 38.911433333333335, "is_reserved": 0, "is_disabled": 0, "fusion_lon": 0.0, "bike_id": "16d4908d1866126c71cdfec17772df65", "lon": -77.04200666666667, "rental_uris": {"ios": "https://dc.lft.to/lastmile_qr_scan", "android": "https://dc.lft.to/lastmile_qr_scan"}}, {"name": "48d23b4855264f7bf787d52febf54b55", "fusion_lat": 0.0, "type": "electric_scooter", "lat": 38.93397066666667, "is_reserved": 0, "is_disabled": 0, "fusion_lon": 0.0, "bike_id": "48d23b4855264f7bf787d52febf54b55", "lon": -77.0272365, "rental_uris": {"ios": "https://dc.lft.to/lastmile_qr_scan", "android": "https://dc.lft.to/lastmile_qr_scan"}}, {"name": "7125f9026b2ec75ceb8b91d85afd1a8e", "fusion_lat": 0.0, "type": "electric_scooter", "lat": 38.902457, "is_reserved": 0, "is_disabled": 0, "fusion_lon": 0.0, "bike_id": "7125f9026b2ec75ceb8b91d85afd1a8e", "lon": -77.045884, "rental_uris": {"ios": "https://dc.lft.to/lastmile_qr_scan", "android": "https://dc.lft.to/lastmile_qr_scan"}}, {"name": "738bfe5cbdd774fed6b00a5384ce2392", "fusion_lat": 0.0, "type": "electric_scooter", "lat": 38.8803665, "is_reserved": 0, "is_disabled": 0, "fusion_lon": 0.0, "bike_id": "738bfe5cbdd774fed6b00a5384ce2392", "lon": -76.92722466666666, "rental_uris": {"ios": "https://dc.lft.to/lastmile_qr_scan", "android": "https://dc.lft.to/lastmile_qr_scan"}}, {"name": "4d058a8403a334675ab750aa66967d27", "fusion_lat": 0.0, "type": "electric_bike", "lat": 38.88041483333333, "is_reserved": 0, "is_disabled": 0, "fusion_lon": 0.0, "bike_id": "4d058a8403a334675ab750aa66967d27", "lon": -77.01319666666667, "rental_uris": {"ios": "https://dc.lft.to/lastmile_qr_scan", "android": "https://dc.lft.to/lastmile_qr_scan"}}, {"name": "a8ee71fae1c35c1d285065a3db533827", "fusion_lat": 0.0, "type": "electric_scooter", "lat": 38.928171, "is_reserved": 0, "is_disabled": 0, "fusion_lon": 0.0, "bike_id": "a8ee71fae1c35c1d285065a3db533827", "lon": -77.02859616666667, "rental_uris": {"ios": "https://dc.lft.to/lastmile_qr_scan", "android": "https://dc.lft.to/lastmile_qr_scan"}}, {"name": "b336d75732d14bbbc7d8ef309108a6f0", "fusion_lat": 0.0, "type": "electric_scooter", "lat": 38.900963, "is_reserved": 0, "is_disabled": 0, "fusion_lon": 0.0, "bike_id": "b336d75732d14bbbc7d8ef309108a6f0", "lon": -77.02009033333333, "rental_uris": {"ios": "https://dc.lft.to/lastmile_qr_scan", "android": "https://dc.lft.to/lastmile_qr_scan"}}, {"name": "5f318da933e2f618924e34cd4aef9f9b", "fusion_lat": 0.0, "type": "electric_scooter", "lat": 38.90512116666667, "is_reserved": 0, "is_disabled": 0, "fusion_lon": 0.0, "bike_id": "5f318da933e2f618924e34cd4aef9f9b", "lon": -77.068914, "rental_uris": {"ios": "https://dc.lft.to/lastmile_qr_scan", "android": "https://dc.lft.to/lastmile_qr_scan"}}, {"name": "e4075bc962b1ebbe0a19f9182b07b13e", "fusion_lat": 0.0, "type": "electric_scooter", "lat": 38.93598133333333, "is_reserved": 0, "is_disabled": 0, "fusion_lon": 0.0, "bike_id": "e4075bc962b1ebbe0a19f9182b07b13e", "lon": -77.05597283333333, "rental_uris": {"ios": "https://dc.lft.to/lastmile_qr_scan", "android": "https://dc.lft.to/lastmile_qr_scan"}}, {"name": "8f3e6429dffa08efbce7e0fda58b2702", "fusion_lat": 0.0, "type": "electric_scooter", "lat": 38.906415333333335, "is_reserved": 0, "is_disabled": 0, "fusion_lon": 0.0, "bike_id": "8f3e6429dffa08efbce7e0fda58b2702", "lon": -77.01396833333334, "rental_uris": {"ios": "https://dc.lft.to/lastmile_qr_scan", "android": "https://dc.lft.to/lastmile_qr_scan"}}, {"name": "0050c1e9b244b3611b4c4f66efbc2e57", "fusion_lat": 0.0, "type": "electric_scooter", "lat": 38.90114033333333, "is_reserved": 0, "is_disabled": 0, "fusion_lon": 0.0, "bike_id": "0050c1e9b244b3611b4c4f66efbc2e57", "lon": -77.03169216666667, "rental_uris": {"ios": "https://dc.lft.to/lastmile_qr_scan", "android": "https://dc.lft.to/lastmile_qr_scan"}}, {"name": "fc28ffecf486a6aab03e4c1bb28e3cb4", "fusion_lat": 0.0, "type": "electric_scooter", "lat": 38.90241433333333, "is_reserved": 0, "is_disabled": 0, "fusion_lon": 0.0, "bike_id": "fc28ffecf486a6aab03e4c1bb28e3cb4", "lon": -77.015054, "rental_uris": {"ios": "https://dc.lft.to/lastmile_qr_scan", "android": "https://dc.lft.to/lastmile_qr_scan"}}, {"name": "fe3515daa4bb6097cf73fefd184d4e44", "fusion_lat": 0.0, "type": "electric_scooter", "lat": 38.8971655, "is_reserved": 0, "is_disabled": 0, "fusion_lon": 0.0, "bike_id": "fe3515daa4bb6097cf73fefd184d4e44", "lon": -77.00797516666667, "rental_uris": {"ios": "https://dc.lft.to/lastmile_qr_scan", "android": "https://dc.lft.to/lastmile_qr_scan"}}, {"name": "a294aea00400d26e3f80a6736fd8b7b2", "fusion_lat": 0.0, "type": "electric_scooter", "lat": 38.91257233333333, "is_reserved": 0, "is_disabled": 0, "fusion_lon": 0.0, "bike_id": "a294aea00400d26e3f80a6736fd8b7b2", "lon": -77.0386675, "rental_uris": {"ios": "https://dc.lft.to/lastmile_qr_scan", "android": "https://dc.lft.to/lastmile_qr_scan"}}, {"name": "7ce16e899179d15e5ab5ca4dac7f8ccb", "fusion_lat": 0.0, "type": "electric_bike", "lat": 38.90789616666667, "is_reserved": 0, "is_disabled": 0, "fusion_lon": 0.0, "bike_id": "7ce16e899179d15e5ab5ca4dac7f8ccb", "lon": -76.99701716666667, "rental_uris": {"ios": "https://dc.lft.to/lastmile_qr_scan", "android": "https://dc.lft.to/lastmile_qr_scan"}}, {"name": "c7ac31813c29bfe8c869a0281561266b", "fusion_lat": 0.0, "type": "electric_bike", "lat": 38.856206, "is_reserved": 0, "is_disabled": 0, "fusion_lon": 0.0, "bike_id": "c7ac31813c29bfe8c869a0281561266b", "lon": -77.08542083333333, "rental_uris": {"ios": "https://dc.lft.to/lastmile_qr_scan", "android": "https://dc.lft.to/lastmile_qr_scan"}}, {"name": "34a7b1baa60ed90cd6dd8e9ab9b73147", "fusion_lat": 0.0, "type": "electric_scooter", "lat": 38.909121999999996, "is_reserved": 0, "is_disabled": 0, "fusion_lon": 0.0, "bike_id": "34a7b1baa60ed90cd6dd8e9ab9b73147", "lon": -77.04210133333333, "rental_uris": {"ios": "https://dc.lft.to/lastmile_qr_scan", "android": "https://dc.lft.to/lastmile_qr_scan"}}, {"name": "fc3fa9c287e3144170b9e2f94ba05903", "fusion_lat": 0.0, "type": "electric_scooter", "lat": 38.930799, "is_reserved": 0, "is_disabled": 0, "fusion_lon": 0.0, "bike_id": "fc3fa9c287e3144170b9e2f94ba05903", "lon": -77.02792066666666, "rental_uris": {"ios": "https://dc.lft.to/lastmile_qr_scan", "android": "https://dc.lft.to/lastmile_qr_scan"}}, {"name": "a47fdbd4e6f498c320d6c82e63b24c7a", "fusion_lat": 0.0, "type": "electric_scooter", "lat": 38.89708366666667, "is_reserved": 0, "is_disabled": 0, "fusion_lon": 0.0, "bike_id": "a47fdbd4e6f498c320d6c82e63b24c7a", "lon": -77.00839016666667, "rental_uris": {"ios": "https://dc.lft.to/lastmile_qr_scan", "android": "https://dc.lft.to/lastmile_qr_scan"}}, {"name": "ca34d7ef91e3758d85b59d73901358d4", "fusion_lat": 0.0, "type": "electric_scooter", "lat": 38.90568483333333, "is_reserved": 0, "is_disabled": 0, "fusion_lon": 0.0, "bike_id": "ca34d7ef91e3758d85b59d73901358d4", "lon": -77.028032, "rental_uris": {"ios": "https://dc.lft.to/lastmile_qr_scan", "android": "https://dc.lft.to/lastmile_qr_scan"}}, {"name": "ea8ca9e93ed8357a2a50e896df0d99dc", "fusion_lat": 0.0, "type": "electric_scooter", "lat": 38.9002905, "is_reserved": 0, "is_disabled": 0, "fusion_lon": 0.0, "bike_id": "ea8ca9e93ed8357a2a50e896df0d99dc", "lon": -77.002125, "rental_uris": {"ios": "https://dc.lft.to/lastmile_qr_scan", "android": "https://dc.lft.to/lastmile_qr_scan"}}, {"name": "bdf9c8562b66d9cdc046cd17734a8662", "fusion_lat": 0.0, "type": "electric_scooter", "lat": 38.903256666666664, "is_reserved": 0, "is_disabled": 0, "fusion_lon": 0.0, "bike_id": "bdf9c8562b66d9cdc046cd17734a8662", "lon": -77.036429, "rental_uris": {"ios": "https://dc.lft.to/lastmile_qr_scan", "android": "https://dc.lft.to/lastmile_qr_scan"}}, {"name": "182760f6119e1f3102fcf58bd6f84d64", "fusion_lat": 0.0, "type": "electric_scooter", "lat": 38.93123633333333, "is_reserved": 0, "is_disabled": 0, "fusion_lon": 0.0, "bike_id": "182760f6119e1f3102fcf58bd6f84d64", "lon": -77.0360525, "rental_uris": {"ios": "https://dc.lft.to/lastmile_qr_scan", "android": "https://dc.lft.to/lastmile_qr_scan"}}, {"name": "4381fb406cb9aeb5014a4f94676df7d6", "fusion_lat": 0.0, "type": "electric_bike", "lat": 38.854921166666664, "is_reserved": 0, "is_disabled": 0, "fusion_lon": 0.0, "bike_id": "4381fb406cb9aeb5014a4f94676df7d6", "lon": -77.11523116666666, "rental_uris": {"ios": "https://dc.lft.to/lastmile_qr_scan", "android": "https://dc.lft.to/lastmile_qr_scan"}}, {"name": "f66d716525a9b94cea338e91404ca3d6", "fusion_lat": 0.0, "type": "electric_scooter", "lat": 38.899727166666665, "is_reserved": 0, "is_disabled": 0, "fusion_lon": 0.0, "bike_id": "f66d716525a9b94cea338e91404ca3d6", "lon": -77.03178166666666, "rental_uris": {"ios": "https://dc.lft.to/lastmile_qr_scan", "android": "https://dc.lft.to/lastmile_qr_scan"}}, {"name": "ce24df5a14354f3cd98976f2691abc0b", "fusion_lat": 0.0, "type": "electric_scooter", "lat": 38.917026666666665, "is_reserved": 0, "is_disabled": 0, "fusion_lon": 0.0, "bike_id": "ce24df5a14354f3cd98976f2691abc0b", "lon": -77.02851683333333, "rental_uris": {"ios": "https://dc.lft.to/lastmile_qr_scan", "android": "https://dc.lft.to/lastmile_qr_scan"}}, {"name": "71b3013faffdb7b7aaf4319fe458723c", "fusion_lat": 0.0, "type": "electric_scooter", "lat": 38.8983005, "is_reserved": 0, "is_disabled": 0, "fusion_lon": 0.0, "bike_id": "71b3013faffdb7b7aaf4319fe458723c", "lon": -76.946375, "rental_uris": {"ios": "https://dc.lft.to/lastmile_qr_scan", "android": "https://dc.lft.to/lastmile_qr_scan"}}, {"name": "2a7231ee8af72b8f17dc7c2d5d13394c", "fusion_lat": 0.0, "type": "electric_scooter", "lat": 38.916774, "is_reserved": 0, "is_disabled": 0, "fusion_lon": 0.0, "bike_id": "2a7231ee8af72b8f17dc7c2d5d13394c", "lon": -77.015808, "rental_uris": {"ios": "https://dc.lft.to/lastmile_qr_scan", "android": "https://dc.lft.to/lastmile_qr_scan"}}, {"name": "0794616b520772ce95c7d927aea7b24b", "fusion_lat": 0.0, "type": "electric_scooter", "lat": 38.898242, "is_reserved": 0, "is_disabled": 0, "fusion_lon": 0.0, "bike_id": "0794616b520772ce95c7d927aea7b24b", "lon": -77.007346, "rental_uris": {"ios": "https://dc.lft.to/lastmile_qr_scan", "android": "https://dc.lft.to/lastmile_qr_scan"}}, {"name": "2d5890f33dc3518eead89bc23f68d1ae", "fusion_lat": 0.0, "type": "electric_scooter", "lat": 38.8994105, "is_reserved": 0, "is_disabled": 0, "fusion_lon": 0.0, "bike_id": "2d5890f33dc3518eead89bc23f68d1ae", "lon": -76.99483233333333, "rental_uris": {"ios": "https://dc.lft.to/lastmile_qr_scan", "android": "https://dc.lft.to/lastmile_qr_scan"}}, {"name": "378a06de93c4926dcd53c4f53932e1f7", "fusion_lat": 0.0, "type": "electric_scooter", "lat": 38.917780666666665, "is_reserved": 0, "is_disabled": 0, "fusion_lon": 0.0, "bike_id": "378a06de93c4926dcd53c4f53932e1f7", "lon": -77.03444683333333, "rental_uris": {"ios": "https://dc.lft.to/lastmile_qr_scan", "android": "https://dc.lft.to/lastmile_qr_scan"}}, {"name": "4c54636218cc862227a3414eb46088e5", "fusion_lat": 0.0, "type": "electric_scooter", "lat": 38.927280333333336, "is_reserved": 0, "is_disabled": 0, "fusion_lon": 0.0, "bike_id": "4c54636218cc862227a3414eb46088e5", "lon": -77.02590066666667, "rental_uris": {"ios": "https://dc.lft.to/lastmile_qr_scan", "android": "https://dc.lft.to/lastmile_qr_scan"}}, {"name": "43c6210ced8acf2d2cfe80874e5eab18", "fusion_lat": 0.0, "type": "electric_scooter", "lat": 38.896236, "is_reserved": 0, "is_disabled": 0, "fusion_lon": 0.0, "bike_id": "43c6210ced8acf2d2cfe80874e5eab18", "lon": -77.032335, "rental_uris": {"ios": "https://dc.lft.to/lastmile_qr_scan", "android": "https://dc.lft.to/lastmile_qr_scan"}}, {"name": "a126bd9745780797493786d6410ee7fe", "fusion_lat": 0.0, "type": "electric_bike", "lat": 38.94089866666667, "is_reserved": 0, "is_disabled": 0, "fusion_lon": 0.0, "bike_id": "a126bd9745780797493786d6410ee7fe", "lon": -77.0326015, "rental_uris": {"ios": "https://dc.lft.to/lastmile_qr_scan", "android": "https://dc.lft.to/lastmile_qr_scan"}}, {"name": "6fe2f594e18aa810ce3be073342fce5a", "fusion_lat": 0.0, "type": "electric_bike", "lat": 38.9367135, "is_reserved": 0, "is_disabled": 0, "fusion_lon": 0.0, "bike_id": "6fe2f594e18aa810ce3be073342fce5a", "lon": -76.95207483333333, "rental_uris": {"ios": "https://dc.lft.to/lastmile_qr_scan", "android": "https://dc.lft.to/lastmile_qr_scan"}}, {"name": "e423a79b8ab6d6a4aae730eecbb00e28", "fusion_lat": 0.0, "type": "electric_scooter", "lat": 38.87090033333333, "is_reserved": 0, "is_disabled": 0, "fusion_lon": 0.0, "bike_id": "e423a79b8ab6d6a4aae730eecbb00e28", "lon": -76.9658665, "rental_uris": {"ios": "https://dc.lft.to/lastmile_qr_scan", "android": "https://dc.lft.to/lastmile_qr_scan"}}, {"name": "1830901ca29943d4941bd5be0432d2dc", "fusion_lat": 0.0, "type": "electric_scooter", "lat": 38.90328516666667, "is_reserved": 0, "is_disabled": 0, "fusion_lon": 0.0, "bike_id": "1830901ca29943d4941bd5be0432d2dc", "lon": -77.02858233333333, "rental_uris": {"ios": "https://dc.lft.to/lastmile_qr_scan", "android": "https://dc.lft.to/lastmile_qr_scan"}}, {"name": "0802f184757b7d5af906f23350d5751b", "fusion_lat": 0.0, "type": "electric_scooter", "lat": 38.92229783333333, "is_reserved": 0, "is_disabled": 0, "fusion_lon": 0.0, "bike_id": "0802f184757b7d5af906f23350d5751b", "lon": -77.02335333333333, "rental_uris": {"ios": "https://dc.lft.to/lastmile_qr_scan", "android": "https://dc.lft.to/lastmile_qr_scan"}}, {"name": "6650b76e879c3049f64f0b723b94e248", "fusion_lat": 0.0, "type": "electric_scooter", "lat": 38.89716816666667, "is_reserved": 0, "is_disabled": 0, "fusion_lon": 0.0, "bike_id": "6650b76e879c3049f64f0b723b94e248", "lon": -77.02628883333334, "rental_uris": {"ios": "https://dc.lft.to/lastmile_qr_scan", "android": "https://dc.lft.to/lastmile_qr_scan"}}, {"name": "179e60ca9e0b582cfab6a21f9337f180", "fusion_lat": 0.0, "type": "electric_scooter", "lat": 38.8941225, "is_reserved": 0, "is_disabled": 0, "fusion_lon": 0.0, "bike_id": "179e60ca9e0b582cfab6a21f9337f180", "lon": -76.93958483333333, "rental_uris": {"ios": "https://dc.lft.to/lastmile_qr_scan", "android": "https://dc.lft.to/lastmile_qr_scan"}}, {"name": "9be322f440d77d03ec844b83cc24b699", "fusion_lat": 0.0, "type": "electric_scooter", "lat": 38.9032325, "is_reserved": 0, "is_disabled": 0, "fusion_lon": 0.0, "bike_id": "9be322f440d77d03ec844b83cc24b699", "lon": -77.01618016666667, "rental_uris": {"ios": "https://dc.lft.to/lastmile_qr_scan", "android": "https://dc.lft.to/lastmile_qr_scan"}}, {"name": "f7be049d3cb577576000790f31bd57a4", "fusion_lat": 0.0, "type": "electric_scooter", "lat": 38.901255, "is_reserved": 0, "is_disabled": 0, "fusion_lon": 0.0, "bike_id": "f7be049d3cb577576000790f31bd57a4", "lon": -77.02889433333333, "rental_uris": {"ios": "https://dc.lft.to/lastmile_qr_scan", "android": "https://dc.lft.to/lastmile_qr_scan"}}, {"name": "b3f203326cd0128cb2aaa3db9a7b4ab7", "fusion_lat": 0.0, "type": "electric_scooter", "lat": 38.8837845, "is_reserved": 0, "is_disabled": 0, "fusion_lon": 0.0, "bike_id": "b3f203326cd0128cb2aaa3db9a7b4ab7", "lon": -76.9952395, "rental_uris": {"ios": "https://dc.lft.to/lastmile_qr_scan", "android": "https://dc.lft.to/lastmile_qr_scan"}}, {"name": "4f05dbf6e6582f0d45a8b6629fdd534f", "fusion_lat": 0.0, "type": "electric_bike", "lat": 38.90029633333333, "is_reserved": 0, "is_disabled": 0, "fusion_lon": 0.0, "bike_id": "4f05dbf6e6582f0d45a8b6629fdd534f", "lon": -77.01163833333334, "rental_uris": {"ios": "https://dc.lft.to/lastmile_qr_scan", "android": "https://dc.lft.to/lastmile_qr_scan"}}, {"name": "7a00de86343d14efffa7f89f3d7393fb", "fusion_lat": 0.0, "type": "electric_scooter", "lat": 38.89582466666667, "is_reserved": 0, "is_disabled": 0, "fusion_lon": 0.0, "bike_id": "7a00de86343d14efffa7f89f3d7393fb", "lon": -77.02322116666667, "rental_uris": {"ios": "https://dc.lft.to/lastmile_qr_scan", "android": "https://dc.lft.to/lastmile_qr_scan"}}, {"name": "fe7db4bfa70907db185402599a752ec4", "fusion_lat": 0.0, "type": "electric_scooter", "lat": 38.863546166666666, "is_reserved": 0, "is_disabled": 0, "fusion_lon": 0.0, "bike_id": "fe7db4bfa70907db185402599a752ec4", "lon": -76.990666, "rental_uris": {"ios": "https://dc.lft.to/lastmile_qr_scan", "android": "https://dc.lft.to/lastmile_qr_scan"}}, {"name": "00aa45107385383e9df9effc57ee545c", "fusion_lat": 0.0, "type": "electric_scooter", "lat": 38.91231533333333, "is_reserved": 0, "is_disabled": 0, "fusion_lon": 0.0, "bike_id": "00aa45107385383e9df9effc57ee545c", "lon": -77.03837, "rental_uris": {"ios": "https://dc.lft.to/lastmile_qr_scan", "android": "https://dc.lft.to/lastmile_qr_scan"}}, {"name": "c87a9408fcdf56feb32af7b0e7c737a1", "fusion_lat": 0.0, "type": "electric_scooter", "lat": 38.90248716666667, "is_reserved": 0, "is_disabled": 0, "fusion_lon": 0.0, "bike_id": "c87a9408fcdf56feb32af7b0e7c737a1", "lon": -77.046054, "rental_uris": {"ios": "https://dc.lft.to/lastmile_qr_scan", "android": "https://dc.lft.to/lastmile_qr_scan"}}, {"name": "b4daa1be8b2d6e136ad3bb47605d1afd", "fusion_lat": 0.0, "type": "electric_scooter", "lat": 38.91045916666667, "is_reserved": 0, "is_disabled": 0, "fusion_lon": 0.0, "bike_id": "b4daa1be8b2d6e136ad3bb47605d1afd", "lon": -77.048275, "rental_uris": {"ios": "https://dc.lft.to/lastmile_qr_scan", "android": "https://dc.lft.to/lastmile_qr_scan"}}, {"name": "13a5f41b48cd13fe779f875723a95295", "fusion_lat": 0.0, "type": "electric_bike", "lat": 38.92867833333333, "is_reserved": 0, "is_disabled": 0, "fusion_lon": 0.0, "bike_id": "13a5f41b48cd13fe779f875723a95295", "lon": -77.0336765, "rental_uris": {"ios": "https://dc.lft.to/lastmile_qr_scan", "android": "https://dc.lft.to/lastmile_qr_scan"}}, {"name": "f13e8469331107dfcbadfdb244ea3e76", "fusion_lat": 0.0, "type": "electric_scooter", "lat": 38.921505333333336, "is_reserved": 0, "is_disabled": 0, "fusion_lon": 0.0, "bike_id": "f13e8469331107dfcbadfdb244ea3e76", "lon": -77.03506433333334, "rental_uris": {"ios": "https://dc.lft.to/lastmile_qr_scan", "android": "https://dc.lft.to/lastmile_qr_scan"}}, {"name": "146b7b73a79eec3ef43a9a5925a40757", "fusion_lat": 0.0, "type": "electric_scooter", "lat": 38.9412005, "is_reserved": 0, "is_disabled": 0, "fusion_lon": 0.0, "bike_id": "146b7b73a79eec3ef43a9a5925a40757", "lon": -77.02049616666666, "rental_uris": {"ios": "https://dc.lft.to/lastmile_qr_scan", "android": "https://dc.lft.to/lastmile_qr_scan"}}, {"name": "18f76efdc55fd8e9ec0bfba920ebe29a", "fusion_lat": 0.0, "type": "electric_scooter", "lat": 38.9021725, "is_reserved": 0, "is_disabled": 0, "fusion_lon": 0.0, "bike_id": "18f76efdc55fd8e9ec0bfba920ebe29a", "lon": -77.02329416666667, "rental_uris": {"ios": "https://dc.lft.to/lastmile_qr_scan", "android": "https://dc.lft.to/lastmile_qr_scan"}}, {"name": "ea9b8f26d10a73139cfe2c4483b86809", "fusion_lat": 0.0, "type": "electric_bike", "lat": 38.81238866666666, "is_reserved": 0, "is_disabled": 0, "fusion_lon": 0.0, "bike_id": "ea9b8f26d10a73139cfe2c4483b86809", "lon": -77.11767316666666, "rental_uris": {"ios": "https://dc.lft.to/lastmile_qr_scan", "android": "https://dc.lft.to/lastmile_qr_scan"}}, {"name": "b04f97cf6b13ba42ad66e34bfc50dbac", "fusion_lat": 0.0, "type": "electric_scooter", "lat": 38.88511316666666, "is_reserved": 0, "is_disabled": 0, "fusion_lon": 0.0, "bike_id": "b04f97cf6b13ba42ad66e34bfc50dbac", "lon": -77.02178716666667, "rental_uris": {"ios": "https://dc.lft.to/lastmile_qr_scan", "android": "https://dc.lft.to/lastmile_qr_scan"}}, {"name": "7d64e5722127223629ebafb37879956e", "fusion_lat": 0.0, "type": "electric_scooter", "lat": 38.903728666666666, "is_reserved": 0, "is_disabled": 0, "fusion_lon": 0.0, "bike_id": "7d64e5722127223629ebafb37879956e", "lon": -77.03451533333333, "rental_uris": {"ios": "https://dc.lft.to/lastmile_qr_scan", "android": "https://dc.lft.to/lastmile_qr_scan"}}, {"name": "070e9c22408ecc751ba403b4045abeab", "fusion_lat": 0.0, "type": "electric_scooter", "lat": 38.9207555, "is_reserved": 0, "is_disabled": 0, "fusion_lon": 0.0, "bike_id": "070e9c22408ecc751ba403b4045abeab", "lon": -77.02311233333333, "rental_uris": {"ios": "https://dc.lft.to/lastmile_qr_scan", "android": "https://dc.lft.to/lastmile_qr_scan"}}, {"name": "796f9b42553e132de51c0c1eebf09030", "fusion_lat": 0.0, "type": "electric_bike", "lat": 39.0001435, "is_reserved": 0, "is_disabled": 0, "fusion_lon": 0.0, "bike_id": "796f9b42553e132de51c0c1eebf09030", "lon": -77.01739533333334, "rental_uris": {"ios": "https://dc.lft.to/lastmile_qr_scan", "android": "https://dc.lft.to/lastmile_qr_scan"}}, {"name": "84f19387bf9b1ab809f5af7da236b091", "fusion_lat": 0.0, "type": "electric_scooter", "lat": 38.918366166666665, "is_reserved": 0, "is_disabled": 0, "fusion_lon": 0.0, "bike_id": "84f19387bf9b1ab809f5af7da236b091", "lon": -77.02309783333334, "rental_uris": {"ios": "https://dc.lft.to/lastmile_qr_scan", "android": "https://dc.lft.to/lastmile_qr_scan"}}, {"name": "a5813b33f829203d5cf5aa02b4ad4bd9", "fusion_lat": 0.0, "type": "electric_scooter", "lat": 38.93958633333333, "is_reserved": 0, "is_disabled": 0, "fusion_lon": 0.0, "bike_id": "a5813b33f829203d5cf5aa02b4ad4bd9", "lon": -77.02749166666666, "rental_uris": {"ios": "https://dc.lft.to/lastmile_qr_scan", "android": "https://dc.lft.to/lastmile_qr_scan"}}, {"name": "eb8e15ed0c73a31090338b3d5492407c", "fusion_lat": 0.0, "type": "electric_scooter", "lat": 38.91822533333333, "is_reserved": 0, "is_disabled": 0, "fusion_lon": 0.0, "bike_id": "eb8e15ed0c73a31090338b3d5492407c", "lon": -77.02378816666666, "rental_uris": {"ios": "https://dc.lft.to/lastmile_qr_scan", "android": "https://dc.lft.to/lastmile_qr_scan"}}, {"name": "68808e80197c46d5c6bc45f1883451c2", "fusion_lat": 0.0, "type": "electric_bike", "lat": 38.856881, "is_reserved": 0, "is_disabled": 0, "fusion_lon": 0.0, "bike_id": "68808e80197c46d5c6bc45f1883451c2", "lon": -77.085372, "rental_uris": {"ios": "https://dc.lft.to/lastmile_qr_scan", "android": "https://dc.lft.to/lastmile_qr_scan"}}, {"name": "1f8776f4ef45689fbabf0a39c1dd7e1b", "fusion_lat": 0.0, "type": "electric_scooter", "lat": 38.9244605, "is_reserved": 0, "is_disabled": 0, "fusion_lon": 0.0, "bike_id": "1f8776f4ef45689fbabf0a39c1dd7e1b", "lon": -77.0524755, "rental_uris": {"ios": "https://dc.lft.to/lastmile_qr_scan", "android": "https://dc.lft.to/lastmile_qr_scan"}}, {"name": "e33d87146524153f7509630a1f117841", "fusion_lat": 0.0, "type": "electric_scooter", "lat": 38.91634166666667, "is_reserved": 0, "is_disabled": 0, "fusion_lon": 0.0, "bike_id": "e33d87146524153f7509630a1f117841", "lon": -77.00096016666667, "rental_uris": {"ios": "https://dc.lft.to/lastmile_qr_scan", "android": "https://dc.lft.to/lastmile_qr_scan"}}, {"name": "ff5457d367ad9ad4a6bf5c908643f8fc", "fusion_lat": 0.0, "type": "electric_bike", "lat": 38.9292755, "is_reserved": 0, "is_disabled": 0, "fusion_lon": 0.0, "bike_id": "ff5457d367ad9ad4a6bf5c908643f8fc", "lon": -77.0326425, "rental_uris": {"ios": "https://dc.lft.to/lastmile_qr_scan", "android": "https://dc.lft.to/lastmile_qr_scan"}}, {"name": "2c6a6de26941c41d3dd354a8e430e06b", "fusion_lat": 0.0, "type": "electric_scooter", "lat": 38.887459166666666, "is_reserved": 0, "is_disabled": 0, "fusion_lon": 0.0, "bike_id": "2c6a6de26941c41d3dd354a8e430e06b", "lon": -77.01536866666666, "rental_uris": {"ios": "https://dc.lft.to/lastmile_qr_scan", "android": "https://dc.lft.to/lastmile_qr_scan"}}, {"name": "4b4f90028f79fdef6216ceed6b37545f", "fusion_lat": 0.0, "type": "electric_scooter", "lat": 38.90470466666667, "is_reserved": 0, "is_disabled": 0, "fusion_lon": 0.0, "bike_id": "4b4f90028f79fdef6216ceed6b37545f", "lon": -77.028081, "rental_uris": {"ios": "https://dc.lft.to/lastmile_qr_scan", "android": "https://dc.lft.to/lastmile_qr_scan"}}, {"name": "8fb89fbf09527650c6181e6cb367d6bb", "fusion_lat": 0.0, "type": "electric_bike", "lat": 38.928683666666664, "is_reserved": 0, "is_disabled": 0, "fusion_lon": 0.0, "bike_id": "8fb89fbf09527650c6181e6cb367d6bb", "lon": -76.96108183333334, "rental_uris": {"ios": "https://dc.lft.to/lastmile_qr_scan", "android": "https://dc.lft.to/lastmile_qr_scan"}}, {"name": "519a2332c6f7582e84f8185a10225a99", "fusion_lat": 0.0, "type": "electric_scooter", "lat": 38.92315416666667, "is_reserved": 0, "is_disabled": 0, "fusion_lon": 0.0, "bike_id": "519a2332c6f7582e84f8185a10225a99", "lon": -77.05467516666667, "rental_uris": {"ios": "https://dc.lft.to/lastmile_qr_scan", "android": "https://dc.lft.to/lastmile_qr_scan"}}, {"name": "e9e3c3ddf49be4be5d7d84adf0af3f6c", "fusion_lat": 0.0, "type": "electric_scooter", "lat": 38.940437833333334, "is_reserved": 0, "is_disabled": 0, "fusion_lon": 0.0, "bike_id": "e9e3c3ddf49be4be5d7d84adf0af3f6c", "lon": -77.0297405, "rental_uris": {"ios": "https://dc.lft.to/lastmile_qr_scan", "android": "https://dc.lft.to/lastmile_qr_scan"}}, {"name": "5c23f48b57bf756495eb1cafd09dee50", "fusion_lat": 0.0, "type": "electric_scooter", "lat": 38.9656245, "is_reserved": 0, "is_disabled": 0, "fusion_lon": 0.0, "bike_id": "5c23f48b57bf756495eb1cafd09dee50", "lon": -77.01612433333334, "rental_uris": {"ios": "https://dc.lft.to/lastmile_qr_scan", "android": "https://dc.lft.to/lastmile_qr_scan"}}, {"name": "ab21afb6bf32f04c21bd4373c12b6e82", "fusion_lat": 0.0, "type": "electric_scooter", "lat": 38.90653566666667, "is_reserved": 0, "is_disabled": 0, "fusion_lon": 0.0, "bike_id": "ab21afb6bf32f04c21bd4373c12b6e82", "lon": -77.039084, "rental_uris": {"ios": "https://dc.lft.to/lastmile_qr_scan", "android": "https://dc.lft.to/lastmile_qr_scan"}}, {"name": "442f1d84a2dbf7af63ffdebf29bc8305", "fusion_lat": 0.0, "type": "electric_scooter", "lat": 38.931043833333334, "is_reserved": 0, "is_disabled": 0, "fusion_lon": 0.0, "bike_id": "442f1d84a2dbf7af63ffdebf29bc8305", "lon": -77.03727533333333, "rental_uris": {"ios": "https://dc.lft.to/lastmile_qr_scan", "android": "https://dc.lft.to/lastmile_qr_scan"}}, {"name": "974ad0edd3735d19743865b913f12e75", "fusion_lat": 0.0, "type": "electric_scooter", "lat": 38.9056575, "is_reserved": 0, "is_disabled": 0, "fusion_lon": 0.0, "bike_id": "974ad0edd3735d19743865b913f12e75", "lon": -77.04862166666666, "rental_uris": {"ios": "https://dc.lft.to/lastmile_qr_scan", "android": "https://dc.lft.to/lastmile_qr_scan"}}, {"name": "b288d1f396a1ec80e16522a315b05c30", "fusion_lat": 0.0, "type": "electric_scooter", "lat": 38.914035, "is_reserved": 0, "is_disabled": 0, "fusion_lon": 0.0, "bike_id": "b288d1f396a1ec80e16522a315b05c30", "lon": -77.00805566666666, "rental_uris": {"ios": "https://dc.lft.to/lastmile_qr_scan", "android": "https://dc.lft.to/lastmile_qr_scan"}}, {"name": "d6064319ba6e840e846442d4bfb3c454", "fusion_lat": 0.0, "type": "electric_scooter", "lat": 38.8834, "is_reserved": 0, "is_disabled": 0, "fusion_lon": 0.0, "bike_id": "d6064319ba6e840e846442d4bfb3c454", "lon": -77.02312616666667, "rental_uris": {"ios": "https://dc.lft.to/lastmile_qr_scan", "android": "https://dc.lft.to/lastmile_qr_scan"}}, {"name": "13adeca676a9d86f390fc6f49bb826af", "fusion_lat": 0.0, "type": "electric_scooter", "lat": 38.90864066666666, "is_reserved": 0, "is_disabled": 0, "fusion_lon": 0.0, "bike_id": "13adeca676a9d86f390fc6f49bb826af", "lon": -77.032195, "rental_uris": {"ios": "https://dc.lft.to/lastmile_qr_scan", "android": "https://dc.lft.to/lastmile_qr_scan"}}, {"name": "27614853f436c17179a805fffdc37bcf", "fusion_lat": 0.0, "type": "electric_scooter", "lat": 38.908195166666665, "is_reserved": 0, "is_disabled": 0, "fusion_lon": 0.0, "bike_id": "27614853f436c17179a805fffdc37bcf", "lon": -76.997128, "rental_uris": {"ios": "https://dc.lft.to/lastmile_qr_scan", "android": "https://dc.lft.to/lastmile_qr_scan"}}, {"name": "22c82e52c1aa55b2aba2ba29e42e80ee", "fusion_lat": 0.0, "type": "electric_bike", "lat": 38.9675555, "is_reserved": 0, "is_disabled": 0, "fusion_lon": 0.0, "bike_id": "22c82e52c1aa55b2aba2ba29e42e80ee", "lon": -77.09162266666667, "rental_uris": {"ios": "https://dc.lft.to/lastmile_qr_scan", "android": "https://dc.lft.to/lastmile_qr_scan"}}, {"name": "8a57e5327a347f2c6880716b3937298d", "fusion_lat": 0.0, "type": "electric_scooter", "lat": 38.92605116666667, "is_reserved": 0, "is_disabled": 0, "fusion_lon": 0.0, "bike_id": "8a57e5327a347f2c6880716b3937298d", "lon": -77.02150666666667, "rental_uris": {"ios": "https://dc.lft.to/lastmile_qr_scan", "android": "https://dc.lft.to/lastmile_qr_scan"}}, {"name": "9bb6df48b264de34af45e8099663ea78", "fusion_lat": 0.0, "type": "electric_scooter", "lat": 38.901216166666664, "is_reserved": 0, "is_disabled": 0, "fusion_lon": 0.0, "bike_id": "9bb6df48b264de34af45e8099663ea78", "lon": -77.039824, "rental_uris": {"ios": "https://dc.lft.to/lastmile_qr_scan", "android": "https://dc.lft.to/lastmile_qr_scan"}}, {"name": "616ae1274208d59f1ee6e58e57138205", "fusion_lat": 0.0, "type": "electric_bike", "lat": 38.861634, "is_reserved": 0, "is_disabled": 0, "fusion_lon": 0.0, "bike_id": "616ae1274208d59f1ee6e58e57138205", "lon": -77.1309245, "rental_uris": {"ios": "https://dc.lft.to/lastmile_qr_scan", "android": "https://dc.lft.to/lastmile_qr_scan"}}, {"name": "610bbc85b6336c2aedd958be70d602ac", "fusion_lat": 0.0, "type": "electric_bike", "lat": 38.903545333333334, "is_reserved": 0, "is_disabled": 0, "fusion_lon": 0.0, "bike_id": "610bbc85b6336c2aedd958be70d602ac", "lon": -77.03955566666667, "rental_uris": {"ios": "https://dc.lft.to/lastmile_qr_scan", "android": "https://dc.lft.to/lastmile_qr_scan"}}, {"name": "0338284356358f05d3851e95b93d8296", "fusion_lat": 0.0, "type": "electric_scooter", "lat": 38.921774, "is_reserved": 0, "is_disabled": 0, "fusion_lon": 0.0, "bike_id": "0338284356358f05d3851e95b93d8296", "lon": -77.02657233333333, "rental_uris": {"ios": "https://dc.lft.to/lastmile_qr_scan", "android": "https://dc.lft.to/lastmile_qr_scan"}}, {"name": "ce4964366e55a54b075af6716d61faa7", "fusion_lat": 0.0, "type": "electric_scooter", "lat": 38.88744333333333, "is_reserved": 0, "is_disabled": 0, "fusion_lon": 0.0, "bike_id": "ce4964366e55a54b075af6716d61faa7", "lon": -77.01542083333334, "rental_uris": {"ios": "https://dc.lft.to/lastmile_qr_scan", "android": "https://dc.lft.to/lastmile_qr_scan"}}, {"name": "623c593b6ccaa10e5ab00a7d70d39928", "fusion_lat": 0.0, "type": "electric_scooter", "lat": 38.90236066666667, "is_reserved": 0, "is_disabled": 0, "fusion_lon": 0.0, "bike_id": "623c593b6ccaa10e5ab00a7d70d39928", "lon": -76.97411916666667, "rental_uris": {"ios": "https://dc.lft.to/lastmile_qr_scan", "android": "https://dc.lft.to/lastmile_qr_scan"}}, {"name": "eb4f7a173ba9243639c85d08f2abf688", "fusion_lat": 0.0, "type": "electric_scooter", "lat": 38.893983, "is_reserved": 0, "is_disabled": 0, "fusion_lon": 0.0, "bike_id": "eb4f7a173ba9243639c85d08f2abf688", "lon": -76.94805733333334, "rental_uris": {"ios": "https://dc.lft.to/lastmile_qr_scan", "android": "https://dc.lft.to/lastmile_qr_scan"}}, {"name": "237f35f222f4dcca4a565ab68a9218c6", "fusion_lat": 0.0, "type": "electric_scooter", "lat": 38.884301666666666, "is_reserved": 0, "is_disabled": 0, "fusion_lon": 0.0, "bike_id": "237f35f222f4dcca4a565ab68a9218c6", "lon": -76.95755783333334, "rental_uris": {"ios": "https://dc.lft.to/lastmile_qr_scan", "android": "https://dc.lft.to/lastmile_qr_scan"}}, {"name": "025cce8cddf4d92b9f0b6145eb94890d", "fusion_lat": 0.0, "type": "electric_scooter", "lat": 38.89732083333333, "is_reserved": 0, "is_disabled": 0, "fusion_lon": 0.0, "bike_id": "025cce8cddf4d92b9f0b6145eb94890d", "lon": -77.0467165, "rental_uris": {"ios": "https://dc.lft.to/lastmile_qr_scan", "android": "https://dc.lft.to/lastmile_qr_scan"}}, {"name": "d67a0e2f3a1fb1c49c867f634df31ef6", "fusion_lat": 0.0, "type": "electric_scooter", "lat": 38.9042165, "is_reserved": 0, "is_disabled": 0, "fusion_lon": 0.0, "bike_id": "d67a0e2f3a1fb1c49c867f634df31ef6", "lon": -77.018832, "rental_uris": {"ios": "https://dc.lft.to/lastmile_qr_scan", "android": "https://dc.lft.to/lastmile_qr_scan"}}, {"name": "9f13d10f367fa2dbf9961479b028de47", "fusion_lat": 0.0, "type": "electric_scooter", "lat": 38.92527833333333, "is_reserved": 0, "is_disabled": 0, "fusion_lon": 0.0, "bike_id": "9f13d10f367fa2dbf9961479b028de47", "lon": -77.05559566666666, "rental_uris": {"ios": "https://dc.lft.to/lastmile_qr_scan", "android": "https://dc.lft.to/lastmile_qr_scan"}}, {"name": "be5876596a1e0da8e672aa379337a420", "fusion_lat": 0.0, "type": "electric_scooter", "lat": 38.857077, "is_reserved": 0, "is_disabled": 0, "fusion_lon": 0.0, "bike_id": "be5876596a1e0da8e672aa379337a420", "lon": -76.981267, "rental_uris": {"ios": "https://dc.lft.to/lastmile_qr_scan", "android": "https://dc.lft.to/lastmile_qr_scan"}}, {"name": "8ae7a50aa6a1daa5fb810171ebc780af", "fusion_lat": 0.0, "type": "electric_scooter", "lat": 38.9083375, "is_reserved": 0, "is_disabled": 0, "fusion_lon": 0.0, "bike_id": "8ae7a50aa6a1daa5fb810171ebc780af", "lon": -76.9970045, "rental_uris": {"ios": "https://dc.lft.to/lastmile_qr_scan", "android": "https://dc.lft.to/lastmile_qr_scan"}}, {"name": "c81ccc19b5c9595b9543334904fd14a0", "fusion_lat": 0.0, "type": "electric_scooter", "lat": 38.90338583333333, "is_reserved": 0, "is_disabled": 0, "fusion_lon": 0.0, "bike_id": "c81ccc19b5c9595b9543334904fd14a0", "lon": -77.0655595, "rental_uris": {"ios": "https://dc.lft.to/lastmile_qr_scan", "android": "https://dc.lft.to/lastmile_qr_scan"}}, {"name": "adb2d512904da7f91ff1156d9c65b78e", "fusion_lat": 0.0, "type": "electric_scooter", "lat": 38.9064105, "is_reserved": 0, "is_disabled": 0, "fusion_lon": 0.0, "bike_id": "adb2d512904da7f91ff1156d9c65b78e", "lon": -77.0346605, "rental_uris": {"ios": "https://dc.lft.to/lastmile_qr_scan", "android": "https://dc.lft.to/lastmile_qr_scan"}}, {"name": "f6edaff48d0527b75bbd879a6e135224", "fusion_lat": 0.0, "type": "electric_scooter", "lat": 38.939739, "is_reserved": 0, "is_disabled": 0, "fusion_lon": 0.0, "bike_id": "f6edaff48d0527b75bbd879a6e135224", "lon": -77.03554166666666, "rental_uris": {"ios": "https://dc.lft.to/lastmile_qr_scan", "android": "https://dc.lft.to/lastmile_qr_scan"}}, {"name": "062bece7e7fc761e0ffff9972624cca1", "fusion_lat": 0.0, "type": "electric_scooter", "lat": 38.88740283333333, "is_reserved": 0, "is_disabled": 0, "fusion_lon": 0.0, "bike_id": "062bece7e7fc761e0ffff9972624cca1", "lon": -77.0213005, "rental_uris": {"ios": "https://dc.lft.to/lastmile_qr_scan", "android": "https://dc.lft.to/lastmile_qr_scan"}}, {"name": "dceb8934fc5e100b4be50f32ff552cfa", "fusion_lat": 0.0, "type": "electric_bike", "lat": 38.838107, "is_reserved": 0, "is_disabled": 0, "fusion_lon": 0.0, "bike_id": "dceb8934fc5e100b4be50f32ff552cfa", "lon": -77.095224, "rental_uris": {"ios": "https://dc.lft.to/lastmile_qr_scan", "android": "https://dc.lft.to/lastmile_qr_scan"}}, {"name": "9c040d22f5649fda8bb17f3ec830fa03", "fusion_lat": 0.0, "type": "electric_scooter", "lat": 38.899045, "is_reserved": 0, "is_disabled": 0, "fusion_lon": 0.0, "bike_id": "9c040d22f5649fda8bb17f3ec830fa03", "lon": -77.03937233333333, "rental_uris": {"ios": "https://dc.lft.to/lastmile_qr_scan", "android": "https://dc.lft.to/lastmile_qr_scan"}}, {"name": "2c5f134933aa79c1fb3e0b52e047d0ed", "fusion_lat": 0.0, "type": "electric_scooter", "lat": 38.9084955, "is_reserved": 0, "is_disabled": 0, "fusion_lon": 0.0, "bike_id": "2c5f134933aa79c1fb3e0b52e047d0ed", "lon": -77.0432475, "rental_uris": {"ios": "https://dc.lft.to/lastmile_qr_scan", "android": "https://dc.lft.to/lastmile_qr_scan"}}, {"name": "119323a605c2ea416e5f480052e5185f", "fusion_lat": 0.0, "type": "electric_scooter", "lat": 38.9337005, "is_reserved": 0, "is_disabled": 0, "fusion_lon": 0.0, "bike_id": "119323a605c2ea416e5f480052e5185f", "lon": -77.03451833333334, "rental_uris": {"ios": "https://dc.lft.to/lastmile_qr_scan", "android": "https://dc.lft.to/lastmile_qr_scan"}}, {"name": "5b3b3457a1e11a3c1c6562090d7ab117", "fusion_lat": 0.0, "type": "electric_scooter", "lat": 38.8991365, "is_reserved": 0, "is_disabled": 0, "fusion_lon": 0.0, "bike_id": "5b3b3457a1e11a3c1c6562090d7ab117", "lon": -77.03214916666667, "rental_uris": {"ios": "https://dc.lft.to/lastmile_qr_scan", "android": "https://dc.lft.to/lastmile_qr_scan"}}, {"name": "94323737ff6c66905b6df2e84dbcea46", "fusion_lat": 0.0, "type": "electric_scooter", "lat": 38.91705316666667, "is_reserved": 0, "is_disabled": 0, "fusion_lon": 0.0, "bike_id": "94323737ff6c66905b6df2e84dbcea46", "lon": -77.03122516666667, "rental_uris": {"ios": "https://dc.lft.to/lastmile_qr_scan", "android": "https://dc.lft.to/lastmile_qr_scan"}}, {"name": "b0041504987cce9abbcc0fe063f4580c", "fusion_lat": 0.0, "type": "electric_scooter", "lat": 38.9064565, "is_reserved": 0, "is_disabled": 0, "fusion_lon": 0.0, "bike_id": "b0041504987cce9abbcc0fe063f4580c", "lon": -77.053373, "rental_uris": {"ios": "https://dc.lft.to/lastmile_qr_scan", "android": "https://dc.lft.to/lastmile_qr_scan"}}, {"name": "62d4efbe4c75f0fa76674e5234985a00", "fusion_lat": 0.0, "type": "electric_scooter", "lat": 38.89852416666667, "is_reserved": 0, "is_disabled": 0, "fusion_lon": 0.0, "bike_id": "62d4efbe4c75f0fa76674e5234985a00", "lon": -77.0160895, "rental_uris": {"ios": "https://dc.lft.to/lastmile_qr_scan", "android": "https://dc.lft.to/lastmile_qr_scan"}}, {"name": "dcfdc7c7fdedd8ed4946f3520a673861", "fusion_lat": 0.0, "type": "electric_scooter", "lat": 38.880526333333336, "is_reserved": 0, "is_disabled": 0, "fusion_lon": 0.0, "bike_id": "dcfdc7c7fdedd8ed4946f3520a673861", "lon": -77.01322833333333, "rental_uris": {"ios": "https://dc.lft.to/lastmile_qr_scan", "android": "https://dc.lft.to/lastmile_qr_scan"}}, {"name": "1ce613cac6721a7cbade63049870b834", "fusion_lat": 0.0, "type": "electric_scooter", "lat": 38.91763233333333, "is_reserved": 0, "is_disabled": 0, "fusion_lon": 0.0, "bike_id": "1ce613cac6721a7cbade63049870b834", "lon": -77.01494583333333, "rental_uris": {"ios": "https://dc.lft.to/lastmile_qr_scan", "android": "https://dc.lft.to/lastmile_qr_scan"}}, {"name": "12cf23825c4793e140622188ba82ca63", "fusion_lat": 0.0, "type": "electric_scooter", "lat": 38.905682, "is_reserved": 0, "is_disabled": 0, "fusion_lon": 0.0, "bike_id": "12cf23825c4793e140622188ba82ca63", "lon": -77.005969, "rental_uris": {"ios": "https://dc.lft.to/lastmile_qr_scan", "android": "https://dc.lft.to/lastmile_qr_scan"}}, {"name": "60e862b6f2a25e1d4d05f13a2ed9e21c", "fusion_lat": 0.0, "type": "electric_scooter", "lat": 38.8919235, "is_reserved": 0, "is_disabled": 0, "fusion_lon": 0.0, "bike_id": "60e862b6f2a25e1d4d05f13a2ed9e21c", "lon": -77.00295666666666, "rental_uris": {"ios": "https://dc.lft.to/lastmile_qr_scan", "android": "https://dc.lft.to/lastmile_qr_scan"}}, {"name": "05fcec2022fcd8047d60543068ed9474", "fusion_lat": 0.0, "type": "electric_scooter", "lat": 38.91549116666667, "is_reserved": 0, "is_disabled": 0, "fusion_lon": 0.0, "bike_id": "05fcec2022fcd8047d60543068ed9474", "lon": -77.0351515, "rental_uris": {"ios": "https://dc.lft.to/lastmile_qr_scan", "android": "https://dc.lft.to/lastmile_qr_scan"}}, {"name": "a8bed1be2cb1d0d354ab099bbfadc322", "fusion_lat": 0.0, "type": "electric_bike", "lat": 38.946233, "is_reserved": 0, "is_disabled": 0, "fusion_lon": 0.0, "bike_id": "a8bed1be2cb1d0d354ab099bbfadc322", "lon": -76.94627233333334, "rental_uris": {"ios": "https://dc.lft.to/lastmile_qr_scan", "android": "https://dc.lft.to/lastmile_qr_scan"}}, {"name": "25b5942f7cfd00bcd15feb8cb4aee56e", "fusion_lat": 0.0, "type": "electric_scooter", "lat": 38.90018466666667, "is_reserved": 0, "is_disabled": 0, "fusion_lon": 0.0, "bike_id": "25b5942f7cfd00bcd15feb8cb4aee56e", "lon": -77.039802, "rental_uris": {"ios": "https://dc.lft.to/lastmile_qr_scan", "android": "https://dc.lft.to/lastmile_qr_scan"}}, {"name": "82080f94d6af466e942008897b1f22a7", "fusion_lat": 0.0, "type": "electric_scooter", "lat": 38.916929, "is_reserved": 0, "is_disabled": 0, "fusion_lon": 0.0, "bike_id": "82080f94d6af466e942008897b1f22a7", "lon": -77.0376105, "rental_uris": {"ios": "https://dc.lft.to/lastmile_qr_scan", "android": "https://dc.lft.to/lastmile_qr_scan"}}, {"name": "b7779b9b2b1467170eff21c03a1f71b7", "fusion_lat": 0.0, "type": "electric_scooter", "lat": 38.920646, "is_reserved": 0, "is_disabled": 0, "fusion_lon": 0.0, "bike_id": "b7779b9b2b1467170eff21c03a1f71b7", "lon": -76.99852583333333, "rental_uris": {"ios": "https://dc.lft.to/lastmile_qr_scan", "android": "https://dc.lft.to/lastmile_qr_scan"}}, {"name": "fc3ca5f113d6b0acd64e4dd283551a06", "fusion_lat": 0.0, "type": "electric_scooter", "lat": 38.92830883333333, "is_reserved": 0, "is_disabled": 0, "fusion_lon": 0.0, "bike_id": "fc3ca5f113d6b0acd64e4dd283551a06", "lon": -77.03288466666666, "rental_uris": {"ios": "https://dc.lft.to/lastmile_qr_scan", "android": "https://dc.lft.to/lastmile_qr_scan"}}, {"name": "7e7daa83017f37dece9db3000e385530", "fusion_lat": 0.0, "type": "electric_bike", "lat": 38.873071333333336, "is_reserved": 0, "is_disabled": 0, "fusion_lon": 0.0, "bike_id": "7e7daa83017f37dece9db3000e385530", "lon": -77.01095816666667, "rental_uris": {"ios": "https://dc.lft.to/lastmile_qr_scan", "android": "https://dc.lft.to/lastmile_qr_scan"}}, {"name": "df0b010d66e55ad34cfb006ca4966a44", "fusion_lat": 0.0, "type": "electric_scooter", "lat": 38.911105666666664, "is_reserved": 0, "is_disabled": 0, "fusion_lon": 0.0, "bike_id": "df0b010d66e55ad34cfb006ca4966a44", "lon": -77.03727466666666, "rental_uris": {"ios": "https://dc.lft.to/lastmile_qr_scan", "android": "https://dc.lft.to/lastmile_qr_scan"}}, {"name": "473677ae5cac3c919344d0795bdb8e42", "fusion_lat": 0.0, "type": "electric_scooter", "lat": 38.9215185, "is_reserved": 0, "is_disabled": 0, "fusion_lon": 0.0, "bike_id": "473677ae5cac3c919344d0795bdb8e42", "lon": -77.03430433333334, "rental_uris": {"ios": "https://dc.lft.to/lastmile_qr_scan", "android": "https://dc.lft.to/lastmile_qr_scan"}}, {"name": "664f0b1e577abf06d5f6c30786a14690", "fusion_lat": 0.0, "type": "electric_scooter", "lat": 38.911842666666665, "is_reserved": 0, "is_disabled": 0, "fusion_lon": 0.0, "bike_id": "664f0b1e577abf06d5f6c30786a14690", "lon": -77.03142633333333, "rental_uris": {"ios": "https://dc.lft.to/lastmile_qr_scan", "android": "https://dc.lft.to/lastmile_qr_scan"}}, {"name": "cb93f0c4bbb89cd3a9200bc06771cd15", "fusion_lat": 0.0, "type": "electric_scooter", "lat": 38.907318, "is_reserved": 0, "is_disabled": 0, "fusion_lon": 0.0, "bike_id": "cb93f0c4bbb89cd3a9200bc06771cd15", "lon": -77.03485333333333, "rental_uris": {"ios": "https://dc.lft.to/lastmile_qr_scan", "android": "https://dc.lft.to/lastmile_qr_scan"}}, {"name": "0e3090e8a30bbe0609f7ece6b3c773c1", "fusion_lat": 0.0, "type": "electric_scooter", "lat": 38.88315016666667, "is_reserved": 0, "is_disabled": 0, "fusion_lon": 0.0, "bike_id": "0e3090e8a30bbe0609f7ece6b3c773c1", "lon": -77.00595483333333, "rental_uris": {"ios": "https://dc.lft.to/lastmile_qr_scan", "android": "https://dc.lft.to/lastmile_qr_scan"}}, {"name": "aaef5dce31d3286fa58ebc08c2c75461", "fusion_lat": 0.0, "type": "electric_scooter", "lat": 38.884871, "is_reserved": 0, "is_disabled": 0, "fusion_lon": 0.0, "bike_id": "aaef5dce31d3286fa58ebc08c2c75461", "lon": -77.007108, "rental_uris": {"ios": "https://dc.lft.to/lastmile_qr_scan", "android": "https://dc.lft.to/lastmile_qr_scan"}}, {"name": "b9d3f49325cc0fcc817bca57829f478c", "fusion_lat": 0.0, "type": "electric_bike", "lat": 38.973792333333336, "is_reserved": 0, "is_disabled": 0, "fusion_lon": 0.0, "bike_id": "b9d3f49325cc0fcc817bca57829f478c", "lon": -77.06465766666666, "rental_uris": {"ios": "https://dc.lft.to/lastmile_qr_scan", "android": "https://dc.lft.to/lastmile_qr_scan"}}, {"name": "df5d4e1266e1708eb8fd9d1a124a93b6", "fusion_lat": 0.0, "type": "electric_scooter", "lat": 38.912737, "is_reserved": 0, "is_disabled": 0, "fusion_lon": 0.0, "bike_id": "df5d4e1266e1708eb8fd9d1a124a93b6", "lon": -77.03144816666666, "rental_uris": {"ios": "https://dc.lft.to/lastmile_qr_scan", "android": "https://dc.lft.to/lastmile_qr_scan"}}, {"name": "cea748fdf6a4957462462f0097d4fd51", "fusion_lat": 0.0, "type": "electric_scooter", "lat": 38.922262333333336, "is_reserved": 0, "is_disabled": 0, "fusion_lon": 0.0, "bike_id": "cea748fdf6a4957462462f0097d4fd51", "lon": -77.047067, "rental_uris": {"ios": "https://dc.lft.to/lastmile_qr_scan", "android": "https://dc.lft.to/lastmile_qr_scan"}}, {"name": "ccf581b47e459cd985b9afe3362b94b1", "fusion_lat": 0.0, "type": "electric_bike", "lat": 38.999108, "is_reserved": 0, "is_disabled": 0, "fusion_lon": 0.0, "bike_id": "ccf581b47e459cd985b9afe3362b94b1", "lon": -77.046201, "rental_uris": {"ios": "https://dc.lft.to/lastmile_qr_scan", "android": "https://dc.lft.to/lastmile_qr_scan"}}, {"name": "dc80a07dca5053ecaf6efaa9bc0aa51f", "fusion_lat": 0.0, "type": "electric_scooter", "lat": 38.879003, "is_reserved": 0, "is_disabled": 0, "fusion_lon": 0.0, "bike_id": "dc80a07dca5053ecaf6efaa9bc0aa51f", "lon": -77.00139316666667, "rental_uris": {"ios": "https://dc.lft.to/lastmile_qr_scan", "android": "https://dc.lft.to/lastmile_qr_scan"}}, {"name": "75dc6bb0a7cc4eaf7d921cba516c5256", "fusion_lat": 0.0, "type": "electric_scooter", "lat": 38.921084666666665, "is_reserved": 0, "is_disabled": 0, "fusion_lon": 0.0, "bike_id": "75dc6bb0a7cc4eaf7d921cba516c5256", "lon": -77.02199716666667, "rental_uris": {"ios": "https://dc.lft.to/lastmile_qr_scan", "android": "https://dc.lft.to/lastmile_qr_scan"}}, {"name": "6dbb26145c86fbda2ebde5944e7fe3ce", "fusion_lat": 0.0, "type": "electric_scooter", "lat": 38.866591666666665, "is_reserved": 0, "is_disabled": 0, "fusion_lon": 0.0, "bike_id": "6dbb26145c86fbda2ebde5944e7fe3ce", "lon": -77.01047916666667, "rental_uris": {"ios": "https://dc.lft.to/lastmile_qr_scan", "android": "https://dc.lft.to/lastmile_qr_scan"}}, {"name": "78f9f02aa5a1106be01608446b79adda", "fusion_lat": 0.0, "type": "electric_scooter", "lat": 38.937031, "is_reserved": 0, "is_disabled": 0, "fusion_lon": 0.0, "bike_id": "78f9f02aa5a1106be01608446b79adda", "lon": -77.06097183333333, "rental_uris": {"ios": "https://dc.lft.to/lastmile_qr_scan", "android": "https://dc.lft.to/lastmile_qr_scan"}}, {"name": "dd31efe1e2eba4d525bab6b676a68d06", "fusion_lat": 0.0, "type": "electric_bike", "lat": 38.8457155, "is_reserved": 0, "is_disabled": 0, "fusion_lon": 0.0, "bike_id": "dd31efe1e2eba4d525bab6b676a68d06", "lon": -77.09624366666667, "rental_uris": {"ios": "https://dc.lft.to/lastmile_qr_scan", "android": "https://dc.lft.to/lastmile_qr_scan"}}, {"name": "e5da6bb0f15593b5133b4ac5e73c38ff", "fusion_lat": 0.0, "type": "electric_scooter", "lat": 38.92366416666667, "is_reserved": 0, "is_disabled": 0, "fusion_lon": 0.0, "bike_id": "e5da6bb0f15593b5133b4ac5e73c38ff", "lon": -77.01917433333334, "rental_uris": {"ios": "https://dc.lft.to/lastmile_qr_scan", "android": "https://dc.lft.to/lastmile_qr_scan"}}, {"name": "ffd8edeaecf6625e0ad0f8142b9f2731", "fusion_lat": 0.0, "type": "electric_scooter", "lat": 38.886984, "is_reserved": 0, "is_disabled": 0, "fusion_lon": 0.0, "bike_id": "ffd8edeaecf6625e0ad0f8142b9f2731", "lon": -77.033641, "rental_uris": {"ios": "https://dc.lft.to/lastmile_qr_scan", "android": "https://dc.lft.to/lastmile_qr_scan"}}, {"name": "72ffe91b627649d1683eb8cb258bdf50", "fusion_lat": 0.0, "type": "electric_scooter", "lat": 38.889904, "is_reserved": 0, "is_disabled": 0, "fusion_lon": 0.0, "bike_id": "72ffe91b627649d1683eb8cb258bdf50", "lon": -77.0011485, "rental_uris": {"ios": "https://dc.lft.to/lastmile_qr_scan", "android": "https://dc.lft.to/lastmile_qr_scan"}}, {"name": "ffe9fb82249f2de49d1d542aab9578ef", "fusion_lat": 0.0, "type": "electric_scooter", "lat": 38.94835916666667, "is_reserved": 0, "is_disabled": 0, "fusion_lon": 0.0, "bike_id": "ffe9fb82249f2de49d1d542aab9578ef", "lon": -77.02552283333333, "rental_uris": {"ios": "https://dc.lft.to/lastmile_qr_scan", "android": "https://dc.lft.to/lastmile_qr_scan"}}, {"name": "391f2bedade93a47f6a46b8264e895ce", "fusion_lat": 0.0, "type": "electric_scooter", "lat": 38.897240333333336, "is_reserved": 0, "is_disabled": 0, "fusion_lon": 0.0, "bike_id": "391f2bedade93a47f6a46b8264e895ce", "lon": -77.02160916666666, "rental_uris": {"ios": "https://dc.lft.to/lastmile_qr_scan", "android": "https://dc.lft.to/lastmile_qr_scan"}}, {"name": "4076debc16e030214454bf7c4a75acb3", "fusion_lat": 0.0, "type": "electric_bike", "lat": 38.8787245, "is_reserved": 0, "is_disabled": 0, "fusion_lon": 0.0, "bike_id": "4076debc16e030214454bf7c4a75acb3", "lon": -77.02300466666667, "rental_uris": {"ios": "https://dc.lft.to/lastmile_qr_scan", "android": "https://dc.lft.to/lastmile_qr_scan"}}, {"name": "55ff37223f2b3986453bf1e7a823cbf3", "fusion_lat": 0.0, "type": "electric_bike", "lat": 38.870607666666665, "is_reserved": 0, "is_disabled": 0, "fusion_lon": 0.0, "bike_id": "55ff37223f2b3986453bf1e7a823cbf3", "lon": -77.110709, "rental_uris": {"ios": "https://dc.lft.to/lastmile_qr_scan", "android": "https://dc.lft.to/lastmile_qr_scan"}}, {"name": "8728deea115b86327c1d34b0a8c82b42", "fusion_lat": 0.0, "type": "electric_scooter", "lat": 38.9155885, "is_reserved": 0, "is_disabled": 0, "fusion_lon": 0.0, "bike_id": "8728deea115b86327c1d34b0a8c82b42", "lon": -77.032335, "rental_uris": {"ios": "https://dc.lft.to/lastmile_qr_scan", "android": "https://dc.lft.to/lastmile_qr_scan"}}, {"name": "4c8bcd6d29d3b652257f6b8b0b554eb3", "fusion_lat": 0.0, "type": "electric_scooter", "lat": 38.90272783333333, "is_reserved": 0, "is_disabled": 0, "fusion_lon": 0.0, "bike_id": "4c8bcd6d29d3b652257f6b8b0b554eb3", "lon": -77.03834966666666, "rental_uris": {"ios": "https://dc.lft.to/lastmile_qr_scan", "android": "https://dc.lft.to/lastmile_qr_scan"}}, {"name": "43ed6a5dcc3358ee4c79e98673dedd47", "fusion_lat": 0.0, "type": "electric_scooter", "lat": 38.8775135, "is_reserved": 0, "is_disabled": 0, "fusion_lon": 0.0, "bike_id": "43ed6a5dcc3358ee4c79e98673dedd47", "lon": -76.97238383333334, "rental_uris": {"ios": "https://dc.lft.to/lastmile_qr_scan", "android": "https://dc.lft.to/lastmile_qr_scan"}}, {"name": "67efdc7e35d66a1ac68c450b504521c9", "fusion_lat": 0.0, "type": "electric_scooter", "lat": 38.8665745, "is_reserved": 0, "is_disabled": 0, "fusion_lon": 0.0, "bike_id": "67efdc7e35d66a1ac68c450b504521c9", "lon": -76.98885033333333, "rental_uris": {"ios": "https://dc.lft.to/lastmile_qr_scan", "android": "https://dc.lft.to/lastmile_qr_scan"}}, {"name": "c879208165824e3b1154775ae6a739f9", "fusion_lat": 0.0, "type": "electric_scooter", "lat": 38.92325833333334, "is_reserved": 0, "is_disabled": 0, "fusion_lon": 0.0, "bike_id": "c879208165824e3b1154775ae6a739f9", "lon": -77.03782483333333, "rental_uris": {"ios": "https://dc.lft.to/lastmile_qr_scan", "android": "https://dc.lft.to/lastmile_qr_scan"}}, {"name": "25e092342e2131bd41cd5a9572460546", "fusion_lat": 0.0, "type": "electric_scooter", "lat": 38.881030333333335, "is_reserved": 0, "is_disabled": 0, "fusion_lon": 0.0, "bike_id": "25e092342e2131bd41cd5a9572460546", "lon": -77.0120785, "rental_uris": {"ios": "https://dc.lft.to/lastmile_qr_scan", "android": "https://dc.lft.to/lastmile_qr_scan"}}, {"name": "bd63ca866f384a3674327e3e2d2be929", "fusion_lat": 0.0, "type": "electric_bike", "lat": 38.92807166666667, "is_reserved": 0, "is_disabled": 0, "fusion_lon": 0.0, "bike_id": "bd63ca866f384a3674327e3e2d2be929", "lon": -77.0436855, "rental_uris": {"ios": "https://dc.lft.to/lastmile_qr_scan", "android": "https://dc.lft.to/lastmile_qr_scan"}}, {"name": "7808743016e8c64862636aa78ea81690", "fusion_lat": 0.0, "type": "electric_scooter", "lat": 38.906711333333334, "is_reserved": 0, "is_disabled": 0, "fusion_lon": 0.0, "bike_id": "7808743016e8c64862636aa78ea81690", "lon": -77.02698, "rental_uris": {"ios": "https://dc.lft.to/lastmile_qr_scan", "android": "https://dc.lft.to/lastmile_qr_scan"}}, {"name": "e84ebdd49c87841762b976cac2484612", "fusion_lat": 0.0, "type": "electric_bike", "lat": 38.902832, "is_reserved": 0, "is_disabled": 0, "fusion_lon": 0.0, "bike_id": "e84ebdd49c87841762b976cac2484612", "lon": -77.05997433333333, "rental_uris": {"ios": "https://dc.lft.to/lastmile_qr_scan", "android": "https://dc.lft.to/lastmile_qr_scan"}}, {"name": "6fd06793627b7bcb1669c5745afefa0b", "fusion_lat": 0.0, "type": "electric_bike", "lat": 38.885292166666666, "is_reserved": 0, "is_disabled": 0, "fusion_lon": 0.0, "bike_id": "6fd06793627b7bcb1669c5745afefa0b", "lon": -76.997708, "rental_uris": {"ios": "https://dc.lft.to/lastmile_qr_scan", "android": "https://dc.lft.to/lastmile_qr_scan"}}, {"name": "c4d6f8d764e596a9022efdf34e68b926", "fusion_lat": 0.0, "type": "electric_scooter", "lat": 38.90718183333333, "is_reserved": 0, "is_disabled": 0, "fusion_lon": 0.0, "bike_id": "c4d6f8d764e596a9022efdf34e68b926", "lon": -77.028905, "rental_uris": {"ios": "https://dc.lft.to/lastmile_qr_scan", "android": "https://dc.lft.to/lastmile_qr_scan"}}, {"name": "f85af38c3695957e53a284a3ebd584c4", "fusion_lat": 0.0, "type": "electric_scooter", "lat": 38.88588416666666, "is_reserved": 0, "is_disabled": 0, "fusion_lon": 0.0, "bike_id": "f85af38c3695957e53a284a3ebd584c4", "lon": -77.03163433333333, "rental_uris": {"ios": "https://dc.lft.to/lastmile_qr_scan", "android": "https://dc.lft.to/lastmile_qr_scan"}}, {"name": "d4ed63a869781baabecde75c1994b915", "fusion_lat": 0.0, "type": "electric_bike", "lat": 38.894703, "is_reserved": 0, "is_disabled": 0, "fusion_lon": 0.0, "bike_id": "d4ed63a869781baabecde75c1994b915", "lon": -77.0218945, "rental_uris": {"ios": "https://dc.lft.to/lastmile_qr_scan", "android": "https://dc.lft.to/lastmile_qr_scan"}}, {"name": "80dd85902875a1b073e2cc351d592687", "fusion_lat": 0.0, "type": "electric_scooter", "lat": 38.92973766666667, "is_reserved": 0, "is_disabled": 0, "fusion_lon": 0.0, "bike_id": "80dd85902875a1b073e2cc351d592687", "lon": -77.07924333333334, "rental_uris": {"ios": "https://dc.lft.to/lastmile_qr_scan", "android": "https://dc.lft.to/lastmile_qr_scan"}}, {"name": "624aeabddebc52a54aa49f183879649b", "fusion_lat": 0.0, "type": "electric_scooter", "lat": 38.909661666666665, "is_reserved": 0, "is_disabled": 0, "fusion_lon": 0.0, "bike_id": "624aeabddebc52a54aa49f183879649b", "lon": -77.03375183333333, "rental_uris": {"ios": "https://dc.lft.to/lastmile_qr_scan", "android": "https://dc.lft.to/lastmile_qr_scan"}}, {"name": "8935986b382983076299fe7f741ce444", "fusion_lat": 0.0, "type": "electric_scooter", "lat": 38.915616666666665, "is_reserved": 0, "is_disabled": 0, "fusion_lon": 0.0, "bike_id": "8935986b382983076299fe7f741ce444", "lon": -77.05214416666666, "rental_uris": {"ios": "https://dc.lft.to/lastmile_qr_scan", "android": "https://dc.lft.to/lastmile_qr_scan"}}, {"name": "432daeb6c417ec17869398188f88c279", "fusion_lat": 0.0, "type": "electric_scooter", "lat": 38.89516033333334, "is_reserved": 0, "is_disabled": 0, "fusion_lon": 0.0, "bike_id": "432daeb6c417ec17869398188f88c279", "lon": -76.9914265, "rental_uris": {"ios": "https://dc.lft.to/lastmile_qr_scan", "android": "https://dc.lft.to/lastmile_qr_scan"}}, {"name": "affa4ed79f515fcfa6c1d8e573e2730b", "fusion_lat": 0.0, "type": "electric_scooter", "lat": 38.920668, "is_reserved": 0, "is_disabled": 0, "fusion_lon": 0.0, "bike_id": "affa4ed79f515fcfa6c1d8e573e2730b", "lon": -77.0320575, "rental_uris": {"ios": "https://dc.lft.to/lastmile_qr_scan", "android": "https://dc.lft.to/lastmile_qr_scan"}}, {"name": "8449356c84549b55600753aac2517e96", "fusion_lat": 0.0, "type": "electric_scooter", "lat": 38.8970625, "is_reserved": 0, "is_disabled": 0, "fusion_lon": 0.0, "bike_id": "8449356c84549b55600753aac2517e96", "lon": -77.02784616666666, "rental_uris": {"ios": "https://dc.lft.to/lastmile_qr_scan", "android": "https://dc.lft.to/lastmile_qr_scan"}}, {"name": "dec3af12ec41ca75e6d20f39a7695d0f", "fusion_lat": 0.0, "type": "electric_scooter", "lat": 38.89604383333333, "is_reserved": 0, "is_disabled": 0, "fusion_lon": 0.0, "bike_id": "dec3af12ec41ca75e6d20f39a7695d0f", "lon": -77.04680783333333, "rental_uris": {"ios": "https://dc.lft.to/lastmile_qr_scan", "android": "https://dc.lft.to/lastmile_qr_scan"}}, {"name": "9e30d9f477e9dc97a485b89d4eb0596d", "fusion_lat": 0.0, "type": "electric_scooter", "lat": 38.9187155, "is_reserved": 0, "is_disabled": 0, "fusion_lon": 0.0, "bike_id": "9e30d9f477e9dc97a485b89d4eb0596d", "lon": -77.043513, "rental_uris": {"ios": "https://dc.lft.to/lastmile_qr_scan", "android": "https://dc.lft.to/lastmile_qr_scan"}}, {"name": "920b31c3f011d93893b5453bd8764de6", "fusion_lat": 0.0, "type": "electric_scooter", "lat": 38.93209, "is_reserved": 0, "is_disabled": 0, "fusion_lon": 0.0, "bike_id": "920b31c3f011d93893b5453bd8764de6", "lon": -77.02733616666667, "rental_uris": {"ios": "https://dc.lft.to/lastmile_qr_scan", "android": "https://dc.lft.to/lastmile_qr_scan"}}, {"name": "1e5babbd5d627ff353db75070d57db17", "fusion_lat": 0.0, "type": "electric_bike", "lat": 38.9686235, "is_reserved": 0, "is_disabled": 0, "fusion_lon": 0.0, "bike_id": "1e5babbd5d627ff353db75070d57db17", "lon": -77.03334016666666, "rental_uris": {"ios": "https://dc.lft.to/lastmile_qr_scan", "android": "https://dc.lft.to/lastmile_qr_scan"}}, {"name": "094b523ca4e102380e9365ac20eb812d", "fusion_lat": 0.0, "type": "electric_scooter", "lat": 38.91483766666666, "is_reserved": 0, "is_disabled": 0, "fusion_lon": 0.0, "bike_id": "094b523ca4e102380e9365ac20eb812d", "lon": -77.03235366666667, "rental_uris": {"ios": "https://dc.lft.to/lastmile_qr_scan", "android": "https://dc.lft.to/lastmile_qr_scan"}}, {"name": "24be0908975a00fedeef9ccf0a978058", "fusion_lat": 0.0, "type": "electric_scooter", "lat": 38.919063666666666, "is_reserved": 0, "is_disabled": 0, "fusion_lon": 0.0, "bike_id": "24be0908975a00fedeef9ccf0a978058", "lon": -77.03111116666666, "rental_uris": {"ios": "https://dc.lft.to/lastmile_qr_scan", "android": "https://dc.lft.to/lastmile_qr_scan"}}, {"name": "3bf6ea25759ede251ca58761a7d73410", "fusion_lat": 0.0, "type": "electric_scooter", "lat": 38.913384666666666, "is_reserved": 0, "is_disabled": 0, "fusion_lon": 0.0, "bike_id": "3bf6ea25759ede251ca58761a7d73410", "lon": -77.03126216666666, "rental_uris": {"ios": "https://dc.lft.to/lastmile_qr_scan", "android": "https://dc.lft.to/lastmile_qr_scan"}}, {"name": "860f488c80e6c472478ba02ef64bfb48", "fusion_lat": 0.0, "type": "electric_scooter", "lat": 38.903164833333335, "is_reserved": 0, "is_disabled": 0, "fusion_lon": 0.0, "bike_id": "860f488c80e6c472478ba02ef64bfb48", "lon": -77.0413135, "rental_uris": {"ios": "https://dc.lft.to/lastmile_qr_scan", "android": "https://dc.lft.to/lastmile_qr_scan"}}, {"name": "48668db85f27b5f27e17ebe6ea577c91", "fusion_lat": 0.0, "type": "electric_scooter", "lat": 38.912387333333335, "is_reserved": 0, "is_disabled": 0, "fusion_lon": 0.0, "bike_id": "48668db85f27b5f27e17ebe6ea577c91", "lon": -77.04865433333333, "rental_uris": {"ios": "https://dc.lft.to/lastmile_qr_scan", "android": "https://dc.lft.to/lastmile_qr_scan"}}, {"name": "ce24b92e3ff977076c28b2102a5c3205", "fusion_lat": 0.0, "type": "electric_scooter", "lat": 38.9305945, "is_reserved": 0, "is_disabled": 0, "fusion_lon": 0.0, "bike_id": "ce24b92e3ff977076c28b2102a5c3205", "lon": -77.03954633333333, "rental_uris": {"ios": "https://dc.lft.to/lastmile_qr_scan", "android": "https://dc.lft.to/lastmile_qr_scan"}}, {"name": "0fc443cfa28caef4b8b487fd15d08f41", "fusion_lat": 0.0, "type": "electric_scooter", "lat": 38.899724, "is_reserved": 0, "is_disabled": 0, "fusion_lon": 0.0, "bike_id": "0fc443cfa28caef4b8b487fd15d08f41", "lon": -77.03126516666667, "rental_uris": {"ios": "https://dc.lft.to/lastmile_qr_scan", "android": "https://dc.lft.to/lastmile_qr_scan"}}, {"name": "5c6001d20cccb36395d00e0f79c6b80a", "fusion_lat": 0.0, "type": "electric_scooter", "lat": 38.9056395, "is_reserved": 0, "is_disabled": 0, "fusion_lon": 0.0, "bike_id": "5c6001d20cccb36395d00e0f79c6b80a", "lon": -77.0407085, "rental_uris": {"ios": "https://dc.lft.to/lastmile_qr_scan", "android": "https://dc.lft.to/lastmile_qr_scan"}}, {"name": "965491738b74fe4638709da95988a2fd", "fusion_lat": 0.0, "type": "electric_scooter", "lat": 38.899916833333336, "is_reserved": 0, "is_disabled": 0, "fusion_lon": 0.0, "bike_id": "965491738b74fe4638709da95988a2fd", "lon": -77.04601933333333, "rental_uris": {"ios": "https://dc.lft.to/lastmile_qr_scan", "android": "https://dc.lft.to/lastmile_qr_scan"}}, {"name": "b7c43d5074e8d8322c7ebb89337562cc", "fusion_lat": 0.0, "type": "electric_scooter", "lat": 38.916418166666666, "is_reserved": 0, "is_disabled": 0, "fusion_lon": 0.0, "bike_id": "b7c43d5074e8d8322c7ebb89337562cc", "lon": -77.03177783333334, "rental_uris": {"ios": "https://dc.lft.to/lastmile_qr_scan", "android": "https://dc.lft.to/lastmile_qr_scan"}}, {"name": "875f387ec45794556fbf5a41447cd98c", "fusion_lat": 0.0, "type": "electric_scooter", "lat": 38.92822483333333, "is_reserved": 0, "is_disabled": 0, "fusion_lon": 0.0, "bike_id": "875f387ec45794556fbf5a41447cd98c", "lon": -77.0226105, "rental_uris": {"ios": "https://dc.lft.to/lastmile_qr_scan", "android": "https://dc.lft.to/lastmile_qr_scan"}}, {"name": "8d68231443faf55e8ebaa880c16f5ec4", "fusion_lat": 0.0, "type": "electric_bike", "lat": 38.842679, "is_reserved": 0, "is_disabled": 0, "fusion_lon": 0.0, "bike_id": "8d68231443faf55e8ebaa880c16f5ec4", "lon": -76.98841533333334, "rental_uris": {"ios": "https://dc.lft.to/lastmile_qr_scan", "android": "https://dc.lft.to/lastmile_qr_scan"}}, {"name": "99581b19933b18bf021ea3b93f93013b", "fusion_lat": 0.0, "type": "electric_bike", "lat": 38.9601055, "is_reserved": 0, "is_disabled": 0, "fusion_lon": 0.0, "bike_id": "99581b19933b18bf021ea3b93f93013b", "lon": -76.99878783333334, "rental_uris": {"ios": "https://dc.lft.to/lastmile_qr_scan", "android": "https://dc.lft.to/lastmile_qr_scan"}}, {"name": "15132632e51bd31707b637f380dcaeb1", "fusion_lat": 0.0, "type": "electric_scooter", "lat": 38.919788833333335, "is_reserved": 0, "is_disabled": 0, "fusion_lon": 0.0, "bike_id": "15132632e51bd31707b637f380dcaeb1", "lon": -77.03963316666666, "rental_uris": {"ios": "https://dc.lft.to/lastmile_qr_scan", "android": "https://dc.lft.to/lastmile_qr_scan"}}, {"name": "6bfc7b3f62439dd098593caeb0273c44", "fusion_lat": 0.0, "type": "electric_scooter", "lat": 38.92578533333333, "is_reserved": 0, "is_disabled": 0, "fusion_lon": 0.0, "bike_id": "6bfc7b3f62439dd098593caeb0273c44", "lon": -76.99486833333333, "rental_uris": {"ios": "https://dc.lft.to/lastmile_qr_scan", "android": "https://dc.lft.to/lastmile_qr_scan"}}, {"name": "5de89ff3697a48a7551d0607614d8945", "fusion_lat": 0.0, "type": "electric_scooter", "lat": 38.90573916666666, "is_reserved": 0, "is_disabled": 0, "fusion_lon": 0.0, "bike_id": "5de89ff3697a48a7551d0607614d8945", "lon": -77.04850933333333, "rental_uris": {"ios": "https://dc.lft.to/lastmile_qr_scan", "android": "https://dc.lft.to/lastmile_qr_scan"}}, {"name": "27c09fece648a12d000b8d2442dfee81", "fusion_lat": 0.0, "type": "electric_bike", "lat": 38.999866, "is_reserved": 0, "is_disabled": 0, "fusion_lon": 0.0, "bike_id": "27c09fece648a12d000b8d2442dfee81", "lon": -77.08009183333333, "rental_uris": {"ios": "https://dc.lft.to/lastmile_qr_scan", "android": "https://dc.lft.to/lastmile_qr_scan"}}, {"name": "f73b96d00b2e94093f50b541a707a085", "fusion_lat": 0.0, "type": "electric_scooter", "lat": 38.8850485, "is_reserved": 0, "is_disabled": 0, "fusion_lon": 0.0, "bike_id": "f73b96d00b2e94093f50b541a707a085", "lon": -77.00564316666667, "rental_uris": {"ios": "https://dc.lft.to/lastmile_qr_scan", "android": "https://dc.lft.to/lastmile_qr_scan"}}, {"name": "d3861f98f175d4849ff392a7ee46c677", "fusion_lat": 0.0, "type": "electric_scooter", "lat": 38.9006265, "is_reserved": 0, "is_disabled": 0, "fusion_lon": 0.0, "bike_id": "d3861f98f175d4849ff392a7ee46c677", "lon": -77.0503305, "rental_uris": {"ios": "https://dc.lft.to/lastmile_qr_scan", "android": "https://dc.lft.to/lastmile_qr_scan"}}, {"name": "c9b2565b896c628ab8c738858d334836", "fusion_lat": 0.0, "type": "electric_scooter", "lat": 38.94312466666667, "is_reserved": 0, "is_disabled": 0, "fusion_lon": 0.0, "bike_id": "c9b2565b896c628ab8c738858d334836", "lon": -77.024799, "rental_uris": {"ios": "https://dc.lft.to/lastmile_qr_scan", "android": "https://dc.lft.to/lastmile_qr_scan"}}, {"name": "8688471cc3f3a6d43939d47f75ed4f7d", "fusion_lat": 0.0, "type": "electric_scooter", "lat": 38.91256583333333, "is_reserved": 0, "is_disabled": 0, "fusion_lon": 0.0, "bike_id": "8688471cc3f3a6d43939d47f75ed4f7d", "lon": -77.03865383333333, "rental_uris": {"ios": "https://dc.lft.to/lastmile_qr_scan", "android": "https://dc.lft.to/lastmile_qr_scan"}}, {"name": "6c11a30e56a5fcb1c41178c25d148e6d", "fusion_lat": 0.0, "type": "electric_bike", "lat": 38.862703833333335, "is_reserved": 0, "is_disabled": 0, "fusion_lon": 0.0, "bike_id": "6c11a30e56a5fcb1c41178c25d148e6d", "lon": -77.05951033333334, "rental_uris": {"ios": "https://dc.lft.to/lastmile_qr_scan", "android": "https://dc.lft.to/lastmile_qr_scan"}}, {"name": "33f4671bcba9e45c4b4b084e29926fd5", "fusion_lat": 0.0, "type": "electric_scooter", "lat": 38.9297845, "is_reserved": 0, "is_disabled": 0, "fusion_lon": 0.0, "bike_id": "33f4671bcba9e45c4b4b084e29926fd5", "lon": -77.01447833333333, "rental_uris": {"ios": "https://dc.lft.to/lastmile_qr_scan", "android": "https://dc.lft.to/lastmile_qr_scan"}}, {"name": "fec2ca425cdbe91de8cbb4c4421d4f44", "fusion_lat": 0.0, "type": "electric_scooter", "lat": 38.89175016666667, "is_reserved": 0, "is_disabled": 0, "fusion_lon": 0.0, "bike_id": "fec2ca425cdbe91de8cbb4c4421d4f44", "lon": -77.015609, "rental_uris": {"ios": "https://dc.lft.to/lastmile_qr_scan", "android": "https://dc.lft.to/lastmile_qr_scan"}}, {"name": "13f9db2ba01bace2aa14109334d31061", "fusion_lat": 0.0, "type": "electric_scooter", "lat": 38.9122795, "is_reserved": 0, "is_disabled": 0, "fusion_lon": 0.0, "bike_id": "13f9db2ba01bace2aa14109334d31061", "lon": -77.03186883333333, "rental_uris": {"ios": "https://dc.lft.to/lastmile_qr_scan", "android": "https://dc.lft.to/lastmile_qr_scan"}}, {"name": "14cd12f16678b792b07b1d399b84d243", "fusion_lat": 0.0, "type": "electric_bike", "lat": 38.83983966666667, "is_reserved": 0, "is_disabled": 0, "fusion_lon": 0.0, "bike_id": "14cd12f16678b792b07b1d399b84d243", "lon": -77.00565766666666, "rental_uris": {"ios": "https://dc.lft.to/lastmile_qr_scan", "android": "https://dc.lft.to/lastmile_qr_scan"}}, {"name": "50040af26966803bcae3154ed7b8f807", "fusion_lat": 0.0, "type": "electric_scooter", "lat": 38.8859785, "is_reserved": 0, "is_disabled": 0, "fusion_lon": 0.0, "bike_id": "50040af26966803bcae3154ed7b8f807", "lon": -77.02198316666667, "rental_uris": {"ios": "https://dc.lft.to/lastmile_qr_scan", "android": "https://dc.lft.to/lastmile_qr_scan"}}, {"name": "19b29843f0352b0c2c54d051fcd00668", "fusion_lat": 0.0, "type": "electric_scooter", "lat": 38.912453166666666, "is_reserved": 0, "is_disabled": 0, "fusion_lon": 0.0, "bike_id": "19b29843f0352b0c2c54d051fcd00668", "lon": -77.03835566666666, "rental_uris": {"ios": "https://dc.lft.to/lastmile_qr_scan", "android": "https://dc.lft.to/lastmile_qr_scan"}}, {"name": "640b9210dc0604774123760758d2a7e1", "fusion_lat": 0.0, "type": "electric_scooter", "lat": 38.86247483333333, "is_reserved": 0, "is_disabled": 0, "fusion_lon": 0.0, "bike_id": "640b9210dc0604774123760758d2a7e1", "lon": -76.99531966666666, "rental_uris": {"ios": "https://dc.lft.to/lastmile_qr_scan", "android": "https://dc.lft.to/lastmile_qr_scan"}}, {"name": "12939fadf21c76472ca6b52cd0905ebe", "fusion_lat": 0.0, "type": "electric_scooter", "lat": 38.88271966666667, "is_reserved": 0, "is_disabled": 0, "fusion_lon": 0.0, "bike_id": "12939fadf21c76472ca6b52cd0905ebe", "lon": -76.99015616666667, "rental_uris": {"ios": "https://dc.lft.to/lastmile_qr_scan", "android": "https://dc.lft.to/lastmile_qr_scan"}}, {"name": "b2b5a9439f3f19492f94b0d5c1384022", "fusion_lat": 0.0, "type": "electric_scooter", "lat": 38.910981166666666, "is_reserved": 0, "is_disabled": 0, "fusion_lon": 0.0, "bike_id": "b2b5a9439f3f19492f94b0d5c1384022", "lon": -77.07347766666666, "rental_uris": {"ios": "https://dc.lft.to/lastmile_qr_scan", "android": "https://dc.lft.to/lastmile_qr_scan"}}, {"name": "0803afd376c664e18d4062253ceb8266", "fusion_lat": 0.0, "type": "electric_scooter", "lat": 38.905636, "is_reserved": 0, "is_disabled": 0, "fusion_lon": 0.0, "bike_id": "0803afd376c664e18d4062253ceb8266", "lon": -77.02757566666666, "rental_uris": {"ios": "https://dc.lft.to/lastmile_qr_scan", "android": "https://dc.lft.to/lastmile_qr_scan"}}, {"name": "f26370eacdb3aa6c05b6ff28154380b5", "fusion_lat": 0.0, "type": "electric_scooter", "lat": 38.9573115, "is_reserved": 0, "is_disabled": 0, "fusion_lon": 0.0, "bike_id": "f26370eacdb3aa6c05b6ff28154380b5", "lon": -77.02404016666667, "rental_uris": {"ios": "https://dc.lft.to/lastmile_qr_scan", "android": "https://dc.lft.to/lastmile_qr_scan"}}, {"name": "7fafc045205bb686520bb235b0994258", "fusion_lat": 0.0, "type": "electric_scooter", "lat": 38.859222, "is_reserved": 0, "is_disabled": 0, "fusion_lon": 0.0, "bike_id": "7fafc045205bb686520bb235b0994258", "lon": -76.98973366666667, "rental_uris": {"ios": "https://dc.lft.to/lastmile_qr_scan", "android": "https://dc.lft.to/lastmile_qr_scan"}}, {"name": "d65571e311fdc434854b80716393e087", "fusion_lat": 0.0, "type": "electric_scooter", "lat": 38.900729166666665, "is_reserved": 0, "is_disabled": 0, "fusion_lon": 0.0, "bike_id": "d65571e311fdc434854b80716393e087", "lon": -77.03211783333333, "rental_uris": {"ios": "https://dc.lft.to/lastmile_qr_scan", "android": "https://dc.lft.to/lastmile_qr_scan"}}, {"name": "673911af552fe4a62d6730f6fce79ab7", "fusion_lat": 0.0, "type": "electric_scooter", "lat": 38.87284616666667, "is_reserved": 0, "is_disabled": 0, "fusion_lon": 0.0, "bike_id": "673911af552fe4a62d6730f6fce79ab7", "lon": -77.00984733333334, "rental_uris": {"ios": "https://dc.lft.to/lastmile_qr_scan", "android": "https://dc.lft.to/lastmile_qr_scan"}}, {"name": "98c1cca24ba042d2f57fd787784aa9db", "fusion_lat": 0.0, "type": "electric_scooter", "lat": 38.92183383333333, "is_reserved": 0, "is_disabled": 0, "fusion_lon": 0.0, "bike_id": "98c1cca24ba042d2f57fd787784aa9db", "lon": -77.04016316666667, "rental_uris": {"ios": "https://dc.lft.to/lastmile_qr_scan", "android": "https://dc.lft.to/lastmile_qr_scan"}}, {"name": "cdb3c5520fdfdceddae0f9ec081982e1", "fusion_lat": 0.0, "type": "electric_scooter", "lat": 38.9339205, "is_reserved": 0, "is_disabled": 0, "fusion_lon": 0.0, "bike_id": "cdb3c5520fdfdceddae0f9ec081982e1", "lon": -77.03580683333334, "rental_uris": {"ios": "https://dc.lft.to/lastmile_qr_scan", "android": "https://dc.lft.to/lastmile_qr_scan"}}, {"name": "67e0a77b774520f6990804640965a936", "fusion_lat": 0.0, "type": "electric_scooter", "lat": 38.9118245, "is_reserved": 0, "is_disabled": 0, "fusion_lon": 0.0, "bike_id": "67e0a77b774520f6990804640965a936", "lon": -77.03865583333334, "rental_uris": {"ios": "https://dc.lft.to/lastmile_qr_scan", "android": "https://dc.lft.to/lastmile_qr_scan"}}, {"name": "31620a0eac2f2acc2f99a8a0d44a3e48", "fusion_lat": 0.0, "type": "electric_scooter", "lat": 38.93001866666667, "is_reserved": 0, "is_disabled": 0, "fusion_lon": 0.0, "bike_id": "31620a0eac2f2acc2f99a8a0d44a3e48", "lon": -77.05533433333333, "rental_uris": {"ios": "https://dc.lft.to/lastmile_qr_scan", "android": "https://dc.lft.to/lastmile_qr_scan"}}, {"name": "f78e8bc99fdafd1d9817272306ee34b3", "fusion_lat": 0.0, "type": "electric_scooter", "lat": 38.88305533333333, "is_reserved": 0, "is_disabled": 0, "fusion_lon": 0.0, "bike_id": "f78e8bc99fdafd1d9817272306ee34b3", "lon": -77.02371566666666, "rental_uris": {"ios": "https://dc.lft.to/lastmile_qr_scan", "android": "https://dc.lft.to/lastmile_qr_scan"}}, {"name": "83cae7705b0073973fd2688be92e7d3e", "fusion_lat": 0.0, "type": "electric_scooter", "lat": 38.912879333333336, "is_reserved": 0, "is_disabled": 0, "fusion_lon": 0.0, "bike_id": "83cae7705b0073973fd2688be92e7d3e", "lon": -77.06161033333333, "rental_uris": {"ios": "https://dc.lft.to/lastmile_qr_scan", "android": "https://dc.lft.to/lastmile_qr_scan"}}, {"name": "d451a9fb93293967be518e0fc7ee6466", "fusion_lat": 0.0, "type": "electric_scooter", "lat": 38.9113445, "is_reserved": 0, "is_disabled": 0, "fusion_lon": 0.0, "bike_id": "d451a9fb93293967be518e0fc7ee6466", "lon": -77.04184483333333, "rental_uris": {"ios": "https://dc.lft.to/lastmile_qr_scan", "android": "https://dc.lft.to/lastmile_qr_scan"}}, {"name": "081aff11d08b90ca7d928330cf281757", "fusion_lat": 0.0, "type": "electric_scooter", "lat": 38.8918585, "is_reserved": 0, "is_disabled": 0, "fusion_lon": 0.0, "bike_id": "081aff11d08b90ca7d928330cf281757", "lon": -77.01581566666667, "rental_uris": {"ios": "https://dc.lft.to/lastmile_qr_scan", "android": "https://dc.lft.to/lastmile_qr_scan"}}, {"name": "4a1b07e840fd5e2d0451ed464bfc034b", "fusion_lat": 0.0, "type": "electric_bike", "lat": 38.89216033333334, "is_reserved": 0, "is_disabled": 0, "fusion_lon": 0.0, "bike_id": "4a1b07e840fd5e2d0451ed464bfc034b", "lon": -77.10774916666666, "rental_uris": {"ios": "https://dc.lft.to/lastmile_qr_scan", "android": "https://dc.lft.to/lastmile_qr_scan"}}, {"name": "8649cb96faf892ca9e4e657e373a7626", "fusion_lat": 0.0, "type": "electric_scooter", "lat": 38.94290633333333, "is_reserved": 0, "is_disabled": 0, "fusion_lon": 0.0, "bike_id": "8649cb96faf892ca9e4e657e373a7626", "lon": -77.02171833333334, "rental_uris": {"ios": "https://dc.lft.to/lastmile_qr_scan", "android": "https://dc.lft.to/lastmile_qr_scan"}}, {"name": "c180207a8fc9c3fbc901e8f3de9690bd", "fusion_lat": 0.0, "type": "electric_scooter", "lat": 38.8985135, "is_reserved": 0, "is_disabled": 0, "fusion_lon": 0.0, "bike_id": "c180207a8fc9c3fbc901e8f3de9690bd", "lon": -77.0161325, "rental_uris": {"ios": "https://dc.lft.to/lastmile_qr_scan", "android": "https://dc.lft.to/lastmile_qr_scan"}}, {"name": "cb4ea3a526d709dd09eccb427e0ac020", "fusion_lat": 0.0, "type": "electric_scooter", "lat": 38.91038783333333, "is_reserved": 0, "is_disabled": 0, "fusion_lon": 0.0, "bike_id": "cb4ea3a526d709dd09eccb427e0ac020", "lon": -77.04384416666667, "rental_uris": {"ios": "https://dc.lft.to/lastmile_qr_scan", "android": "https://dc.lft.to/lastmile_qr_scan"}}, {"name": "c437ec6d051059fd35181ac0baa2243a", "fusion_lat": 0.0, "type": "electric_bike", "lat": 38.88341833333333, "is_reserved": 0, "is_disabled": 0, "fusion_lon": 0.0, "bike_id": "c437ec6d051059fd35181ac0baa2243a", "lon": -77.18296216666667, "rental_uris": {"ios": "https://dc.lft.to/lastmile_qr_scan", "android": "https://dc.lft.to/lastmile_qr_scan"}}, {"name": "b583a8beaf82abc1ca707394ff5a959b", "fusion_lat": 0.0, "type": "electric_scooter", "lat": 38.89372566666667, "is_reserved": 0, "is_disabled": 0, "fusion_lon": 0.0, "bike_id": "b583a8beaf82abc1ca707394ff5a959b", "lon": -76.94994966666667, "rental_uris": {"ios": "https://dc.lft.to/lastmile_qr_scan", "android": "https://dc.lft.to/lastmile_qr_scan"}}, {"name": "703e87351e5ed2eeeb0361c9d2e422f1", "fusion_lat": 0.0, "type": "electric_scooter", "lat": 38.93413233333333, "is_reserved": 0, "is_disabled": 0, "fusion_lon": 0.0, "bike_id": "703e87351e5ed2eeeb0361c9d2e422f1", "lon": -77.041823, "rental_uris": {"ios": "https://dc.lft.to/lastmile_qr_scan", "android": "https://dc.lft.to/lastmile_qr_scan"}}, {"name": "f02106324f7993663427acc9ee18c6bb", "fusion_lat": 0.0, "type": "electric_scooter", "lat": 38.88595216666667, "is_reserved": 0, "is_disabled": 0, "fusion_lon": 0.0, "bike_id": "f02106324f7993663427acc9ee18c6bb", "lon": -77.0220565, "rental_uris": {"ios": "https://dc.lft.to/lastmile_qr_scan", "android": "https://dc.lft.to/lastmile_qr_scan"}}, {"name": "d67ea98ecb3f78650d637610096a051d", "fusion_lat": 0.0, "type": "electric_scooter", "lat": 38.903232, "is_reserved": 0, "is_disabled": 0, "fusion_lon": 0.0, "bike_id": "d67ea98ecb3f78650d637610096a051d", "lon": -77.0382975, "rental_uris": {"ios": "https://dc.lft.to/lastmile_qr_scan", "android": "https://dc.lft.to/lastmile_qr_scan"}}, {"name": "c9bf889ad879e593a0fd4f0bef2d8071", "fusion_lat": 0.0, "type": "electric_scooter", "lat": 38.93081633333333, "is_reserved": 0, "is_disabled": 0, "fusion_lon": 0.0, "bike_id": "c9bf889ad879e593a0fd4f0bef2d8071", "lon": -77.0240435, "rental_uris": {"ios": "https://dc.lft.to/lastmile_qr_scan", "android": "https://dc.lft.to/lastmile_qr_scan"}}, {"name": "155fb8679ac2a4af022288a290e88d63", "fusion_lat": 0.0, "type": "electric_scooter", "lat": 38.90137416666666, "is_reserved": 0, "is_disabled": 0, "fusion_lon": 0.0, "bike_id": "155fb8679ac2a4af022288a290e88d63", "lon": -76.99968683333333, "rental_uris": {"ios": "https://dc.lft.to/lastmile_qr_scan", "android": "https://dc.lft.to/lastmile_qr_scan"}}, {"name": "7ac5de74420fccf615f285823976b269", "fusion_lat": 0.0, "type": "electric_bike", "lat": 38.9732315, "is_reserved": 0, "is_disabled": 0, "fusion_lon": 0.0, "bike_id": "7ac5de74420fccf615f285823976b269", "lon": -77.021493, "rental_uris": {"ios": "https://dc.lft.to/lastmile_qr_scan", "android": "https://dc.lft.to/lastmile_qr_scan"}}, {"name": "d1c9e9202a897d3848f59221ed2be255", "fusion_lat": 0.0, "type": "electric_bike", "lat": 38.902831166666665, "is_reserved": 0, "is_disabled": 0, "fusion_lon": 0.0, "bike_id": "d1c9e9202a897d3848f59221ed2be255", "lon": -76.98087183333334, "rental_uris": {"ios": "https://dc.lft.to/lastmile_qr_scan", "android": "https://dc.lft.to/lastmile_qr_scan"}},