{"data": {"bikes": [{"rental_uris": {"android": "https://dc.lft.to/lastmile_qr_scan", "ios": "https://dc.lft.to/lastmile_qr_scan"}, "type": "electric_scooter", "lon": -77.03283116666667, "name": "8b271a9d59a6c5488031781ac7741d46", "bike_id": "8b271a9d59a6c5488031781ac7741d46", "fusion_lat": 0.0, "is_reserved": 0, "lat": 38.939908, "fusion_lon": 0.0, "is_disabled": 0}, {"rental_uris": {"android": "https://dc.lft.to/lastmile_qr_scan", "ios": "https://dc.lft.to/lastmile_qr_scan"}, "type": "electric_scooter", "lon": -76.99009133333334, "name": "cfb018acdc671841f605b542a266e98f", "bike_id": "cfb018acdc671841f605b542a266e98f", "fusion_lat": 0.0, "is_reserved": 0, "lat": 38.90393683333333, "fusion_lon": 0.0, "is_disabled": 0}, {"rental_uris": {"android": "https://dc.lft.to/lastmile_qr_scan", "ios": "https://dc.lft.to/lastmile_qr_scan"}, "type": "electric_scooter", "lon": -76.994926, "name": "ca40e84c2f9ce355faecc02efc76bf23", "bike_id": "ca40e84c2f9ce355faecc02efc76bf23", "fusion_lat": 0.0, "is_reserved": 0, "lat": 38.86241166666667, "fusion_lon": 0.0, "is_disabled": 0}, {"rental_uris": {"android": "https://dc.lft.to/lastmile_qr_scan", "ios": "https://dc.lft.to/lastmile_qr_scan"}, "type": "electric_scooter", "lon": -77.0296155, "name": "2b5b5fe4adbaeb22aa3f2e3c477be972", "bike_id": "2b5b5fe4adbaeb22aa3f2e3c477be972", "fusion_lat": 0.0, "is_reserved": 0, "lat": 38.92144366666667, "fusion_lon": 0.0, "is_disabled": 0}, {"rental_uris": {"android": "https://dc.lft.to/lastmile_qr_scan", "ios": "https://dc.lft.to/lastmile_qr_scan"}, "type": "electric_scooter", "lon": -77.03285166666667, "name": "70e7330c33bd8fc8b9370f18875f652f", "bike_id": "70e7330c33bd8fc8b9370f18875f652f", "fusion_lat": 0.0, "is_reserved": 0, "lat": 38.91041666666667, "fusion_lon": 0.0, "is_disabled": 0}, {"rental_uris": {"android": "https://dc.lft.to/lastmile_qr_scan", "ios": "https://dc.lft.to/lastmile_qr_scan"}, "type": "electric_scooter", "lon": -77.0274615, "name": "cebb64ed44cd88f5737dfeec759605cd", "bike_id": "cebb64ed44cd88f5737dfeec759605cd", "fusion_lat": 0.0, "is_reserved": 0, "lat": 38.95604566666667, "fusion_lon": 0.0, "is_disabled": 0}, {"rental_uris": {"android": "https://dc.lft.to/lastmile_qr_scan", "ios": "https://dc.lft.to/lastmile_qr_scan"}, "type": "electric_scooter", "lon": -77.0067425, "name": "b069e2f45c8043aa1396772bab9ca845", "bike_id": "b069e2f45c8043aa1396772bab9ca845", "fusion_lat": 0.0, "is_reserved": 0, "lat": 38.949971833333336, "fusion_lon": 0.0, "is_disabled": 0}, {"rental_uris": {"android": "https://dc.lft.to/lastmile_qr_scan", "ios": "https://dc.lft.to/lastmile_qr_scan"}, "type": "electric_scooter", "lon": -76.98688816666666, "name": "c28b99770f16b50abc36d37f7da454c2", "bike_id": "c28b99770f16b50abc36d37f7da454c2", "fusion_lat": 0.0, "is_reserved": 0, "lat": 38.8820745, "fusion_lon": 0.0, "is_disabled": 0}, {"rental_uris": {"android": "https://dc.lft.to/lastmile_qr_scan", "ios": "https://dc.lft.to/lastmile_qr_scan"}, "type": "electric_scooter", "lon": -77.04821183333334, "name": "47037d31a4ceb263e40af79694ad6764", "bike_id": "47037d31a4ceb263e40af79694ad6764", "fusion_lat": 0.0, "is_reserved": 0, "lat": 38.9148905, "fusion_lon": 0.0, "is_disabled": 0}, {"rental_uris": {"android": "https://dc.lft.to/lastmile_qr_scan", "ios": "https://dc.lft.to/lastmile_qr_scan"}, "type": "electric_scooter", "lon": -76.98007433333333, "name": "83a92eccbbd5199dd1012808a49ebe56", "bike_id": "83a92eccbbd5199dd1012808a49ebe56", "fusion_lat": 0.0, "is_reserved": 0, "lat": 38.8532175, "fusion_lon": 0.0, "is_disabled": 0}, {"rental_uris": {"android": "https://dc.lft.to/lastmile_qr_scan", "ios": "https://dc.lft.to/lastmile_qr_scan"}, "type": "electric_scooter", "lon": -76.9902905, "name": "9431b289e16ed46deeaf536a5fef4b13", "bike_id": "9431b289e16ed46deeaf536a5fef4b13", "fusion_lat": 0.0, "is_reserved": 0, "lat": 38.8606935, "fusion_lon": 0.0, "is_disabled": 0}, {"rental_uris": {"android": "https://dc.lft.to/lastmile_qr_scan", "ios": "https://dc.lft.to/lastmile_qr_scan"}, "type": "electric_scooter", "lon": -77.014328, "name": "c64fab1ca0d53e2c63205e27a4306000", "bike_id": "c64fab1ca0d53e2c63205e27a4306000", "fusion_lat": 0.0, "is_reserved": 0, "lat": 38.877744, "fusion_lon": 0.0, "is_disabled": 0}, {"rental_uris": {"android": "https://dc.lft.to/lastmile_qr_scan", "ios": "https://dc.lft.to/lastmile_qr_scan"}, "type": "electric_scooter", "lon": -77.0266305, "name": "dede7a96c76cf97e4bd2b7d5c63ed23b", "bike_id": "dede7a96c76cf97e4bd2b7d5c63ed23b", "fusion_lat": 0.0, "is_reserved": 0, "lat": 38.9287225, "fusion_lon": 0.0, "is_disabled": 0}, {"rental_uris": {"android": "https://dc.lft.to/lastmile_qr_scan", "ios": "https://dc.lft.to/lastmile_qr_scan"}, "type": "electric_scooter", "lon": -77.031547, "name": "2337011fc9a6d85fe8351139b0cd76f7", "bike_id": "2337011fc9a6d85fe8351139b0cd76f7", "fusion_lat": 0.0, "is_reserved": 0, "lat": 38.92793533333333, "fusion_lon": 0.0, "is_disabled": 0}, {"rental_uris": {"android": "https://dc.lft.to/lastmile_qr_scan", "ios": "https://dc.lft.to/lastmile_qr_scan"}, "type": "electric_bike", "lon": -76.97949583333333, "name": "327928f1375887adcb1cd3b248cde25e", "bike_id": "327928f1375887adcb1cd3b248cde25e", "fusion_lat": 0.0, "is_reserved": 0, "lat": 38.89802783333333, "fusion_lon": 0.0, "is_disabled": 0}, {"rental_uris": {"android": "https://dc.lft.to/lastmile_qr_scan", "ios": "https://dc.lft.to/lastmile_qr_scan"}, "type": "electric_scooter", "lon": -77.029528, "name": "8c15a71513159361a3ae0c83b212ef63", "bike_id": "8c15a71513159361a3ae0c83b212ef63", "fusion_lat": 0.0, "is_reserved": 0, "lat": 38.917136166666666, "fusion_lon": 0.0, "is_disabled": 0}, {"rental_uris": {"android": "https://dc.lft.to/lastmile_qr_scan", "ios": "https://dc.lft.to/lastmile_qr_scan"}, "type": "electric_scooter", "lon": -76.94851383333334, "name": "15912b0f042e35580128b13e02631fb1", "bike_id": "15912b0f042e35580128b13e02631fb1", "fusion_lat": 0.0, "is_reserved": 0, "lat": 38.882993166666665, "fusion_lon": 0.0, "is_disabled": 0}, {"rental_uris": {"android": "https://dc.lft.to/lastmile_qr_scan", "ios": "https://dc.lft.to/lastmile_qr_scan"}, "type": "electric_bike", "lon": -77.34414383333333, "name": "dbe7c27fc5dd6f50a452cb576ec759dd", "bike_id": "dbe7c27fc5dd6f50a452cb576ec759dd", "fusion_lat": 0.0, "is_reserved": 0, "lat": 38.9458465, "fusion_lon": 0.0, "is_disabled": 0}, {"rental_uris": {"android": "https://dc.lft.to/lastmile_qr_scan", "ios": "https://dc.lft.to/lastmile_qr_scan"}, "type": "electric_scooter", "lon": -77.04882816666667, "name": "abb1853c9e67958bed175473e5b16e32", "bike_id": "abb1853c9e67958bed175473e5b16e32", "fusion_lat": 0.0, "is_reserved": 0, "lat": 38.90644133333333, "fusion_lon": 0.0, "is_disabled": 0}, {"rental_uris": {"android": "https://dc.lft.to/lastmile_qr_scan", "ios": "https://dc.lft.to/lastmile_qr_scan"}, "type": "electric_scooter", "lon": -77.01174933333333, "name": "edf5c3c0c79a81d6a004dc521bea212d", "bike_id": "edf5c3c0c79a81d6a004dc521bea212d", "fusion_lat": 0.0, "is_reserved": 0, "lat": 38.90314133333333, "fusion_lon": 0.0, "is_disabled": 0}, {"rental_uris": {"android": "https://dc.lft.to/lastmile_qr_scan", "ios": "https://dc.lft.to/lastmile_qr_scan"}, "type": "electric_bike", "lon": -77.14323783333333, "name": "3213b5c3cc91c21b383f2ab683a59157", "bike_id": "3213b5c3cc91c21b383f2ab683a59157", "fusion_lat": 0.0, "is_reserved": 0, "lat": 39.05455583333333, "fusion_lon": 0.0, "is_disabled": 0}, {"rental_uris": {"android": "https://dc.lft.to/lastmile_qr_scan", "ios": "https://dc.lft.to/lastmile_qr_scan"}, "type": "electric_scooter", "lon": -77.0347645, "name": "dd8e177579bbfcb1f040e871a290abfd", "bike_id": "dd8e177579bbfcb1f040e871a290abfd", "fusion_lat": 0.0, "is_reserved": 0, "lat": 38.928717666666664, "fusion_lon": 0.0, "is_disabled": 0}, {"rental_uris": {"android": "https://dc.lft.to/lastmile_qr_scan", "ios": "https://dc.lft.to/lastmile_qr_scan"}, "type": "electric_scooter", "lon": -77.061889, "name": "137fc67833a5c91af6d3d8e150c10439", "bike_id": "137fc67833a5c91af6d3d8e150c10439", "fusion_lat": 0.0, "is_reserved": 0, "lat": 38.93009683333333, "fusion_lon": 0.0, "is_disabled": 0}, {"rental_uris": {"android": "https://dc.lft.to/lastmile_qr_scan", "ios": "https://dc.lft.to/lastmile_qr_scan"}, "type": "electric_scooter", "lon": -77.03444233333333, "name": "df99b039392c46a50c3a1289ea0e4234", "bike_id": "df99b039392c46a50c3a1289ea0e4234", "fusion_lat": 0.0, "is_reserved": 0, "lat": 38.918304666666664, "fusion_lon": 0.0, "is_disabled": 0}, {"rental_uris": {"android": "https://dc.lft.to/lastmile_qr_scan", "ios": "https://dc.lft.to/lastmile_qr_scan"}, "type": "electric_scooter", "lon": -77.00010533333334, "name": "848a9c2bfbb603d5a70d1064eaf5923e", "bike_id": "848a9c2bfbb603d5a70d1064eaf5923e", "fusion_lat": 0.0, "is_reserved": 0, "lat": 38.90017116666667, "fusion_lon": 0.0, "is_disabled": 0}, {"rental_uris": {"android": "https://dc.lft.to/lastmile_qr_scan", "ios": "https://dc.lft.to/lastmile_qr_scan"}, "type": "electric_scooter", "lon": -77.0022655, "name": "f6a837b1de9c23c3a1b68c354c3717f4", "bike_id": "f6a837b1de9c23c3a1b68c354c3717f4", "fusion_lat": 0.0, "is_reserved": 0, "lat": 38.957296166666666, "fusion_lon": 0.0, "is_disabled": 0}, {"rental_uris": {"android": "https://dc.lft.to/lastmile_qr_scan", "ios": "https://dc.lft.to/lastmile_qr_scan"}, "type": "electric_bike", "lon": -76.98159316666667, "name": "05113fce6a9b93e0194cdc8e7ab2c7d7", "bike_id": "05113fce6a9b93e0194cdc8e7ab2c7d7", "fusion_lat": 0.0, "is_reserved": 0, "lat": 38.95962866666667, "fusion_lon": 0.0, "is_disabled": 0}, {"rental_uris": {"android": "https://dc.lft.to/lastmile_qr_scan", "ios": "https://dc.lft.to/lastmile_qr_scan"}, "type": "electric_scooter", "lon": -77.00188616666667, "name": "5c625bb874b553ea0673960b6a20784a", "bike_id": "5c625bb874b553ea0673960b6a20784a", "fusion_lat": 0.0, "is_reserved": 0, "lat": 38.903780166666664, "fusion_lon": 0.0, "is_disabled": 0}, {"rental_uris": {"android": "https://dc.lft.to/lastmile_qr_scan", "ios": "https://dc.lft.to/lastmile_qr_scan"}, "type": "electric_scooter", "lon": -77.01871733333333, "name": "35f289652ae745321594cd4635ea0f96", "bike_id": "35f289652ae745321594cd4635ea0f96", "fusion_lat": 0.0, "is_reserved": 0, "lat": 38.94895533333333, "fusion_lon": 0.0, "is_disabled": 0}, {"rental_uris": {"android": "https://dc.lft.to/lastmile_qr_scan", "ios": "https://dc.lft.to/lastmile_qr_scan"}, "type": "electric_scooter", "lon": -77.00934233333334, "name": "557f4d82643d6a64e34da809ec426b73", "bike_id": "557f4d82643d6a64e34da809ec426b73", "fusion_lat": 0.0, "is_reserved": 0, "lat": 38.87628083333333, "fusion_lon": 0.0, "is_disabled": 0}, {"rental_uris": {"android": "https://dc.lft.to/lastmile_qr_scan", "ios": "https://dc.lft.to/lastmile_qr_scan"}, "type": "electric_scooter", "lon": -77.02925916666666, "name": "62f8c06753e2749b0b7c3b838bc35790", "bike_id": "62f8c06753e2749b0b7c3b838bc35790", "fusion_lat": 0.0, "is_reserved": 0, "lat": 38.8821815, "fusion_lon": 0.0, "is_disabled": 0}, {"rental_uris": {"android": "https://dc.lft.to/lastmile_qr_scan", "ios": "https://dc.lft.to/lastmile_qr_scan"}, "type": "electric_scooter", "lon": -77.04096166666666, "name": "79d8cb2f08937efde49bd8a608af1a96", "bike_id": "79d8cb2f08937efde49bd8a608af1a96", "fusion_lat": 0.0, "is_reserved": 0, "lat": 38.920910666666664, "fusion_lon": 0.0, "is_disabled": 0}, {"rental_uris": {"android": "https://dc.lft.to/lastmile_qr_scan", "ios": "https://dc.lft.to/lastmile_qr_scan"}, "type": "electric_scooter", "lon": -76.98459383333334, "name": "4c18d885ab281a3ce57bef50020f1b8a", "bike_id": "4c18d885ab281a3ce57bef50020f1b8a", "fusion_lat": 0.0, "is_reserved": 0, "lat": 38.88007266666666, "fusion_lon": 0.0, "is_disabled": 0}, {"rental_uris": {"android": "https://dc.lft.to/lastmile_qr_scan", "ios": "https://dc.lft.to/lastmile_qr_scan"}, "type": "electric_scooter", "lon": -77.025121, "name": "891f3416d91e50980f8e52f0d897b737", "bike_id": "891f3416d91e50980f8e52f0d897b737", "fusion_lat": 0.0, "is_reserved": 0, "lat": 38.94175933333333, "fusion_lon": 0.0, "is_disabled": 0}, {"rental_uris": {"android": "https://dc.lft.to/lastmile_qr_scan", "ios": "https://dc.lft.to/lastmile_qr_scan"}, "type": "electric_scooter", "lon": -77.0271365, "name": "605f03e529a627eb4cd0701d5f0213cf", "bike_id": "605f03e529a627eb4cd0701d5f0213cf", "fusion_lat": 0.0, "is_reserved": 0, "lat": 38.904430833333336, "fusion_lon": 0.0, "is_disabled": 0}, {"rental_uris": {"android": "https://dc.lft.to/lastmile_qr_scan", "ios": "https://dc.lft.to/lastmile_qr_scan"}, "type": "electric_scooter", "lon": -76.97821583333334, "name": "8a977e6992aa1d5a140df35fb7f3a68c", "bike_id": "8a977e6992aa1d5a140df35fb7f3a68c", "fusion_lat": 0.0, "is_reserved": 0, "lat": 38.896003, "fusion_lon": 0.0, "is_disabled": 0}, {"rental_uris": {"android": "https://dc.lft.to/lastmile_qr_scan", "ios": "https://dc.lft.to/lastmile_qr_scan"}, "type": "electric_scooter", "lon": -77.02300083333333, "name": "c4abcf10bc1f28c5a58da8848fe8676f", "bike_id": "c4abcf10bc1f28c5a58da8848fe8676f", "fusion_lat": 0.0, "is_reserved": 0, "lat": 38.91788666666667, "fusion_lon": 0.0, "is_disabled": 0}, {"rental_uris": {"android": "https://dc.lft.to/lastmile_qr_scan", "ios": "https://dc.lft.to/lastmile_qr_scan"}, "type": "electric_scooter", "lon": -77.03295666666666, "name": "5a97f7a7221db82dd46c5d4da6879677", "bike_id": "5a97f7a7221db82dd46c5d4da6879677", "fusion_lat": 0.0, "is_reserved": 0, "lat": 38.95649133333333, "fusion_lon": 0.0, "is_disabled": 0}, {"rental_uris": {"android": "https://dc.lft.to/lastmile_qr_scan", "ios": "https://dc.lft.to/lastmile_qr_scan"}, "type": "electric_bike", "lon": -77.12741983333333, "name": "c4dbcf173ec1725a5e860555c3155971", "bike_id": "c4dbcf173ec1725a5e860555c3155971", "fusion_lat": 0.0, "is_reserved": 0, "lat": 38.89564583333333, "fusion_lon": 0.0, "is_disabled": 0}, {"rental_uris": {"android": "https://dc.lft.to/lastmile_qr_scan", "ios": "https://dc.lft.to/lastmile_qr_scan"}, "type": "electric_scooter", "lon": -77.03999733333333, "name": "54ef543e2daa66af5ec5ccc6b2b1831d", "bike_id": "54ef543e2daa66af5ec5ccc6b2b1831d", "fusion_lat": 0.0, "is_reserved": 0, "lat": 38.91804283333333, "fusion_lon": 0.0, "is_disabled": 0}, {"rental_uris": {"android": "https://dc.lft.to/lastmile_qr_scan", "ios": "https://dc.lft.to/lastmile_qr_scan"}, "type": "electric_scooter", "lon": -77.01007916666667, "name": "7f57d44312abbad057e12415777713d6", "bike_id": "7f57d44312abbad057e12415777713d6", "fusion_lat": 0.0, "is_reserved": 0, "lat": 38.86713433333333, "fusion_lon": 0.0, "is_disabled": 0}, {"rental_uris": {"android": "https://dc.lft.to/lastmile_qr_scan", "ios": "https://dc.lft.to/lastmile_qr_scan"}, "type": "electric_scooter", "lon": -77.0397215, "name": "c9b0bc583bf169cd2b93e9db601f690f", "bike_id": "c9b0bc583bf169cd2b93e9db601f690f", "fusion_lat": 0.0, "is_reserved": 0, "lat": 38.916367, "fusion_lon": 0.0, "is_disabled": 0}, {"rental_uris": {"android": "https://dc.lft.to/lastmile_qr_scan", "ios": "https://dc.lft.to/lastmile_qr_scan"}, "type": "electric_scooter", "lon": -77.03645566666667, "name": "55f966581010a8a42ae4f0c80d5baf50", "bike_id": "55f966581010a8a42ae4f0c80d5baf50", "fusion_lat": 0.0, "is_reserved": 0, "lat": 38.91773933333333, "fusion_lon": 0.0, "is_disabled": 0}, {"rental_uris": {"android": "https://dc.lft.to/lastmile_qr_scan", "ios": "https://dc.lft.to/lastmile_qr_scan"}, "type": "electric_scooter", "lon": -76.9988275, "name": "47bc011957b915fd9dd52e73228ea955", "bike_id": "47bc011957b915fd9dd52e73228ea955", "fusion_lat": 0.0, "is_reserved": 0, "lat": 38.92053716666667, "fusion_lon": 0.0, "is_disabled": 0}, {"rental_uris": {"android": "https://dc.lft.to/lastmile_qr_scan", "ios": "https://dc.lft.to/lastmile_qr_scan"}, "type": "electric_scooter", "lon": -77.04985916666666, "name": "40c44ce6273f2e8052f523766ee50a63", "bike_id": "40c44ce6273f2e8052f523766ee50a63", "fusion_lat": 0.0, "is_reserved": 0, "lat": 38.904097666666665, "fusion_lon": 0.0, "is_disabled": 0}, {"rental_uris": {"android": "https://dc.lft.to/lastmile_qr_scan", "ios": "https://dc.lft.to/lastmile_qr_scan"}, "type": "electric_scooter", "lon": -76.99367166666667, "name": "f8d3fa1a4167e9d664dbd392a9f5388f", "bike_id": "f8d3fa1a4167e9d664dbd392a9f5388f", "fusion_lat": 0.0, "is_reserved": 0, "lat": 38.9005315, "fusion_lon": 0.0, "is_disabled": 0}, {"rental_uris": {"android": "https://dc.lft.to/lastmile_qr_scan", "ios": "https://dc.lft.to/lastmile_qr_scan"}, "type": "electric_scooter", "lon": -76.98850866666666, "name": "18e12c1013b25bc447d164a0190a34b3", "bike_id": "18e12c1013b25bc447d164a0190a34b3", "fusion_lat": 0.0, "is_reserved": 0, "lat": 38.90345266666667, "fusion_lon": 0.0, "is_disabled": 0}, {"rental_uris": {"android": "https://dc.lft.to/lastmile_qr_scan", "ios": "https://dc.lft.to/lastmile_qr_scan"}, "type": "electric_scooter", "lon": -77.02773783333333, "name": "58956edfb7eefd5b86d049b5966d46bd", "bike_id": "58956edfb7eefd5b86d049b5966d46bd", "fusion_lat": 0.0, "is_reserved": 0, "lat": 38.892206, "fusion_lon": 0.0, "is_disabled": 0}, {"rental_uris": {"android": "https://dc.lft.to/lastmile_qr_scan", "ios": "https://dc.lft.to/lastmile_qr_scan"}, "type": "electric_scooter", "lon": -77.02497683333333, "name": "f3f6478805409f1bbe4125591c25d188", "bike_id": "f3f6478805409f1bbe4125591c25d188", "fusion_lat": 0.0, "is_reserved": 0, "lat": 38.93282933333333, "fusion_lon": 0.0, "is_disabled": 0}, {"rental_uris": {"android": "https://dc.lft.to/lastmile_qr_scan", "ios": "https://dc.lft.to/lastmile_qr_scan"}, "type": "electric_scooter", "lon": -77.030739, "name": "ea8d95c83909888aa229511cb0d892cc", "bike_id": "ea8d95c83909888aa229511cb0d892cc", "fusion_lat": 0.0, "is_reserved": 0, "lat": 38.92244266666667, "fusion_lon": 0.0, "is_disabled": 0}, {"rental_uris": {"android": "https://dc.lft.to/lastmile_qr_scan", "ios": "https://dc.lft.to/lastmile_qr_scan"}, "type": "electric_scooter", "lon": -77.029638, "name": "784c33fb995fe74f191844f8139c59fb", "bike_id": "784c33fb995fe74f191844f8139c59fb", "fusion_lat": 0.0, "is_reserved": 0, "lat": 38.9245825, "fusion_lon": 0.0, "is_disabled": 0}, {"rental_uris": {"android": "https://dc.lft.to/lastmile_qr_scan", "ios": "https://dc.lft.to/lastmile_qr_scan"}, "type": "electric_scooter", "lon": -77.0487965, "name": "9f914b478a43f854ead63481880fa551", "bike_id": "9f914b478a43f854ead63481880fa551", "fusion_lat": 0.0, "is_reserved": 0, "lat": 38.904093333333336, "fusion_lon": 0.0, "is_disabled": 0}, {"rental_uris": {"android": "https://dc.lft.to/lastmile_qr_scan", "ios": "https://dc.lft.to/lastmile_qr_scan"}, "type": "electric_scooter", "lon": -77.04567633333333, "name": "0f0594d78cdbfc636cd63211a5b2645e", "bike_id": "0f0594d78cdbfc636cd63211a5b2645e", "fusion_lat": 0.0, "is_reserved": 0, "lat": 38.900070666666664, "fusion_lon": 0.0, "is_disabled": 0}, {"rental_uris": {"android": "https://dc.lft.to/lastmile_qr_scan", "ios": "https://dc.lft.to/lastmile_qr_scan"}, "type": "electric_bike", "lon": -76.9656235, "name": "87d7590ef479a4882b43a53263d1fe71", "bike_id": "87d7590ef479a4882b43a53263d1fe71", "fusion_lat": 0.0, "is_reserved": 0, "lat": 38.95087683333333, "fusion_lon": 0.0, "is_disabled": 0}, {"rental_uris": {"android": "https://dc.lft.to/lastmile_qr_scan", "ios": "https://dc.lft.to/lastmile_qr_scan"}, "type": "electric_scooter", "lon": -77.07843816666667, "name": "c04f8a9f1e81b55f835975ae9452e214", "bike_id": "c04f8a9f1e81b55f835975ae9452e214", "fusion_lat": 0.0, "is_reserved": 0, "lat": 38.931433166666665, "fusion_lon": 0.0, "is_disabled": 0}, {"rental_uris": {"android": "https://dc.lft.to/lastmile_qr_scan", "ios": "https://dc.lft.to/lastmile_qr_scan"}, "type": "electric_scooter", "lon": -77.03852133333334, "name": "b18a3bec0bf6b59e4f3761ce68e89f16", "bike_id": "b18a3bec0bf6b59e4f3761ce68e89f16", "fusion_lat": 0.0, "is_reserved": 0, "lat": 38.91191766666667, "fusion_lon": 0.0, "is_disabled": 0}, {"rental_uris": {"android": "https://dc.lft.to/lastmile_qr_scan", "ios": "https://dc.lft.to/lastmile_qr_scan"}, "type": "electric_scooter", "lon": -77.05031716666667, "name": "198338f4d9fe95850a84b6d25eddc684", "bike_id": "198338f4d9fe95850a84b6d25eddc684", "fusion_lat": 0.0, "is_reserved": 0, "lat": 38.92363783333333, "fusion_lon": 0.0, "is_disabled": 0}, {"rental_uris": {"android": "https://dc.lft.to/lastmile_qr_scan", "ios": "https://dc.lft.to/lastmile_qr_scan"}, "type": "electric_scooter", "lon": -77.04987483333333, "name": "f4482c4ce94ab59c236a162e64079297", "bike_id": "f4482c4ce94ab59c236a162e64079297", "fusion_lat": 0.0, "is_reserved": 0, "lat": 38.89891516666667, "fusion_lon": 0.0, "is_disabled": 0}, {"rental_uris": {"android": "https://dc.lft.to/lastmile_qr_scan", "ios": "https://dc.lft.to/lastmile_qr_scan"}, "type": "electric_scooter", "lon": -77.0152455, "name": "5ad3a12ce2f03f69cf4ad78db73496db", "bike_id": "5ad3a12ce2f03f69cf4ad78db73496db", "fusion_lat": 0.0, "is_reserved": 0, "lat": 38.913551166666664, "fusion_lon": 0.0, "is_disabled": 0}, {"rental_uris": {"android": "https://dc.lft.to/lastmile_qr_scan", "ios": "https://dc.lft.to/lastmile_qr_scan"}, "type": "electric_scooter", "lon": -77.08214866666667, "name": "c52253e9a248ba6c011f3e7c6ecdac2b", "bike_id": "c52253e9a248ba6c011f3e7c6ecdac2b", "fusion_lat": 0.0, "is_reserved": 0, "lat": 38.9355115, "fusion_lon": 0.0, "is_disabled": 0}, {"rental_uris": {"android": "https://dc.lft.to/lastmile_qr_scan", "ios": "https://dc.lft.to/lastmile_qr_scan"}, "type": "electric_scooter", "lon": -77.03192416666667, "name": "fefa826f6ba0957c7c1a4cefb4a14d3f", "bike_id": "fefa826f6ba0957c7c1a4cefb4a14d3f", "fusion_lat": 0.0, "is_reserved": 0, "lat": 38.90282466666667, "fusion_lon": 0.0, "is_disabled": 0}, {"rental_uris": {"android": "https://dc.lft.to/lastmile_qr_scan", "ios": "https://dc.lft.to/lastmile_qr_scan"}, "type": "electric_scooter", "lon": -77.02706883333333, "name": "3703ba8a2831f1bbcc349f0b0c6d1452", "bike_id": "3703ba8a2831f1bbcc349f0b0c6d1452", "fusion_lat": 0.0, "is_reserved": 0, "lat": 38.906672, "fusion_lon": 0.0, "is_disabled": 0}, {"rental_uris": {"android": "https://dc.lft.to/lastmile_qr_scan", "ios": "https://dc.lft.to/lastmile_qr_scan"}, "type": "electric_bike", "lon": -77.1784635, "name": "979507be65b2567240240bdf679a5f29", "bike_id": "979507be65b2567240240bdf679a5f29", "fusion_lat": 0.0, "is_reserved": 0, "lat": 39.089022166666666, "fusion_lon": 0.0, "is_disabled": 0}, {"rental_uris": {"android": "https://dc.lft.to/lastmile_qr_scan", "ios": "https://dc.lft.to/lastmile_qr_scan"}, "type": "electric_scooter", "lon": -77.024095, "name": "bf18db5d1da4261fa33467673f378dfa", "bike_id": "bf18db5d1da4261fa33467673f378dfa", "fusion_lat": 0.0, "is_reserved": 0, "lat": 38.9134275, "fusion_lon": 0.0, "is_disabled": 0}, {"rental_uris": {"android": "https://dc.lft.to/lastmile_qr_scan", "ios": "https://dc.lft.to/lastmile_qr_scan"}, "type": "electric_scooter", "lon": -76.99480133333333, "name": "3e36d915c63d88e8fdbe269f4c156db0", "bike_id": "3e36d915c63d88e8fdbe269f4c156db0", "fusion_lat": 0.0, "is_reserved": 0, "lat": 38.888633666666664, "fusion_lon": 0.0, "is_disabled": 0}, {"rental_uris": {"android": "https://dc.lft.to/lastmile_qr_scan", "ios": "https://dc.lft.to/lastmile_qr_scan"}, "type": "electric_scooter", "lon": -77.02284416666667, "name": "0274d5ad0d46c3301539b3db680613a1", "bike_id": "0274d5ad0d46c3301539b3db680613a1", "fusion_lat": 0.0, "is_reserved": 0, "lat": 38.924233, "fusion_lon": 0.0, "is_disabled": 0}, {"rental_uris": {"android": "https://dc.lft.to/lastmile_qr_scan", "ios": "https://dc.lft.to/lastmile_qr_scan"}, "type": "electric_scooter", "lon": -76.9353645, "name": "8a6da771fe1f4ac7cb311d6fe54858ab", "bike_id": "8a6da771fe1f4ac7cb311d6fe54858ab", "fusion_lat": 0.0, "is_reserved": 0, "lat": 38.8968075, "fusion_lon": 0.0, "is_disabled": 0}, {"rental_uris": {"android": "https://dc.lft.to/lastmile_qr_scan", "ios": "https://dc.lft.to/lastmile_qr_scan"}, "type": "electric_scooter", "lon": -77.02706733333333, "name": "ffb14e3ec962c67d840185b9fb1761ff", "bike_id": "ffb14e3ec962c67d840185b9fb1761ff", "fusion_lat": 0.0, "is_reserved": 0, "lat": 38.94997866666667, "fusion_lon": 0.0, "is_disabled": 0}, {"rental_uris": {"android": "https://dc.lft.to/lastmile_qr_scan", "ios": "https://dc.lft.to/lastmile_qr_scan"}, "type": "electric_bike", "lon": -77.043077, "name": "03b4e1e7a27307ece7cc2a11153d0174", "bike_id": "03b4e1e7a27307ece7cc2a11153d0174", "fusion_lat": 0.0, "is_reserved": 0, "lat": 39.0545085, "fusion_lon": 0.0, "is_disabled": 0}, {"rental_uris": {"android": "https://dc.lft.to/lastmile_qr_scan", "ios": "https://dc.lft.to/lastmile_qr_scan"}, "type": "electric_scooter", "lon": -76.92405383333333, "name": "05b5db0139e00fa19bd8969d68f182d9", "bike_id": "05b5db0139e00fa19bd8969d68f182d9", "fusion_lat": 0.0, "is_reserved": 0, "lat": 38.88987933333333, "fusion_lon": 0.0, "is_disabled": 0}, {"rental_uris": {"android": "https://dc.lft.to/lastmile_qr_scan", "ios": "https://dc.lft.to/lastmile_qr_scan"}, "type": "electric_scooter", "lon": -77.027142, "name": "73635cc36274d881e9e5f48ff3178db2", "bike_id": "73635cc36274d881e9e5f48ff3178db2", "fusion_lat": 0.0, "is_reserved": 0, "lat": 38.909078, "fusion_lon": 0.0, "is_disabled": 0}, {"rental_uris": {"android": "https://dc.lft.to/lastmile_qr_scan", "ios": "https://dc.lft.to/lastmile_qr_scan"}, "type": "electric_scooter", "lon": -77.02212533333334, "name": "dc25f1d2701657cc4319b0522d1fa0d7", "bike_id": "dc25f1d2701657cc4319b0522d1fa0d7", "fusion_lat": 0.0, "is_reserved": 0, "lat": 38.9057495, "fusion_lon": 0.0, "is_disabled": 0}, {"rental_uris": {"android": "https://dc.lft.to/lastmile_qr_scan", "ios": "https://dc.lft.to/lastmile_qr_scan"}, "type": "electric_scooter", "lon": -77.02975366666666, "name": "5a892cc8efa214c9465e01c8e99b44c4", "bike_id": "5a892cc8efa214c9465e01c8e99b44c4", "fusion_lat": 0.0, "is_reserved": 0, "lat": 38.893251166666666, "fusion_lon": 0.0, "is_disabled": 0}, {"rental_uris": {"android": "https://dc.lft.to/lastmile_qr_scan", "ios": "https://dc.lft.to/lastmile_qr_scan"}, "type": "electric_scooter", "lon": -76.99165883333333, "name": "11f8cd713b1dcc58293ce4e3a0189c36", "bike_id": "11f8cd713b1dcc58293ce4e3a0189c36", "fusion_lat": 0.0, "is_reserved": 0, "lat": 38.87916366666666, "fusion_lon": 0.0, "is_disabled": 0}, {"rental_uris": {"android": "https://dc.lft.to/lastmile_qr_scan", "ios": "https://dc.lft.to/lastmile_qr_scan"}, "type": "electric_scooter", "lon": -77.04712233333333, "name": "698c38dc3086ac2d203ebd90280baf8f", "bike_id": "698c38dc3086ac2d203ebd90280baf8f", "fusion_lat": 0.0, "is_reserved": 0, "lat": 38.912529666666664, "fusion_lon": 0.0, "is_disabled": 0}, {"rental_uris": {"android": "https://dc.lft.to/lastmile_qr_scan", "ios": "https://dc.lft.to/lastmile_qr_scan"}, "type": "electric_bike", "lon": -76.93414766666666, "name": "5402f5cd03bcc4935652ec9d07b17270", "bike_id": "5402f5cd03bcc4935652ec9d07b17270", "fusion_lat": 0.0, "is_reserved": 0, "lat": 38.94623933333333, "fusion_lon": 0.0, "is_disabled": 0}, {"rental_uris": {"android": "https://dc.lft.to/lastmile_qr_scan", "ios": "https://dc.lft.to/lastmile_qr_scan"}, "type": "electric_scooter", "lon": -76.9734585, "name": "94961dc126d03a37fabb2032a2848aa9", "bike_id": "94961dc126d03a37fabb2032a2848aa9", "fusion_lat": 0.0, "is_reserved": 0, "lat": 38.86508933333333, "fusion_lon": 0.0, "is_disabled": 0}, {"rental_uris": {"android": "https://dc.lft.to/lastmile_qr_scan", "ios": "https://dc.lft.to/lastmile_qr_scan"}, "type": "electric_scooter", "lon": -77.02309533333333, "name": "5467986d7172aa7b155be3be6b16b8df", "bike_id": "5467986d7172aa7b155be3be6b16b8df", "fusion_lat": 0.0, "is_reserved": 0, "lat": 38.928873, "fusion_lon": 0.0, "is_disabled": 0}, {"rental_uris": {"android": "https://dc.lft.to/lastmile_qr_scan", "ios": "https://dc.lft.to/lastmile_qr_scan"}, "type": "electric_scooter", "lon": -77.02681233333334, "name": "b23e7bb3fb3d00406bfd6dcf908c2c66", "bike_id": "b23e7bb3fb3d00406bfd6dcf908c2c66", "fusion_lat": 0.0, "is_reserved": 0, "lat": 38.90957933333333, "fusion_lon": 0.0, "is_disabled": 0}, {"rental_uris": {"android": "https://dc.lft.to/lastmile_qr_scan", "ios": "https://dc.lft.to/lastmile_qr_scan"}, "type": "electric_scooter", "lon": -77.001951, "name": "7d0622d023f5bd65ad18aea9dcd6e0d3", "bike_id": "7d0622d023f5bd65ad18aea9dcd6e0d3", "fusion_lat": 0.0, "is_reserved": 0, "lat": 38.8783295, "fusion_lon": 0.0, "is_disabled": 0}, {"rental_uris": {"android": "https://dc.lft.to/lastmile_qr_scan", "ios": "https://dc.lft.to/lastmile_qr_scan"}, "type": "electric_bike", "lon": -77.1068265, "name": "83344bce021c69c0f108778758f8217a", "bike_id": "83344bce021c69c0f108778758f8217a", "fusion_lat": 0.0, "is_reserved": 0, "lat": 38.93581066666667, "fusion_lon": 0.0, "is_disabled": 0}, {"rental_uris": {"android": "https://dc.lft.to/lastmile_qr_scan", "ios": "https://dc.lft.to/lastmile_qr_scan"}, "type": "electric_scooter", "lon": -77.02127, "name": "5ce4bfa19fd978dbb2e3231f92c75441", "bike_id": "5ce4bfa19fd978dbb2e3231f92c75441", "fusion_lat": 0.0, "is_reserved": 0, "lat": 38.8949345, "fusion_lon": 0.0, "is_disabled": 0}, {"rental_uris": {"android": "https://dc.lft.to/lastmile_qr_scan", "ios": "https://dc.lft.to/lastmile_qr_scan"}, "type": "electric_scooter", "lon": -77.01389183333333, "name": "80a3be5b9fb3a09f8d5d89e6dc8b0bdc", "bike_id": "80a3be5b9fb3a09f8d5d89e6dc8b0bdc", "fusion_lat": 0.0, "is_reserved": 0, "lat": 38.880213166666664, "fusion_lon": 0.0, "is_disabled": 0}, {"rental_uris": {"android": "https://dc.lft.to/lastmile_qr_scan", "ios": "https://dc.lft.to/lastmile_qr_scan"}, "type": "electric_scooter", "lon": -77.04224966666666, "name": "04545bab1ad0b80b1c4d7198f4444612", "bike_id": "04545bab1ad0b80b1c4d7198f4444612", "fusion_lat": 0.0, "is_reserved": 0, "lat": 38.91694116666667, "fusion_lon": 0.0, "is_disabled": 0}, {"rental_uris": {"android": "https://dc.lft.to/lastmile_qr_scan", "ios": "https://dc.lft.to/lastmile_qr_scan"}, "type": "electric_scooter", "lon": -77.030751, "name": "6616c44edb12e05a4f478e6cfd78a740", "bike_id": "6616c44edb12e05a4f478e6cfd78a740", "fusion_lat": 0.0, "is_reserved": 0, "lat": 38.905613333333335, "fusion_lon": 0.0, "is_disabled": 0}, {"rental_uris": {"android": "https://dc.lft.to/lastmile_qr_scan", "ios": "https://dc.lft.to/lastmile_qr_scan"}, "type": "electric_scooter", "lon": -77.07108333333333, "name": "0df5b94bcaeb5393c6e8aa276d92ac4d", "bike_id": "0df5b94bcaeb5393c6e8aa276d92ac4d", "fusion_lat": 0.0, "is_reserved": 0, "lat": 38.91416816666667, "fusion_lon": 0.0, "is_disabled": 0}, {"rental_uris": {"android": "https://dc.lft.to/lastmile_qr_scan", "ios": "https://dc.lft.to/lastmile_qr_scan"}, "type": "electric_scooter", "lon": -77.04503683333333, "name": "e14dff54ebed20e0917252547587a3e4", "bike_id": "e14dff54ebed20e0917252547587a3e4", "fusion_lat": 0.0, "is_reserved": 0, "lat": 38.8964885, "fusion_lon": 0.0, "is_disabled": 0}, {"rental_uris": {"android": "https://dc.lft.to/lastmile_qr_scan", "ios": "https://dc.lft.to/lastmile_qr_scan"}, "type": "electric_scooter", "lon": -77.04873233333333, "name": "0a8f7f43d1048180db2943550defec66", "bike_id": "0a8f7f43d1048180db2943550defec66", "fusion_lat": 0.0, "is_reserved": 0, "lat": 38.8929165, "fusion_lon": 0.0, "is_disabled": 0}, {"rental_uris": {"android": "https://dc.lft.to/lastmile_qr_scan", "ios": "https://dc.lft.to/lastmile_qr_scan"}, "type": "electric_scooter", "lon": -77.04492083333334, "name": "a101ad13cd3a8eaeea7cf7165a0dfc14", "bike_id": "a101ad13cd3a8eaeea7cf7165a0dfc14", "fusion_lat": 0.0, "is_reserved": 0, "lat": 38.90372466666667, "fusion_lon": 0.0, "is_disabled": 0}, {"rental_uris": {"android": "https://dc.lft.to/lastmile_qr_scan", "ios": "https://dc.lft.to/lastmile_qr_scan"}, "type": "electric_scooter", "lon": -76.985345, "name": "dcfd4ec518f8c652dda16b469a05bbf2", "bike_id": "dcfd4ec518f8c652dda16b469a05bbf2", "fusion_lat": 0.0, "is_reserved": 0, "lat": 38.858515833333335, "fusion_lon": 0.0, "is_disabled": 0}, {"rental_uris": {"android": "https://dc.lft.to/lastmile_qr_scan", "ios": "https://dc.lft.to/lastmile_qr_scan"}, "type": "electric_scooter", "lon": -76.97911683333334, "name": "1943daebc8e74b02012714dde8a5a270", "bike_id": "1943daebc8e74b02012714dde8a5a270", "fusion_lat": 0.0, "is_reserved": 0, "lat": 38.894337, "fusion_lon": 0.0, "is_disabled": 0}, {"rental_uris": {"android": "https://dc.lft.to/lastmile_qr_scan", "ios": "https://dc.lft.to/lastmile_qr_scan"}, "type": "electric_scooter", "lon": -76.97713016666667, "name": "f91f20b06ec7964d1ec19f45ff293b17", "bike_id": "f91f20b06ec7964d1ec19f45ff293b17", "fusion_lat": 0.0, "is_reserved": 0, "lat": 38.90025716666667, "fusion_lon": 0.0, "is_disabled": 0}, {"rental_uris": {"android": "https://dc.lft.to/lastmile_qr_scan", "ios": "https://dc.lft.to/lastmile_qr_scan"}, "type": "electric_scooter", "lon": -77.02641716666666, "name": "e29e71635fe12e3e8b99575d747a1976", "bike_id": "e29e71635fe12e3e8b99575d747a1976", "fusion_lat": 0.0, "is_reserved": 0, "lat": 38.90256183333333, "fusion_lon": 0.0, "is_disabled": 0}, {"rental_uris": {"android": "https://dc.lft.to/lastmile_qr_scan", "ios": "https://dc.lft.to/lastmile_qr_scan"}, "type": "electric_scooter", "lon": -77.02406766666667, "name": "858babe831edf3ad699913f568596d68", "bike_id": "858babe831edf3ad699913f568596d68", "fusion_lat": 0.0, "is_reserved": 0, "lat": 38.920810333333336, "fusion_lon": 0.0, "is_disabled": 0}, {"rental_uris": {"android": "https://dc.lft.to/lastmile_qr_scan", "ios": "https://dc.lft.to/lastmile_qr_scan"}, "type": "electric_scooter", "lon": -77.04175783333334, "name": "8d578ac0270af395e699912443752839", "bike_id": "8d578ac0270af395e699912443752839", "fusion_lat": 0.0, "is_reserved": 0, "lat": 38.91590333333333, "fusion_lon": 0.0, "is_disabled": 0}, {"rental_uris": {"android": "https://dc.lft.to/lastmile_qr_scan", "ios": "https://dc.lft.to/lastmile_qr_scan"}, "type": "electric_scooter", "lon": -76.9746025, "name": "9d906beddb1391c3b0e086935c142ae2", "bike_id": "9d906beddb1391c3b0e086935c142ae2", "fusion_lat": 0.0, "is_reserved": 0, "lat": 38.883940833333334, "fusion_lon": 0.0, "is_disabled": 0}, {"rental_uris": {"android": "https://dc.lft.to/lastmile_qr_scan", "ios": "https://dc.lft.to/lastmile_qr_scan"}, "type": "electric_scooter", "lon": -77.026924, "name": "409285091d0beee3fccfe991469d98ca", "bike_id": "409285091d0beee3fccfe991469d98ca", "fusion_lat": 0.0, "is_reserved": 0, "lat": 38.908452, "fusion_lon": 0.0, "is_disabled": 0}, {"rental_uris": {"android": "https://dc.lft.to/lastmile_qr_scan", "ios": "https://dc.lft.to/lastmile_qr_scan"}, "type": "electric_scooter", "lon": -77.03429783333333, "name": "8a8a50ea6c91d8bfaf1f4b54b67cbb70", "bike_id": "8a8a50ea6c91d8bfaf1f4b54b67cbb70", "fusion_lat": 0.0, "is_reserved": 0, "lat": 38.902582333333335, "fusion_lon": 0.0, "is_disabled": 0}, {"rental_uris": {"android": "https://dc.lft.to/lastmile_qr_scan", "ios": "https://dc.lft.to/lastmile_qr_scan"}, "type": "electric_scooter", "lon": -76.947261, "name": "b9f3dd3ee6281b9bc6838f460a4379c6", "bike_id": "b9f3dd3ee6281b9bc6838f460a4379c6", "fusion_lat": 0.0, "is_reserved": 0, "lat": 38.897319, "fusion_lon": 0.0, "is_disabled": 0}, {"rental_uris": {"android": "https://dc.lft.to/lastmile_qr_scan", "ios": "https://dc.lft.to/lastmile_qr_scan"}, "type": "electric_scooter", "lon": -77.035226, "name": "d0c7c4d7545403722f621d27828d3ec7", "bike_id": "d0c7c4d7545403722f621d27828d3ec7", "fusion_lat": 0.0, "is_reserved": 0, "lat": 38.923408, "fusion_lon": 0.0, "is_disabled": 0}, {"rental_uris": {"android": "https://dc.lft.to/lastmile_qr_scan", "ios": "https://dc.lft.to/lastmile_qr_scan"}, "type": "electric_scooter", "lon": -77.03345916666666, "name": "a0df3989d649cce07a6b6ff2fca18a88", "bike_id": "a0df3989d649cce07a6b6ff2fca18a88", "fusion_lat": 0.0, "is_reserved": 0, "lat": 38.92243533333333, "fusion_lon": 0.0, "is_disabled": 0}, {"rental_uris": {"android": "https://dc.lft.to/lastmile_qr_scan", "ios": "https://dc.lft.to/lastmile_qr_scan"}, "type": "electric_scooter", "lon": -77.03284666666667, "name": "81aebef16b0647adecbc677432df8ede", "bike_id": "81aebef16b0647adecbc677432df8ede", "fusion_lat": 0.0, "is_reserved": 0, "lat": 38.920634, "fusion_lon": 0.0, "is_disabled": 0}, {"rental_uris": {"android": "https://dc.lft.to/lastmile_qr_scan", "ios": "https://dc.lft.to/lastmile_qr_scan"}, "type": "electric_scooter", "lon": -77.02231583333334, "name": "d744fc39aa2c32024fe0f4bdf37e78e8", "bike_id": "d744fc39aa2c32024fe0f4bdf37e78e8", "fusion_lat": 0.0, "is_reserved": 0, "lat": 38.91563933333333, "fusion_lon": 0.0, "is_disabled": 0}, {"rental_uris": {"android": "https://dc.lft.to/lastmile_qr_scan", "ios": "https://dc.lft.to/lastmile_qr_scan"}, "type": "electric_scooter", "lon": -77.029606, "name": "48425d9de78f3521947c3e2fdf3e680e", "bike_id": "48425d9de78f3521947c3e2fdf3e680e", "fusion_lat": 0.0, "is_reserved": 0, "lat": 38.8921335, "fusion_lon": 0.0, "is_disabled": 0}, {"rental_uris": {"android": "https://dc.lft.to/lastmile_qr_scan", "ios": "https://dc.lft.to/lastmile_qr_scan"}, "type": "electric_bike", "lon": -77.12627666666667, "name": "e6780df513f244fc3327e57b8d3adbe9", "bike_id": "e6780df513f244fc3327e57b8d3adbe9", "fusion_lat": 0.0, "is_reserved": 0, "lat": 39.0581265, "fusion_lon": 0.0, "is_disabled": 0}, {"rental_uris": {"android": "https://dc.lft.to/lastmile_qr_scan", "ios": "https://dc.lft.to/lastmile_qr_scan"}, "type": "electric_bike", "lon": -76.98743383333333, "name": "8fdec5dd1fa77b8b3e88254c85401146", "bike_id": "8fdec5dd1fa77b8b3e88254c85401146", "fusion_lat": 0.0, "is_reserved": 0, "lat": 38.85790083333333, "fusion_lon": 0.0, "is_disabled": 0}, {"rental_uris": {"android": "https://dc.lft.to/lastmile_qr_scan", "ios": "https://dc.lft.to/lastmile_qr_scan"}, "type": "electric_scooter", "lon": -77.03871183333334, "name": "7b629d2594adf4cfba50f071e31872b7", "bike_id": "7b629d2594adf4cfba50f071e31872b7", "fusion_lat": 0.0, "is_reserved": 0, "lat": 38.93245783333333, "fusion_lon": 0.0, "is_disabled": 0}, {"rental_uris": {"android": "https://dc.lft.to/lastmile_qr_scan", "ios": "https://dc.lft.to/lastmile_qr_scan"}, "type": "electric_bike", "lon": -76.98092733333333, "name": "cba29d909535b87b95d54e4c686cd966", "bike_id": "cba29d909535b87b95d54e4c686cd966", "fusion_lat": 0.0, "is_reserved": 0, "lat": 38.95355966666666, "fusion_lon": 0.0, "is_disabled": 0}, {"rental_uris": {"android": "https://dc.lft.to/lastmile_qr_scan", "ios": "https://dc.lft.to/lastmile_qr_scan"}, "type": "electric_scooter", "lon": -77.01728216666666, "name": "058283b71bacd6deb44e7e36499ae702", "bike_id": "058283b71bacd6deb44e7e36499ae702", "fusion_lat": 0.0, "is_reserved": 0, "lat": 38.94207866666667, "fusion_lon": 0.0, "is_disabled": 0}, {"rental_uris": {"android": "https://dc.lft.to/lastmile_qr_scan", "ios": "https://dc.lft.to/lastmile_qr_scan"}, "type": "electric_scooter", "lon": -77.03446183333334, "name": "5f18b35d7952cacc225c44835354a590", "bike_id": "5f18b35d7952cacc225c44835354a590", "fusion_lat": 0.0, "is_reserved": 0, "lat": 38.90733616666667, "fusion_lon": 0.0, "is_disabled": 0}, {"rental_uris": {"android": "https://dc.lft.to/lastmile_qr_scan", "ios": "https://dc.lft.to/lastmile_qr_scan"}, "type": "electric_scooter", "lon": -77.03456016666667, "name": "bb9f3465d9316f8ba1a3f6deef3c5624", "bike_id": "bb9f3465d9316f8ba1a3f6deef3c5624", "fusion_lat": 0.0, "is_reserved": 0, "lat": 38.907323166666664, "fusion_lon": 0.0, "is_disabled": 0}, {"rental_uris": {"android": "https://dc.lft.to/lastmile_qr_scan", "ios": "https://dc.lft.to/lastmile_qr_scan"}, "type": "electric_scooter", "lon": -77.0481275, "name": "a4e0ec5a31e07d53f475010ac84c35c0", "bike_id": "a4e0ec5a31e07d53f475010ac84c35c0", "fusion_lat": 0.0, "is_reserved": 0, "lat": 38.91917683333333, "fusion_lon": 0.0, "is_disabled": 0}, {"rental_uris": {"android": "https://dc.lft.to/lastmile_qr_scan", "ios": "https://dc.lft.to/lastmile_qr_scan"}, "type": "electric_scooter", "lon": -77.021727, "name": "e897bf10b4ff49ec5f1d8f55bc6aac8d", "bike_id": "e897bf10b4ff49ec5f1d8f55bc6aac8d", "fusion_lat": 0.0, "is_reserved": 0, "lat": 38.897336, "fusion_lon": 0.0, "is_disabled": 0}, {"rental_uris": {"android": "https://dc.lft.to/lastmile_qr_scan", "ios": "https://dc.lft.to/lastmile_qr_scan"}, "type": "electric_scooter", "lon": -77.029273, "name": "233c19c6ceaf6abf38e4a0b51a5d37db", "bike_id": "233c19c6ceaf6abf38e4a0b51a5d37db", "fusion_lat": 0.0, "is_reserved": 0, "lat": 38.911143, "fusion_lon": 0.0, "is_disabled": 0}, {"rental_uris": {"android": "https://dc.lft.to/lastmile_qr_scan", "ios": "https://dc.lft.to/lastmile_qr_scan"}, "type": "electric_scooter", "lon": -77.03640616666667, "name": "fd5f60ada6f74cf2b943d9e9e4b199c7", "bike_id": "fd5f60ada6f74cf2b943d9e9e4b199c7", "fusion_lat": 0.0, "is_reserved": 0, "lat": 38.9122255, "fusion_lon": 0.0, "is_disabled": 0}, {"rental_uris": {"android": "https://dc.lft.to/lastmile_qr_scan", "ios": "https://dc.lft.to/lastmile_qr_scan"}, "type": "electric_scooter", "lon": -77.00202, "name": "50222a64367116130e3c9ffbd4ac6db2", "bike_id": "50222a64367116130e3c9ffbd4ac6db2", "fusion_lat": 0.0, "is_reserved": 0, "lat": 38.902388333333334, "fusion_lon": 0.0, "is_disabled": 0}, {"rental_uris": {"android": "https://dc.lft.to/lastmile_qr_scan", "ios": "https://dc.lft.to/lastmile_qr_scan"}, "type": "electric_bike", "lon": -77.01073883333333, "name": "31c55a5656bfffd5cc693aa20eb588ea", "bike_id": "31c55a5656bfffd5cc693aa20eb588ea", "fusion_lat": 0.0, "is_reserved": 0, "lat": 38.962614, "fusion_lon": 0.0, "is_disabled": 0}, {"rental_uris": {"android": "https://dc.lft.to/lastmile_qr_scan", "ios": "https://dc.lft.to/lastmile_qr_scan"}, "type": "electric_scooter", "lon": -76.97780333333333, "name": "b7f59ee0b8eef7a44c88746dc354cea2", "bike_id": "b7f59ee0b8eef7a44c88746dc354cea2", "fusion_lat": 0.0, "is_reserved": 0, "lat": 38.870079, "fusion_lon": 0.0, "is_disabled": 0}, {"rental_uris": {"android": "https://dc.lft.to/lastmile_qr_scan", "ios": "https://dc.lft.to/lastmile_qr_scan"}, "type": "electric_scooter", "lon": -77.01889033333333, "name": "78bdd8ba72874cdf609c9fb7a2ec758c", "bike_id": "78bdd8ba72874cdf609c9fb7a2ec758c", "fusion_lat": 0.0, "is_reserved": 0, "lat": 38.929414333333334, "fusion_lon": 0.0, "is_disabled": 0}, {"rental_uris": {"android": "https://dc.lft.to/lastmile_qr_scan", "ios": "https://dc.lft.to/lastmile_qr_scan"}, "type": "electric_bike", "lon": -76.998366, "name": "01b21f938d3fc5dc50c9ee9873ac4498", "bike_id": "01b21f938d3fc5dc50c9ee9873ac4498", "fusion_lat": 0.0, "is_reserved": 0, "lat": 38.83912016666667, "fusion_lon": 0.0, "is_disabled": 0}, {"rental_uris": {"android": "https://dc.lft.to/lastmile_qr_scan", "ios": "https://dc.lft.to/lastmile_qr_scan"}, "type": "electric_scooter", "lon": -77.0435225, "name": "bb2abbbd9bf60b5a8410807e6bc6514d", "bike_id": "bb2abbbd9bf60b5a8410807e6bc6514d", "fusion_lat": 0.0, "is_reserved": 0, "lat": 38.9218425, "fusion_lon": 0.0, "is_disabled": 0}, {"rental_uris": {"android": "https://dc.lft.to/lastmile_qr_scan", "ios": "https://dc.lft.to/lastmile_qr_scan"}, "type": "electric_scooter", "lon": -77.01260033333334, "name": "9f68d4e59c5c65c1a407268e1ee4dc2c", "bike_id": "9f68d4e59c5c65c1a407268e1ee4dc2c", "fusion_lat": 0.0, "is_reserved": 0, "lat": 38.90845616666667, "fusion_lon": 0.0, "is_disabled": 0}, {"rental_uris": {"android": "https://dc.lft.to/lastmile_qr_scan", "ios": "https://dc.lft.to/lastmile_qr_scan"}, "type": "electric_scooter", "lon": -77.02242783333334, "name": "47da279b0b71a10e325e6aa7adef3e1f", "bike_id": "47da279b0b71a10e325e6aa7adef3e1f", "fusion_lat": 0.0, "is_reserved": 0, "lat": 38.912716333333336, "fusion_lon": 0.0, "is_disabled": 0}, {"rental_uris": {"android": "https://dc.lft.to/lastmile_qr_scan", "ios": "https://dc.lft.to/lastmile_qr_scan"}, "type": "electric_bike", "lon": -76.983316, "name": "e8d850bca9203cf8e62368f08f577d4a", "bike_id": "e8d850bca9203cf8e62368f08f577d4a", "fusion_lat": 0.0, "is_reserved": 0, "lat": 38.889885, "fusion_lon": 0.0, "is_disabled": 0}, {"rental_uris": {"android": "https://dc.lft.to/lastmile_qr_scan", "ios": "https://dc.lft.to/lastmile_qr_scan"}, "type": "electric_scooter", "lon": -77.016148, "name": "350516097c3c01ef9370e475844252fd", "bike_id": "350516097c3c01ef9370e475844252fd", "fusion_lat": 0.0, "is_reserved": 0, "lat": 38.89962583333333, "fusion_lon": 0.0, "is_disabled": 0}, {"rental_uris": {"android": "https://dc.lft.to/lastmile_qr_scan", "ios": "https://dc.lft.to/lastmile_qr_scan"}, "type": "electric_scooter", "lon": -77.04198566666666, "name": "6fba714771ae5214f65668502b4b8dce", "bike_id": "6fba714771ae5214f65668502b4b8dce", "fusion_lat": 0.0, "is_reserved": 0, "lat": 38.892213, "fusion_lon": 0.0, "is_disabled": 0}, {"rental_uris": {"android": "https://dc.lft.to/lastmile_qr_scan", "ios": "https://dc.lft.to/lastmile_qr_scan"}, "type": "electric_scooter", "lon": -77.00160116666666, "name": "30dd2a36639d8d7fd991a276e3618532", "bike_id": "30dd2a36639d8d7fd991a276e3618532", "fusion_lat": 0.0, "is_reserved": 0, "lat": 38.900263, "fusion_lon": 0.0, "is_disabled": 0}, {"rental_uris": {"android": "https://dc.lft.to/lastmile_qr_scan", "ios": "https://dc.lft.to/lastmile_qr_scan"}, "type": "electric_scooter", "lon": -77.02701016666667, "name": "0ae81391be7a0b6d4f8c65aa3c4c56cf", "bike_id": "0ae81391be7a0b6d4f8c65aa3c4c56cf", "fusion_lat": 0.0, "is_reserved": 0, "lat": 38.92779183333333, "fusion_lon": 0.0, "is_disabled": 0}, {"rental_uris": {"android": "https://dc.lft.to/lastmile_qr_scan", "ios": "https://dc.lft.to/lastmile_qr_scan"}, "type": "electric_scooter", "lon": -76.99032866666667, "name": "908382e315ef2b3646b16438b44e85c7", "bike_id": "908382e315ef2b3646b16438b44e85c7", "fusion_lat": 0.0, "is_reserved": 0, "lat": 38.898491166666666, "fusion_lon": 0.0, "is_disabled": 0}, {"rental_uris": {"android": "https://dc.lft.to/lastmile_qr_scan", "ios": "https://dc.lft.to/lastmile_qr_scan"}, "type": "electric_scooter", "lon": -77.00607033333333, "name": "f13c829229f798f0128a6435f33baf83", "bike_id": "f13c829229f798f0128a6435f33baf83", "fusion_lat": 0.0, "is_reserved": 0, "lat": 38.90570133333333, "fusion_lon": 0.0, "is_disabled": 0}, {"rental_uris": {"android": "https://dc.lft.to/lastmile_qr_scan", "ios": "https://dc.lft.to/lastmile_qr_scan"}, "type": "electric_scooter", "lon": -77.04155833333333, "name": "d0e850930cd4217daefe9c988777ac82", "bike_id": "d0e850930cd4217daefe9c988777ac82", "fusion_lat": 0.0, "is_reserved": 0, "lat": 38.914230833333335, "fusion_lon": 0.0, "is_disabled": 0}, {"rental_uris": {"android": "https://dc.lft.to/lastmile_qr_scan", "ios": "https://dc.lft.to/lastmile_qr_scan"}, "type": "electric_scooter", "lon": -77.0423235, "name": "ae8b702e2f321f278a20e7ba0df6e4cd", "bike_id": "ae8b702e2f321f278a20e7ba0df6e4cd", "fusion_lat": 0.0, "is_reserved": 0, "lat": 38.91108933333334, "fusion_lon": 0.0, "is_disabled": 0}, {"rental_uris": {"android": "https://dc.lft.to/lastmile_qr_scan", "ios": "https://dc.lft.to/lastmile_qr_scan"}, "type": "electric_scooter", "lon": -76.97457383333334, "name": "15274daea97f5e5d18bcd1d6fec88667", "bike_id": "15274daea97f5e5d18bcd1d6fec88667", "fusion_lat": 0.0, "is_reserved": 0, "lat": 38.86371583333333, "fusion_lon": 0.0, "is_disabled": 0}, {"rental_uris": {"android": "https://dc.lft.to/lastmile_qr_scan", "ios": "https://dc.lft.to/lastmile_qr_scan"}, "type": "electric_scooter", "lon": -77.03657866666667, "name": "97d87af159a2cadc865d03c0b193df1c", "bike_id": "97d87af159a2cadc865d03c0b193df1c", "fusion_lat": 0.0, "is_reserved": 0, "lat": 38.91868066666667, "fusion_lon": 0.0, "is_disabled": 0}, {"rental_uris": {"android": "https://dc.lft.to/lastmile_qr_scan", "ios": "https://dc.lft.to/lastmile_qr_scan"}, "type": "electric_scooter", "lon": -77.0418125, "name": "dcbc2a0b1564cb491a5f5a65d860c2ac", "bike_id": "dcbc2a0b1564cb491a5f5a65d860c2ac", "fusion_lat": 0.0, "is_reserved": 0, "lat": 38.920523833333334, "fusion_lon": 0.0, "is_disabled": 0}, {"rental_uris": {"android": "https://dc.lft.to/lastmile_qr_scan", "ios": "https://dc.lft.to/lastmile_qr_scan"}, "type": "electric_bike", "lon": -77.06976966666667, "name": "8cb944fdc84fb789170b48f753d08389", "bike_id": "8cb944fdc84fb789170b48f753d08389", "fusion_lat": 0.0, "is_reserved": 0, "lat": 38.95266983333333, "fusion_lon": 0.0, "is_disabled": 0}, {"rental_uris": {"android": "https://dc.lft.to/lastmile_qr_scan", "ios": "https://dc.lft.to/lastmile_qr_scan"}, "type": "electric_scooter", "lon": -77.00186783333334, "name": "329d014c129e6389ee956060cd26c883", "bike_id": "329d014c129e6389ee956060cd26c883", "fusion_lat": 0.0, "is_reserved": 0, "lat": 38.90028566666667, "fusion_lon": 0.0, "is_disabled": 0}, {"rental_uris": {"android": "https://dc.lft.to/lastmile_qr_scan", "ios": "https://dc.lft.to/lastmile_qr_scan"}, "type": "electric_bike", "lon": -77.02904583333333, "name": "1bf5cb15b3dc1222f9fd348e0c0f460f", "bike_id": "1bf5cb15b3dc1222f9fd348e0c0f460f", "fusion_lat": 0.0, "is_reserved": 0, "lat": 38.8919695, "fusion_lon": 0.0, "is_disabled": 0}, {"rental_uris": {"android": "https://dc.lft.to/lastmile_qr_scan", "ios": "https://dc.lft.to/lastmile_qr_scan"}, "type": "electric_scooter", "lon": -77.03198266666666, "name": "9c974513012e6cca6d0a2db7fb6e55d7", "bike_id": "9c974513012e6cca6d0a2db7fb6e55d7", "fusion_lat": 0.0, "is_reserved": 0, "lat": 38.918553, "fusion_lon": 0.0, "is_disabled": 0}, {"rental_uris": {"android": "https://dc.lft.to/lastmile_qr_scan", "ios": "https://dc.lft.to/lastmile_qr_scan"}, "type": "electric_scooter", "lon": -77.0048175, "name": "e57a7234378fdf47ce689a859a51e0a5", "bike_id": "e57a7234378fdf47ce689a859a51e0a5", "fusion_lat": 0.0, "is_reserved": 0, "lat": 38.92586133333333, "fusion_lon": 0.0, "is_disabled": 0}, {"rental_uris": {"android": "https://dc.lft.to/lastmile_qr_scan", "ios": "https://dc.lft.to/lastmile_qr_scan"}, "type": "electric_scooter", "lon": -76.98264333333333, "name": "144818c9738bb740d8a3e03564e6f18d", "bike_id": "144818c9738bb740d8a3e03564e6f18d", "fusion_lat": 0.0, "is_reserved": 0, "lat": 38.863534333333334, "fusion_lon": 0.0, "is_disabled": 0}, {"rental_uris": {"android": "https://dc.lft.to/lastmile_qr_scan", "ios": "https://dc.lft.to/lastmile_qr_scan"}, "type": "electric_scooter", "lon": -76.976182, "name": "667c11f17acd9976747ce66d0f62ed3b", "bike_id": "667c11f17acd9976747ce66d0f62ed3b", "fusion_lat": 0.0, "is_reserved": 0, "lat": 38.93143166666667, "fusion_lon": 0.0, "is_disabled": 0}, {"rental_uris": {"android": "https://dc.lft.to/lastmile_qr_scan", "ios": "https://dc.lft.to/lastmile_qr_scan"}, "type": "electric_bike", "lon": -76.98877916666666, "name": "3c6df5feb7ea47d18a8d49ebad70e64c", "bike_id": "3c6df5feb7ea47d18a8d49ebad70e64c", "fusion_lat": 0.0, "is_reserved": 0, "lat": 38.9211435, "fusion_lon": 0.0, "is_disabled": 0}, {"rental_uris": {"android": "https://dc.lft.to/lastmile_qr_scan", "ios": "https://dc.lft.to/lastmile_qr_scan"}, "type": "electric_scooter", "lon": -77.00220366666667, "name": "911830c721d685c0656473019cb0f04d", "bike_id": "911830c721d685c0656473019cb0f04d", "fusion_lat": 0.0, "is_reserved": 0, "lat": 38.90299433333333, "fusion_lon": 0.0, "is_disabled": 0}, {"rental_uris": {"android": "https://dc.lft.to/lastmile_qr_scan", "ios": "https://dc.lft.to/lastmile_qr_scan"}, "type": "electric_bike", "lon": -76.95464316666667, "name": "0223e9a43db607df7a686b3da7bb4c16", "bike_id": "0223e9a43db607df7a686b3da7bb4c16", "fusion_lat": 0.0, "is_reserved": 0, "lat": 38.93566783333333, "fusion_lon": 0.0, "is_disabled": 0}, {"rental_uris": {"android": "https://dc.lft.to/lastmile_qr_scan", "ios": "https://dc.lft.to/lastmile_qr_scan"}, "type": "electric_scooter", "lon": -77.00812316666666, "name": "9890d8db9ba961cfc8ead530706c1aa5", "bike_id": "9890d8db9ba961cfc8ead530706c1aa5", "fusion_lat": 0.0, "is_reserved": 0, "lat": 38.87644733333333, "fusion_lon": 0.0, "is_disabled": 0}, {"rental_uris": {"android": "https://dc.lft.to/lastmile_qr_scan", "ios": "https://dc.lft.to/lastmile_qr_scan"}, "type": "electric_scooter", "lon": -76.977358, "name": "c0e06a5e8527c519ecfaeb8a9aa30ab1", "bike_id": "c0e06a5e8527c519ecfaeb8a9aa30ab1", "fusion_lat": 0.0, "is_reserved": 0, "lat": 38.872853, "fusion_lon": 0.0, "is_disabled": 0}, {"rental_uris": {"android": "https://dc.lft.to/lastmile_qr_scan", "ios": "https://dc.lft.to/lastmile_qr_scan"}, "type": "electric_scooter", "lon": -77.0552285, "name": "51499b1ae2ebb51e8c48d84506757923", "bike_id": "51499b1ae2ebb51e8c48d84506757923", "fusion_lat": 0.0, "is_reserved": 0, "lat": 38.929635833333336, "fusion_lon": 0.0, "is_disabled": 0}, {"rental_uris": {"android": "https://dc.lft.to/lastmile_qr_scan", "ios": "https://dc.lft.to/lastmile_qr_scan"}, "type": "electric_scooter", "lon": -76.98471183333334, "name": "69e148905b5092f1c02a663eb92d93bf", "bike_id": "69e148905b5092f1c02a663eb92d93bf", "fusion_lat": 0.0, "is_reserved": 0, "lat": 38.928932333333336, "fusion_lon": 0.0, "is_disabled": 0}, {"rental_uris": {"android": "https://dc.lft.to/lastmile_qr_scan", "ios": "https://dc.lft.to/lastmile_qr_scan"}, "type": "electric_scooter", "lon": -77.02501833333334, "name": "2e78bd434d76ca3d44488ed5511c9853", "bike_id": "2e78bd434d76ca3d44488ed5511c9853", "fusion_lat": 0.0, "is_reserved": 0, "lat": 38.94197366666667, "fusion_lon": 0.0, "is_disabled": 0}, {"rental_uris": {"android": "https://dc.lft.to/lastmile_qr_scan", "ios": "https://dc.lft.to/lastmile_qr_scan"}, "type": "electric_scooter", "lon": -77.04029416666667, "name": "5cc26a78b5b5b7c32a058ef2d1d09481", "bike_id": "5cc26a78b5b5b7c32a058ef2d1d09481", "fusion_lat": 0.0, "is_reserved": 0, "lat": 38.918381, "fusion_lon": 0.0, "is_disabled": 0}, {"rental_uris": {"android": "https://dc.lft.to/lastmile_qr_scan", "ios": "https://dc.lft.to/lastmile_qr_scan"}, "type": "electric_scooter", "lon": -77.02761416666667, "name": "3df9a79bf99f573f8ec1beed92a10065", "bike_id": "3df9a79bf99f573f8ec1beed92a10065", "fusion_lat": 0.0, "is_reserved": 0, "lat": 38.953964166666665, "fusion_lon": 0.0, "is_disabled": 0}, {"rental_uris": {"android": "https://dc.lft.to/lastmile_qr_scan", "ios": "https://dc.lft.to/lastmile_qr_scan"}, "type": "electric_bike", "lon": -77.09562816666667, "name": "14c4d3e73b072be3ebf3e99e9bfb0bde", "bike_id": "14c4d3e73b072be3ebf3e99e9bfb0bde", "fusion_lat": 0.0, "is_reserved": 0, "lat": 38.917061, "fusion_lon": 0.0, "is_disabled": 0}, {"rental_uris": {"android": "https://dc.lft.to/lastmile_qr_scan", "ios": "https://dc.lft.to/lastmile_qr_scan"}, "type": "electric_scooter", "lon": -77.018125, "name": "0acd4dd4493a2921f07c55048bd01066", "bike_id": "0acd4dd4493a2921f07c55048bd01066", "fusion_lat": 0.0, "is_reserved": 0, "lat": 38.9216225, "fusion_lon": 0.0, "is_disabled": 0}, {"rental_uris": {"android": "https://dc.lft.to/lastmile_qr_scan", "ios": "https://dc.lft.to/lastmile_qr_scan"}, "type": "electric_scooter", "lon": -77.039776, "name": "d8a3dea62fb8b7a7b9b026d19df75b0e", "bike_id": "d8a3dea62fb8b7a7b9b026d19df75b0e", "fusion_lat": 0.0, "is_reserved": 0, "lat": 38.90112833333333, "fusion_lon": 0.0, "is_disabled": 0}, {"rental_uris": {"android": "https://dc.lft.to/lastmile_qr_scan", "ios": "https://dc.lft.to/lastmile_qr_scan"}, "type": "electric_scooter", "lon": -76.98713933333333, "name": "3f29be6c087f3579b04474b18c60443d", "bike_id": "3f29be6c087f3579b04474b18c60443d", "fusion_lat": 0.0, "is_reserved": 0, "lat": 38.866978333333336, "fusion_lon": 0.0, "is_disabled": 0}, {"rental_uris": {"android": "https://dc.lft.to/lastmile_qr_scan", "ios": "https://dc.lft.to/lastmile_qr_scan"}, "type": "electric_scooter", "lon": -76.9986575, "name": "dd3fb99e164c7c949c9cfe09328ced52", "bike_id": "dd3fb99e164c7c949c9cfe09328ced52", "fusion_lat": 0.0, "is_reserved": 0, "lat": 38.9002375, "fusion_lon": 0.0, "is_disabled": 0}, {"rental_uris": {"android": "https://dc.lft.to/lastmile_qr_scan", "ios": "https://dc.lft.to/lastmile_qr_scan"}, "type": "electric_scooter", "lon": -77.0435285, "name": "88e2aa280c1bdc89e0bcdf0b2500a75b", "bike_id": "88e2aa280c1bdc89e0bcdf0b2500a75b", "fusion_lat": 0.0, "is_reserved": 0, "lat": 38.905168, "fusion_lon": 0.0, "is_disabled": 0}, {"rental_uris": {"android": "https://dc.lft.to/lastmile_qr_scan", "ios": "https://dc.lft.to/lastmile_qr_scan"}, "type": "electric_scooter", "lon": -77.008821, "name": "49fe8e611c4a6a42ccef21a7fcf29567", "bike_id": "49fe8e611c4a6a42ccef21a7fcf29567", "fusion_lat": 0.0, "is_reserved": 0, "lat": 38.87337683333333, "fusion_lon": 0.0, "is_disabled": 0}, {"rental_uris": {"android": "https://dc.lft.to/lastmile_qr_scan", "ios": "https://dc.lft.to/lastmile_qr_scan"}, "type": "electric_scooter", "lon": -76.99252866666667, "name": "34831048c5c89e6fecf52fca2ced1f7c", "bike_id": "34831048c5c89e6fecf52fca2ced1f7c", "fusion_lat": 0.0, "is_reserved": 0, "lat": 38.89286366666666, "fusion_lon": 0.0, "is_disabled": 0}, {"rental_uris": {"android": "https://dc.lft.to/lastmile_qr_scan", "ios": "https://dc.lft.to/lastmile_qr_scan"}, "type": "electric_scooter", "lon": -77.04504716666666, "name": "f0c2a3fbde240165badf7aa94b654149", "bike_id": "f0c2a3fbde240165badf7aa94b654149", "fusion_lat": 0.0, "is_reserved": 0, "lat": 38.892204166666666, "fusion_lon": 0.0, "is_disabled": 0}, {"rental_uris": {"android": "https://dc.lft.to/lastmile_qr_scan", "ios": "https://dc.lft.to/lastmile_qr_scan"}, "type": "electric_scooter", "lon": -77.03262216666667, "name": "5990465e45df8de590b778b0f6153c55", "bike_id": "5990465e45df8de590b778b0f6153c55", "fusion_lat": 0.0, "is_reserved": 0, "lat": 38.93523866666666, "fusion_lon": 0.0, "is_disabled": 0}, {"rental_uris": {"android": "https://dc.lft.to/lastmile_qr_scan", "ios": "https://dc.lft.to/lastmile_qr_scan"}, "type": "electric_bike", "lon": -77.12506616666667, "name": "4677c89fb239dd7eb882c338647b09e1", "bike_id": "4677c89fb239dd7eb882c338647b09e1", "fusion_lat": 0.0, "is_reserved": 0, "lat": 39.024201, "fusion_lon": 0.0, "is_disabled": 0}, {"rental_uris": {"android": "https://dc.lft.to/lastmile_qr_scan", "ios": "https://dc.lft.to/lastmile_qr_scan"}, "type": "electric_scooter", "lon": -77.001686, "name": "f0315b650c4bbf56c676a722a539abac", "bike_id": "f0315b650c4bbf56c676a722a539abac", "fusion_lat": 0.0, "is_reserved": 0, "lat": 38.905120833333335, "fusion_lon": 0.0, "is_disabled": 0}, {"rental_uris": {"android": "https://dc.lft.to/lastmile_qr_scan", "ios": "https://dc.lft.to/lastmile_qr_scan"}, "type": "electric_scooter", "lon": -77.071727, "name": "e8caee51923557bff84ba7428bb5f847", "bike_id": "e8caee51923557bff84ba7428bb5f847", "fusion_lat": 0.0, "is_reserved": 0, "lat": 38.95839566666667, "fusion_lon": 0.0, "is_disabled": 0}, {"rental_uris": {"android": "https://dc.lft.to/lastmile_qr_scan", "ios": "https://dc.lft.to/lastmile_qr_scan"}, "type": "electric_bike", "lon": -76.9956625, "name": "364f372ae5e12dba5f5e5a20c1a443a0", "bike_id": "364f372ae5e12dba5f5e5a20c1a443a0", "fusion_lat": 0.0, "is_reserved": 0, "lat": 39.007761333333335, "fusion_lon": 0.0, "is_disabled": 0}, {"rental_uris": {"android": "https://dc.lft.to/lastmile_qr_scan", "ios": "https://dc.lft.to/lastmile_qr_scan"}, "type": "electric_scooter", "lon": -77.02370783333333, "name": "dfd4f7d39ea634efdda5ff32dd359e61", "bike_id": "dfd4f7d39ea634efdda5ff32dd359e61", "fusion_lat": 0.0, "is_reserved": 0, "lat": 38.91784883333333, "fusion_lon": 0.0, "is_disabled": 0}, {"rental_uris": {"android": "https://dc.lft.to/lastmile_qr_scan", "ios": "https://dc.lft.to/lastmile_qr_scan"}, "type": "electric_scooter", "lon": -77.03685166666666, "name": "5db6081b9e37f2de2b3db87fc169e00d", "bike_id": "5db6081b9e37f2de2b3db87fc169e00d", "fusion_lat": 0.0, "is_reserved": 0, "lat": 38.91681283333333, "fusion_lon": 0.0, "is_disabled": 0}, {"rental_uris": {"android": "https://dc.lft.to/lastmile_qr_scan", "ios": "https://dc.lft.to/lastmile_qr_scan"}, "type": "electric_scooter", "lon": -77.00203883333333, "name": "f49d510005807b8ee2fb1e665f362adb", "bike_id": "f49d510005807b8ee2fb1e665f362adb", "fusion_lat": 0.0, "is_reserved": 0, "lat": 38.914303333333336, "fusion_lon": 0.0, "is_disabled": 0}, {"rental_uris": {"android": "https://dc.lft.to/lastmile_qr_scan", "ios": "https://dc.lft.to/lastmile_qr_scan"}, "type": "electric_scooter", "lon": -77.01214066666667, "name": "114a9ebdcd69d98c8b1892b8f736722b", "bike_id": "114a9ebdcd69d98c8b1892b8f736722b", "fusion_lat": 0.0, "is_reserved": 0, "lat": 38.91300183333333, "fusion_lon": 0.0, "is_disabled": 0}, {"rental_uris": {"android": "https://dc.lft.to/lastmile_qr_scan", "ios": "https://dc.lft.to/lastmile_qr_scan"}, "type": "electric_scooter", "lon": -77.04476683333333, "name": "c2657f0e0583b0c9edf0adec5e8fb769", "bike_id": "c2657f0e0583b0c9edf0adec5e8fb769", "fusion_lat": 0.0, "is_reserved": 0, "lat": 38.91402383333333, "fusion_lon": 0.0, "is_disabled": 0}, {"rental_uris": {"android": "https://dc.lft.to/lastmile_qr_scan", "ios": "https://dc.lft.to/lastmile_qr_scan"}, "type": "electric_scooter", "lon": -76.98324033333333, "name": "12aa7d6b21f51653c0c245ce5c49ed68", "bike_id": "12aa7d6b21f51653c0c245ce5c49ed68", "fusion_lat": 0.0, "is_reserved": 0, "lat": 38.9074085, "fusion_lon": 0.0, "is_disabled": 0}, {"rental_uris": {"android": "https://dc.lft.to/lastmile_qr_scan", "ios": "https://dc.lft.to/lastmile_qr_scan"}, "type": "electric_scooter", "lon": -77.01176166666667, "name": "2d233a6198c5d2d32aada186fb90a66a", "bike_id": "2d233a6198c5d2d32aada186fb90a66a", "fusion_lat": 0.0, "is_reserved": 0, "lat": 38.90040283333333, "fusion_lon": 0.0, "is_disabled": 0}, {"rental_uris": {"android": "https://dc.lft.to/lastmile_qr_scan", "ios": "https://dc.lft.to/lastmile_qr_scan"}, "type": "electric_scooter", "lon": -77.03181366666666, "name": "9666b2824f9ca79e87361b7723301ba6", "bike_id": "9666b2824f9ca79e87361b7723301ba6", "fusion_lat": 0.0, "is_reserved": 0, "lat": 38.90061766666667, "fusion_lon": 0.0, "is_disabled": 0}, {"rental_uris": {"android": "https://dc.lft.to/lastmile_qr_scan", "ios": "https://dc.lft.to/lastmile_qr_scan"}, "type": "electric_scooter", "lon": -77.02958533333333, "name": "3f43db49320168cddc46cf3358a1e3ef", "bike_id": "3f43db49320168cddc46cf3358a1e3ef", "fusion_lat": 0.0, "is_reserved": 0, "lat": 38.90662233333333, "fusion_lon": 0.0, "is_disabled": 0}, {"rental_uris": {"android": "https://dc.lft.to/lastmile_qr_scan", "ios": "https://dc.lft.to/lastmile_qr_scan"}, "type": "electric_scooter", "lon": -76.96504316666666, "name": "695980da5f1b1e9ab8a704a7b8b5a9db", "bike_id": "695980da5f1b1e9ab8a704a7b8b5a9db", "fusion_lat": 0.0, "is_reserved": 0, "lat": 38.87645666666667, "fusion_lon": 0.0, "is_disabled": 0}, {"rental_uris": {"android": "https://dc.lft.to/lastmile_qr_scan", "ios": "https://dc.lft.to/lastmile_qr_scan"}, "type": "electric_scooter", "lon": -76.98323683333334, "name": "653ab5f52ddf43a9dcae6d3960479534", "bike_id": "653ab5f52ddf43a9dcae6d3960479534", "fusion_lat": 0.0, "is_reserved": 0, "lat": 38.861685666666666, "fusion_lon": 0.0, "is_disabled": 0}, {"rental_uris": {"android": "https://dc.lft.to/lastmile_qr_scan", "ios": "https://dc.lft.to/lastmile_qr_scan"}, "type": "electric_bike", "lon": -76.96837783333334, "name": "cdd7859893c53f4b06a792c04fffdb5a", "bike_id": "cdd7859893c53f4b06a792c04fffdb5a", "fusion_lat": 0.0, "is_reserved": 0, "lat": 38.924454, "fusion_lon": 0.0, "is_disabled": 0}, {"rental_uris": {"android": "https://dc.lft.to/lastmile_qr_scan", "ios": "https://dc.lft.to/lastmile_qr_scan"}, "type": "electric_bike", "lon": -76.930001, "name": "51407fb735f93d11232f7e3c17bbeb1e", "bike_id": "51407fb735f93d11232f7e3c17bbeb1e", "fusion_lat": 0.0, "is_reserved": 0, "lat": 38.8879865, "fusion_lon": 0.0, "is_disabled": 0}, {"rental_uris": {"android": "https://dc.lft.to/lastmile_qr_scan", "ios": "https://dc.lft.to/lastmile_qr_scan"}, "type": "electric_scooter", "lon": -77.04714483333333, "name": "7bb635a73ba174188c1c7bce28db6b18", "bike_id": "7bb635a73ba174188c1c7bce28db6b18", "fusion_lat": 0.0, "is_reserved": 0, "lat": 38.899673166666666, "fusion_lon": 0.0, "is_disabled": 0}, {"rental_uris": {"android": "https://dc.lft.to/lastmile_qr_scan", "ios": "https://dc.lft.to/lastmile_qr_scan"}, "type": "electric_scooter", "lon": -77.07270016666666, "name": "ae7d5c40980ae1567e285657a4756083", "bike_id": "ae7d5c40980ae1567e285657a4756083", "fusion_lat": 0.0, "is_reserved": 0, "lat": 38.9347975, "fusion_lon": 0.0, "is_disabled": 0}, {"rental_uris": {"android": "https://dc.lft.to/lastmile_qr_scan", "ios": "https://dc.lft.to/lastmile_qr_scan"}, "type": "electric_scooter", "lon": -77.07077916666667, "name": "7995e8b096270c4ec985751edc425604", "bike_id": "7995e8b096270c4ec985751edc425604", "fusion_lat": 0.0, "is_reserved": 0, "lat": 38.91933516666667, "fusion_lon": 0.0, "is_disabled": 0}, {"rental_uris": {"android": "https://dc.lft.to/lastmile_qr_scan", "ios": "https://dc.lft.to/lastmile_qr_scan"}, "type": "electric_bike", "lon": -77.15268716666667, "name": "3fd443743f95ce4a5947b47cc62b1815", "bike_id": "3fd443743f95ce4a5947b47cc62b1815", "fusion_lat": 0.0, "is_reserved": 0, "lat": 39.105653833333335, "fusion_lon": 0.0, "is_disabled": 0}, {"rental_uris": {"android": "https://dc.lft.to/lastmile_qr_scan", "ios": "https://dc.lft.to/lastmile_qr_scan"}, "type": "electric_scooter", "lon": -77.03800016666666, "name": "be1fe3ed6e3c226a8e29651f3561b6f3", "bike_id": "be1fe3ed6e3c226a8e29651f3561b6f3", "fusion_lat": 0.0, "is_reserved": 0, "lat": 38.9301485, "fusion_lon": 0.0, "is_disabled": 0}, {"rental_uris": {"android": "https://dc.lft.to/lastmile_qr_scan", "ios": "https://dc.lft.to/lastmile_qr_scan"}, "type": "electric_scooter", "lon": -77.0709055, "name": "09c02a943ea042054bca949d0737cb5f", "bike_id": "09c02a943ea042054bca949d0737cb5f", "fusion_lat": 0.0, "is_reserved": 0, "lat": 38.91980516666667, "fusion_lon": 0.0, "is_disabled": 0}, {"rental_uris": {"android": "https://dc.lft.to/lastmile_qr_scan", "ios": "https://dc.lft.to/lastmile_qr_scan"}, "type": "electric_scooter", "lon": -77.01889983333334, "name": "b9335bce25261b88e0687c585c9613ec", "bike_id": "b9335bce25261b88e0687c585c9613ec", "fusion_lat": 0.0, "is_reserved": 0, "lat": 38.90945816666667, "fusion_lon": 0.0, "is_disabled": 0}, {"rental_uris": {"android": "https://dc.lft.to/lastmile_qr_scan", "ios": "https://dc.lft.to/lastmile_qr_scan"}, "type": "electric_scooter", "lon": -77.0390545, "name": "8026e83439eacb6d83fc962ec7843a3a", "bike_id": "8026e83439eacb6d83fc962ec7843a3a", "fusion_lat": 0.0, "is_reserved": 0, "lat": 38.9142265, "fusion_lon": 0.0, "is_disabled": 0}, {"rental_uris": {"android": "https://dc.lft.to/lastmile_qr_scan", "ios": "https://dc.lft.to/lastmile_qr_scan"}, "type": "electric_scooter", "lon": -76.96712633333334, "name": "a3318ac82ee5bbf7f90a9bccaf18ea05", "bike_id": "a3318ac82ee5bbf7f90a9bccaf18ea05", "fusion_lat": 0.0, "is_reserved": 0, "lat": 38.86950783333333, "fusion_lon": 0.0, "is_disabled": 0}, {"rental_uris": {"android": "https://dc.lft.to/lastmile_qr_scan", "ios": "https://dc.lft.to/lastmile_qr_scan"}, "type": "electric_scooter", "lon": -77.0297555, "name": "adcfae3d7a6fa7305bff1d74a328e5fa", "bike_id": "adcfae3d7a6fa7305bff1d74a328e5fa", "fusion_lat": 0.0, "is_reserved": 0, "lat": 38.90547133333333, "fusion_lon": 0.0, "is_disabled": 0}, {"rental_uris": {"android": "https://dc.lft.to/lastmile_qr_scan", "ios": "https://dc.lft.to/lastmile_qr_scan"}, "type": "electric_scooter", "lon": -77.03879633333334, "name": "023cc4a0fde8977a5a68b93c2740c0be", "bike_id": "023cc4a0fde8977a5a68b93c2740c0be", "fusion_lat": 0.0, "is_reserved": 0, "lat": 38.932639, "fusion_lon": 0.0, "is_disabled": 0}, {"rental_uris": {"android": "https://dc.lft.to/lastmile_qr_scan", "ios": "https://dc.lft.to/lastmile_qr_scan"}, "type": "electric_scooter", "lon": -77.01382633333333, "name": "49712779406e894f2427fc97d6166ec4", "bike_id": "49712779406e894f2427fc97d6166ec4", "fusion_lat": 0.0, "is_reserved": 0, "lat": 38.9194655, "fusion_lon": 0.0, "is_disabled": 0}, {"rental_uris": {"android": "https://dc.lft.to/lastmile_qr_scan", "ios": "https://dc.lft.to/lastmile_qr_scan"}, "type": "electric_scooter", "lon": -76.94921333333333, "name": "1a5113f5b514ac3fc903b1e459f9e45c", "bike_id": "1a5113f5b514ac3fc903b1e459f9e45c", "fusion_lat": 0.0, "is_reserved": 0, "lat": 38.884757, "fusion_lon": 0.0, "is_disabled": 0}, {"rental_uris": {"android": "https://dc.lft.to/lastmile_qr_scan", "ios": "https://dc.lft.to/lastmile_qr_scan"}, "type": "electric_bike", "lon": -77.024877, "name": "c1520e5195af878eff7ea9535a3ab555", "bike_id": "c1520e5195af878eff7ea9535a3ab555", "fusion_lat": 0.0, "is_reserved": 0, "lat": 38.973637333333336, "fusion_lon": 0.0, "is_disabled": 0}, {"rental_uris": {"android": "https://dc.lft.to/lastmile_qr_scan", "ios": "https://dc.lft.to/lastmile_qr_scan"}, "type": "electric_scooter", "lon": -76.996328, "name": "ce1d2be9d4ecaaa94701840d862c4585", "bike_id": "ce1d2be9d4ecaaa94701840d862c4585", "fusion_lat": 0.0, "is_reserved": 0, "lat": 38.8461715, "fusion_lon": 0.0, "is_disabled": 0}, {"rental_uris": {"android": "https://dc.lft.to/lastmile_qr_scan", "ios": "https://dc.lft.to/lastmile_qr_scan"}, "type": "electric_scooter", "lon": -77.02479933333333, "name": "d49c81c1c58fcac5f65be1b0f8474d68", "bike_id": "d49c81c1c58fcac5f65be1b0f8474d68", "fusion_lat": 0.0, "is_reserved": 0, "lat": 38.938764, "fusion_lon": 0.0, "is_disabled": 0}, {"rental_uris": {"android": "https://dc.lft.to/lastmile_qr_scan", "ios": "https://dc.lft.to/lastmile_qr_scan"}, "type": "electric_scooter", "lon": -77.06287816666666, "name": "810162ce743c5bf9dac6eaa12d95b51b", "bike_id": "810162ce743c5bf9dac6eaa12d95b51b", "fusion_lat": 0.0, "is_reserved": 0, "lat": 38.90456283333333, "fusion_lon": 0.0, "is_disabled": 0}, {"rental_uris": {"android": "https://dc.lft.to/lastmile_qr_scan", "ios": "https://dc.lft.to/lastmile_qr_scan"}, "type": "electric_scooter", "lon": -76.99012366666666, "name": "b00fe316014977b2dcf3376c3c87b0e5", "bike_id": "b00fe316014977b2dcf3376c3c87b0e5", "fusion_lat": 0.0, "is_reserved": 0, "lat": 38.8610755, "fusion_lon": 0.0, "is_disabled": 0}, {"rental_uris": {"android": "https://dc.lft.to/lastmile_qr_scan", "ios": "https://dc.lft.to/lastmile_qr_scan"}, "type": "electric_scooter", "lon": -77.0230245, "name": "fc3b1b0b403f6f2962a1f1b6c717e85b", "bike_id": "fc3b1b0b403f6f2962a1f1b6c717e85b", "fusion_lat": 0.0, "is_reserved": 0, "lat": 38.916067166666664, "fusion_lon": 0.0, "is_disabled": 0}, {"rental_uris": {"android": "https://dc.lft.to/lastmile_qr_scan", "ios": "https://dc.lft.to/lastmile_qr_scan"}, "type": "electric_scooter", "lon": -77.01691383333333, "name": "3857cae2e605b2ae0b55e56fa6214c5c", "bike_id": "3857cae2e605b2ae0b55e56fa6214c5c", "fusion_lat": 0.0, "is_reserved": 0, "lat": 38.91101883333333, "fusion_lon": 0.0, "is_disabled": 0}, {"rental_uris": {"android": "https://dc.lft.to/lastmile_qr_scan", "ios": "https://dc.lft.to/lastmile_qr_scan"}, "type": "electric_scooter", "lon": -76.98731966666666, "name": "c21656bbfcf47fd6429f7a7196d0c52a", "bike_id": "c21656bbfcf47fd6429f7a7196d0c52a", "fusion_lat": 0.0, "is_reserved": 0, "lat": 38.867071, "fusion_lon": 0.0, "is_disabled": 0}, {"rental_uris": {"android": "https://dc.lft.to/lastmile_qr_scan", "ios": "https://dc.lft.to/lastmile_qr_scan"}, "type": "electric_scooter", "lon": -77.04856933333333, "name": "d705a7d2ed07d11e726b4ef84781f5e5", "bike_id": "d705a7d2ed07d11e726b4ef84781f5e5", "fusion_lat": 0.0, "is_reserved": 0, "lat": 38.90374033333333, "fusion_lon": 0.0, "is_disabled": 0}, {"rental_uris": {"android": "https://dc.lft.to/lastmile_qr_scan", "ios": "https://dc.lft.to/lastmile_qr_scan"}, "type": "electric_scooter", "lon": -77.0645485, "name": "ac6625729a27253bfec7d42e54815af8", "bike_id": "ac6625729a27253bfec7d42e54815af8", "fusion_lat": 0.0, "is_reserved": 0, "lat": 38.90984733333333, "fusion_lon": 0.0, "is_disabled": 0}, {"rental_uris": {"android": "https://dc.lft.to/lastmile_qr_scan", "ios": "https://dc.lft.to/lastmile_qr_scan"}, "type": "electric_scooter", "lon": -76.99095466666667, "name": "6bf2f49a2a20ac3408048a89fd9bd96d", "bike_id": "6bf2f49a2a20ac3408048a89fd9bd96d", "fusion_lat": 0.0, "is_reserved": 0, "lat": 38.8635435, "fusion_lon": 0.0, "is_disabled": 0}, {"rental_uris": {"android": "https://dc.lft.to/lastmile_qr_scan", "ios": "https://dc.lft.to/lastmile_qr_scan"}, "type": "electric_bike", "lon": -76.95207783333333, "name": "9ed06a6f13aa657121a4b6a358832fd5", "bike_id": "9ed06a6f13aa657121a4b6a358832fd5", "fusion_lat": 0.0, "is_reserved": 0, "lat": 38.9366885, "fusion_lon": 0.0, "is_disabled": 0}, {"rental_uris": {"android": "https://dc.lft.to/lastmile_qr_scan", "ios": "https://dc.lft.to/lastmile_qr_scan"}, "type": "electric_scooter", "lon": -77.02706566666667, "name": "d4a20d2fc0dc0433a730f7e8c9d2bcfd", "bike_id": "d4a20d2fc0dc0433a730f7e8c9d2bcfd", "fusion_lat": 0.0, "is_reserved": 0, "lat": 38.9398635, "fusion_lon": 0.0, "is_disabled": 0}, {"rental_uris": {"android": "https://dc.lft.to/lastmile_qr_scan", "ios": "https://dc.lft.to/lastmile_qr_scan"}, "type": "electric_scooter", "lon": -77.02761216666667, "name": "d1d84705712458959198c48af0b6db4d", "bike_id": "d1d84705712458959198c48af0b6db4d", "fusion_lat": 0.0, "is_reserved": 0, "lat": 38.95398333333333, "fusion_lon": 0.0, "is_disabled": 0}, {"rental_uris": {"android": "https://dc.lft.to/lastmile_qr_scan", "ios": "https://dc.lft.to/lastmile_qr_scan"}, "type": "electric_scooter", "lon": -77.02347883333333, "name": "919c5de17db2fc161af4d7b761d90861", "bike_id": "919c5de17db2fc161af4d7b761d90861", "fusion_lat": 0.0, "is_reserved": 0, "lat": 38.92261766666667, "fusion_lon": 0.0, "is_disabled": 0}, {"rental_uris": {"android": "https://dc.lft.to/lastmile_qr_scan", "ios": "https://dc.lft.to/lastmile_qr_scan"}, "type": "electric_scooter", "lon": -77.0225615, "name": "51a39438c5fe19327b33a5d6059eff57", "bike_id": "51a39438c5fe19327b33a5d6059eff57", "fusion_lat": 0.0, "is_reserved": 0, "lat": 38.9282445, "fusion_lon": 0.0, "is_disabled": 0}, {"rental_uris": {"android": "https://dc.lft.to/lastmile_qr_scan", "ios": "https://dc.lft.to/lastmile_qr_scan"}, "type": "electric_scooter", "lon": -77.05053033333333, "name": "9d117acda75a59567b75a9156b0f10e9", "bike_id": "9d117acda75a59567b75a9156b0f10e9", "fusion_lat": 0.0, "is_reserved": 0, "lat": 38.923678333333335, "fusion_lon": 0.0, "is_disabled": 0}, {"rental_uris": {"android": "https://dc.lft.to/lastmile_qr_scan", "ios": "https://dc.lft.to/lastmile_qr_scan"}, "type": "electric_bike", "lon": -77.128162, "name": "0a8af5b5503a234ed93c22fe7b75097e", "bike_id": "0a8af5b5503a234ed93c22fe7b75097e", "fusion_lat": 0.0, "is_reserved": 0, "lat": 38.8654025, "fusion_lon": 0.0, "is_disabled": 0}, {"rental_uris": {"android": "https://dc.lft.to/lastmile_qr_scan", "ios": "https://dc.lft.to/lastmile_qr_scan"}, "type": "electric_scooter", "lon": -77.0194535, "name": "4764e7921f2e2a1736edcbb18b500d53", "bike_id": "4764e7921f2e2a1736edcbb18b500d53", "fusion_lat": 0.0, "is_reserved": 0, "lat": 38.909713833333335, "fusion_lon": 0.0, "is_disabled": 0}, {"rental_uris": {"android": "https://dc.lft.to/lastmile_qr_scan", "ios": "https://dc.lft.to/lastmile_qr_scan"}, "type": "electric_scooter", "lon": -76.99446983333333, "name": "f6fcda9ab55393847ce756f810d52dac", "bike_id": "f6fcda9ab55393847ce756f810d52dac", "fusion_lat": 0.0, "is_reserved": 0, "lat": 38.90504933333333, "fusion_lon": 0.0, "is_disabled": 0}, {"rental_uris": {"android": "https://dc.lft.to/lastmile_qr_scan", "ios": "https://dc.lft.to/lastmile_qr_scan"}, "type": "electric_scooter", "lon": -77.042401, "name": "5185c710ddef3936ca2f13a3a798f041", "bike_id": "5185c710ddef3936ca2f13a3a798f041", "fusion_lat": 0.0, "is_reserved": 0, "lat": 38.92269066666667, "fusion_lon": 0.0, "is_disabled": 0}, {"rental_uris": {"android": "https://dc.lft.to/lastmile_qr_scan", "ios": "https://dc.lft.to/lastmile_qr_scan"}, "type": "electric_scooter", "lon": -77.06391216666667, "name": "4eeddc74fc08c9a7bc3df6f67df5e1f1", "bike_id": "4eeddc74fc08c9a7bc3df6f67df5e1f1", "fusion_lat": 0.0, "is_reserved": 0, "lat": 38.929082666666666, "fusion_lon": 0.0, "is_disabled": 0}, {"rental_uris": {"android": "https://dc.lft.to/lastmile_qr_scan", "ios": "https://dc.lft.to/lastmile_qr_scan"}, "type": "electric_scooter", "lon": -76.98703616666667, "name": "dbaebb3df89b114b17a8e71172284ffe", "bike_id": "dbaebb3df89b114b17a8e71172284ffe", "fusion_lat": 0.0, "is_reserved": 0, "lat": 38.865330166666666, "fusion_lon": 0.0, "is_disabled": 0}, {"rental_uris": {"android": "https://dc.lft.to/lastmile_qr_scan", "ios": "https://dc.lft.to/lastmile_qr_scan"}, "type": "electric_scooter", "lon": -77.02214833333333, "name": "c8b6b4c2b1d219d6a4ee2c86d29fd841", "bike_id": "c8b6b4c2b1d219d6a4ee2c86d29fd841", "fusion_lat": 0.0, "is_reserved": 0, "lat": 38.90574933333333, "fusion_lon": 0.0, "is_disabled": 0}, {"rental_uris": {"android": "https://dc.lft.to/lastmile_qr_scan", "ios": "https://dc.lft.to/lastmile_qr_scan"}, "type": "electric_scooter", "lon": -76.947226, "name": "ba7df6742f70885daac098bc351ea105", "bike_id": "ba7df6742f70885daac098bc351ea105", "fusion_lat": 0.0, "is_reserved": 0, "lat": 38.896679666666664, "fusion_lon": 0.0, "is_disabled": 0}, {"rental_uris": {"android": "https://dc.lft.to/lastmile_qr_scan", "ios": "https://dc.lft.to/lastmile_qr_scan"}, "type": "electric_scooter", "lon": -77.032512, "name": "b70e215837579ca2cb5e6bc81600b6c5", "bike_id": "b70e215837579ca2cb5e6bc81600b6c5", "fusion_lat": 0.0, "is_reserved": 0, "lat": 38.92846616666667, "fusion_lon": 0.0, "is_disabled": 0}, {"rental_uris": {"android": "https://dc.lft.to/lastmile_qr_scan", "ios": "https://dc.lft.to/lastmile_qr_scan"}, "type": "electric_bike", "lon": -77.12986583333333, "name": "138479f9286ffa86ab3e1a9f65f353cd", "bike_id": "138479f9286ffa86ab3e1a9f65f353cd", "fusion_lat": 0.0, "is_reserved": 0, "lat": 38.79984916666667, "fusion_lon": 0.0, "is_disabled": 0}, {"rental_uris": {"android": "https://dc.lft.to/lastmile_qr_scan", "ios": "https://dc.lft.to/lastmile_qr_scan"}, "type": "electric_bike", "lon": -77.0704295, "name": "ed30c971ee559418e53d58d8f18ef8ff", "bike_id": "ed30c971ee559418e53d58d8f18ef8ff", "fusion_lat": 0.0, "is_reserved": 0, "lat": 38.824395333333335, "fusion_lon": 0.0, "is_disabled": 0}, {"rental_uris": {"android": "https://dc.lft.to/lastmile_qr_scan", "ios": "https://dc.lft.to/lastmile_qr_scan"}, "type": "electric_bike", "lon": -76.91596466666667, "name": "d409845dd1203cd032da80777c79d5dd", "bike_id": "d409845dd1203cd032da80777c79d5dd", "fusion_lat": 0.0, "is_reserved": 0, "lat": 38.879842833333335, "fusion_lon": 0.0, "is_disabled": 0}, {"rental_uris": {"android": "https://dc.lft.to/lastmile_qr_scan", "ios": "https://dc.lft.to/lastmile_qr_scan"}, "type": "electric_scooter", "lon": -77.032572, "name": "0871693eceae445f239a9278078951c8", "bike_id": "0871693eceae445f239a9278078951c8", "fusion_lat": 0.0, "is_reserved": 0, "lat": 38.928838, "fusion_lon": 0.0, "is_disabled": 0}, {"rental_uris": {"android": "https://dc.lft.to/lastmile_qr_scan", "ios": "https://dc.lft.to/lastmile_qr_scan"}, "type": "electric_scooter", "lon": -77.01198066666667, "name": "bcf05ad081df06fb98aee89399efb4d8", "bike_id": "bcf05ad081df06fb98aee89399efb4d8", "fusion_lat": 0.0, "is_reserved": 0, "lat": 38.893037166666666, "fusion_lon": 0.0, "is_disabled": 0}, {"rental_uris": {"android": "https://dc.lft.to/lastmile_qr_scan", "ios": "https://dc.lft.to/lastmile_qr_scan"}, "type": "electric_scooter", "lon": -76.97631983333333, "name": "6b7738a1fe622c2b2cb9bdd5a93045e7", "bike_id": "6b7738a1fe622c2b2cb9bdd5a93045e7", "fusion_lat": 0.0, "is_reserved": 0, "lat": 38.9057105, "fusion_lon": 0.0, "is_disabled": 0}, {"rental_uris": {"android": "https://dc.lft.to/lastmile_qr_scan", "ios": "https://dc.lft.to/lastmile_qr_scan"}, "type": "electric_bike", "lon": -77.01216816666667, "name": "84be595fe62735d233b8b98a185d7046", "bike_id": "84be595fe62735d233b8b98a185d7046", "fusion_lat": 0.0, "is_reserved": 0, "lat": 38.871048333333334, "fusion_lon": 0.0, "is_disabled": 0}, {"rental_uris": {"android": "https://dc.lft.to/lastmile_qr_scan", "ios": "https://dc.lft.to/lastmile_qr_scan"}, "type": "electric_bike", "lon": -77.01209833333333, "name": "db1ef16c12c5a63eb0b0604ac66bebff", "bike_id": "db1ef16c12c5a63eb0b0604ac66bebff", "fusion_lat": 0.0, "is_reserved": 0, "lat": 38.87083666666667, "fusion_lon": 0.0, "is_disabled": 0}, {"rental_uris": {"android": "https://dc.lft.to/lastmile_qr_scan", "ios": "https://dc.lft.to/lastmile_qr_scan"}, "type": "electric_scooter", "lon": -77.04335833333333, "name": "914c6d660abbdd446bb8d2d2e9373056", "bike_id": "914c6d660abbdd446bb8d2d2e9373056", "fusion_lat": 0.0, "is_reserved": 0, "lat": 38.90341216666667, "fusion_lon": 0.0, "is_disabled": 0}, {"rental_uris": {"android": "https://dc.lft.to/lastmile_qr_scan", "ios": "https://dc.lft.to/lastmile_qr_scan"}, "type": "electric_scooter", "lon": -77.01817316666667, "name": "dac132bd75cdc5f0f6502b991f60f4b7", "bike_id": "dac132bd75cdc5f0f6502b991f60f4b7", "fusion_lat": 0.0, "is_reserved": 0, "lat": 38.90807183333333, "fusion_lon": 0.0, "is_disabled": 0}, {"rental_uris": {"android": "https://dc.lft.to/lastmile_qr_scan", "ios": "https://dc.lft.to/lastmile_qr_scan"}, "type": "electric_scooter", "lon": -77.04338116666666, "name": "67733c983e190bfa0eeb339c2deccf32", "bike_id": "67733c983e190bfa0eeb339c2deccf32", "fusion_lat": 0.0, "is_reserved": 0, "lat": 38.903807666666665, "fusion_lon": 0.0, "is_disabled": 0}, {"rental_uris": {"android": "https://dc.lft.to/lastmile_qr_scan", "ios": "https://dc.lft.to/lastmile_qr_scan"}, "type": "electric_scooter", "lon": -77.03501916666667, "name": "1a3081696ab88502af4708e236ddb837", "bike_id": "1a3081696ab88502af4708e236ddb837", "fusion_lat": 0.0, "is_reserved": 0, "lat": 38.9187155, "fusion_lon": 0.0, "is_disabled": 0}, {"rental_uris": {"android": "https://dc.lft.to/lastmile_qr_scan", "ios": "https://dc.lft.to/lastmile_qr_scan"}, "type": "electric_scooter", "lon": -76.98309766666667, "name": "0f0de148691858b2b9af1a669836f485", "bike_id": "0f0de148691858b2b9af1a669836f485", "fusion_lat": 0.0, "is_reserved": 0, "lat": 38.86888033333334, "fusion_lon": 0.0, "is_disabled": 0}, {"rental_uris": {"android": "https://dc.lft.to/lastmile_qr_scan", "ios": "https://dc.lft.to/lastmile_qr_scan"}, "type": "electric_scooter", "lon": -77.04389533333334, "name": "0596280f1578b272b635fee4dd778d9b", "bike_id": "0596280f1578b272b635fee4dd778d9b", "fusion_lat": 0.0, "is_reserved": 0, "lat": 38.922758, "fusion_lon": 0.0, "is_disabled": 0}, {"rental_uris": {"android": "https://dc.lft.to/lastmile_qr_scan", "ios": "https://dc.lft.to/lastmile_qr_scan"}, "type": "electric_scooter", "lon": -77.04158583333333, "name": "0e625326c491908ac27fb31c2e0c60c3", "bike_id": "0e625326c491908ac27fb31c2e0c60c3", "fusion_lat": 0.0, "is_reserved": 0, "lat": 38.90611033333333, "fusion_lon": 0.0, "is_disabled": 0}, {"rental_uris": {"android": "https://dc.lft.to/lastmile_qr_scan", "ios": "https://dc.lft.to/lastmile_qr_scan"}, "type": "electric_scooter", "lon": -76.96506233333334, "name": "b6b98b7056eb922e23b237df02f2e7b5", "bike_id": "b6b98b7056eb922e23b237df02f2e7b5", "fusion_lat": 0.0, "is_reserved": 0, "lat": 38.876472, "fusion_lon": 0.0, "is_disabled": 0}, {"rental_uris": {"android": "https://dc.lft.to/lastmile_qr_scan", "ios": "https://dc.lft.to/lastmile_qr_scan"}, "type": "electric_scooter", "lon": -76.99031166666667, "name": "d61712ecd15f56d385d7de71379e2909", "bike_id": "d61712ecd15f56d385d7de71379e2909", "fusion_lat": 0.0, "is_reserved": 0, "lat": 38.858682333333334, "fusion_lon": 0.0, "is_disabled": 0}, {"rental_uris": {"android": "https://dc.lft.to/lastmile_qr_scan", "ios": "https://dc.lft.to/lastmile_qr_scan"}, "type": "electric_bike", "lon": -77.1091515, "name": "59c0086e96cf7621ef743b193e1cd9ba", "bike_id": "59c0086e96cf7621ef743b193e1cd9ba", "fusion_lat": 0.0, "is_reserved": 0, "lat": 39.052044, "fusion_lon": 0.0, "is_disabled": 0}, {"rental_uris": {"android": "https://dc.lft.to/lastmile_qr_scan", "ios": "https://dc.lft.to/lastmile_qr_scan"}, "type": "electric_scooter", "lon": -77.02373016666667, "name": "dd1644c1a02832abd3eb7632d87eda8d", "bike_id": "dd1644c1a02832abd3eb7632d87eda8d", "fusion_lat": 0.0, "is_reserved": 0, "lat": 38.8922105, "fusion_lon": 0.0, "is_disabled": 0}, {"rental_uris": {"android": "https://dc.lft.to/lastmile_qr_scan", "ios": "https://dc.lft.to/lastmile_qr_scan"}, "type": "electric_scooter", "lon": -76.99578016666666, "name": "77dd7339b704281937665358cb5eb36b", "bike_id": "77dd7339b704281937665358cb5eb36b", "fusion_lat": 0.0, "is_reserved": 0, "lat": 38.924755, "fusion_lon": 0.0, "is_disabled": 0}, {"rental_uris": {"android": "https://dc.lft.to/lastmile_qr_scan", "ios": "https://dc.lft.to/lastmile_qr_scan"}, "type": "electric_scooter", "lon": -77.04896466666666, "name": "f6a113fb99a0574ebc2c778d52b8f9e6", "bike_id": "f6a113fb99a0574ebc2c778d52b8f9e6", "fusion_lat": 0.0, "is_reserved": 0, "lat": 38.892468, "fusion_lon": 0.0, "is_disabled": 0}, {"rental_uris": {"android": "https://dc.lft.to/lastmile_qr_scan", "ios": "https://dc.lft.to/lastmile_qr_scan"}, "type": "electric_scooter", "lon": -77.00813333333333, "name": "e396ee6dd487258a99f6cb4cf20d5956", "bike_id": "e396ee6dd487258a99f6cb4cf20d5956", "fusion_lat": 0.0, "is_reserved": 0, "lat": 38.876525, "fusion_lon": 0.0, "is_disabled": 0}, {"rental_uris": {"android": "https://dc.lft.to/lastmile_qr_scan", "ios": "https://dc.lft.to/lastmile_qr_scan"}, "type": "electric_scooter", "lon": -76.99382216666666, "name": "dbc50178cadc064d3906d0d959c96799", "bike_id": "dbc50178cadc064d3906d0d959c96799", "fusion_lat": 0.0, "is_reserved": 0, "lat": 38.886995666666664, "fusion_lon": 0.0, "is_disabled": 0}, {"rental_uris": {"android": "https://dc.lft.to/lastmile_qr_scan", "ios": "https://dc.lft.to/lastmile_qr_scan"}, "type": "electric_scooter", "lon": -76.994829, "name": "6d8b500b2e5d81ed8a48c67d7d77698c", "bike_id": "6d8b500b2e5d81ed8a48c67d7d77698c", "fusion_lat": 0.0, "is_reserved": 0, "lat": 38.90093433333333, "fusion_lon": 0.0, "is_disabled": 0}, {"rental_uris": {"android": "https://dc.lft.to/lastmile_qr_scan", "ios": "https://dc.lft.to/lastmile_qr_scan"}, "type": "electric_scooter", "lon": -77.0400345, "name": "4ee728811f80f8fc64f2ea402cd9446c", "bike_id": "4ee728811f80f8fc64f2ea402cd9446c", "fusion_lat": 0.0, "is_reserved": 0, "lat": 38.902634, "fusion_lon": 0.0, "is_disabled": 0}, {"rental_uris": {"android": "https://dc.lft.to/lastmile_qr_scan", "ios": "https://dc.lft.to/lastmile_qr_scan"}, "type": "electric_scooter", "lon": -77.06824833333333, "name": "99ae56364c562c45c4b685723e928d2d", "bike_id": "99ae56364c562c45c4b685723e928d2d", "fusion_lat": 0.0, "is_reserved": 0, "lat": 38.916421666666665, "fusion_lon": 0.0, "is_disabled": 0}, {"rental_uris": {"android": "https://dc.lft.to/lastmile_qr_scan", "ios": "https://dc.lft.to/lastmile_qr_scan"}, "type": "electric_scooter", "lon": -77.058034, "name": "170373b7b94fca1fdc9efc371af2025f", "bike_id": "170373b7b94fca1fdc9efc371af2025f", "fusion_lat": 0.0, "is_reserved": 0, "lat": 38.903763833333336, "fusion_lon": 0.0, "is_disabled": 0}, {"rental_uris": {"android": "https://dc.lft.to/lastmile_qr_scan", "ios": "https://dc.lft.to/lastmile_qr_scan"}, "type": "electric_scooter", "lon": -77.02611366666666, "name": "6fe57f42daef5bdadb60843e976a118e", "bike_id": "6fe57f42daef5bdadb60843e976a118e", "fusion_lat": 0.0, "is_reserved": 0, "lat": 38.9001405, "fusion_lon": 0.0, "is_disabled": 0}, {"rental_uris": {"android": "https://dc.lft.to/lastmile_qr_scan", "ios": "https://dc.lft.to/lastmile_qr_scan"}, "type": "electric_bike", "lon": -77.13228816666667, "name": "b793b735a31de176d44f75963cbd3d07", "bike_id": "b793b735a31de176d44f75963cbd3d07", "fusion_lat": 0.0, "is_reserved": 0, "lat": 38.86971233333333, "fusion_lon": 0.0, "is_disabled": 0}, {"rental_uris": {"android": "https://dc.lft.to/lastmile_qr_scan", "ios": "https://dc.lft.to/lastmile_qr_scan"}, "type": "electric_scooter", "lon": -77.032587, "name": "c6f61c35851d9e7c6ab455a2eb092706", "bike_id": "c6f61c35851d9e7c6ab455a2eb092706", "fusion_lat": 0.0, "is_reserved": 0, "lat": 38.926425, "fusion_lon": 0.0, "is_disabled": 0}, {"rental_uris": {"android": "https://dc.lft.to/lastmile_qr_scan", "ios": "https://dc.lft.to/lastmile_qr_scan"}, "type": "electric_scooter", "lon": -77.02096933333333, "name": "8db1fb8a9d94047ac71f0679359a7b54", "bike_id": "8db1fb8a9d94047ac71f0679359a7b54", "fusion_lat": 0.0, "is_reserved": 0, "lat": 38.91100633333333, "fusion_lon": 0.0, "is_disabled": 0}, {"rental_uris": {"android": "https://dc.lft.to/lastmile_qr_scan", "ios": "https://dc.lft.to/lastmile_qr_scan"}, "type": "electric_scooter", "lon": -77.02169966666666, "name": "9ae19f3c5bab6aa800f35a9046610602", "bike_id": "9ae19f3c5bab6aa800f35a9046610602", "fusion_lat": 0.0, "is_reserved": 0, "lat": 38.9429345, "fusion_lon": 0.0, "is_disabled": 0}, {"rental_uris": {"android": "https://dc.lft.to/lastmile_qr_scan", "ios": "https://dc.lft.to/lastmile_qr_scan"}, "type": "electric_scooter", "lon": -77.00583616666667, "name": "5fabd46040fe3e0002548eed4e313084", "bike_id": "5fabd46040fe3e0002548eed4e313084", "fusion_lat": 0.0, "is_reserved": 0, "lat": 38.87657316666667, "fusion_lon": 0.0, "is_disabled": 0}, {"rental_uris": {"android": "https://dc.lft.to/lastmile_qr_scan", "ios": "https://dc.lft.to/lastmile_qr_scan"}, "type": "electric_scooter", "lon": -77.02440166666666, "name": "b07154152b6d47489c7d8b7f747ba009", "bike_id": "b07154152b6d47489c7d8b7f747ba009", "fusion_lat": 0.0, "is_reserved": 0, "lat": 38.93288033333333, "fusion_lon": 0.0, "is_disabled": 0}, {"rental_uris": {"android": "https://dc.lft.to/lastmile_qr_scan", "ios": "https://dc.lft.to/lastmile_qr_scan"}, "type": "electric_scooter", "lon": -77.01490683333333, "name": "05095bbce33220218369afd1cdd8a985", "bike_id": "05095bbce33220218369afd1cdd8a985", "fusion_lat": 0.0, "is_reserved": 0, "lat": 38.917707, "fusion_lon": 0.0, "is_disabled": 0}, {"rental_uris": {"android": "https://dc.lft.to/lastmile_qr_scan", "ios": "https://dc.lft.to/lastmile_qr_scan"}, "type": "electric_bike", "lon": -77.13096166666666, "name": "b6ef78eed3c857fcc9db7d6efb56ef60", "bike_id": "b6ef78eed3c857fcc9db7d6efb56ef60", "fusion_lat": 0.0, "is_reserved": 0, "lat": 38.8616295, "fusion_lon": 0.0, "is_disabled": 0}, {"rental_uris": {"android": "https://dc.lft.to/lastmile_qr_scan", "ios": "https://dc.lft.to/lastmile_qr_scan"}, "type": "electric_scooter", "lon": -77.0058055, "name": "7c8989b185a2bfc2480b7e2debab9960", "bike_id": "7c8989b185a2bfc2480b7e2debab9960", "fusion_lat": 0.0, "is_reserved": 0, "lat": 38.9056855, "fusion_lon": 0.0, "is_disabled": 0}, {"rental_uris": {"android": "https://dc.lft.to/lastmile_qr_scan", "ios": "https://dc.lft.to/lastmile_qr_scan"}, "type": "electric_scooter", "lon": -77.0315415, "name": "5be7314e72e901d4e2bd8a81b3728c3b", "bike_id": "5be7314e72e901d4e2bd8a81b3728c3b", "fusion_lat": 0.0, "is_reserved": 0, "lat": 38.8973015, "fusion_lon": 0.0, "is_disabled": 0}, {"rental_uris": {"android": "https://dc.lft.to/lastmile_qr_scan", "ios": "https://dc.lft.to/lastmile_qr_scan"}, "type": "electric_scooter", "lon": -77.04256516666666, "name": "28b5d57496f4c9ec84fda22afca21b2c", "bike_id": "28b5d57496f4c9ec84fda22afca21b2c", "fusion_lat": 0.0, "is_reserved": 0, "lat": 38.921995833333334, "fusion_lon": 0.0, "is_disabled": 0}, {"rental_uris": {"android": "https://dc.lft.to/lastmile_qr_scan", "ios": "https://dc.lft.to/lastmile_qr_scan"}, "type": "electric_scooter", "lon": -77.03837133333333, "name": "f0bd9b9809e4dd5e85fed1c59c6e65c1", "bike_id": "f0bd9b9809e4dd5e85fed1c59c6e65c1", "fusion_lat": 0.0, "is_reserved": 0, "lat": 38.91552516666667, "fusion_lon": 0.0, "is_disabled": 0}, {"rental_uris": {"android": "https://dc.lft.to/lastmile_qr_scan", "ios": "https://dc.lft.to/lastmile_qr_scan"}, "type": "electric_scooter", "lon": -77.00702716666666, "name": "dc3234cab441d1e4f1a4a3bf01e0941b", "bike_id": "dc3234cab441d1e4f1a4a3bf01e0941b", "fusion_lat": 0.0, "is_reserved": 0, "lat": 38.876786333333335, "fusion_lon": 0.0, "is_disabled": 0}, {"rental_uris": {"android": "https://dc.lft.to/lastmile_qr_scan", "ios": "https://dc.lft.to/lastmile_qr_scan"}, "type": "electric_scooter", "lon": -77.03268666666666, "name": "24e3b3afa463ea76528fac9f3521265f", "bike_id": "24e3b3afa463ea76528fac9f3521265f", "fusion_lat": 0.0, "is_reserved": 0, "lat": 38.8963935, "fusion_lon": 0.0, "is_disabled": 0}, {"rental_uris": {"android": "https://dc.lft.to/lastmile_qr_scan", "ios": "https://dc.lft.to/lastmile_qr_scan"}, "type": "electric_scooter", "lon": -77.02475533333333, "name": "c239ed56a88160a2c92c03a0e104cae1", "bike_id": "c239ed56a88160a2c92c03a0e104cae1", "fusion_lat": 0.0, "is_reserved": 0, "lat": 38.938493, "fusion_lon": 0.0, "is_disabled": 0}, {"rental_uris": {"android": "https://dc.lft.to/lastmile_qr_scan", "ios": "https://dc.lft.to/lastmile_qr_scan"}, "type": "electric_scooter", "lon": -76.992902, "name": "8dfaaae0acf3e3b033cdb14c94ffbb0a", "bike_id": "8dfaaae0acf3e3b033cdb14c94ffbb0a", "fusion_lat": 0.0, "is_reserved": 0, "lat": 38.85764533333333, "fusion_lon": 0.0, "is_disabled": 0}, {"rental_uris": {"android": "https://dc.lft.to/lastmile_qr_scan", "ios": "https://dc.lft.to/lastmile_qr_scan"}, "type": "electric_scooter", "lon": -77.0417665, "name": "07f3e845f6011ae373b6a2ae46b98abd", "bike_id": "07f3e845f6011ae373b6a2ae46b98abd", "fusion_lat": 0.0, "is_reserved": 0, "lat": 38.915889166666666, "fusion_lon": 0.0, "is_disabled": 0}, {"rental_uris": {"android": "https://dc.lft.to/lastmile_qr_scan", "ios": "https://dc.lft.to/lastmile_qr_scan"}, "type": "electric_scooter", "lon": -76.9945205, "name": "1abbf476802ca4f7442675a98e0520b9", "bike_id": "1abbf476802ca4f7442675a98e0520b9", "fusion_lat": 0.0, "is_reserved": 0, "lat": 38.87658033333334, "fusion_lon": 0.0, "is_disabled": 0}, {"rental_uris": {"android": "https://dc.lft.to/lastmile_qr_scan", "ios": "https://dc.lft.to/lastmile_qr_scan"}, "type": "electric_bike", "lon": -76.96881066666667, "name": "6442b7c8f4e9f32ffb5517b3a522182e", "bike_id": "6442b7c8f4e9f32ffb5517b3a522182e", "fusion_lat": 0.0, "is_reserved": 0, "lat": 38.846027166666666, "fusion_lon": 0.0, "is_disabled": 0}, {"rental_uris": {"android": "https://dc.lft.to/lastmile_qr_scan", "ios": "https://dc.lft.to/lastmile_qr_scan"}, "type": "electric_scooter", "lon": -77.03662766666666, "name": "0bec3a6741adabc233f61272f950211d", "bike_id": "0bec3a6741adabc233f61272f950211d", "fusion_lat": 0.0, "is_reserved": 0, "lat": 38.9172415, "fusion_lon": 0.0, "is_disabled": 0}, {"rental_uris": {"android": "https://dc.lft.to/lastmile_qr_scan", "ios": "https://dc.lft.to/lastmile_qr_scan"}, "type": "electric_scooter", "lon": -77.06584166666667, "name": "da9b5f77d29a60f3ae3fc8b993871e33", "bike_id": "da9b5f77d29a60f3ae3fc8b993871e33", "fusion_lat": 0.0, "is_reserved": 0, "lat": 38.91367966666667, "fusion_lon": 0.0, "is_disabled": 0}, {"rental_uris": {"android": "https://dc.lft.to/lastmile_qr_scan", "ios": "https://dc.lft.to/lastmile_qr_scan"}, "type": "electric_bike", "lon": -77.1274095, "name": "c6363625ec5326354d3808bd21664e71", "bike_id": "c6363625ec5326354d3808bd21664e71", "fusion_lat": 0.0, "is_reserved": 0, "lat": 38.888198333333335, "fusion_lon": 0.0, "is_disabled": 0}, {"rental_uris": {"android": "https://dc.lft.to/lastmile_qr_scan", "ios": "https://dc.lft.to/lastmile_qr_scan"}, "type": "electric_scooter", "lon": -77.02410133333333, "name": "c829a115681f5e2a36f953a1a94b3e04", "bike_id": "c829a115681f5e2a36f953a1a94b3e04", "fusion_lat": 0.0, "is_reserved": 0, "lat": 38.9168435, "fusion_lon": 0.0, "is_disabled": 0}, {"rental_uris": {"android": "https://dc.lft.to/lastmile_qr_scan", "ios": "https://dc.lft.to/lastmile_qr_scan"}, "type": "electric_scooter", "lon": -77.03858066666666, "name": "1b0f16bea81b56db9cdfa1e019db46c8", "bike_id": "1b0f16bea81b56db9cdfa1e019db46c8", "fusion_lat": 0.0, "is_reserved": 0, "lat": 38.912794, "fusion_lon": 0.0, "is_disabled": 0}, {"rental_uris": {"android": "https://dc.lft.to/lastmile_qr_scan", "ios": "https://dc.lft.to/lastmile_qr_scan"}, "type": "electric_scooter", "lon": -77.02391166666666, "name": "b9ca668a6250e6ac4e7288c15baaed0f", "bike_id": "b9ca668a6250e6ac4e7288c15baaed0f", "fusion_lat": 0.0, "is_reserved": 0, "lat": 38.88734633333333, "fusion_lon": 0.0, "is_disabled": 0}, {"rental_uris": {"android": "https://dc.lft.to/lastmile_qr_scan", "ios": "https://dc.lft.to/lastmile_qr_scan"}, "type": "electric_scooter", "lon": -77.02000916666667, "name": "de2dc700d5e352c7c4d63da477f444a6", "bike_id": "de2dc700d5e352c7c4d63da477f444a6", "fusion_lat": 0.0, "is_reserved": 0, "lat": 38.90021383333333, "fusion_lon": 0.0, "is_disabled": 0}, {"rental_uris": {"android": "https://dc.lft.to/lastmile_qr_scan", "ios": "https://dc.lft.to/lastmile_qr_scan"}, "type": "electric_scooter", "lon": -76.94121683333333, "name": "3b6f48d4b192b4b8afeee2a66199808b", "bike_id": "3b6f48d4b192b4b8afeee2a66199808b", "fusion_lat": 0.0, "is_reserved": 0, "lat": 38.90790716666667, "fusion_lon": 0.0, "is_disabled": 0}, {"rental_uris": {"android": "https://dc.lft.to/lastmile_qr_scan", "ios": "https://dc.lft.to/lastmile_qr_scan"}, "type": "electric_scooter", "lon": -76.93156816666666, "name": "47081a22e9bc87b6086a61ac82f01c7a", "bike_id": "47081a22e9bc87b6086a61ac82f01c7a", "fusion_lat": 0.0, "is_reserved": 0, "lat": 38.898768, "fusion_lon": 0.0, "is_disabled": 0}, {"rental_uris": {"android": "https://dc.lft.to/lastmile_qr_scan", "ios": "https://dc.lft.to/lastmile_qr_scan"}, "type": "electric_scooter", "lon": -77.0616135, "name": "70e9669d6eca4947f2b2c510cd7634f6", "bike_id": "70e9669d6eca4947f2b2c510cd7634f6", "fusion_lat": 0.0, "is_reserved": 0, "lat": 38.9422185, "fusion_lon": 0.0, "is_disabled": 0}, {"rental_uris": {"android": "https://dc.lft.to/lastmile_qr_scan", "ios": "https://dc.lft.to/lastmile_qr_scan"}, "type": "electric_scooter", "lon": -76.9868105, "name": "23b116b3e3d11e02ba93c1f29e96d3f7", "bike_id": "23b116b3e3d11e02ba93c1f29e96d3f7", "fusion_lat": 0.0, "is_reserved": 0, "lat": 38.855617333333335, "fusion_lon": 0.0, "is_disabled": 0}, {"rental_uris": {"android": "https://dc.lft.to/lastmile_qr_scan", "ios": "https://dc.lft.to/lastmile_qr_scan"}, "type": "electric_scooter", "lon": -77.03991283333333, "name": "7fe7fbd983b59fd153afde5a5a1f172e", "bike_id": "7fe7fbd983b59fd153afde5a5a1f172e", "fusion_lat": 0.0, "is_reserved": 0, "lat": 38.91404883333333, "fusion_lon": 0.0, "is_disabled": 0}, {"rental_uris": {"android": "https://dc.lft.to/lastmile_qr_scan", "ios": "https://dc.lft.to/lastmile_qr_scan"}, "type": "electric_scooter", "lon": -76.98773916666667, "name": "b1154386a50739ab019f53b08b30b10a", "bike_id": "b1154386a50739ab019f53b08b30b10a", "fusion_lat": 0.0, "is_reserved": 0, "lat": 38.9117275, "fusion_lon": 0.0, "is_disabled": 0}, {"rental_uris": {"android": "https://dc.lft.to/lastmile_qr_scan", "ios": "https://dc.lft.to/lastmile_qr_scan"}, "type": "electric_scooter", "lon": -77.04361716666666, "name": "f2417d30025b5c4435ab2593483d11ec", "bike_id": "f2417d30025b5c4435ab2593483d11ec", "fusion_lat": 0.0, "is_reserved": 0, "lat": 38.9216345, "fusion_lon": 0.0, "is_disabled": 0}, {"rental_uris": {"android": "https://dc.lft.to/lastmile_qr_scan", "ios": "https://dc.lft.to/lastmile_qr_scan"}, "type": "electric_scooter", "lon": -77.0215785, "name": "7ca044cf3e6774dda38345630437f9be", "bike_id": "7ca044cf3e6774dda38345630437f9be", "fusion_lat": 0.0, "is_reserved": 0, "lat": 38.879216166666666, "fusion_lon": 0.0, "is_disabled": 0}, {"rental_uris": {"android": "https://dc.lft.to/lastmile_qr_scan", "ios": "https://dc.lft.to/lastmile_qr_scan"}, "type": "electric_scooter", "lon": -77.024012, "name": "23e7da821319bde6d58743e17eb19700", "bike_id": "23e7da821319bde6d58743e17eb19700", "fusion_lat": 0.0, "is_reserved": 0, "lat": 38.883805833333334, "fusion_lon": 0.0, "is_disabled": 0}, {"rental_uris": {"android": "https://dc.lft.to/lastmile_qr_scan", "ios": "https://dc.lft.to/lastmile_qr_scan"}, "type": "electric_scooter", "lon": -76.99486016666667, "name": "c10153e852630a4a140ce6652ab90457", "bike_id": "c10153e852630a4a140ce6652ab90457", "fusion_lat": 0.0, "is_reserved": 0, "lat": 38.87687183333333, "fusion_lon": 0.0, "is_disabled": 0}, {"rental_uris": {"android": "https://dc.lft.to/lastmile_qr_scan", "ios": "https://dc.lft.to/lastmile_qr_scan"},