{"data": {"bikes": [{"rental_uris": {"ios": "https://dc.lft.to/lastmile_qr_scan", "android": "https://dc.lft.to/lastmile_qr_scan"}, "lon": -77.01304333333333, "type": "electric_scooter", "fusion_lat": 0.0, "lat": 38.921198833333335, "name": "530d77c9274aff40ef7238f8fbbf44e5", "fusion_lon": 0.0, "bike_id": "530d77c9274aff40ef7238f8fbbf44e5", "is_disabled": 0, "is_reserved": 0}, {"rental_uris": {"ios": "https://dc.lft.to/lastmile_qr_scan", "android": "https://dc.lft.to/lastmile_qr_scan"}, "lon": -77.04331616666667, "type": "electric_scooter", "fusion_lat": 0.0, "lat": 38.9118485, "name": "6d5d0c83f533b882426691b804b939ea", "fusion_lon": 0.0, "bike_id": "6d5d0c83f533b882426691b804b939ea", "is_disabled": 0, "is_reserved": 0}, {"rental_uris": {"ios": "https://dc.lft.to/lastmile_qr_scan", "android": "https://dc.lft.to/lastmile_qr_scan"}, "lon": -77.0330375, "type": "electric_scooter", "fusion_lat": 0.0, "lat": 38.91797316666667, "name": "dec54e327302b407849a474c746aeb2a", "fusion_lon": 0.0, "bike_id": "dec54e327302b407849a474c746aeb2a", "is_disabled": 0, "is_reserved": 0}, {"rental_uris": {"ios": "https://dc.lft.to/lastmile_qr_scan", "android": "https://dc.lft.to/lastmile_qr_scan"}, "lon": -77.02357783333333, "type": "electric_scooter", "fusion_lat": 0.0, "lat": 38.92504366666667, "name": "1d4f5878cc3e92900e174562a976fa1e", "fusion_lon": 0.0, "bike_id": "1d4f5878cc3e92900e174562a976fa1e", "is_disabled": 0, "is_reserved": 0}, {"rental_uris": {"ios": "https://dc.lft.to/lastmile_qr_scan", "android": "https://dc.lft.to/lastmile_qr_scan"}, "lon": -77.03683833333334, "type": "electric_scooter", "fusion_lat": 0.0, "lat": 38.93936, "name": "7c7bf4c91c0e09e5c50e5b402cce4ccc", "fusion_lon": 0.0, "bike_id": "7c7bf4c91c0e09e5c50e5b402cce4ccc", "is_disabled": 0, "is_reserved": 0}, {"rental_uris": {"ios": "https://dc.lft.to/lastmile_qr_scan", "android": "https://dc.lft.to/lastmile_qr_scan"}, "lon": -77.02730583333333, "type": "electric_scooter", "fusion_lat": 0.0, "lat": 38.91700516666667, "name": "d1a4adf46f362d9342a237dee1b3e627", "fusion_lon": 0.0, "bike_id": "d1a4adf46f362d9342a237dee1b3e627", "is_disabled": 0, "is_reserved": 0}, {"rental_uris": {"ios": "https://dc.lft.to/lastmile_qr_scan", "android": "https://dc.lft.to/lastmile_qr_scan"}, "lon": -76.9489435, "type": "electric_scooter", "fusion_lat": 0.0, "lat": 38.895233166666664, "name": "4fcd91410a5ba33ea41f561c5bf8c09c", "fusion_lon": 0.0, "bike_id": "4fcd91410a5ba33ea41f561c5bf8c09c", "is_disabled": 0, "is_reserved": 0}, {"rental_uris": {"ios": "https://dc.lft.to/lastmile_qr_scan", "android": "https://dc.lft.to/lastmile_qr_scan"}, "lon": -77.02396066666667, "type": "electric_scooter", "fusion_lat": 0.0, "lat": 38.934931166666665, "name": "0d249ea035d35c0c2dbe233787df9da2", "fusion_lon": 0.0, "bike_id": "0d249ea035d35c0c2dbe233787df9da2", "is_disabled": 0, "is_reserved": 0}, {"rental_uris": {"ios": "https://dc.lft.to/lastmile_qr_scan", "android": "https://dc.lft.to/lastmile_qr_scan"}, "lon": -77.03504933333333, "type": "electric_scooter", "fusion_lat": 0.0, "lat": 38.918783, "name": "820fbc9cc6506aa9c11221b3c1f7894b", "fusion_lon": 0.0, "bike_id": "820fbc9cc6506aa9c11221b3c1f7894b", "is_disabled": 0, "is_reserved": 0}, {"rental_uris": {"ios": "https://dc.lft.to/lastmile_qr_scan", "android": "https://dc.lft.to/lastmile_qr_scan"}, "lon": -76.90972033333334, "type": "electric_bike", "fusion_lat": 0.0, "lat": 38.854362333333334, "name": "2182090ada1d3b8bd5d4cc4e0e882aad", "fusion_lon": 0.0, "bike_id": "2182090ada1d3b8bd5d4cc4e0e882aad", "is_disabled": 0, "is_reserved": 0}, {"rental_uris": {"ios": "https://dc.lft.to/lastmile_qr_scan", "android": "https://dc.lft.to/lastmile_qr_scan"}, "lon": -77.0350115, "type": "electric_scooter", "fusion_lat": 0.0, "lat": 38.917024166666664, "name": "a2e709163a94469f017c4be9c4de44a0", "fusion_lon": 0.0, "bike_id": "a2e709163a94469f017c4be9c4de44a0", "is_disabled": 0, "is_reserved": 0}, {"rental_uris": {"ios": "https://dc.lft.to/lastmile_qr_scan", "android": "https://dc.lft.to/lastmile_qr_scan"}, "lon": -77.00560583333333, "type": "electric_scooter", "fusion_lat": 0.0, "lat": 38.90579483333333, "name": "b4b2060fdc7005bb696055fe90b73c06", "fusion_lon": 0.0, "bike_id": "b4b2060fdc7005bb696055fe90b73c06", "is_disabled": 0, "is_reserved": 0}, {"rental_uris": {"ios": "https://dc.lft.to/lastmile_qr_scan", "android": "https://dc.lft.to/lastmile_qr_scan"}, "lon": -76.9818665, "type": "electric_scooter", "fusion_lat": 0.0, "lat": 38.89585983333333, "name": "686c148ce2cd3f08f59500baad923f98", "fusion_lon": 0.0, "bike_id": "686c148ce2cd3f08f59500baad923f98", "is_disabled": 0, "is_reserved": 0}, {"rental_uris": {"ios": "https://dc.lft.to/lastmile_qr_scan", "android": "https://dc.lft.to/lastmile_qr_scan"}, "lon": -77.00636283333333, "type": "electric_scooter", "fusion_lat": 0.0, "lat": 38.829320333333335, "name": "a7c06b5030670c0fffcfdc447ab55259", "fusion_lon": 0.0, "bike_id": "a7c06b5030670c0fffcfdc447ab55259", "is_disabled": 0, "is_reserved": 0}, {"rental_uris": {"ios": "https://dc.lft.to/lastmile_qr_scan", "android": "https://dc.lft.to/lastmile_qr_scan"}, "lon": -77.0178195, "type": "electric_scooter", "fusion_lat": 0.0, "lat": 38.87698566666667, "name": "a0989fd9939fabe07815c14a9c5453e5", "fusion_lon": 0.0, "bike_id": "a0989fd9939fabe07815c14a9c5453e5", "is_disabled": 0, "is_reserved": 0}, {"rental_uris": {"ios": "https://dc.lft.to/lastmile_qr_scan", "android": "https://dc.lft.to/lastmile_qr_scan"}, "lon": -77.03076116666666, "type": "electric_scooter", "fusion_lat": 0.0, "lat": 38.8947955, "name": "6eb6adb26cdaaefacd1ccfddffaa148f", "fusion_lon": 0.0, "bike_id": "6eb6adb26cdaaefacd1ccfddffaa148f", "is_disabled": 0, "is_reserved": 0}, {"rental_uris": {"ios": "https://dc.lft.to/lastmile_qr_scan", "android": "https://dc.lft.to/lastmile_qr_scan"}, "lon": -77.0471005, "type": "electric_scooter", "fusion_lat": 0.0, "lat": 38.897400166666664, "name": "0b51dcb25e8653d8a0db0c29356a2b8f", "fusion_lon": 0.0, "bike_id": "0b51dcb25e8653d8a0db0c29356a2b8f", "is_disabled": 0, "is_reserved": 0}, {"rental_uris": {"ios": "https://dc.lft.to/lastmile_qr_scan", "android": "https://dc.lft.to/lastmile_qr_scan"}, "lon": -77.02793433333333, "type": "electric_scooter", "fusion_lat": 0.0, "lat": 38.93088516666667, "name": "9e73c352f4cfc43f7922fd11b4b4b185", "fusion_lon": 0.0, "bike_id": "9e73c352f4cfc43f7922fd11b4b4b185", "is_disabled": 0, "is_reserved": 0}, {"rental_uris": {"ios": "https://dc.lft.to/lastmile_qr_scan", "android": "https://dc.lft.to/lastmile_qr_scan"}, "lon": -76.99003433333333, "type": "electric_scooter", "fusion_lat": 0.0, "lat": 38.86502383333333, "name": "dcd27a5b3a0babbe6bc03824de525c9d", "fusion_lon": 0.0, "bike_id": "dcd27a5b3a0babbe6bc03824de525c9d", "is_disabled": 0, "is_reserved": 0}, {"rental_uris": {"ios": "https://dc.lft.to/lastmile_qr_scan", "android": "https://dc.lft.to/lastmile_qr_scan"}, "lon": -77.02371916666667, "type": "electric_scooter", "fusion_lat": 0.0, "lat": 38.903090166666665, "name": "06f302e7a9144d1e07073b437b903948", "fusion_lon": 0.0, "bike_id": "06f302e7a9144d1e07073b437b903948", "is_disabled": 0, "is_reserved": 0}, {"rental_uris": {"ios": "https://dc.lft.to/lastmile_qr_scan", "android": "https://dc.lft.to/lastmile_qr_scan"}, "lon": -77.01109833333334, "type": "electric_scooter", "fusion_lat": 0.0, "lat": 38.907877666666664, "name": "a051c2686a6d7e5dd1da2ea9a12cbf0b", "fusion_lon": 0.0, "bike_id": "a051c2686a6d7e5dd1da2ea9a12cbf0b", "is_disabled": 0, "is_reserved": 0}, {"rental_uris": {"ios": "https://dc.lft.to/lastmile_qr_scan", "android": "https://dc.lft.to/lastmile_qr_scan"}, "lon": -77.03635833333334, "type": "electric_scooter", "fusion_lat": 0.0, "lat": 38.91816516666667, "name": "08c875e1e3399ac80a1a7eeb8c796038", "fusion_lon": 0.0, "bike_id": "08c875e1e3399ac80a1a7eeb8c796038", "is_disabled": 0, "is_reserved": 0}, {"rental_uris": {"ios": "https://dc.lft.to/lastmile_qr_scan", "android": "https://dc.lft.to/lastmile_qr_scan"}, "lon": -76.99386316666667, "type": "electric_scooter", "fusion_lat": 0.0, "lat": 38.88720983333333, "name": "df9809c004db0d68ee26e62a00c689f9", "fusion_lon": 0.0, "bike_id": "df9809c004db0d68ee26e62a00c689f9", "is_disabled": 0, "is_reserved": 0}, {"rental_uris": {"ios": "https://dc.lft.to/lastmile_qr_scan", "android": "https://dc.lft.to/lastmile_qr_scan"}, "lon": -77.00318883333334, "type": "electric_scooter", "fusion_lat": 0.0, "lat": 38.909013333333334, "name": "2f339ec74cf09928c3d16b704654e71b", "fusion_lon": 0.0, "bike_id": "2f339ec74cf09928c3d16b704654e71b", "is_disabled": 0, "is_reserved": 0}, {"rental_uris": {"ios": "https://dc.lft.to/lastmile_qr_scan", "android": "https://dc.lft.to/lastmile_qr_scan"}, "lon": -77.00232866666667, "type": "electric_scooter", "fusion_lat": 0.0, "lat": 38.90567183333334, "name": "cef4030bb48c41064add1b089c897cef", "fusion_lon": 0.0, "bike_id": "cef4030bb48c41064add1b089c897cef", "is_disabled": 0, "is_reserved": 0}, {"rental_uris": {"ios": "https://dc.lft.to/lastmile_qr_scan", "android": "https://dc.lft.to/lastmile_qr_scan"}, "lon": -76.96789866666667, "type": "electric_scooter", "fusion_lat": 0.0, "lat": 38.8614045, "name": "9dfe61f88625c5f933f4ba9c58b38022", "fusion_lon": 0.0, "bike_id": "9dfe61f88625c5f933f4ba9c58b38022", "is_disabled": 0, "is_reserved": 0}, {"rental_uris": {"ios": "https://dc.lft.to/lastmile_qr_scan", "android": "https://dc.lft.to/lastmile_qr_scan"}, "lon": -77.02209633333334, "type": "electric_scooter", "fusion_lat": 0.0, "lat": 38.9097205, "name": "a12a39501bef73274b6a4613c622fd9e", "fusion_lon": 0.0, "bike_id": "a12a39501bef73274b6a4613c622fd9e", "is_disabled": 0, "is_reserved": 0}, {"rental_uris": {"ios": "https://dc.lft.to/lastmile_qr_scan", "android": "https://dc.lft.to/lastmile_qr_scan"}, "lon": -77.03181333333333, "type": "electric_scooter", "fusion_lat": 0.0, "lat": 38.899562833333334, "name": "8dc8b9408e33da60990a12965fa1f9aa", "fusion_lon": 0.0, "bike_id": "8dc8b9408e33da60990a12965fa1f9aa", "is_disabled": 0, "is_reserved": 0}, {"rental_uris": {"ios": "https://dc.lft.to/lastmile_qr_scan", "android": "https://dc.lft.to/lastmile_qr_scan"}, "lon": -77.1143015, "type": "electric_bike", "fusion_lat": 0.0, "lat": 38.8524795, "name": "d41d3f200b46f9121a248b4acc2a723b", "fusion_lon": 0.0, "bike_id": "d41d3f200b46f9121a248b4acc2a723b", "is_disabled": 0, "is_reserved": 0}, {"rental_uris": {"ios": "https://dc.lft.to/lastmile_qr_scan", "android": "https://dc.lft.to/lastmile_qr_scan"}, "lon": -77.05027083333333, "type": "electric_scooter", "fusion_lat": 0.0, "lat": 38.89646366666667, "name": "29056334090eb456329acf8b95af7b0d", "fusion_lon": 0.0, "bike_id": "29056334090eb456329acf8b95af7b0d", "is_disabled": 0, "is_reserved": 0}, {"rental_uris": {"ios": "https://dc.lft.to/lastmile_qr_scan", "android": "https://dc.lft.to/lastmile_qr_scan"}, "lon": -77.0347755, "type": "electric_scooter", "fusion_lat": 0.0, "lat": 38.90260133333334, "name": "e48a455bd2663becf37caf17cd8cbe70", "fusion_lon": 0.0, "bike_id": "e48a455bd2663becf37caf17cd8cbe70", "is_disabled": 0, "is_reserved": 0}, {"rental_uris": {"ios": "https://dc.lft.to/lastmile_qr_scan", "android": "https://dc.lft.to/lastmile_qr_scan"}, "lon": -77.03323916666666, "type": "electric_scooter", "fusion_lat": 0.0, "lat": 38.9215535, "name": "9f1cbd7241b62350ae6d970427fc919a", "fusion_lon": 0.0, "bike_id": "9f1cbd7241b62350ae6d970427fc919a", "is_disabled": 0, "is_reserved": 0}, {"rental_uris": {"ios": "https://dc.lft.to/lastmile_qr_scan", "android": "https://dc.lft.to/lastmile_qr_scan"}, "lon": -76.9841585, "type": "electric_scooter", "fusion_lat": 0.0, "lat": 38.913853333333336, "name": "54b44ca1b53098fa4c0a4df8b7b4c800", "fusion_lon": 0.0, "bike_id": "54b44ca1b53098fa4c0a4df8b7b4c800", "is_disabled": 0, "is_reserved": 0}, {"rental_uris": {"ios": "https://dc.lft.to/lastmile_qr_scan", "android": "https://dc.lft.to/lastmile_qr_scan"}, "lon": -77.0240145, "type": "electric_scooter", "fusion_lat": 0.0, "lat": 38.91791816666667, "name": "da8e38abd4583af6aa1d3c99939518cf", "fusion_lon": 0.0, "bike_id": "da8e38abd4583af6aa1d3c99939518cf", "is_disabled": 0, "is_reserved": 0}, {"rental_uris": {"ios": "https://dc.lft.to/lastmile_qr_scan", "android": "https://dc.lft.to/lastmile_qr_scan"}, "lon": -77.03222366666667, "type": "electric_scooter", "fusion_lat": 0.0, "lat": 38.907592666666666, "name": "f106de7698107b8510b625430cde3738", "fusion_lon": 0.0, "bike_id": "f106de7698107b8510b625430cde3738", "is_disabled": 0, "is_reserved": 0}, {"rental_uris": {"ios": "https://dc.lft.to/lastmile_qr_scan", "android": "https://dc.lft.to/lastmile_qr_scan"}, "lon": -76.98845216666666, "type": "electric_bike", "fusion_lat": 0.0, "lat": 38.84276166666667, "name": "a9270fbe05a19add8881aa2e99d827af", "fusion_lon": 0.0, "bike_id": "a9270fbe05a19add8881aa2e99d827af", "is_disabled": 0, "is_reserved": 0}, {"rental_uris": {"ios": "https://dc.lft.to/lastmile_qr_scan", "android": "https://dc.lft.to/lastmile_qr_scan"}, "lon": -77.0026235, "type": "electric_scooter", "fusion_lat": 0.0, "lat": 38.8989105, "name": "17e985577248dda11515100f06b2ef24", "fusion_lon": 0.0, "bike_id": "17e985577248dda11515100f06b2ef24", "is_disabled": 0, "is_reserved": 0}, {"rental_uris": {"ios": "https://dc.lft.to/lastmile_qr_scan", "android": "https://dc.lft.to/lastmile_qr_scan"}, "lon": -77.033987, "type": "electric_scooter", "fusion_lat": 0.0, "lat": 38.906177666666665, "name": "283c8a3906e1b7982e458d531eaa9a93", "fusion_lon": 0.0, "bike_id": "283c8a3906e1b7982e458d531eaa9a93", "is_disabled": 0, "is_reserved": 0}, {"rental_uris": {"ios": "https://dc.lft.to/lastmile_qr_scan", "android": "https://dc.lft.to/lastmile_qr_scan"}, "lon": -77.0483045, "type": "electric_scooter", "fusion_lat": 0.0, "lat": 38.909718833333336, "name": "f28c76683e5fcbe4894a16a5e6f93b65", "fusion_lon": 0.0, "bike_id": "f28c76683e5fcbe4894a16a5e6f93b65", "is_disabled": 0, "is_reserved": 0}, {"rental_uris": {"ios": "https://dc.lft.to/lastmile_qr_scan", "android": "https://dc.lft.to/lastmile_qr_scan"}, "lon": -77.01081583333334, "type": "electric_bike", "fusion_lat": 0.0, "lat": 38.95654616666667, "name": "075fc13d53a00da9ad858a8d8a29fb0e", "fusion_lon": 0.0, "bike_id": "075fc13d53a00da9ad858a8d8a29fb0e", "is_disabled": 0, "is_reserved": 0}, {"rental_uris": {"ios": "https://dc.lft.to/lastmile_qr_scan", "android": "https://dc.lft.to/lastmile_qr_scan"}, "lon": -77.03284566666666, "type": "electric_scooter", "fusion_lat": 0.0, "lat": 38.934974, "name": "7f4fe198b15380c2ebf60694493ce9fe", "fusion_lon": 0.0, "bike_id": "7f4fe198b15380c2ebf60694493ce9fe", "is_disabled": 0, "is_reserved": 0}, {"rental_uris": {"ios": "https://dc.lft.to/lastmile_qr_scan", "android": "https://dc.lft.to/lastmile_qr_scan"}, "lon": -76.98956116666666, "type": "electric_scooter", "fusion_lat": 0.0, "lat": 38.901350666666666, "name": "8178a399dc4df81e6a0f6569f0354661", "fusion_lon": 0.0, "bike_id": "8178a399dc4df81e6a0f6569f0354661", "is_disabled": 0, "is_reserved": 0}, {"rental_uris": {"ios": "https://dc.lft.to/lastmile_qr_scan", "android": "https://dc.lft.to/lastmile_qr_scan"}, "lon": -77.07775016666666, "type": "electric_scooter", "fusion_lat": 0.0, "lat": 38.9455935, "name": "e3be3e8406496c758fade5c5eeef27f5", "fusion_lon": 0.0, "bike_id": "e3be3e8406496c758fade5c5eeef27f5", "is_disabled": 0, "is_reserved": 0}, {"rental_uris": {"ios": "https://dc.lft.to/lastmile_qr_scan", "android": "https://dc.lft.to/lastmile_qr_scan"}, "lon": -77.00831966666667, "type": "electric_scooter", "fusion_lat": 0.0, "lat": 38.8790045, "name": "c15b98718524fd9244ba055e95721f97", "fusion_lon": 0.0, "bike_id": "c15b98718524fd9244ba055e95721f97", "is_disabled": 0, "is_reserved": 0}, {"rental_uris": {"ios": "https://dc.lft.to/lastmile_qr_scan", "android": "https://dc.lft.to/lastmile_qr_scan"}, "lon": -77.0055985, "type": "electric_scooter", "fusion_lat": 0.0, "lat": 38.8794115, "name": "b3dfa985d51b93baa78da892930cb44d", "fusion_lon": 0.0, "bike_id": "b3dfa985d51b93baa78da892930cb44d", "is_disabled": 0, "is_reserved": 0}, {"rental_uris": {"ios": "https://dc.lft.to/lastmile_qr_scan", "android": "https://dc.lft.to/lastmile_qr_scan"}, "lon": -77.0188035, "type": "electric_scooter", "fusion_lat": 0.0, "lat": 38.917439333333334, "name": "cac5a06b887a0890231518338e39c0b2", "fusion_lon": 0.0, "bike_id": "cac5a06b887a0890231518338e39c0b2", "is_disabled": 0, "is_reserved": 0}, {"rental_uris": {"ios": "https://dc.lft.to/lastmile_qr_scan", "android": "https://dc.lft.to/lastmile_qr_scan"}, "lon": -77.01286566666667, "type": "electric_scooter", "fusion_lat": 0.0, "lat": 38.906184, "name": "3002fe0a3cc2b5511969564d6e04c972", "fusion_lon": 0.0, "bike_id": "3002fe0a3cc2b5511969564d6e04c972", "is_disabled": 0, "is_reserved": 0}, {"rental_uris": {"ios": "https://dc.lft.to/lastmile_qr_scan", "android": "https://dc.lft.to/lastmile_qr_scan"}, "lon": -77.03793866666666, "type": "electric_scooter", "fusion_lat": 0.0, "lat": 38.926307333333334, "name": "2d6d39c9ca090111643381f2f6346bb9", "fusion_lon": 0.0, "bike_id": "2d6d39c9ca090111643381f2f6346bb9", "is_disabled": 0, "is_reserved": 0}, {"rental_uris": {"ios": "https://dc.lft.to/lastmile_qr_scan", "android": "https://dc.lft.to/lastmile_qr_scan"}, "lon": -76.95891266666666, "type": "electric_scooter", "fusion_lat": 0.0, "lat": 38.8584655, "name": "d460aad18e32f27dc51657dbd8d36d23", "fusion_lon": 0.0, "bike_id": "d460aad18e32f27dc51657dbd8d36d23", "is_disabled": 0, "is_reserved": 0}, {"rental_uris": {"ios": "https://dc.lft.to/lastmile_qr_scan", "android": "https://dc.lft.to/lastmile_qr_scan"}, "lon": -77.02117166666666, "type": "electric_scooter", "fusion_lat": 0.0, "lat": 38.936989833333335, "name": "d07732534dff143eb0d5d110ddce4149", "fusion_lon": 0.0, "bike_id": "d07732534dff143eb0d5d110ddce4149", "is_disabled": 0, "is_reserved": 0}, {"rental_uris": {"ios": "https://dc.lft.to/lastmile_qr_scan", "android": "https://dc.lft.to/lastmile_qr_scan"}, "lon": -77.06548166666667, "type": "electric_scooter", "fusion_lat": 0.0, "lat": 38.904837666666666, "name": "29429c7f21d87ab619a4b5b4279d2130", "fusion_lon": 0.0, "bike_id": "29429c7f21d87ab619a4b5b4279d2130", "is_disabled": 0, "is_reserved": 0}, {"rental_uris": {"ios": "https://dc.lft.to/lastmile_qr_scan", "android": "https://dc.lft.to/lastmile_qr_scan"}, "lon": -76.99683683333333, "type": "electric_scooter", "fusion_lat": 0.0, "lat": 38.88685016666667, "name": "4f1a40164b7aa17f076dc0970688682a", "fusion_lon": 0.0, "bike_id": "4f1a40164b7aa17f076dc0970688682a", "is_disabled": 0, "is_reserved": 0}, {"rental_uris": {"ios": "https://dc.lft.to/lastmile_qr_scan", "android": "https://dc.lft.to/lastmile_qr_scan"}, "lon": -77.04338316666667, "type": "electric_scooter", "fusion_lat": 0.0, "lat": 38.9279165, "name": "ce072b6149272ec0c138ba6442c76e77", "fusion_lon": 0.0, "bike_id": "ce072b6149272ec0c138ba6442c76e77", "is_disabled": 0, "is_reserved": 0}, {"rental_uris": {"ios": "https://dc.lft.to/lastmile_qr_scan", "android": "https://dc.lft.to/lastmile_qr_scan"}, "lon": -77.0078095, "type": "electric_scooter", "fusion_lat": 0.0, "lat": 38.897357, "name": "aff362079783fc9fbaebd89026fca1ea", "fusion_lon": 0.0, "bike_id": "aff362079783fc9fbaebd89026fca1ea", "is_disabled": 0, "is_reserved": 0}, {"rental_uris": {"ios": "https://dc.lft.to/lastmile_qr_scan", "android": "https://dc.lft.to/lastmile_qr_scan"}, "lon": -77.01181966666667, "type": "electric_scooter", "fusion_lat": 0.0, "lat": 38.90029466666667, "name": "9169c9ca9a3f3a7a560975eae562ec39", "fusion_lon": 0.0, "bike_id": "9169c9ca9a3f3a7a560975eae562ec39", "is_disabled": 0, "is_reserved": 0}, {"rental_uris": {"ios": "https://dc.lft.to/lastmile_qr_scan", "android": "https://dc.lft.to/lastmile_qr_scan"}, "lon": -76.9576595, "type": "electric_scooter", "fusion_lat": 0.0, "lat": 38.88689933333333, "name": "1fe4a4fefb83ac67903b651d63448357", "fusion_lon": 0.0, "bike_id": "1fe4a4fefb83ac67903b651d63448357", "is_disabled": 0, "is_reserved": 0}, {"rental_uris": {"ios": "https://dc.lft.to/lastmile_qr_scan", "android": "https://dc.lft.to/lastmile_qr_scan"}, "lon": -77.02710183333333, "type": "electric_scooter", "fusion_lat": 0.0, "lat": 38.90670883333333, "name": "ac11faa358fda24ea218ff4da9c9943a", "fusion_lon": 0.0, "bike_id": "ac11faa358fda24ea218ff4da9c9943a", "is_disabled": 0, "is_reserved": 0}, {"rental_uris": {"ios": "https://dc.lft.to/lastmile_qr_scan", "android": "https://dc.lft.to/lastmile_qr_scan"}, "lon": -77.05626266666667, "type": "electric_bike", "fusion_lat": 0.0, "lat": 38.92407766666667, "name": "3fabee00bfc245371d0d44d02d1c7e83", "fusion_lon": 0.0, "bike_id": "3fabee00bfc245371d0d44d02d1c7e83", "is_disabled": 0, "is_reserved": 0}, {"rental_uris": {"ios": "https://dc.lft.to/lastmile_qr_scan", "android": "https://dc.lft.to/lastmile_qr_scan"}, "lon": -77.03417333333333, "type": "electric_scooter", "fusion_lat": 0.0, "lat": 38.93535283333333, "name": "94c0580c00d302242d4ebeee15fb45c7", "fusion_lon": 0.0, "bike_id": "94c0580c00d302242d4ebeee15fb45c7", "is_disabled": 0, "is_reserved": 0}, {"rental_uris": {"ios": "https://dc.lft.to/lastmile_qr_scan", "android": "https://dc.lft.to/lastmile_qr_scan"}, "lon": -77.04117983333333, "type": "electric_scooter", "fusion_lat": 0.0, "lat": 38.924425666666664, "name": "f9ae9e5794e2f413e0f54f1ac7981bef", "fusion_lon": 0.0, "bike_id": "f9ae9e5794e2f413e0f54f1ac7981bef", "is_disabled": 0, "is_reserved": 0}, {"rental_uris": {"ios": "https://dc.lft.to/lastmile_qr_scan", "android": "https://dc.lft.to/lastmile_qr_scan"}, "lon": -76.93719166666666, "type": "electric_scooter", "fusion_lat": 0.0, "lat": 38.895863, "name": "64ec91344f812fa6220f1005e94fa4c8", "fusion_lon": 0.0, "bike_id": "64ec91344f812fa6220f1005e94fa4c8", "is_disabled": 0, "is_reserved": 0}, {"rental_uris": {"ios": "https://dc.lft.to/lastmile_qr_scan", "android": "https://dc.lft.to/lastmile_qr_scan"}, "lon": -77.01627116666667, "type": "electric_scooter", "fusion_lat": 0.0, "lat": 38.90233816666667, "name": "fd6e382c72e7c12332f48b732a8acd58", "fusion_lon": 0.0, "bike_id": "fd6e382c72e7c12332f48b732a8acd58", "is_disabled": 0, "is_reserved": 0}, {"rental_uris": {"ios": "https://dc.lft.to/lastmile_qr_scan", "android": "https://dc.lft.to/lastmile_qr_scan"}, "lon": -77.002419, "type": "electric_scooter", "fusion_lat": 0.0, "lat": 38.9116245, "name": "0eef7ee9d787e2fc64d70093909f5f1b", "fusion_lon": 0.0, "bike_id": "0eef7ee9d787e2fc64d70093909f5f1b", "is_disabled": 0, "is_reserved": 0}, {"rental_uris": {"ios": "https://dc.lft.to/lastmile_qr_scan", "android": "https://dc.lft.to/lastmile_qr_scan"}, "lon": -77.00655283333333, "type": "electric_scooter", "fusion_lat": 0.0, "lat": 38.87175516666667, "name": "9806c261131f21634fefb63c5dd864f2", "fusion_lon": 0.0, "bike_id": "9806c261131f21634fefb63c5dd864f2", "is_disabled": 0, "is_reserved": 0}, {"rental_uris": {"ios": "https://dc.lft.to/lastmile_qr_scan", "android": "https://dc.lft.to/lastmile_qr_scan"}, "lon": -77.040145, "type": "electric_scooter", "fusion_lat": 0.0, "lat": 38.91004566666667, "name": "0d7a4fcbd9f2047a3a1b7aeec086b6b1", "fusion_lon": 0.0, "bike_id": "0d7a4fcbd9f2047a3a1b7aeec086b6b1", "is_disabled": 0, "is_reserved": 0}, {"rental_uris": {"ios": "https://dc.lft.to/lastmile_qr_scan", "android": "https://dc.lft.to/lastmile_qr_scan"}, "lon": -77.05456566666666, "type": "electric_scooter", "fusion_lat": 0.0, "lat": 38.928976, "name": "9a35fab737bc56353ab1b64fdcab0b9f", "fusion_lon": 0.0, "bike_id": "9a35fab737bc56353ab1b64fdcab0b9f", "is_disabled": 0, "is_reserved": 0}, {"rental_uris": {"ios": "https://dc.lft.to/lastmile_qr_scan", "android": "https://dc.lft.to/lastmile_qr_scan"}, "lon": -76.97491683333334, "type": "electric_bike", "fusion_lat": 0.0, "lat": 38.92004583333333, "name": "92f8e8264d6aeadd0345358d4bc7f6ed", "fusion_lon": 0.0, "bike_id": "92f8e8264d6aeadd0345358d4bc7f6ed", "is_disabled": 0, "is_reserved": 0}, {"rental_uris": {"ios": "https://dc.lft.to/lastmile_qr_scan", "android": "https://dc.lft.to/lastmile_qr_scan"}, "lon": -76.97406516666666, "type": "electric_scooter", "fusion_lat": 0.0, "lat": 38.90155566666667, "name": "ac140790119f731ffaa58dd0a31292fb", "fusion_lon": 0.0, "bike_id": "ac140790119f731ffaa58dd0a31292fb", "is_disabled": 0, "is_reserved": 0}, {"rental_uris": {"ios": "https://dc.lft.to/lastmile_qr_scan", "android": "https://dc.lft.to/lastmile_qr_scan"}, "lon": -77.04865766666667, "type": "electric_scooter", "fusion_lat": 0.0, "lat": 38.908486333333336, "name": "6b71b5ba961c42a5d93af741a28cd561", "fusion_lon": 0.0, "bike_id": "6b71b5ba961c42a5d93af741a28cd561", "is_disabled": 0, "is_reserved": 0}, {"rental_uris": {"ios": "https://dc.lft.to/lastmile_qr_scan", "android": "https://dc.lft.to/lastmile_qr_scan"}, "lon": -77.03226683333334, "type": "electric_scooter", "fusion_lat": 0.0, "lat": 38.9267215, "name": "2eb09171acef52662b6b45d79b69ffc7", "fusion_lon": 0.0, "bike_id": "2eb09171acef52662b6b45d79b69ffc7", "is_disabled": 0, "is_reserved": 0}, {"rental_uris": {"ios": "https://dc.lft.to/lastmile_qr_scan", "android": "https://dc.lft.to/lastmile_qr_scan"}, "lon": -77.029584, "type": "electric_scooter", "fusion_lat": 0.0, "lat": 38.905188, "name": "8e8ec1de46b6193a64a934fb7f442552", "fusion_lon": 0.0, "bike_id": "8e8ec1de46b6193a64a934fb7f442552", "is_disabled": 0, "is_reserved": 0}, {"rental_uris": {"ios": "https://dc.lft.to/lastmile_qr_scan", "android": "https://dc.lft.to/lastmile_qr_scan"}, "lon": -77.0243405, "type": "electric_scooter", "fusion_lat": 0.0, "lat": 38.907108666666666, "name": "d926157540392f2b823ed871d9d1dd66", "fusion_lon": 0.0, "bike_id": "d926157540392f2b823ed871d9d1dd66", "is_disabled": 0, "is_reserved": 0}, {"rental_uris": {"ios": "https://dc.lft.to/lastmile_qr_scan", "android": "https://dc.lft.to/lastmile_qr_scan"}, "lon": -76.98133183333333, "type": "electric_scooter", "fusion_lat": 0.0, "lat": 38.85709, "name": "08fdeac6b9e7ac7e4aef9056c656bd61", "fusion_lon": 0.0, "bike_id": "08fdeac6b9e7ac7e4aef9056c656bd61", "is_disabled": 0, "is_reserved": 0}, {"rental_uris": {"ios": "https://dc.lft.to/lastmile_qr_scan", "android": "https://dc.lft.to/lastmile_qr_scan"}, "lon": -77.02618883333334, "type": "electric_scooter", "fusion_lat": 0.0, "lat": 38.91524833333333, "name": "28a44a450fc5ed02e3d69571d1045720", "fusion_lon": 0.0, "bike_id": "28a44a450fc5ed02e3d69571d1045720", "is_disabled": 0, "is_reserved": 0}, {"rental_uris": {"ios": "https://dc.lft.to/lastmile_qr_scan", "android": "https://dc.lft.to/lastmile_qr_scan"}, "lon": -77.0383065, "type": "electric_scooter", "fusion_lat": 0.0, "lat": 38.907623, "name": "23da156365c1ae016113f0bfc02492ce", "fusion_lon": 0.0, "bike_id": "23da156365c1ae016113f0bfc02492ce", "is_disabled": 0, "is_reserved": 0}, {"rental_uris": {"ios": "https://dc.lft.to/lastmile_qr_scan", "android": "https://dc.lft.to/lastmile_qr_scan"}, "lon": -77.0356855, "type": "electric_scooter", "fusion_lat": 0.0, "lat": 38.939877, "name": "f80d7f848990b7369eb0ca4c181123bb", "fusion_lon": 0.0, "bike_id": "f80d7f848990b7369eb0ca4c181123bb", "is_disabled": 0, "is_reserved": 0}, {"rental_uris": {"ios": "https://dc.lft.to/lastmile_qr_scan", "android": "https://dc.lft.to/lastmile_qr_scan"}, "lon": -77.05474133333334, "type": "electric_scooter", "fusion_lat": 0.0, "lat": 38.910695, "name": "39dc05bd50975504202d813a1a8255d2", "fusion_lon": 0.0, "bike_id": "39dc05bd50975504202d813a1a8255d2", "is_disabled": 0, "is_reserved": 0}, {"rental_uris": {"ios": "https://dc.lft.to/lastmile_qr_scan", "android": "https://dc.lft.to/lastmile_qr_scan"}, "lon": -77.0556655, "type": "electric_scooter", "fusion_lat": 0.0, "lat": 38.90005466666667, "name": "5666c292f12c47c99752198b928cddb5", "fusion_lon": 0.0, "bike_id": "5666c292f12c47c99752198b928cddb5", "is_disabled": 0, "is_reserved": 0}, {"rental_uris": {"ios": "https://dc.lft.to/lastmile_qr_scan", "android": "https://dc.lft.to/lastmile_qr_scan"}, "lon": -76.99461666666667, "type": "electric_scooter", "fusion_lat": 0.0, "lat": 38.851624, "name": "3df685ae5f640d153c652ca259298912", "fusion_lon": 0.0, "bike_id": "3df685ae5f640d153c652ca259298912", "is_disabled": 0, "is_reserved": 0}, {"rental_uris": {"ios": "https://dc.lft.to/lastmile_qr_scan", "android": "https://dc.lft.to/lastmile_qr_scan"}, "lon": -77.05538183333333, "type": "electric_scooter", "fusion_lat": 0.0, "lat": 38.925288333333334, "name": "f435c417fe1187691dab9d891ed05bc0", "fusion_lon": 0.0, "bike_id": "f435c417fe1187691dab9d891ed05bc0", "is_disabled": 0, "is_reserved": 0}, {"rental_uris": {"ios": "https://dc.lft.to/lastmile_qr_scan", "android": "https://dc.lft.to/lastmile_qr_scan"}, "lon": -76.957597, "type": "electric_scooter", "fusion_lat": 0.0, "lat": 38.88429266666667, "name": "66e9dcf77461365dc2029729a8a9eabd", "fusion_lon": 0.0, "bike_id": "66e9dcf77461365dc2029729a8a9eabd", "is_disabled": 0, "is_reserved": 0}, {"rental_uris": {"ios": "https://dc.lft.to/lastmile_qr_scan", "android": "https://dc.lft.to/lastmile_qr_scan"}, "lon": -77.0386615, "type": "electric_scooter", "fusion_lat": 0.0, "lat": 38.9096765, "name": "517f39b72a4811cca5eec2e038aafeb7", "fusion_lon": 0.0, "bike_id": "517f39b72a4811cca5eec2e038aafeb7", "is_disabled": 0, "is_reserved": 0}, {"rental_uris": {"ios": "https://dc.lft.to/lastmile_qr_scan", "android": "https://dc.lft.to/lastmile_qr_scan"}, "lon": -77.0213295, "type": "electric_scooter", "fusion_lat": 0.0, "lat": 38.89502233333333, "name": "dc61b70620ba571237c994e9952e92ee", "fusion_lon": 0.0, "bike_id": "dc61b70620ba571237c994e9952e92ee", "is_disabled": 0, "is_reserved": 0}, {"rental_uris": {"ios": "https://dc.lft.to/lastmile_qr_scan", "android": "https://dc.lft.to/lastmile_qr_scan"}, "lon": -76.93969266666667, "type": "electric_scooter", "fusion_lat": 0.0, "lat": 38.89968233333333, "name": "a7182bd21bfa3ccc5ef8f40020684032", "fusion_lon": 0.0, "bike_id": "a7182bd21bfa3ccc5ef8f40020684032", "is_disabled": 0, "is_reserved": 0}, {"rental_uris": {"ios": "https://dc.lft.to/lastmile_qr_scan", "android": "https://dc.lft.to/lastmile_qr_scan"}, "lon": -76.986086, "type": "electric_scooter", "fusion_lat": 0.0, "lat": 38.878421333333335, "name": "3e560418106ef798aef646fef6680088", "fusion_lon": 0.0, "bike_id": "3e560418106ef798aef646fef6680088", "is_disabled": 0, "is_reserved": 0}, {"rental_uris": {"ios": "https://dc.lft.to/lastmile_qr_scan", "android": "https://dc.lft.to/lastmile_qr_scan"}, "lon": -77.08048733333334, "type": "electric_bike", "fusion_lat": 0.0, "lat": 38.84842866666666, "name": "310b6c0eb60338647b08f56d792fd165", "fusion_lon": 0.0, "bike_id": "310b6c0eb60338647b08f56d792fd165", "is_disabled": 0, "is_reserved": 0}, {"rental_uris": {"ios": "https://dc.lft.to/lastmile_qr_scan", "android": "https://dc.lft.to/lastmile_qr_scan"}, "lon": -77.0426285, "type": "electric_bike", "fusion_lat": 0.0, "lat": 38.92282933333333, "name": "3b8fb350bf62e91ee96e26907d598f53", "fusion_lon": 0.0, "bike_id": "3b8fb350bf62e91ee96e26907d598f53", "is_disabled": 0, "is_reserved": 0}, {"rental_uris": {"ios": "https://dc.lft.to/lastmile_qr_scan", "android": "https://dc.lft.to/lastmile_qr_scan"}, "lon": -77.03210766666666, "type": "electric_scooter", "fusion_lat": 0.0, "lat": 38.92005783333333, "name": "ecc67b5eb6576070604585acdcdebc5a", "fusion_lon": 0.0, "bike_id": "ecc67b5eb6576070604585acdcdebc5a", "is_disabled": 0, "is_reserved": 0}, {"rental_uris": {"ios": "https://dc.lft.to/lastmile_qr_scan", "android": "https://dc.lft.to/lastmile_qr_scan"}, "lon": -77.02228566666666, "type": "electric_scooter", "fusion_lat": 0.0, "lat": 38.912696833333335, "name": "f6f6cb875976a72e9f087b6da4d9fbab", "fusion_lon": 0.0, "bike_id": "f6f6cb875976a72e9f087b6da4d9fbab", "is_disabled": 0, "is_reserved": 0}, {"rental_uris": {"ios": "https://dc.lft.to/lastmile_qr_scan", "android": "https://dc.lft.to/lastmile_qr_scan"}, "lon": -77.03397633333333, "type": "electric_scooter", "fusion_lat": 0.0, "lat": 38.9216475, "name": "69e5d85d1c0f20c3c20877c66ec80e83", "fusion_lon": 0.0, "bike_id": "69e5d85d1c0f20c3c20877c66ec80e83", "is_disabled": 0, "is_reserved": 0}, {"rental_uris": {"ios": "https://dc.lft.to/lastmile_qr_scan", "android": "https://dc.lft.to/lastmile_qr_scan"}, "lon": -76.98795616666666, "type": "electric_bike", "fusion_lat": 0.0, "lat": 38.90414416666667, "name": "94945c71bfd079b7c64d5c4081fe1a06", "fusion_lon": 0.0, "bike_id": "94945c71bfd079b7c64d5c4081fe1a06", "is_disabled": 0, "is_reserved": 0}, {"rental_uris": {"ios": "https://dc.lft.to/lastmile_qr_scan", "android": "https://dc.lft.to/lastmile_qr_scan"}, "lon": -76.95471583333334, "type": "electric_bike", "fusion_lat": 0.0, "lat": 38.88641883333333, "name": "6de9afa6cddefb7158bae64cdc6cc5df", "fusion_lon": 0.0, "bike_id": "6de9afa6cddefb7158bae64cdc6cc5df", "is_disabled": 0, "is_reserved": 0}, {"rental_uris": {"ios": "https://dc.lft.to/lastmile_qr_scan", "android": "https://dc.lft.to/lastmile_qr_scan"}, "lon": -77.01246433333333, "type": "electric_scooter", "fusion_lat": 0.0, "lat": 38.91708, "name": "01f6b5a8ab3c44d8c17676c37431feb0", "fusion_lon": 0.0, "bike_id": "01f6b5a8ab3c44d8c17676c37431feb0", "is_disabled": 0, "is_reserved": 0}, {"rental_uris": {"ios": "https://dc.lft.to/lastmile_qr_scan", "android": "https://dc.lft.to/lastmile_qr_scan"}, "lon": -77.00334966666667, "type": "electric_scooter", "fusion_lat": 0.0, "lat": 38.897331333333334, "name": "13712f1485265d5e39e3981e25354cf0", "fusion_lon": 0.0, "bike_id": "13712f1485265d5e39e3981e25354cf0", "is_disabled": 0, "is_reserved": 0}, {"rental_uris": {"ios": "https://dc.lft.to/lastmile_qr_scan", "android": "https://dc.lft.to/lastmile_qr_scan"}, "lon": -77.01207683333334, "type": "electric_scooter", "fusion_lat": 0.0, "lat": 38.9150175, "name": "c915f14393fe42d6aa2601c479c6e4b6", "fusion_lon": 0.0, "bike_id": "c915f14393fe42d6aa2601c479c6e4b6", "is_disabled": 0, "is_reserved": 0}, {"rental_uris": {"ios": "https://dc.lft.to/lastmile_qr_scan", "android": "https://dc.lft.to/lastmile_qr_scan"}, "lon": -77.05984333333333, "type": "electric_scooter", "fusion_lat": 0.0, "lat": 38.935499166666666, "name": "956742d3154fdecec283a5999d62700b", "fusion_lon": 0.0, "bike_id": "956742d3154fdecec283a5999d62700b", "is_disabled": 0, "is_reserved": 0}, {"rental_uris": {"ios": "https://dc.lft.to/lastmile_qr_scan", "android": "https://dc.lft.to/lastmile_qr_scan"}, "lon": -77.11801766666666, "type": "electric_bike", "fusion_lat": 0.0, "lat": 38.898357833333336, "name": "9360f1a1292676e59b0540794c648e8f", "fusion_lon": 0.0, "bike_id": "9360f1a1292676e59b0540794c648e8f", "is_disabled": 0, "is_reserved": 0}, {"rental_uris": {"ios": "https://dc.lft.to/lastmile_qr_scan", "android": "https://dc.lft.to/lastmile_qr_scan"}, "lon": -77.05211966666667, "type": "electric_scooter", "fusion_lat": 0.0, "lat": 38.89821583333333, "name": "72ce28a38b5cf146b406bcd0c596a37f", "fusion_lon": 0.0, "bike_id": "72ce28a38b5cf146b406bcd0c596a37f", "is_disabled": 0, "is_reserved": 0}, {"rental_uris": {"ios": "https://dc.lft.to/lastmile_qr_scan", "android": "https://dc.lft.to/lastmile_qr_scan"}, "lon": -77.03855883333334, "type": "electric_scooter", "fusion_lat": 0.0, "lat": 38.9264365, "name": "ed48fdadb4229b017789f9f346d5cfea", "fusion_lon": 0.0, "bike_id": "ed48fdadb4229b017789f9f346d5cfea", "is_disabled": 0, "is_reserved": 0}, {"rental_uris": {"ios": "https://dc.lft.to/lastmile_qr_scan", "android": "https://dc.lft.to/lastmile_qr_scan"}, "lon": -77.02965816666666, "type": "electric_scooter", "fusion_lat": 0.0, "lat": 38.9256655, "name": "7527de41322b81e5ec27a3b6b48b0479", "fusion_lon": 0.0, "bike_id": "7527de41322b81e5ec27a3b6b48b0479", "is_disabled": 0, "is_reserved": 0}, {"rental_uris": {"ios": "https://dc.lft.to/lastmile_qr_scan", "android": "https://dc.lft.to/lastmile_qr_scan"}, "lon": -77.02711066666667, "type": "electric_scooter", "fusion_lat": 0.0, "lat": 38.9181815, "name": "1dcc11c856736e5e090c78dccb4a2261", "fusion_lon": 0.0, "bike_id": "1dcc11c856736e5e090c78dccb4a2261", "is_disabled": 0, "is_reserved": 0}, {"rental_uris": {"ios": "https://dc.lft.to/lastmile_qr_scan", "android": "https://dc.lft.to/lastmile_qr_scan"}, "lon": -77.01517683333333, "type": "electric_scooter", "fusion_lat": 0.0, "lat": 38.887381500000004, "name": "85808f4eb15596d4e6a12e7026fcffdb", "fusion_lon": 0.0, "bike_id": "85808f4eb15596d4e6a12e7026fcffdb", "is_disabled": 0, "is_reserved": 0}, {"rental_uris": {"ios": "https://dc.lft.to/lastmile_qr_scan", "android": "https://dc.lft.to/lastmile_qr_scan"}, "lon": -77.04619916666667, "type": "electric_scooter", "fusion_lat": 0.0, "lat": 38.91911866666667, "name": "f20c73433585b327d9817666faf7c505", "fusion_lon": 0.0, "bike_id": "f20c73433585b327d9817666faf7c505", "is_disabled": 0, "is_reserved": 0}, {"rental_uris": {"ios": "https://dc.lft.to/lastmile_qr_scan", "android": "https://dc.lft.to/lastmile_qr_scan"}, "lon": -77.00943016666666, "type": "electric_scooter", "fusion_lat": 0.0, "lat": 38.8719465, "name": "f52075b06c35a1b96601746e24ffc9f8", "fusion_lon": 0.0, "bike_id": "f52075b06c35a1b96601746e24ffc9f8", "is_disabled": 0, "is_reserved": 0}, {"rental_uris": {"ios": "https://dc.lft.to/lastmile_qr_scan", "android": "https://dc.lft.to/lastmile_qr_scan"}, "lon": -76.97463983333333, "type": "electric_scooter", "fusion_lat": 0.0, "lat": 38.86540183333334, "name": "f92376e9c5cce4b571b90af25382b5ae", "fusion_lon": 0.0, "bike_id": "f92376e9c5cce4b571b90af25382b5ae", "is_disabled": 0, "is_reserved": 0}, {"rental_uris": {"ios": "https://dc.lft.to/lastmile_qr_scan", "android": "https://dc.lft.to/lastmile_qr_scan"}, "lon": -77.0320745, "type": "electric_scooter", "fusion_lat": 0.0, "lat": 38.90020583333333, "name": "6d2bcaaaa4f71d4f8f47141fae078703", "fusion_lon": 0.0, "bike_id": "6d2bcaaaa4f71d4f8f47141fae078703", "is_disabled": 0, "is_reserved": 0}, {"rental_uris": {"ios": "https://dc.lft.to/lastmile_qr_scan", "android": "https://dc.lft.to/lastmile_qr_scan"}, "lon": -76.990667, "type": "electric_scooter", "fusion_lat": 0.0, "lat": 38.863635333333335, "name": "954da3af5c6c3b1617014f86173431c7", "fusion_lon": 0.0, "bike_id": "954da3af5c6c3b1617014f86173431c7", "is_disabled": 0, "is_reserved": 0}, {"rental_uris": {"ios": "https://dc.lft.to/lastmile_qr_scan", "android": "https://dc.lft.to/lastmile_qr_scan"}, "lon": -77.017443, "type": "electric_scooter", "fusion_lat": 0.0, "lat": 38.877149333333335, "name": "316941acfbc091922cb66690ee108d1f", "fusion_lon": 0.0, "bike_id": "316941acfbc091922cb66690ee108d1f", "is_disabled": 0, "is_reserved": 0}, {"rental_uris": {"ios": "https://dc.lft.to/lastmile_qr_scan", "android": "https://dc.lft.to/lastmile_qr_scan"}, "lon": -77.03152483333334, "type": "electric_scooter", "fusion_lat": 0.0, "lat": 38.9156425, "name": "0ea19572b76061f81e78c98f437c8308", "fusion_lon": 0.0, "bike_id": "0ea19572b76061f81e78c98f437c8308", "is_disabled": 0, "is_reserved": 0}, {"rental_uris": {"ios": "https://dc.lft.to/lastmile_qr_scan", "android": "https://dc.lft.to/lastmile_qr_scan"}, "lon": -77.03291983333334, "type": "electric_scooter", "fusion_lat": 0.0, "lat": 38.92891316666667, "name": "3c1178c61d6ead8a52b5267ec4745486", "fusion_lon": 0.0, "bike_id": "3c1178c61d6ead8a52b5267ec4745486", "is_disabled": 0, "is_reserved": 0}, {"rental_uris": {"ios": "https://dc.lft.to/lastmile_qr_scan", "android": "https://dc.lft.to/lastmile_qr_scan"}, "lon": -77.0224125, "type": "electric_bike", "fusion_lat": 0.0, "lat": 38.956851666666665, "name": "f1ee01bb1b20b6342d9d141d91cce46d", "fusion_lon": 0.0, "bike_id": "f1ee01bb1b20b6342d9d141d91cce46d", "is_disabled": 0, "is_reserved": 0}, {"rental_uris": {"ios": "https://dc.lft.to/lastmile_qr_scan", "android": "https://dc.lft.to/lastmile_qr_scan"}, "lon": -77.03185316666666, "type": "electric_scooter", "fusion_lat": 0.0, "lat": 38.92961416666667, "name": "87bd7141d1f29ecaf38300d2b2207986", "fusion_lon": 0.0, "bike_id": "87bd7141d1f29ecaf38300d2b2207986", "is_disabled": 0, "is_reserved": 0}, {"rental_uris": {"ios": "https://dc.lft.to/lastmile_qr_scan", "android": "https://dc.lft.to/lastmile_qr_scan"}, "lon": -77.02600366666667, "type": "electric_scooter", "fusion_lat": 0.0, "lat": 38.916934833333336, "name": "93b2d79503f806c10ffb9c990eb66f2d", "fusion_lon": 0.0, "bike_id": "93b2d79503f806c10ffb9c990eb66f2d", "is_disabled": 0, "is_reserved": 0}, {"rental_uris": {"ios": "https://dc.lft.to/lastmile_qr_scan", "android": "https://dc.lft.to/lastmile_qr_scan"}, "lon": -77.0238305, "type": "electric_scooter", "fusion_lat": 0.0, "lat": 38.936913, "name": "1b3c1f2a8017477ef7d45d1e6503081e", "fusion_lon": 0.0, "bike_id": "1b3c1f2a8017477ef7d45d1e6503081e", "is_disabled": 0, "is_reserved": 0}, {"rental_uris": {"ios": "https://dc.lft.to/lastmile_qr_scan", "android": "https://dc.lft.to/lastmile_qr_scan"}, "lon": -77.04050483333333, "type": "electric_scooter", "fusion_lat": 0.0, "lat": 38.92471616666667, "name": "86b469357ad78c22fa238ed1dff7d692", "fusion_lon": 0.0, "bike_id": "86b469357ad78c22fa238ed1dff7d692", "is_disabled": 0, "is_reserved": 0}, {"rental_uris": {"ios": "https://dc.lft.to/lastmile_qr_scan", "android": "https://dc.lft.to/lastmile_qr_scan"}, "lon": -76.972929, "type": "electric_bike", "fusion_lat": 0.0, "lat": 38.91971233333334, "name": "e2b22e34c8adcdef961ecb3fd940938f", "fusion_lon": 0.0, "bike_id": "e2b22e34c8adcdef961ecb3fd940938f", "is_disabled": 0, "is_reserved": 0}, {"rental_uris": {"ios": "https://dc.lft.to/lastmile_qr_scan", "android": "https://dc.lft.to/lastmile_qr_scan"}, "lon": -76.99002916666667, "type": "electric_scooter", "fusion_lat": 0.0, "lat": 38.8650185, "name": "fa6cc64dc534b8ebd750295c05530016", "fusion_lon": 0.0, "bike_id": "fa6cc64dc534b8ebd750295c05530016", "is_disabled": 0, "is_reserved": 0}, {"rental_uris": {"ios": "https://dc.lft.to/lastmile_qr_scan", "android": "https://dc.lft.to/lastmile_qr_scan"}, "lon": -77.07281183333333, "type": "electric_scooter", "fusion_lat": 0.0, "lat": 38.9354625, "name": "3a414b3a430565c7afcfa348f525c36a", "fusion_lon": 0.0, "bike_id": "3a414b3a430565c7afcfa348f525c36a", "is_disabled": 0, "is_reserved": 0}, {"rental_uris": {"ios": "https://dc.lft.to/lastmile_qr_scan", "android": "https://dc.lft.to/lastmile_qr_scan"}, "lon": -77.11061833333333, "type": "electric_bike", "fusion_lat": 0.0, "lat": 38.870740166666664, "name": "b6f39cea6a61563a6527303f854cf92b", "fusion_lon": 0.0, "bike_id": "b6f39cea6a61563a6527303f854cf92b", "is_disabled": 0, "is_reserved": 0}, {"rental_uris": {"ios": "https://dc.lft.to/lastmile_qr_scan", "android": "https://dc.lft.to/lastmile_qr_scan"}, "lon": -76.9802225, "type": "electric_scooter", "fusion_lat": 0.0, "lat": 38.8876295, "name": "e018f2fb0f56f76c4435b221267207d2", "fusion_lon": 0.0, "bike_id": "e018f2fb0f56f76c4435b221267207d2", "is_disabled": 0, "is_reserved": 0}, {"rental_uris": {"ios": "https://dc.lft.to/lastmile_qr_scan", "android": "https://dc.lft.to/lastmile_qr_scan"}, "lon": -77.0298385, "type": "electric_scooter", "fusion_lat": 0.0, "lat": 38.90734466666667, "name": "1381161d1b61da6ed7a0693209aaba82", "fusion_lon": 0.0, "bike_id": "1381161d1b61da6ed7a0693209aaba82", "is_disabled": 0, "is_reserved": 0}, {"rental_uris": {"ios": "https://dc.lft.to/lastmile_qr_scan", "android": "https://dc.lft.to/lastmile_qr_scan"}, "lon": -77.00737, "type": "electric_scooter", "fusion_lat": 0.0, "lat": 38.916238666666665, "name": "14dd0a29cb088cef1e53d3b1b945d1b9", "fusion_lon": 0.0, "bike_id": "14dd0a29cb088cef1e53d3b1b945d1b9", "is_disabled": 0, "is_reserved": 0}, {"rental_uris": {"ios": "https://dc.lft.to/lastmile_qr_scan", "android": "https://dc.lft.to/lastmile_qr_scan"}, "lon": -77.00198683333333, "type": "electric_bike", "fusion_lat": 0.0, "lat": 38.94149066666667, "name": "28ea11d24482a385aefc7f57a685f0cb", "fusion_lon": 0.0, "bike_id": "28ea11d24482a385aefc7f57a685f0cb", "is_disabled": 0, "is_reserved": 0}, {"rental_uris": {"ios": "https://dc.lft.to/lastmile_qr_scan", "android": "https://dc.lft.to/lastmile_qr_scan"}, "lon": -76.97986816666666, "type": "electric_bike", "fusion_lat": 0.0, "lat": 38.877549333333334, "name": "ad8447d593f77b48e7584c0f53ad72e7", "fusion_lon": 0.0, "bike_id": "ad8447d593f77b48e7584c0f53ad72e7", "is_disabled": 0, "is_reserved": 0}, {"rental_uris": {"ios": "https://dc.lft.to/lastmile_qr_scan", "android": "https://dc.lft.to/lastmile_qr_scan"}, "lon": -77.36097166666667, "type": "electric_bike", "fusion_lat": 0.0, "lat": 38.9396195, "name": "1a75ffb0a52b9ca12e537a3cd7ccdb76", "fusion_lon": 0.0, "bike_id": "1a75ffb0a52b9ca12e537a3cd7ccdb76", "is_disabled": 0, "is_reserved": 0}, {"rental_uris": {"ios": "https://dc.lft.to/lastmile_qr_scan", "android": "https://dc.lft.to/lastmile_qr_scan"}, "lon": -77.01767383333333, "type": "electric_scooter", "fusion_lat": 0.0, "lat": 38.887328333333336, "name": "50649a2ea0ff55de41f4f6e0ddea12b7", "fusion_lon": 0.0, "bike_id": "50649a2ea0ff55de41f4f6e0ddea12b7", "is_disabled": 0, "is_reserved": 0}, {"rental_uris": {"ios": "https://dc.lft.to/lastmile_qr_scan", "android": "https://dc.lft.to/lastmile_qr_scan"}, "lon": -77.02822716666667, "type": "electric_scooter", "fusion_lat": 0.0, "lat": 38.898307, "name": "a3f17d12204beadca3793bb40c9e4f7f", "fusion_lon": 0.0, "bike_id": "a3f17d12204beadca3793bb40c9e4f7f", "is_disabled": 0, "is_reserved": 0}, {"rental_uris": {"ios": "https://dc.lft.to/lastmile_qr_scan", "android": "https://dc.lft.to/lastmile_qr_scan"}, "lon": -77.027191, "type": "electric_scooter", "fusion_lat": 0.0, "lat": 38.909696333333336, "name": "3c2fd06267262eea31026b3eedd957ad", "fusion_lon": 0.0, "bike_id": "3c2fd06267262eea31026b3eedd957ad", "is_disabled": 0, "is_reserved": 0}, {"rental_uris": {"ios": "https://dc.lft.to/lastmile_qr_scan", "android": "https://dc.lft.to/lastmile_qr_scan"}, "lon": -77.05333833333333, "type": "electric_scooter", "fusion_lat": 0.0, "lat": 38.900207333333334, "name": "bbbf23129a7275b9910337f1f29f3434", "fusion_lon": 0.0, "bike_id": "bbbf23129a7275b9910337f1f29f3434", "is_disabled": 0, "is_reserved": 0}, {"rental_uris": {"ios": "https://dc.lft.to/lastmile_qr_scan", "android": "https://dc.lft.to/lastmile_qr_scan"}, "lon": -77.04102, "type": "electric_scooter", "fusion_lat": 0.0, "lat": 38.9177655, "name": "6d1aa0452e9bcbd054ca9b0825b28de6", "fusion_lon": 0.0, "bike_id": "6d1aa0452e9bcbd054ca9b0825b28de6", "is_disabled": 0, "is_reserved": 0}, {"rental_uris": {"ios": "https://dc.lft.to/lastmile_qr_scan", "android": "https://dc.lft.to/lastmile_qr_scan"}, "lon": -77.02101233333333, "type": "electric_scooter", "fusion_lat": 0.0, "lat": 38.91010683333333, "name": "ef1db2a1a76bc94e47c5d1a7fe949abe", "fusion_lon": 0.0, "bike_id": "ef1db2a1a76bc94e47c5d1a7fe949abe", "is_disabled": 0, "is_reserved": 0}, {"rental_uris": {"ios": "https://dc.lft.to/lastmile_qr_scan", "android": "https://dc.lft.to/lastmile_qr_scan"}, "lon": -77.03376466666667, "type": "electric_scooter", "fusion_lat": 0.0, "lat": 38.89945866666667, "name": "93223d0147ae5b85584d3b7c4aaef816", "fusion_lon": 0.0, "bike_id": "93223d0147ae5b85584d3b7c4aaef816", "is_disabled": 0, "is_reserved": 0}, {"rental_uris": {"ios": "https://dc.lft.to/lastmile_qr_scan", "android": "https://dc.lft.to/lastmile_qr_scan"}, "lon": -77.04022933333333, "type": "electric_scooter", "fusion_lat": 0.0, "lat": 38.900437, "name": "96f751f495eadb73e45d57c3202ec5c1", "fusion_lon": 0.0, "bike_id": "96f751f495eadb73e45d57c3202ec5c1", "is_disabled": 0, "is_reserved": 0}, {"rental_uris": {"ios": "https://dc.lft.to/lastmile_qr_scan", "android": "https://dc.lft.to/lastmile_qr_scan"}, "lon": -77.1499725, "type": "electric_bike", "fusion_lat": 0.0, "lat": 39.09461983333333, "name": "130a573da3c56ea939cb09026f0640d6", "fusion_lon": 0.0, "bike_id": "130a573da3c56ea939cb09026f0640d6", "is_disabled": 0, "is_reserved": 0}, {"rental_uris": {"ios": "https://dc.lft.to/lastmile_qr_scan", "android": "https://dc.lft.to/lastmile_qr_scan"}, "lon": -77.04718383333334, "type": "electric_scooter", "fusion_lat": 0.0, "lat": 38.916690333333335, "name": "45632d8dda5ec43c2c94753c9186f041", "fusion_lon": 0.0, "bike_id": "45632d8dda5ec43c2c94753c9186f041", "is_disabled": 0, "is_reserved": 0}, {"rental_uris": {"ios": "https://dc.lft.to/lastmile_qr_scan", "android": "https://dc.lft.to/lastmile_qr_scan"}, "lon": -77.04622116666667, "type": "electric_scooter", "fusion_lat": 0.0, "lat": 38.91917766666667, "name": "998c36600710458578ba746d0dfca75f", "fusion_lon": 0.0, "bike_id": "998c36600710458578ba746d0dfca75f", "is_disabled": 0, "is_reserved": 0}, {"rental_uris": {"ios": "https://dc.lft.to/lastmile_qr_scan", "android": "https://dc.lft.to/lastmile_qr_scan"}, "lon": -77.19908416666667, "type": "electric_bike", "fusion_lat": 0.0, "lat": 38.87531366666666, "name": "d98eb22dea5535a7074f4b2b92e69cb5", "fusion_lon": 0.0, "bike_id": "d98eb22dea5535a7074f4b2b92e69cb5", "is_disabled": 0, "is_reserved": 0}, {"rental_uris": {"ios": "https://dc.lft.to/lastmile_qr_scan", "android": "https://dc.lft.to/lastmile_qr_scan"}, "lon": -77.00597666666667, "type": "electric_scooter", "fusion_lat": 0.0, "lat": 38.87875583333334, "name": "3b3aca397f92ef1a5fd46d16ea40e734", "fusion_lon": 0.0, "bike_id": "3b3aca397f92ef1a5fd46d16ea40e734", "is_disabled": 0, "is_reserved": 0}, {"rental_uris": {"ios": "https://dc.lft.to/lastmile_qr_scan", "android": "https://dc.lft.to/lastmile_qr_scan"}, "lon": -76.933669, "type": "electric_scooter", "fusion_lat": 0.0, "lat": 38.89918466666666, "name": "98b9610b71210a225012d788e32b758a", "fusion_lon": 0.0, "bike_id": "98b9610b71210a225012d788e32b758a", "is_disabled": 0, "is_reserved": 0}, {"rental_uris": {"ios": "https://dc.lft.to/lastmile_qr_scan", "android": "https://dc.lft.to/lastmile_qr_scan"}, "lon": -76.99793116666666, "type": "electric_scooter", "fusion_lat": 0.0, "lat": 38.9217945, "name": "de548513a76520ee93de03f173bf8c1f", "fusion_lon": 0.0, "bike_id": "de548513a76520ee93de03f173bf8c1f", "is_disabled": 0, "is_reserved": 0}, {"rental_uris": {"ios": "https://dc.lft.to/lastmile_qr_scan", "android": "https://dc.lft.to/lastmile_qr_scan"}, "lon": -76.99500233333333, "type": "electric_bike", "fusion_lat": 0.0, "lat": 39.00005083333333, "name": "e89ebe762e033c18b00a9544a4a2d173", "fusion_lon": 0.0, "bike_id": "e89ebe762e033c18b00a9544a4a2d173", "is_disabled": 0, "is_reserved": 0}, {"rental_uris": {"ios": "https://dc.lft.to/lastmile_qr_scan", "android": "https://dc.lft.to/lastmile_qr_scan"}, "lon": -77.005159, "type": "electric_scooter", "fusion_lat": 0.0, "lat": 38.91712066666667, "name": "ff91c79b8ff0161ff53a4aaade8b2428", "fusion_lon": 0.0, "bike_id": "ff91c79b8ff0161ff53a4aaade8b2428", "is_disabled": 0, "is_reserved": 0}, {"rental_uris": {"ios": "https://dc.lft.to/lastmile_qr_scan", "android": "https://dc.lft.to/lastmile_qr_scan"}, "lon": -77.04379616666667, "type": "electric_scooter", "fusion_lat": 0.0, "lat": 38.90070583333333, "name": "20966bfe424f1a412d150e02421e4bd7", "fusion_lon": 0.0, "bike_id": "20966bfe424f1a412d150e02421e4bd7", "is_disabled": 0, "is_reserved": 0}, {"rental_uris": {"ios": "https://dc.lft.to/lastmile_qr_scan", "android": "https://dc.lft.to/lastmile_qr_scan"}, "lon": -77.05154116666667, "type": "electric_scooter", "fusion_lat": 0.0, "lat": 38.901095833333336, "name": "67f37147dc5eb20c5e6cb4e93ea6ae43", "fusion_lon": 0.0, "bike_id": "67f37147dc5eb20c5e6cb4e93ea6ae43", "is_disabled": 0, "is_reserved": 0}, {"rental_uris": {"ios": "https://dc.lft.to/lastmile_qr_scan", "android": "https://dc.lft.to/lastmile_qr_scan"}, "lon": -76.99984516666666, "type": "electric_scooter", "fusion_lat": 0.0, "lat": 38.838362000000004, "name": "871db9a5fe9f3eedef32d3ff309cdc29", "fusion_lon": 0.0, "bike_id": "871db9a5fe9f3eedef32d3ff309cdc29", "is_disabled": 0, "is_reserved": 0}, {"rental_uris": {"ios": "https://dc.lft.to/lastmile_qr_scan", "android": "https://dc.lft.to/lastmile_qr_scan"}, "lon": -77.06988233333334, "type": "electric_scooter", "fusion_lat": 0.0, "lat": 38.95484733333333, "name": "e60243258400ad59264b03fa85d95dbc", "fusion_lon": 0.0, "bike_id": "e60243258400ad59264b03fa85d95dbc", "is_disabled": 0, "is_reserved": 0}, {"rental_uris": {"ios": "https://dc.lft.to/lastmile_qr_scan", "android": "https://dc.lft.to/lastmile_qr_scan"}, "lon": -77.06327233333333, "type": "electric_scooter", "fusion_lat": 0.0, "lat": 38.907683666666664, "name": "261f1812b25107314d19edb470a2d1f6", "fusion_lon": 0.0, "bike_id": "261f1812b25107314d19edb470a2d1f6", "is_disabled": 0, "is_reserved": 0}, {"rental_uris": {"ios": "https://dc.lft.to/lastmile_qr_scan", "android": "https://dc.lft.to/lastmile_qr_scan"}, "lon": -77.06610066666667, "type": "electric_bike", "fusion_lat": 0.0, "lat": 38.911249166666664, "name": "152a1e26e721fd2fff3fe55a9d180f29", "fusion_lon": 0.0, "bike_id": "152a1e26e721fd2fff3fe55a9d180f29", "is_disabled": 0, "is_reserved": 0}, {"rental_uris": {"ios": "https://dc.lft.to/lastmile_qr_scan", "android": "https://dc.lft.to/lastmile_qr_scan"}, "lon": -77.02960483333334, "type": "electric_scooter", "fusion_lat": 0.0, "lat": 38.9051855, "name": "e6dd2b6269b40cf194c4f3307e2b1cc0", "fusion_lon": 0.0, "bike_id": "e6dd2b6269b40cf194c4f3307e2b1cc0", "is_disabled": 0, "is_reserved": 0}, {"rental_uris": {"ios": "https://dc.lft.to/lastmile_qr_scan", "android": "https://dc.lft.to/lastmile_qr_scan"}, "lon": -77.04710966666667, "type": "electric_scooter", "fusion_lat": 0.0, "lat": 38.90862216666667, "name": "0f471e8c4204ff1cfca52cb87469ecf0", "fusion_lon": 0.0, "bike_id": "0f471e8c4204ff1cfca52cb87469ecf0", "is_disabled": 0, "is_reserved": 0}, {"rental_uris": {"ios": "https://dc.lft.to/lastmile_qr_scan", "android": "https://dc.lft.to/lastmile_qr_scan"}, "lon": -77.02852483333334, "type": "electric_scooter", "fusion_lat": 0.0, "lat": 38.923806666666664, "name": "c3f36dcb3dadbf3d66bd2b0ca9dfa7bf", "fusion_lon": 0.0, "bike_id": "c3f36dcb3dadbf3d66bd2b0ca9dfa7bf", "is_disabled": 0, "is_reserved": 0}, {"rental_uris": {"ios": "https://dc.lft.to/lastmile_qr_scan", "android": "https://dc.lft.to/lastmile_qr_scan"}, "lon": -77.03867533333333, "type": "electric_scooter", "fusion_lat": 0.0, "lat": 38.91566266666667, "name": "4f0f935ca753197d1c03d4da93215a22", "fusion_lon": 0.0, "bike_id": "4f0f935ca753197d1c03d4da93215a22", "is_disabled": 0, "is_reserved": 0}, {"rental_uris": {"ios": "https://dc.lft.to/lastmile_qr_scan", "android": "https://dc.lft.to/lastmile_qr_scan"}, "lon": -77.00920566666667, "type": "electric_scooter", "fusion_lat": 0.0, "lat": 38.912398, "name": "5622734590bae9de60097ce210a3c2f1", "fusion_lon": 0.0, "bike_id": "5622734590bae9de60097ce210a3c2f1", "is_disabled": 0, "is_reserved": 0}, {"rental_uris": {"ios": "https://dc.lft.to/lastmile_qr_scan", "android": "https://dc.lft.to/lastmile_qr_scan"}, "lon": -77.06697733333333, "type": "electric_scooter", "fusion_lat": 0.0, "lat": 38.90976583333333, "name": "dcbdf988fca72ad50e21b4f9bf81820c", "fusion_lon": 0.0, "bike_id": "dcbdf988fca72ad50e21b4f9bf81820c", "is_disabled": 0, "is_reserved": 0}, {"rental_uris": {"ios": "https://dc.lft.to/lastmile_qr_scan", "android": "https://dc.lft.to/lastmile_qr_scan"}, "lon": -76.990353, "type": "electric_scooter", "fusion_lat": 0.0, "lat": 38.85868416666667, "name": "a0374b7ac4a639381c5dd48b02a479f0", "fusion_lon": 0.0, "bike_id": "a0374b7ac4a639381c5dd48b02a479f0", "is_disabled": 0, "is_reserved": 0}, {"rental_uris": {"ios": "https://dc.lft.to/lastmile_qr_scan", "android": "https://dc.lft.to/lastmile_qr_scan"}, "lon": -76.97613033333333, "type": "electric_bike", "fusion_lat": 0.0, "lat": 38.91310716666667, "name": "c2f80b7d2af212f99e4f74faa3eaaec7", "fusion_lon": 0.0, "bike_id": "c2f80b7d2af212f99e4f74faa3eaaec7", "is_disabled": 0, "is_reserved": 0}, {"rental_uris": {"ios": "https://dc.lft.to/lastmile_qr_scan", "android": "https://dc.lft.to/lastmile_qr_scan"}, "lon": -77.03963283333333, "type": "electric_scooter", "fusion_lat": 0.0, "lat": 38.916257333333334, "name": "7d7c39fbebb3112f6a1a7970705d2ec6", "fusion_lon": 0.0, "bike_id": "7d7c39fbebb3112f6a1a7970705d2ec6", "is_disabled": 0, "is_reserved": 0}, {"rental_uris": {"ios": "https://dc.lft.to/lastmile_qr_scan", "android": "https://dc.lft.to/lastmile_qr_scan"}, "lon": -77.0253285, "type": "electric_scooter", "fusion_lat": 0.0, "lat": 38.942981, "name": "e8e270ce626ecdaf14ac1faf5c50d838", "fusion_lon": 0.0, "bike_id": "e8e270ce626ecdaf14ac1faf5c50d838", "is_disabled": 0, "is_reserved": 0}, {"rental_uris": {"ios": "https://dc.lft.to/lastmile_qr_scan", "android": "https://dc.lft.to/lastmile_qr_scan"}, "lon": -76.97883333333333, "type": "electric_scooter", "fusion_lat": 0.0, "lat": 38.8876685, "name": "4ae2e60fc1c47178facae4562398415c", "fusion_lon": 0.0, "bike_id": "4ae2e60fc1c47178facae4562398415c", "is_disabled": 0, "is_reserved": 0}, {"rental_uris": {"ios": "https://dc.lft.to/lastmile_qr_scan", "android": "https://dc.lft.to/lastmile_qr_scan"}, "lon": -77.0382775, "type": "electric_scooter", "fusion_lat": 0.0, "lat": 38.898816, "name": "90b90b90cd88f5d445264be3dd41c05d", "fusion_lon": 0.0, "bike_id": "90b90b90cd88f5d445264be3dd41c05d", "is_disabled": 0, "is_reserved": 0}, {"rental_uris": {"ios": "https://dc.lft.to/lastmile_qr_scan", "android": "https://dc.lft.to/lastmile_qr_scan"}, "lon": -77.03809266666667, "type": "electric_scooter", "fusion_lat": 0.0, "lat": 38.93401633333333, "name": "bc518e85a2f1b249b19557835ec4ecb3", "fusion_lon": 0.0, "bike_id": "bc518e85a2f1b249b19557835ec4ecb3", "is_disabled": 0, "is_reserved": 0}, {"rental_uris": {"ios": "https://dc.lft.to/lastmile_qr_scan", "android": "https://dc.lft.to/lastmile_qr_scan"}, "lon": -76.95097516666667, "type": "electric_scooter", "fusion_lat": 0.0, "lat": 38.884541, "name": "45b761f9537ad8496f0973ecde26a2e2", "fusion_lon": 0.0, "bike_id": "45b761f9537ad8496f0973ecde26a2e2", "is_disabled": 0, "is_reserved": 0}, {"rental_uris": {"ios": "https://dc.lft.to/lastmile_qr_scan", "android": "https://dc.lft.to/lastmile_qr_scan"}, "lon": -77.00481066666667, "type": "electric_scooter", "fusion_lat": 0.0, "lat": 38.944054666666666, "name": "3b73a87ed9446a05a791dfa0c41f3f7c", "fusion_lon": 0.0, "bike_id": "3b73a87ed9446a05a791dfa0c41f3f7c", "is_disabled": 0, "is_reserved": 0}, {"rental_uris": {"ios": "https://dc.lft.to/lastmile_qr_scan", "android": "https://dc.lft.to/lastmile_qr_scan"}, "lon": -77.02171833333334, "type": "electric_scooter", "fusion_lat": 0.0, "lat": 38.9429945, "name": "92c1c56e15ae13b7669fd7cbc3dcb086", "fusion_lon": 0.0, "bike_id": "92c1c56e15ae13b7669fd7cbc3dcb086", "is_disabled": 0, "is_reserved": 0}, {"rental_uris": {"ios": "https://dc.lft.to/lastmile_qr_scan", "android": "https://dc.lft.to/lastmile_qr_scan"}, "lon": -76.98978833333334, "type": "electric_scooter", "fusion_lat": 0.0, "lat": 38.85915633333333, "name": "8b017af35f380372b2d76e9f12aca122", "fusion_lon": 0.0, "bike_id": "8b017af35f380372b2d76e9f12aca122", "is_disabled": 0, "is_reserved": 0}, {"rental_uris": {"ios": "https://dc.lft.to/lastmile_qr_scan", "android": "https://dc.lft.to/lastmile_qr_scan"}, "lon": -76.95001933333333, "type": "electric_scooter", "fusion_lat": 0.0, "lat": 38.893735666666664, "name": "98957b35d88020dee8b96ebc92035fe7", "fusion_lon": 0.0, "bike_id": "98957b35d88020dee8b96ebc92035fe7", "is_disabled": 0, "is_reserved": 0}, {"rental_uris": {"ios": "https://dc.lft.to/lastmile_qr_scan", "android": "https://dc.lft.to/lastmile_qr_scan"}, "lon": -77.0366235, "type": "electric_scooter", "fusion_lat": 0.0, "lat": 38.902828166666666, "name": "719f03092ac01f85b1ef0a86167b7ce7", "fusion_lon": 0.0, "bike_id": "719f03092ac01f85b1ef0a86167b7ce7", "is_disabled": 0, "is_reserved": 0}, {"rental_uris": {"ios": "https://dc.lft.to/lastmile_qr_scan", "android": "https://dc.lft.to/lastmile_qr_scan"}, "lon": -77.01782033333333, "type": "electric_scooter", "fusion_lat": 0.0, "lat": 38.877008333333336, "name": "cd725017644b0cf6e679ee87c05e5021", "fusion_lon": 0.0, "bike_id": "cd725017644b0cf6e679ee87c05e5021", "is_disabled": 0, "is_reserved": 0}, {"rental_uris": {"ios": "https://dc.lft.to/lastmile_qr_scan", "android": "https://dc.lft.to/lastmile_qr_scan"}, "lon": -77.01221166666667, "type": "electric_scooter", "fusion_lat": 0.0, "lat": 38.912683, "name": "555b90a6ad92a875b643c62bb8774d8f", "fusion_lon": 0.0, "bike_id": "555b90a6ad92a875b643c62bb8774d8f", "is_disabled": 0, "is_reserved": 0}, {"rental_uris": {"ios": "https://dc.lft.to/lastmile_qr_scan", "android": "https://dc.lft.to/lastmile_qr_scan"}, "lon": -76.96529016666666, "type": "electric_bike", "fusion_lat": 0.0, "lat": 38.8749025, "name": "9930a4bbc66d6575e8b3926e63fb2ad1", "fusion_lon": 0.0, "bike_id": "9930a4bbc66d6575e8b3926e63fb2ad1", "is_disabled": 0, "is_reserved": 0}, {"rental_uris": {"ios": "https://dc.lft.to/lastmile_qr_scan", "android": "https://dc.lft.to/lastmile_qr_scan"}, "lon": -77.01769166666666, "type": "electric_scooter", "fusion_lat": 0.0, "lat": 38.8872905, "name": "36ab11faca514e424cad9d4d8070f257", "fusion_lon": 0.0, "bike_id": "36ab11faca514e424cad9d4d8070f257", "is_disabled": 0, "is_reserved": 0}, {"rental_uris": {"ios": "https://dc.lft.to/lastmile_qr_scan", "android": "https://dc.lft.to/lastmile_qr_scan"}, "lon": -77.0386895, "type": "electric_scooter", "fusion_lat": 0.0, "lat": 38.903121166666665, "name": "db1d5aa063e4a81c4d57c79dafc3bd2b", "fusion_lon": 0.0, "bike_id": "db1d5aa063e4a81c4d57c79dafc3bd2b", "is_disabled": 0, "is_reserved": 0}, {"rental_uris": {"ios": "https://dc.lft.to/lastmile_qr_scan", "android": "https://dc.lft.to/lastmile_qr_scan"}, "lon": -77.02714483333334, "type": "electric_scooter", "fusion_lat": 0.0, "lat": 38.906917166666666, "name": "ef00b4a6472fdc1e2cb3363127bb4588", "fusion_lon": 0.0, "bike_id": "ef00b4a6472fdc1e2cb3363127bb4588", "is_disabled": 0, "is_reserved": 0}, {"rental_uris": {"ios": "https://dc.lft.to/lastmile_qr_scan", "android": "https://dc.lft.to/lastmile_qr_scan"}, "lon": -77.02614233333334, "type": "electric_scooter", "fusion_lat": 0.0, "lat": 38.916929833333334, "name": "688aacc72e773bc31b9c5fceb1e83980", "fusion_lon": 0.0, "bike_id": "688aacc72e773bc31b9c5fceb1e83980", "is_disabled": 0, "is_reserved": 0}, {"rental_uris": {"ios": "https://dc.lft.to/lastmile_qr_scan", "android": "https://dc.lft.to/lastmile_qr_scan"}, "lon": -77.02207466666667, "type": "electric_scooter", "fusion_lat": 0.0, "lat": 38.90973733333333, "name": "6adcafbabf230c1b5a414b0d931877ef", "fusion_lon": 0.0, "bike_id": "6adcafbabf230c1b5a414b0d931877ef", "is_disabled": 0, "is_reserved": 0}, {"rental_uris": {"ios": "https://dc.lft.to/lastmile_qr_scan", "android": "https://dc.lft.to/lastmile_qr_scan"}, "lon": -77.0268475, "type": "electric_scooter", "fusion_lat": 0.0, "lat": 38.90714, "name": "62a1a510be99579bc7f0743f8d2b33cf", "fusion_lon": 0.0, "bike_id": "62a1a510be99579bc7f0743f8d2b33cf", "is_disabled": 0, "is_reserved": 0}, {"rental_uris": {"ios": "https://dc.lft.to/lastmile_qr_scan", "android": "https://dc.lft.to/lastmile_qr_scan"}, "lon": -77.030059, "type": "electric_scooter", "fusion_lat": 0.0, "lat": 38.9125475, "name": "2c9a870b19dca5f69d16d74882eee136", "fusion_lon": 0.0, "bike_id": "2c9a870b19dca5f69d16d74882eee136", "is_disabled": 0, "is_reserved": 0}, {"rental_uris": {"ios": "https://dc.lft.to/lastmile_qr_scan", "android": "https://dc.lft.to/lastmile_qr_scan"}, "lon": -77.06884416666666, "type": "electric_scooter", "fusion_lat": 0.0, "lat": 38.907681833333335, "name": "cbd8ac1c1f67c0d5befd82cc720554cb", "fusion_lon": 0.0, "bike_id": "cbd8ac1c1f67c0d5befd82cc720554cb", "is_disabled": 0, "is_reserved": 0}, {"rental_uris": {"ios": "https://dc.lft.to/lastmile_qr_scan", "android": "https://dc.lft.to/lastmile_qr_scan"}, "lon": -77.0268085, "type": "electric_scooter", "fusion_lat": 0.0, "lat": 38.89597716666667, "name": "d2921829fa1720142bf83082eba8c1e2", "fusion_lon": 0.0, "bike_id": "d2921829fa1720142bf83082eba8c1e2", "is_disabled": 0, "is_reserved": 0}, {"rental_uris": {"ios": "https://dc.lft.to/lastmile_qr_scan", "android": "https://dc.lft.to/lastmile_qr_scan"}, "lon": -76.98885483333333, "type": "electric_scooter", "fusion_lat": 0.0, "lat": 38.866606, "name": "016519786138805622b8ef761b196773", "fusion_lon": 0.0, "bike_id": "016519786138805622b8ef761b196773", "is_disabled": 0, "is_reserved": 0}, {"rental_uris": {"ios": "https://dc.lft.to/lastmile_qr_scan", "android": "https://dc.lft.to/lastmile_qr_scan"}, "lon": -76.997766, "type": "electric_bike", "fusion_lat": 0.0, "lat": 38.92277166666667, "name": "1623616fe6ab4346e4a486d1816f0c8a", "fusion_lon": 0.0, "bike_id": "1623616fe6ab4346e4a486d1816f0c8a", "is_disabled": 0, "is_reserved": 0}, {"rental_uris": {"ios": "https://dc.lft.to/lastmile_qr_scan", "android": "https://dc.lft.to/lastmile_qr_scan"}, "lon": -76.93180416666667, "type": "electric_scooter", "fusion_lat": 0.0, "lat": 38.89886283333333, "name": "10b091f152bb61919ce6a0631af88f24", "fusion_lon": 0.0, "bike_id": "10b091f152bb61919ce6a0631af88f24", "is_disabled": 0, "is_reserved": 0}, {"rental_uris": {"ios": "https://dc.lft.to/lastmile_qr_scan", "android": "https://dc.lft.to/lastmile_qr_scan"}, "lon": -77.11317466666667, "type": "electric_bike", "fusion_lat": 0.0, "lat": 38.855648333333335, "name": "71ce64ae6ad32d1927117280163e13fd", "fusion_lon": 0.0, "bike_id": "71ce64ae6ad32d1927117280163e13fd", "is_disabled": 0, "is_reserved": 0}, {"rental_uris": {"ios": "https://dc.lft.to/lastmile_qr_scan", "android": "https://dc.lft.to/lastmile_qr_scan"}, "lon": -77.02980983333333, "type": "electric_scooter", "fusion_lat": 0.0, "lat": 38.93881616666667, "name": "eb1384c9fd3031902fff332bdbe48c69", "fusion_lon": 0.0, "bike_id": "eb1384c9fd3031902fff332bdbe48c69", "is_disabled": 0, "is_reserved": 0}, {"rental_uris": {"ios": "https://dc.lft.to/lastmile_qr_scan", "android": "https://dc.lft.to/lastmile_qr_scan"}, "lon": -77.00226166666667, "type": "electric_scooter", "fusion_lat": 0.0, "lat": 38.90038333333333, "name": "50bf46ce0fda1bee19a2b47377d3ed50", "fusion_lon": 0.0, "bike_id": "50bf46ce0fda1bee19a2b47377d3ed50", "is_disabled": 0, "is_reserved": 0}, {"rental_uris": {"ios": "https://dc.lft.to/lastmile_qr_scan", "android": "https://dc.lft.to/lastmile_qr_scan"}, "lon": -77.03062883333334, "type": "electric_scooter", "fusion_lat": 0.0, "lat": 38.897491, "name": "842ba9f1f833e629a44b7512d5dd1eeb", "fusion_lon": 0.0, "bike_id": "842ba9f1f833e629a44b7512d5dd1eeb", "is_disabled": 0, "is_reserved": 0}, {"rental_uris": {"ios": "https://dc.lft.to/lastmile_qr_scan", "android": "https://dc.lft.to/lastmile_qr_scan"}, "lon": -77.0118455, "type": "electric_scooter", "fusion_lat": 0.0, "lat": 38.911098333333335, "name": "af86285539f6cf77c19236a19d56f127", "fusion_lon": 0.0, "bike_id": "af86285539f6cf77c19236a19d56f127", "is_disabled": 0, "is_reserved": 0}, {"rental_uris": {"ios": "https://dc.lft.to/lastmile_qr_scan", "android": "https://dc.lft.to/lastmile_qr_scan"}, "lon": -77.04073066666666, "type": "electric_scooter", "fusion_lat": 0.0, "lat": 38.923877833333336, "name": "7406685b7eb69cd32ff1e9f3cc501b8a", "fusion_lon": 0.0, "bike_id": "7406685b7eb69cd32ff1e9f3cc501b8a", "is_disabled": 0, "is_reserved": 0}, {"rental_uris": {"ios": "https://dc.lft.to/lastmile_qr_scan", "android": "https://dc.lft.to/lastmile_qr_scan"}, "lon": -77.07087416666667, "type": "electric_bike", "fusion_lat": 0.0, "lat": 38.955561833333334, "name": "c55f4070a62e3675a2426f6ecbf3f8f0", "fusion_lon": 0.0, "bike_id": "c55f4070a62e3675a2426f6ecbf3f8f0", "is_disabled": 0, "is_reserved": 0}, {"rental_uris": {"ios": "https://dc.lft.to/lastmile_qr_scan", "android": "https://dc.lft.to/lastmile_qr_scan"}, "lon": -77.04445833333334, "type": "electric_scooter", "fusion_lat": 0.0, "lat": 38.918775, "name": "36ff1cc9852e8e7c6ae07523d7231277", "fusion_lon": 0.0, "bike_id": "36ff1cc9852e8e7c6ae07523d7231277", "is_disabled": 0, "is_reserved": 0}, {"rental_uris": {"ios": "https://dc.lft.to/lastmile_qr_scan", "android": "https://dc.lft.to/lastmile_qr_scan"}, "lon": -76.97671433333333, "type": "electric_bike", "fusion_lat": 0.0, "lat": 38.96623183333333, "name": "76d9e9474e872e6696a731fed235d6dc", "fusion_lon": 0.0, "bike_id": "76d9e9474e872e6696a731fed235d6dc", "is_disabled": 0, "is_reserved": 0}, {"rental_uris": {"ios": "https://dc.lft.to/lastmile_qr_scan", "android": "https://dc.lft.to/lastmile_qr_scan"}, "lon": -77.04190716666666, "type": "electric_scooter", "fusion_lat": 0.0, "lat": 38.92049333333333, "name": "e16b737b69a79b8eaa1a7451f1e310bb", "fusion_lon": 0.0, "bike_id": "e16b737b69a79b8eaa1a7451f1e310bb", "is_disabled": 0, "is_reserved": 0}, {"rental_uris": {"ios": "https://dc.lft.to/lastmile_qr_scan", "android": "https://dc.lft.to/lastmile_qr_scan"}, "lon": -77.03839966666666, "type": "electric_scooter", "fusion_lat": 0.0, "lat": 38.907606333333334, "name": "074b9c478afe81d39249af42cb49a547", "fusion_lon": 0.0, "bike_id": "074b9c478afe81d39249af42cb49a547", "is_disabled": 0, "is_reserved": 0}, {"rental_uris": {"ios": "https://dc.lft.to/lastmile_qr_scan", "android": "https://dc.lft.to/lastmile_qr_scan"}, "lon": -77.01797, "type": "electric_scooter", "fusion_lat": 0.0, "lat": 38.90816933333333, "name": "63c45011c873435d89d35ca467ec8dac", "fusion_lon": 0.0, "bike_id": "63c45011c873435d89d35ca467ec8dac", "is_disabled": 0, "is_reserved": 0}, {"rental_uris": {"ios": "https://dc.lft.to/lastmile_qr_scan", "android": "https://dc.lft.to/lastmile_qr_scan"}, "lon": -77.033504, "type": "electric_scooter", "fusion_lat": 0.0, "lat": 38.906389, "name": "5a5eacf06d83f568b3056c29884e7dc7", "fusion_lon": 0.0, "bike_id": "5a5eacf06d83f568b3056c29884e7dc7", "is_disabled": 0, "is_reserved": 0}, {"rental_uris": {"ios": "https://dc.lft.to/lastmile_qr_scan", "android": "https://dc.lft.to/lastmile_qr_scan"}, "lon": -77.02987366666666, "type": "electric_scooter", "fusion_lat": 0.0, "lat": 38.900395, "name": "3c33563639c77934be3ee82e8f9215d7", "fusion_lon": 0.0, "bike_id": "3c33563639c77934be3ee82e8f9215d7", "is_disabled": 0, "is_reserved": 0}, {"rental_uris": {"ios": "https://dc.lft.to/lastmile_qr_scan", "android": "https://dc.lft.to/lastmile_qr_scan"}, "lon": -76.946544, "type": "electric_scooter", "fusion_lat": 0.0, "lat": 38.898261166666664, "name": "d6080c8df8e521590d4e3975fd342851", "fusion_lon": 0.0, "bike_id": "d6080c8df8e521590d4e3975fd342851", "is_disabled": 0, "is_reserved": 0}, {"rental_uris": {"ios": "https://dc.lft.to/lastmile_qr_scan", "android": "https://dc.lft.to/lastmile_qr_scan"}, "lon": -77.0272065, "type": "electric_scooter", "fusion_lat": 0.0, "lat": 38.89921183333333, "name": "8132e4766c5361b4660af18c23c1087a", "fusion_lon": 0.0, "bike_id": "8132e4766c5361b4660af18c23c1087a", "is_disabled": 0, "is_reserved": 0}, {"rental_uris": {"ios": "https://dc.lft.to/lastmile_qr_scan", "android": "https://dc.lft.to/lastmile_qr_scan"}, "lon": -77.0178935, "type": "electric_scooter", "fusion_lat": 0.0, "lat": 38.90255283333333, "name": "beb5272fa0eddcf942e546f97e2c6262", "fusion_lon": 0.0, "bike_id": "beb5272fa0eddcf942e546f97e2c6262", "is_disabled": 0, "is_reserved": 0}, {"rental_uris": {"ios": "https://dc.lft.to/lastmile_qr_scan", "android": "https://dc.lft.to/lastmile_qr_scan"}, "lon": -77.03416433333334, "type": "electric_scooter", "fusion_lat": 0.0, "lat": 38.923162166666664, "name": "9f1d09c5d36295fa4e4988af9acf6867", "fusion_lon": 0.0, "bike_id": "9f1d09c5d36295fa4e4988af9acf6867", "is_disabled": 0, "is_reserved": 0}, {"rental_uris": {"ios": "https://dc.lft.to/lastmile_qr_scan", "android": "https://dc.lft.to/lastmile_qr_scan"}, "lon": -77.0139885, "type": "electric_scooter", "fusion_lat": 0.0, "lat": 38.9284855, "name": "44bde8d84f24b22d4ea5726f3d389d01", "fusion_lon": 0.0, "bike_id": "44bde8d84f24b22d4ea5726f3d389d01", "is_disabled": 0, "is_reserved": 0}, {"rental_uris": {"ios": "https://dc.lft.to/lastmile_qr_scan", "android": "https://dc.lft.to/lastmile_qr_scan"}, "lon": -77.03933683333334, "type": "electric_scooter", "fusion_lat": 0.0, "lat": 38.9210735, "name": "ca4d187ccdd41c2704fb3eb640d2da81", "fusion_lon": 0.0, "bike_id": "ca4d187ccdd41c2704fb3eb640d2da81", "is_disabled": 0, "is_reserved": 0}, {"rental_uris": {"ios": "https://dc.lft.to/lastmile_qr_scan", "android": "https://dc.lft.to/lastmile_qr_scan"}, "lon": -77.04705883333334, "type": "electric_scooter", "fusion_lat": 0.0, "lat": 38.90527433333333, "name": "4bd2b951c34372300e22227620f54b18", "fusion_lon": 0.0, "bike_id": "4bd2b951c34372300e22227620f54b18", "is_disabled": 0, "is_reserved": 0}, {"rental_uris": {"ios": "https://dc.lft.to/lastmile_qr_scan", "android": "https://dc.lft.to/lastmile_qr_scan"}, "lon": -77.038712, "type": "electric_scooter", "fusion_lat": 0.0, "lat": 38.9096995, "name": "6acb248ab2b7a28dc55b237562b51d87", "fusion_lon": 0.0, "bike_id": "6acb248ab2b7a28dc55b237562b51d87", "is_disabled": 0, "is_reserved": 0}, {"rental_uris": {"ios": "https://dc.lft.to/lastmile_qr_scan", "android": "https://dc.lft.to/lastmile_qr_scan"}, "lon": -77.0321745, "type": "electric_scooter", "fusion_lat": 0.0, "lat": 38.907595666666666, "name": "57a1093c4ea7cfdfe7ae4feaa046ab07", "fusion_lon": 0.0, "bike_id": "57a1093c4ea7cfdfe7ae4feaa046ab07", "is_disabled": 0, "is_reserved": 0}, {"rental_uris": {"ios": "https://dc.lft.to/lastmile_qr_scan", "android": "https://dc.lft.to/lastmile_qr_scan"}, "lon": -77.12627416666666, "type": "electric_bike", "fusion_lat": 0.0, "lat": 39.058138166666666, "name": "6fc77026e96e1bfd25705e9cf57c4e07", "fusion_lon": 0.0, "bike_id": "6fc77026e96e1bfd25705e9cf57c4e07", "is_disabled": 0, "is_reserved": 0}, {"rental_uris": {"ios": "https://dc.lft.to/lastmile_qr_scan", "android": "https://dc.lft.to/lastmile_qr_scan"}, "lon": -76.97832566666666, "type": "electric_bike", "fusion_lat": 0.0, "lat": 38.84613133333333, "name": "d63b1ff959f7bcac6c5272d0e5307251", "fusion_lon": 0.0, "bike_id": "d63b1ff959f7bcac6c5272d0e5307251", "is_disabled": 0, "is_reserved": 0}, {"rental_uris": {"ios": "https://dc.lft.to/lastmile_qr_scan", "android": "https://dc.lft.to/lastmile_qr_scan"}, "lon": -77.17847183333333, "type": "electric_bike", "fusion_lat": 0.0, "lat": 39.089028166666665, "name": "82120579dc65e1163cb69387af657a0e", "fusion_lon": 0.0, "bike_id": "82120579dc65e1163cb69387af657a0e", "is_disabled": 0, "is_reserved": 0}, {"rental_uris": {"ios": "https://dc.lft.to/lastmile_qr_scan", "android": "https://dc.lft.to/lastmile_qr_scan"}, "lon": -77.00249533333333, "type": "electric_bike", "fusion_lat": 0.0, "lat": 38.952197166666664, "name": "dba0f23636e1cd17898b6441071b42aa", "fusion_lon": 0.0, "bike_id": "dba0f23636e1cd17898b6441071b42aa", "is_disabled": 0, "is_reserved": 0}, {"rental_uris": {"ios": "https://dc.lft.to/lastmile_qr_scan", "android": "https://dc.lft.to/lastmile_qr_scan"}, "lon": -76.98094916666666, "type": "electric_bike", "fusion_lat": 0.0, "lat": 38.88133116666667, "name": "c3af0f983fb8adf10b03efc00a30cd4a", "fusion_lon": 0.0, "bike_id": "c3af0f983fb8adf10b03efc00a30cd4a", "is_disabled": 0, "is_reserved": 0}, {"rental_uris": {"ios": "https://dc.lft.to/lastmile_qr_scan", "android": "https://dc.lft.to/lastmile_qr_scan"}, "lon": -77.0258415, "type": "electric_scooter", "fusion_lat": 0.0, "lat": 38.88736, "name": "e6c7728f691fc518aaed57a469cf9855", "fusion_lon": 0.0, "bike_id": "e6c7728f691fc518aaed57a469cf9855", "is_disabled": 0, "is_reserved": 0}, {"rental_uris": {"ios": "https://dc.lft.to/lastmile_qr_scan", "android": "https://dc.lft.to/lastmile_qr_scan"}, "lon": -77.04358483333333, "type": "electric_bike", "fusion_lat": 0.0, "lat": 38.908273333333334, "name": "04de089c3ec89c9d0c8b6b0b4e05ab0e", "fusion_lon": 0.0, "bike_id": "04de089c3ec89c9d0c8b6b0b4e05ab0e", "is_disabled": 0, "is_reserved": 0}, {"rental_uris": {"ios": "https://dc.lft.to/lastmile_qr_scan", "android": "https://dc.lft.to/lastmile_qr_scan"}, "lon": -77.02325266666666, "type": "electric_scooter", "fusion_lat": 0.0, "lat": 38.881910833333336, "name": "656cdf8f0a8b4e3f95bc0d727e397750", "fusion_lon": 0.0, "bike_id": "656cdf8f0a8b4e3f95bc0d727e397750", "is_disabled": 0, "is_reserved": 0}, {"rental_uris": {"ios": "https://dc.lft.to/lastmile_qr_scan", "android": "https://dc.lft.to/lastmile_qr_scan"}, "lon": -77.0273245, "type": "electric_scooter", "fusion_lat": 0.0, "lat": 38.9320375, "name": "7201b7cfb83bfff26f7aec66dd4ffa90", "fusion_lon": 0.0, "bike_id": "7201b7cfb83bfff26f7aec66dd4ffa90", "is_disabled": 0, "is_reserved": 0}, {"rental_uris": {"ios": "https://dc.lft.to/lastmile_qr_scan", "android": "https://dc.lft.to/lastmile_qr_scan"}, "lon": -77.00223316666667, "type": "electric_scooter", "fusion_lat": 0.0, "lat": 38.900367333333335, "name": "820c617284198a32d8114dbeaed4a425", "fusion_lon": 0.0, "bike_id": "820c617284198a32d8114dbeaed4a425", "is_disabled": 0, "is_reserved": 0}, {"rental_uris": {"ios": "https://dc.lft.to/lastmile_qr_scan", "android": "https://dc.lft.to/lastmile_qr_scan"}, "lon": -76.99376233333334, "type": "electric_scooter", "fusion_lat": 0.0, "lat": 38.87973016666667, "name": "c905637a394e49c9aca116348e5d359a", "fusion_lon": 0.0, "bike_id": "c905637a394e49c9aca116348e5d359a", "is_disabled": 0, "is_reserved": 0}, {"rental_uris": {"ios": "https://dc.lft.to/lastmile_qr_scan", "android": "https://dc.lft.to/lastmile_qr_scan"}, "lon": -77.02465733333334, "type": "electric_scooter", "fusion_lat": 0.0, "lat": 38.90849583333333, "name": "b032e68269f32801310157a67f0bf4b4", "fusion_lon": 0.0, "bike_id": "b032e68269f32801310157a67f0bf4b4", "is_disabled": 0, "is_reserved": 0}, {"rental_uris": {"ios": "https://dc.lft.to/lastmile_qr_scan", "android": "https://dc.lft.to/lastmile_qr_scan"}, "lon": -77.05566766666666, "type": "electric_scooter", "fusion_lat": 0.0, "lat": 38.898983666666666, "name": "7a7597b269510594bc7981f60e4f5e5c", "fusion_lon": 0.0, "bike_id": "7a7597b269510594bc7981f60e4f5e5c", "is_disabled": 0, "is_reserved": 0}, {"rental_uris": {"ios": "https://dc.lft.to/lastmile_qr_scan", "android": "https://dc.lft.to/lastmile_qr_scan"}, "lon": -77.012175, "type": "electric_bike", "fusion_lat": 0.0, "lat": 38.870815, "name": "163209da2dcfca8aad63af37f1cd703f", "fusion_lon": 0.0, "bike_id": "163209da2dcfca8aad63af37f1cd703f", "is_disabled": 0, "is_reserved": 0}, {"rental_uris": {"ios": "https://dc.lft.to/lastmile_qr_scan", "android": "https://dc.lft.to/lastmile_qr_scan"}, "lon": -77.04373483333333, "type": "electric_scooter", "fusion_lat": 0.0, "lat": 38.921207333333335, "name": "c0fc978d5f44ac7a8c7b639d78828a7d", "fusion_lon": 0.0, "bike_id": "c0fc978d5f44ac7a8c7b639d78828a7d", "is_disabled": 0, "is_reserved": 0}, {"rental_uris": {"ios": "https://dc.lft.to/lastmile_qr_scan", "android": "https://dc.lft.to/lastmile_qr_scan"}, "lon": -77.002213, "type": "electric_scooter", "fusion_lat": 0.0, "lat": 38.9003565, "name": "2a38e4cc1520dc21e307bef10bbe173d", "fusion_lon": 0.0, "bike_id": "2a38e4cc1520dc21e307bef10bbe173d", "is_disabled": 0, "is_reserved": 0}, {"rental_uris": {"ios": "https://dc.lft.to/lastmile_qr_scan", "android": "https://dc.lft.to/lastmile_qr_scan"}, "lon": -77.01176466666666, "type": "electric_bike", "fusion_lat": 0.0, "lat": 38.8723995, "name": "ccf297c3b9f5abe6223ebca4a38c6064", "fusion_lon": 0.0, "bike_id": "ccf297c3b9f5abe6223ebca4a38c6064", "is_disabled": 0, "is_reserved": 0}, {"rental_uris": {"ios": "https://dc.lft.to/lastmile_qr_scan", "android": "https://dc.lft.to/lastmile_qr_scan"}, "lon": -77.022271, "type": "electric_scooter", "fusion_lat": 0.0, "lat": 38.9126935, "name": "4ccdbbc84fae2f0c2eea5fd0a326f701", "fusion_lon": 0.0, "bike_id": "4ccdbbc84fae2f0c2eea5fd0a326f701", "is_disabled": 0, "is_reserved": 0}, {"rental_uris": {"ios": "https://dc.lft.to/lastmile_qr_scan", "android": "https://dc.lft.to/lastmile_qr_scan"}, "lon": -77.0389975, "type": "electric_scooter", "fusion_lat": 0.0, "lat": 38.918459, "name": "cfa38ddc8714f3205a44c8626502a75b", "fusion_lon": 0.0, "bike_id": "cfa38ddc8714f3205a44c8626502a75b", "is_disabled": 0, "is_reserved": 0}, {"rental_uris": {"ios": "https://dc.lft.to/lastmile_qr_scan", "android": "https://dc.lft.to/lastmile_qr_scan"}, "lon": -77.04197583333334, "type": "electric_scooter", "fusion_lat": 0.0, "lat": 38.899309333333335, "name": "1c907f47bd777ac89a43979a119b4df9", "fusion_lon": 0.0, "bike_id": "1c907f47bd777ac89a43979a119b4df9", "is_disabled": 0, "is_reserved": 0}, {"rental_uris": {"ios": "https://dc.lft.to/lastmile_qr_scan", "android": "https://dc.lft.to/lastmile_qr_scan"}, "lon": -77.03226716666667, "type": "electric_scooter", "fusion_lat": 0.0, "lat": 38.9267215, "name": "07c64e87eb00d0639eab016988e55893", "fusion_lon": 0.0, "bike_id": "07c64e87eb00d0639eab016988e55893", "is_disabled": 0, "is_reserved": 0}, {"rental_uris": {"ios": "https://dc.lft.to/lastmile_qr_scan", "android": "https://dc.lft.to/lastmile_qr_scan"}, "lon": -77.0327345, "type": "electric_scooter", "fusion_lat": 0.0, "lat": 38.93236566666667, "name": "ae2d5c0429c4f1b6702e84d24d210e12", "fusion_lon": 0.0, "bike_id": "ae2d5c0429c4f1b6702e84d24d210e12", "is_disabled": 0, "is_reserved": 0}, {"rental_uris": {"ios": "https://dc.lft.to/lastmile_qr_scan", "android": "https://dc.lft.to/lastmile_qr_scan"}, "lon": -77.04874283333334, "type": "electric_scooter", "fusion_lat": 0.0, "lat": 38.90310366666667, "name": "f7f8cede8b2b2e3082292e8b3e5e3c62", "fusion_lon": 0.0, "bike_id": "f7f8cede8b2b2e3082292e8b3e5e3c62", "is_disabled": 0, "is_reserved": 0}, {"rental_uris": {"ios": "https://dc.lft.to/lastmile_qr_scan", "android": "https://dc.lft.to/lastmile_qr_scan"}, "lon": -76.98963066666667, "type": "electric_scooter", "fusion_lat": 0.0, "lat": 38.9003095, "name": "ea4aa4527a10bb5dc961be12790dcefc", "fusion_lon": 0.0, "bike_id": "ea4aa4527a10bb5dc961be12790dcefc", "is_disabled": 0, "is_reserved": 0}, {"rental_uris": {"ios": "https://dc.lft.to/lastmile_qr_scan", "android": "https://dc.lft.to/lastmile_qr_scan"}, "lon": -77.03786483333333, "type": "electric_scooter", "fusion_lat": 0.0, "lat": 38.905739833333335, "name": "2bfd70c8d423d5d7988d1472ae216e16", "fusion_lon": 0.0, "bike_id": "2bfd70c8d423d5d7988d1472ae216e16", "is_disabled": 0, "is_reserved": 0}, {"rental_uris": {"ios": "https://dc.lft.to/lastmile_qr_scan", "android": "https://dc.lft.to/lastmile_qr_scan"}, "lon": -77.1290385, "type": "electric_bike", "fusion_lat": 0.0, "lat": 38.863784333333335, "name": "81ad0adc739583a2f2d0faa9a5f3ba52", "fusion_lon": 0.0, "bike_id": "81ad0adc739583a2f2d0faa9a5f3ba52", "is_disabled": 0, "is_reserved": 0}, {"rental_uris": {"ios": "https://dc.lft.to/lastmile_qr_scan", "android": "https://dc.lft.to/lastmile_qr_scan"}, "lon": -77.028409, "type": "electric_scooter", "fusion_lat": 0.0, "lat": 38.928606333333335, "name": "08fa43f0c9ca4c4e7efc6cf2f66b0d82", "fusion_lon": 0.0, "bike_id": "08fa43f0c9ca4c4e7efc6cf2f66b0d82", "is_disabled": 0, "is_reserved": 0}, {"rental_uris": {"ios": "https://dc.lft.to/lastmile_qr_scan", "android": "https://dc.lft.to/lastmile_qr_scan"}, "lon": -77.05069033333334, "type": "electric_bike", "fusion_lat": 0.0, "lat": 39.061327166666665, "name": "8edda2dfa6898cd16d4587a7fc9afbc0", "fusion_lon": 0.0, "bike_id": "8edda2dfa6898cd16d4587a7fc9afbc0", "is_disabled": 0, "is_reserved": 0}, {"rental_uris": {"ios": "https://dc.lft.to/lastmile_qr_scan", "android": "https://dc.lft.to/lastmile_qr_scan"}, "lon": -77.02465066666667, "type": "electric_scooter", "fusion_lat": 0.0, "lat": 38.9373655, "name": "e616632c214dd4f349b3ec95027fb351", "fusion_lon": 0.0, "bike_id": "e616632c214dd4f349b3ec95027fb351", "is_disabled": 0, "is_reserved": 0}, {"rental_uris": {"ios": "https://dc.lft.to/lastmile_qr_scan", "android": "https://dc.lft.to/lastmile_qr_scan"}, "lon": -77.0592025, "type": "electric_scooter", "fusion_lat": 0.0, "lat": 38.9095635, "name": "4718e55e5699bcd9d322793aea6f738a", "fusion_lon": 0.0, "bike_id": "4718e55e5699bcd9d322793aea6f738a", "is_disabled": 0, "is_reserved": 0}, {"rental_uris": {"ios": "https://dc.lft.to/lastmile_qr_scan", "android": "https://dc.lft.to/lastmile_qr_scan"}, "lon": -77.03556, "type": "electric_scooter", "fusion_lat": 0.0, "lat": 38.927415, "name": "e865c51ac29e755b7faf22ec20bc35ec", "fusion_lon": 0.0, "bike_id": "e865c51ac29e755b7faf22ec20bc35ec", "is_disabled": 0, "is_reserved": 0}, {"rental_uris": {"ios": "https://dc.lft.to/lastmile_qr_scan", "android": "https://dc.lft.to/lastmile_qr_scan"}, "lon": -76.99003716666667, "type": "electric_scooter", "fusion_lat": 0.0, "lat": 38.90390083333333, "name": "993e8ed25e58719bed4aa588672cbd01", "fusion_lon": 0.0, "bike_id": "993e8ed25e58719bed4aa588672cbd01", "is_disabled": 0, "is_reserved": 0}, {"rental_uris": {"ios": "https://dc.lft.to/lastmile_qr_scan", "android": "https://dc.lft.to/lastmile_qr_scan"}, "lon": -77.01013983333333, "type": "electric_scooter", "fusion_lat": 0.0, "lat": 38.91814733333333, "name": "2e5c3f728c768f9f330a4704dc84d4d2", "fusion_lon": 0.0, "bike_id": "2e5c3f728c768f9f330a4704dc84d4d2", "is_disabled": 0, "is_reserved": 0}, {"rental_uris": {"ios": "https://dc.lft.to/lastmile_qr_scan", "android": "https://dc.lft.to/lastmile_qr_scan"}, "lon": -77.018237, "type": "electric_scooter", "fusion_lat": 0.0, "lat": 38.92798883333333, "name": "ee616f36a50a470ceb55a19391915f74", "fusion_lon": 0.0, "bike_id": "ee616f36a50a470ceb55a19391915f74", "is_disabled": 0, "is_reserved": 0}, {"rental_uris": {"ios": "https://dc.lft.to/lastmile_qr_scan", "android": "https://dc.lft.to/lastmile_qr_scan"}, "lon": -77.04878183333334, "type": "electric_scooter", "fusion_lat": 0.0, "lat": 38.9029935, "name": "0b0d4dfac42edff85001b348ab964980", "fusion_lon": 0.0, "bike_id": "0b0d4dfac42edff85001b348ab964980", "is_disabled": 0, "is_reserved": 0}, {"rental_uris": {"ios": "https://dc.lft.to/lastmile_qr_scan", "android": "https://dc.lft.to/lastmile_qr_scan"}, "lon": -77.03973133333334, "type": "electric_scooter", "fusion_lat": 0.0, "lat": 38.92319783333333, "name": "04edeba23dccf646607410d1e29338cf", "fusion_lon": 0.0, "bike_id": "04edeba23dccf646607410d1e29338cf", "is_disabled": 0, "is_reserved": 0}, {"rental_uris": {"ios": "https://dc.lft.to/lastmile_qr_scan", "android": "https://dc.lft.to/lastmile_qr_scan"}, "lon": -77.01508216666667, "type": "electric_scooter", "fusion_lat": 0.0, "lat": 38.872786833333336, "name": "7ea08cd35809d2ab4f5cf9eec7997502", "fusion_lon": 0.0, "bike_id": "7ea08cd35809d2ab4f5cf9eec7997502", "is_disabled": 0, "is_reserved": 0}, {"rental_uris": {"ios": "https://dc.lft.to/lastmile_qr_scan", "android": "https://dc.lft.to/lastmile_qr_scan"}, "lon": -77.02439616666666, "type": "electric_scooter", "fusion_lat": 0.0, "lat": 38.95634833333333, "name": "1503298c161917821ad900f2a710a11d", "fusion_lon": 0.0, "bike_id": "1503298c161917821ad900f2a710a11d", "is_disabled": 0, "is_reserved": 0}, {"rental_uris": {"ios": "https://dc.lft.to/lastmile_qr_scan", "android": "https://dc.lft.to/lastmile_qr_scan"}, "lon": -77.069405, "type": "electric_scooter", "fusion_lat": 0.0, "lat": 38.905181666666664, "name": "cda372c1fdc155704238cd9a8b23c385", "fusion_lon": 0.0, "bike_id": "cda372c1fdc155704238cd9a8b23c385", "is_disabled": 0, "is_reserved": 0}, {"rental_uris": {"ios": "https://dc.lft.to/lastmile_qr_scan", "android": "https://dc.lft.to/lastmile_qr_scan"}, "lon": -77.029643, "type": "electric_scooter", "fusion_lat": 0.0, "lat": 38.91578233333333, "name": "56481a7a99ba44742deb8f80f2634b68", "fusion_lon": 0.0, "bike_id": "56481a7a99ba44742deb8f80f2634b68", "is_disabled": 0, "is_reserved": 0}, {"rental_uris": {"ios": "https://dc.lft.to/lastmile_qr_scan", "android": "https://dc.lft.to/lastmile_qr_scan"}, "lon": -77.06878416666666, "type": "electric_scooter", "fusion_lat": 0.0, "lat": 38.905098833333334, "name": "b77b304576f0eef8d4a7eef0793f404e", "fusion_lon": 0.0, "bike_id": "b77b304576f0eef8d4a7eef0793f404e", "is_disabled": 0, "is_reserved": 0}, {"rental_uris": {"ios": "https://dc.lft.to/lastmile_qr_scan", "android": "https://dc.lft.to/lastmile_qr_scan"}, "lon": -76.998648, "type": "electric_scooter", "fusion_lat": 0.0, "lat": 38.900321, "name": "16c16f3cc7160b419a336e2d77139241", "fusion_lon": 0.0, "bike_id": "16c16f3cc7160b419a336e2d77139241", "is_disabled": 0, "is_reserved": 0}, {"rental_uris": {"ios": "https://dc.lft.to/lastmile_qr_scan", "android": "https://dc.lft.to/lastmile_qr_scan"}, "lon": -77.04032433333333, "type": "electric_scooter", "fusion_lat": 0.0, "lat": 38.924437166666664, "name": "aebec711b3b157ecfaffc38738b23157", "fusion_lon": 0.0, "bike_id": "aebec711b3b157ecfaffc38738b23157", "is_disabled": 0, "is_reserved": 0}, {"rental_uris": {"ios": "https://dc.lft.to/lastmile_qr_scan", "android": "https://dc.lft.to/lastmile_qr_scan"}, "lon": -77.04639766666666, "type": "electric_scooter", "fusion_lat": 0.0, "lat": 38.914932666666665, "name": "6ba57882526f42820175d2e7faa3e144", "fusion_lon": 0.0, "bike_id": "6ba57882526f42820175d2e7faa3e144", "is_disabled": 0, "is_reserved": 0}, {"rental_uris": {"ios": "https://dc.lft.to/lastmile_qr_scan", "android": "https://dc.lft.to/lastmile_qr_scan"}, "lon": -77.01640333333333, "type": "electric_scooter", "fusion_lat": 0.0, "lat": 38.929401666666664, "name": "f661dde5d4b68984fcc9bd6caadd4d3c", "fusion_lon": 0.0, "bike_id": "f661dde5d4b68984fcc9bd6caadd4d3c", "is_disabled": 0, "is_reserved": 0}, {"rental_uris": {"ios": "https://dc.lft.to/lastmile_qr_scan", "android": "https://dc.lft.to/lastmile_qr_scan"}, "lon": -76.95760216666666, "type": "electric_scooter", "fusion_lat": 0.0, "lat": 38.884275833333334, "name": "b764dd28b99076726abcfad8150c544d", "fusion_lon": 0.0, "bike_id": "b764dd28b99076726abcfad8150c544d", "is_disabled": 0, "is_reserved": 0}, {"rental_uris": {"ios": "https://dc.lft.to/lastmile_qr_scan", "android": "https://dc.lft.to/lastmile_qr_scan"}, "lon": -77.0318525, "type": "electric_scooter", "fusion_lat": 0.0, "lat": 38.899297833333335, "name": "9c256e837ea3b52ec59c7d2f39ec9fa4", "fusion_lon": 0.0, "bike_id": "9c256e837ea3b52ec59c7d2f39ec9fa4", "is_disabled": 0, "is_reserved": 0}, {"rental_uris": {"ios": "https://dc.lft.to/lastmile_qr_scan", "android": "https://dc.lft.to/lastmile_qr_scan"}, "lon": -77.02486916666666, "type": "electric_scooter", "fusion_lat": 0.0, "lat": 38.9418565, "name": "ba0b177da3a8d647b6b637c564d9149e", "fusion_lon": 0.0, "bike_id": "ba0b177da3a8d647b6b637c564d9149e", "is_disabled": 0, "is_reserved": 0}, {"rental_uris": {"ios": "https://dc.lft.to/lastmile_qr_scan", "android": "https://dc.lft.to/lastmile_qr_scan"}, "lon": -77.02225566666667, "type": "electric_scooter", "fusion_lat": 0.0, "lat": 38.893551, "name": "e83f69c84e0487d32bed75247380c40f", "fusion_lon": 0.0, "bike_id": "e83f69c84e0487d32bed75247380c40f", "is_disabled": 0, "is_reserved": 0}, {"rental_uris": {"ios": "https://dc.lft.to/lastmile_qr_scan", "android": "https://dc.lft.to/lastmile_qr_scan"}, "lon": -76.965071, "type": "electric_scooter", "fusion_lat": 0.0, "lat": 38.8764665, "name": "e8b47ddb1c9a9d86ae8db7a1401308a0", "fusion_lon": 0.0, "bike_id": "e8b47ddb1c9a9d86ae8db7a1401308a0", "is_disabled": 0, "is_reserved": 0}, {"rental_uris": {"ios": "https://dc.lft.to/lastmile_qr_scan", "android": "https://dc.lft.to/lastmile_qr_scan"}, "lon": -77.15268983333333, "type": "electric_bike", "fusion_lat": 0.0, "lat": 39.1056635, "name": "5941be6da8de74abb6f4aee83414bc4a", "fusion_lon": 0.0, "bike_id": "5941be6da8de74abb6f4aee83414bc4a", "is_disabled": 0, "is_reserved": 0}, {"rental_uris": {"ios": "https://dc.lft.to/lastmile_qr_scan", "android": "https://dc.lft.to/lastmile_qr_scan"}, "lon": -76.9317725, "type": "electric_scooter", "fusion_lat": 0.0, "lat": 38.898857166666666, "name": "3e3417bc5b7c07ce4219e0f24d0b496d", "fusion_lon": 0.0, "bike_id": "3e3417bc5b7c07ce4219e0f24d0b496d", "is_disabled": 0, "is_reserved": 0}, {"rental_uris": {"ios": "https://dc.lft.to/lastmile_qr_scan", "android": "https://dc.lft.to/lastmile_qr_scan"}, "lon": -77.02695183333333, "type": "electric_scooter", "fusion_lat": 0.0, "lat": 38.913328, "name": "e7b80214ec81406e31295193e62fae09", "fusion_lon": 0.0, "bike_id": "e7b80214ec81406e31295193e62fae09", "is_disabled": 0, "is_reserved": 0}, {"rental_uris": {"ios": "https://dc.lft.to/lastmile_qr_scan", "android": "https://dc.lft.to/lastmile_qr_scan"}, "lon": -77.03748983333334, "type": "electric_scooter", "fusion_lat": 0.0, "lat": 38.916923, "name": "8d568fc0cf2a865ba5de88e22193dab5", "fusion_lon": 0.0, "bike_id": "8d568fc0cf2a865ba5de88e22193dab5", "is_disabled": 0, "is_reserved": 0}, {"rental_uris": {"ios": "https://dc.lft.to/lastmile_qr_scan", "android": "https://dc.lft.to/lastmile_qr_scan"}, "lon": -76.93795433333334, "type": "electric_scooter", "fusion_lat": 0.0, "lat": 38.89084533333333, "name": "1da36cb75c5b244e95c0ee3bab5193a8", "fusion_lon": 0.0, "bike_id": "1da36cb75c5b244e95c0ee3bab5193a8", "is_disabled": 0, "is_reserved": 0}, {"rental_uris": {"ios": "https://dc.lft.to/lastmile_qr_scan", "android": "https://dc.lft.to/lastmile_qr_scan"}, "lon": -77.01084916666667, "type": "electric_scooter", "fusion_lat": 0.0, "lat": 38.8948915, "name": "2c48d44265dda08a21d14b19e627e06a", "fusion_lon": 0.0, "bike_id": "2c48d44265dda08a21d14b19e627e06a", "is_disabled": 0, "is_reserved": 0}, {"rental_uris": {"ios": "https://dc.lft.to/lastmile_qr_scan", "android": "https://dc.lft.to/lastmile_qr_scan"}, "lon": -77.0384975, "type": "electric_scooter", "fusion_lat": 0.0, "lat": 38.91308466666667, "name": "389c636f3901804f5b038297da769a44", "fusion_lon": 0.0, "bike_id": "389c636f3901804f5b038297da769a44", "is_disabled": 0, "is_reserved": 0}, {"rental_uris": {"ios": "https://dc.lft.to/lastmile_qr_scan", "android": "https://dc.lft.to/lastmile_qr_scan"}, "lon": -77.02668083333333, "type": "electric_scooter", "fusion_lat": 0.0, "lat": 38.881003, "name": "1c99e4d6b3f299a9169e74172871f2b2", "fusion_lon": 0.0, "bike_id": "1c99e4d6b3f299a9169e74172871f2b2", "is_disabled": 0, "is_reserved": 0}, {"rental_uris": {"ios": "https://dc.lft.to/lastmile_qr_scan", "android": "https://dc.lft.to/lastmile_qr_scan"}, "lon": -77.0400365, "type": "electric_scooter", "fusion_lat": 0.0, "lat": 38.91819733333333, "name": "dfdbd07245536b5b6948e07dbbc81367", "fusion_lon": 0.0, "bike_id": "dfdbd07245536b5b6948e07dbbc81367", "is_disabled": 0, "is_reserved": 0}, {"rental_uris": {"ios": "https://dc.lft.to/lastmile_qr_scan", "android": "https://dc.lft.to/lastmile_qr_scan"}, "lon": -77.0013965, "type": "electric_scooter", "fusion_lat": 0.0, "lat": 38.904076, "name": "ebcdacb1af1c110a3bdafa27c0419c8d", "fusion_lon": 0.0, "bike_id": "ebcdacb1af1c110a3bdafa27c0419c8d", "is_disabled": 0, "is_reserved": 0}, {"rental_uris": {"ios": "https://dc.lft.to/lastmile_qr_scan", "android": "https://dc.lft.to/lastmile_qr_scan"}, "lon": -77.00881966666667, "type": "electric_scooter", "fusion_lat": 0.0, "lat": 38.91403566666666, "name": "477e1043acec3d38947f07cf3fa5e2b1", "fusion_lon": 0.0, "bike_id": "477e1043acec3d38947f07cf3fa5e2b1", "is_disabled": 0, "is_reserved": 0}, {"rental_uris": {"ios": "https://dc.lft.to/lastmile_qr_scan", "android": "https://dc.lft.to/lastmile_qr_scan"}, "lon": -76.92722183333333, "type": "electric_scooter", "fusion_lat": 0.0, "lat": 38.88045566666667, "name": "00b119fe5d0f37d39ae86cba6050df81", "fusion_lon": 0.0, "bike_id": "00b119fe5d0f37d39ae86cba6050df81", "is_disabled": 0, "is_reserved": 0}, {"rental_uris": {"ios": "https://dc.lft.to/lastmile_qr_scan", "android": "https://dc.lft.to/lastmile_qr_scan"}, "lon": -77.02401283333333, "type": "electric_scooter", "fusion_lat": 0.0, "lat": 38.9070695, "name": "48f7cf52a250275889b569cb17a1984e", "fusion_lon": 0.0, "bike_id": "48f7cf52a250275889b569cb17a1984e", "is_disabled": 0, "is_reserved": 0}, {"rental_uris": {"ios": "https://dc.lft.to/lastmile_qr_scan", "android": "https://dc.lft.to/lastmile_qr_scan"}, "lon": -77.00481933333333, "type": "electric_scooter", "fusion_lat": 0.0, "lat": 38.87864016666666, "name": "294a0dfcdd5b262ac2052b2e124477b2", "fusion_lon": 0.0, "bike_id": "294a0dfcdd5b262ac2052b2e124477b2", "is_disabled": 0, "is_reserved": 0}, {"rental_uris": {"ios": "https://dc.lft.to/lastmile_qr_scan", "android": "https://dc.lft.to/lastmile_qr_scan"}, "lon": -76.92588916666666, "type": "electric_scooter", "fusion_lat": 0.0, "lat": 38.89729833333333, "name": "e99572f37c6c03dc61960968c8e0d5bc", "fusion_lon": 0.0, "bike_id": "e99572f37c6c03dc61960968c8e0d5bc", "is_disabled": 0, "is_reserved": 0}, {"rental_uris": {"ios": "https://dc.lft.to/lastmile_qr_scan", "android": "https://dc.lft.to/lastmile_qr_scan"}, "lon": -77.02979083333334, "type": "electric_scooter", "fusion_lat": 0.0, "lat": 38.96228083333333, "name": "d294b0aebc500d96e93e16bb1e353a5f", "fusion_lon": 0.0, "bike_id": "d294b0aebc500d96e93e16bb1e353a5f", "is_disabled": 0, "is_reserved": 0}, {"rental_uris": {"ios": "https://dc.lft.to/lastmile_qr_scan", "android": "https://dc.lft.to/lastmile_qr_scan"}, "lon": -77.10339716666667, "type": "electric_bike", "fusion_lat": 0.0, "lat": 38.85226933333333, "name": "4eb8c734e49c63fc8b5fdf1d8424cc37", "fusion_lon": 0.0, "bike_id": "4eb8c734e49c63fc8b5fdf1d8424cc37", "is_disabled": 0, "is_reserved": 0}, {"rental_uris": {"ios": "https://dc.lft.to/lastmile_qr_scan", "android": "https://dc.lft.to/lastmile_qr_scan"}, "lon": -77.03468416666666, "type": "electric_scooter", "fusion_lat": 0.0, "lat": 38.9215375, "name": "78408cdb0d10a6a11ec7d8b200001b37", "fusion_lon": 0.0, "bike_id": "78408cdb0d10a6a11ec7d8b200001b37", "is_disabled": 0, "is_reserved": 0}, {"rental_uris": {"ios": "https://dc.lft.to/lastmile_qr_scan", "android": "https://dc.lft.to/lastmile_qr_scan"}, "lon": -77.02881983333333, "type": "electric_scooter", "fusion_lat": 0.0, "lat": 38.904335833333334, "name": "cfcc605e50fdaa3a362204abce4e34b1", "fusion_lon": 0.0, "bike_id": "cfcc605e50fdaa3a362204abce4e34b1", "is_disabled": 0, "is_reserved": 0}, {"rental_uris": {"ios": "https://dc.lft.to/lastmile_qr_scan", "android": "https://dc.lft.to/lastmile_qr_scan"}, "lon": -77.01345883333333, "type": "electric_bike", "fusion_lat": 0.0, "lat": 38.999981, "name": "9503d43366fcfec43a4b7252588aa420", "fusion_lon": 0.0, "bike_id": "9503d43366fcfec43a4b7252588aa420", "is_disabled": 0, "is_reserved": 0}, {"rental_uris": {"ios": "https://dc.lft.to/lastmile_qr_scan", "android": "https://dc.lft.to/lastmile_qr_scan"}, "lon": -77.0065365, "type": "electric_scooter", "fusion_lat": 0.0, "lat": 38.871799833333334, "name": "7d21c8a91b9de655fc0eb5e47107043e", "fusion_lon": 0.0, "bike_id": "7d21c8a91b9de655fc0eb5e47107043e", "is_disabled": 0, "is_reserved": 0}, {"rental_uris": {"ios": "https://dc.lft.to/lastmile_qr_scan", "android": "https://dc.lft.to/lastmile_qr_scan"}, "lon": -77.0189895, "type": "electric_scooter", "fusion_lat": 0.0, "lat": 38.8766335, "name": "ab860b330c4aea9ee4d446dd2a8a3176", "fusion_lon": 0.0, "bike_id": "ab860b330c4aea9ee4d446dd2a8a3176", "is_disabled": 0, "is_reserved": 0}, {"rental_uris": {"ios": "https://dc.lft.to/lastmile_qr_scan", "android": "https://dc.lft.to/lastmile_qr_scan"}, "lon": -77.0273045, "type": "electric_scooter", "fusion_lat": 0.0, "lat": 38.9137955, "name": "a6a0195541441bb4ee66eb828e0cf82b", "fusion_lon": 0.0, "bike_id": "a6a0195541441bb4ee66eb828e0cf82b", "is_disabled": 0, "is_reserved": 0}, {"rental_uris": {"ios": "https://dc.lft.to/lastmile_qr_scan", "android": "https://dc.lft.to/lastmile_qr_scan"}, "lon": -77.0111375, "type": "electric_scooter", "fusion_lat": 0.0, "lat": 38.903599666666665, "name": "d60665006ac0d2b1cd766e258f240cb4", "fusion_lon": 0.0, "bike_id": "d60665006ac0d2b1cd766e258f240cb4", "is_disabled": 0, "is_reserved": 0}, {"rental_uris": {"ios": "https://dc.lft.to/lastmile_qr_scan", "android": "https://dc.lft.to/lastmile_qr_scan"}, "lon": -77.05545033333334, "type": "electric_scooter", "fusion_lat": 0.0, "lat": 38.927883333333334, "name": "e9032b15bb504ef64a2a749a0c551773", "fusion_lon": 0.0, "bike_id": "e9032b15bb504ef64a2a749a0c551773", "is_disabled": 0, "is_reserved": 0}, {"rental_uris": {"ios": "https://dc.lft.to/lastmile_qr_scan", "android": "https://dc.lft.to/lastmile_qr_scan"}, "lon": -77.0214035, "type": "electric_scooter", "fusion_lat": 0.0, "lat": 38.894992333333334, "name": "9a89923ccd882f53cc4ce5621ffd6ace", "fusion_lon": 0.0, "bike_id": "9a89923ccd882f53cc4ce5621ffd6ace", "is_disabled": 0, "is_reserved": 0}, {"rental_uris": {"ios": "https://dc.lft.to/lastmile_qr_scan", "android": "https://dc.lft.to/lastmile_qr_scan"}, "lon": -77.03176983333333, "type": "electric_scooter", "fusion_lat": 0.0, "lat": 38.91805766666667, "name": "ffdcf35e118834ae2cc00690bfca3af3", "fusion_lon": 0.0, "bike_id": "ffdcf35e118834ae2cc00690bfca3af3", "is_disabled": 0, "is_reserved": 0}, {"rental_uris": {"ios": "https://dc.lft.to/lastmile_qr_scan", "android": "https://dc.lft.to/lastmile_qr_scan"},