{"data": {"bikes": [{"rental_uris": {"ios": "https://dc.lft.to/lastmile_qr_scan", "android": "https://dc.lft.to/lastmile_qr_scan"}, "type": "electric_scooter", "name": "cf44cf881d0f78bd9cae73124a8603da", "is_reserved": 0, "lon": -77.02540283333333, "is_disabled": 0, "fusion_lat": 0.0, "lat": 38.91703166666667, "bike_id": "cf44cf881d0f78bd9cae73124a8603da", "fusion_lon": 0.0}, {"rental_uris": {"ios": "https://dc.lft.to/lastmile_qr_scan", "android": "https://dc.lft.to/lastmile_qr_scan"}, "type": "electric_scooter", "name": "bcd69d24ca02ccb19d7c430c2320360e", "is_reserved": 0, "lon": -77.02755583333334, "is_disabled": 0, "fusion_lat": 0.0, "lat": 38.88151966666667, "bike_id": "bcd69d24ca02ccb19d7c430c2320360e", "fusion_lon": 0.0}, {"rental_uris": {"ios": "https://dc.lft.to/lastmile_qr_scan", "android": "https://dc.lft.to/lastmile_qr_scan"}, "type": "electric_scooter", "name": "6080498997035a16987a843697474a5b", "is_reserved": 0, "lon": -77.04675816666666, "is_disabled": 0, "fusion_lat": 0.0, "lat": 38.892321833333334, "bike_id": "6080498997035a16987a843697474a5b", "fusion_lon": 0.0}, {"rental_uris": {"ios": "https://dc.lft.to/lastmile_qr_scan", "android": "https://dc.lft.to/lastmile_qr_scan"}, "type": "electric_scooter", "name": "9049e05d7229a335875a40d3d20cbd7b", "is_reserved": 0, "lon": -77.034743, "is_disabled": 0, "fusion_lat": 0.0, "lat": 38.917087333333335, "bike_id": "9049e05d7229a335875a40d3d20cbd7b", "fusion_lon": 0.0}, {"rental_uris": {"ios": "https://dc.lft.to/lastmile_qr_scan", "android": "https://dc.lft.to/lastmile_qr_scan"}, "type": "electric_scooter", "name": "5d61f81845bff9d59d2be4f4b3c8d736", "is_reserved": 0, "lon": -76.96985333333333, "is_disabled": 0, "fusion_lat": 0.0, "lat": 38.8740795, "bike_id": "5d61f81845bff9d59d2be4f4b3c8d736", "fusion_lon": 0.0}, {"rental_uris": {"ios": "https://dc.lft.to/lastmile_qr_scan", "android": "https://dc.lft.to/lastmile_qr_scan"}, "type": "electric_scooter", "name": "be333f8fd17395d38774dec20b8548b3", "is_reserved": 0, "lon": -77.03870766666667, "is_disabled": 0, "fusion_lat": 0.0, "lat": 38.912574166666666, "bike_id": "be333f8fd17395d38774dec20b8548b3", "fusion_lon": 0.0}, {"rental_uris": {"ios": "https://dc.lft.to/lastmile_qr_scan", "android": "https://dc.lft.to/lastmile_qr_scan"}, "type": "electric_scooter", "name": "35f584d88e3ac5ceb27729c9114b5960", "is_reserved": 0, "lon": -77.04096, "is_disabled": 0, "fusion_lat": 0.0, "lat": 38.920692, "bike_id": "35f584d88e3ac5ceb27729c9114b5960", "fusion_lon": 0.0}, {"rental_uris": {"ios": "https://dc.lft.to/lastmile_qr_scan", "android": "https://dc.lft.to/lastmile_qr_scan"}, "type": "electric_scooter", "name": "d8898dd5afd21f4f632e7ea657523728", "is_reserved": 0, "lon": -76.97653516666666, "is_disabled": 0, "fusion_lat": 0.0, "lat": 38.90362566666667, "bike_id": "d8898dd5afd21f4f632e7ea657523728", "fusion_lon": 0.0}, {"rental_uris": {"ios": "https://dc.lft.to/lastmile_qr_scan", "android": "https://dc.lft.to/lastmile_qr_scan"}, "type": "electric_scooter", "name": "1dab616b42849f35ada3d4067b794297", "is_reserved": 0, "lon": -77.0344735, "is_disabled": 0, "fusion_lat": 0.0, "lat": 38.91710616666667, "bike_id": "1dab616b42849f35ada3d4067b794297", "fusion_lon": 0.0}, {"rental_uris": {"ios": "https://dc.lft.to/lastmile_qr_scan", "android": "https://dc.lft.to/lastmile_qr_scan"}, "type": "electric_scooter", "name": "2782a41d43e6d91c32a68cc7bf28acfd", "is_reserved": 0, "lon": -77.03472683333334, "is_disabled": 0, "fusion_lat": 0.0, "lat": 38.92955216666667, "bike_id": "2782a41d43e6d91c32a68cc7bf28acfd", "fusion_lon": 0.0}, {"rental_uris": {"ios": "https://dc.lft.to/lastmile_qr_scan", "android": "https://dc.lft.to/lastmile_qr_scan"}, "type": "electric_scooter", "name": "4ec4c21b6eb3b10389370f8b1f717386", "is_reserved": 0, "lon": -77.04183033333334, "is_disabled": 0, "fusion_lat": 0.0, "lat": 38.914029166666666, "bike_id": "4ec4c21b6eb3b10389370f8b1f717386", "fusion_lon": 0.0}, {"rental_uris": {"ios": "https://dc.lft.to/lastmile_qr_scan", "android": "https://dc.lft.to/lastmile_qr_scan"}, "type": "electric_scooter", "name": "38e174fafaa929c1b5fe9ae49fe30ff2", "is_reserved": 0, "lon": -77.0486455, "is_disabled": 0, "fusion_lat": 0.0, "lat": 38.892228333333335, "bike_id": "38e174fafaa929c1b5fe9ae49fe30ff2", "fusion_lon": 0.0}, {"rental_uris": {"ios": "https://dc.lft.to/lastmile_qr_scan", "android": "https://dc.lft.to/lastmile_qr_scan"}, "type": "electric_bike", "name": "8cdd112603664cdea713b1fd213568ba", "is_reserved": 0, "lon": -76.98351016666666, "is_disabled": 0, "fusion_lat": 0.0, "lat": 38.86263183333333, "bike_id": "8cdd112603664cdea713b1fd213568ba", "fusion_lon": 0.0}, {"rental_uris": {"ios": "https://dc.lft.to/lastmile_qr_scan", "android": "https://dc.lft.to/lastmile_qr_scan"}, "type": "electric_scooter", "name": "8b6695fa9c4ccf529cb6cfaaf60b2599", "is_reserved": 0, "lon": -77.01450833333334, "is_disabled": 0, "fusion_lat": 0.0, "lat": 38.89944466666667, "bike_id": "8b6695fa9c4ccf529cb6cfaaf60b2599", "fusion_lon": 0.0}, {"rental_uris": {"ios": "https://dc.lft.to/lastmile_qr_scan", "android": "https://dc.lft.to/lastmile_qr_scan"}, "type": "electric_scooter", "name": "8d68158078c95173a63d045b5ce7077c", "is_reserved": 0, "lon": -77.00555466666667, "is_disabled": 0, "fusion_lat": 0.0, "lat": 38.87530866666667, "bike_id": "8d68158078c95173a63d045b5ce7077c", "fusion_lon": 0.0}, {"rental_uris": {"ios": "https://dc.lft.to/lastmile_qr_scan", "android": "https://dc.lft.to/lastmile_qr_scan"}, "type": "electric_scooter", "name": "9b57782d015300d5facea736eb076f55", "is_reserved": 0, "lon": -77.0448735, "is_disabled": 0, "fusion_lat": 0.0, "lat": 38.905977166666666, "bike_id": "9b57782d015300d5facea736eb076f55", "fusion_lon": 0.0}, {"rental_uris": {"ios": "https://dc.lft.to/lastmile_qr_scan", "android": "https://dc.lft.to/lastmile_qr_scan"}, "type": "electric_scooter", "name": "80d160eb5e877ab3137a86a4927102ed", "is_reserved": 0, "lon": -77.02001416666667, "is_disabled": 0, "fusion_lat": 0.0, "lat": 38.915280833333334, "bike_id": "80d160eb5e877ab3137a86a4927102ed", "fusion_lon": 0.0}, {"rental_uris": {"ios": "https://dc.lft.to/lastmile_qr_scan", "android": "https://dc.lft.to/lastmile_qr_scan"}, "type": "electric_scooter", "name": "7bae99ad568d46906b99284c28726a50", "is_reserved": 0, "lon": -77.02587166666666, "is_disabled": 0, "fusion_lat": 0.0, "lat": 38.963946, "bike_id": "7bae99ad568d46906b99284c28726a50", "fusion_lon": 0.0}, {"rental_uris": {"ios": "https://dc.lft.to/lastmile_qr_scan", "android": "https://dc.lft.to/lastmile_qr_scan"}, "type": "electric_scooter", "name": "da2820f42cc016acf33483a837209d44", "is_reserved": 0, "lon": -77.04995833333334, "is_disabled": 0, "fusion_lat": 0.0, "lat": 38.906228, "bike_id": "da2820f42cc016acf33483a837209d44", "fusion_lon": 0.0}, {"rental_uris": {"ios": "https://dc.lft.to/lastmile_qr_scan", "android": "https://dc.lft.to/lastmile_qr_scan"}, "type": "electric_bike", "name": "ab365353f4e4d331739ba0a4197dbcd7", "is_reserved": 0, "lon": -76.91807966666667, "is_disabled": 0, "fusion_lat": 0.0, "lat": 39.00001983333333, "bike_id": "ab365353f4e4d331739ba0a4197dbcd7", "fusion_lon": 0.0}, {"rental_uris": {"ios": "https://dc.lft.to/lastmile_qr_scan", "android": "https://dc.lft.to/lastmile_qr_scan"}, "type": "electric_scooter", "name": "29ba599be018454268330854668696c7", "is_reserved": 0, "lon": -76.93302333333334, "is_disabled": 0, "fusion_lat": 0.0, "lat": 38.896869833333334, "bike_id": "29ba599be018454268330854668696c7", "fusion_lon": 0.0}, {"rental_uris": {"ios": "https://dc.lft.to/lastmile_qr_scan", "android": "https://dc.lft.to/lastmile_qr_scan"}, "type": "electric_bike", "name": "63a50fe151a72c736a397079a9f39fe3", "is_reserved": 0, "lon": -77.12977983333333, "is_disabled": 0, "fusion_lat": 0.0, "lat": 38.79991533333333, "bike_id": "63a50fe151a72c736a397079a9f39fe3", "fusion_lon": 0.0}, {"rental_uris": {"ios": "https://dc.lft.to/lastmile_qr_scan", "android": "https://dc.lft.to/lastmile_qr_scan"}, "type": "electric_scooter", "name": "95354c27dcff6cc87a8737744958b621", "is_reserved": 0, "lon": -77.037652, "is_disabled": 0, "fusion_lat": 0.0, "lat": 38.90135383333333, "bike_id": "95354c27dcff6cc87a8737744958b621", "fusion_lon": 0.0}, {"rental_uris": {"ios": "https://dc.lft.to/lastmile_qr_scan", "android": "https://dc.lft.to/lastmile_qr_scan"}, "type": "electric_scooter", "name": "85f33626ac4db840e3b596fc08821fe8", "is_reserved": 0, "lon": -77.0179655, "is_disabled": 0, "fusion_lat": 0.0, "lat": 38.8859145, "bike_id": "85f33626ac4db840e3b596fc08821fe8", "fusion_lon": 0.0}, {"rental_uris": {"ios": "https://dc.lft.to/lastmile_qr_scan", "android": "https://dc.lft.to/lastmile_qr_scan"}, "type": "electric_scooter", "name": "e5290c0df24f0272c3dbf5c8099cdc1d", "is_reserved": 0, "lon": -77.05220633333333, "is_disabled": 0, "fusion_lat": 0.0, "lat": 38.909705333333335, "bike_id": "e5290c0df24f0272c3dbf5c8099cdc1d", "fusion_lon": 0.0}, {"rental_uris": {"ios": "https://dc.lft.to/lastmile_qr_scan", "android": "https://dc.lft.to/lastmile_qr_scan"}, "type": "electric_scooter", "name": "7b0f78cf1d52f2d950f8318b7de64c84", "is_reserved": 0, "lon": -77.02549883333333, "is_disabled": 0, "fusion_lat": 0.0, "lat": 38.95169283333333, "bike_id": "7b0f78cf1d52f2d950f8318b7de64c84", "fusion_lon": 0.0}, {"rental_uris": {"ios": "https://dc.lft.to/lastmile_qr_scan", "android": "https://dc.lft.to/lastmile_qr_scan"}, "type": "electric_scooter", "name": "f8c314c36e90807e93f2f1255c4027b5", "is_reserved": 0, "lon": -77.04138283333333, "is_disabled": 0, "fusion_lat": 0.0, "lat": 38.90567866666667, "bike_id": "f8c314c36e90807e93f2f1255c4027b5", "fusion_lon": 0.0}, {"rental_uris": {"ios": "https://dc.lft.to/lastmile_qr_scan", "android": "https://dc.lft.to/lastmile_qr_scan"}, "type": "electric_scooter", "name": "749ab33ae6a941235edd20a09dbfc346", "is_reserved": 0, "lon": -77.04326566666667, "is_disabled": 0, "fusion_lat": 0.0, "lat": 38.90835716666667, "bike_id": "749ab33ae6a941235edd20a09dbfc346", "fusion_lon": 0.0}, {"rental_uris": {"ios": "https://dc.lft.to/lastmile_qr_scan", "android": "https://dc.lft.to/lastmile_qr_scan"}, "type": "electric_scooter", "name": "e4c61f370760aec4fdfff92d7c31f4c6", "is_reserved": 0, "lon": -76.99514766666667, "is_disabled": 0, "fusion_lat": 0.0, "lat": 38.90329583333333, "bike_id": "e4c61f370760aec4fdfff92d7c31f4c6", "fusion_lon": 0.0}, {"rental_uris": {"ios": "https://dc.lft.to/lastmile_qr_scan", "android": "https://dc.lft.to/lastmile_qr_scan"}, "type": "electric_scooter", "name": "7c4d078ee6553cb7b83ab835fdeb1a69", "is_reserved": 0, "lon": -77.0533495, "is_disabled": 0, "fusion_lat": 0.0, "lat": 38.90446283333333, "bike_id": "7c4d078ee6553cb7b83ab835fdeb1a69", "fusion_lon": 0.0}, {"rental_uris": {"ios": "https://dc.lft.to/lastmile_qr_scan", "android": "https://dc.lft.to/lastmile_qr_scan"}, "type": "electric_scooter", "name": "c4c8d06e71b0155e8d2414eb1f12d227", "is_reserved": 0, "lon": -77.03549666666666, "is_disabled": 0, "fusion_lat": 0.0, "lat": 38.9071635, "bike_id": "c4c8d06e71b0155e8d2414eb1f12d227", "fusion_lon": 0.0}, {"rental_uris": {"ios": "https://dc.lft.to/lastmile_qr_scan", "android": "https://dc.lft.to/lastmile_qr_scan"}, "type": "electric_scooter", "name": "91945862132753b4d987f301d7fea2e2", "is_reserved": 0, "lon": -77.04049683333334, "is_disabled": 0, "fusion_lat": 0.0, "lat": 38.930132666666665, "bike_id": "91945862132753b4d987f301d7fea2e2", "fusion_lon": 0.0}, {"rental_uris": {"ios": "https://dc.lft.to/lastmile_qr_scan", "android": "https://dc.lft.to/lastmile_qr_scan"}, "type": "electric_scooter", "name": "cb2c449dca26a332486c2896eeb238b1", "is_reserved": 0, "lon": -77.04872733333333, "is_disabled": 0, "fusion_lat": 0.0, "lat": 38.91024816666667, "bike_id": "cb2c449dca26a332486c2896eeb238b1", "fusion_lon": 0.0}, {"rental_uris": {"ios": "https://dc.lft.to/lastmile_qr_scan", "android": "https://dc.lft.to/lastmile_qr_scan"}, "type": "electric_scooter", "name": "08f0f79e16b224ae60f0d9925aaa0d3c", "is_reserved": 0, "lon": -77.03802066666667, "is_disabled": 0, "fusion_lat": 0.0, "lat": 38.915425666666664, "bike_id": "08f0f79e16b224ae60f0d9925aaa0d3c", "fusion_lon": 0.0}, {"rental_uris": {"ios": "https://dc.lft.to/lastmile_qr_scan", "android": "https://dc.lft.to/lastmile_qr_scan"}, "type": "electric_scooter", "name": "0dc9fede0ca9c34f59166fc81a1fa7f4", "is_reserved": 0, "lon": -77.0386025, "is_disabled": 0, "fusion_lat": 0.0, "lat": 38.9121945, "bike_id": "0dc9fede0ca9c34f59166fc81a1fa7f4", "fusion_lon": 0.0}, {"rental_uris": {"ios": "https://dc.lft.to/lastmile_qr_scan", "android": "https://dc.lft.to/lastmile_qr_scan"}, "type": "electric_scooter", "name": "53695f1be4fb0bbd6a9961ea9e0c3aa8", "is_reserved": 0, "lon": -77.03807966666666, "is_disabled": 0, "fusion_lat": 0.0, "lat": 38.91546666666667, "bike_id": "53695f1be4fb0bbd6a9961ea9e0c3aa8", "fusion_lon": 0.0}, {"rental_uris": {"ios": "https://dc.lft.to/lastmile_qr_scan", "android": "https://dc.lft.to/lastmile_qr_scan"}, "type": "electric_bike", "name": "fcc93c7e90b7b06e7adc1257e0d606c4", "is_reserved": 0, "lon": -77.03473633333333, "is_disabled": 0, "fusion_lat": 0.0, "lat": 38.90230433333333, "bike_id": "fcc93c7e90b7b06e7adc1257e0d606c4", "fusion_lon": 0.0}, {"rental_uris": {"ios": "https://dc.lft.to/lastmile_qr_scan", "android": "https://dc.lft.to/lastmile_qr_scan"}, "type": "electric_scooter", "name": "82dadc6914723ec07a60d32772ca48f8", "is_reserved": 0, "lon": -77.0332285, "is_disabled": 0, "fusion_lat": 0.0, "lat": 38.900362666666666, "bike_id": "82dadc6914723ec07a60d32772ca48f8", "fusion_lon": 0.0}, {"rental_uris": {"ios": "https://dc.lft.to/lastmile_qr_scan", "android": "https://dc.lft.to/lastmile_qr_scan"}, "type": "electric_scooter", "name": "fa839b5954cf0fe3c32a7421697c253d", "is_reserved": 0, "lon": -77.02501266666667, "is_disabled": 0, "fusion_lat": 0.0, "lat": 38.880286166666664, "bike_id": "fa839b5954cf0fe3c32a7421697c253d", "fusion_lon": 0.0}, {"rental_uris": {"ios": "https://dc.lft.to/lastmile_qr_scan", "android": "https://dc.lft.to/lastmile_qr_scan"}, "type": "electric_scooter", "name": "34e1a34be6014c43b6b220d4bb8da49a", "is_reserved": 0, "lon": -76.99531933333333, "is_disabled": 0, "fusion_lat": 0.0, "lat": 38.862647, "bike_id": "34e1a34be6014c43b6b220d4bb8da49a", "fusion_lon": 0.0}, {"rental_uris": {"ios": "https://dc.lft.to/lastmile_qr_scan", "android": "https://dc.lft.to/lastmile_qr_scan"}, "type": "electric_scooter", "name": "0165d4dedcfcba69b29ebd9dd556917e", "is_reserved": 0, "lon": -77.003416, "is_disabled": 0, "fusion_lat": 0.0, "lat": 38.89616016666667, "bike_id": "0165d4dedcfcba69b29ebd9dd556917e", "fusion_lon": 0.0}, {"rental_uris": {"ios": "https://dc.lft.to/lastmile_qr_scan", "android": "https://dc.lft.to/lastmile_qr_scan"}, "type": "electric_scooter", "name": "5e2fa6099ebace9fd442e09a6e0d6e79", "is_reserved": 0, "lon": -77.075246, "is_disabled": 0, "fusion_lat": 0.0, "lat": 38.939507666666664, "bike_id": "5e2fa6099ebace9fd442e09a6e0d6e79", "fusion_lon": 0.0}, {"rental_uris": {"ios": "https://dc.lft.to/lastmile_qr_scan", "android": "https://dc.lft.to/lastmile_qr_scan"}, "type": "electric_scooter", "name": "688e9ddd9acd4ddc6ad91bed7af2ec7f", "is_reserved": 0, "lon": -77.0296675, "is_disabled": 0, "fusion_lat": 0.0, "lat": 38.928932, "bike_id": "688e9ddd9acd4ddc6ad91bed7af2ec7f", "fusion_lon": 0.0}, {"rental_uris": {"ios": "https://dc.lft.to/lastmile_qr_scan", "android": "https://dc.lft.to/lastmile_qr_scan"}, "type": "electric_scooter", "name": "b9b98b1d6fed5ae3d70e0e64e80838b4", "is_reserved": 0, "lon": -77.07056083333333, "is_disabled": 0, "fusion_lat": 0.0, "lat": 38.8990845, "bike_id": "b9b98b1d6fed5ae3d70e0e64e80838b4", "fusion_lon": 0.0}, {"rental_uris": {"ios": "https://dc.lft.to/lastmile_qr_scan", "android": "https://dc.lft.to/lastmile_qr_scan"}, "type": "electric_scooter", "name": "6ad120c7f7dce0efe8da7012916a69f9", "is_reserved": 0, "lon": -77.00684566666666, "is_disabled": 0, "fusion_lat": 0.0, "lat": 38.8842565, "bike_id": "6ad120c7f7dce0efe8da7012916a69f9", "fusion_lon": 0.0}, {"rental_uris": {"ios": "https://dc.lft.to/lastmile_qr_scan", "android": "https://dc.lft.to/lastmile_qr_scan"}, "type": "electric_scooter", "name": "6c28057b741e6668837f305917d0b559", "is_reserved": 0, "lon": -77.02802033333333, "is_disabled": 0, "fusion_lat": 0.0, "lat": 38.92309516666667, "bike_id": "6c28057b741e6668837f305917d0b559", "fusion_lon": 0.0}, {"rental_uris": {"ios": "https://dc.lft.to/lastmile_qr_scan", "android": "https://dc.lft.to/lastmile_qr_scan"}, "type": "electric_scooter", "name": "74676fe6b1a0e82c746f9160aa18be06", "is_reserved": 0, "lon": -77.04258483333334, "is_disabled": 0, "fusion_lat": 0.0, "lat": 38.92243333333333, "bike_id": "74676fe6b1a0e82c746f9160aa18be06", "fusion_lon": 0.0}, {"rental_uris": {"ios": "https://dc.lft.to/lastmile_qr_scan", "android": "https://dc.lft.to/lastmile_qr_scan"}, "type": "electric_scooter", "name": "0922b2d14a98e6e6ffa1380c9ebab1d6", "is_reserved": 0, "lon": -76.98610666666667, "is_disabled": 0, "fusion_lat": 0.0, "lat": 38.87834383333333, "bike_id": "0922b2d14a98e6e6ffa1380c9ebab1d6", "fusion_lon": 0.0}, {"rental_uris": {"ios": "https://dc.lft.to/lastmile_qr_scan", "android": "https://dc.lft.to/lastmile_qr_scan"}, "type": "electric_scooter", "name": "089ea62cb4f03fac4829d438e220783e", "is_reserved": 0, "lon": -77.0193875, "is_disabled": 0, "fusion_lat": 0.0, "lat": 38.87657, "bike_id": "089ea62cb4f03fac4829d438e220783e", "fusion_lon": 0.0}, {"rental_uris": {"ios": "https://dc.lft.to/lastmile_qr_scan", "android": "https://dc.lft.to/lastmile_qr_scan"}, "type": "electric_scooter", "name": "ea3c69a9532b0f58cc9cc231645e2113", "is_reserved": 0, "lon": -77.00874, "is_disabled": 0, "fusion_lat": 0.0, "lat": 38.912539, "bike_id": "ea3c69a9532b0f58cc9cc231645e2113", "fusion_lon": 0.0}, {"rental_uris": {"ios": "https://dc.lft.to/lastmile_qr_scan", "android": "https://dc.lft.to/lastmile_qr_scan"}, "type": "electric_bike", "name": "715297cc0a54cd6f1f66d0e8012606aa", "is_reserved": 0, "lon": -76.8897305, "is_disabled": 0, "fusion_lat": 0.0, "lat": 39.00782366666667, "bike_id": "715297cc0a54cd6f1f66d0e8012606aa", "fusion_lon": 0.0}, {"rental_uris": {"ios": "https://dc.lft.to/lastmile_qr_scan", "android": "https://dc.lft.to/lastmile_qr_scan"}, "type": "electric_scooter", "name": "7f9bd62f97247eecfb8f6a1bad310e1d", "is_reserved": 0, "lon": -77.04025416666667, "is_disabled": 0, "fusion_lat": 0.0, "lat": 38.8992135, "bike_id": "7f9bd62f97247eecfb8f6a1bad310e1d", "fusion_lon": 0.0}, {"rental_uris": {"ios": "https://dc.lft.to/lastmile_qr_scan", "android": "https://dc.lft.to/lastmile_qr_scan"}, "type": "electric_scooter", "name": "fa90425dcce6214d1b5c5e2ab338476b", "is_reserved": 0, "lon": -77.02056966666666, "is_disabled": 0, "fusion_lat": 0.0, "lat": 38.9224655, "bike_id": "fa90425dcce6214d1b5c5e2ab338476b", "fusion_lon": 0.0}, {"rental_uris": {"ios": "https://dc.lft.to/lastmile_qr_scan", "android": "https://dc.lft.to/lastmile_qr_scan"}, "type": "electric_scooter", "name": "184828ab5ac2ba3d4c5febb2d0b95dbd", "is_reserved": 0, "lon": -77.03478383333334, "is_disabled": 0, "fusion_lat": 0.0, "lat": 38.93021233333333, "bike_id": "184828ab5ac2ba3d4c5febb2d0b95dbd", "fusion_lon": 0.0}, {"rental_uris": {"ios": "https://dc.lft.to/lastmile_qr_scan", "android": "https://dc.lft.to/lastmile_qr_scan"}, "type": "electric_scooter", "name": "2c6d0f83700f1bba9020f7b2df61a3b3", "is_reserved": 0, "lon": -76.99410916666666, "is_disabled": 0, "fusion_lat": 0.0, "lat": 38.87786716666667, "bike_id": "2c6d0f83700f1bba9020f7b2df61a3b3", "fusion_lon": 0.0}, {"rental_uris": {"ios": "https://dc.lft.to/lastmile_qr_scan", "android": "https://dc.lft.to/lastmile_qr_scan"}, "type": "electric_scooter", "name": "06d4018719815a45420009684ff1a46f", "is_reserved": 0, "lon": -76.9977115, "is_disabled": 0, "fusion_lat": 0.0, "lat": 38.90731266666667, "bike_id": "06d4018719815a45420009684ff1a46f", "fusion_lon": 0.0}, {"rental_uris": {"ios": "https://dc.lft.to/lastmile_qr_scan", "android": "https://dc.lft.to/lastmile_qr_scan"}, "type": "electric_scooter", "name": "b8762213239406c37f6b2d9dbe4303ce", "is_reserved": 0, "lon": -77.04074283333334, "is_disabled": 0, "fusion_lat": 0.0, "lat": 38.914192666666665, "bike_id": "b8762213239406c37f6b2d9dbe4303ce", "fusion_lon": 0.0}, {"rental_uris": {"ios": "https://dc.lft.to/lastmile_qr_scan", "android": "https://dc.lft.to/lastmile_qr_scan"}, "type": "electric_scooter", "name": "0246a37940abe930e86f81b5ebfb067b", "is_reserved": 0, "lon": -76.98404916666667, "is_disabled": 0, "fusion_lat": 0.0, "lat": 38.9251625, "bike_id": "0246a37940abe930e86f81b5ebfb067b", "fusion_lon": 0.0}, {"rental_uris": {"ios": "https://dc.lft.to/lastmile_qr_scan", "android": "https://dc.lft.to/lastmile_qr_scan"}, "type": "electric_scooter", "name": "28e280aa34f2a6dc546514aaf0c3315a", "is_reserved": 0, "lon": -77.05289666666667, "is_disabled": 0, "fusion_lat": 0.0, "lat": 38.925403833333334, "bike_id": "28e280aa34f2a6dc546514aaf0c3315a", "fusion_lon": 0.0}, {"rental_uris": {"ios": "https://dc.lft.to/lastmile_qr_scan", "android": "https://dc.lft.to/lastmile_qr_scan"}, "type": "electric_scooter", "name": "a7aab0a3ea8686d914854b811b488500", "is_reserved": 0, "lon": -77.032248, "is_disabled": 0, "fusion_lat": 0.0, "lat": 38.8983485, "bike_id": "a7aab0a3ea8686d914854b811b488500", "fusion_lon": 0.0}, {"rental_uris": {"ios": "https://dc.lft.to/lastmile_qr_scan", "android": "https://dc.lft.to/lastmile_qr_scan"}, "type": "electric_scooter", "name": "632aad9c9188fa0fbb86385c768665a3", "is_reserved": 0, "lon": -77.03881483333333, "is_disabled": 0, "fusion_lat": 0.0, "lat": 38.933994, "bike_id": "632aad9c9188fa0fbb86385c768665a3", "fusion_lon": 0.0}, {"rental_uris": {"ios": "https://dc.lft.to/lastmile_qr_scan", "android": "https://dc.lft.to/lastmile_qr_scan"}, "type": "electric_scooter", "name": "d38c9e55fadfff56ffc753a695e1e864", "is_reserved": 0, "lon": -77.02818233333333, "is_disabled": 0, "fusion_lat": 0.0, "lat": 38.91256333333333, "bike_id": "d38c9e55fadfff56ffc753a695e1e864", "fusion_lon": 0.0}, {"rental_uris": {"ios": "https://dc.lft.to/lastmile_qr_scan", "android": "https://dc.lft.to/lastmile_qr_scan"}, "type": "electric_scooter", "name": "4501ad5e833a9c5deca5e4203ed1223c", "is_reserved": 0, "lon": -77.0332315, "is_disabled": 0, "fusion_lat": 0.0, "lat": 38.918030333333334, "bike_id": "4501ad5e833a9c5deca5e4203ed1223c", "fusion_lon": 0.0}, {"rental_uris": {"ios": "https://dc.lft.to/lastmile_qr_scan", "android": "https://dc.lft.to/lastmile_qr_scan"}, "type": "electric_scooter", "name": "d69a615ee2d5929e6bf78484c9232465", "is_reserved": 0, "lon": -77.04636333333333, "is_disabled": 0, "fusion_lat": 0.0, "lat": 38.906748, "bike_id": "d69a615ee2d5929e6bf78484c9232465", "fusion_lon": 0.0}, {"rental_uris": {"ios": "https://dc.lft.to/lastmile_qr_scan", "android": "https://dc.lft.to/lastmile_qr_scan"}, "type": "electric_scooter", "name": "383d3a05719fee4caaeb4fac007d6fc5", "is_reserved": 0, "lon": -77.04868783333333, "is_disabled": 0, "fusion_lat": 0.0, "lat": 38.901058666666664, "bike_id": "383d3a05719fee4caaeb4fac007d6fc5", "fusion_lon": 0.0}, {"rental_uris": {"ios": "https://dc.lft.to/lastmile_qr_scan", "android": "https://dc.lft.to/lastmile_qr_scan"}, "type": "electric_scooter", "name": "2b2c4322351b4abc8fca04ddf1b2623b", "is_reserved": 0, "lon": -77.012116, "is_disabled": 0, "fusion_lat": 0.0, "lat": 38.921162833333334, "bike_id": "2b2c4322351b4abc8fca04ddf1b2623b", "fusion_lon": 0.0}, {"rental_uris": {"ios": "https://dc.lft.to/lastmile_qr_scan", "android": "https://dc.lft.to/lastmile_qr_scan"}, "type": "electric_scooter", "name": "ce95b3754f71f7fb222df9ea24a6a477", "is_reserved": 0, "lon": -77.04676766666667, "is_disabled": 0, "fusion_lat": 0.0, "lat": 38.89232166666667, "bike_id": "ce95b3754f71f7fb222df9ea24a6a477", "fusion_lon": 0.0}, {"rental_uris": {"ios": "https://dc.lft.to/lastmile_qr_scan", "android": "https://dc.lft.to/lastmile_qr_scan"}, "type": "electric_scooter", "name": "17a8c14c739aceb877eb2fd5c6310eb0", "is_reserved": 0, "lon": -77.0121025, "is_disabled": 0, "fusion_lat": 0.0, "lat": 38.911964, "bike_id": "17a8c14c739aceb877eb2fd5c6310eb0", "fusion_lon": 0.0}, {"rental_uris": {"ios": "https://dc.lft.to/lastmile_qr_scan", "android": "https://dc.lft.to/lastmile_qr_scan"}, "type": "electric_scooter", "name": "64e23cf134b0b42461fce9ef0a1a7da8", "is_reserved": 0, "lon": -77.0250305, "is_disabled": 0, "fusion_lat": 0.0, "lat": 38.91958833333333, "bike_id": "64e23cf134b0b42461fce9ef0a1a7da8", "fusion_lon": 0.0}, {"rental_uris": {"ios": "https://dc.lft.to/lastmile_qr_scan", "android": "https://dc.lft.to/lastmile_qr_scan"}, "type": "electric_bike", "name": "c9a55d0572bb260a46211c9219a8c57f", "is_reserved": 0, "lon": -76.9626675, "is_disabled": 0, "fusion_lat": 0.0, "lat": 38.96787283333333, "bike_id": "c9a55d0572bb260a46211c9219a8c57f", "fusion_lon": 0.0}, {"rental_uris": {"ios": "https://dc.lft.to/lastmile_qr_scan", "android": "https://dc.lft.to/lastmile_qr_scan"}, "type": "electric_bike", "name": "283f8e39f067dc30384c3602531006ee", "is_reserved": 0, "lon": -76.93664033333333, "is_disabled": 0, "fusion_lat": 0.0, "lat": 38.894533833333334, "bike_id": "283f8e39f067dc30384c3602531006ee", "fusion_lon": 0.0}, {"rental_uris": {"ios": "https://dc.lft.to/lastmile_qr_scan", "android": "https://dc.lft.to/lastmile_qr_scan"}, "type": "electric_bike", "name": "7cb3b83f31ebe4f01fd952559ff746c5", "is_reserved": 0, "lon": -76.98689133333333, "is_disabled": 0, "fusion_lat": 0.0, "lat": 38.944702166666666, "bike_id": "7cb3b83f31ebe4f01fd952559ff746c5", "fusion_lon": 0.0}, {"rental_uris": {"ios": "https://dc.lft.to/lastmile_qr_scan", "android": "https://dc.lft.to/lastmile_qr_scan"}, "type": "electric_scooter", "name": "ef2996500504b83418fb0f5013639e21", "is_reserved": 0, "lon": -77.03192883333334, "is_disabled": 0, "fusion_lat": 0.0, "lat": 38.914251166666666, "bike_id": "ef2996500504b83418fb0f5013639e21", "fusion_lon": 0.0}, {"rental_uris": {"ios": "https://dc.lft.to/lastmile_qr_scan", "android": "https://dc.lft.to/lastmile_qr_scan"}, "type": "electric_scooter", "name": "8072d16c165df9bc2151cc0e4f57a186", "is_reserved": 0, "lon": -77.04488183333333, "is_disabled": 0, "fusion_lat": 0.0, "lat": 38.91929016666667, "bike_id": "8072d16c165df9bc2151cc0e4f57a186", "fusion_lon": 0.0}, {"rental_uris": {"ios": "https://dc.lft.to/lastmile_qr_scan", "android": "https://dc.lft.to/lastmile_qr_scan"}, "type": "electric_scooter", "name": "b8c74e7a6eade08477ba217f9d4c9562", "is_reserved": 0, "lon": -76.99626466666666, "is_disabled": 0, "fusion_lat": 0.0, "lat": 38.88964266666667, "bike_id": "b8c74e7a6eade08477ba217f9d4c9562", "fusion_lon": 0.0}, {"rental_uris": {"ios": "https://dc.lft.to/lastmile_qr_scan", "android": "https://dc.lft.to/lastmile_qr_scan"}, "type": "electric_scooter", "name": "de5e154c8b8529799cd2039fceab230c", "is_reserved": 0, "lon": -77.02760933333333, "is_disabled": 0, "fusion_lat": 0.0, "lat": 38.956114, "bike_id": "de5e154c8b8529799cd2039fceab230c", "fusion_lon": 0.0}, {"rental_uris": {"ios": "https://dc.lft.to/lastmile_qr_scan", "android": "https://dc.lft.to/lastmile_qr_scan"}, "type": "electric_scooter", "name": "2ddc0b25177144423b4bcece4db1ce82", "is_reserved": 0, "lon": -76.985131, "is_disabled": 0, "fusion_lat": 0.0, "lat": 38.87990883333333, "bike_id": "2ddc0b25177144423b4bcece4db1ce82", "fusion_lon": 0.0}, {"rental_uris": {"ios": "https://dc.lft.to/lastmile_qr_scan", "android": "https://dc.lft.to/lastmile_qr_scan"}, "type": "electric_scooter", "name": "98835b286d96e16989a106ed32c4fa17", "is_reserved": 0, "lon": -77.03325466666666, "is_disabled": 0, "fusion_lat": 0.0, "lat": 38.898414, "bike_id": "98835b286d96e16989a106ed32c4fa17", "fusion_lon": 0.0}, {"rental_uris": {"ios": "https://dc.lft.to/lastmile_qr_scan", "android": "https://dc.lft.to/lastmile_qr_scan"}, "type": "electric_scooter", "name": "7f8b43292b14d4cd2d935ff7346f8bcd", "is_reserved": 0, "lon": -77.05910233333333, "is_disabled": 0, "fusion_lat": 0.0, "lat": 38.90218516666667, "bike_id": "7f8b43292b14d4cd2d935ff7346f8bcd", "fusion_lon": 0.0}, {"rental_uris": {"ios": "https://dc.lft.to/lastmile_qr_scan", "android": "https://dc.lft.to/lastmile_qr_scan"}, "type": "electric_scooter", "name": "db39aef3ca96b0b59e50308e11606687", "is_reserved": 0, "lon": -77.011001, "is_disabled": 0, "fusion_lat": 0.0, "lat": 38.885389833333335, "bike_id": "db39aef3ca96b0b59e50308e11606687", "fusion_lon": 0.0}, {"rental_uris": {"ios": "https://dc.lft.to/lastmile_qr_scan", "android": "https://dc.lft.to/lastmile_qr_scan"}, "type": "electric_scooter", "name": "abbee6cad67ad0e66453060332524d05", "is_reserved": 0, "lon": -77.04624783333334, "is_disabled": 0, "fusion_lat": 0.0, "lat": 38.9013365, "bike_id": "abbee6cad67ad0e66453060332524d05", "fusion_lon": 0.0}, {"rental_uris": {"ios": "https://dc.lft.to/lastmile_qr_scan", "android": "https://dc.lft.to/lastmile_qr_scan"}, "type": "electric_scooter", "name": "61530f83f3c27ceda5a83cd24791f217", "is_reserved": 0, "lon": -77.0122315, "is_disabled": 0, "fusion_lat": 0.0, "lat": 38.9203515, "bike_id": "61530f83f3c27ceda5a83cd24791f217", "fusion_lon": 0.0}, {"rental_uris": {"ios": "https://dc.lft.to/lastmile_qr_scan", "android": "https://dc.lft.to/lastmile_qr_scan"}, "type": "electric_scooter", "name": "9e8e91a4ab9f686c459e414bc35b02c1", "is_reserved": 0, "lon": -77.0315175, "is_disabled": 0, "fusion_lat": 0.0, "lat": 38.92022883333333, "bike_id": "9e8e91a4ab9f686c459e414bc35b02c1", "fusion_lon": 0.0}, {"rental_uris": {"ios": "https://dc.lft.to/lastmile_qr_scan", "android": "https://dc.lft.to/lastmile_qr_scan"}, "type": "electric_scooter", "name": "e979b5776ab4b3b56a8f6446a7cf5c4a", "is_reserved": 0, "lon": -77.03552066666667, "is_disabled": 0, "fusion_lat": 0.0, "lat": 38.906211666666664, "bike_id": "e979b5776ab4b3b56a8f6446a7cf5c4a", "fusion_lon": 0.0}, {"rental_uris": {"ios": "https://dc.lft.to/lastmile_qr_scan", "android": "https://dc.lft.to/lastmile_qr_scan"}, "type": "electric_scooter", "name": "024e65bae44081bb595f8f8edc3aa053", "is_reserved": 0, "lon": -77.02591383333333, "is_disabled": 0, "fusion_lat": 0.0, "lat": 38.88071433333333, "bike_id": "024e65bae44081bb595f8f8edc3aa053", "fusion_lon": 0.0}, {"rental_uris": {"ios": "https://dc.lft.to/lastmile_qr_scan", "android": "https://dc.lft.to/lastmile_qr_scan"}, "type": "electric_scooter", "name": "60226ef356fbe27536310d5ad7e693ae", "is_reserved": 0, "lon": -77.05036, "is_disabled": 0, "fusion_lat": 0.0, "lat": 38.90084816666667, "bike_id": "60226ef356fbe27536310d5ad7e693ae", "fusion_lon": 0.0}, {"rental_uris": {"ios": "https://dc.lft.to/lastmile_qr_scan", "android": "https://dc.lft.to/lastmile_qr_scan"}, "type": "electric_scooter", "name": "5ac86a91a6152a403e9dfdf51c8ca2e4", "is_reserved": 0, "lon": -77.00529083333333, "is_disabled": 0, "fusion_lat": 0.0, "lat": 38.8850875, "bike_id": "5ac86a91a6152a403e9dfdf51c8ca2e4", "fusion_lon": 0.0}, {"rental_uris": {"ios": "https://dc.lft.to/lastmile_qr_scan", "android": "https://dc.lft.to/lastmile_qr_scan"}, "type": "electric_scooter", "name": "486e50bfaa43bf8f0374960f87373854", "is_reserved": 0, "lon": -77.01454483333333, "is_disabled": 0, "fusion_lat": 0.0, "lat": 38.89943616666667, "bike_id": "486e50bfaa43bf8f0374960f87373854", "fusion_lon": 0.0}, {"rental_uris": {"ios": "https://dc.lft.to/lastmile_qr_scan", "android": "https://dc.lft.to/lastmile_qr_scan"}, "type": "electric_bike", "name": "c407a3a08d12dcb5be376b14f3210a4b", "is_reserved": 0, "lon": -76.96108333333333, "is_disabled": 0, "fusion_lat": 0.0, "lat": 38.94962266666667, "bike_id": "c407a3a08d12dcb5be376b14f3210a4b", "fusion_lon": 0.0}, {"rental_uris": {"ios": "https://dc.lft.to/lastmile_qr_scan", "android": "https://dc.lft.to/lastmile_qr_scan"}, "type": "electric_scooter", "name": "d6b9f6c8b397046e8bcc4b4902c48fa8", "is_reserved": 0, "lon": -77.052169, "is_disabled": 0, "fusion_lat": 0.0, "lat": 38.924915, "bike_id": "d6b9f6c8b397046e8bcc4b4902c48fa8", "fusion_lon": 0.0}, {"rental_uris": {"ios": "https://dc.lft.to/lastmile_qr_scan", "android": "https://dc.lft.to/lastmile_qr_scan"}, "type": "electric_scooter", "name": "e05a4e28847e7c396cb2de324532b0b1", "is_reserved": 0, "lon": -77.0308255, "is_disabled": 0, "fusion_lat": 0.0, "lat": 38.933029, "bike_id": "e05a4e28847e7c396cb2de324532b0b1", "fusion_lon": 0.0}, {"rental_uris": {"ios": "https://dc.lft.to/lastmile_qr_scan", "android": "https://dc.lft.to/lastmile_qr_scan"}, "type": "electric_scooter", "name": "8ec8116a5245c70a8e8e501a60f5cdbb", "is_reserved": 0, "lon": -77.02789766666666, "is_disabled": 0, "fusion_lat": 0.0, "lat": 38.89872233333333, "bike_id": "8ec8116a5245c70a8e8e501a60f5cdbb", "fusion_lon": 0.0}, {"rental_uris": {"ios": "https://dc.lft.to/lastmile_qr_scan", "android": "https://dc.lft.to/lastmile_qr_scan"}, "type": "electric_scooter", "name": "f5ee526081271d051872bb1157718d68", "is_reserved": 0, "lon": -77.01945383333333, "is_disabled": 0, "fusion_lat": 0.0, "lat": 38.946964666666666, "bike_id": "f5ee526081271d051872bb1157718d68", "fusion_lon": 0.0}, {"rental_uris": {"ios": "https://dc.lft.to/lastmile_qr_scan", "android": "https://dc.lft.to/lastmile_qr_scan"}, "type": "electric_bike", "name": "34f5a8028eae5f2f87c0923c909b830d", "is_reserved": 0, "lon": -76.95160433333334, "is_disabled": 0, "fusion_lat": 0.0, "lat": 39.084311, "bike_id": "34f5a8028eae5f2f87c0923c909b830d", "fusion_lon": 0.0}, {"rental_uris": {"ios": "https://dc.lft.to/lastmile_qr_scan", "android": "https://dc.lft.to/lastmile_qr_scan"}, "type": "electric_scooter", "name": "8ca145675ad5188b8d09c7fd1ad8b159", "is_reserved": 0, "lon": -77.007829, "is_disabled": 0, "fusion_lat": 0.0, "lat": 38.952425, "bike_id": "8ca145675ad5188b8d09c7fd1ad8b159", "fusion_lon": 0.0}, {"rental_uris": {"ios": "https://dc.lft.to/lastmile_qr_scan", "android": "https://dc.lft.to/lastmile_qr_scan"}, "type": "electric_scooter", "name": "82a74136d6abd1a4567e3c7e105d6d58", "is_reserved": 0, "lon": -77.03336116666667, "is_disabled": 0, "fusion_lat": 0.0, "lat": 38.8876585, "bike_id": "82a74136d6abd1a4567e3c7e105d6d58", "fusion_lon": 0.0}, {"rental_uris": {"ios": "https://dc.lft.to/lastmile_qr_scan", "android": "https://dc.lft.to/lastmile_qr_scan"}, "type": "electric_scooter", "name": "e0aad2b0d067006fe9ca47f5c1c5691e", "is_reserved": 0, "lon": -77.0015745, "is_disabled": 0, "fusion_lat": 0.0, "lat": 38.82133816666666, "bike_id": "e0aad2b0d067006fe9ca47f5c1c5691e", "fusion_lon": 0.0}, {"rental_uris": {"ios": "https://dc.lft.to/lastmile_qr_scan", "android": "https://dc.lft.to/lastmile_qr_scan"}, "type": "electric_scooter", "name": "f5af5f1cedfcc6c71941e49601db7eec", "is_reserved": 0, "lon": -77.03352733333334, "is_disabled": 0, "fusion_lat": 0.0, "lat": 38.892393166666665, "bike_id": "f5af5f1cedfcc6c71941e49601db7eec", "fusion_lon": 0.0}, {"rental_uris": {"ios": "https://dc.lft.to/lastmile_qr_scan", "android": "https://dc.lft.to/lastmile_qr_scan"}, "type": "electric_scooter", "name": "96826d194f10a8ef292519e776ecfc5a", "is_reserved": 0, "lon": -77.01347133333333, "is_disabled": 0, "fusion_lat": 0.0, "lat": 38.9191855, "bike_id": "96826d194f10a8ef292519e776ecfc5a", "fusion_lon": 0.0}, {"rental_uris": {"ios": "https://dc.lft.to/lastmile_qr_scan", "android": "https://dc.lft.to/lastmile_qr_scan"}, "type": "electric_scooter", "name": "5df3df7d34054559788b18ab483685c9", "is_reserved": 0, "lon": -76.93045816666667, "is_disabled": 0, "fusion_lat": 0.0, "lat": 38.883752, "bike_id": "5df3df7d34054559788b18ab483685c9", "fusion_lon": 0.0}, {"rental_uris": {"ios": "https://dc.lft.to/lastmile_qr_scan", "android": "https://dc.lft.to/lastmile_qr_scan"}, "type": "electric_scooter", "name": "dd6f1a1fa1812b726fab0bc34fbb25fd", "is_reserved": 0, "lon": -77.02016383333333, "is_disabled": 0, "fusion_lat": 0.0, "lat": 38.89219033333333, "bike_id": "dd6f1a1fa1812b726fab0bc34fbb25fd", "fusion_lon": 0.0}, {"rental_uris": {"ios": "https://dc.lft.to/lastmile_qr_scan", "android": "https://dc.lft.to/lastmile_qr_scan"}, "type": "electric_scooter", "name": "fada25203781208cbdad066e9de63981", "is_reserved": 0, "lon": -76.9483395, "is_disabled": 0, "fusion_lat": 0.0, "lat": 38.88518083333334, "bike_id": "fada25203781208cbdad066e9de63981", "fusion_lon": 0.0}, {"rental_uris": {"ios": "https://dc.lft.to/lastmile_qr_scan", "android": "https://dc.lft.to/lastmile_qr_scan"}, "type": "electric_scooter", "name": "c4e72237b834e6b1f58831b718ec8299", "is_reserved": 0, "lon": -77.01085433333333, "is_disabled": 0, "fusion_lat": 0.0, "lat": 38.894082, "bike_id": "c4e72237b834e6b1f58831b718ec8299", "fusion_lon": 0.0}, {"rental_uris": {"ios": "https://dc.lft.to/lastmile_qr_scan", "android": "https://dc.lft.to/lastmile_qr_scan"}, "type": "electric_bike", "name": "8a67eac1fe6aa59bfa9bdd51f2c5c53e", "is_reserved": 0, "lon": -76.97553883333333, "is_disabled": 0, "fusion_lat": 0.0, "lat": 38.904338833333334, "bike_id": "8a67eac1fe6aa59bfa9bdd51f2c5c53e", "fusion_lon": 0.0}, {"rental_uris": {"ios": "https://dc.lft.to/lastmile_qr_scan", "android": "https://dc.lft.to/lastmile_qr_scan"}, "type": "electric_bike", "name": "9b2be2b7e308bc22d1ebd725a0a93591", "is_reserved": 0, "lon": -77.1062715, "is_disabled": 0, "fusion_lat": 0.0, "lat": 38.87327166666667, "bike_id": "9b2be2b7e308bc22d1ebd725a0a93591", "fusion_lon": 0.0}, {"rental_uris": {"ios": "https://dc.lft.to/lastmile_qr_scan", "android": "https://dc.lft.to/lastmile_qr_scan"}, "type": "electric_scooter", "name": "80b1ef52ce0c3afdc2cb444a2509f347", "is_reserved": 0, "lon": -77.0480115, "is_disabled": 0, "fusion_lat": 0.0, "lat": 38.897560666666664, "bike_id": "80b1ef52ce0c3afdc2cb444a2509f347", "fusion_lon": 0.0}, {"rental_uris": {"ios": "https://dc.lft.to/lastmile_qr_scan", "android": "https://dc.lft.to/lastmile_qr_scan"}, "type": "electric_scooter", "name": "e7a35f5314af25efaf4481a2ef73e070", "is_reserved": 0, "lon": -77.03577983333334, "is_disabled": 0, "fusion_lat": 0.0, "lat": 38.8817955, "bike_id": "e7a35f5314af25efaf4481a2ef73e070", "fusion_lon": 0.0}, {"rental_uris": {"ios": "https://dc.lft.to/lastmile_qr_scan", "android": "https://dc.lft.to/lastmile_qr_scan"}, "type": "electric_scooter", "name": "a6e7ee737a8ac6da45671df55de16e74", "is_reserved": 0, "lon": -77.02202483333333, "is_disabled": 0, "fusion_lat": 0.0, "lat": 38.91135216666667, "bike_id": "a6e7ee737a8ac6da45671df55de16e74", "fusion_lon": 0.0}, {"rental_uris": {"ios": "https://dc.lft.to/lastmile_qr_scan", "android": "https://dc.lft.to/lastmile_qr_scan"}, "type": "electric_scooter", "name": "eaca31883090fb629fac02bfaddd11b9", "is_reserved": 0, "lon": -77.03174416666667, "is_disabled": 0, "fusion_lat": 0.0, "lat": 38.914168333333336, "bike_id": "eaca31883090fb629fac02bfaddd11b9", "fusion_lon": 0.0}, {"rental_uris": {"ios": "https://dc.lft.to/lastmile_qr_scan", "android": "https://dc.lft.to/lastmile_qr_scan"}, "type": "electric_scooter", "name": "9b0468af9da64ef888ace38146d0a9f6", "is_reserved": 0, "lon": -76.9230675, "is_disabled": 0, "fusion_lat": 0.0, "lat": 38.89387083333333, "bike_id": "9b0468af9da64ef888ace38146d0a9f6", "fusion_lon": 0.0}, {"rental_uris": {"ios": "https://dc.lft.to/lastmile_qr_scan", "android": "https://dc.lft.to/lastmile_qr_scan"}, "type": "electric_scooter", "name": "9ea0d56eb39859fee217a3ba1aade498", "is_reserved": 0, "lon": -77.07412583333333, "is_disabled": 0, "fusion_lat": 0.0, "lat": 38.89720666666667, "bike_id": "9ea0d56eb39859fee217a3ba1aade498", "fusion_lon": 0.0}, {"rental_uris": {"ios": "https://dc.lft.to/lastmile_qr_scan", "android": "https://dc.lft.to/lastmile_qr_scan"}, "type": "electric_bike", "name": "3caa20e1de696d6a76a62e08db185bb7", "is_reserved": 0, "lon": -77.01644783333333, "is_disabled": 0, "fusion_lat": 0.0, "lat": 38.881217166666666, "bike_id": "3caa20e1de696d6a76a62e08db185bb7", "fusion_lon": 0.0}, {"rental_uris": {"ios": "https://dc.lft.to/lastmile_qr_scan", "android": "https://dc.lft.to/lastmile_qr_scan"}, "type": "electric_scooter", "name": "3551e9a9ccb6328e457cedcaf8e5f620", "is_reserved": 0, "lon": -77.02764116666667, "is_disabled": 0, "fusion_lat": 0.0, "lat": 38.913438666666664, "bike_id": "3551e9a9ccb6328e457cedcaf8e5f620", "fusion_lon": 0.0}, {"rental_uris": {"ios": "https://dc.lft.to/lastmile_qr_scan", "android": "https://dc.lft.to/lastmile_qr_scan"}, "type": "electric_scooter", "name": "26f16c527eac930f51ea7a49b94bec88", "is_reserved": 0, "lon": -76.98865966666666, "is_disabled": 0, "fusion_lat": 0.0, "lat": 38.90025983333334, "bike_id": "26f16c527eac930f51ea7a49b94bec88", "fusion_lon": 0.0}, {"rental_uris": {"ios": "https://dc.lft.to/lastmile_qr_scan", "android": "https://dc.lft.to/lastmile_qr_scan"}, "type": "electric_scooter", "name": "94af8c93af1487916feb5c77a159d9db", "is_reserved": 0, "lon": -76.98650233333333, "is_disabled": 0, "fusion_lat": 0.0, "lat": 38.905423666666664, "bike_id": "94af8c93af1487916feb5c77a159d9db", "fusion_lon": 0.0}, {"rental_uris": {"ios": "https://dc.lft.to/lastmile_qr_scan", "android": "https://dc.lft.to/lastmile_qr_scan"}, "type": "electric_scooter", "name": "8b23a1f0469ea0c3c3801912b2b0e521", "is_reserved": 0, "lon": -77.00408283333333, "is_disabled": 0, "fusion_lat": 0.0, "lat": 38.87921733333334, "bike_id": "8b23a1f0469ea0c3c3801912b2b0e521", "fusion_lon": 0.0}, {"rental_uris": {"ios": "https://dc.lft.to/lastmile_qr_scan", "android": "https://dc.lft.to/lastmile_qr_scan"}, "type": "electric_scooter", "name": "84375172b8e2251f7ad6731677cdac37", "is_reserved": 0, "lon": -77.021339, "is_disabled": 0, "fusion_lat": 0.0, "lat": 38.92411233333333, "bike_id": "84375172b8e2251f7ad6731677cdac37", "fusion_lon": 0.0}, {"rental_uris": {"ios": "https://dc.lft.to/lastmile_qr_scan", "android": "https://dc.lft.to/lastmile_qr_scan"}, "type": "electric_scooter", "name": "9e369976c7dca0b3e5e034409f5594bd", "is_reserved": 0, "lon": -77.0150145, "is_disabled": 0, "fusion_lat": 0.0, "lat": 38.926676666666665, "bike_id": "9e369976c7dca0b3e5e034409f5594bd", "fusion_lon": 0.0}, {"rental_uris": {"ios": "https://dc.lft.to/lastmile_qr_scan", "android": "https://dc.lft.to/lastmile_qr_scan"}, "type": "electric_scooter", "name": "4f22c011b45d646ba82541327d76835a", "is_reserved": 0, "lon": -77.03400616666667, "is_disabled": 0, "fusion_lat": 0.0, "lat": 38.90146383333333, "bike_id": "4f22c011b45d646ba82541327d76835a", "fusion_lon": 0.0}, {"rental_uris": {"ios": "https://dc.lft.to/lastmile_qr_scan", "android": "https://dc.lft.to/lastmile_qr_scan"}, "type": "electric_scooter", "name": "1e9ac14870ca52579e1131a5b7f2401f", "is_reserved": 0, "lon": -77.03812833333333, "is_disabled": 0, "fusion_lat": 0.0, "lat": 38.90381516666667, "bike_id": "1e9ac14870ca52579e1131a5b7f2401f", "fusion_lon": 0.0}, {"rental_uris": {"ios": "https://dc.lft.to/lastmile_qr_scan", "android": "https://dc.lft.to/lastmile_qr_scan"}, "type": "electric_scooter", "name": "d8a9e887e9e5959574810c4e0d175b7c", "is_reserved": 0, "lon": -76.98446333333334, "is_disabled": 0, "fusion_lat": 0.0, "lat": 38.914782833333334, "bike_id": "d8a9e887e9e5959574810c4e0d175b7c", "fusion_lon": 0.0}, {"rental_uris": {"ios": "https://dc.lft.to/lastmile_qr_scan", "android": "https://dc.lft.to/lastmile_qr_scan"}, "type": "electric_scooter", "name": "48f50f66eb5a9bb315a218d67dac72b2", "is_reserved": 0, "lon": -77.04420816666666, "is_disabled": 0, "fusion_lat": 0.0, "lat": 38.91970333333333, "bike_id": "48f50f66eb5a9bb315a218d67dac72b2", "fusion_lon": 0.0}, {"rental_uris": {"ios": "https://dc.lft.to/lastmile_qr_scan", "android": "https://dc.lft.to/lastmile_qr_scan"}, "type": "electric_scooter", "name": "1b128eedcc58cd7535788fed4b7ae0d4", "is_reserved": 0, "lon": -77.06241066666666, "is_disabled": 0, "fusion_lat": 0.0, "lat": 38.905243, "bike_id": "1b128eedcc58cd7535788fed4b7ae0d4", "fusion_lon": 0.0}, {"rental_uris": {"ios": "https://dc.lft.to/lastmile_qr_scan", "android": "https://dc.lft.to/lastmile_qr_scan"}, "type": "electric_scooter", "name": "26c716b43e24c333b2b63fa2a021d5d8", "is_reserved": 0, "lon": -77.03504166666667, "is_disabled": 0, "fusion_lat": 0.0, "lat": 38.928593166666666, "bike_id": "26c716b43e24c333b2b63fa2a021d5d8", "fusion_lon": 0.0}, {"rental_uris": {"ios": "https://dc.lft.to/lastmile_qr_scan", "android": "https://dc.lft.to/lastmile_qr_scan"}, "type": "electric_scooter", "name": "b5a4498a11347a92eea677575b4333e4", "is_reserved": 0, "lon": -76.985554, "is_disabled": 0, "fusion_lat": 0.0, "lat": 38.88990033333333, "bike_id": "b5a4498a11347a92eea677575b4333e4", "fusion_lon": 0.0}, {"rental_uris": {"ios": "https://dc.lft.to/lastmile_qr_scan", "android": "https://dc.lft.to/lastmile_qr_scan"}, "type": "electric_scooter", "name": "16951b76cc96b7a089f5605f55128d9d", "is_reserved": 0, "lon": -77.05328266666666, "is_disabled": 0, "fusion_lat": 0.0, "lat": 38.90728683333333, "bike_id": "16951b76cc96b7a089f5605f55128d9d", "fusion_lon": 0.0}, {"rental_uris": {"ios": "https://dc.lft.to/lastmile_qr_scan", "android": "https://dc.lft.to/lastmile_qr_scan"}, "type": "electric_scooter", "name": "b0f3c8016c0b15c0c9a5522ffa674ef3", "is_reserved": 0, "lon": -77.024568, "is_disabled": 0, "fusion_lat": 0.0, "lat": 38.9375655, "bike_id": "b0f3c8016c0b15c0c9a5522ffa674ef3", "fusion_lon": 0.0}, {"rental_uris": {"ios": "https://dc.lft.to/lastmile_qr_scan", "android": "https://dc.lft.to/lastmile_qr_scan"}, "type": "electric_scooter", "name": "cb6de400e0d1085cc371c72ac3e454f5", "is_reserved": 0, "lon": -77.020032, "is_disabled": 0, "fusion_lat": 0.0, "lat": 38.902664, "bike_id": "cb6de400e0d1085cc371c72ac3e454f5", "fusion_lon": 0.0}, {"rental_uris": {"ios": "https://dc.lft.to/lastmile_qr_scan", "android": "https://dc.lft.to/lastmile_qr_scan"}, "type": "electric_scooter", "name": "1636105a5a3f5d747001f2633aa666fd", "is_reserved": 0, "lon": -77.033071, "is_disabled": 0, "fusion_lat": 0.0, "lat": 38.90389416666667, "bike_id": "1636105a5a3f5d747001f2633aa666fd", "fusion_lon": 0.0}, {"rental_uris": {"ios": "https://dc.lft.to/lastmile_qr_scan", "android": "https://dc.lft.to/lastmile_qr_scan"}, "type": "electric_scooter", "name": "435cbb58a375f111f899701033901383", "is_reserved": 0, "lon": -76.9766825, "is_disabled": 0, "fusion_lat": 0.0, "lat": 38.926333, "bike_id": "435cbb58a375f111f899701033901383", "fusion_lon": 0.0}, {"rental_uris": {"ios": "https://dc.lft.to/lastmile_qr_scan", "android": "https://dc.lft.to/lastmile_qr_scan"}, "type": "electric_scooter", "name": "d5637df2bb828e51fee3a3e28ade281c", "is_reserved": 0, "lon": -77.03753266666666, "is_disabled": 0, "fusion_lat": 0.0, "lat": 38.92909916666667, "bike_id": "d5637df2bb828e51fee3a3e28ade281c", "fusion_lon": 0.0}, {"rental_uris": {"ios": "https://dc.lft.to/lastmile_qr_scan", "android": "https://dc.lft.to/lastmile_qr_scan"}, "type": "electric_scooter", "name": "4e38fb772e0fe6ad038b37b0ca2d0160", "is_reserved": 0, "lon": -77.03387783333334, "is_disabled": 0, "fusion_lat": 0.0, "lat": 38.88658983333333, "bike_id": "4e38fb772e0fe6ad038b37b0ca2d0160", "fusion_lon": 0.0}, {"rental_uris": {"ios": "https://dc.lft.to/lastmile_qr_scan", "android": "https://dc.lft.to/lastmile_qr_scan"}, "type": "electric_scooter", "name": "7ac02af0c48b5e6287653795b82f8cd3", "is_reserved": 0, "lon": -77.05834066666667, "is_disabled": 0, "fusion_lat": 0.0, "lat": 38.905346333333334, "bike_id": "7ac02af0c48b5e6287653795b82f8cd3", "fusion_lon": 0.0}, {"rental_uris": {"ios": "https://dc.lft.to/lastmile_qr_scan", "android": "https://dc.lft.to/lastmile_qr_scan"}, "type": "electric_scooter", "name": "f3e0742791ef1f067b85e791b8564966", "is_reserved": 0, "lon": -77.05719083333334, "is_disabled": 0, "fusion_lat": 0.0, "lat": 38.93354866666667, "bike_id": "f3e0742791ef1f067b85e791b8564966", "fusion_lon": 0.0}, {"rental_uris": {"ios": "https://dc.lft.to/lastmile_qr_scan", "android": "https://dc.lft.to/lastmile_qr_scan"}, "type": "electric_bike", "name": "f41a80adf1e1fd782343d04f31a7695e", "is_reserved": 0, "lon": -77.11425366666667, "is_disabled": 0, "fusion_lat": 0.0, "lat": 38.87322966666667, "bike_id": "f41a80adf1e1fd782343d04f31a7695e", "fusion_lon": 0.0}, {"rental_uris": {"ios": "https://dc.lft.to/lastmile_qr_scan", "android": "https://dc.lft.to/lastmile_qr_scan"}, "type": "electric_scooter", "name": "a36f073c99a6e3575a23a16920a54b05", "is_reserved": 0, "lon": -77.03228716666666, "is_disabled": 0, "fusion_lat": 0.0, "lat": 38.8962515, "bike_id": "a36f073c99a6e3575a23a16920a54b05", "fusion_lon": 0.0}, {"rental_uris": {"ios": "https://dc.lft.to/lastmile_qr_scan", "android": "https://dc.lft.to/lastmile_qr_scan"}, "type": "electric_scooter", "name": "3b3d809da16a55b7a6ae666defc36165", "is_reserved": 0, "lon": -77.063353, "is_disabled": 0, "fusion_lat": 0.0, "lat": 38.90689, "bike_id": "3b3d809da16a55b7a6ae666defc36165", "fusion_lon": 0.0}, {"rental_uris": {"ios": "https://dc.lft.to/lastmile_qr_scan", "android": "https://dc.lft.to/lastmile_qr_scan"}, "type": "electric_scooter", "name": "25b28841f75e2ab51d6d59b20e385fb6", "is_reserved": 0, "lon": -77.03709666666667, "is_disabled": 0, "fusion_lat": 0.0, "lat": 38.926519166666665, "bike_id": "25b28841f75e2ab51d6d59b20e385fb6", "fusion_lon": 0.0}, {"rental_uris": {"ios": "https://dc.lft.to/lastmile_qr_scan", "android": "https://dc.lft.to/lastmile_qr_scan"}, "type": "electric_scooter", "name": "3c4626d11d08573facd6d75fbd3718c9", "is_reserved": 0, "lon": -77.07908616666667, "is_disabled": 0, "fusion_lat": 0.0, "lat": 38.947740833333334, "bike_id": "3c4626d11d08573facd6d75fbd3718c9", "fusion_lon": 0.0}, {"rental_uris": {"ios": "https://dc.lft.to/lastmile_qr_scan", "android": "https://dc.lft.to/lastmile_qr_scan"}, "type": "electric_bike", "name": "337694f6e42ab07b1bbe8cc516391d2a", "is_reserved": 0, "lon": -77.12735133333334, "is_disabled": 0, "fusion_lat": 0.0, "lat": 38.89561583333333, "bike_id": "337694f6e42ab07b1bbe8cc516391d2a", "fusion_lon": 0.0}, {"rental_uris": {"ios": "https://dc.lft.to/lastmile_qr_scan", "android": "https://dc.lft.to/lastmile_qr_scan"}, "type": "electric_bike", "name": "5444ada792ec6872cbc621fc5d205103", "is_reserved": 0, "lon": -77.07902116666666, "is_disabled": 0, "fusion_lat": 0.0, "lat": 38.839324166666664, "bike_id": "5444ada792ec6872cbc621fc5d205103", "fusion_lon": 0.0}, {"rental_uris": {"ios": "https://dc.lft.to/lastmile_qr_scan", "android": "https://dc.lft.to/lastmile_qr_scan"}, "type": "electric_scooter", "name": "a22f3fce21d1bc99c2483f0d2bbefecf", "is_reserved": 0, "lon": -77.046895, "is_disabled": 0, "fusion_lat": 0.0, "lat": 38.902790833333334, "bike_id": "a22f3fce21d1bc99c2483f0d2bbefecf", "fusion_lon": 0.0}, {"rental_uris": {"ios": "https://dc.lft.to/lastmile_qr_scan", "android": "https://dc.lft.to/lastmile_qr_scan"}, "type": "electric_scooter", "name": "ace63ab7b23f4b39e4a6ae02c1464426", "is_reserved": 0, "lon": -77.0323045, "is_disabled": 0, "fusion_lat": 0.0, "lat": 38.91656566666666, "bike_id": "ace63ab7b23f4b39e4a6ae02c1464426", "fusion_lon": 0.0}, {"rental_uris": {"ios": "https://dc.lft.to/lastmile_qr_scan", "android": "https://dc.lft.to/lastmile_qr_scan"}, "type": "electric_bike", "name": "f76bdde8170ee6130b25c618988d9a5a", "is_reserved": 0, "lon": -77.01282566666667, "is_disabled": 0, "fusion_lat": 0.0, "lat": 38.9516005, "bike_id": "f76bdde8170ee6130b25c618988d9a5a", "fusion_lon": 0.0}, {"rental_uris": {"ios": "https://dc.lft.to/lastmile_qr_scan", "android": "https://dc.lft.to/lastmile_qr_scan"}, "type": "electric_scooter", "name": "9c6bfc16e2275bf3d782175a24a91f64", "is_reserved": 0, "lon": -76.93737, "is_disabled": 0, "fusion_lat": 0.0, "lat": 38.888796, "bike_id": "9c6bfc16e2275bf3d782175a24a91f64", "fusion_lon": 0.0}, {"rental_uris": {"ios": "https://dc.lft.to/lastmile_qr_scan", "android": "https://dc.lft.to/lastmile_qr_scan"}, "type": "electric_scooter", "name": "9d0ae979f335c5f46c7e785dd3c5d89e", "is_reserved": 0, "lon": -77.05829, "is_disabled": 0, "fusion_lat": 0.0, "lat": 38.9053415, "bike_id": "9d0ae979f335c5f46c7e785dd3c5d89e", "fusion_lon": 0.0}, {"rental_uris": {"ios": "https://dc.lft.to/lastmile_qr_scan", "android": "https://dc.lft.to/lastmile_qr_scan"}, "type": "electric_scooter", "name": "863a0e948efbf1f59bca6c423e014875", "is_reserved": 0, "lon": -77.0347685, "is_disabled": 0, "fusion_lat": 0.0, "lat": 38.9082315, "bike_id": "863a0e948efbf1f59bca6c423e014875", "fusion_lon": 0.0}, {"rental_uris": {"ios": "https://dc.lft.to/lastmile_qr_scan", "android": "https://dc.lft.to/lastmile_qr_scan"}, "type": "electric_scooter", "name": "5f276b6679f2d3f7a7b7ab788375cc7e", "is_reserved": 0, "lon": -77.03811433333334, "is_disabled": 0, "fusion_lat": 0.0, "lat": 38.91044683333333, "bike_id": "5f276b6679f2d3f7a7b7ab788375cc7e", "fusion_lon": 0.0}, {"rental_uris": {"ios": "https://dc.lft.to/lastmile_qr_scan", "android": "https://dc.lft.to/lastmile_qr_scan"}, "type": "electric_scooter", "name": "7b2a7f4caef61ce344430392e3809a4b", "is_reserved": 0, "lon": -77.026318, "is_disabled": 0, "fusion_lat": 0.0, "lat": 38.896245, "bike_id": "7b2a7f4caef61ce344430392e3809a4b", "fusion_lon": 0.0}, {"rental_uris": {"ios": "https://dc.lft.to/lastmile_qr_scan", "android": "https://dc.lft.to/lastmile_qr_scan"}, "type": "electric_scooter", "name": "597c77d769d75d54625b6aef8409eb00", "is_reserved": 0, "lon": -77.036223, "is_disabled": 0, "fusion_lat": 0.0, "lat": 38.9428765, "bike_id": "597c77d769d75d54625b6aef8409eb00", "fusion_lon": 0.0}, {"rental_uris": {"ios": "https://dc.lft.to/lastmile_qr_scan", "android": "https://dc.lft.to/lastmile_qr_scan"}, "type": "electric_bike", "name": "0366da2f694bc3de1df85c49bbd59af7", "is_reserved": 0, "lon": -77.019148, "is_disabled": 0, "fusion_lat": 0.0, "lat": 38.976662, "bike_id": "0366da2f694bc3de1df85c49bbd59af7", "fusion_lon": 0.0}, {"rental_uris": {"ios": "https://dc.lft.to/lastmile_qr_scan", "android": "https://dc.lft.to/lastmile_qr_scan"}, "type": "electric_scooter", "name": "8857ed2f96fb7be9756f29b1a48fdff7", "is_reserved": 0, "lon": -77.02392633333334, "is_disabled": 0, "fusion_lat": 0.0, "lat": 38.90569583333333, "bike_id": "8857ed2f96fb7be9756f29b1a48fdff7", "fusion_lon": 0.0}, {"rental_uris": {"ios": "https://dc.lft.to/lastmile_qr_scan", "android": "https://dc.lft.to/lastmile_qr_scan"}, "type": "electric_scooter", "name": "8cfbd1ed54628dfe6e111395971e0dcd", "is_reserved": 0, "lon": -76.991667, "is_disabled": 0, "fusion_lat": 0.0, "lat": 38.900403833333336, "bike_id": "8cfbd1ed54628dfe6e111395971e0dcd", "fusion_lon": 0.0}, {"rental_uris": {"ios": "https://dc.lft.to/lastmile_qr_scan", "android": "https://dc.lft.to/lastmile_qr_scan"}, "type": "electric_scooter", "name": "91899bcdd4d1b35d4d6e41617685cf03", "is_reserved": 0, "lon": -77.021067, "is_disabled": 0, "fusion_lat": 0.0, "lat": 38.96673916666667, "bike_id": "91899bcdd4d1b35d4d6e41617685cf03", "fusion_lon": 0.0}, {"rental_uris": {"ios": "https://dc.lft.to/lastmile_qr_scan", "android": "https://dc.lft.to/lastmile_qr_scan"}, "type": "electric_scooter", "name": "c8320977da4b3e6b3a94e7203fcbacbc", "is_reserved": 0, "lon": -77.03000216666666, "is_disabled": 0, "fusion_lat": 0.0, "lat": 38.917055833333336, "bike_id": "c8320977da4b3e6b3a94e7203fcbacbc", "fusion_lon": 0.0}, {"rental_uris": {"ios": "https://dc.lft.to/lastmile_qr_scan", "android": "https://dc.lft.to/lastmile_qr_scan"}, "type": "electric_scooter", "name": "44f8648dcddd1a04192a0df3fa2c9798", "is_reserved": 0, "lon": -76.9902625, "is_disabled": 0, "fusion_lat": 0.0, "lat": 38.88880116666667, "bike_id": "44f8648dcddd1a04192a0df3fa2c9798", "fusion_lon": 0.0}, {"rental_uris": {"ios": "https://dc.lft.to/lastmile_qr_scan", "android": "https://dc.lft.to/lastmile_qr_scan"}, "type": "electric_bike", "name": "ca1e7657c546e4d8012ec7db96cbbcc5", "is_reserved": 0, "lon": -77.02070516666667, "is_disabled": 0, "fusion_lat": 0.0, "lat": 38.964411, "bike_id": "ca1e7657c546e4d8012ec7db96cbbcc5", "fusion_lon": 0.0}, {"rental_uris": {"ios": "https://dc.lft.to/lastmile_qr_scan", "android": "https://dc.lft.to/lastmile_qr_scan"}, "type": "electric_scooter", "name": "ba0537d6500d705ed56c61d637a1d8ca", "is_reserved": 0, "lon": -77.04168366666667, "is_disabled": 0, "fusion_lat": 0.0, "lat": 38.918419666666665, "bike_id": "ba0537d6500d705ed56c61d637a1d8ca", "fusion_lon": 0.0}, {"rental_uris": {"ios": "https://dc.lft.to/lastmile_qr_scan", "android": "https://dc.lft.to/lastmile_qr_scan"}, "type": "electric_scooter", "name": "9b444cfb2863eb9ca450d86085f98985", "is_reserved": 0, "lon": -77.03867916666667, "is_disabled": 0, "fusion_lat": 0.0, "lat": 38.911219333333335, "bike_id": "9b444cfb2863eb9ca450d86085f98985", "fusion_lon": 0.0}, {"rental_uris": {"ios": "https://dc.lft.to/lastmile_qr_scan", "android": "https://dc.lft.to/lastmile_qr_scan"}, "type": "electric_scooter", "name": "f14e93e778860418502d06344ae72ac4", "is_reserved": 0, "lon": -76.98808566666666, "is_disabled": 0, "fusion_lat": 0.0, "lat": 38.9002875, "bike_id": "f14e93e778860418502d06344ae72ac4", "fusion_lon": 0.0}, {"rental_uris": {"ios": "https://dc.lft.to/lastmile_qr_scan", "android": "https://dc.lft.to/lastmile_qr_scan"}, "type": "electric_scooter", "name": "e0d09c976b8f351303eb151fe0a7d124", "is_reserved": 0, "lon": -76.98540083333333, "is_disabled": 0, "fusion_lat": 0.0, "lat": 38.91456516666667, "bike_id": "e0d09c976b8f351303eb151fe0a7d124", "fusion_lon": 0.0}, {"rental_uris": {"ios": "https://dc.lft.to/lastmile_qr_scan", "android": "https://dc.lft.to/lastmile_qr_scan"}, "type": "electric_scooter", "name": "a3aea1b380a15015418049b36febe559", "is_reserved": 0, "lon": -77.00746616666666, "is_disabled": 0, "fusion_lat": 0.0, "lat": 38.91115883333333, "bike_id": "a3aea1b380a15015418049b36febe559", "fusion_lon": 0.0}, {"rental_uris": {"ios": "https://dc.lft.to/lastmile_qr_scan", "android": "https://dc.lft.to/lastmile_qr_scan"}, "type": "electric_bike", "name": "9e98af6b43c1a8ac6675d3a8344c6f6e", "is_reserved": 0, "lon": -76.99370283333333, "is_disabled": 0, "fusion_lat": 0.0, "lat": 38.9273005, "bike_id": "9e98af6b43c1a8ac6675d3a8344c6f6e", "fusion_lon": 0.0}, {"rental_uris": {"ios": "https://dc.lft.to/lastmile_qr_scan", "android": "https://dc.lft.to/lastmile_qr_scan"}, "type": "electric_scooter", "name": "c7280d736981e397d7859e43c9a10833", "is_reserved": 0, "lon": -77.02342516666667, "is_disabled": 0, "fusion_lat": 0.0, "lat": 38.9176805, "bike_id": "c7280d736981e397d7859e43c9a10833", "fusion_lon": 0.0}, {"rental_uris": {"ios": "https://dc.lft.to/lastmile_qr_scan", "android": "https://dc.lft.to/lastmile_qr_scan"}, "type": "electric_scooter", "name": "bdb78d418878cfd933e2b89f4c1297fa", "is_reserved": 0, "lon": -77.0467855, "is_disabled": 0, "fusion_lat": 0.0, "lat": 38.892336666666665, "bike_id": "bdb78d418878cfd933e2b89f4c1297fa", "fusion_lon": 0.0}, {"rental_uris": {"ios": "https://dc.lft.to/lastmile_qr_scan", "android": "https://dc.lft.to/lastmile_qr_scan"}, "type": "electric_scooter", "name": "c395574d49362ba3aa46877b130ebe94", "is_reserved": 0, "lon": -77.02755816666667, "is_disabled": 0, "fusion_lat": 0.0, "lat": 38.912059666666664, "bike_id": "c395574d49362ba3aa46877b130ebe94", "fusion_lon": 0.0}, {"rental_uris": {"ios": "https://dc.lft.to/lastmile_qr_scan", "android": "https://dc.lft.to/lastmile_qr_scan"}, "type": "electric_scooter", "name": "26b022a7c09112eff2ac0e88fa31d0ba", "is_reserved": 0, "lon": -77.02001066666666, "is_disabled": 0, "fusion_lat": 0.0, "lat": 38.898592666666666, "bike_id": "26b022a7c09112eff2ac0e88fa31d0ba", "fusion_lon": 0.0}, {"rental_uris": {"ios": "https://dc.lft.to/lastmile_qr_scan", "android": "https://dc.lft.to/lastmile_qr_scan"}, "type": "electric_scooter", "name": "129f73478a7ba1be3fb4457f689a0d31", "is_reserved": 0, "lon": -76.96509966666666, "is_disabled": 0, "fusion_lat": 0.0, "lat": 38.87647616666667, "bike_id": "129f73478a7ba1be3fb4457f689a0d31", "fusion_lon": 0.0}, {"rental_uris": {"ios": "https://dc.lft.to/lastmile_qr_scan", "android": "https://dc.lft.to/lastmile_qr_scan"}, "type": "electric_scooter", "name": "b3bb10a828a58ece7ce0a910e90fcf98", "is_reserved": 0, "lon": -77.02805766666667, "is_disabled": 0, "fusion_lat": 0.0, "lat": 38.906166999999996, "bike_id": "b3bb10a828a58ece7ce0a910e90fcf98", "fusion_lon": 0.0}, {"rental_uris": {"ios": "https://dc.lft.to/lastmile_qr_scan", "android": "https://dc.lft.to/lastmile_qr_scan"}, "type": "electric_scooter", "name": "4884b46990f4b30a3087c9dee55cd789", "is_reserved": 0, "lon": -77.02759833333333, "is_disabled": 0, "fusion_lat": 0.0, "lat": 38.8815385, "bike_id": "4884b46990f4b30a3087c9dee55cd789", "fusion_lon": 0.0}, {"rental_uris": {"ios": "https://dc.lft.to/lastmile_qr_scan", "android": "https://dc.lft.to/lastmile_qr_scan"}, "type": "electric_scooter", "name": "564162740d6892262076241e049950ae", "is_reserved": 0, "lon": -77.042955, "is_disabled": 0, "fusion_lat": 0.0, "lat": 38.9223935, "bike_id": "564162740d6892262076241e049950ae", "fusion_lon": 0.0}, {"rental_uris": {"ios": "https://dc.lft.to/lastmile_qr_scan", "android": "https://dc.lft.to/lastmile_qr_scan"}, "type": "electric_scooter", "name": "f9d7261bac79d0cea3fdee420522bf3e", "is_reserved": 0, "lon": -77.03789466666667, "is_disabled": 0, "fusion_lat": 0.0, "lat": 38.92600766666666, "bike_id": "f9d7261bac79d0cea3fdee420522bf3e", "fusion_lon": 0.0}, {"rental_uris": {"ios": "https://dc.lft.to/lastmile_qr_scan", "android": "https://dc.lft.to/lastmile_qr_scan"}, "type": "electric_scooter", "name": "50958a4c61ceaea7beae8092c0e27337", "is_reserved": 0, "lon": -77.03438983333334, "is_disabled": 0, "fusion_lat": 0.0, "lat": 38.905637166666665, "bike_id": "50958a4c61ceaea7beae8092c0e27337", "fusion_lon": 0.0}, {"rental_uris": {"ios": "https://dc.lft.to/lastmile_qr_scan", "android": "https://dc.lft.to/lastmile_qr_scan"}, "type": "electric_scooter", "name": "d04823253dd45ceccf456b62dedc42ab", "is_reserved": 0, "lon": -77.045417, "is_disabled": 0, "fusion_lat": 0.0, "lat": 38.917736166666664, "bike_id": "d04823253dd45ceccf456b62dedc42ab", "fusion_lon": 0.0}, {"rental_uris": {"ios": "https://dc.lft.to/lastmile_qr_scan", "android": "https://dc.lft.to/lastmile_qr_scan"}, "type": "electric_scooter", "name": "5169534d5c218276ce19617c1083e83a", "is_reserved": 0, "lon": -77.0383945, "is_disabled": 0, "fusion_lat": 0.0, "lat": 38.9311015, "bike_id": "5169534d5c218276ce19617c1083e83a", "fusion_lon": 0.0}, {"rental_uris": {"ios": "https://dc.lft.to/lastmile_qr_scan", "android": "https://dc.lft.to/lastmile_qr_scan"}, "type": "electric_scooter", "name": "50c86bd246002282364f9cab427aade7", "is_reserved": 0, "lon": -77.00911416666666, "is_disabled": 0, "fusion_lat": 0.0, "lat": 38.8818365, "bike_id": "50c86bd246002282364f9cab427aade7", "fusion_lon": 0.0}, {"rental_uris": {"ios": "https://dc.lft.to/lastmile_qr_scan", "android": "https://dc.lft.to/lastmile_qr_scan"}, "type": "electric_scooter", "name": "0c1a37bad4f20f129c15ec071922f3a2", "is_reserved": 0, "lon": -77.02089416666666, "is_disabled": 0, "fusion_lat": 0.0, "lat": 38.881886, "bike_id": "0c1a37bad4f20f129c15ec071922f3a2", "fusion_lon": 0.0}, {"rental_uris": {"ios": "https://dc.lft.to/lastmile_qr_scan", "android": "https://dc.lft.to/lastmile_qr_scan"}, "type": "electric_scooter", "name": "d87623b1a9ed3a0f8e98b713011a60a4", "is_reserved": 0, "lon": -77.012239, "is_disabled": 0, "fusion_lat": 0.0, "lat": 38.920408333333334, "bike_id": "d87623b1a9ed3a0f8e98b713011a60a4", "fusion_lon": 0.0}, {"rental_uris": {"ios": "https://dc.lft.to/lastmile_qr_scan", "android": "https://dc.lft.to/lastmile_qr_scan"}, "type": "electric_scooter", "name": "65d510a3c2f550df637539a535dcd957", "is_reserved": 0, "lon": -77.02117916666667, "is_disabled": 0, "fusion_lat": 0.0, "lat": 38.92465216666667, "bike_id": "65d510a3c2f550df637539a535dcd957", "fusion_lon": 0.0}, {"rental_uris": {"ios": "https://dc.lft.to/lastmile_qr_scan", "android": "https://dc.lft.to/lastmile_qr_scan"}, "type": "electric_scooter", "name": "89a6721f45242c511cfe65bf8f244729", "is_reserved": 0, "lon": -77.032665, "is_disabled": 0, "fusion_lat": 0.0, "lat": 38.919850833333335, "bike_id": "89a6721f45242c511cfe65bf8f244729", "fusion_lon": 0.0}, {"rental_uris": {"ios": "https://dc.lft.to/lastmile_qr_scan", "android": "https://dc.lft.to/lastmile_qr_scan"}, "type": "electric_scooter", "name": "502564e2a456e88cb336a967487cae45", "is_reserved": 0, "lon": -77.04650533333333, "is_disabled": 0, "fusion_lat": 0.0, "lat": 38.919664833333336, "bike_id": "502564e2a456e88cb336a967487cae45", "fusion_lon": 0.0}, {"rental_uris": {"ios": "https://dc.lft.to/lastmile_qr_scan", "android": "https://dc.lft.to/lastmile_qr_scan"}, "type": "electric_scooter", "name": "bc5b7fa1c3de53ef6e47c96ae52784bc", "is_reserved": 0, "lon": -77.02144866666667, "is_disabled": 0, "fusion_lat": 0.0, "lat": 38.92392366666667, "bike_id": "bc5b7fa1c3de53ef6e47c96ae52784bc", "fusion_lon": 0.0}, {"rental_uris": {"ios": "https://dc.lft.to/lastmile_qr_scan", "android": "https://dc.lft.to/lastmile_qr_scan"}, "type": "electric_scooter", "name": "baf266b713b25b96020f9315f7480639", "is_reserved": 0, "lon": -77.04092816666666, "is_disabled": 0, "fusion_lat": 0.0, "lat": 38.9039555, "bike_id": "baf266b713b25b96020f9315f7480639", "fusion_lon": 0.0}, {"rental_uris": {"ios": "https://dc.lft.to/lastmile_qr_scan", "android": "https://dc.lft.to/lastmile_qr_scan"}, "type": "electric_bike", "name": "bd3f1249afbd56608fa2b82e24ca7985", "is_reserved": 0, "lon": -76.9849835, "is_disabled": 0, "fusion_lat": 0.0, "lat": 38.899392666666664, "bike_id": "bd3f1249afbd56608fa2b82e24ca7985", "fusion_lon": 0.0}, {"rental_uris": {"ios": "https://dc.lft.to/lastmile_qr_scan", "android": "https://dc.lft.to/lastmile_qr_scan"}, "type": "electric_scooter", "name": "c10b91d2cc91de276fe401038f9937fa", "is_reserved": 0, "lon": -77.04820733333334, "is_disabled": 0, "fusion_lat": 0.0, "lat": 38.90946183333333, "bike_id": "c10b91d2cc91de276fe401038f9937fa", "fusion_lon": 0.0}, {"rental_uris": {"ios": "https://dc.lft.to/lastmile_qr_scan", "android": "https://dc.lft.to/lastmile_qr_scan"}, "type": "electric_bike", "name": "044d946b72c65c89ce934366dd38fd8d", "is_reserved": 0, "lon": -77.07244316666667, "is_disabled": 0, "fusion_lat": 0.0, "lat": 38.813637, "bike_id": "044d946b72c65c89ce934366dd38fd8d", "fusion_lon": 0.0}, {"rental_uris": {"ios": "https://dc.lft.to/lastmile_qr_scan", "android": "https://dc.lft.to/lastmile_qr_scan"}, "type": "electric_scooter", "name": "b25d0238a585e46bb2319c03b7879619", "is_reserved": 0, "lon": -77.02042916666667, "is_disabled": 0, "fusion_lat": 0.0, "lat": 38.911119666666664, "bike_id": "b25d0238a585e46bb2319c03b7879619", "fusion_lon": 0.0}, {"rental_uris": {"ios": "https://dc.lft.to/lastmile_qr_scan", "android": "https://dc.lft.to/lastmile_qr_scan"}, "type": "electric_scooter", "name": "8dcebe5dac601a01c1b508240d7fd2a2", "is_reserved": 0, "lon": -77.02820116666666, "is_disabled": 0, "fusion_lat": 0.0, "lat": 38.910929833333334, "bike_id": "8dcebe5dac601a01c1b508240d7fd2a2", "fusion_lon": 0.0}, {"rental_uris": {"ios": "https://dc.lft.to/lastmile_qr_scan", "android": "https://dc.lft.to/lastmile_qr_scan"}, "type": "electric_scooter", "name": "ab56c5efe496c6c140b7b8eb9403d044", "is_reserved": 0, "lon": -77.04421333333333, "is_disabled": 0, "fusion_lat": 0.0, "lat": 38.9257885, "bike_id": "ab56c5efe496c6c140b7b8eb9403d044", "fusion_lon": 0.0}, {"rental_uris": {"ios": "https://dc.lft.to/lastmile_qr_scan", "android": "https://dc.lft.to/lastmile_qr_scan"}, "type": "electric_scooter", "name": "a6eec81ecc289890e0f4cf20d6999e7d", "is_reserved": 0, "lon": -77.04749416666667, "is_disabled": 0, "fusion_lat": 0.0, "lat": 38.901454333333334, "bike_id": "a6eec81ecc289890e0f4cf20d6999e7d", "fusion_lon": 0.0}, {"rental_uris": {"ios": "https://dc.lft.to/lastmile_qr_scan", "android": "https://dc.lft.to/lastmile_qr_scan"}, "type": "electric_scooter", "name": "b9fe7258a9a663450efff3ab158441d9", "is_reserved": 0, "lon": -77.05008466666666, "is_disabled": 0, "fusion_lat": 0.0, "lat": 38.89226466666667, "bike_id": "b9fe7258a9a663450efff3ab158441d9", "fusion_lon": 0.0}, {"rental_uris": {"ios": "https://dc.lft.to/lastmile_qr_scan", "android": "https://dc.lft.to/lastmile_qr_scan"}, "type": "electric_scooter", "name": "c44b2b6e14282fabc9ebe1d4140d48eb", "is_reserved": 0, "lon": -76.98571783333334, "is_disabled": 0, "fusion_lat": 0.0, "lat": 38.8961585, "bike_id": "c44b2b6e14282fabc9ebe1d4140d48eb", "fusion_lon": 0.0}, {"rental_uris": {"ios": "https://dc.lft.to/lastmile_qr_scan", "android": "https://dc.lft.to/lastmile_qr_scan"}, "type": "electric_scooter", "name": "81cb3b55dbbfdd8c4096a2e625fe0e68", "is_reserved": 0, "lon": -76.94324416666667, "is_disabled": 0, "fusion_lat": 0.0, "lat": 38.87918066666667, "bike_id": "81cb3b55dbbfdd8c4096a2e625fe0e68", "fusion_lon": 0.0}, {"rental_uris": {"ios": "https://dc.lft.to/lastmile_qr_scan", "android": "https://dc.lft.to/lastmile_qr_scan"}, "type": "electric_scooter", "name": "d9a30cf20e0a556f1e50bce43b3b40d4", "is_reserved": 0, "lon": -77.0343965, "is_disabled": 0, "fusion_lat": 0.0, "lat": 38.91804466666667, "bike_id": "d9a30cf20e0a556f1e50bce43b3b40d4", "fusion_lon": 0.0}, {"rental_uris": {"ios": "https://dc.lft.to/lastmile_qr_scan", "android": "https://dc.lft.to/lastmile_qr_scan"}, "type": "electric_scooter", "name": "e0f874de9e8ccf55943916a049adfa0f", "is_reserved": 0, "lon": -77.02762416666667, "is_disabled": 0, "fusion_lat": 0.0, "lat": 38.9134, "bike_id": "e0f874de9e8ccf55943916a049adfa0f", "fusion_lon": 0.0}, {"rental_uris": {"ios": "https://dc.lft.to/lastmile_qr_scan", "android": "https://dc.lft.to/lastmile_qr_scan"}, "type": "electric_scooter", "name": "198b4367f5695e706bd69646e36b7d84", "is_reserved": 0, "lon": -77.0208575, "is_disabled": 0, "fusion_lat": 0.0, "lat": 38.90728716666667, "bike_id": "198b4367f5695e706bd69646e36b7d84", "fusion_lon": 0.0}, {"rental_uris": {"ios": "https://dc.lft.to/lastmile_qr_scan", "android": "https://dc.lft.to/lastmile_qr_scan"}, "type": "electric_scooter", "name": "88f9a101d92721673b7e82ff43ce27c4", "is_reserved": 0, "lon": -77.04063166666667, "is_disabled": 0, "fusion_lat": 0.0, "lat": 38.92448683333333, "bike_id": "88f9a101d92721673b7e82ff43ce27c4", "fusion_lon": 0.0}, {"rental_uris": {"ios": "https://dc.lft.to/lastmile_qr_scan", "android": "https://dc.lft.to/lastmile_qr_scan"}, "type": "electric_scooter", "name": "fff7f0d83cfa66c6ad5c55ceca4c293b", "is_reserved": 0, "lon": -77.02412266666667, "is_disabled": 0, "fusion_lat": 0.0, "lat": 38.89901866666666, "bike_id": "fff7f0d83cfa66c6ad5c55ceca4c293b", "fusion_lon": 0.0}, {"rental_uris": {"ios": "https://dc.lft.to/lastmile_qr_scan", "android": "https://dc.lft.to/lastmile_qr_scan"}, "type": "electric_scooter", "name": "e5316dc06726d199fc6f30b4927c2ae5", "is_reserved": 0, "lon": -76.98828733333333, "is_disabled": 0, "fusion_lat": 0.0, "lat": 38.89494466666667, "bike_id": "e5316dc06726d199fc6f30b4927c2ae5", "fusion_lon": 0.0}, {"rental_uris": {"ios": "https://dc.lft.to/lastmile_qr_scan", "android": "https://dc.lft.to/lastmile_qr_scan"}, "type": "electric_scooter", "name": "7a41a7ba5a508ab4ae523f64ad51f0be", "is_reserved": 0, "lon": -77.00016316666667, "is_disabled": 0, "fusion_lat": 0.0, "lat": 38.907567, "bike_id": "7a41a7ba5a508ab4ae523f64ad51f0be", "fusion_lon": 0.0}, {"rental_uris": {"ios": "https://dc.lft.to/lastmile_qr_scan", "android": "https://dc.lft.to/lastmile_qr_scan"}, "type": "electric_scooter", "name": "085857571254af9e6b79ea878867d717", "is_reserved": 0, "lon": -77.04501016666667, "is_disabled": 0, "fusion_lat": 0.0, "lat": 38.89221766666667, "bike_id": "085857571254af9e6b79ea878867d717", "fusion_lon": 0.0}, {"rental_uris": {"ios": "https://dc.lft.to/lastmile_qr_scan", "android": "https://dc.lft.to/lastmile_qr_scan"}, "type": "electric_bike", "name": "242c9bca5be2857aa58d6a525d291af7", "is_reserved": 0, "lon": -76.9901915, "is_disabled": 0, "fusion_lat": 0.0, "lat": 38.954733166666664, "bike_id": "242c9bca5be2857aa58d6a525d291af7", "fusion_lon": 0.0}, {"rental_uris": {"ios": "https://dc.lft.to/lastmile_qr_scan", "android": "https://dc.lft.to/lastmile_qr_scan"}, "type": "electric_bike", "name": "92c1b7f79d0f78910c56623aa62eb74a", "is_reserved": 0, "lon": -76.98760633333333, "is_disabled": 0, "fusion_lat": 0.0, "lat": 38.85768383333333, "bike_id": "92c1b7f79d0f78910c56623aa62eb74a", "fusion_lon": 0.0}, {"rental_uris": {"ios": "https://dc.lft.to/lastmile_qr_scan", "android": "https://dc.lft.to/lastmile_qr_scan"}, "type": "electric_scooter", "name": "683bd3eac23adc474c3e452fbac05277", "is_reserved": 0, "lon": -77.03945566666667, "is_disabled": 0, "fusion_lat": 0.0, "lat": 38.900994833333336, "bike_id": "683bd3eac23adc474c3e452fbac05277", "fusion_lon": 0.0}, {"rental_uris": {"ios": "https://dc.lft.to/lastmile_qr_scan", "android": "https://dc.lft.to/lastmile_qr_scan"}, "type": "electric_scooter", "name": "18cff7876e89101ae17d4955a994ee99", "is_reserved": 0, "lon": -77.02421366666667, "is_disabled": 0, "fusion_lat": 0.0, "lat": 38.8922575, "bike_id": "18cff7876e89101ae17d4955a994ee99", "fusion_lon": 0.0}, {"rental_uris": {"ios": "https://dc.lft.to/lastmile_qr_scan", "android": "https://dc.lft.to/lastmile_qr_scan"}, "type": "electric_scooter", "name": "b030f1d17f525dfda6bab1d63b907ea1", "is_reserved": 0, "lon": -77.04616483333334, "is_disabled": 0, "fusion_lat": 0.0, "lat": 38.90978, "bike_id": "b030f1d17f525dfda6bab1d63b907ea1", "fusion_lon": 0.0}, {"rental_uris": {"ios": "https://dc.lft.to/lastmile_qr_scan", "android": "https://dc.lft.to/lastmile_qr_scan"}, "type": "electric_scooter", "name": "ed9335356191c72223ccde5bfe043fd9", "is_reserved": 0, "lon": -77.04662266666666, "is_disabled": 0, "fusion_lat": 0.0, "lat": 38.900981, "bike_id": "ed9335356191c72223ccde5bfe043fd9", "fusion_lon": 0.0}, {"rental_uris": {"ios": "https://dc.lft.to/lastmile_qr_scan", "android": "https://dc.lft.to/lastmile_qr_scan"}, "type": "electric_scooter", "name": "2d7c508a55c6c32d0b25bbd7a39ddb02", "is_reserved": 0, "lon": -77.02599116666667, "is_disabled": 0, "fusion_lat": 0.0, "lat": 38.91692916666667, "bike_id": "2d7c508a55c6c32d0b25bbd7a39ddb02", "fusion_lon": 0.0}, {"rental_uris": {"ios": "https://dc.lft.to/lastmile_qr_scan", "android": "https://dc.lft.to/lastmile_qr_scan"}, "type": "electric_scooter", "name": "e5b171fb4d2c8fed3cc5104392b398e4", "is_reserved": 0, "lon": -77.05510116666666, "is_disabled": 0, "fusion_lat": 0.0, "lat": 38.928349, "bike_id": "e5b171fb4d2c8fed3cc5104392b398e4", "fusion_lon": 0.0}, {"rental_uris": {"ios": "https://dc.lft.to/lastmile_qr_scan", "android": "https://dc.lft.to/lastmile_qr_scan"}, "type": "electric_bike", "name": "40ceee16506c6ff0617403ddb0fad86c", "is_reserved": 0, "lon": -77.011951, "is_disabled": 0, "fusion_lat": 0.0, "lat": 38.876361333333335, "bike_id": "40ceee16506c6ff0617403ddb0fad86c", "fusion_lon": 0.0}, {"rental_uris": {"ios": "https://dc.lft.to/lastmile_qr_scan", "android": "https://dc.lft.to/lastmile_qr_scan"}, "type": "electric_bike", "name": "b6162e6e5236959fc02a08c8f312d79d", "is_reserved": 0, "lon": -77.21663383333333, "is_disabled": 0, "fusion_lat": 0.0, "lat": 38.89506033333333, "bike_id": "b6162e6e5236959fc02a08c8f312d79d", "fusion_lon": 0.0}, {"rental_uris": {"ios": "https://dc.lft.to/lastmile_qr_scan", "android": "https://dc.lft.to/lastmile_qr_scan"}, "type": "electric_bike", "name": "eaed5ed5f91eb6f971c646e2214aea62", "is_reserved": 0, "lon": -77.01220916666666, "is_disabled": 0, "fusion_lat": 0.0, "lat": 38.871912333333334, "bike_id": "eaed5ed5f91eb6f971c646e2214aea62", "fusion_lon": 0.0}, {"rental_uris": {"ios": "https://dc.lft.to/lastmile_qr_scan", "android": "https://dc.lft.to/lastmile_qr_scan"}, "type": "electric_scooter", "name": "e12f56efe480fd32222bd1b8c63d0902", "is_reserved": 0, "lon": -77.04332783333334, "is_disabled": 0, "fusion_lat": 0.0, "lat": 38.9087975, "bike_id": "e12f56efe480fd32222bd1b8c63d0902", "fusion_lon": 0.0}, {"rental_uris": {"ios": "https://dc.lft.to/lastmile_qr_scan", "android": "https://dc.lft.to/lastmile_qr_scan"}, "type": "electric_bike", "name": "a4721b83967607cc07816dd274e3d5d4", "is_reserved": 0, "lon": -77.065327, "is_disabled": 0, "fusion_lat": 0.0, "lat": 38.992316833333334, "bike_id": "a4721b83967607cc07816dd274e3d5d4", "fusion_lon": 0.0}, {"rental_uris": {"ios": "https://dc.lft.to/lastmile_qr_scan", "android": "https://dc.lft.to/lastmile_qr_scan"}, "type": "electric_scooter", "name": "9d54fb1d1153b0a0b9edfafffb18eefd", "is_reserved": 0, "lon": -76.98822366666667, "is_disabled": 0, "fusion_lat": 0.0, "lat": 38.881577, "bike_id": "9d54fb1d1153b0a0b9edfafffb18eefd", "fusion_lon": 0.0}, {"rental_uris": {"ios": "https://dc.lft.to/lastmile_qr_scan", "android": "https://dc.lft.to/lastmile_qr_scan"}, "type": "electric_bike", "name": "971ba97b3610e3472f1e19e08cdeb39b", "is_reserved": 0, "lon": -77.09723016666666, "is_disabled": 0, "fusion_lat": 0.0, "lat": 38.8073845, "bike_id": "971ba97b3610e3472f1e19e08cdeb39b", "fusion_lon": 0.0}, {"rental_uris": {"ios": "https://dc.lft.to/lastmile_qr_scan", "android": "https://dc.lft.to/lastmile_qr_scan"}, "type": "electric_scooter", "name": "d4e2eb28d8c614f6e711214003f02742", "is_reserved": 0, "lon": -77.03495166666667, "is_disabled": 0, "fusion_lat": 0.0, "lat": 38.931067166666665, "bike_id": "d4e2eb28d8c614f6e711214003f02742", "fusion_lon": 0.0}, {"rental_uris": {"ios": "https://dc.lft.to/lastmile_qr_scan", "android": "https://dc.lft.to/lastmile_qr_scan"}, "type": "electric_bike", "name": "3102437eb9e4aa95d1cdabd328ade4e7", "is_reserved": 0, "lon": -77.03414583333333, "is_disabled": 0, "fusion_lat": 0.0, "lat": 38.91236883333333, "bike_id": "3102437eb9e4aa95d1cdabd328ade4e7", "fusion_lon": 0.0}, {"rental_uris": {"ios": "https://dc.lft.to/lastmile_qr_scan", "android": "https://dc.lft.to/lastmile_qr_scan"}, "type": "electric_scooter", "name": "91c6871957a8b127a040b481cdc04575", "is_reserved": 0, "lon": -77.03466266666666, "is_disabled": 0, "fusion_lat": 0.0, "lat": 38.91707233333333, "bike_id": "91c6871957a8b127a040b481cdc04575", "fusion_lon": 0.0}, {"rental_uris": {"ios": "https://dc.lft.to/lastmile_qr_scan", "android": "https://dc.lft.to/lastmile_qr_scan"}, "type": "electric_scooter", "name": "cb674d1c92cdef5130c60c50330162f3", "is_reserved": 0, "lon": -77.0652035, "is_disabled": 0, "fusion_lat": 0.0, "lat": 38.905325, "bike_id": "cb674d1c92cdef5130c60c50330162f3", "fusion_lon": 0.0}, {"rental_uris": {"ios": "https://dc.lft.to/lastmile_qr_scan", "android": "https://dc.lft.to/lastmile_qr_scan"}, "type": "electric_bike", "name": "66fd61e04f76e35991277ea5446a4c76", "is_reserved": 0, "lon": -77.04262283333334, "is_disabled": 0, "fusion_lat": 0.0, "lat": 38.80466083333334, "bike_id": "66fd61e04f76e35991277ea5446a4c76", "fusion_lon": 0.0}, {"rental_uris": {"ios": "https://dc.lft.to/lastmile_qr_scan", "android": "https://dc.lft.to/lastmile_qr_scan"}, "type": "electric_scooter", "name": "5251ace68033000426f989b42c6d42eb", "is_reserved": 0, "lon": -77.017555, "is_disabled": 0, "fusion_lat": 0.0, "lat": 38.877066166666665, "bike_id": "5251ace68033000426f989b42c6d42eb", "fusion_lon": 0.0}, {"rental_uris": {"ios": "https://dc.lft.to/lastmile_qr_scan", "android": "https://dc.lft.to/lastmile_qr_scan"}, "type": "electric_scooter", "name": "8acf7a52bf06411dc09db9751dce2466", "is_reserved": 0, "lon": -76.98361083333333, "is_disabled": 0, "fusion_lat": 0.0, "lat": 38.88738166666667, "bike_id": "8acf7a52bf06411dc09db9751dce2466", "fusion_lon": 0.0}, {"rental_uris": {"ios": "https://dc.lft.to/lastmile_qr_scan", "android": "https://dc.lft.to/lastmile_qr_scan"}, "type": "electric_scooter", "name": "03e5a0f11bc09aae45e7f4acfcb0d233", "is_reserved": 0, "lon": -77.026287, "is_disabled": 0, "fusion_lat": 0.0, "lat": 38.89620333333333, "bike_id": "03e5a0f11bc09aae45e7f4acfcb0d233", "fusion_lon": 0.0}, {"rental_uris": {"ios": "https://dc.lft.to/lastmile_qr_scan", "android": "https://dc.lft.to/lastmile_qr_scan"}, "type": "electric_scooter", "name": "f60d71c879ccc2c72e886991f0002292", "is_reserved": 0, "lon": -77.02401183333333, "is_disabled": 0, "fusion_lat": 0.0, "lat": 38.93812783333333, "bike_id": "f60d71c879ccc2c72e886991f0002292", "fusion_lon": 0.0}, {"rental_uris": {"ios": "https://dc.lft.to/lastmile_qr_scan", "android": "https://dc.lft.to/lastmile_qr_scan"}, "type": "electric_scooter", "name": "a5f010c05608b9fa7e093e746314594d", "is_reserved": 0, "lon": -76.98437416666667, "is_disabled": 0, "fusion_lat": 0.0, "lat": 38.9147815, "bike_id": "a5f010c05608b9fa7e093e746314594d", "fusion_lon": 0.0}, {"rental_uris": {"ios": "https://dc.lft.to/lastmile_qr_scan", "android": "https://dc.lft.to/lastmile_qr_scan"}, "type": "electric_scooter", "name": "8680d2f0a9664ad6d68a058234223b66", "is_reserved": 0, "lon": -77.0267285, "is_disabled": 0, "fusion_lat": 0.0, "lat": 38.98432716666667, "bike_id": "8680d2f0a9664ad6d68a058234223b66", "fusion_lon": 0.0}, {"rental_uris": {"ios": "https://dc.lft.to/lastmile_qr_scan", "android": "https://dc.lft.to/lastmile_qr_scan"}, "type": "electric_scooter", "name": "28b96355524110750c91eb77dd940aa6", "is_reserved": 0, "lon": -76.999718, "is_disabled": 0, "fusion_lat": 0.0, "lat": 38.886564666666665, "bike_id": "28b96355524110750c91eb77dd940aa6", "fusion_lon": 0.0}, {"rental_uris": {"ios": "https://dc.lft.to/lastmile_qr_scan", "android": "https://dc.lft.to/lastmile_qr_scan"}, "type": "electric_scooter", "name": "c3cca5d969a779baf36cff0a92db67a9", "is_reserved": 0, "lon": -77.04041766666667, "is_disabled": 0, "fusion_lat": 0.0, "lat": 38.923206666666665, "bike_id": "c3cca5d969a779baf36cff0a92db67a9", "fusion_lon": 0.0}, {"rental_uris": {"ios": "https://dc.lft.to/lastmile_qr_scan", "android": "https://dc.lft.to/lastmile_qr_scan"}, "type": "electric_scooter", "name": "dc48db3990e4d0b4b976cfeb6beeaec8", "is_reserved": 0, "lon": -77.03185266666667, "is_disabled": 0, "fusion_lat": 0.0, "lat": 38.89217433333334, "bike_id": "dc48db3990e4d0b4b976cfeb6beeaec8", "fusion_lon": 0.0}, {"rental_uris": {"ios": "https://dc.lft.to/lastmile_qr_scan", "android": "https://dc.lft.to/lastmile_qr_scan"}, "type": "electric_scooter", "name": "a652fd9617b728654943e11ca64e1d50", "is_reserved": 0, "lon": -77.0396505, "is_disabled": 0, "fusion_lat": 0.0, "lat": 38.924631, "bike_id": "a652fd9617b728654943e11ca64e1d50", "fusion_lon": 0.0}, {"rental_uris": {"ios": "https://dc.lft.to/lastmile_qr_scan", "android": "https://dc.lft.to/lastmile_qr_scan"}, "type": "electric_scooter", "name": "8e114c7214d7edd8791bdf2b293b2271", "is_reserved": 0, "lon": -77.02672866666667, "is_disabled": 0, "fusion_lat": 0.0, "lat": 38.88488233333333, "bike_id": "8e114c7214d7edd8791bdf2b293b2271", "fusion_lon": 0.0}, {"rental_uris": {"ios": "https://dc.lft.to/lastmile_qr_scan", "android": "https://dc.lft.to/lastmile_qr_scan"}, "type": "electric_scooter", "name": "2ae2e2fd2fd4fa36b78696ad01b0d651", "is_reserved": 0, "lon": -77.02680933333333, "is_disabled": 0, "fusion_lat": 0.0, "lat": 38.8962535, "bike_id": "2ae2e2fd2fd4fa36b78696ad01b0d651", "fusion_lon": 0.0}, {"rental_uris": {"ios": "https://dc.lft.to/lastmile_qr_scan", "android": "https://dc.lft.to/lastmile_qr_scan"}, "type": "electric_scooter", "name": "94b1cb1c8f51711d425aa6878587e09f", "is_reserved": 0, "lon": -77.04099116666667, "is_disabled": 0, "fusion_lat": 0.0, "lat": 38.90540383333333, "bike_id": "94b1cb1c8f51711d425aa6878587e09f", "fusion_lon": 0.0}, {"rental_uris": {"ios": "https://dc.lft.to/lastmile_qr_scan", "android": "https://dc.lft.to/lastmile_qr_scan"}, "type": "electric_scooter", "name": "f6f56edde7d5502b029f38586fe8de5d", "is_reserved": 0, "lon": -77.0227785, "is_disabled": 0, "fusion_lat": 0.0, "lat": 38.902795166666664, "bike_id": "f6f56edde7d5502b029f38586fe8de5d", "fusion_lon": 0.0}, {"rental_uris": {"ios": "https://dc.lft.to/lastmile_qr_scan", "android": "https://dc.lft.to/lastmile_qr_scan"}, "type": "electric_scooter", "name": "9e5896a614272f8ff4b0d9faadc1586f", "is_reserved": 0, "lon": -76.94717633333333, "is_disabled": 0, "fusion_lat": 0.0, "lat": 38.89084, "bike_id": "9e5896a614272f8ff4b0d9faadc1586f", "fusion_lon": 0.0}, {"rental_uris": {"ios": "https://dc.lft.to/lastmile_qr_scan", "android": "https://dc.lft.to/lastmile_qr_scan"}, "type": "electric_scooter", "name": "bcdfcb83a91b45131f7f167c5574c720", "is_reserved": 0, "lon": -77.03754216666667, "is_disabled": 0, "fusion_lat": 0.0, "lat": 38.9320505, "bike_id": "bcdfcb83a91b45131f7f167c5574c720", "fusion_lon": 0.0}, {"rental_uris": {"ios": "https://dc.lft.to/lastmile_qr_scan", "android": "https://dc.lft.to/lastmile_qr_scan"}, "type": "electric_scooter", "name": "833b6876fdf8285c9ec36c132aeec4e4", "is_reserved": 0, "lon": -77.06423616666666, "is_disabled": 0, "fusion_lat": 0.0, "lat": 38.90915966666667, "bike_id": "833b6876fdf8285c9ec36c132aeec4e4", "fusion_lon": 0.0}, {"rental_uris": {"ios": "https://dc.lft.to/lastmile_qr_scan", "android": "https://dc.lft.to/lastmile_qr_scan"}, "type": "electric_scooter", "name": "ab4edbf399c67c4244a5956783fec1a0", "is_reserved": 0, "lon": -77.06778866666667, "is_disabled": 0, "fusion_lat": 0.0, "lat": 38.90883383333333, "bike_id": "ab4edbf399c67c4244a5956783fec1a0", "fusion_lon": 0.0}, {"rental_uris": {"ios": "https://dc.lft.to/lastmile_qr_scan", "android": "https://dc.lft.to/lastmile_qr_scan"}, "type": "electric_scooter", "name": "be68c13661eec8f586ecc1b928731962", "is_reserved": 0, "lon": -77.02781683333333, "is_disabled": 0, "fusion_lat": 0.0, "lat": 38.927751, "bike_id": "be68c13661eec8f586ecc1b928731962", "fusion_lon": 0.0}, {"rental_uris": {"ios": "https://dc.lft.to/lastmile_qr_scan", "android": "https://dc.lft.to/lastmile_qr_scan"}, "type": "electric_bike", "name": "3e2cb70e6589e2a0533380345d7a2df3", "is_reserved": 0, "lon": -76.9574505, "is_disabled": 0, "fusion_lat": 0.0, "lat": 38.888565666666665, "bike_id": "3e2cb70e6589e2a0533380345d7a2df3", "fusion_lon": 0.0}, {"rental_uris": {"ios": "https://dc.lft.to/lastmile_qr_scan", "android": "https://dc.lft.to/lastmile_qr_scan"}, "type": "electric_scooter", "name": "9c3d340b1d3ee741c5b7f2bb49d4c9dc", "is_reserved": 0, "lon": -77.030822, "is_disabled": 0, "fusion_lat": 0.0, "lat": 38.93460783333333, "bike_id": "9c3d340b1d3ee741c5b7f2bb49d4c9dc", "fusion_lon": 0.0}, {"rental_uris": {"ios": "https://dc.lft.to/lastmile_qr_scan", "android": "https://dc.lft.to/lastmile_qr_scan"}, "type": "electric_scooter", "name": "6f1734af6edbaf2bc7914f4a49c09e94", "is_reserved": 0, "lon": -77.07329333333334, "is_disabled": 0, "fusion_lat": 0.0, "lat": 38.913635166666666, "bike_id": "6f1734af6edbaf2bc7914f4a49c09e94", "fusion_lon": 0.0}, {"rental_uris": {"ios": "https://dc.lft.to/lastmile_qr_scan", "android": "https://dc.lft.to/lastmile_qr_scan"}, "type": "electric_scooter", "name": "3b6e2c89fc71661218141213131b513a", "is_reserved": 0, "lon": -77.03169883333334, "is_disabled": 0, "fusion_lat": 0.0, "lat": 38.90105466666667, "bike_id": "3b6e2c89fc71661218141213131b513a", "fusion_lon": 0.0}, {"rental_uris": {"ios": "https://dc.lft.to/lastmile_qr_scan", "android": "https://dc.lft.to/lastmile_qr_scan"}, "type": "electric_scooter", "name": "a6e2783f642aee85c9d0650d51653c24", "is_reserved": 0, "lon": -76.99729783333333, "is_disabled": 0, "fusion_lat": 0.0, "lat": 38.90790416666667, "bike_id": "a6e2783f642aee85c9d0650d51653c24", "fusion_lon": 0.0}, {"rental_uris": {"ios": "https://dc.lft.to/lastmile_qr_scan", "android": "https://dc.lft.to/lastmile_qr_scan"}, "type": "electric_scooter", "name": "398c47ed0acf067518a9a556ea5e2cd1", "is_reserved": 0, "lon": -76.92895333333334, "is_disabled": 0, "fusion_lat": 0.0, "lat": 38.87941716666667, "bike_id": "398c47ed0acf067518a9a556ea5e2cd1", "fusion_lon": 0.0}, {"rental_uris": {"ios": "https://dc.lft.to/lastmile_qr_scan", "android": "https://dc.lft.to/lastmile_qr_scan"}, "type": "electric_scooter", "name": "3da0556b819d44d7f43af5ea7ecf4112", "is_reserved": 0, "lon": -77.009865, "is_disabled": 0, "fusion_lat": 0.0, "lat": 38.905582833333334, "bike_id": "3da0556b819d44d7f43af5ea7ecf4112", "fusion_lon": 0.0}, {"rental_uris": {"ios": "https://dc.lft.to/lastmile_qr_scan", "android": "https://dc.lft.to/lastmile_qr_scan"}, "type": "electric_scooter", "name": "a990360d7423f8ebe3b6e854f64aab63", "is_reserved": 0, "lon": -77.00558033333333, "is_disabled": 0, "fusion_lat": 0.0, "lat": 38.87469566666667, "bike_id": "a990360d7423f8ebe3b6e854f64aab63", "fusion_lon": 0.0}, {"rental_uris": {"ios": "https://dc.lft.to/lastmile_qr_scan", "android": "https://dc.lft.to/lastmile_qr_scan"}, "type": "electric_scooter", "name": "8f0e3478f2b77ab88594041ef5fc9610", "is_reserved": 0, "lon": -77.02229933333334, "is_disabled": 0, "fusion_lat": 0.0, "lat": 38.910407666666664, "bike_id": "8f0e3478f2b77ab88594041ef5fc9610", "fusion_lon": 0.0}, {"rental_uris": {"ios": "https://dc.lft.to/lastmile_qr_scan", "android": "https://dc.lft.to/lastmile_qr_scan"}, "type": "electric_scooter", "name": "36369ed4615521ce8a4c528394850dc5", "is_reserved": 0, "lon": -77.04484066666667, "is_disabled": 0, "fusion_lat": 0.0, "lat": 38.89999983333333, "bike_id": "36369ed4615521ce8a4c528394850dc5", "fusion_lon": 0.0}, {"rental_uris": {"ios": "https://dc.lft.to/lastmile_qr_scan", "android": "https://dc.lft.to/lastmile_qr_scan"}, "type": "electric_scooter", "name": "4c551db7581ee201e939b51efecfbc60", "is_reserved": 0, "lon": -77.05207416666667, "is_disabled": 0, "fusion_lat": 0.0, "lat": 38.92432983333333, "bike_id": "4c551db7581ee201e939b51efecfbc60", "fusion_lon": 0.0}, {"rental_uris": {"ios": "https://dc.lft.to/lastmile_qr_scan", "android": "https://dc.lft.to/lastmile_qr_scan"}, "type": "electric_scooter", "name": "36042df08d38feb21a1d09e86ad09ebc", "is_reserved": 0, "lon": -77.0320145, "is_disabled": 0, "fusion_lat": 0.0, "lat": 38.89231183333333, "bike_id": "36042df08d38feb21a1d09e86ad09ebc", "fusion_lon": 0.0}, {"rental_uris": {"ios": "https://dc.lft.to/lastmile_qr_scan", "android": "https://dc.lft.to/lastmile_qr_scan"}, "type": "electric_scooter", "name": "50f6038819b967dbabdffcd4232f11f3", "is_reserved": 0, "lon": -77.04153116666667, "is_disabled": 0, "fusion_lat": 0.0, "lat": 38.9014985, "bike_id": "50f6038819b967dbabdffcd4232f11f3", "fusion_lon": 0.0}, {"rental_uris": {"ios": "https://dc.lft.to/lastmile_qr_scan", "android": "https://dc.lft.to/lastmile_qr_scan"}, "type": "electric_scooter", "name": "d78778781cae1b04e852b1b8640f2225", "is_reserved": 0, "lon": -77.031892, "is_disabled": 0, "fusion_lat": 0.0, "lat": 38.92494283333333, "bike_id": "d78778781cae1b04e852b1b8640f2225", "fusion_lon": 0.0}, {"rental_uris": {"ios": "https://dc.lft.to/lastmile_qr_scan", "android": "https://dc.lft.to/lastmile_qr_scan"}, "type": "electric_scooter", "name": "e76feeb1d22016ecdd0eb405473d6afe", "is_reserved": 0, "lon": -77.00741016666667, "is_disabled": 0, "fusion_lat": 0.0, "lat": 38.8984, "bike_id": "e76feeb1d22016ecdd0eb405473d6afe", "fusion_lon": 0.0}, {"rental_uris": {"ios": "https://dc.lft.to/lastmile_qr_scan", "android": "https://dc.lft.to/lastmile_qr_scan"}, "type": "electric_scooter", "name": "8a168e033236c250c60d1c03a765c185", "is_reserved": 0, "lon": -77.0322275, "is_disabled": 0, "fusion_lat": 0.0, "lat": 38.907115166666664, "bike_id": "8a168e033236c250c60d1c03a765c185", "fusion_lon": 0.0}, {"rental_uris": {"ios": "https://dc.lft.to/lastmile_qr_scan", "android": "https://dc.lft.to/lastmile_qr_scan"}, "type": "electric_scooter", "name": "8c1187325171a851b5c9831c6fe1e29e", "is_reserved": 0, "lon": -76.99104766666666, "is_disabled": 0, "fusion_lat": 0.0, "lat": 38.857196333333334, "bike_id": "8c1187325171a851b5c9831c6fe1e29e", "fusion_lon": 0.0}, {"rental_uris": {"ios": "https://dc.lft.to/lastmile_qr_scan", "android": "https://dc.lft.to/lastmile_qr_scan"}, "type": "electric_scooter", "name": "2f561dad1cd1f14ec91f417f319fc364", "is_reserved": 0, "lon": -77.0312495, "is_disabled": 0, "fusion_lat": 0.0, "lat": 38.91865516666667, "bike_id": "2f561dad1cd1f14ec91f417f319fc364", "fusion_lon": 0.0}, {"rental_uris": {"ios": "https://dc.lft.to/lastmile_qr_scan", "android": "https://dc.lft.to/lastmile_qr_scan"}, "type": "electric_scooter", "name": "713c1d5f5ef0a78d1c784643e364ee4c", "is_reserved": 0, "lon": -77.05324616666667, "is_disabled": 0, "fusion_lat": 0.0, "lat": 38.902662666666664, "bike_id": "713c1d5f5ef0a78d1c784643e364ee4c", "fusion_lon": 0.0}, {"rental_uris": {"ios": "https://dc.lft.to/lastmile_qr_scan", "android": "https://dc.lft.to/lastmile_qr_scan"}, "type": "electric_scooter", "name": "f865e5cd3008ff0dbc8fea54d2a7282e", "is_reserved": 0, "lon": -77.041857, "is_disabled": 0, "fusion_lat": 0.0, "lat": 38.91124766666667, "bike_id": "f865e5cd3008ff0dbc8fea54d2a7282e", "fusion_lon": 0.0}, {"rental_uris": {"ios": "https://dc.lft.to/lastmile_qr_scan", "android": "https://dc.lft.to/lastmile_qr_scan"}, "type": "electric_scooter", "name": "ba50b5530a1ae00ff04e0a7b8266743a", "is_reserved": 0, "lon": -76.98897433333333, "is_disabled": 0, "fusion_lat": 0.0, "lat": 38.899609, "bike_id": "ba50b5530a1ae00ff04e0a7b8266743a", "fusion_lon": 0.0}, {"rental_uris": {"ios": "https://dc.lft.to/lastmile_qr_scan", "android": "https://dc.lft.to/lastmile_qr_scan"}, "type": "electric_bike", "name": "d63f3c53873b9682c9b67761edc5d117", "is_reserved": 0, "lon": -77.03518416666667, "is_disabled": 0, "fusion_lat": 0.0, "lat": 38.918345, "bike_id": "d63f3c53873b9682c9b67761edc5d117", "fusion_lon": 0.0}, {"rental_uris": {"ios": "https://dc.lft.to/lastmile_qr_scan", "android": "https://dc.lft.to/lastmile_qr_scan"}, "type": "electric_scooter", "name": "054053ddcf71adb2c0650dc5ca5c7710", "is_reserved": 0, "lon": -77.03970416666667, "is_disabled": 0, "fusion_lat": 0.0, "lat": 38.90127016666667, "bike_id": "054053ddcf71adb2c0650dc5ca5c7710", "fusion_lon": 0.0}, {"rental_uris": {"ios": "https://dc.lft.to/lastmile_qr_scan", "android": "https://dc.lft.to/lastmile_qr_scan"}, "type": "electric_scooter", "name": "48b385eac2748771c4db7b196b925dc0", "is_reserved": 0, "lon": -77.02408266666667, "is_disabled": 0, "fusion_lat": 0.0, "lat": 38.945049, "bike_id": "48b385eac2748771c4db7b196b925dc0", "fusion_lon": 0.0}, {"rental_uris": {"ios": "https://dc.lft.to/lastmile_qr_scan", "android": "https://dc.lft.to/lastmile_qr_scan"}, "type": "electric_scooter", "name": "aa6143685672e826420838ff96b62a08", "is_reserved": 0, "lon": -77.03448216666666, "is_disabled": 0, "fusion_lat": 0.0, "lat": 38.909518166666665, "bike_id": "aa6143685672e826420838ff96b62a08", "fusion_lon": 0.0}, {"rental_uris": {"ios": "https://dc.lft.to/lastmile_qr_scan", "android": "https://dc.lft.to/lastmile_qr_scan"}, "type": "electric_scooter", "name": "77ae0a59b6600a5ed474cbc525bb6aae", "is_reserved": 0, "lon": -77.0219645, "is_disabled": 0, "fusion_lat": 0.0, "lat": 38.91123566666667, "bike_id": "77ae0a59b6600a5ed474cbc525bb6aae", "fusion_lon": 0.0}, {"rental_uris": {"ios": "https://dc.lft.to/lastmile_qr_scan", "android": "https://dc.lft.to/lastmile_qr_scan"}, "type": "electric_scooter", "name": "fe2b09c78d4b8ced9a70d3cad5b001ff", "is_reserved": 0, "lon": -77.01980716666667, "is_disabled": 0, "fusion_lat": 0.0, "lat": 38.892984166666665, "bike_id": "fe2b09c78d4b8ced9a70d3cad5b001ff", "fusion_lon": 0.0}, {"rental_uris": {"ios": "https://dc.lft.to/lastmile_qr_scan", "android": "https://dc.lft.to/lastmile_qr_scan"}, "type": "electric_scooter", "name": "3a70f890787a386e8a3ff24e790b90a5", "is_reserved": 0, "lon": -77.02048866666667, "is_disabled": 0, "fusion_lat": 0.0, "lat": 38.8972065, "bike_id": "3a70f890787a386e8a3ff24e790b90a5", "fusion_lon": 0.0}, {"rental_uris": {"ios": "https://dc.lft.to/lastmile_qr_scan", "android": "https://dc.lft.to/lastmile_qr_scan"}, "type": "electric_bike", "name": "ad0f54788c087e8e0f259f52f7e09726", "is_reserved": 0, "lon": -76.98058033333334, "is_disabled": 0, "fusion_lat": 0.0, "lat": 38.972499166666665, "bike_id": "ad0f54788c087e8e0f259f52f7e09726", "fusion_lon": 0.0}, {"rental_uris": {"ios": "https://dc.lft.to/lastmile_qr_scan", "android": "https://dc.lft.to/lastmile_qr_scan"}, "type": "electric_scooter", "name": "216fa7ff468710f3c6f447c95e9813c6", "is_reserved": 0, "lon": -77.0342505, "is_disabled": 0, "fusion_lat": 0.0, "lat": 38.909686, "bike_id": "216fa7ff468710f3c6f447c95e9813c6", "fusion_lon": 0.0}, {"rental_uris": {"ios": "https://dc.lft.to/lastmile_qr_scan", "android": "https://dc.lft.to/lastmile_qr_scan"}, "type": "electric_scooter", "name": "dad0155b6b66f3cb3c5ee0f73f3a667c", "is_reserved": 0, "lon": -77.02302333333333, "is_disabled": 0, "fusion_lat": 0.0, "lat": 38.91396066666667, "bike_id": "dad0155b6b66f3cb3c5ee0f73f3a667c", "fusion_lon": 0.0}, {"rental_uris": {"ios": "https://dc.lft.to/lastmile_qr_scan", "android": "https://dc.lft.to/lastmile_qr_scan"}, "type": "electric_scooter", "name": "c06f2c6e2d25e1a7e58c0e1fed3a0d83", "is_reserved": 0, "lon": -77.04920933333334, "is_disabled": 0, "fusion_lat": 0.0, "lat": 38.910408833333335, "bike_id": "c06f2c6e2d25e1a7e58c0e1fed3a0d83", "fusion_lon": 0.0}, {"rental_uris": {"ios": "https://dc.lft.to/lastmile_qr_scan", "android": "https://dc.lft.to/lastmile_qr_scan"}, "type": "electric_scooter", "name": "dc98d21ff9e1a1c07e00cb1fbaf63ad4", "is_reserved": 0, "lon": -77.02385433333333, "is_disabled": 0, "fusion_lat": 0.0, "lat": 38.89233616666667, "bike_id": "dc98d21ff9e1a1c07e00cb1fbaf63ad4", "fusion_lon": 0.0}, {"rental_uris": {"ios": "https://dc.lft.to/lastmile_qr_scan", "android": "https://dc.lft.to/lastmile_qr_scan"}, "type": "electric_scooter", "name": "b0273fef5c6d8a307ea820c4eec2f95e", "is_reserved": 0, "lon": -77.0318795, "is_disabled": 0, "fusion_lat": 0.0, "lat": 38.90936383333333, "bike_id": "b0273fef5c6d8a307ea820c4eec2f95e", "fusion_lon": 0.0}, {"rental_uris": {"ios": "https://dc.lft.to/lastmile_qr_scan", "android": "https://dc.lft.to/lastmile_qr_scan"}, "type": "electric_scooter", "name": "ec8887902b70e9d2a6ae23de2b7824b9", "is_reserved": 0, "lon": -77.01883083333334, "is_disabled": 0, "fusion_lat": 0.0, "lat": 38.90282933333334, "bike_id": "ec8887902b70e9d2a6ae23de2b7824b9", "fusion_lon": 0.0}, {"rental_uris": {"ios": "https://dc.lft.to/lastmile_qr_scan", "android": "https://dc.lft.to/lastmile_qr_scan"}, "type": "electric_scooter", "name": "8107c6c683112c6c3b5e6198f8cb00b7", "is_reserved": 0, "lon": -77.01796083333333, "is_disabled": 0, "fusion_lat": 0.0, "lat": 38.919745166666665, "bike_id": "8107c6c683112c6c3b5e6198f8cb00b7", "fusion_lon": 0.0}, {"rental_uris": {"ios": "https://dc.lft.to/lastmile_qr_scan", "android": "https://dc.lft.to/lastmile_qr_scan"}, "type": "electric_scooter", "name": "6481f761181ff9d155f72b5624d8a6ff", "is_reserved": 0, "lon": -77.04619, "is_disabled": 0, "fusion_lat": 0.0, "lat": 38.91611566666667, "bike_id": "6481f761181ff9d155f72b5624d8a6ff", "fusion_lon": 0.0}, {"rental_uris": {"ios": "https://dc.lft.to/lastmile_qr_scan", "android": "https://dc.lft.to/lastmile_qr_scan"}, "type": "electric_bike", "name": "9b8a766b181c9da2db434c054bcf2992", "is_reserved": 0, "lon": -76.94179016666666, "is_disabled": 0, "fusion_lat": 0.0, "lat": 38.960635333333336, "bike_id": "9b8a766b181c9da2db434c054bcf2992", "fusion_lon": 0.0}, {"rental_uris": {"ios": "https://dc.lft.to/lastmile_qr_scan", "android": "https://dc.lft.to/lastmile_qr_scan"}, "type": "electric_scooter", "name": "baec9b95a7b7ac27906bd377b59fff2b", "is_reserved": 0, "lon": -77.02227433333333, "is_disabled": 0, "fusion_lat": 0.0, "lat": 38.91634, "bike_id": "baec9b95a7b7ac27906bd377b59fff2b", "fusion_lon": 0.0}, {"rental_uris": {"ios": "https://dc.lft.to/lastmile_qr_scan", "android": "https://dc.lft.to/lastmile_qr_scan"}, "type": "electric_scooter", "name": "d786f1a98d729a855b9ebda5154de9d3", "is_reserved": 0, "lon": -77.02061333333333, "is_disabled": 0, "fusion_lat": 0.0, "lat": 38.924007833333334, "bike_id": "d786f1a98d729a855b9ebda5154de9d3", "fusion_lon": 0.0}, {"rental_uris": {"ios": "https://dc.lft.to/lastmile_qr_scan", "android": "https://dc.lft.to/lastmile_qr_scan"}, "type": "electric_bike", "name": "7706f96b0a1b1a9014f8fb6ef11fd9e3", "is_reserved": 0, "lon": -77.07623833333334, "is_disabled": 0, "fusion_lat": 0.0, "lat": 38.906134, "bike_id": "7706f96b0a1b1a9014f8fb6ef11fd9e3", "fusion_lon": 0.0}, {"rental_uris": {"ios": "https://dc.lft.to/lastmile_qr_scan", "android": "https://dc.lft.to/lastmile_qr_scan"}, "type": "electric_scooter", "name": "d97ca0e5f6dfa70b8cb98501f203a397", "is_reserved": 0, "lon": -76.99863516666667, "is_disabled": 0, "fusion_lat": 0.0, "lat": 38.90037016666667, "bike_id": "d97ca0e5f6dfa70b8cb98501f203a397", "fusion_lon": 0.0},