{"data": {"bikes": [{"is_disabled": 0, "fusion_lon": 0.0, "fusion_lat": 0.0, "lat": 38.92967433333333, "type": "electric_scooter", "lon": -77.04200333333333, "bike_id": "35138eb5fe59e7134e1e072b29f7fac1", "rental_uris": {"android": "https://dc.lft.to/lastmile_qr_scan", "ios": "https://dc.lft.to/lastmile_qr_scan"}, "name": "35138eb5fe59e7134e1e072b29f7fac1", "is_reserved": 0}, {"is_disabled": 0, "fusion_lon": 0.0, "fusion_lat": 0.0, "lat": 38.951735166666666, "type": "electric_scooter", "lon": -77.033342, "bike_id": "4ee1207e45b74a1353c6edfc139fedf0", "rental_uris": {"android": "https://dc.lft.to/lastmile_qr_scan", "ios": "https://dc.lft.to/lastmile_qr_scan"}, "name": "4ee1207e45b74a1353c6edfc139fedf0", "is_reserved": 0}, {"is_disabled": 0, "fusion_lon": 0.0, "fusion_lat": 0.0, "lat": 38.96620433333333, "type": "electric_scooter", "lon": -77.03531216666667, "bike_id": "8c26fe244c01272f95dad4e2318103c8", "rental_uris": {"android": "https://dc.lft.to/lastmile_qr_scan", "ios": "https://dc.lft.to/lastmile_qr_scan"}, "name": "8c26fe244c01272f95dad4e2318103c8", "is_reserved": 0}, {"is_disabled": 0, "fusion_lon": 0.0, "fusion_lat": 0.0, "lat": 38.917083833333336, "type": "electric_scooter", "lon": -77.0366815, "bike_id": "e83df378f5f8668bbd27c68f66762a55", "rental_uris": {"android": "https://dc.lft.to/lastmile_qr_scan", "ios": "https://dc.lft.to/lastmile_qr_scan"}, "name": "e83df378f5f8668bbd27c68f66762a55", "is_reserved": 0}, {"is_disabled": 0, "fusion_lon": 0.0, "fusion_lat": 0.0, "lat": 38.94621133333333, "type": "electric_scooter", "lon": -77.03627866666666, "bike_id": "017af62a4c5b96bb2233af4382002f5c", "rental_uris": {"android": "https://dc.lft.to/lastmile_qr_scan", "ios": "https://dc.lft.to/lastmile_qr_scan"}, "name": "017af62a4c5b96bb2233af4382002f5c", "is_reserved": 0}, {"is_disabled": 0, "fusion_lon": 0.0, "fusion_lat": 0.0, "lat": 38.9202835, "type": "electric_scooter", "lon": -77.03127733333334, "bike_id": "68b0d9f1667b77e398c5152836080aa4", "rental_uris": {"android": "https://dc.lft.to/lastmile_qr_scan", "ios": "https://dc.lft.to/lastmile_qr_scan"}, "name": "68b0d9f1667b77e398c5152836080aa4", "is_reserved": 0}, {"is_disabled": 0, "fusion_lon": 0.0, "fusion_lat": 0.0, "lat": 38.91269283333333, "type": "electric_scooter", "lon": -77.03367416666667, "bike_id": "28b3d61b234e9d82fd481446f191e160", "rental_uris": {"android": "https://dc.lft.to/lastmile_qr_scan", "ios": "https://dc.lft.to/lastmile_qr_scan"}, "name": "28b3d61b234e9d82fd481446f191e160", "is_reserved": 0}, {"is_disabled": 0, "fusion_lon": 0.0, "fusion_lat": 0.0, "lat": 38.92816083333334, "type": "electric_scooter", "lon": -77.04337183333334, "bike_id": "6722bfd7963544975495578613b7b1cf", "rental_uris": {"android": "https://dc.lft.to/lastmile_qr_scan", "ios": "https://dc.lft.to/lastmile_qr_scan"}, "name": "6722bfd7963544975495578613b7b1cf", "is_reserved": 0}, {"is_disabled": 0, "fusion_lon": 0.0, "fusion_lat": 0.0, "lat": 38.91466033333333, "type": "electric_scooter", "lon": -77.02797016666666, "bike_id": "bd2b3b8ac0e811b34f409b5c09107c7b", "rental_uris": {"android": "https://dc.lft.to/lastmile_qr_scan", "ios": "https://dc.lft.to/lastmile_qr_scan"}, "name": "bd2b3b8ac0e811b34f409b5c09107c7b", "is_reserved": 0}, {"is_disabled": 0, "fusion_lon": 0.0, "fusion_lat": 0.0, "lat": 38.994547, "type": "electric_bike", "lon": -76.90819483333334, "bike_id": "26f590c1b9d8d8492647bee2f5b8b6d3", "rental_uris": {"android": "https://dc.lft.to/lastmile_qr_scan", "ios": "https://dc.lft.to/lastmile_qr_scan"}, "name": "26f590c1b9d8d8492647bee2f5b8b6d3", "is_reserved": 0}, {"is_disabled": 0, "fusion_lon": 0.0, "fusion_lat": 0.0, "lat": 38.88012233333333, "type": "electric_bike", "lon": -76.9159425, "bike_id": "73725197f4b749aa0aca43f27c597334", "rental_uris": {"android": "https://dc.lft.to/lastmile_qr_scan", "ios": "https://dc.lft.to/lastmile_qr_scan"}, "name": "73725197f4b749aa0aca43f27c597334", "is_reserved": 0}, {"is_disabled": 0, "fusion_lon": 0.0, "fusion_lat": 0.0, "lat": 38.88592083333333, "type": "electric_scooter", "lon": -77.00579316666666, "bike_id": "ba1ac307ffcd4dcf7489aaa8fe0ef2bd", "rental_uris": {"android": "https://dc.lft.to/lastmile_qr_scan", "ios": "https://dc.lft.to/lastmile_qr_scan"}, "name": "ba1ac307ffcd4dcf7489aaa8fe0ef2bd", "is_reserved": 0}, {"is_disabled": 0, "fusion_lon": 0.0, "fusion_lat": 0.0, "lat": 38.923837666666664, "type": "electric_scooter", "lon": -77.04087933333334, "bike_id": "deffe29b5920cfa036946f54575b3310", "rental_uris": {"android": "https://dc.lft.to/lastmile_qr_scan", "ios": "https://dc.lft.to/lastmile_qr_scan"}, "name": "deffe29b5920cfa036946f54575b3310", "is_reserved": 0}, {"is_disabled": 0, "fusion_lon": 0.0, "fusion_lat": 0.0, "lat": 38.9021175, "type": "electric_scooter", "lon": -77.02437616666667, "bike_id": "e2e41d7d6235f80f99033697432960a6", "rental_uris": {"android": "https://dc.lft.to/lastmile_qr_scan", "ios": "https://dc.lft.to/lastmile_qr_scan"}, "name": "e2e41d7d6235f80f99033697432960a6", "is_reserved": 0}, {"is_disabled": 0, "fusion_lon": 0.0, "fusion_lat": 0.0, "lat": 38.91228816666667, "type": "electric_scooter", "lon": -77.04524866666667, "bike_id": "c0c486a4187e24f8e7f0893753ed7885", "rental_uris": {"android": "https://dc.lft.to/lastmile_qr_scan", "ios": "https://dc.lft.to/lastmile_qr_scan"}, "name": "c0c486a4187e24f8e7f0893753ed7885", "is_reserved": 0}, {"is_disabled": 0, "fusion_lon": 0.0, "fusion_lat": 0.0, "lat": 38.868904666666666, "type": "electric_scooter", "lon": -76.98313133333333, "bike_id": "5a5931d72d044c32923528c9f9a10918", "rental_uris": {"android": "https://dc.lft.to/lastmile_qr_scan", "ios": "https://dc.lft.to/lastmile_qr_scan"}, "name": "5a5931d72d044c32923528c9f9a10918", "is_reserved": 0}, {"is_disabled": 0, "fusion_lon": 0.0, "fusion_lat": 0.0, "lat": 38.85989383333333, "type": "electric_bike", "lon": -76.97050766666666, "bike_id": "91751c9937186c36a74e557890fff644", "rental_uris": {"android": "https://dc.lft.to/lastmile_qr_scan", "ios": "https://dc.lft.to/lastmile_qr_scan"}, "name": "91751c9937186c36a74e557890fff644", "is_reserved": 0}, {"is_disabled": 0, "fusion_lon": 0.0, "fusion_lat": 0.0, "lat": 38.907103666666664, "type": "electric_scooter", "lon": -77.024082, "bike_id": "2deefc627f73334bc283d1647212af25", "rental_uris": {"android": "https://dc.lft.to/lastmile_qr_scan", "ios": "https://dc.lft.to/lastmile_qr_scan"}, "name": "2deefc627f73334bc283d1647212af25", "is_reserved": 0}, {"is_disabled": 0, "fusion_lon": 0.0, "fusion_lat": 0.0, "lat": 38.94314166666667, "type": "electric_scooter", "lon": -77.02185466666667, "bike_id": "28328c31ca8816a3c16b43a1e26230e0", "rental_uris": {"android": "https://dc.lft.to/lastmile_qr_scan", "ios": "https://dc.lft.to/lastmile_qr_scan"}, "name": "28328c31ca8816a3c16b43a1e26230e0", "is_reserved": 0}, {"is_disabled": 0, "fusion_lon": 0.0, "fusion_lat": 0.0, "lat": 38.936833666666665, "type": "electric_scooter", "lon": -77.03573, "bike_id": "242270ecfdedf237b3a5c92a701bb3d0", "rental_uris": {"android": "https://dc.lft.to/lastmile_qr_scan", "ios": "https://dc.lft.to/lastmile_qr_scan"}, "name": "242270ecfdedf237b3a5c92a701bb3d0", "is_reserved": 0}, {"is_disabled": 0, "fusion_lon": 0.0, "fusion_lat": 0.0, "lat": 38.8310525, "type": "electric_bike", "lon": -77.04258383333334, "bike_id": "9d38f710624a049f48660f9dae1aa06a", "rental_uris": {"android": "https://dc.lft.to/lastmile_qr_scan", "ios": "https://dc.lft.to/lastmile_qr_scan"}, "name": "9d38f710624a049f48660f9dae1aa06a", "is_reserved": 0}, {"is_disabled": 0, "fusion_lon": 0.0, "fusion_lat": 0.0, "lat": 38.9106665, "type": "electric_scooter", "lon": -77.04593733333333, "bike_id": "a87a08c28a98e1b3e9528e63554361d4", "rental_uris": {"android": "https://dc.lft.to/lastmile_qr_scan", "ios": "https://dc.lft.to/lastmile_qr_scan"}, "name": "a87a08c28a98e1b3e9528e63554361d4", "is_reserved": 0}, {"is_disabled": 0, "fusion_lon": 0.0, "fusion_lat": 0.0, "lat": 38.9170935, "type": "electric_scooter", "lon": -77.03670216666667, "bike_id": "cba0316b22d01d2c284f8bd126ad1882", "rental_uris": {"android": "https://dc.lft.to/lastmile_qr_scan", "ios": "https://dc.lft.to/lastmile_qr_scan"}, "name": "cba0316b22d01d2c284f8bd126ad1882", "is_reserved": 0}, {"is_disabled": 0, "fusion_lon": 0.0, "fusion_lat": 0.0, "lat": 38.93228383333334, "type": "electric_scooter", "lon": -76.99930283333333, "bike_id": "d5e7f0861f664517cc70d82d72d4be0a", "rental_uris": {"android": "https://dc.lft.to/lastmile_qr_scan", "ios": "https://dc.lft.to/lastmile_qr_scan"}, "name": "d5e7f0861f664517cc70d82d72d4be0a", "is_reserved": 0}, {"is_disabled": 0, "fusion_lon": 0.0, "fusion_lat": 0.0, "lat": 38.919583333333335, "type": "electric_scooter", "lon": -77.02382016666667, "bike_id": "e75797deefc9752ab44580d766187205", "rental_uris": {"android": "https://dc.lft.to/lastmile_qr_scan", "ios": "https://dc.lft.to/lastmile_qr_scan"}, "name": "e75797deefc9752ab44580d766187205", "is_reserved": 0}, {"is_disabled": 0, "fusion_lon": 0.0, "fusion_lat": 0.0, "lat": 38.918215000000004, "type": "electric_scooter", "lon": -77.01213166666666, "bike_id": "04e65908dfad0959293d3dc0e1437074", "rental_uris": {"android": "https://dc.lft.to/lastmile_qr_scan", "ios": "https://dc.lft.to/lastmile_qr_scan"}, "name": "04e65908dfad0959293d3dc0e1437074", "is_reserved": 0}, {"is_disabled": 0, "fusion_lon": 0.0, "fusion_lat": 0.0, "lat": 38.8859055, "type": "electric_scooter", "lon": -77.03165383333334, "bike_id": "d397add31a12f7768abe1bf852fda229", "rental_uris": {"android": "https://dc.lft.to/lastmile_qr_scan", "ios": "https://dc.lft.to/lastmile_qr_scan"}, "name": "d397add31a12f7768abe1bf852fda229", "is_reserved": 0}, {"is_disabled": 0, "fusion_lon": 0.0, "fusion_lat": 0.0, "lat": 38.88836583333333, "type": "electric_scooter", "lon": -76.91777083333334, "bike_id": "52d2ccf6b10b17a1fadf274c6eb1935c", "rental_uris": {"android": "https://dc.lft.to/lastmile_qr_scan", "ios": "https://dc.lft.to/lastmile_qr_scan"}, "name": "52d2ccf6b10b17a1fadf274c6eb1935c", "is_reserved": 0}, {"is_disabled": 0, "fusion_lon": 0.0, "fusion_lat": 0.0, "lat": 38.912554666666665, "type": "electric_scooter", "lon": -77.037505, "bike_id": "ec60b2edb407421279e0d5ebd62a41c0", "rental_uris": {"android": "https://dc.lft.to/lastmile_qr_scan", "ios": "https://dc.lft.to/lastmile_qr_scan"}, "name": "ec60b2edb407421279e0d5ebd62a41c0", "is_reserved": 0}, {"is_disabled": 0, "fusion_lon": 0.0, "fusion_lat": 0.0, "lat": 38.905379333333336, "type": "electric_scooter", "lon": -77.048878, "bike_id": "2b275f48e8154e57e89e8d503b7cbf77", "rental_uris": {"android": "https://dc.lft.to/lastmile_qr_scan", "ios": "https://dc.lft.to/lastmile_qr_scan"}, "name": "2b275f48e8154e57e89e8d503b7cbf77", "is_reserved": 0}, {"is_disabled": 0, "fusion_lon": 0.0, "fusion_lat": 0.0, "lat": 38.93320416666667, "type": "electric_scooter", "lon": -77.0292065, "bike_id": "29e248d1ae3100dec6d13cc6eee9f405", "rental_uris": {"android": "https://dc.lft.to/lastmile_qr_scan", "ios": "https://dc.lft.to/lastmile_qr_scan"}, "name": "29e248d1ae3100dec6d13cc6eee9f405", "is_reserved": 0}, {"is_disabled": 0, "fusion_lon": 0.0, "fusion_lat": 0.0, "lat": 38.9072555, "type": "electric_scooter", "lon": -77.04009483333333, "bike_id": "0661533faf3da66e2cc062facb25fd1b", "rental_uris": {"android": "https://dc.lft.to/lastmile_qr_scan", "ios": "https://dc.lft.to/lastmile_qr_scan"}, "name": "0661533faf3da66e2cc062facb25fd1b", "is_reserved": 0}, {"is_disabled": 0, "fusion_lon": 0.0, "fusion_lat": 0.0, "lat": 38.9198175, "type": "electric_scooter", "lon": -76.973187, "bike_id": "80fbb08f0f4bc59db6222b9efcb6a403", "rental_uris": {"android": "https://dc.lft.to/lastmile_qr_scan", "ios": "https://dc.lft.to/lastmile_qr_scan"}, "name": "80fbb08f0f4bc59db6222b9efcb6a403", "is_reserved": 0}, {"is_disabled": 0, "fusion_lon": 0.0, "fusion_lat": 0.0, "lat": 38.942002, "type": "electric_scooter", "lon": -77.02578266666667, "bike_id": "e26e35c3082378eb3eac377e6b823dbc", "rental_uris": {"android": "https://dc.lft.to/lastmile_qr_scan", "ios": "https://dc.lft.to/lastmile_qr_scan"}, "name": "e26e35c3082378eb3eac377e6b823dbc", "is_reserved": 0}, {"is_disabled": 0, "fusion_lon": 0.0, "fusion_lat": 0.0, "lat": 38.915502000000004, "type": "electric_scooter", "lon": -77.03842533333334, "bike_id": "073faa4c5cd350db9755b2bf36abf1cf", "rental_uris": {"android": "https://dc.lft.to/lastmile_qr_scan", "ios": "https://dc.lft.to/lastmile_qr_scan"}, "name": "073faa4c5cd350db9755b2bf36abf1cf", "is_reserved": 0}, {"is_disabled": 0, "fusion_lon": 0.0, "fusion_lat": 0.0, "lat": 38.89239466666667, "type": "electric_scooter", "lon": -77.04670483333334, "bike_id": "487f71ac8571a5ac88d8f47abb90328b", "rental_uris": {"android": "https://dc.lft.to/lastmile_qr_scan", "ios": "https://dc.lft.to/lastmile_qr_scan"}, "name": "487f71ac8571a5ac88d8f47abb90328b", "is_reserved": 0}, {"is_disabled": 0, "fusion_lon": 0.0, "fusion_lat": 0.0, "lat": 38.949786833333334, "type": "electric_scooter", "lon": -77.067597, "bike_id": "3119a7b0e8f4b8ffe2789393b7d9dbb9", "rental_uris": {"android": "https://dc.lft.to/lastmile_qr_scan", "ios": "https://dc.lft.to/lastmile_qr_scan"}, "name": "3119a7b0e8f4b8ffe2789393b7d9dbb9", "is_reserved": 0}, {"is_disabled": 0, "fusion_lon": 0.0, "fusion_lat": 0.0, "lat": 38.99999833333333, "type": "electric_bike", "lon": -76.918017, "bike_id": "e0415e1c0c511c039a4f52cad16b2a04", "rental_uris": {"android": "https://dc.lft.to/lastmile_qr_scan", "ios": "https://dc.lft.to/lastmile_qr_scan"}, "name": "e0415e1c0c511c039a4f52cad16b2a04", "is_reserved": 0}, {"is_disabled": 0, "fusion_lon": 0.0, "fusion_lat": 0.0, "lat": 38.935322, "type": "electric_scooter", "lon": -77.02068666666666, "bike_id": "9d8b607ca5a44612129eb8d911f8ef4a", "rental_uris": {"android": "https://dc.lft.to/lastmile_qr_scan", "ios": "https://dc.lft.to/lastmile_qr_scan"}, "name": "9d8b607ca5a44612129eb8d911f8ef4a", "is_reserved": 0}, {"is_disabled": 0, "fusion_lon": 0.0, "fusion_lat": 0.0, "lat": 38.904823, "type": "electric_scooter", "lon": -77.04863433333334, "bike_id": "81ed69d66cfdebe52bc7c52e31b4dcc8", "rental_uris": {"android": "https://dc.lft.to/lastmile_qr_scan", "ios": "https://dc.lft.to/lastmile_qr_scan"}, "name": "81ed69d66cfdebe52bc7c52e31b4dcc8", "is_reserved": 0}, {"is_disabled": 0, "fusion_lon": 0.0, "fusion_lat": 0.0, "lat": 38.973633, "type": "electric_scooter", "lon": -77.01854416666667, "bike_id": "66a3c960d0dbd8529a6b600fa47a5ecb", "rental_uris": {"android": "https://dc.lft.to/lastmile_qr_scan", "ios": "https://dc.lft.to/lastmile_qr_scan"}, "name": "66a3c960d0dbd8529a6b600fa47a5ecb", "is_reserved": 0}, {"is_disabled": 0, "fusion_lon": 0.0, "fusion_lat": 0.0, "lat": 38.88967933333333, "type": "electric_bike", "lon": -76.94865233333333, "bike_id": "c77feb5a59b86eb55b4cebdf2621b3b7", "rental_uris": {"android": "https://dc.lft.to/lastmile_qr_scan", "ios": "https://dc.lft.to/lastmile_qr_scan"}, "name": "c77feb5a59b86eb55b4cebdf2621b3b7", "is_reserved": 0}, {"is_disabled": 0, "fusion_lon": 0.0, "fusion_lat": 0.0, "lat": 38.932930999999996, "type": "electric_scooter", "lon": -77.02393016666667, "bike_id": "472bcc442e717e1ee9bb785184a80ef8", "rental_uris": {"android": "https://dc.lft.to/lastmile_qr_scan", "ios": "https://dc.lft.to/lastmile_qr_scan"}, "name": "472bcc442e717e1ee9bb785184a80ef8", "is_reserved": 0}, {"is_disabled": 0, "fusion_lon": 0.0, "fusion_lat": 0.0, "lat": 38.907774, "type": "electric_scooter", "lon": -77.03263883333334, "bike_id": "4de6268fcbd5adafe0667425bf3cff94", "rental_uris": {"android": "https://dc.lft.to/lastmile_qr_scan", "ios": "https://dc.lft.to/lastmile_qr_scan"}, "name": "4de6268fcbd5adafe0667425bf3cff94", "is_reserved": 0}, {"is_disabled": 0, "fusion_lon": 0.0, "fusion_lat": 0.0, "lat": 38.907568166666664, "type": "electric_bike", "lon": -77.00764033333333, "bike_id": "f3f6a9c791e15144e8f8ee7a1707d25c", "rental_uris": {"android": "https://dc.lft.to/lastmile_qr_scan", "ios": "https://dc.lft.to/lastmile_qr_scan"}, "name": "f3f6a9c791e15144e8f8ee7a1707d25c", "is_reserved": 0}, {"is_disabled": 0, "fusion_lon": 0.0, "fusion_lat": 0.0, "lat": 38.916244166666665, "type": "electric_scooter", "lon": -77.043518, "bike_id": "8dcdb7434ecfaa73afdb453a919b65d9", "rental_uris": {"android": "https://dc.lft.to/lastmile_qr_scan", "ios": "https://dc.lft.to/lastmile_qr_scan"}, "name": "8dcdb7434ecfaa73afdb453a919b65d9", "is_reserved": 0}, {"is_disabled": 0, "fusion_lon": 0.0, "fusion_lat": 0.0, "lat": 38.97574733333333, "type": "electric_bike", "lon": -76.96403066666667, "bike_id": "63b655be7a9a5cac16396e76adf0f4b7", "rental_uris": {"android": "https://dc.lft.to/lastmile_qr_scan", "ios": "https://dc.lft.to/lastmile_qr_scan"}, "name": "63b655be7a9a5cac16396e76adf0f4b7", "is_reserved": 0}, {"is_disabled": 0, "fusion_lon": 0.0, "fusion_lat": 0.0, "lat": 38.9165015, "type": "electric_scooter", "lon": -77.02178866666667, "bike_id": "f418d0758fc992220cac69179f7fbe53", "rental_uris": {"android": "https://dc.lft.to/lastmile_qr_scan", "ios": "https://dc.lft.to/lastmile_qr_scan"}, "name": "f418d0758fc992220cac69179f7fbe53", "is_reserved": 0}, {"is_disabled": 0, "fusion_lon": 0.0, "fusion_lat": 0.0, "lat": 38.8881955, "type": "electric_bike", "lon": -77.127399, "bike_id": "818e8f861cf4c43a77a9ceb628ea2f60", "rental_uris": {"android": "https://dc.lft.to/lastmile_qr_scan", "ios": "https://dc.lft.to/lastmile_qr_scan"}, "name": "818e8f861cf4c43a77a9ceb628ea2f60", "is_reserved": 0}, {"is_disabled": 0, "fusion_lon": 0.0, "fusion_lat": 0.0, "lat": 38.908292, "type": "electric_bike", "lon": -76.94158216666666, "bike_id": "375340a3b7b413664fe3f3a9811d961b", "rental_uris": {"android": "https://dc.lft.to/lastmile_qr_scan", "ios": "https://dc.lft.to/lastmile_qr_scan"}, "name": "375340a3b7b413664fe3f3a9811d961b", "is_reserved": 0}, {"is_disabled": 0, "fusion_lon": 0.0, "fusion_lat": 0.0, "lat": 38.887306333333335, "type": "electric_scooter", "lon": -77.02278116666666, "bike_id": "b422109795752e805f5aff793427e2c2", "rental_uris": {"android": "https://dc.lft.to/lastmile_qr_scan", "ios": "https://dc.lft.to/lastmile_qr_scan"}, "name": "b422109795752e805f5aff793427e2c2", "is_reserved": 0}, {"is_disabled": 0, "fusion_lon": 0.0, "fusion_lat": 0.0, "lat": 38.9286655, "type": "electric_scooter", "lon": -77.03094483333334, "bike_id": "7e202d0d70d119e65baa69de27c4a162", "rental_uris": {"android": "https://dc.lft.to/lastmile_qr_scan", "ios": "https://dc.lft.to/lastmile_qr_scan"}, "name": "7e202d0d70d119e65baa69de27c4a162", "is_reserved": 0}, {"is_disabled": 0, "fusion_lon": 0.0, "fusion_lat": 0.0, "lat": 38.990906, "type": "electric_bike", "lon": -76.87494533333333, "bike_id": "7ca0f0c465c8edf8ca55850902f85fa9", "rental_uris": {"android": "https://dc.lft.to/lastmile_qr_scan", "ios": "https://dc.lft.to/lastmile_qr_scan"}, "name": "7ca0f0c465c8edf8ca55850902f85fa9", "is_reserved": 0}, {"is_disabled": 0, "fusion_lon": 0.0, "fusion_lat": 0.0, "lat": 38.953249666666665, "type": "electric_scooter", "lon": -77.068497, "bike_id": "4592515ab8eab350ce1ab9e885c5df35", "rental_uris": {"android": "https://dc.lft.to/lastmile_qr_scan", "ios": "https://dc.lft.to/lastmile_qr_scan"}, "name": "4592515ab8eab350ce1ab9e885c5df35", "is_reserved": 0}, {"is_disabled": 0, "fusion_lon": 0.0, "fusion_lat": 0.0, "lat": 38.922195, "type": "electric_scooter", "lon": -77.043354, "bike_id": "74a37d146c64649f9eaf4b93b28f6e33", "rental_uris": {"android": "https://dc.lft.to/lastmile_qr_scan", "ios": "https://dc.lft.to/lastmile_qr_scan"}, "name": "74a37d146c64649f9eaf4b93b28f6e33", "is_reserved": 0}, {"is_disabled": 0, "fusion_lon": 0.0, "fusion_lat": 0.0, "lat": 38.8825185, "type": "electric_bike", "lon": -77.00062116666666, "bike_id": "17e32bee6a7c87ecffb899e8a542a754", "rental_uris": {"android": "https://dc.lft.to/lastmile_qr_scan", "ios": "https://dc.lft.to/lastmile_qr_scan"}, "name": "17e32bee6a7c87ecffb899e8a542a754", "is_reserved": 0}, {"is_disabled": 0, "fusion_lon": 0.0, "fusion_lat": 0.0, "lat": 38.916472, "type": "electric_scooter", "lon": -77.02182966666666, "bike_id": "87382552eb7b59f6796ee395b150715f", "rental_uris": {"android": "https://dc.lft.to/lastmile_qr_scan", "ios": "https://dc.lft.to/lastmile_qr_scan"}, "name": "87382552eb7b59f6796ee395b150715f", "is_reserved": 0}, {"is_disabled": 0, "fusion_lon": 0.0, "fusion_lat": 0.0, "lat": 38.956187166666666, "type": "electric_scooter", "lon": -77.02784983333333, "bike_id": "71460341006e9300075671ce7ed0604d", "rental_uris": {"android": "https://dc.lft.to/lastmile_qr_scan", "ios": "https://dc.lft.to/lastmile_qr_scan"}, "name": "71460341006e9300075671ce7ed0604d", "is_reserved": 0}, {"is_disabled": 0, "fusion_lon": 0.0, "fusion_lat": 0.0, "lat": 38.89266633333333, "type": "electric_scooter", "lon": -77.03207866666666, "bike_id": "c26565ff28f8c3abec9841528f7b4028", "rental_uris": {"android": "https://dc.lft.to/lastmile_qr_scan", "ios": "https://dc.lft.to/lastmile_qr_scan"}, "name": "c26565ff28f8c3abec9841528f7b4028", "is_reserved": 0}, {"is_disabled": 0, "fusion_lon": 0.0, "fusion_lat": 0.0, "lat": 38.885781, "type": "electric_scooter", "lon": -76.91907116666667, "bike_id": "0e0521171e57b0207690b04b0c063ec2", "rental_uris": {"android": "https://dc.lft.to/lastmile_qr_scan", "ios": "https://dc.lft.to/lastmile_qr_scan"}, "name": "0e0521171e57b0207690b04b0c063ec2", "is_reserved": 0}, {"is_disabled": 0, "fusion_lon": 0.0, "fusion_lat": 0.0, "lat": 38.9049045, "type": "electric_scooter", "lon": -77.02718183333333, "bike_id": "3419b075f02fc11fc640b705cd4f5777", "rental_uris": {"android": "https://dc.lft.to/lastmile_qr_scan", "ios": "https://dc.lft.to/lastmile_qr_scan"}, "name": "3419b075f02fc11fc640b705cd4f5777", "is_reserved": 0}, {"is_disabled": 0, "fusion_lon": 0.0, "fusion_lat": 0.0, "lat": 39.03881416666667, "type": "electric_bike", "lon": -77.10909733333334, "bike_id": "91ab1d3bfea2aff97cfff56ddf0f8df6", "rental_uris": {"android": "https://dc.lft.to/lastmile_qr_scan", "ios": "https://dc.lft.to/lastmile_qr_scan"}, "name": "91ab1d3bfea2aff97cfff56ddf0f8df6", "is_reserved": 0}, {"is_disabled": 0, "fusion_lon": 0.0, "fusion_lat": 0.0, "lat": 38.9125275, "type": "electric_scooter", "lon": -77.00932566666667, "bike_id": "9869f0be44cde2bba646245b3264e578", "rental_uris": {"android": "https://dc.lft.to/lastmile_qr_scan", "ios": "https://dc.lft.to/lastmile_qr_scan"}, "name": "9869f0be44cde2bba646245b3264e578", "is_reserved": 0}, {"is_disabled": 0, "fusion_lon": 0.0, "fusion_lat": 0.0, "lat": 38.87339083333333, "type": "electric_bike", "lon": -77.01854433333334, "bike_id": "2bb64b7c8811bc1b76877f584888b373", "rental_uris": {"android": "https://dc.lft.to/lastmile_qr_scan", "ios": "https://dc.lft.to/lastmile_qr_scan"}, "name": "2bb64b7c8811bc1b76877f584888b373", "is_reserved": 0}, {"is_disabled": 0, "fusion_lon": 0.0, "fusion_lat": 0.0, "lat": 38.95085483333333, "type": "electric_bike", "lon": -76.965603, "bike_id": "ca5e435707e71aceac1960ae862a8d2b", "rental_uris": {"android": "https://dc.lft.to/lastmile_qr_scan", "ios": "https://dc.lft.to/lastmile_qr_scan"}, "name": "ca5e435707e71aceac1960ae862a8d2b", "is_reserved": 0}, {"is_disabled": 0, "fusion_lon": 0.0, "fusion_lat": 0.0, "lat": 38.903101666666664, "type": "electric_scooter", "lon": -76.98243683333334, "bike_id": "c1d56c85756e55c71d26003b20e79439", "rental_uris": {"android": "https://dc.lft.to/lastmile_qr_scan", "ios": "https://dc.lft.to/lastmile_qr_scan"}, "name": "c1d56c85756e55c71d26003b20e79439", "is_reserved": 0}, {"is_disabled": 0, "fusion_lon": 0.0, "fusion_lat": 0.0, "lat": 38.8936045, "type": "electric_scooter", "lon": -76.93988866666666, "bike_id": "6b11fc100f1dfe80f586f6ecd06bcaf5", "rental_uris": {"android": "https://dc.lft.to/lastmile_qr_scan", "ios": "https://dc.lft.to/lastmile_qr_scan"}, "name": "6b11fc100f1dfe80f586f6ecd06bcaf5", "is_reserved": 0}, {"is_disabled": 0, "fusion_lon": 0.0, "fusion_lat": 0.0, "lat": 38.936614666666664, "type": "electric_scooter", "lon": -77.03261833333333, "bike_id": "a21cc70bbc06b14f27b25313ceb82890", "rental_uris": {"android": "https://dc.lft.to/lastmile_qr_scan", "ios": "https://dc.lft.to/lastmile_qr_scan"}, "name": "a21cc70bbc06b14f27b25313ceb82890", "is_reserved": 0}, {"is_disabled": 0, "fusion_lon": 0.0, "fusion_lat": 0.0, "lat": 38.90409916666667, "type": "electric_scooter", "lon": -77.034549, "bike_id": "9b6066a080be7758f6f165d79adf756c", "rental_uris": {"android": "https://dc.lft.to/lastmile_qr_scan", "ios": "https://dc.lft.to/lastmile_qr_scan"}, "name": "9b6066a080be7758f6f165d79adf756c", "is_reserved": 0}, {"is_disabled": 0, "fusion_lon": 0.0, "fusion_lat": 0.0, "lat": 38.90794483333333, "type": "electric_scooter", "lon": -77.0409455, "bike_id": "2f622a1af99d2db4b79095f832ff0e07", "rental_uris": {"android": "https://dc.lft.to/lastmile_qr_scan", "ios": "https://dc.lft.to/lastmile_qr_scan"}, "name": "2f622a1af99d2db4b79095f832ff0e07", "is_reserved": 0}, {"is_disabled": 0, "fusion_lon": 0.0, "fusion_lat": 0.0, "lat": 38.949008, "type": "electric_bike", "lon": -76.96377516666666, "bike_id": "979d9b443ee67465cc63778f1c288e98", "rental_uris": {"android": "https://dc.lft.to/lastmile_qr_scan", "ios": "https://dc.lft.to/lastmile_qr_scan"}, "name": "979d9b443ee67465cc63778f1c288e98", "is_reserved": 0}, {"is_disabled": 0, "fusion_lon": 0.0, "fusion_lat": 0.0, "lat": 38.909629, "type": "electric_scooter", "lon": -77.03950833333333, "bike_id": "86315a717e27571b131f42b2f2db0524", "rental_uris": {"android": "https://dc.lft.to/lastmile_qr_scan", "ios": "https://dc.lft.to/lastmile_qr_scan"}, "name": "86315a717e27571b131f42b2f2db0524", "is_reserved": 0}, {"is_disabled": 0, "fusion_lon": 0.0, "fusion_lat": 0.0, "lat": 38.917027, "type": "electric_scooter", "lon": -77.00114883333333, "bike_id": "c76a3835b2473d49be96bb1fac46dc02", "rental_uris": {"android": "https://dc.lft.to/lastmile_qr_scan", "ios": "https://dc.lft.to/lastmile_qr_scan"}, "name": "c76a3835b2473d49be96bb1fac46dc02", "is_reserved": 0}, {"is_disabled": 0, "fusion_lon": 0.0, "fusion_lat": 0.0, "lat": 38.923209666666665, "type": "electric_scooter", "lon": -77.0380925, "bike_id": "cf7752aa4b51b52c67dfcaf06c9addb4", "rental_uris": {"android": "https://dc.lft.to/lastmile_qr_scan", "ios": "https://dc.lft.to/lastmile_qr_scan"}, "name": "cf7752aa4b51b52c67dfcaf06c9addb4", "is_reserved": 0}, {"is_disabled": 0, "fusion_lon": 0.0, "fusion_lat": 0.0, "lat": 38.9163685, "type": "electric_scooter", "lon": -77.02311266666666, "bike_id": "5ebc3387ecd0239d1161d1f201924139", "rental_uris": {"android": "https://dc.lft.to/lastmile_qr_scan", "ios": "https://dc.lft.to/lastmile_qr_scan"}, "name": "5ebc3387ecd0239d1161d1f201924139", "is_reserved": 0}, {"is_disabled": 0, "fusion_lon": 0.0, "fusion_lat": 0.0, "lat": 39.052673, "type": "electric_bike", "lon": -77.04384583333334, "bike_id": "fa4a2020896d6947943f814aad2d0ef4", "rental_uris": {"android": "https://dc.lft.to/lastmile_qr_scan", "ios": "https://dc.lft.to/lastmile_qr_scan"}, "name": "fa4a2020896d6947943f814aad2d0ef4", "is_reserved": 0}, {"is_disabled": 0, "fusion_lon": 0.0, "fusion_lat": 0.0, "lat": 38.915947333333335, "type": "electric_scooter", "lon": -77.0728005, "bike_id": "41f6e0c548163336e750ac9286ec5732", "rental_uris": {"android": "https://dc.lft.to/lastmile_qr_scan", "ios": "https://dc.lft.to/lastmile_qr_scan"}, "name": "41f6e0c548163336e750ac9286ec5732", "is_reserved": 0}, {"is_disabled": 0, "fusion_lon": 0.0, "fusion_lat": 0.0, "lat": 38.901493, "type": "electric_scooter", "lon": -77.04152966666666, "bike_id": "77f8aaffe6d96a1bffc460d7d2a8397e", "rental_uris": {"android": "https://dc.lft.to/lastmile_qr_scan", "ios": "https://dc.lft.to/lastmile_qr_scan"}, "name": "77f8aaffe6d96a1bffc460d7d2a8397e", "is_reserved": 0}, {"is_disabled": 0, "fusion_lon": 0.0, "fusion_lat": 0.0, "lat": 38.90577433333333, "type": "electric_scooter", "lon": -77.03362433333334, "bike_id": "9337f3765e5f9b48a2495b3cb99ce382", "rental_uris": {"android": "https://dc.lft.to/lastmile_qr_scan", "ios": "https://dc.lft.to/lastmile_qr_scan"}, "name": "9337f3765e5f9b48a2495b3cb99ce382", "is_reserved": 0}, {"is_disabled": 0, "fusion_lon": 0.0, "fusion_lat": 0.0, "lat": 38.898463666666665, "type": "electric_scooter", "lon": -77.03349116666666, "bike_id": "ca0011997c89f6f683908ece66e2c8ec", "rental_uris": {"android": "https://dc.lft.to/lastmile_qr_scan", "ios": "https://dc.lft.to/lastmile_qr_scan"}, "name": "ca0011997c89f6f683908ece66e2c8ec", "is_reserved": 0}, {"is_disabled": 0, "fusion_lon": 0.0, "fusion_lat": 0.0, "lat": 38.888649666666666, "type": "electric_scooter", "lon": -76.97738583333333, "bike_id": "31c68fc6856111bb5f66ad872e90cad8", "rental_uris": {"android": "https://dc.lft.to/lastmile_qr_scan", "ios": "https://dc.lft.to/lastmile_qr_scan"}, "name": "31c68fc6856111bb5f66ad872e90cad8", "is_reserved": 0}, {"is_disabled": 0, "fusion_lon": 0.0, "fusion_lat": 0.0, "lat": 38.8976125, "type": "electric_scooter", "lon": -77.0219505, "bike_id": "984e227227cdd0ea9fc51f744937a880", "rental_uris": {"android": "https://dc.lft.to/lastmile_qr_scan", "ios": "https://dc.lft.to/lastmile_qr_scan"}, "name": "984e227227cdd0ea9fc51f744937a880", "is_reserved": 0}, {"is_disabled": 0, "fusion_lon": 0.0, "fusion_lat": 0.0, "lat": 38.8272855, "type": "electric_bike", "lon": -77.00863466666667, "bike_id": "961514ddaf51481482c1329172e720db", "rental_uris": {"android": "https://dc.lft.to/lastmile_qr_scan", "ios": "https://dc.lft.to/lastmile_qr_scan"}, "name": "961514ddaf51481482c1329172e720db", "is_reserved": 0}, {"is_disabled": 0, "fusion_lon": 0.0, "fusion_lat": 0.0, "lat": 38.9001175, "type": "electric_scooter", "lon": -77.01192483333334, "bike_id": "19b68775d6f39a53456bde3883834b75", "rental_uris": {"android": "https://dc.lft.to/lastmile_qr_scan", "ios": "https://dc.lft.to/lastmile_qr_scan"}, "name": "19b68775d6f39a53456bde3883834b75", "is_reserved": 0}, {"is_disabled": 0, "fusion_lon": 0.0, "fusion_lat": 0.0, "lat": 38.806415666666666, "type": "electric_bike", "lon": -77.03965983333333, "bike_id": "f0995eeda37b3d2585c9f5bbdd1cf5e2", "rental_uris": {"android": "https://dc.lft.to/lastmile_qr_scan", "ios": "https://dc.lft.to/lastmile_qr_scan"}, "name": "f0995eeda37b3d2585c9f5bbdd1cf5e2", "is_reserved": 0}, {"is_disabled": 0, "fusion_lon": 0.0, "fusion_lat": 0.0, "lat": 38.919686, "type": "electric_scooter", "lon": -77.04170683333334, "bike_id": "a37d998e873dab896c855cee3fd7f93e", "rental_uris": {"android": "https://dc.lft.to/lastmile_qr_scan", "ios": "https://dc.lft.to/lastmile_qr_scan"}, "name": "a37d998e873dab896c855cee3fd7f93e", "is_reserved": 0}, {"is_disabled": 0, "fusion_lon": 0.0, "fusion_lat": 0.0, "lat": 38.906236166666666, "type": "electric_scooter", "lon": -77.02810466666666, "bike_id": "5b6777c730ed09211f180efd6392f0eb", "rental_uris": {"android": "https://dc.lft.to/lastmile_qr_scan", "ios": "https://dc.lft.to/lastmile_qr_scan"}, "name": "5b6777c730ed09211f180efd6392f0eb", "is_reserved": 0}, {"is_disabled": 0, "fusion_lon": 0.0, "fusion_lat": 0.0, "lat": 38.907266, "type": "electric_scooter", "lon": -77.030616, "bike_id": "54c7c61239ed89a61a4b2ee4b7aa1fcf", "rental_uris": {"android": "https://dc.lft.to/lastmile_qr_scan", "ios": "https://dc.lft.to/lastmile_qr_scan"}, "name": "54c7c61239ed89a61a4b2ee4b7aa1fcf", "is_reserved": 0}, {"is_disabled": 0, "fusion_lon": 0.0, "fusion_lat": 0.0, "lat": 38.903623, "type": "electric_scooter", "lon": -77.00343966666667, "bike_id": "c9c9383671032a726839f7d79eac530c", "rental_uris": {"android": "https://dc.lft.to/lastmile_qr_scan", "ios": "https://dc.lft.to/lastmile_qr_scan"}, "name": "c9c9383671032a726839f7d79eac530c", "is_reserved": 0}, {"is_disabled": 0, "fusion_lon": 0.0, "fusion_lat": 0.0, "lat": 38.90150516666667, "type": "electric_scooter", "lon": -77.04164133333333, "bike_id": "44db338378a6d5c4d53e47fe8b1b8be6", "rental_uris": {"android": "https://dc.lft.to/lastmile_qr_scan", "ios": "https://dc.lft.to/lastmile_qr_scan"}, "name": "44db338378a6d5c4d53e47fe8b1b8be6", "is_reserved": 0}, {"is_disabled": 0, "fusion_lon": 0.0, "fusion_lat": 0.0, "lat": 38.89646966666667, "type": "electric_scooter", "lon": -77.04353183333333, "bike_id": "e142a39efefee729c2417692a1b3e766", "rental_uris": {"android": "https://dc.lft.to/lastmile_qr_scan", "ios": "https://dc.lft.to/lastmile_qr_scan"}, "name": "e142a39efefee729c2417692a1b3e766", "is_reserved": 0}, {"is_disabled": 0, "fusion_lon": 0.0, "fusion_lat": 0.0, "lat": 38.897279166666664, "type": "electric_scooter", "lon": -77.02166833333334, "bike_id": "091f87e54e32bc867bf61d402dfc23a6", "rental_uris": {"android": "https://dc.lft.to/lastmile_qr_scan", "ios": "https://dc.lft.to/lastmile_qr_scan"}, "name": "091f87e54e32bc867bf61d402dfc23a6", "is_reserved": 0}, {"is_disabled": 0, "fusion_lon": 0.0, "fusion_lat": 0.0, "lat": 38.94627666666667, "type": "electric_bike", "lon": -76.93409866666667, "bike_id": "b325d3ecf4a8a6ed97ad868b29b9d427", "rental_uris": {"android": "https://dc.lft.to/lastmile_qr_scan", "ios": "https://dc.lft.to/lastmile_qr_scan"}, "name": "b325d3ecf4a8a6ed97ad868b29b9d427", "is_reserved": 0}, {"is_disabled": 0, "fusion_lon": 0.0, "fusion_lat": 0.0, "lat": 38.903033666666666, "type": "electric_scooter", "lon": -77.02384533333333, "bike_id": "1c851a1832e9f1225e6e515c32ff0953", "rental_uris": {"android": "https://dc.lft.to/lastmile_qr_scan", "ios": "https://dc.lft.to/lastmile_qr_scan"}, "name": "1c851a1832e9f1225e6e515c32ff0953", "is_reserved": 0}, {"is_disabled": 0, "fusion_lon": 0.0, "fusion_lat": 0.0, "lat": 38.9155085, "type": "electric_scooter", "lon": -77.0384485, "bike_id": "e4dfd34fca76e22d13816f41f2eb9529", "rental_uris": {"android": "https://dc.lft.to/lastmile_qr_scan", "ios": "https://dc.lft.to/lastmile_qr_scan"}, "name": "e4dfd34fca76e22d13816f41f2eb9529", "is_reserved": 0}, {"is_disabled": 0, "fusion_lon": 0.0, "fusion_lat": 0.0, "lat": 38.92460066666666, "type": "electric_scooter", "lon": -77.0296345, "bike_id": "69a3628a86a702816825f95d0640d771", "rental_uris": {"android": "https://dc.lft.to/lastmile_qr_scan", "ios": "https://dc.lft.to/lastmile_qr_scan"}, "name": "69a3628a86a702816825f95d0640d771", "is_reserved": 0}, {"is_disabled": 0, "fusion_lon": 0.0, "fusion_lat": 0.0, "lat": 38.9190895, "type": "electric_scooter", "lon": -77.04631133333334, "bike_id": "0498c961279584f11b6a23b2ba4a861c", "rental_uris": {"android": "https://dc.lft.to/lastmile_qr_scan", "ios": "https://dc.lft.to/lastmile_qr_scan"}, "name": "0498c961279584f11b6a23b2ba4a861c", "is_reserved": 0}, {"is_disabled": 0, "fusion_lon": 0.0, "fusion_lat": 0.0, "lat": 38.910456333333336, "type": "electric_scooter", "lon": -77.02282, "bike_id": "4d05c948a9a0188a8e8f41c73a3f5719", "rental_uris": {"android": "https://dc.lft.to/lastmile_qr_scan", "ios": "https://dc.lft.to/lastmile_qr_scan"}, "name": "4d05c948a9a0188a8e8f41c73a3f5719", "is_reserved": 0}, {"is_disabled": 0, "fusion_lon": 0.0, "fusion_lat": 0.0, "lat": 38.903901833333336, "type": "electric_scooter", "lon": -76.990001, "bike_id": "4679d1f2581dd6cb68b5e101b2bbdf19", "rental_uris": {"android": "https://dc.lft.to/lastmile_qr_scan", "ios": "https://dc.lft.to/lastmile_qr_scan"}, "name": "4679d1f2581dd6cb68b5e101b2bbdf19", "is_reserved": 0}, {"is_disabled": 0, "fusion_lon": 0.0, "fusion_lat": 0.0, "lat": 38.904656833333334, "type": "electric_scooter", "lon": -77.034468, "bike_id": "b4aaffc6f4409cb9594a5b6a49bd89e2", "rental_uris": {"android": "https://dc.lft.to/lastmile_qr_scan", "ios": "https://dc.lft.to/lastmile_qr_scan"}, "name": "b4aaffc6f4409cb9594a5b6a49bd89e2", "is_reserved": 0}, {"is_disabled": 0, "fusion_lon": 0.0, "fusion_lat": 0.0, "lat": 38.958406333333336, "type": "electric_scooter", "lon": -77.02405966666667, "bike_id": "e5bd8e0701150002b6657121b71d912e", "rental_uris": {"android": "https://dc.lft.to/lastmile_qr_scan", "ios": "https://dc.lft.to/lastmile_qr_scan"}, "name": "e5bd8e0701150002b6657121b71d912e", "is_reserved": 0}, {"is_disabled": 0, "fusion_lon": 0.0, "fusion_lat": 0.0, "lat": 38.91710883333333, "type": "electric_scooter", "lon": -77.03671616666666, "bike_id": "15186ab434dd685bf9491fd72f3c1a5f", "rental_uris": {"android": "https://dc.lft.to/lastmile_qr_scan", "ios": "https://dc.lft.to/lastmile_qr_scan"}, "name": "15186ab434dd685bf9491fd72f3c1a5f", "is_reserved": 0}, {"is_disabled": 0, "fusion_lon": 0.0, "fusion_lat": 0.0, "lat": 38.90132066666666, "type": "electric_scooter", "lon": -77.03048333333334, "bike_id": "fa83a5a9febea07936aa8ab590adad82", "rental_uris": {"android": "https://dc.lft.to/lastmile_qr_scan", "ios": "https://dc.lft.to/lastmile_qr_scan"}, "name": "fa83a5a9febea07936aa8ab590adad82", "is_reserved": 0}, {"is_disabled": 0, "fusion_lon": 0.0, "fusion_lat": 0.0, "lat": 38.8335145, "type": "electric_bike", "lon": -76.9655735, "bike_id": "4540130ca661a9d4f3e4bdd347c0f05e", "rental_uris": {"android": "https://dc.lft.to/lastmile_qr_scan", "ios": "https://dc.lft.to/lastmile_qr_scan"}, "name": "4540130ca661a9d4f3e4bdd347c0f05e", "is_reserved": 0}, {"is_disabled": 0, "fusion_lon": 0.0, "fusion_lat": 0.0, "lat": 38.9185615, "type": "electric_bike", "lon": -76.96086816666667, "bike_id": "9ec6a5c8f500af11cdcccb28be20caca", "rental_uris": {"android": "https://dc.lft.to/lastmile_qr_scan", "ios": "https://dc.lft.to/lastmile_qr_scan"}, "name": "9ec6a5c8f500af11cdcccb28be20caca", "is_reserved": 0}, {"is_disabled": 0, "fusion_lon": 0.0, "fusion_lat": 0.0, "lat": 38.94547333333333, "type": "electric_scooter", "lon": -77.04237883333333, "bike_id": "074916ea68490d78a2e5d2a5452eff38", "rental_uris": {"android": "https://dc.lft.to/lastmile_qr_scan", "ios": "https://dc.lft.to/lastmile_qr_scan"}, "name": "074916ea68490d78a2e5d2a5452eff38", "is_reserved": 0}, {"is_disabled": 0, "fusion_lon": 0.0, "fusion_lat": 0.0, "lat": 38.882513833333334, "type": "electric_scooter", "lon": -77.003457, "bike_id": "cc86f02299cbbcceab67ec3585afc500", "rental_uris": {"android": "https://dc.lft.to/lastmile_qr_scan", "ios": "https://dc.lft.to/lastmile_qr_scan"}, "name": "cc86f02299cbbcceab67ec3585afc500", "is_reserved": 0}, {"is_disabled": 0, "fusion_lon": 0.0, "fusion_lat": 0.0, "lat": 38.904755333333334, "type": "electric_scooter", "lon": -77.0382595, "bike_id": "79a4466a048bbb2d9c8b3533aa29a7f6", "rental_uris": {"android": "https://dc.lft.to/lastmile_qr_scan", "ios": "https://dc.lft.to/lastmile_qr_scan"}, "name": "79a4466a048bbb2d9c8b3533aa29a7f6", "is_reserved": 0}, {"is_disabled": 0, "fusion_lon": 0.0, "fusion_lat": 0.0, "lat": 38.96308633333334, "type": "electric_bike", "lon": -77.0576045, "bike_id": "55f407087762da66eb0fa74ba741dad5", "rental_uris": {"android": "https://dc.lft.to/lastmile_qr_scan", "ios": "https://dc.lft.to/lastmile_qr_scan"}, "name": "55f407087762da66eb0fa74ba741dad5", "is_reserved": 0}, {"is_disabled": 0, "fusion_lon": 0.0, "fusion_lat": 0.0, "lat": 38.8684445, "type": "electric_bike", "lon": -77.09731016666667, "bike_id": "25b6c9617b3796e7483e63c1efd3d4ad", "rental_uris": {"android": "https://dc.lft.to/lastmile_qr_scan", "ios": "https://dc.lft.to/lastmile_qr_scan"}, "name": "25b6c9617b3796e7483e63c1efd3d4ad", "is_reserved": 0}, {"is_disabled": 0, "fusion_lon": 0.0, "fusion_lat": 0.0, "lat": 38.902142, "type": "electric_scooter", "lon": -77.02435683333333, "bike_id": "34834ccd04e0f9affdd53906c880348b", "rental_uris": {"android": "https://dc.lft.to/lastmile_qr_scan", "ios": "https://dc.lft.to/lastmile_qr_scan"}, "name": "34834ccd04e0f9affdd53906c880348b", "is_reserved": 0}, {"is_disabled": 0, "fusion_lon": 0.0, "fusion_lat": 0.0, "lat": 38.921742, "type": "electric_scooter", "lon": -77.03828883333334, "bike_id": "15cb3c967dbea1fc93ba3ce38639f909", "rental_uris": {"android": "https://dc.lft.to/lastmile_qr_scan", "ios": "https://dc.lft.to/lastmile_qr_scan"}, "name": "15cb3c967dbea1fc93ba3ce38639f909", "is_reserved": 0}, {"is_disabled": 0, "fusion_lon": 0.0, "fusion_lat": 0.0, "lat": 38.8784795, "type": "electric_scooter", "lon": -77.00187883333334, "bike_id": "c58889100a4341ab5412ab0c683154ef", "rental_uris": {"android": "https://dc.lft.to/lastmile_qr_scan", "ios": "https://dc.lft.to/lastmile_qr_scan"}, "name": "c58889100a4341ab5412ab0c683154ef", "is_reserved": 0}, {"is_disabled": 0, "fusion_lon": 0.0, "fusion_lat": 0.0, "lat": 38.909490166666664, "type": "electric_scooter", "lon": -77.01521816666667, "bike_id": "4e49748d83104b07cf81a89522a39615", "rental_uris": {"android": "https://dc.lft.to/lastmile_qr_scan", "ios": "https://dc.lft.to/lastmile_qr_scan"}, "name": "4e49748d83104b07cf81a89522a39615", "is_reserved": 0}, {"is_disabled": 0, "fusion_lon": 0.0, "fusion_lat": 0.0, "lat": 38.923796, "type": "electric_scooter", "lon": -77.02757516666667, "bike_id": "ca6d9a48b902bcec54884f4348738a5a", "rental_uris": {"android": "https://dc.lft.to/lastmile_qr_scan", "ios": "https://dc.lft.to/lastmile_qr_scan"}, "name": "ca6d9a48b902bcec54884f4348738a5a", "is_reserved": 0}, {"is_disabled": 0, "fusion_lon": 0.0, "fusion_lat": 0.0, "lat": 38.877623666666665, "type": "electric_scooter", "lon": -77.00132166666667, "bike_id": "40eca138ec154e944540347a9da566e1", "rental_uris": {"android": "https://dc.lft.to/lastmile_qr_scan", "ios": "https://dc.lft.to/lastmile_qr_scan"}, "name": "40eca138ec154e944540347a9da566e1", "is_reserved": 0}, {"is_disabled": 0, "fusion_lon": 0.0, "fusion_lat": 0.0, "lat": 38.88737166666667, "type": "electric_scooter", "lon": -77.0152885, "bike_id": "8ab214600b3a2716f090b8970ed98f48", "rental_uris": {"android": "https://dc.lft.to/lastmile_qr_scan", "ios": "https://dc.lft.to/lastmile_qr_scan"}, "name": "8ab214600b3a2716f090b8970ed98f48", "is_reserved": 0}, {"is_disabled": 0, "fusion_lon": 0.0, "fusion_lat": 0.0, "lat": 38.9092915, "type": "electric_scooter", "lon": -77.023187, "bike_id": "9fcc30717aab0591899e3721fac26012", "rental_uris": {"android": "https://dc.lft.to/lastmile_qr_scan", "ios": "https://dc.lft.to/lastmile_qr_scan"}, "name": "9fcc30717aab0591899e3721fac26012", "is_reserved": 0}, {"is_disabled": 0, "fusion_lon": 0.0, "fusion_lat": 0.0, "lat": 38.902869333333335, "type": "electric_scooter", "lon": -77.03643883333334, "bike_id": "49b230e2eeaa996ad6e0f032614c159c", "rental_uris": {"android": "https://dc.lft.to/lastmile_qr_scan", "ios": "https://dc.lft.to/lastmile_qr_scan"}, "name": "49b230e2eeaa996ad6e0f032614c159c", "is_reserved": 0}, {"is_disabled": 0, "fusion_lon": 0.0, "fusion_lat": 0.0, "lat": 38.89262133333333, "type": "electric_scooter", "lon": -76.94154583333334, "bike_id": "c8e57da77f15f3e0331e898eea879ce5", "rental_uris": {"android": "https://dc.lft.to/lastmile_qr_scan", "ios": "https://dc.lft.to/lastmile_qr_scan"}, "name": "c8e57da77f15f3e0331e898eea879ce5", "is_reserved": 0}, {"is_disabled": 0, "fusion_lon": 0.0, "fusion_lat": 0.0, "lat": 38.90136783333333, "type": "electric_scooter", "lon": -77.0417225, "bike_id": "4db4ea0145294601b290a536ee6bf8ae", "rental_uris": {"android": "https://dc.lft.to/lastmile_qr_scan", "ios": "https://dc.lft.to/lastmile_qr_scan"}, "name": "4db4ea0145294601b290a536ee6bf8ae", "is_reserved": 0}, {"is_disabled": 0, "fusion_lon": 0.0, "fusion_lat": 0.0, "lat": 38.90686, "type": "electric_scooter", "lon": -77.03114433333333, "bike_id": "439fb9282191478e11760206dea2796b", "rental_uris": {"android": "https://dc.lft.to/lastmile_qr_scan", "ios": "https://dc.lft.to/lastmile_qr_scan"}, "name": "439fb9282191478e11760206dea2796b", "is_reserved": 0}, {"is_disabled": 0, "fusion_lon": 0.0, "fusion_lat": 0.0, "lat": 38.94520033333333, "type": "electric_scooter", "lon": -77.02982733333333, "bike_id": "0ce2619762b9f1b32b2cb7495f5d655f", "rental_uris": {"android": "https://dc.lft.to/lastmile_qr_scan", "ios": "https://dc.lft.to/lastmile_qr_scan"}, "name": "0ce2619762b9f1b32b2cb7495f5d655f", "is_reserved": 0}, {"is_disabled": 0, "fusion_lon": 0.0, "fusion_lat": 0.0, "lat": 38.90305566666667, "type": "electric_scooter", "lon": -77.02246183333334, "bike_id": "dd274ef7e79345bfc1ad528134da5045", "rental_uris": {"android": "https://dc.lft.to/lastmile_qr_scan", "ios": "https://dc.lft.to/lastmile_qr_scan"}, "name": "dd274ef7e79345bfc1ad528134da5045", "is_reserved": 0}, {"is_disabled": 0, "fusion_lon": 0.0, "fusion_lat": 0.0, "lat": 38.916933666666665, "type": "electric_scooter", "lon": -77.02986533333333, "bike_id": "bf9a6af2bf159af0e8ca22f0324b1095", "rental_uris": {"android": "https://dc.lft.to/lastmile_qr_scan", "ios": "https://dc.lft.to/lastmile_qr_scan"}, "name": "bf9a6af2bf159af0e8ca22f0324b1095", "is_reserved": 0}, {"is_disabled": 0, "fusion_lon": 0.0, "fusion_lat": 0.0, "lat": 38.883768, "type": "electric_scooter", "lon": -76.9237295, "bike_id": "16a0c09c189bdb6a2425dbadd26a681a", "rental_uris": {"android": "https://dc.lft.to/lastmile_qr_scan", "ios": "https://dc.lft.to/lastmile_qr_scan"}, "name": "16a0c09c189bdb6a2425dbadd26a681a", "is_reserved": 0}, {"is_disabled": 0, "fusion_lon": 0.0, "fusion_lat": 0.0, "lat": 38.90595016666666, "type": "electric_scooter", "lon": -77.0637285, "bike_id": "9e36f63933b7eff0d88855b02fe062c6", "rental_uris": {"android": "https://dc.lft.to/lastmile_qr_scan", "ios": "https://dc.lft.to/lastmile_qr_scan"}, "name": "9e36f63933b7eff0d88855b02fe062c6", "is_reserved": 0}, {"is_disabled": 0, "fusion_lon": 0.0, "fusion_lat": 0.0, "lat": 38.91808266666666, "type": "electric_scooter", "lon": -77.03435883333333, "bike_id": "4a8b39f2cf5626153fa31231348422ab", "rental_uris": {"android": "https://dc.lft.to/lastmile_qr_scan", "ios": "https://dc.lft.to/lastmile_qr_scan"}, "name": "4a8b39f2cf5626153fa31231348422ab", "is_reserved": 0}, {"is_disabled": 0, "fusion_lon": 0.0, "fusion_lat": 0.0, "lat": 38.890404333333336, "type": "electric_scooter", "lon": -77.0256955, "bike_id": "f4518c8a4b947d13d9135fc480793b23", "rental_uris": {"android": "https://dc.lft.to/lastmile_qr_scan", "ios": "https://dc.lft.to/lastmile_qr_scan"}, "name": "f4518c8a4b947d13d9135fc480793b23", "is_reserved": 0}, {"is_disabled": 0, "fusion_lon": 0.0, "fusion_lat": 0.0, "lat": 38.91271316666667, "type": "electric_scooter", "lon": -77.03142633333333, "bike_id": "374e02f629d282c5cc47d381066e05e8", "rental_uris": {"android": "https://dc.lft.to/lastmile_qr_scan", "ios": "https://dc.lft.to/lastmile_qr_scan"}, "name": "374e02f629d282c5cc47d381066e05e8", "is_reserved": 0}, {"is_disabled": 0, "fusion_lon": 0.0, "fusion_lat": 0.0, "lat": 38.89883116666667, "type": "electric_scooter", "lon": -77.0398615, "bike_id": "6831be95712360fb60a6a01e10e24086", "rental_uris": {"android": "https://dc.lft.to/lastmile_qr_scan", "ios": "https://dc.lft.to/lastmile_qr_scan"}, "name": "6831be95712360fb60a6a01e10e24086", "is_reserved": 0}, {"is_disabled": 0, "fusion_lon": 0.0, "fusion_lat": 0.0, "lat": 38.908661333333335, "type": "electric_scooter", "lon": -77.03546066666667, "bike_id": "1e5bdfcef713aa3e524970efc9bbc9e2", "rental_uris": {"android": "https://dc.lft.to/lastmile_qr_scan", "ios": "https://dc.lft.to/lastmile_qr_scan"}, "name": "1e5bdfcef713aa3e524970efc9bbc9e2", "is_reserved": 0}, {"is_disabled": 0, "fusion_lon": 0.0, "fusion_lat": 0.0, "lat": 38.92198033333333, "type": "electric_scooter", "lon": -76.99697133333333, "bike_id": "7786d49097456856307d70eecbc3bd5e", "rental_uris": {"android": "https://dc.lft.to/lastmile_qr_scan", "ios": "https://dc.lft.to/lastmile_qr_scan"}, "name": "7786d49097456856307d70eecbc3bd5e", "is_reserved": 0}, {"is_disabled": 0, "fusion_lon": 0.0, "fusion_lat": 0.0, "lat": 38.911857166666664, "type": "electric_scooter", "lon": -77.0349995, "bike_id": "1d34083997b45ec3cc44dbbf82cf766a", "rental_uris": {"android": "https://dc.lft.to/lastmile_qr_scan", "ios": "https://dc.lft.to/lastmile_qr_scan"}, "name": "1d34083997b45ec3cc44dbbf82cf766a", "is_reserved": 0}, {"is_disabled": 0, "fusion_lon": 0.0, "fusion_lat": 0.0, "lat": 38.900749166666664, "type": "electric_scooter", "lon": -77.01819083333334, "bike_id": "aa5f00f409a4b2668fc0a539069db7f0", "rental_uris": {"android": "https://dc.lft.to/lastmile_qr_scan", "ios": "https://dc.lft.to/lastmile_qr_scan"}, "name": "aa5f00f409a4b2668fc0a539069db7f0", "is_reserved": 0}, {"is_disabled": 0, "fusion_lon": 0.0, "fusion_lat": 0.0, "lat": 38.92976983333333, "type": "electric_scooter", "lon": -77.02075366666666, "bike_id": "40fec054e451cd710d697e1ad81aa62b", "rental_uris": {"android": "https://dc.lft.to/lastmile_qr_scan", "ios": "https://dc.lft.to/lastmile_qr_scan"}, "name": "40fec054e451cd710d697e1ad81aa62b", "is_reserved": 0}, {"is_disabled": 0, "fusion_lon": 0.0, "fusion_lat": 0.0, "lat": 38.91673383333333, "type": "electric_scooter", "lon": -77.04152716666667, "bike_id": "be278a6167f3250d8da98fec65e1ca9a", "rental_uris": {"android": "https://dc.lft.to/lastmile_qr_scan", "ios": "https://dc.lft.to/lastmile_qr_scan"}, "name": "be278a6167f3250d8da98fec65e1ca9a", "is_reserved": 0}, {"is_disabled": 0, "fusion_lon": 0.0, "fusion_lat": 0.0, "lat": 38.90404066666667, "type": "electric_scooter", "lon": -77.00583066666667, "bike_id": "5e5398c93dab5b87f28e7c90d666bbdb", "rental_uris": {"android": "https://dc.lft.to/lastmile_qr_scan", "ios": "https://dc.lft.to/lastmile_qr_scan"}, "name": "5e5398c93dab5b87f28e7c90d666bbdb", "is_reserved": 0}, {"is_disabled": 0, "fusion_lon": 0.0, "fusion_lat": 0.0, "lat": 38.9641825, "type": "electric_scooter", "lon": -77.0752765, "bike_id": "45c1be48e34ee012ea6a832a24aa1f83", "rental_uris": {"android": "https://dc.lft.to/lastmile_qr_scan", "ios": "https://dc.lft.to/lastmile_qr_scan"}, "name": "45c1be48e34ee012ea6a832a24aa1f83", "is_reserved": 0}, {"is_disabled": 0, "fusion_lon": 0.0, "fusion_lat": 0.0, "lat": 38.9089175, "type": "electric_scooter", "lon": -77.0457805, "bike_id": "b412f09cc32b8832a3fa827de786f17e", "rental_uris": {"android": "https://dc.lft.to/lastmile_qr_scan", "ios": "https://dc.lft.to/lastmile_qr_scan"}, "name": "b412f09cc32b8832a3fa827de786f17e", "is_reserved": 0}, {"is_disabled": 0, "fusion_lon": 0.0, "fusion_lat": 0.0, "lat": 38.9420115, "type": "electric_scooter", "lon": -77.02591466666667, "bike_id": "b6e364f7d284909cb4aa6c8aad53d5a1", "rental_uris": {"android": "https://dc.lft.to/lastmile_qr_scan", "ios": "https://dc.lft.to/lastmile_qr_scan"}, "name": "b6e364f7d284909cb4aa6c8aad53d5a1", "is_reserved": 0}, {"is_disabled": 0, "fusion_lon": 0.0, "fusion_lat": 0.0, "lat": 38.90680916666667, "type": "electric_scooter", "lon": -76.97999916666667, "bike_id": "c152212808013710eac83955f4496763", "rental_uris": {"android": "https://dc.lft.to/lastmile_qr_scan", "ios": "https://dc.lft.to/lastmile_qr_scan"}, "name": "c152212808013710eac83955f4496763", "is_reserved": 0}, {"is_disabled": 0, "fusion_lon": 0.0, "fusion_lat": 0.0, "lat": 38.9340875, "type": "electric_scooter", "lon": -77.0326505, "bike_id": "2da47a73ae0a2102f48effda1196b794", "rental_uris": {"android": "https://dc.lft.to/lastmile_qr_scan", "ios": "https://dc.lft.to/lastmile_qr_scan"}, "name": "2da47a73ae0a2102f48effda1196b794", "is_reserved": 0}, {"is_disabled": 0, "fusion_lon": 0.0, "fusion_lat": 0.0, "lat": 38.91035733333333, "type": "electric_scooter", "lon": -77.040053, "bike_id": "0c5c951424fe62e49ba4548d21cd6766", "rental_uris": {"android": "https://dc.lft.to/lastmile_qr_scan", "ios": "https://dc.lft.to/lastmile_qr_scan"}, "name": "0c5c951424fe62e49ba4548d21cd6766", "is_reserved": 0}, {"is_disabled": 0, "fusion_lon": 0.0, "fusion_lat": 0.0, "lat": 38.923497166666664, "type": "electric_scooter", "lon": -77.03394733333333, "bike_id": "5ac8a68ff93a5ad32ebe7d5db1a70253", "rental_uris": {"android": "https://dc.lft.to/lastmile_qr_scan", "ios": "https://dc.lft.to/lastmile_qr_scan"}, "name": "5ac8a68ff93a5ad32ebe7d5db1a70253", "is_reserved": 0}, {"is_disabled": 0, "fusion_lon": 0.0, "fusion_lat": 0.0, "lat": 38.85805233333333, "type": "electric_scooter", "lon": -76.98654316666666, "bike_id": "532e5a6581cf979d17585d6027163f36", "rental_uris": {"android": "https://dc.lft.to/lastmile_qr_scan", "ios": "https://dc.lft.to/lastmile_qr_scan"}, "name": "532e5a6581cf979d17585d6027163f36", "is_reserved": 0}, {"is_disabled": 0, "fusion_lon": 0.0, "fusion_lat": 0.0, "lat": 38.86526383333333, "type": "electric_scooter", "lon": -76.98968133333334, "bike_id": "631d65e8baf90cb933f725755978c07e", "rental_uris": {"android": "https://dc.lft.to/lastmile_qr_scan", "ios": "https://dc.lft.to/lastmile_qr_scan"}, "name": "631d65e8baf90cb933f725755978c07e", "is_reserved": 0}, {"is_disabled": 0, "fusion_lon": 0.0, "fusion_lat": 0.0, "lat": 38.9127415, "type": "electric_scooter", "lon": -77.022465, "bike_id": "a952a5cbabda8d99a43ee37ba2ec8dd8", "rental_uris": {"android": "https://dc.lft.to/lastmile_qr_scan", "ios": "https://dc.lft.to/lastmile_qr_scan"}, "name": "a952a5cbabda8d99a43ee37ba2ec8dd8", "is_reserved": 0}, {"is_disabled": 0, "fusion_lon": 0.0, "fusion_lat": 0.0, "lat": 38.92855433333333, "type": "electric_scooter", "lon": -77.01413566666666, "bike_id": "f03dd0bb88590e8877d1f6dc133439dc", "rental_uris": {"android": "https://dc.lft.to/lastmile_qr_scan", "ios": "https://dc.lft.to/lastmile_qr_scan"}, "name": "f03dd0bb88590e8877d1f6dc133439dc", "is_reserved": 0}, {"is_disabled": 0, "fusion_lon": 0.0, "fusion_lat": 0.0, "lat": 38.92532, "type": "electric_scooter", "lon": -77.07656416666667, "bike_id": "a09132b57a0de3d11aa3835e4dbf50d8", "rental_uris": {"android": "https://dc.lft.to/lastmile_qr_scan", "ios": "https://dc.lft.to/lastmile_qr_scan"}, "name": "a09132b57a0de3d11aa3835e4dbf50d8", "is_reserved": 0}, {"is_disabled": 0, "fusion_lon": 0.0, "fusion_lat": 0.0, "lat": 38.90602616666666, "type": "electric_scooter", "lon": -77.05708183333333, "bike_id": "00b5fe045832e750c24a49657f8f7dc3", "rental_uris": {"android": "https://dc.lft.to/lastmile_qr_scan", "ios": "https://dc.lft.to/lastmile_qr_scan"}, "name": "00b5fe045832e750c24a49657f8f7dc3", "is_reserved": 0}, {"is_disabled": 0, "fusion_lon": 0.0, "fusion_lat": 0.0, "lat": 38.8996475, "type": "electric_scooter", "lon": -77.04783066666667, "bike_id": "047cd8b7ff0f79af905c0388586f5729", "rental_uris": {"android": "https://dc.lft.to/lastmile_qr_scan", "ios": "https://dc.lft.to/lastmile_qr_scan"}, "name": "047cd8b7ff0f79af905c0388586f5729", "is_reserved": 0}, {"is_disabled": 0, "fusion_lon": 0.0, "fusion_lat": 0.0, "lat": 38.89470633333333, "type": "electric_scooter", "lon": -76.99412683333334, "bike_id": "7d248a5f758248087ca3ded031c99699", "rental_uris": {"android": "https://dc.lft.to/lastmile_qr_scan", "ios": "https://dc.lft.to/lastmile_qr_scan"}, "name": "7d248a5f758248087ca3ded031c99699", "is_reserved": 0}, {"is_disabled": 0, "fusion_lon": 0.0, "fusion_lat": 0.0, "lat": 38.93077016666667, "type": "electric_scooter", "lon": -77.038007, "bike_id": "ae72e7606ac653ee8d98a83c14f43c00", "rental_uris": {"android": "https://dc.lft.to/lastmile_qr_scan", "ios": "https://dc.lft.to/lastmile_qr_scan"}, "name": "ae72e7606ac653ee8d98a83c14f43c00", "is_reserved": 0}, {"is_disabled": 0, "fusion_lon": 0.0, "fusion_lat": 0.0, "lat": 38.93961016666667, "type": "electric_scooter", "lon": -77.02752716666667, "bike_id": "f0cc873c511e635d03a79b9b2f24a3e8", "rental_uris": {"android": "https://dc.lft.to/lastmile_qr_scan", "ios": "https://dc.lft.to/lastmile_qr_scan"}, "name": "f0cc873c511e635d03a79b9b2f24a3e8", "is_reserved": 0}, {"is_disabled": 0, "fusion_lon": 0.0, "fusion_lat": 0.0, "lat": 38.887375666666664, "type": "electric_scooter", "lon": -77.01534383333333, "bike_id": "10dc0013512baaec8b20de8d3b485a2c", "rental_uris": {"android": "https://dc.lft.to/lastmile_qr_scan", "ios": "https://dc.lft.to/lastmile_qr_scan"}, "name": "10dc0013512baaec8b20de8d3b485a2c", "is_reserved": 0}, {"is_disabled": 0, "fusion_lon": 0.0, "fusion_lat": 0.0, "lat": 38.940889166666665, "type": "electric_scooter", "lon": -77.038147, "bike_id": "511b480aece821e17906ac38ad4313a2", "rental_uris": {"android": "https://dc.lft.to/lastmile_qr_scan", "ios": "https://dc.lft.to/lastmile_qr_scan"}, "name": "511b480aece821e17906ac38ad4313a2", "is_reserved": 0}, {"is_disabled": 0, "fusion_lon": 0.0, "fusion_lat": 0.0, "lat": 38.87924266666667, "type": "electric_scooter", "lon": -76.945036, "bike_id": "53f086c30d5adc868dd13f82e0578b35", "rental_uris": {"android": "https://dc.lft.to/lastmile_qr_scan", "ios": "https://dc.lft.to/lastmile_qr_scan"}, "name": "53f086c30d5adc868dd13f82e0578b35", "is_reserved": 0}, {"is_disabled": 0, "fusion_lon": 0.0, "fusion_lat": 0.0, "lat": 38.91553616666667, "type": "electric_scooter", "lon": -77.03835583333333, "bike_id": "96e15c90cea26d510c58cdd134c3c69b", "rental_uris": {"android": "https://dc.lft.to/lastmile_qr_scan", "ios": "https://dc.lft.to/lastmile_qr_scan"}, "name": "96e15c90cea26d510c58cdd134c3c69b", "is_reserved": 0}, {"is_disabled": 0, "fusion_lon": 0.0, "fusion_lat": 0.0, "lat": 38.899274, "type": "electric_scooter", "lon": -77.03292833333333, "bike_id": "6366fa4319a4118d733922dc7d662340", "rental_uris": {"android": "https://dc.lft.to/lastmile_qr_scan", "ios": "https://dc.lft.to/lastmile_qr_scan"}, "name": "6366fa4319a4118d733922dc7d662340", "is_reserved": 0}, {"is_disabled": 0, "fusion_lon": 0.0, "fusion_lat": 0.0, "lat": 38.893579333333335, "type": "electric_scooter", "lon": -76.98467233333334, "bike_id": "c5f72daeb06f687d31520dfe18596e25", "rental_uris": {"android": "https://dc.lft.to/lastmile_qr_scan", "ios": "https://dc.lft.to/lastmile_qr_scan"}, "name": "c5f72daeb06f687d31520dfe18596e25", "is_reserved": 0}, {"is_disabled": 0, "fusion_lon": 0.0, "fusion_lat": 0.0, "lat": 38.92472583333333, "type": "electric_scooter", "lon": -77.02813233333333, "bike_id": "f1eb35d85294c5b27c0a313dc6c9ca37", "rental_uris": {"android": "https://dc.lft.to/lastmile_qr_scan", "ios": "https://dc.lft.to/lastmile_qr_scan"}, "name": "f1eb35d85294c5b27c0a313dc6c9ca37", "is_reserved": 0}, {"is_disabled": 0, "fusion_lon": 0.0, "fusion_lat": 0.0, "lat": 38.887301, "type": "electric_scooter", "lon": -77.0174535, "bike_id": "ae515501f332b5033232e1cecd4c6c3d", "rental_uris": {"android": "https://dc.lft.to/lastmile_qr_scan", "ios": "https://dc.lft.to/lastmile_qr_scan"}, "name": "ae515501f332b5033232e1cecd4c6c3d", "is_reserved": 0}, {"is_disabled": 0, "fusion_lon": 0.0, "fusion_lat": 0.0, "lat": 38.918211166666666, "type": "electric_scooter", "lon": -77.03444133333333, "bike_id": "e09a7f489a2f0ef54f925d3b93f6d2fd", "rental_uris": {"android": "https://dc.lft.to/lastmile_qr_scan", "ios": "https://dc.lft.to/lastmile_qr_scan"}, "name": "e09a7f489a2f0ef54f925d3b93f6d2fd", "is_reserved": 0}, {"is_disabled": 0, "fusion_lon": 0.0, "fusion_lat": 0.0, "lat": 38.88020016666667, "type": "electric_scooter", "lon": -76.9823995, "bike_id": "199c66ac811cdfc1013cda76a9c73724", "rental_uris": {"android": "https://dc.lft.to/lastmile_qr_scan", "ios": "https://dc.lft.to/lastmile_qr_scan"}, "name": "199c66ac811cdfc1013cda76a9c73724", "is_reserved": 0}, {"is_disabled": 0, "fusion_lon": 0.0, "fusion_lat": 0.0, "lat": 38.9014775, "type": "electric_scooter", "lon": -77.03985483333334, "bike_id": "2f6fd2d999fdd920d226bb05fdec3e3a", "rental_uris": {"android": "https://dc.lft.to/lastmile_qr_scan", "ios": "https://dc.lft.to/lastmile_qr_scan"}, "name": "2f6fd2d999fdd920d226bb05fdec3e3a", "is_reserved": 0}, {"is_disabled": 0, "fusion_lon": 0.0, "fusion_lat": 0.0, "lat": 38.9051985, "type": "electric_scooter", "lon": -77.06629333333333, "bike_id": "36337c91b95997bebf5a3af4adabad6d", "rental_uris": {"android": "https://dc.lft.to/lastmile_qr_scan", "ios": "https://dc.lft.to/lastmile_qr_scan"}, "name": "36337c91b95997bebf5a3af4adabad6d", "is_reserved": 0}, {"is_disabled": 0, "fusion_lon": 0.0, "fusion_lat": 0.0, "lat": 38.931556, "type": "electric_scooter", "lon": -77.04135033333333, "bike_id": "a0688c7203e5ef2f3a033eaf00692141", "rental_uris": {"android": "https://dc.lft.to/lastmile_qr_scan", "ios": "https://dc.lft.to/lastmile_qr_scan"}, "name": "a0688c7203e5ef2f3a033eaf00692141", "is_reserved": 0}, {"is_disabled": 0, "fusion_lon": 0.0, "fusion_lat": 0.0, "lat": 38.8955545, "type": "electric_scooter", "lon": -76.948728, "bike_id": "aa25382a2eb84b217390c9ce3de2ad5e", "rental_uris": {"android": "https://dc.lft.to/lastmile_qr_scan", "ios": "https://dc.lft.to/lastmile_qr_scan"}, "name": "aa25382a2eb84b217390c9ce3de2ad5e", "is_reserved": 0}, {"is_disabled": 0, "fusion_lon": 0.0, "fusion_lat": 0.0, "lat": 38.86523233333333, "type": "electric_scooter", "lon": -76.98966233333333, "bike_id": "bbdc75cd98366ff07e095b2f49ef3c33", "rental_uris": {"android": "https://dc.lft.to/lastmile_qr_scan", "ios": "https://dc.lft.to/lastmile_qr_scan"}, "name": "bbdc75cd98366ff07e095b2f49ef3c33", "is_reserved": 0}, {"is_disabled": 0, "fusion_lon": 0.0, "fusion_lat": 0.0, "lat": 38.90868833333333, "type": "electric_scooter", "lon": -77.03010916666666, "bike_id": "d089d4fb901b44b19709d4200aebeac7", "rental_uris": {"android": "https://dc.lft.to/lastmile_qr_scan", "ios": "https://dc.lft.to/lastmile_qr_scan"}, "name": "d089d4fb901b44b19709d4200aebeac7", "is_reserved": 0}, {"is_disabled": 0, "fusion_lon": 0.0, "fusion_lat": 0.0, "lat": 38.89848116666667, "type": "electric_scooter", "lon": -76.9449495, "bike_id": "5022056c242429777011675b6f0e3a25", "rental_uris": {"android": "https://dc.lft.to/lastmile_qr_scan", "ios": "https://dc.lft.to/lastmile_qr_scan"}, "name": "5022056c242429777011675b6f0e3a25", "is_reserved": 0}, {"is_disabled": 0, "fusion_lon": 0.0, "fusion_lat": 0.0, "lat": 38.906012833333335, "type": "electric_scooter", "lon": -77.0161755, "bike_id": "dd51287bc1b60aed955ad60508defc46", "rental_uris": {"android": "https://dc.lft.to/lastmile_qr_scan", "ios": "https://dc.lft.to/lastmile_qr_scan"}, "name": "dd51287bc1b60aed955ad60508defc46", "is_reserved": 0}, {"is_disabled": 0, "fusion_lon": 0.0, "fusion_lat": 0.0, "lat": 38.89336183333333, "type": "electric_scooter", "lon": -77.02119016666667, "bike_id": "132a37fa8201b9bef69be3712a341401", "rental_uris": {"android": "https://dc.lft.to/lastmile_qr_scan", "ios": "https://dc.lft.to/lastmile_qr_scan"}, "name": "132a37fa8201b9bef69be3712a341401", "is_reserved": 0}, {"is_disabled": 0, "fusion_lon": 0.0, "fusion_lat": 0.0, "lat": 38.913376666666665, "type": "electric_scooter", "lon": -77.031819, "bike_id": "8a87a61987f61c3207d0c17b95816380", "rental_uris": {"android": "https://dc.lft.to/lastmile_qr_scan", "ios": "https://dc.lft.to/lastmile_qr_scan"}, "name": "8a87a61987f61c3207d0c17b95816380", "is_reserved": 0}, {"is_disabled": 0, "fusion_lon": 0.0, "fusion_lat": 0.0, "lat": 38.9605715, "type": "electric_scooter", "lon": -77.08563616666666, "bike_id": "df801e51b78b486872f8f389a83fe0c5", "rental_uris": {"android": "https://dc.lft.to/lastmile_qr_scan", "ios": "https://dc.lft.to/lastmile_qr_scan"}, "name": "df801e51b78b486872f8f389a83fe0c5", "is_reserved": 0}, {"is_disabled": 0, "fusion_lon": 0.0, "fusion_lat": 0.0, "lat": 39.022987, "type": "electric_bike", "lon": -77.02100033333333, "bike_id": "012465c7f4d54635e0a8577846083c32", "rental_uris": {"android": "https://dc.lft.to/lastmile_qr_scan", "ios": "https://dc.lft.to/lastmile_qr_scan"}, "name": "012465c7f4d54635e0a8577846083c32", "is_reserved": 0}, {"is_disabled": 0, "fusion_lon": 0.0, "fusion_lat": 0.0, "lat": 38.90320416666667, "type": "electric_scooter", "lon": -77.01899966666667, "bike_id": "bbe2cf77efe4eed5c4006fc4a5911ce4", "rental_uris": {"android": "https://dc.lft.to/lastmile_qr_scan", "ios": "https://dc.lft.to/lastmile_qr_scan"}, "name": "bbe2cf77efe4eed5c4006fc4a5911ce4", "is_reserved": 0}, {"is_disabled": 0, "fusion_lon": 0.0, "fusion_lat": 0.0, "lat": 38.876570666666666, "type": "electric_scooter", "lon": -77.0156155, "bike_id": "d5ef266b4a52ba02a100978d15ea5aee", "rental_uris": {"android": "https://dc.lft.to/lastmile_qr_scan", "ios": "https://dc.lft.to/lastmile_qr_scan"}, "name": "d5ef266b4a52ba02a100978d15ea5aee", "is_reserved": 0}, {"is_disabled": 0, "fusion_lon": 0.0, "fusion_lat": 0.0, "lat": 38.90832183333333, "type": "electric_scooter", "lon": -77.04164783333333, "bike_id": "c5c8d867169900718dbbf4601c1d95a3", "rental_uris": {"android": "https://dc.lft.to/lastmile_qr_scan", "ios": "https://dc.lft.to/lastmile_qr_scan"}, "name": "c5c8d867169900718dbbf4601c1d95a3", "is_reserved": 0}, {"is_disabled": 0, "fusion_lon": 0.0, "fusion_lat": 0.0, "lat": 38.92114133333333, "type": "electric_scooter", "lon": -77.03046616666667, "bike_id": "b1169f716e72993b76803624500e3db5", "rental_uris": {"android": "https://dc.lft.to/lastmile_qr_scan", "ios": "https://dc.lft.to/lastmile_qr_scan"}, "name": "b1169f716e72993b76803624500e3db5", "is_reserved": 0}, {"is_disabled": 0, "fusion_lon": 0.0, "fusion_lat": 0.0, "lat": 38.928739666666665, "type": "electric_scooter", "lon": -77.041308, "bike_id": "05067fa7a521b4c3acac156c415dc389", "rental_uris": {"android": "https://dc.lft.to/lastmile_qr_scan", "ios": "https://dc.lft.to/lastmile_qr_scan"}, "name": "05067fa7a521b4c3acac156c415dc389", "is_reserved": 0}, {"is_disabled": 0, "fusion_lon": 0.0, "fusion_lat": 0.0, "lat": 38.931373666666666, "type": "electric_scooter", "lon": -77.0345725, "bike_id": "439ed032bc89642c6d063b665ec79cf7", "rental_uris": {"android": "https://dc.lft.to/lastmile_qr_scan", "ios": "https://dc.lft.to/lastmile_qr_scan"}, "name": "439ed032bc89642c6d063b665ec79cf7", "is_reserved": 0}, {"is_disabled": 0, "fusion_lon": 0.0, "fusion_lat": 0.0, "lat": 38.909695166666666, "type": "electric_scooter", "lon": -77.08069783333333, "bike_id": "9ef8ffd29aacdc8b43984cd14dbcbb89", "rental_uris": {"android": "https://dc.lft.to/lastmile_qr_scan", "ios": "https://dc.lft.to/lastmile_qr_scan"}, "name": "9ef8ffd29aacdc8b43984cd14dbcbb89", "is_reserved": 0}, {"is_disabled": 0, "fusion_lon": 0.0, "fusion_lat": 0.0, "lat": 38.9171, "type": "electric_scooter", "lon": -77.03211233333333, "bike_id": "20d91d49f470d13fbbcefa61607163be", "rental_uris": {"android": "https://dc.lft.to/lastmile_qr_scan", "ios": "https://dc.lft.to/lastmile_qr_scan"}, "name": "20d91d49f470d13fbbcefa61607163be", "is_reserved": 0}, {"is_disabled": 0, "fusion_lon": 0.0, "fusion_lat": 0.0, "lat": 38.90446416666666, "type": "electric_scooter", "lon": -77.02897833333333, "bike_id": "15313e106017f79816628ee86dcfe356", "rental_uris": {"android": "https://dc.lft.to/lastmile_qr_scan", "ios": "https://dc.lft.to/lastmile_qr_scan"}, "name": "15313e106017f79816628ee86dcfe356", "is_reserved": 0}, {"is_disabled": 0, "fusion_lon": 0.0, "fusion_lat": 0.0, "lat": 38.8982545, "type": "electric_scooter", "lon": -76.9465205, "bike_id": "0519e2a26c0b103ddabca6e69ef3e4e3", "rental_uris": {"android": "https://dc.lft.to/lastmile_qr_scan", "ios": "https://dc.lft.to/lastmile_qr_scan"}, "name": "0519e2a26c0b103ddabca6e69ef3e4e3", "is_reserved": 0}, {"is_disabled": 0, "fusion_lon": 0.0, "fusion_lat": 0.0, "lat": 38.900687833333336, "type": "electric_scooter", "lon": -77.01317433333334, "bike_id": "5993d2d0620c21b0b72b237dbdb2f817", "rental_uris": {"android": "https://dc.lft.to/lastmile_qr_scan", "ios": "https://dc.lft.to/lastmile_qr_scan"}, "name": "5993d2d0620c21b0b72b237dbdb2f817", "is_reserved": 0}, {"is_disabled": 0, "fusion_lon": 0.0, "fusion_lat": 0.0, "lat": 38.882285333333336, "type": "electric_bike", "lon": -77.1127215, "bike_id": "12eaee7c327d89f74471475bd8dff046", "rental_uris": {"android": "https://dc.lft.to/lastmile_qr_scan", "ios": "https://dc.lft.to/lastmile_qr_scan"}, "name": "12eaee7c327d89f74471475bd8dff046", "is_reserved": 0}, {"is_disabled": 0, "fusion_lon": 0.0, "fusion_lat": 0.0, "lat": 38.9109055, "type": "electric_scooter", "lon": -77.0385715, "bike_id": "bb29a71230cdcd14584079fced7c6bbb", "rental_uris": {"android": "https://dc.lft.to/lastmile_qr_scan", "ios": "https://dc.lft.to/lastmile_qr_scan"}, "name": "bb29a71230cdcd14584079fced7c6bbb", "is_reserved": 0}, {"is_disabled": 0, "fusion_lon": 0.0, "fusion_lat": 0.0, "lat": 38.88654733333333, "type": "electric_scooter", "lon": -77.028346, "bike_id": "f524353af259b82f9b152d21d5c99bf8", "rental_uris": {"android": "https://dc.lft.to/lastmile_qr_scan", "ios": "https://dc.lft.to/lastmile_qr_scan"}, "name": "f524353af259b82f9b152d21d5c99bf8", "is_reserved": 0}, {"is_disabled": 0, "fusion_lon": 0.0, "fusion_lat": 0.0, "lat": 38.95314966666667, "type": "electric_scooter", "lon": -77.03597083333334, "bike_id": "d7894b43b975b83183db870d35460725", "rental_uris": {"android": "https://dc.lft.to/lastmile_qr_scan", "ios": "https://dc.lft.to/lastmile_qr_scan"}, "name": "d7894b43b975b83183db870d35460725", "is_reserved": 0}, {"is_disabled": 0, "fusion_lon": 0.0, "fusion_lat": 0.0, "lat": 38.907568, "type": "electric_scooter", "lon": -77.0357975, "bike_id": "c590f378c62b895ff67842796034e3a8", "rental_uris": {"android": "https://dc.lft.to/lastmile_qr_scan", "ios": "https://dc.lft.to/lastmile_qr_scan"}, "name": "c590f378c62b895ff67842796034e3a8", "is_reserved": 0}, {"is_disabled": 0, "fusion_lon": 0.0, "fusion_lat": 0.0, "lat": 38.88736983333333, "type": "electric_scooter", "lon": -77.0153505, "bike_id": "5aac392159f5abbc33610bfa1ee2b688", "rental_uris": {"android": "https://dc.lft.to/lastmile_qr_scan", "ios": "https://dc.lft.to/lastmile_qr_scan"}, "name": "5aac392159f5abbc33610bfa1ee2b688", "is_reserved": 0}, {"is_disabled": 0, "fusion_lon": 0.0, "fusion_lat": 0.0, "lat": 38.91106816666667, "type": "electric_scooter", "lon": -77.0383205, "bike_id": "a4bcde6553be5d56c0c2e5f4f3cd9020", "rental_uris": {"android": "https://dc.lft.to/lastmile_qr_scan", "ios": "https://dc.lft.to/lastmile_qr_scan"}, "name": "a4bcde6553be5d56c0c2e5f4f3cd9020", "is_reserved": 0}, {"is_disabled": 0, "fusion_lon": 0.0, "fusion_lat": 0.0, "lat": 38.89194033333333, "type": "electric_scooter", "lon": -77.02240516666667, "bike_id": "fd881bea13dbb396c3c458fb4732e678", "rental_uris": {"android": "https://dc.lft.to/lastmile_qr_scan", "ios": "https://dc.lft.to/lastmile_qr_scan"}, "name": "fd881bea13dbb396c3c458fb4732e678", "is_reserved": 0}, {"is_disabled": 0, "fusion_lon": 0.0, "fusion_lat": 0.0, "lat": 38.89506516666667, "type": "electric_scooter", "lon": -77.01610533333333, "bike_id": "bb78d6d29bbb2913626fa6e234e14d79", "rental_uris": {"android": "https://dc.lft.to/lastmile_qr_scan", "ios": "https://dc.lft.to/lastmile_qr_scan"}, "name": "bb78d6d29bbb2913626fa6e234e14d79", "is_reserved": 0}, {"is_disabled": 0, "fusion_lon": 0.0, "fusion_lat": 0.0, "lat": 38.9212225, "type": "electric_scooter", "lon": -77.0120745, "bike_id": "57b183c2910ba9a2dba6dce9746337d1", "rental_uris": {"android": "https://dc.lft.to/lastmile_qr_scan", "ios": "https://dc.lft.to/lastmile_qr_scan"}, "name": "57b183c2910ba9a2dba6dce9746337d1", "is_reserved": 0}, {"is_disabled": 0, "fusion_lon": 0.0, "fusion_lat": 0.0, "lat": 38.95634666666667, "type": "electric_scooter", "lon": -77.02979733333333, "bike_id": "1fa09ab0cf0c42c8d479060106590703", "rental_uris": {"android": "https://dc.lft.to/lastmile_qr_scan", "ios": "https://dc.lft.to/lastmile_qr_scan"}, "name": "1fa09ab0cf0c42c8d479060106590703", "is_reserved": 0}, {"is_disabled": 0, "fusion_lon": 0.0, "fusion_lat": 0.0, "lat": 38.9275075, "type": "electric_scooter", "lon": -77.07593966666667, "bike_id": "44b605e925d0324cac530f980a2ac98c", "rental_uris": {"android": "https://dc.lft.to/lastmile_qr_scan", "ios": "https://dc.lft.to/lastmile_qr_scan"}, "name": "44b605e925d0324cac530f980a2ac98c", "is_reserved": 0}, {"is_disabled": 0, "fusion_lon": 0.0, "fusion_lat": 0.0, "lat": 38.883798, "type": "electric_bike", "lon": -77.03078216666667, "bike_id": "479b59036952a59cdc16c2f93dfcb935", "rental_uris": {"android": "https://dc.lft.to/lastmile_qr_scan", "ios": "https://dc.lft.to/lastmile_qr_scan"}, "name": "479b59036952a59cdc16c2f93dfcb935", "is_reserved": 0}, {"is_disabled": 0, "fusion_lon": 0.0, "fusion_lat": 0.0, "lat": 38.84598916666667, "type": "electric_bike", "lon": -76.96884283333333, "bike_id": "b0e32a4642383659cf2dc971a967b1e9", "rental_uris": {"android": "https://dc.lft.to/lastmile_qr_scan", "ios": "https://dc.lft.to/lastmile_qr_scan"}, "name": "b0e32a4642383659cf2dc971a967b1e9", "is_reserved": 0}, {"is_disabled": 0, "fusion_lon": 0.0, "fusion_lat": 0.0, "lat": 38.95967983333333, "type": "electric_scooter", "lon": -77.021079, "bike_id": "beb740fb75ecd474cfe7c2927783d3fc", "rental_uris": {"android": "https://dc.lft.to/lastmile_qr_scan", "ios": "https://dc.lft.to/lastmile_qr_scan"}, "name": "beb740fb75ecd474cfe7c2927783d3fc", "is_reserved": 0}, {"is_disabled": 0, "fusion_lon": 0.0, "fusion_lat": 0.0, "lat": 38.91097033333333, "type": "electric_scooter", "lon": -76.9847485, "bike_id": "71b4a64e7ff107bac938541fa0ae90a1", "rental_uris": {"android": "https://dc.lft.to/lastmile_qr_scan", "ios": "https://dc.lft.to/lastmile_qr_scan"}, "name": "71b4a64e7ff107bac938541fa0ae90a1", "is_reserved": 0}, {"is_disabled": 0, "fusion_lon": 0.0, "fusion_lat": 0.0, "lat": 38.8636045, "type": "electric_scooter", "lon": -76.99068266666667, "bike_id": "361df1ad075bcd0bc1e3056e4132f561", "rental_uris": {"android": "https://dc.lft.to/lastmile_qr_scan", "ios": "https://dc.lft.to/lastmile_qr_scan"}, "name": "361df1ad075bcd0bc1e3056e4132f561", "is_reserved": 0}, {"is_disabled": 0, "fusion_lon": 0.0, "fusion_lat": 0.0, "lat": 38.908625, "type": "electric_scooter", "lon": -77.032114, "bike_id": "7513a48d3f329e6246902d7c1e4bd2bd", "rental_uris": {"android": "https://dc.lft.to/lastmile_qr_scan", "ios": "https://dc.lft.to/lastmile_qr_scan"}, "name": "7513a48d3f329e6246902d7c1e4bd2bd", "is_reserved": 0}, {"is_disabled": 0, "fusion_lon": 0.0, "fusion_lat": 0.0, "lat": 38.905905833333335, "type": "electric_scooter", "lon": -77.04872216666666, "bike_id": "e048d0f7de44e4c1e95afea5bca3ef53", "rental_uris": {"android": "https://dc.lft.to/lastmile_qr_scan", "ios": "https://dc.lft.to/lastmile_qr_scan"}, "name": "e048d0f7de44e4c1e95afea5bca3ef53", "is_reserved": 0}, {"is_disabled": 0, "fusion_lon": 0.0, "fusion_lat": 0.0, "lat": 38.920212166666666, "type": "electric_scooter", "lon": -77.01866766666667, "bike_id": "a5c5346b75bfd5c9fc8de1d62d34c24d", "rental_uris": {"android": "https://dc.lft.to/lastmile_qr_scan", "ios": "https://dc.lft.to/lastmile_qr_scan"}, "name": "a5c5346b75bfd5c9fc8de1d62d34c24d", "is_reserved": 0}, {"is_disabled": 0, "fusion_lon": 0.0, "fusion_lat": 0.0, "lat": 38.9346515, "type": "electric_scooter", "lon": -77.073029, "bike_id": "36459d3069bde0d3bafb0b3e0230c4ed", "rental_uris": {"android": "https://dc.lft.to/lastmile_qr_scan", "ios": "https://dc.lft.to/lastmile_qr_scan"}, "name": "36459d3069bde0d3bafb0b3e0230c4ed", "is_reserved": 0}, {"is_disabled": 0, "fusion_lon": 0.0, "fusion_lat": 0.0, "lat": 38.8743455, "type": "electric_bike", "lon": -77.00891083333333, "bike_id": "68e86c2a0cd54758c88e8e678faa153b", "rental_uris": {"android": "https://dc.lft.to/lastmile_qr_scan", "ios": "https://dc.lft.to/lastmile_qr_scan"}, "name": "68e86c2a0cd54758c88e8e678faa153b", "is_reserved": 0}, {"is_disabled": 0, "fusion_lon": 0.0, "fusion_lat": 0.0, "lat": 38.918116166666664, "type": "electric_scooter", "lon": -77.03114583333333, "bike_id": "50682fe361115d897a9830e937165c87", "rental_uris": {"android": "https://dc.lft.to/lastmile_qr_scan", "ios": "https://dc.lft.to/lastmile_qr_scan"}, "name": "50682fe361115d897a9830e937165c87", "is_reserved": 0}, {"is_disabled": 0, "fusion_lon": 0.0, "fusion_lat": 0.0, "lat": 38.86242216666667, "type": "electric_scooter", "lon": -76.99490633333333, "bike_id": "adca689934336f9fe73bfbba0d65bd25", "rental_uris": {"android": "https://dc.lft.to/lastmile_qr_scan", "ios": "https://dc.lft.to/lastmile_qr_scan"}, "name": "adca689934336f9fe73bfbba0d65bd25", "is_reserved": 0}, {"is_disabled": 0, "fusion_lon": 0.0, "fusion_lat": 0.0, "lat": 38.923590833333336, "type": "electric_scooter", "lon": -77.05036633333333, "bike_id": "01c471ba76b325e13a03307556ff9dfa", "rental_uris": {"android": "https://dc.lft.to/lastmile_qr_scan", "ios": "https://dc.lft.to/lastmile_qr_scan"}, "name": "01c471ba76b325e13a03307556ff9dfa", "is_reserved": 0}, {"is_disabled": 0, "fusion_lon": 0.0, "fusion_lat": 0.0, "lat": 38.90954633333333, "type": "electric_scooter", "lon": -77.02182533333334, "bike_id": "74e87f002bca5943501e3ae8addd2931", "rental_uris": {"android": "https://dc.lft.to/lastmile_qr_scan", "ios": "https://dc.lft.to/lastmile_qr_scan"}, "name": "74e87f002bca5943501e3ae8addd2931", "is_reserved": 0}, {"is_disabled": 0, "fusion_lon": 0.0, "fusion_lat": 0.0, "lat": 38.96733916666667, "type": "electric_scooter", "lon": -77.02760216666667, "bike_id": "fb33945115a640a0af3feeb971ff956d", "rental_uris": {"android": "https://dc.lft.to/lastmile_qr_scan", "ios": "https://dc.lft.to/lastmile_qr_scan"}, "name": "fb33945115a640a0af3feeb971ff956d", "is_reserved": 0}, {"is_disabled": 0, "fusion_lon": 0.0, "fusion_lat": 0.0, "lat": 38.8836425, "type": "electric_scooter", "lon": -77.025077, "bike_id": "6ed895eecb7caca589114d593383c15e", "rental_uris": {"android": "https://dc.lft.to/lastmile_qr_scan", "ios": "https://dc.lft.to/lastmile_qr_scan"}, "name": "6ed895eecb7caca589114d593383c15e", "is_reserved": 0}, {"is_disabled": 0, "fusion_lon": 0.0, "fusion_lat": 0.0, "lat": 38.846196, "type": "electric_scooter", "lon": -76.99628516666667, "bike_id": "88085290f3ec4d43127275616e01ee67", "rental_uris": {"android": "https://dc.lft.to/lastmile_qr_scan", "ios": "https://dc.lft.to/lastmile_qr_scan"}, "name": "88085290f3ec4d43127275616e01ee67", "is_reserved": 0}, {"is_disabled": 0, "fusion_lon": 0.0, "fusion_lat": 0.0, "lat": 38.9174355, "type": "electric_scooter", "lon": -77.03201866666667, "bike_id": "8d8f7ca267306df662c5e331409fc558", "rental_uris": {"android": "https://dc.lft.to/lastmile_qr_scan", "ios": "https://dc.lft.to/lastmile_qr_scan"}, "name": "8d8f7ca267306df662c5e331409fc558", "is_reserved": 0}, {"is_disabled": 0, "fusion_lon": 0.0, "fusion_lat": 0.0, "lat": 38.924401333333336, "type": "electric_scooter", "lon": -77.02606316666666, "bike_id": "54f043fbe6a29b40ed9958dc26e21092", "rental_uris": {"android": "https://dc.lft.to/lastmile_qr_scan", "ios": "https://dc.lft.to/lastmile_qr_scan"}, "name": "54f043fbe6a29b40ed9958dc26e21092", "is_reserved": 0}, {"is_disabled": 0, "fusion_lon": 0.0, "fusion_lat": 0.0, "lat": 38.91126083333333, "type": "electric_scooter", "lon": -77.04183033333334, "bike_id": "5ac16857f4c3cdabbdbe7a2d07a782a5", "rental_uris": {"android": "https://dc.lft.to/lastmile_qr_scan", "ios": "https://dc.lft.to/lastmile_qr_scan"}, "name": "5ac16857f4c3cdabbdbe7a2d07a782a5", "is_reserved": 0}, {"is_disabled": 0, "fusion_lon": 0.0, "fusion_lat": 0.0, "lat": 38.88406533333333, "type": "electric_scooter", "lon": -76.95414233333334, "bike_id": "f07e3f0274f7b5ef9e846b9085ffc1a3", "rental_uris": {"android": "https://dc.lft.to/lastmile_qr_scan", "ios": "https://dc.lft.to/lastmile_qr_scan"}, "name": "f07e3f0274f7b5ef9e846b9085ffc1a3", "is_reserved": 0}, {"is_disabled": 0, "fusion_lon": 0.0, "fusion_lat": 0.0, "lat": 39.088407, "type": "electric_bike", "lon": -77.17799616666667, "bike_id": "61316c27116326134842225d132560ff", "rental_uris": {"android": "https://dc.lft.to/lastmile_qr_scan", "ios": "https://dc.lft.to/lastmile_qr_scan"}, "name": "61316c27116326134842225d132560ff", "is_reserved": 0}, {"is_disabled": 0, "fusion_lon": 0.0, "fusion_lat": 0.0, "lat": 38.903796, "type": "electric_scooter", "lon": -77.04202216666667, "bike_id": "9a56da0ec1ee57503e878b6e83ffd08a", "rental_uris": {"android": "https://dc.lft.to/lastmile_qr_scan", "ios": "https://dc.lft.to/lastmile_qr_scan"}, "name": "9a56da0ec1ee57503e878b6e83ffd08a", "is_reserved": 0}, {"is_disabled": 0, "fusion_lon": 0.0, "fusion_lat": 0.0, "lat": 38.913257333333334, "type": "electric_scooter", "lon": -77.03269566666667, "bike_id": "8a76cc5a62b877f24b3545034900b0ce", "rental_uris": {"android": "https://dc.lft.to/lastmile_qr_scan", "ios": "https://dc.lft.to/lastmile_qr_scan"}, "name": "8a76cc5a62b877f24b3545034900b0ce", "is_reserved": 0}, {"is_disabled": 0, "fusion_lon": 0.0, "fusion_lat": 0.0, "lat": 38.89210416666667, "type": "electric_scooter", "lon": -76.9880785, "bike_id": "60800ae6cac43debc3cb1eaff015459c", "rental_uris": {"android": "https://dc.lft.to/lastmile_qr_scan", "ios": "https://dc.lft.to/lastmile_qr_scan"}, "name": "60800ae6cac43debc3cb1eaff015459c", "is_reserved": 0}, {"is_disabled": 0, "fusion_lon": 0.0, "fusion_lat": 0.0, "lat": 38.923677833333336, "type": "electric_scooter", "lon": -77.0280045, "bike_id": "4d3457f78eb97b51e59177116e2d5698", "rental_uris": {"android": "https://dc.lft.to/lastmile_qr_scan", "ios": "https://dc.lft.to/lastmile_qr_scan"}, "name": "4d3457f78eb97b51e59177116e2d5698", "is_reserved": 0}, {"is_disabled": 0, "fusion_lon": 0.0, "fusion_lat": 0.0, "lat": 38.91480083333333, "type": "electric_scooter", "lon": -77.03471216666667, "bike_id": "ceb3e36391c47629fabf79d38b15032d", "rental_uris": {"android": "https://dc.lft.to/lastmile_qr_scan", "ios": "https://dc.lft.to/lastmile_qr_scan"}, "name": "ceb3e36391c47629fabf79d38b15032d", "is_reserved": 0}, {"is_disabled": 0, "fusion_lon": 0.0, "fusion_lat": 0.0, "lat": 38.929927, "type": "electric_scooter", "lon": -77.0363355, "bike_id": "9e20f2b1ffd3a4e6676d6d313a7fe051", "rental_uris": {"android": "https://dc.lft.to/lastmile_qr_scan", "ios": "https://dc.lft.to/lastmile_qr_scan"}, "name": "9e20f2b1ffd3a4e6676d6d313a7fe051", "is_reserved": 0}, {"is_disabled": 0, "fusion_lon": 0.0, "fusion_lat": 0.0, "lat": 38.885321166666664, "type": "electric_scooter", "lon": -76.927009, "bike_id": "45f82d7b2e2594714b198b89bca71168", "rental_uris": {"android": "https://dc.lft.to/lastmile_qr_scan", "ios": "https://dc.lft.to/lastmile_qr_scan"}, "name": "45f82d7b2e2594714b198b89bca71168", "is_reserved": 0}, {"is_disabled": 0, "fusion_lon": 0.0, "fusion_lat": 0.0, "lat": 38.933394666666665, "type": "electric_scooter", "lon": -77.04134733333333, "bike_id": "8964ea64e66b6e89c7567be0a7c042b2", "rental_uris": {"android": "https://dc.lft.to/lastmile_qr_scan", "ios": "https://dc.lft.to/lastmile_qr_scan"}, "name": "8964ea64e66b6e89c7567be0a7c042b2", "is_reserved": 0}, {"is_disabled": 0, "fusion_lon": 0.0, "fusion_lat": 0.0, "lat": 38.928255666666665, "type": "electric_scooter", "lon": -77.0225465, "bike_id": "363bb85be0cfaee36c9444c593b5c56d", "rental_uris": {"android": "https://dc.lft.to/lastmile_qr_scan", "ios": "https://dc.lft.to/lastmile_qr_scan"}, "name": "363bb85be0cfaee36c9444c593b5c56d", "is_reserved": 0}, {"is_disabled": 0, "fusion_lon": 0.0, "fusion_lat": 0.0, "lat": 38.93416883333333, "type": "electric_scooter", "lon": -77.024457, "bike_id": "d85cc433ca4dd658677ec1423f61636e", "rental_uris": {"android": "https://dc.lft.to/lastmile_qr_scan", "ios": "https://dc.lft.to/lastmile_qr_scan"}, "name": "d85cc433ca4dd658677ec1423f61636e", "is_reserved": 0}, {"is_disabled": 0, "fusion_lon": 0.0, "fusion_lat": 0.0, "lat": 38.91759616666667, "type": "electric_scooter", "lon": -77.01605683333334, "bike_id": "fff766763e8bd968d26a03e749dd7b51", "rental_uris": {"android": "https://dc.lft.to/lastmile_qr_scan", "ios": "https://dc.lft.to/lastmile_qr_scan"}, "name": "fff766763e8bd968d26a03e749dd7b51", "is_reserved": 0}, {"is_disabled": 0, "fusion_lon": 0.0, "fusion_lat": 0.0, "lat": 38.867200833333335, "type": "electric_scooter", "lon": -76.97917816666667, "bike_id": "6cb88a33bc29832e15b95481953d1e3c", "rental_uris": {"android": "https://dc.lft.to/lastmile_qr_scan", "ios": "https://dc.lft.to/lastmile_qr_scan"}, "name": "6cb88a33bc29832e15b95481953d1e3c", "is_reserved": 0}, {"is_disabled": 0, "fusion_lon": 0.0, "fusion_lat": 0.0, "lat": 38.92736933333333, "type": "electric_bike", "lon": -76.99362666666667, "bike_id": "06391b2ba903776e447be92a5d63e569", "rental_uris": {"android": "https://dc.lft.to/lastmile_qr_scan", "ios": "https://dc.lft.to/lastmile_qr_scan"}, "name": "06391b2ba903776e447be92a5d63e569", "is_reserved": 0}, {"is_disabled": 0, "fusion_lon": 0.0, "fusion_lat": 0.0, "lat": 38.87795366666667, "type": "electric_scooter", "lon": -77.01372616666667, "bike_id": "62a94f5f80204dc02cbfe89208c8126e", "rental_uris": {"android": "https://dc.lft.to/lastmile_qr_scan", "ios": "https://dc.lft.to/lastmile_qr_scan"}, "name": "62a94f5f80204dc02cbfe89208c8126e", "is_reserved": 0}, {"is_disabled": 0, "fusion_lon": 0.0, "fusion_lat": 0.0, "lat": 38.897295166666666, "type": "electric_scooter", "lon": -77.02164733333333, "bike_id": "cbb3fb1550529f6baa70b2fe3a17eee7", "rental_uris": {"android": "https://dc.lft.to/lastmile_qr_scan", "ios": "https://dc.lft.to/lastmile_qr_scan"}, "name": "cbb3fb1550529f6baa70b2fe3a17eee7", "is_reserved": 0}, {"is_disabled": 0, "fusion_lon": 0.0, "fusion_lat": 0.0, "lat": 38.89671833333333, "type": "electric_scooter", "lon": -77.011862, "bike_id": "8974a3287963d5c77cc84a797b385c72", "rental_uris": {"android": "https://dc.lft.to/lastmile_qr_scan", "ios": "https://dc.lft.to/lastmile_qr_scan"}, "name": "8974a3287963d5c77cc84a797b385c72", "is_reserved": 0}, {"is_disabled": 0, "fusion_lon": 0.0, "fusion_lat": 0.0, "lat": 38.92468816666667, "type": "electric_scooter", "lon": -77.03533133333333, "bike_id": "d05b90e91ca91f772a038335af993c08", "rental_uris": {"android": "https://dc.lft.to/lastmile_qr_scan", "ios": "https://dc.lft.to/lastmile_qr_scan"}, "name": "d05b90e91ca91f772a038335af993c08", "is_reserved": 0}, {"is_disabled": 0, "fusion_lon": 0.0, "fusion_lat": 0.0, "lat": 38.88487416666667, "type": "electric_scooter", "lon": -76.92967083333333, "bike_id": "6c9f7296602cd6422713f95f45d6ca66", "rental_uris": {"android": "https://dc.lft.to/lastmile_qr_scan", "ios": "https://dc.lft.to/lastmile_qr_scan"}, "name": "6c9f7296602cd6422713f95f45d6ca66", "is_reserved": 0}, {"is_disabled": 0, "fusion_lon": 0.0, "fusion_lat": 0.0, "lat": 38.907745, "type": "electric_scooter", "lon": -77.03196316666667, "bike_id": "c4f66ba2c7c86fa6d4e130d0cd2dd44a", "rental_uris": {"android": "https://dc.lft.to/lastmile_qr_scan", "ios": "https://dc.lft.to/lastmile_qr_scan"}, "name": "c4f66ba2c7c86fa6d4e130d0cd2dd44a", "is_reserved": 0}, {"is_disabled": 0, "fusion_lon": 0.0, "fusion_lat": 0.0, "lat": 38.921598, "type": "electric_scooter", "lon": -77.03398383333334, "bike_id": "6006a646d9ec347447d8ea8109027d8c", "rental_uris": {"android": "https://dc.lft.to/lastmile_qr_scan", "ios": "https://dc.lft.to/lastmile_qr_scan"}, "name": "6006a646d9ec347447d8ea8109027d8c", "is_reserved": 0}, {"is_disabled": 0, "fusion_lon": 0.0, "fusion_lat": 0.0, "lat": 38.90277966666667, "type": "electric_scooter", "lon": -77.05326383333333, "bike_id": "3af71ce8b7df5585d4c0c9d07a18da4c", "rental_uris": {"android": "https://dc.lft.to/lastmile_qr_scan", "ios": "https://dc.lft.to/lastmile_qr_scan"}, "name": "3af71ce8b7df5585d4c0c9d07a18da4c", "is_reserved": 0}, {"is_disabled": 0, "fusion_lon": 0.0, "fusion_lat": 0.0, "lat": 38.91818, "type": "electric_scooter", "lon": -77.0417445, "bike_id": "6464e69e0f41935a30ca979bc183ca33", "rental_uris": {"android": "https://dc.lft.to/lastmile_qr_scan", "ios": "https://dc.lft.to/lastmile_qr_scan"}, "name": "6464e69e0f41935a30ca979bc183ca33", "is_reserved": 0}, {"is_disabled": 0, "fusion_lon": 0.0, "fusion_lat": 0.0, "lat": 38.9882215, "type": "electric_bike", "lon": -77.026524, "bike_id": "f3e2b17195379263276ee24332301d28", "rental_uris": {"android": "https://dc.lft.to/lastmile_qr_scan", "ios": "https://dc.lft.to/lastmile_qr_scan"}, "name": "f3e2b17195379263276ee24332301d28", "is_reserved": 0}, {"is_disabled": 0, "fusion_lon": 0.0, "fusion_lat": 0.0, "lat": 38.95308216666667, "type": "electric_scooter", "lon": -77.03597083333334, "bike_id": "a273cf5005a8901b059f3033479994c9", "rental_uris": {"android": "https://dc.lft.to/lastmile_qr_scan", "ios": "https://dc.lft.to/lastmile_qr_scan"}, "name": "a273cf5005a8901b059f3033479994c9", "is_reserved": 0}, {"is_disabled": 0, "fusion_lon": 0.0, "fusion_lat": 0.0, "lat": 38.9084285, "type": "electric_scooter", "lon": -77.023864, "bike_id": "3fc786366fabb98b70bf24ff12b22920", "rental_uris": {"android": "https://dc.lft.to/lastmile_qr_scan", "ios": "https://dc.lft.to/lastmile_qr_scan"}, "name": "3fc786366fabb98b70bf24ff12b22920", "is_reserved": 0}, {"is_disabled": 0, "fusion_lon": 0.0, "fusion_lat": 0.0, "lat": 38.9154715, "type": "electric_scooter", "lon": -77.03851533333334, "bike_id": "7bf9ae9edb872118e47550a9ff803bac", "rental_uris": {"android": "https://dc.lft.to/lastmile_qr_scan", "ios": "https://dc.lft.to/lastmile_qr_scan"}, "name": "7bf9ae9edb872118e47550a9ff803bac", "is_reserved": 0}, {"is_disabled": 0, "fusion_lon": 0.0, "fusion_lat": 0.0, "lat": 38.83154416666667, "type": "electric_bike", "lon": -76.99694966666667, "bike_id": "cef8970b1da7db122124dc1fa7e7efd3", "rental_uris": {"android": "https://dc.lft.to/lastmile_qr_scan", "ios": "https://dc.lft.to/lastmile_qr_scan"}, "name": "cef8970b1da7db122124dc1fa7e7efd3", "is_reserved": 0}, {"is_disabled": 0, "fusion_lon": 0.0, "fusion_lat": 0.0, "lat": 38.89796066666667, "type": "electric_scooter", "lon": -76.93053833333333, "bike_id": "4c5db96a4205cbe52cce991036b2b17e", "rental_uris": {"android": "https://dc.lft.to/lastmile_qr_scan", "ios": "https://dc.lft.to/lastmile_qr_scan"}, "name": "4c5db96a4205cbe52cce991036b2b17e", "is_reserved": 0}, {"is_disabled": 0, "fusion_lon": 0.0, "fusion_lat": 0.0, "lat": 38.91105366666667, "type": "electric_scooter", "lon": -77.00215083333333, "bike_id": "4953dec6e064b14c1ed5f6cc4589545f", "rental_uris": {"android": "https://dc.lft.to/lastmile_qr_scan", "ios": "https://dc.lft.to/lastmile_qr_scan"}, "name": "4953dec6e064b14c1ed5f6cc4589545f", "is_reserved": 0}, {"is_disabled": 0, "fusion_lon": 0.0, "fusion_lat": 0.0, "lat": 38.94982516666666, "type": "electric_scooter", "lon": -77.02703083333333, "bike_id": "c16dfd3f0f87a5fcf85dc84eeeec569d", "rental_uris": {"android": "https://dc.lft.to/lastmile_qr_scan", "ios": "https://dc.lft.to/lastmile_qr_scan"}, "name": "c16dfd3f0f87a5fcf85dc84eeeec569d", "is_reserved": 0}, {"is_disabled": 0, "fusion_lon": 0.0, "fusion_lat": 0.0, "lat": 38.915171, "type": "electric_scooter", "lon": -77.01983266666667, "bike_id": "cff560be0de4e43e6531f436ec21e1ef", "rental_uris": {"android": "https://dc.lft.to/lastmile_qr_scan", "ios": "https://dc.lft.to/lastmile_qr_scan"}, "name": "cff560be0de4e43e6531f436ec21e1ef", "is_reserved": 0}, {"is_disabled": 0, "fusion_lon": 0.0, "fusion_lat": 0.0, "lat": 38.900388666666665, "type": "electric_scooter", "lon": -77.00203066666667, "bike_id": "49154944b45a9e8d5c0d778e3f56b70d", "rental_uris": {"android": "https://dc.lft.to/lastmile_qr_scan", "ios": "https://dc.lft.to/lastmile_qr_scan"}, "name": "49154944b45a9e8d5c0d778e3f56b70d", "is_reserved": 0}, {"is_disabled": 0, "fusion_lon": 0.0, "fusion_lat": 0.0, "lat": 38.942014666666665, "type": "electric_scooter", "lon": -77.02406633333334, "bike_id": "d30dbff4428bc9b4f324a0e201467f2c", "rental_uris": {"android": "https://dc.lft.to/lastmile_qr_scan", "ios": "https://dc.lft.to/lastmile_qr_scan"}, "name": "d30dbff4428bc9b4f324a0e201467f2c", "is_reserved": 0}, {"is_disabled": 0, "fusion_lon": 0.0, "fusion_lat": 0.0, "lat": 38.9066775, "type": "electric_scooter", "lon": -77.02713283333334, "bike_id": "47e4c747e7dd38d8fe67b5ec51a64aa3", "rental_uris": {"android": "https://dc.lft.to/lastmile_qr_scan", "ios": "https://dc.lft.to/lastmile_qr_scan"}, "name": "47e4c747e7dd38d8fe67b5ec51a64aa3", "is_reserved": 0}, {"is_disabled": 0, "fusion_lon": 0.0, "fusion_lat": 0.0, "lat": 38.92150866666667, "type": "electric_scooter", "lon": -77.03871133333334, "bike_id": "3cd977a65ef40cd0144d23ba248c7151", "rental_uris": {"android": "https://dc.lft.to/lastmile_qr_scan", "ios": "https://dc.lft.to/lastmile_qr_scan"}, "name": "3cd977a65ef40cd0144d23ba248c7151", "is_reserved": 0}, {"is_disabled": 0, "fusion_lon": 0.0, "fusion_lat": 0.0, "lat": 38.9157335, "type": "electric_scooter", "lon": -77.04618583333334, "bike_id": "7a2c52efc35ff9894e93632b75ee783e", "rental_uris": {"android": "https://dc.lft.to/lastmile_qr_scan", "ios": "https://dc.lft.to/lastmile_qr_scan"}, "name": "7a2c52efc35ff9894e93632b75ee783e", "is_reserved": 0}, {"is_disabled": 0, "fusion_lon": 0.0, "fusion_lat": 0.0, "lat": 39.058127666666664, "type": "electric_bike", "lon": -77.12625866666667, "bike_id": "83b138003084399c3d6b4bd86025237a", "rental_uris": {"android": "https://dc.lft.to/lastmile_qr_scan", "ios": "https://dc.lft.to/lastmile_qr_scan"}, "name": "83b138003084399c3d6b4bd86025237a", "is_reserved": 0}, {"is_disabled": 0, "fusion_lon": 0.0, "fusion_lat": 0.0, "lat": 38.876804, "type": "electric_bike", "lon": -77.01443866666666, "bike_id": "49fa0c6e1cb70ce98c65fc0d50d6801c", "rental_uris": {"android": "https://dc.lft.to/lastmile_qr_scan", "ios": "https://dc.lft.to/lastmile_qr_scan"}, "name": "49fa0c6e1cb70ce98c65fc0d50d6801c", "is_reserved": 0}, {"is_disabled": 0, "fusion_lon": 0.0, "fusion_lat": 0.0, "lat": 38.883011333333336, "type": "electric_bike", "lon": -77.10442683333333, "bike_id": "ac8e7ef91ff4666b17ccf0c75e159d7f", "rental_uris": {"android": "https://dc.lft.to/lastmile_qr_scan", "ios": "https://dc.lft.to/lastmile_qr_scan"}, "name": "ac8e7ef91ff4666b17ccf0c75e159d7f", "is_reserved": 0}, {"is_disabled": 0, "fusion_lon": 0.0, "fusion_lat": 0.0, "lat": 38.92296066666667, "type": "electric_scooter", "lon": -77.0402675, "bike_id": "7c9d56a4f5564c7c81b8a84ad78969f0", "rental_uris": {"android": "https://dc.lft.to/lastmile_qr_scan", "ios": "https://dc.lft.to/lastmile_qr_scan"}, "name": "7c9d56a4f5564c7c81b8a84ad78969f0", "is_reserved": 0}, {"is_disabled": 0, "fusion_lon": 0.0, "fusion_lat": 0.0, "lat": 38.91858383333334, "type": "electric_scooter", "lon": -77.03522116666667, "bike_id": "2fb528813d3d4ab39a4ef4fe506744c6", "rental_uris": {"android": "https://dc.lft.to/lastmile_qr_scan", "ios": "https://dc.lft.to/lastmile_qr_scan"}, "name": "2fb528813d3d4ab39a4ef4fe506744c6", "is_reserved": 0}, {"is_disabled": 0, "fusion_lon": 0.0, "fusion_lat": 0.0, "lat": 38.907151166666665, "type": "electric_scooter", "lon": -77.0238545, "bike_id": "5c3aec5fc897574383198fd1c13bf28a", "rental_uris": {"android": "https://dc.lft.to/lastmile_qr_scan", "ios": "https://dc.lft.to/lastmile_qr_scan"}, "name": "5c3aec5fc897574383198fd1c13bf28a", "is_reserved": 0}, {"is_disabled": 0, "fusion_lon": 0.0, "fusion_lat": 0.0, "lat": 38.903524166666664, "type": "electric_scooter", "lon": -77.00742766666667, "bike_id": "c96b8522fb9ff2607fd55096469139d0", "rental_uris": {"android": "https://dc.lft.to/lastmile_qr_scan", "ios": "https://dc.lft.to/lastmile_qr_scan"}, "name": "c96b8522fb9ff2607fd55096469139d0", "is_reserved": 0}, {"is_disabled": 0, "fusion_lon": 0.0, "fusion_lat": 0.0, "lat": 38.90976283333333, "type": "electric_scooter", "lon": -77.03741083333334, "bike_id": "8e2fd9437712e9e70c7e59e0a0db8204", "rental_uris": {"android": "https://dc.lft.to/lastmile_qr_scan", "ios": "https://dc.lft.to/lastmile_qr_scan"}, "name": "8e2fd9437712e9e70c7e59e0a0db8204", "is_reserved": 0}, {"is_disabled": 0, "fusion_lon": 0.0, "fusion_lat": 0.0, "lat": 38.887570833333335, "type": "electric_scooter", "lon": -77.03378383333333, "bike_id": "5263ac49a33b38a858438c9567bc048d", "rental_uris": {"android": "https://dc.lft.to/lastmile_qr_scan", "ios": "https://dc.lft.to/lastmile_qr_scan"}, "name": "5263ac49a33b38a858438c9567bc048d", "is_reserved": 0}, {"is_disabled": 0, "fusion_lon": 0.0, "fusion_lat": 0.0, "lat": 38.92971333333333, "type": "electric_scooter", "lon": -77.00534366666666, "bike_id": "0806bba0aa5c5b135ff8dcaf68072afe", "rental_uris": {"android": "https://dc.lft.to/lastmile_qr_scan", "ios": "https://dc.lft.to/lastmile_qr_scan"}, "name": "0806bba0aa5c5b135ff8dcaf68072afe", "is_reserved": 0}, {"is_disabled": 0, "fusion_lon": 0.0, "fusion_lat": 0.0, "lat": 38.90757766666667, "type": "electric_scooter", "lon": -77.03582216666666, "bike_id": "77a9228b3a9b718e054bc927bb67382a", "rental_uris": {"android": "https://dc.lft.to/lastmile_qr_scan", "ios": "https://dc.lft.to/lastmile_qr_scan"}, "name": "77a9228b3a9b718e054bc927bb67382a", "is_reserved": 0}, {"is_disabled": 0, "fusion_lon": 0.0, "fusion_lat": 0.0, "lat": 38.941542, "type": "electric_bike", "lon": -77.00189233333333, "bike_id": "ce46010ae34f4e0727c4decbc4640088", "rental_uris": {"android": "https://dc.lft.to/lastmile_qr_scan", "ios": "https://dc.lft.to/lastmile_qr_scan"}, "name": "ce46010ae34f4e0727c4decbc4640088", "is_reserved": 0}, {"is_disabled": 0, "fusion_lon": 0.0, "fusion_lat": 0.0, "lat": 38.90030183333333, "type": "electric_scooter", "lon": -77.03300116666666, "bike_id": "9184c5f2a651d91c89aea36ac1c1227b", "rental_uris": {"android": "https://dc.lft.to/lastmile_qr_scan", "ios": "https://dc.lft.to/lastmile_qr_scan"}, "name": "9184c5f2a651d91c89aea36ac1c1227b", "is_reserved": 0}, {"is_disabled": 0, "fusion_lon": 0.0, "fusion_lat": 0.0, "lat": 38.897292666666665, "type": "electric_scooter", "lon": -77.02162683333333, "bike_id": "69e71f2e343ea7ac4bfa8aaa262a3752", "rental_uris": {"android": "https://dc.lft.to/lastmile_qr_scan", "ios": "https://dc.lft.to/lastmile_qr_scan"}, "name": "69e71f2e343ea7ac4bfa8aaa262a3752", "is_reserved": 0}, {"is_disabled": 0, "fusion_lon": 0.0, "fusion_lat": 0.0, "lat": 38.8753845, "type": "electric_scooter", "lon": -77.000493, "bike_id": "f2ad0227aaa3bc6841035a5b844ccea6", "rental_uris": {"android": "https://dc.lft.to/lastmile_qr_scan", "ios": "https://dc.lft.to/lastmile_qr_scan"}, "name": "f2ad0227aaa3bc6841035a5b844ccea6", "is_reserved": 0}, {"is_disabled": 0, "fusion_lon": 0.0, "fusion_lat": 0.0, "lat": 38.935420666666666, "type": "electric_scooter", "lon": -77.034635, "bike_id": "04d08313a5984a4dd4e08e8cf6ef1e54", "rental_uris": {"android": "https://dc.lft.to/lastmile_qr_scan", "ios": "https://dc.lft.to/lastmile_qr_scan"}, "name": "04d08313a5984a4dd4e08e8cf6ef1e54", "is_reserved": 0}, {"is_disabled": 0, "fusion_lon": 0.0, "fusion_lat": 0.0, "lat": 38.9151805, "type": "electric_scooter", "lon": -77.01981233333333, "bike_id": "2126f395bb15d31101c2f2c408754a4c", "rental_uris": {"android": "https://dc.lft.to/lastmile_qr_scan", "ios": "https://dc.lft.to/lastmile_qr_scan"}, "name": "2126f395bb15d31101c2f2c408754a4c", "is_reserved": 0}, {"is_disabled": 0, "fusion_lon": 0.0, "fusion_lat": 0.0, "lat": 38.93132333333333, "type": "electric_scooter", "lon": -77.0785015, "bike_id": "df9a4ab17712e21d7843de9a4b191ff1", "rental_uris": {"android": "https://dc.lft.to/lastmile_qr_scan", "ios": "https://dc.lft.to/lastmile_qr_scan"}, "name": "df9a4ab17712e21d7843de9a4b191ff1", "is_reserved": 0}, {"is_disabled": 0, "fusion_lon": 0.0, "fusion_lat": 0.0, "lat": 38.94509216666667, "type": "electric_bike", "lon": -77.00662616666666, "bike_id": "245459bd1b18d1fdaf66153aebc4e211", "rental_uris": {"android": "https://dc.lft.to/lastmile_qr_scan", "ios": "https://dc.lft.to/lastmile_qr_scan"}, "name": "245459bd1b18d1fdaf66153aebc4e211", "is_reserved": 0}, {"is_disabled": 0, "fusion_lon": 0.0, "fusion_lat": 0.0, "lat": 38.934868333333334, "type": "electric_scooter", "lon": -77.0360475, "bike_id": "7a4637bedcd7a63a224c804513dd6ef8", "rental_uris": {"android": "https://dc.lft.to/lastmile_qr_scan", "ios": "https://dc.lft.to/lastmile_qr_scan"}, "name": "7a4637bedcd7a63a224c804513dd6ef8", "is_reserved": 0}, {"is_disabled": 0, "fusion_lon": 0.0, "fusion_lat": 0.0, "lat": 38.9092695, "type": "electric_scooter", "lon": -77.05714983333333, "bike_id": "22c0d9f57544cf7722e065b9d07f4206", "rental_uris": {"android": "https://dc.lft.to/lastmile_qr_scan", "ios": "https://dc.lft.to/lastmile_qr_scan"}, "name": "22c0d9f57544cf7722e065b9d07f4206", "is_reserved": 0}, {"is_disabled": 0, "fusion_lon": 0.0, "fusion_lat": 0.0, "lat": 38.927514333333335, "type": "electric_scooter", "lon": -77.02483983333333, "bike_id": "9e8dc6bfdcbbce4b27e1b9a280a773b8", "rental_uris": {"android": "https://dc.lft.to/lastmile_qr_scan", "ios": "https://dc.lft.to/lastmile_qr_scan"}, "name": "9e8dc6bfdcbbce4b27e1b9a280a773b8", "is_reserved": 0}, {"is_disabled": 0, "fusion_lon": 0.0, "fusion_lat": 0.0, "lat": 38.9097605, "type": "electric_scooter", "lon": -77.04059933333333, "bike_id": "820563258c9a4fbc5d9fd06a947db2a5", "rental_uris": {"android": "https://dc.lft.to/lastmile_qr_scan", "ios": "https://dc.lft.to/lastmile_qr_scan"}, "name": "820563258c9a4fbc5d9fd06a947db2a5", "is_reserved": 0}, {"is_disabled": 0, "fusion_lon": 0.0, "fusion_lat": 0.0, "lat": 38.915683333333334, "type": "electric_scooter", "lon": -77.032049, "bike_id": "898cdca721f972aadad2b9a97b54acfd", "rental_uris": {"android": "https://dc.lft.to/lastmile_qr_scan", "ios": "https://dc.lft.to/lastmile_qr_scan"}, "name": "898cdca721f972aadad2b9a97b54acfd", "is_reserved": 0},