{"data": {"bikes": [{"bike_id": "3aedf61ce4d88e43391ce2c6b6922378", "is_reserved": 0, "fusion_lon": 0.0, "lat": 38.905836666666666, "is_disabled": 0, "name": "3aedf61ce4d88e43391ce2c6b6922378", "fusion_lat": 0.0, "rental_uris": {"ios": "https://dc.lft.to/lastmile_qr_scan", "android": "https://dc.lft.to/lastmile_qr_scan"}, "lon": -77.03854266666667, "type": "electric_scooter"}, {"bike_id": "d49ada320c576ef088f610f5e8bccfd0", "is_reserved": 0, "fusion_lon": 0.0, "lat": 38.89628583333333, "is_disabled": 0, "name": "d49ada320c576ef088f610f5e8bccfd0", "fusion_lat": 0.0, "rental_uris": {"ios": "https://dc.lft.to/lastmile_qr_scan", "android": "https://dc.lft.to/lastmile_qr_scan"}, "lon": -77.03227933333334, "type": "electric_scooter"}, {"bike_id": "d8741399777866045f70913bd4401c52", "is_reserved": 0, "fusion_lon": 0.0, "lat": 38.920916166666665, "is_disabled": 0, "name": "d8741399777866045f70913bd4401c52", "fusion_lat": 0.0, "rental_uris": {"ios": "https://dc.lft.to/lastmile_qr_scan", "android": "https://dc.lft.to/lastmile_qr_scan"}, "lon": -77.03173183333334, "type": "electric_scooter"}, {"bike_id": "aaba26678d9f7add221f822764286d3b", "is_reserved": 0, "fusion_lon": 0.0, "lat": 38.9040155, "is_disabled": 0, "name": "aaba26678d9f7add221f822764286d3b", "fusion_lat": 0.0, "rental_uris": {"ios": "https://dc.lft.to/lastmile_qr_scan", "android": "https://dc.lft.to/lastmile_qr_scan"}, "lon": -77.04332583333333, "type": "electric_scooter"}, {"bike_id": "7f93fa2750a682cdf24621259a4afb10", "is_reserved": 0, "fusion_lon": 0.0, "lat": 38.930934, "is_disabled": 0, "name": "7f93fa2750a682cdf24621259a4afb10", "fusion_lat": 0.0, "rental_uris": {"ios": "https://dc.lft.to/lastmile_qr_scan", "android": "https://dc.lft.to/lastmile_qr_scan"}, "lon": -77.02521433333334, "type": "electric_scooter"}, {"bike_id": "038688aff3adb254ee3dbb8493c40e05", "is_reserved": 0, "fusion_lon": 0.0, "lat": 38.90586, "is_disabled": 0, "name": "038688aff3adb254ee3dbb8493c40e05", "fusion_lat": 0.0, "rental_uris": {"ios": "https://dc.lft.to/lastmile_qr_scan", "android": "https://dc.lft.to/lastmile_qr_scan"}, "lon": -77.00282883333334, "type": "electric_scooter"}, {"bike_id": "7c0e8d81fac055272f6112d45125a810", "is_reserved": 0, "fusion_lon": 0.0, "lat": 38.90025966666666, "is_disabled": 0, "name": "7c0e8d81fac055272f6112d45125a810", "fusion_lat": 0.0, "rental_uris": {"ios": "https://dc.lft.to/lastmile_qr_scan", "android": "https://dc.lft.to/lastmile_qr_scan"}, "lon": -77.04680583333334, "type": "electric_scooter"}, {"bike_id": "c7925213d640b966e0cea7231a31da9a", "is_reserved": 0, "fusion_lon": 0.0, "lat": 38.95267883333333, "is_disabled": 0, "name": "c7925213d640b966e0cea7231a31da9a", "fusion_lat": 0.0, "rental_uris": {"ios": "https://dc.lft.to/lastmile_qr_scan", "android": "https://dc.lft.to/lastmile_qr_scan"}, "lon": -77.069752, "type": "electric_bike"}, {"bike_id": "85a6ef6e2d769ec64af60e72e5add838", "is_reserved": 0, "fusion_lon": 0.0, "lat": 38.92248683333333, "is_disabled": 0, "name": "85a6ef6e2d769ec64af60e72e5add838", "fusion_lat": 0.0, "rental_uris": {"ios": "https://dc.lft.to/lastmile_qr_scan", "android": "https://dc.lft.to/lastmile_qr_scan"}, "lon": -77.01819183333333, "type": "electric_scooter"}, {"bike_id": "51e85ff1750c175e0a6b62aa04eaa8f9", "is_reserved": 0, "fusion_lon": 0.0, "lat": 38.866074, "is_disabled": 0, "name": "51e85ff1750c175e0a6b62aa04eaa8f9", "fusion_lat": 0.0, "rental_uris": {"ios": "https://dc.lft.to/lastmile_qr_scan", "android": "https://dc.lft.to/lastmile_qr_scan"}, "lon": -76.989164, "type": "electric_scooter"}, {"bike_id": "800422b79ab61a0158cec7db55b39b7c", "is_reserved": 0, "fusion_lon": 0.0, "lat": 38.905737, "is_disabled": 0, "name": "800422b79ab61a0158cec7db55b39b7c", "fusion_lat": 0.0, "rental_uris": {"ios": "https://dc.lft.to/lastmile_qr_scan", "android": "https://dc.lft.to/lastmile_qr_scan"}, "lon": -77.02172483333334, "type": "electric_scooter"}, {"bike_id": "e5f28e3d4771dea374b2a68ac5bfb1cc", "is_reserved": 0, "fusion_lon": 0.0, "lat": 38.92364833333333, "is_disabled": 0, "name": "e5f28e3d4771dea374b2a68ac5bfb1cc", "fusion_lat": 0.0, "rental_uris": {"ios": "https://dc.lft.to/lastmile_qr_scan", "android": "https://dc.lft.to/lastmile_qr_scan"}, "lon": -77.05030483333333, "type": "electric_scooter"}, {"bike_id": "57500d04a4be1369e19307e9ec00aaf4", "is_reserved": 0, "fusion_lon": 0.0, "lat": 38.9441595, "is_disabled": 0, "name": "57500d04a4be1369e19307e9ec00aaf4", "fusion_lat": 0.0, "rental_uris": {"ios": "https://dc.lft.to/lastmile_qr_scan", "android": "https://dc.lft.to/lastmile_qr_scan"}, "lon": -77.05518866666667, "type": "electric_scooter"}, {"bike_id": "1023521ee5baf5dd528caa55a6f7b790", "is_reserved": 0, "fusion_lon": 0.0, "lat": 38.904722166666666, "is_disabled": 0, "name": "1023521ee5baf5dd528caa55a6f7b790", "fusion_lat": 0.0, "rental_uris": {"ios": "https://dc.lft.to/lastmile_qr_scan", "android": "https://dc.lft.to/lastmile_qr_scan"}, "lon": -77.03244533333333, "type": "electric_scooter"}, {"bike_id": "17307b3925e57e1768fd2b82a3af38d3", "is_reserved": 0, "fusion_lon": 0.0, "lat": 38.91717833333333, "is_disabled": 0, "name": "17307b3925e57e1768fd2b82a3af38d3", "fusion_lat": 0.0, "rental_uris": {"ios": "https://dc.lft.to/lastmile_qr_scan", "android": "https://dc.lft.to/lastmile_qr_scan"}, "lon": -77.012076, "type": "electric_scooter"}, {"bike_id": "f13494d6cc7b8b1fdf3e60e7c94e4c16", "is_reserved": 0, "fusion_lon": 0.0, "lat": 38.929547166666666, "is_disabled": 0, "name": "f13494d6cc7b8b1fdf3e60e7c94e4c16", "fusion_lat": 0.0, "rental_uris": {"ios": "https://dc.lft.to/lastmile_qr_scan", "android": "https://dc.lft.to/lastmile_qr_scan"}, "lon": -77.0440055, "type": "electric_scooter"}, {"bike_id": "5801ec1511b2802c9dbdb7593907388c", "is_reserved": 0, "fusion_lon": 0.0, "lat": 38.802263333333336, "is_disabled": 0, "name": "5801ec1511b2802c9dbdb7593907388c", "fusion_lat": 0.0, "rental_uris": {"ios": "https://dc.lft.to/lastmile_qr_scan", "android": "https://dc.lft.to/lastmile_qr_scan"}, "lon": -77.07913383333333, "type": "electric_bike"}, {"bike_id": "f36421f74c337522f9fb71619b0f6b7f", "is_reserved": 0, "fusion_lon": 0.0, "lat": 38.9015865, "is_disabled": 0, "name": "f36421f74c337522f9fb71619b0f6b7f", "fusion_lat": 0.0, "rental_uris": {"ios": "https://dc.lft.to/lastmile_qr_scan", "android": "https://dc.lft.to/lastmile_qr_scan"}, "lon": -77.03330083333333, "type": "electric_scooter"}, {"bike_id": "771f98558981b5d1a674378fd0312bf2", "is_reserved": 0, "fusion_lon": 0.0, "lat": 38.958836833333336, "is_disabled": 0, "name": "771f98558981b5d1a674378fd0312bf2", "fusion_lat": 0.0, "rental_uris": {"ios": "https://dc.lft.to/lastmile_qr_scan", "android": "https://dc.lft.to/lastmile_qr_scan"}, "lon": -77.0103455, "type": "electric_bike"}, {"bike_id": "5b8ae23b26ea71c169afaa7e275f70c4", "is_reserved": 0, "fusion_lon": 0.0, "lat": 38.90688166666666, "is_disabled": 0, "name": "5b8ae23b26ea71c169afaa7e275f70c4", "fusion_lat": 0.0, "rental_uris": {"ios": "https://dc.lft.to/lastmile_qr_scan", "android": "https://dc.lft.to/lastmile_qr_scan"}, "lon": -76.951821, "type": "electric_bike"}, {"bike_id": "40010d0b0dfd8ea50f0fa003061d92eb", "is_reserved": 0, "fusion_lon": 0.0, "lat": 38.93201766666667, "is_disabled": 0, "name": "40010d0b0dfd8ea50f0fa003061d92eb", "fusion_lat": 0.0, "rental_uris": {"ios": "https://dc.lft.to/lastmile_qr_scan", "android": "https://dc.lft.to/lastmile_qr_scan"}, "lon": -77.03875583333334, "type": "electric_scooter"}, {"bike_id": "56a48b1ae7255e578afde7dddda556e5", "is_reserved": 0, "fusion_lon": 0.0, "lat": 38.90032516666667, "is_disabled": 0, "name": "56a48b1ae7255e578afde7dddda556e5", "fusion_lat": 0.0, "rental_uris": {"ios": "https://dc.lft.to/lastmile_qr_scan", "android": "https://dc.lft.to/lastmile_qr_scan"}, "lon": -76.99534983333334, "type": "electric_scooter"}, {"bike_id": "ef4b3b5f4f56f1aa2dc4c3fa1030f9fd", "is_reserved": 0, "fusion_lon": 0.0, "lat": 38.906690166666664, "is_disabled": 0, "name": "ef4b3b5f4f56f1aa2dc4c3fa1030f9fd", "fusion_lat": 0.0, "rental_uris": {"ios": "https://dc.lft.to/lastmile_qr_scan", "android": "https://dc.lft.to/lastmile_qr_scan"}, "lon": -77.02709116666666, "type": "electric_scooter"}, {"bike_id": "fe24c9851fd2351accabad1098730d5a", "is_reserved": 0, "fusion_lon": 0.0, "lat": 38.867185, "is_disabled": 0, "name": "fe24c9851fd2351accabad1098730d5a", "fusion_lat": 0.0, "rental_uris": {"ios": "https://dc.lft.to/lastmile_qr_scan", "android": "https://dc.lft.to/lastmile_qr_scan"}, "lon": -76.98771966666666, "type": "electric_scooter"}, {"bike_id": "f8c1e67e0f2140c76dc27a83493ff8d6", "is_reserved": 0, "fusion_lon": 0.0, "lat": 38.928548, "is_disabled": 0, "name": "f8c1e67e0f2140c76dc27a83493ff8d6", "fusion_lat": 0.0, "rental_uris": {"ios": "https://dc.lft.to/lastmile_qr_scan", "android": "https://dc.lft.to/lastmile_qr_scan"}, "lon": -77.03594916666667, "type": "electric_scooter"}, {"bike_id": "db2105315a23ec9a75dfa849984f838f", "is_reserved": 0, "fusion_lon": 0.0, "lat": 38.89938, "is_disabled": 0, "name": "db2105315a23ec9a75dfa849984f838f", "fusion_lat": 0.0, "rental_uris": {"ios": "https://dc.lft.to/lastmile_qr_scan", "android": "https://dc.lft.to/lastmile_qr_scan"}, "lon": -77.03195016666666, "type": "electric_scooter"}, {"bike_id": "d826fe90a0984c30772603838becf849", "is_reserved": 0, "fusion_lon": 0.0, "lat": 38.916028, "is_disabled": 0, "name": "d826fe90a0984c30772603838becf849", "fusion_lat": 0.0, "rental_uris": {"ios": "https://dc.lft.to/lastmile_qr_scan", "android": "https://dc.lft.to/lastmile_qr_scan"}, "lon": -77.04344266666666, "type": "electric_scooter"}, {"bike_id": "0ea8d2bede1f807bc906473bb9427c0d", "is_reserved": 0, "fusion_lon": 0.0, "lat": 38.89799166666667, "is_disabled": 0, "name": "0ea8d2bede1f807bc906473bb9427c0d", "fusion_lat": 0.0, "rental_uris": {"ios": "https://dc.lft.to/lastmile_qr_scan", "android": "https://dc.lft.to/lastmile_qr_scan"}, "lon": -76.991635, "type": "electric_scooter"}, {"bike_id": "71f06e3c0a249385cd9ac328bfe96cc5", "is_reserved": 0, "fusion_lon": 0.0, "lat": 38.918421, "is_disabled": 0, "name": "71f06e3c0a249385cd9ac328bfe96cc5", "fusion_lat": 0.0, "rental_uris": {"ios": "https://dc.lft.to/lastmile_qr_scan", "android": "https://dc.lft.to/lastmile_qr_scan"}, "lon": -77.03895733333333, "type": "electric_scooter"}, {"bike_id": "b14e7422eefa357c128030954c6f20e5", "is_reserved": 0, "fusion_lon": 0.0, "lat": 38.90565483333334, "is_disabled": 0, "name": "b14e7422eefa357c128030954c6f20e5", "fusion_lat": 0.0, "rental_uris": {"ios": "https://dc.lft.to/lastmile_qr_scan", "android": "https://dc.lft.to/lastmile_qr_scan"}, "lon": -77.00562216666667, "type": "electric_scooter"}, {"bike_id": "aa4e1bc68b7228fba8b7dc34389b32e1", "is_reserved": 0, "fusion_lon": 0.0, "lat": 38.88342983333333, "is_disabled": 0, "name": "aa4e1bc68b7228fba8b7dc34389b32e1", "fusion_lat": 0.0, "rental_uris": {"ios": "https://dc.lft.to/lastmile_qr_scan", "android": "https://dc.lft.to/lastmile_qr_scan"}, "lon": -77.01753983333333, "type": "electric_scooter"}, {"bike_id": "3f2f97e9a0a25224db9c1068b660462e", "is_reserved": 0, "fusion_lon": 0.0, "lat": 38.956458, "is_disabled": 0, "name": "3f2f97e9a0a25224db9c1068b660462e", "fusion_lat": 0.0, "rental_uris": {"ios": "https://dc.lft.to/lastmile_qr_scan", "android": "https://dc.lft.to/lastmile_qr_scan"}, "lon": -76.938864, "type": "electric_bike"}, {"bike_id": "5746b8c3e5389452a2a0438a9d097e26", "is_reserved": 0, "fusion_lon": 0.0, "lat": 38.897630666666664, "is_disabled": 0, "name": "5746b8c3e5389452a2a0438a9d097e26", "fusion_lat": 0.0, "rental_uris": {"ios": "https://dc.lft.to/lastmile_qr_scan", "android": "https://dc.lft.to/lastmile_qr_scan"}, "lon": -77.027018, "type": "electric_scooter"}, {"bike_id": "daf10ce586c5fcc15012519e93f68573", "is_reserved": 0, "fusion_lon": 0.0, "lat": 38.93448866666667, "is_disabled": 0, "name": "daf10ce586c5fcc15012519e93f68573", "fusion_lat": 0.0, "rental_uris": {"ios": "https://dc.lft.to/lastmile_qr_scan", "android": "https://dc.lft.to/lastmile_qr_scan"}, "lon": -77.02849666666667, "type": "electric_scooter"}, {"bike_id": "165be839c957db767c78b0498161ce3b", "is_reserved": 0, "fusion_lon": 0.0, "lat": 38.9247635, "is_disabled": 0, "name": "165be839c957db767c78b0498161ce3b", "fusion_lat": 0.0, "rental_uris": {"ios": "https://dc.lft.to/lastmile_qr_scan", "android": "https://dc.lft.to/lastmile_qr_scan"}, "lon": -77.03768, "type": "electric_scooter"}, {"bike_id": "a86b9eceec6c33ebe6c73e0211cdac0f", "is_reserved": 0, "fusion_lon": 0.0, "lat": 38.88503683333333, "is_disabled": 0, "name": "a86b9eceec6c33ebe6c73e0211cdac0f", "fusion_lat": 0.0, "rental_uris": {"ios": "https://dc.lft.to/lastmile_qr_scan", "android": "https://dc.lft.to/lastmile_qr_scan"}, "lon": -77.005682, "type": "electric_scooter"}, {"bike_id": "391ed656f5f51eeb4dbbd30357d39585", "is_reserved": 0, "fusion_lon": 0.0, "lat": 38.917067, "is_disabled": 0, "name": "391ed656f5f51eeb4dbbd30357d39585", "fusion_lat": 0.0, "rental_uris": {"ios": "https://dc.lft.to/lastmile_qr_scan", "android": "https://dc.lft.to/lastmile_qr_scan"}, "lon": -77.0227945, "type": "electric_scooter"}, {"bike_id": "2e6b5572b6d279db52d9a1eb0e5a7158", "is_reserved": 0, "fusion_lon": 0.0, "lat": 38.928451833333334, "is_disabled": 0, "name": "2e6b5572b6d279db52d9a1eb0e5a7158", "fusion_lat": 0.0, "rental_uris": {"ios": "https://dc.lft.to/lastmile_qr_scan", "android": "https://dc.lft.to/lastmile_qr_scan"}, "lon": -77.05516383333334, "type": "electric_scooter"}, {"bike_id": "184f2fc0dfcb51438e9f44ff7dfab58c", "is_reserved": 0, "fusion_lon": 0.0, "lat": 38.897585666666664, "is_disabled": 0, "name": "184f2fc0dfcb51438e9f44ff7dfab58c", "fusion_lat": 0.0, "rental_uris": {"ios": "https://dc.lft.to/lastmile_qr_scan", "android": "https://dc.lft.to/lastmile_qr_scan"}, "lon": -76.90444216666667, "type": "electric_bike"}, {"bike_id": "065d18fe7d3f87f8e470e24a5f4a1430", "is_reserved": 0, "fusion_lon": 0.0, "lat": 38.866302, "is_disabled": 0, "name": "065d18fe7d3f87f8e470e24a5f4a1430", "fusion_lat": 0.0, "rental_uris": {"ios": "https://dc.lft.to/lastmile_qr_scan", "android": "https://dc.lft.to/lastmile_qr_scan"}, "lon": -76.98714083333333, "type": "electric_scooter"}, {"bike_id": "773e0884bce69b643b3a82afcfa88ed3", "is_reserved": 0, "fusion_lon": 0.0, "lat": 38.88034116666667, "is_disabled": 0, "name": "773e0884bce69b643b3a82afcfa88ed3", "fusion_lat": 0.0, "rental_uris": {"ios": "https://dc.lft.to/lastmile_qr_scan", "android": "https://dc.lft.to/lastmile_qr_scan"}, "lon": -77.02517833333333, "type": "electric_scooter"}, {"bike_id": "7fd9c0380e98980bb6ee05157d72041a", "is_reserved": 0, "fusion_lon": 0.0, "lat": 38.904609666666666, "is_disabled": 0, "name": "7fd9c0380e98980bb6ee05157d72041a", "fusion_lat": 0.0, "rental_uris": {"ios": "https://dc.lft.to/lastmile_qr_scan", "android": "https://dc.lft.to/lastmile_qr_scan"}, "lon": -77.0169475, "type": "electric_scooter"}, {"bike_id": "a8e2272337df489117eb3edcbcbc6f43", "is_reserved": 0, "fusion_lon": 0.0, "lat": 38.84295616666667, "is_disabled": 0, "name": "a8e2272337df489117eb3edcbcbc6f43", "fusion_lat": 0.0, "rental_uris": {"ios": "https://dc.lft.to/lastmile_qr_scan", "android": "https://dc.lft.to/lastmile_qr_scan"}, "lon": -76.999474, "type": "electric_scooter"}, {"bike_id": "60bf9c65d26accce42bc8cebb943e5af", "is_reserved": 0, "fusion_lon": 0.0, "lat": 38.917433, "is_disabled": 0, "name": "60bf9c65d26accce42bc8cebb943e5af", "fusion_lat": 0.0, "rental_uris": {"ios": "https://dc.lft.to/lastmile_qr_scan", "android": "https://dc.lft.to/lastmile_qr_scan"}, "lon": -77.00752766666666, "type": "electric_scooter"}, {"bike_id": "2b49a7f03764361791a9900bb4dceb70", "is_reserved": 0, "fusion_lon": 0.0, "lat": 38.906316333333336, "is_disabled": 0, "name": "2b49a7f03764361791a9900bb4dceb70", "fusion_lat": 0.0, "rental_uris": {"ios": "https://dc.lft.to/lastmile_qr_scan", "android": "https://dc.lft.to/lastmile_qr_scan"}, "lon": -77.051236, "type": "electric_scooter"}, {"bike_id": "23d5e0a5efcee081f0e4ef05b9ba7fc6", "is_reserved": 0, "fusion_lon": 0.0, "lat": 38.903655666666666, "is_disabled": 0, "name": "23d5e0a5efcee081f0e4ef05b9ba7fc6", "fusion_lat": 0.0, "rental_uris": {"ios": "https://dc.lft.to/lastmile_qr_scan", "android": "https://dc.lft.to/lastmile_qr_scan"}, "lon": -77.01901766666667, "type": "electric_scooter"}, {"bike_id": "3f06c4f95256b1386c8a9f2d937c7748", "is_reserved": 0, "fusion_lon": 0.0, "lat": 38.907591833333335, "is_disabled": 0, "name": "3f06c4f95256b1386c8a9f2d937c7748", "fusion_lat": 0.0, "rental_uris": {"ios": "https://dc.lft.to/lastmile_qr_scan", "android": "https://dc.lft.to/lastmile_qr_scan"}, "lon": -77.00108566666667, "type": "electric_scooter"}, {"bike_id": "1a4fcb4bcb4e491c36958913f076caeb", "is_reserved": 0, "fusion_lon": 0.0, "lat": 38.86699333333333, "is_disabled": 0, "name": "1a4fcb4bcb4e491c36958913f076caeb", "fusion_lat": 0.0, "rental_uris": {"ios": "https://dc.lft.to/lastmile_qr_scan", "android": "https://dc.lft.to/lastmile_qr_scan"}, "lon": -76.987132, "type": "electric_scooter"}, {"bike_id": "9a22643421a87be6a4f2d84b5f739e99", "is_reserved": 0, "fusion_lon": 0.0, "lat": 38.940513833333334, "is_disabled": 0, "name": "9a22643421a87be6a4f2d84b5f739e99", "fusion_lat": 0.0, "rental_uris": {"ios": "https://dc.lft.to/lastmile_qr_scan", "android": "https://dc.lft.to/lastmile_qr_scan"}, "lon": -77.092689, "type": "electric_scooter"}, {"bike_id": "6d74b50ec0e33c6f1062d7b97d1e7129", "is_reserved": 0, "fusion_lon": 0.0, "lat": 38.9274325, "is_disabled": 0, "name": "6d74b50ec0e33c6f1062d7b97d1e7129", "fusion_lat": 0.0, "rental_uris": {"ios": "https://dc.lft.to/lastmile_qr_scan", "android": "https://dc.lft.to/lastmile_qr_scan"}, "lon": -77.01200016666667, "type": "electric_scooter"}, {"bike_id": "87be0076e3736b8f176066c85e6fcef1", "is_reserved": 0, "fusion_lon": 0.0, "lat": 38.90305216666667, "is_disabled": 0, "name": "87be0076e3736b8f176066c85e6fcef1", "fusion_lat": 0.0, "rental_uris": {"ios": "https://dc.lft.to/lastmile_qr_scan", "android": "https://dc.lft.to/lastmile_qr_scan"}, "lon": -77.03850166666666, "type": "electric_scooter"}, {"bike_id": "59a1f951e18af3ea838778d145a05c66", "is_reserved": 0, "fusion_lon": 0.0, "lat": 38.974276333333336, "is_disabled": 0, "name": "59a1f951e18af3ea838778d145a05c66", "fusion_lat": 0.0, "rental_uris": {"ios": "https://dc.lft.to/lastmile_qr_scan", "android": "https://dc.lft.to/lastmile_qr_scan"}, "lon": -77.01520983333333, "type": "electric_scooter"}, {"bike_id": "749183bf8f312df3cea81ac1f72503df", "is_reserved": 0, "fusion_lon": 0.0, "lat": 38.914166333333334, "is_disabled": 0, "name": "749183bf8f312df3cea81ac1f72503df", "fusion_lat": 0.0, "rental_uris": {"ios": "https://dc.lft.to/lastmile_qr_scan", "android": "https://dc.lft.to/lastmile_qr_scan"}, "lon": -77.04145733333333, "type": "electric_scooter"}, {"bike_id": "2d9c4c2e37581fe6a9b124fa3a562292", "is_reserved": 0, "fusion_lon": 0.0, "lat": 38.92006966666667, "is_disabled": 0, "name": "2d9c4c2e37581fe6a9b124fa3a562292", "fusion_lat": 0.0, "rental_uris": {"ios": "https://dc.lft.to/lastmile_qr_scan", "android": "https://dc.lft.to/lastmile_qr_scan"}, "lon": -77.0389105, "type": "electric_scooter"}, {"bike_id": "00dc3853eb3fc36a76541bff9df94102", "is_reserved": 0, "fusion_lon": 0.0, "lat": 38.90861233333333, "is_disabled": 0, "name": "00dc3853eb3fc36a76541bff9df94102", "fusion_lat": 0.0, "rental_uris": {"ios": "https://dc.lft.to/lastmile_qr_scan", "android": "https://dc.lft.to/lastmile_qr_scan"}, "lon": -76.99944983333333, "type": "electric_scooter"}, {"bike_id": "4e4884e713c9a5415e9fa8cec56e872c", "is_reserved": 0, "fusion_lon": 0.0, "lat": 38.913368166666665, "is_disabled": 0, "name": "4e4884e713c9a5415e9fa8cec56e872c", "fusion_lat": 0.0, "rental_uris": {"ios": "https://dc.lft.to/lastmile_qr_scan", "android": "https://dc.lft.to/lastmile_qr_scan"}, "lon": -77.031207, "type": "electric_scooter"}, {"bike_id": "94553492cd9afdc981e4409bc3d628d6", "is_reserved": 0, "fusion_lon": 0.0, "lat": 38.896814166666665, "is_disabled": 0, "name": "94553492cd9afdc981e4409bc3d628d6", "fusion_lat": 0.0, "rental_uris": {"ios": "https://dc.lft.to/lastmile_qr_scan", "android": "https://dc.lft.to/lastmile_qr_scan"}, "lon": -76.99621333333333, "type": "electric_scooter"}, {"bike_id": "855c9dd88d3899fa4e1c4eb0b2ceb0ef", "is_reserved": 0, "fusion_lon": 0.0, "lat": 38.90038783333333, "is_disabled": 0, "name": "855c9dd88d3899fa4e1c4eb0b2ceb0ef", "fusion_lat": 0.0, "rental_uris": {"ios": "https://dc.lft.to/lastmile_qr_scan", "android": "https://dc.lft.to/lastmile_qr_scan"}, "lon": -77.001927, "type": "electric_scooter"}, {"bike_id": "16a4bdb184b794b6b1a25dea3b560ab6", "is_reserved": 0, "fusion_lon": 0.0, "lat": 38.86373283333333, "is_disabled": 0, "name": "16a4bdb184b794b6b1a25dea3b560ab6", "fusion_lat": 0.0, "rental_uris": {"ios": "https://dc.lft.to/lastmile_qr_scan", "android": "https://dc.lft.to/lastmile_qr_scan"}, "lon": -77.01360733333334, "type": "electric_scooter"}, {"bike_id": "0b3cd6bf9cb6605ff015aacb98b9b8c3", "is_reserved": 0, "fusion_lon": 0.0, "lat": 38.90531466666667, "is_disabled": 0, "name": "0b3cd6bf9cb6605ff015aacb98b9b8c3", "fusion_lat": 0.0, "rental_uris": {"ios": "https://dc.lft.to/lastmile_qr_scan", "android": "https://dc.lft.to/lastmile_qr_scan"}, "lon": -77.05764733333334, "type": "electric_scooter"}, {"bike_id": "9fe428ea7139040cb3bd31ddd363c4dd", "is_reserved": 0, "fusion_lon": 0.0, "lat": 38.92962333333333, "is_disabled": 0, "name": "9fe428ea7139040cb3bd31ddd363c4dd", "fusion_lat": 0.0, "rental_uris": {"ios": "https://dc.lft.to/lastmile_qr_scan", "android": "https://dc.lft.to/lastmile_qr_scan"}, "lon": -77.01147883333333, "type": "electric_scooter"}, {"bike_id": "f0f35312d42c1bc5b3bfc806a5b79c7d", "is_reserved": 0, "fusion_lon": 0.0, "lat": 38.918012166666664, "is_disabled": 0, "name": "f0f35312d42c1bc5b3bfc806a5b79c7d", "fusion_lat": 0.0, "rental_uris": {"ios": "https://dc.lft.to/lastmile_qr_scan", "android": "https://dc.lft.to/lastmile_qr_scan"}, "lon": -77.03440183333333, "type": "electric_scooter"}, {"bike_id": "8e877e668d20bb76ea3febf3ac29dc5f", "is_reserved": 0, "fusion_lon": 0.0, "lat": 38.845781833333334, "is_disabled": 0, "name": "8e877e668d20bb76ea3febf3ac29dc5f", "fusion_lat": 0.0, "rental_uris": {"ios": "https://dc.lft.to/lastmile_qr_scan", "android": "https://dc.lft.to/lastmile_qr_scan"}, "lon": -77.09620133333334, "type": "electric_bike"}, {"bike_id": "6edebf3e9a3ce45acbeca61909730541", "is_reserved": 0, "fusion_lon": 0.0, "lat": 38.927447, "is_disabled": 0, "name": "6edebf3e9a3ce45acbeca61909730541", "fusion_lat": 0.0, "rental_uris": {"ios": "https://dc.lft.to/lastmile_qr_scan", "android": "https://dc.lft.to/lastmile_qr_scan"}, "lon": -77.03634466666666, "type": "electric_bike"}, {"bike_id": "21822caeaabd5f47b5acbf50a12193cb", "is_reserved": 0, "fusion_lon": 0.0, "lat": 38.92164416666667, "is_disabled": 0, "name": "21822caeaabd5f47b5acbf50a12193cb", "fusion_lat": 0.0, "rental_uris": {"ios": "https://dc.lft.to/lastmile_qr_scan", "android": "https://dc.lft.to/lastmile_qr_scan"}, "lon": -77.046959, "type": "electric_scooter"}, {"bike_id": "90ae957e216826d9eef7847cfcda238b", "is_reserved": 0, "fusion_lon": 0.0, "lat": 38.9233515, "is_disabled": 0, "name": "90ae957e216826d9eef7847cfcda238b", "fusion_lat": 0.0, "rental_uris": {"ios": "https://dc.lft.to/lastmile_qr_scan", "android": "https://dc.lft.to/lastmile_qr_scan"}, "lon": -77.03516266666666, "type": "electric_scooter"}, {"bike_id": "2e8bdfab2fc25a45a3654a2b0f0d2d3f", "is_reserved": 0, "fusion_lon": 0.0, "lat": 38.90860333333333, "is_disabled": 0, "name": "2e8bdfab2fc25a45a3654a2b0f0d2d3f", "fusion_lat": 0.0, "rental_uris": {"ios": "https://dc.lft.to/lastmile_qr_scan", "android": "https://dc.lft.to/lastmile_qr_scan"}, "lon": -77.03285233333334, "type": "electric_scooter"}, {"bike_id": "7c25ab8a3454c1da98048ca346adf9b7", "is_reserved": 0, "fusion_lon": 0.0, "lat": 38.90028, "is_disabled": 0, "name": "7c25ab8a3454c1da98048ca346adf9b7", "fusion_lat": 0.0, "rental_uris": {"ios": "https://dc.lft.to/lastmile_qr_scan", "android": "https://dc.lft.to/lastmile_qr_scan"}, "lon": -77.011569, "type": "electric_scooter"}, {"bike_id": "60c8c3490278573a409eba79b487a6ab", "is_reserved": 0, "fusion_lon": 0.0, "lat": 38.908046, "is_disabled": 0, "name": "60c8c3490278573a409eba79b487a6ab", "fusion_lat": 0.0, "rental_uris": {"ios": "https://dc.lft.to/lastmile_qr_scan", "android": "https://dc.lft.to/lastmile_qr_scan"}, "lon": -77.03460783333334, "type": "electric_scooter"}, {"bike_id": "9cd4190570fdc36e785dfc5c206667de", "is_reserved": 0, "fusion_lon": 0.0, "lat": 38.897308833333334, "is_disabled": 0, "name": "9cd4190570fdc36e785dfc5c206667de", "fusion_lat": 0.0, "rental_uris": {"ios": "https://dc.lft.to/lastmile_qr_scan", "android": "https://dc.lft.to/lastmile_qr_scan"}, "lon": -77.04634033333333, "type": "electric_scooter"}, {"bike_id": "3ddd6f8a9db7c693979fe8e7e4e566f3", "is_reserved": 0, "fusion_lon": 0.0, "lat": 38.90289966666667, "is_disabled": 0, "name": "3ddd6f8a9db7c693979fe8e7e4e566f3", "fusion_lat": 0.0, "rental_uris": {"ios": "https://dc.lft.to/lastmile_qr_scan", "android": "https://dc.lft.to/lastmile_qr_scan"}, "lon": -77.0164575, "type": "electric_bike"}, {"bike_id": "c14769eb1272f326b8031a86e0eefaa1", "is_reserved": 0, "fusion_lon": 0.0, "lat": 38.90448966666666, "is_disabled": 0, "name": "c14769eb1272f326b8031a86e0eefaa1", "fusion_lat": 0.0, "rental_uris": {"ios": "https://dc.lft.to/lastmile_qr_scan", "android": "https://dc.lft.to/lastmile_qr_scan"}, "lon": -77.028995, "type": "electric_scooter"}, {"bike_id": "9771c2fee789431c37fcf605f33e5077", "is_reserved": 0, "fusion_lon": 0.0, "lat": 38.877362, "is_disabled": 0, "name": "9771c2fee789431c37fcf605f33e5077", "fusion_lat": 0.0, "rental_uris": {"ios": "https://dc.lft.to/lastmile_qr_scan", "android": "https://dc.lft.to/lastmile_qr_scan"}, "lon": -76.97281366666667, "type": "electric_scooter"}, {"bike_id": "2dd839b8fedb0b4ead78d77580be9775", "is_reserved": 0, "fusion_lon": 0.0, "lat": 38.9036655, "is_disabled": 0, "name": "2dd839b8fedb0b4ead78d77580be9775", "fusion_lat": 0.0, "rental_uris": {"ios": "https://dc.lft.to/lastmile_qr_scan", "android": "https://dc.lft.to/lastmile_qr_scan"}, "lon": -77.01737733333333, "type": "electric_scooter"}, {"bike_id": "1501d3cb7c71b2148e790c4e6506874e", "is_reserved": 0, "fusion_lon": 0.0, "lat": 38.934993, "is_disabled": 0, "name": "1501d3cb7c71b2148e790c4e6506874e", "fusion_lat": 0.0, "rental_uris": {"ios": "https://dc.lft.to/lastmile_qr_scan", "android": "https://dc.lft.to/lastmile_qr_scan"}, "lon": -77.02724633333334, "type": "electric_scooter"}, {"bike_id": "695addc1af8762974e98b510d1360029", "is_reserved": 0, "fusion_lon": 0.0, "lat": 38.86200916666667, "is_disabled": 0, "name": "695addc1af8762974e98b510d1360029", "fusion_lat": 0.0, "rental_uris": {"ios": "https://dc.lft.to/lastmile_qr_scan", "android": "https://dc.lft.to/lastmile_qr_scan"}, "lon": -76.99461316666667, "type": "electric_scooter"}, {"bike_id": "482cc752c2096cfd55bd8d6f34d75230", "is_reserved": 0, "fusion_lon": 0.0, "lat": 38.939746, "is_disabled": 0, "name": "482cc752c2096cfd55bd8d6f34d75230", "fusion_lat": 0.0, "rental_uris": {"ios": "https://dc.lft.to/lastmile_qr_scan", "android": "https://dc.lft.to/lastmile_qr_scan"}, "lon": -77.03592233333333, "type": "electric_scooter"}, {"bike_id": "4cf0f770425271ee645dcbbb236896a2", "is_reserved": 0, "fusion_lon": 0.0, "lat": 38.896189666666665, "is_disabled": 0, "name": "4cf0f770425271ee645dcbbb236896a2", "fusion_lat": 0.0, "rental_uris": {"ios": "https://dc.lft.to/lastmile_qr_scan", "android": "https://dc.lft.to/lastmile_qr_scan"}, "lon": -77.000496, "type": "electric_bike"}, {"bike_id": "635828aeea7286952b825e7ac3a81d4f", "is_reserved": 0, "fusion_lon": 0.0, "lat": 38.92375716666667, "is_disabled": 0, "name": "635828aeea7286952b825e7ac3a81d4f", "fusion_lat": 0.0, "rental_uris": {"ios": "https://dc.lft.to/lastmile_qr_scan", "android": "https://dc.lft.to/lastmile_qr_scan"}, "lon": -77.02067633333333, "type": "electric_scooter"}, {"bike_id": "eb902c6506771653c062c1891706db05", "is_reserved": 0, "fusion_lon": 0.0, "lat": 38.915586166666664, "is_disabled": 0, "name": "eb902c6506771653c062c1891706db05", "fusion_lat": 0.0, "rental_uris": {"ios": "https://dc.lft.to/lastmile_qr_scan", "android": "https://dc.lft.to/lastmile_qr_scan"}, "lon": -77.0386885, "type": "electric_scooter"}, {"bike_id": "e516b07a9da8c3d5db547d4668d731bd", "is_reserved": 0, "fusion_lon": 0.0, "lat": 38.89479333333333, "is_disabled": 0, "name": "e516b07a9da8c3d5db547d4668d731bd", "fusion_lat": 0.0, "rental_uris": {"ios": "https://dc.lft.to/lastmile_qr_scan", "android": "https://dc.lft.to/lastmile_qr_scan"}, "lon": -77.04997233333333, "type": "electric_scooter"}, {"bike_id": "41403aa86558d42801ee1302283e87c3", "is_reserved": 0, "fusion_lon": 0.0, "lat": 38.92245033333333, "is_disabled": 0, "name": "41403aa86558d42801ee1302283e87c3", "fusion_lat": 0.0, "rental_uris": {"ios": "https://dc.lft.to/lastmile_qr_scan", "android": "https://dc.lft.to/lastmile_qr_scan"}, "lon": -77.010093, "type": "electric_scooter"}, {"bike_id": "b1b3ef5a2632990412d2f1468489cf75", "is_reserved": 0, "fusion_lon": 0.0, "lat": 38.92851916666667, "is_disabled": 0, "name": "b1b3ef5a2632990412d2f1468489cf75", "fusion_lat": 0.0, "rental_uris": {"ios": "https://dc.lft.to/lastmile_qr_scan", "android": "https://dc.lft.to/lastmile_qr_scan"}, "lon": -77.0541875, "type": "electric_scooter"}, {"bike_id": "36b9cee2f0e2e8e97b4cea4e767b793b", "is_reserved": 0, "fusion_lon": 0.0, "lat": 38.916830833333336, "is_disabled": 0, "name": "36b9cee2f0e2e8e97b4cea4e767b793b", "fusion_lat": 0.0, "rental_uris": {"ios": "https://dc.lft.to/lastmile_qr_scan", "android": "https://dc.lft.to/lastmile_qr_scan"}, "lon": -77.0318085, "type": "electric_scooter"}, {"bike_id": "0cb50670d0bb8e5df1b80d1f1c0074d6", "is_reserved": 0, "fusion_lon": 0.0, "lat": 38.90278133333333, "is_disabled": 0, "name": "0cb50670d0bb8e5df1b80d1f1c0074d6", "fusion_lat": 0.0, "rental_uris": {"ios": "https://dc.lft.to/lastmile_qr_scan", "android": "https://dc.lft.to/lastmile_qr_scan"}, "lon": -77.05923066666666, "type": "electric_scooter"}, {"bike_id": "538355e94f68dcc8e22b321b731d276b", "is_reserved": 0, "fusion_lon": 0.0, "lat": 38.8962455, "is_disabled": 0, "name": "538355e94f68dcc8e22b321b731d276b", "fusion_lat": 0.0, "rental_uris": {"ios": "https://dc.lft.to/lastmile_qr_scan", "android": "https://dc.lft.to/lastmile_qr_scan"}, "lon": -76.998482, "type": "electric_scooter"}, {"bike_id": "3e601c6af85055e840468d32d186d225", "is_reserved": 0, "fusion_lon": 0.0, "lat": 38.8938555, "is_disabled": 0, "name": "3e601c6af85055e840468d32d186d225", "fusion_lat": 0.0, "rental_uris": {"ios": "https://dc.lft.to/lastmile_qr_scan", "android": "https://dc.lft.to/lastmile_qr_scan"}, "lon": -77.02252033333333, "type": "electric_bike"}, {"bike_id": "90d08b45d2b1b47fd99aa26c82acade4", "is_reserved": 0, "fusion_lon": 0.0, "lat": 38.90727666666667, "is_disabled": 0, "name": "90d08b45d2b1b47fd99aa26c82acade4", "fusion_lat": 0.0, "rental_uris": {"ios": "https://dc.lft.to/lastmile_qr_scan", "android": "https://dc.lft.to/lastmile_qr_scan"}, "lon": -77.04346166666667, "type": "electric_scooter"}, {"bike_id": "24982592d442afb2ab16b2af149cb967", "is_reserved": 0, "fusion_lon": 0.0, "lat": 38.92898016666667, "is_disabled": 0, "name": "24982592d442afb2ab16b2af149cb967", "fusion_lat": 0.0, "rental_uris": {"ios": "https://dc.lft.to/lastmile_qr_scan", "android": "https://dc.lft.to/lastmile_qr_scan"}, "lon": -77.03181766666667, "type": "electric_scooter"}, {"bike_id": "ac4fdfb0b8a54f1c046f6a0a11a5a392", "is_reserved": 0, "fusion_lon": 0.0, "lat": 38.89590716666667, "is_disabled": 0, "name": "ac4fdfb0b8a54f1c046f6a0a11a5a392", "fusion_lat": 0.0, "rental_uris": {"ios": "https://dc.lft.to/lastmile_qr_scan", "android": "https://dc.lft.to/lastmile_qr_scan"}, "lon": -77.02840283333333, "type": "electric_scooter"}, {"bike_id": "17cc69e02c3a5cd870d4ab515d05fbad", "is_reserved": 0, "fusion_lon": 0.0, "lat": 38.9278545, "is_disabled": 0, "name": "17cc69e02c3a5cd870d4ab515d05fbad", "fusion_lat": 0.0, "rental_uris": {"ios": "https://dc.lft.to/lastmile_qr_scan", "android": "https://dc.lft.to/lastmile_qr_scan"}, "lon": -77.03198683333333, "type": "electric_scooter"}, {"bike_id": "8a644a0c1e0b77d8bd171686a8634ec6", "is_reserved": 0, "fusion_lon": 0.0, "lat": 38.86910133333333, "is_disabled": 0, "name": "8a644a0c1e0b77d8bd171686a8634ec6", "fusion_lat": 0.0, "rental_uris": {"ios": "https://dc.lft.to/lastmile_qr_scan", "android": "https://dc.lft.to/lastmile_qr_scan"}, "lon": -77.13172066666667, "type": "electric_bike"}, {"bike_id": "1f895446ae71cf683c5b81ea91aadc6d", "is_reserved": 0, "fusion_lon": 0.0, "lat": 38.90782816666667, "is_disabled": 0, "name": "1f895446ae71cf683c5b81ea91aadc6d", "fusion_lat": 0.0, "rental_uris": {"ios": "https://dc.lft.to/lastmile_qr_scan", "android": "https://dc.lft.to/lastmile_qr_scan"}, "lon": -77.00969833333333, "type": "electric_scooter"}, {"bike_id": "6b9f63df971c8c6a012c68c56a5ae22f", "is_reserved": 0, "fusion_lon": 0.0, "lat": 38.91545816666667, "is_disabled": 0, "name": "6b9f63df971c8c6a012c68c56a5ae22f", "fusion_lat": 0.0, "rental_uris": {"ios": "https://dc.lft.to/lastmile_qr_scan", "android": "https://dc.lft.to/lastmile_qr_scan"}, "lon": -77.03849916666667, "type": "electric_scooter"}, {"bike_id": "bf3531f5a460362f3f80ad1cbc68c5f2", "is_reserved": 0, "fusion_lon": 0.0, "lat": 38.891997333333336, "is_disabled": 0, "name": "bf3531f5a460362f3f80ad1cbc68c5f2", "fusion_lat": 0.0, "rental_uris": {"ios": "https://dc.lft.to/lastmile_qr_scan", "android": "https://dc.lft.to/lastmile_qr_scan"}, "lon": -77.00241516666667, "type": "electric_bike"}, {"bike_id": "c9b2270f4386c2584d0257e12f42cc3e", "is_reserved": 0, "fusion_lon": 0.0, "lat": 38.906061333333334, "is_disabled": 0, "name": "c9b2270f4386c2584d0257e12f42cc3e", "fusion_lat": 0.0, "rental_uris": {"ios": "https://dc.lft.to/lastmile_qr_scan", "android": "https://dc.lft.to/lastmile_qr_scan"}, "lon": -77.0132245, "type": "electric_scooter"}, {"bike_id": "482b41b8b47db26ac812e9734f0232a4", "is_reserved": 0, "fusion_lon": 0.0, "lat": 38.90686616666667, "is_disabled": 0, "name": "482b41b8b47db26ac812e9734f0232a4", "fusion_lat": 0.0, "rental_uris": {"ios": "https://dc.lft.to/lastmile_qr_scan", "android": "https://dc.lft.to/lastmile_qr_scan"}, "lon": -77.01345516666666, "type": "electric_scooter"}, {"bike_id": "961b91d0c05886f8770c6d187844d245", "is_reserved": 0, "fusion_lon": 0.0, "lat": 38.8900385, "is_disabled": 0, "name": "961b91d0c05886f8770c6d187844d245", "fusion_lat": 0.0, "rental_uris": {"ios": "https://dc.lft.to/lastmile_qr_scan", "android": "https://dc.lft.to/lastmile_qr_scan"}, "lon": -77.04888983333333, "type": "electric_scooter"}, {"bike_id": "4e2e6af5ee221101163c3de0fbd1a2e6", "is_reserved": 0, "fusion_lon": 0.0, "lat": 38.9342965, "is_disabled": 0, "name": "4e2e6af5ee221101163c3de0fbd1a2e6", "fusion_lat": 0.0, "rental_uris": {"ios": "https://dc.lft.to/lastmile_qr_scan", "android": "https://dc.lft.to/lastmile_qr_scan"}, "lon": -77.043126, "type": "electric_scooter"}, {"bike_id": "c47ac827e0d65597d1f3591fe6029e3b", "is_reserved": 0, "fusion_lon": 0.0, "lat": 38.91196016666667, "is_disabled": 0, "name": "c47ac827e0d65597d1f3591fe6029e3b", "fusion_lat": 0.0, "rental_uris": {"ios": "https://dc.lft.to/lastmile_qr_scan", "android": "https://dc.lft.to/lastmile_qr_scan"}, "lon": -77.00191933333333, "type": "electric_scooter"}, {"bike_id": "63c43b842fa46ff667bb14843a88c780", "is_reserved": 0, "fusion_lon": 0.0, "lat": 38.891964, "is_disabled": 0, "name": "63c43b842fa46ff667bb14843a88c780", "fusion_lat": 0.0, "rental_uris": {"ios": "https://dc.lft.to/lastmile_qr_scan", "android": "https://dc.lft.to/lastmile_qr_scan"}, "lon": -77.0297925, "type": "electric_scooter"}, {"bike_id": "ad8935a853b8290178291480d97a9629", "is_reserved": 0, "fusion_lon": 0.0, "lat": 38.89806633333333, "is_disabled": 0, "name": "ad8935a853b8290178291480d97a9629", "fusion_lat": 0.0, "rental_uris": {"ios": "https://dc.lft.to/lastmile_qr_scan", "android": "https://dc.lft.to/lastmile_qr_scan"}, "lon": -77.03299366666667, "type": "electric_scooter"}, {"bike_id": "f4d46e4327fcf2bd46d499bace6439c1", "is_reserved": 0, "fusion_lon": 0.0, "lat": 38.91115, "is_disabled": 0, "name": "f4d46e4327fcf2bd46d499bace6439c1", "fusion_lat": 0.0, "rental_uris": {"ios": "https://dc.lft.to/lastmile_qr_scan", "android": "https://dc.lft.to/lastmile_qr_scan"}, "lon": -77.00239933333333, "type": "electric_scooter"}, {"bike_id": "24a4aebc3f1c2e4a03f7d0cc602c380c", "is_reserved": 0, "fusion_lon": 0.0, "lat": 38.85438666666667, "is_disabled": 0, "name": "24a4aebc3f1c2e4a03f7d0cc602c380c", "fusion_lat": 0.0, "rental_uris": {"ios": "https://dc.lft.to/lastmile_qr_scan", "android": "https://dc.lft.to/lastmile_qr_scan"}, "lon": -77.11701833333333, "type": "electric_bike"}, {"bike_id": "f7f9ece5c71bc99e907afcd138770b83", "is_reserved": 0, "fusion_lon": 0.0, "lat": 38.907956166666665, "is_disabled": 0, "name": "f7f9ece5c71bc99e907afcd138770b83", "fusion_lat": 0.0, "rental_uris": {"ios": "https://dc.lft.to/lastmile_qr_scan", "android": "https://dc.lft.to/lastmile_qr_scan"}, "lon": -76.99698783333334, "type": "electric_scooter"}, {"bike_id": "080f032281e8db9764be15b50349ed07", "is_reserved": 0, "fusion_lon": 0.0, "lat": 38.92038433333333, "is_disabled": 0, "name": "080f032281e8db9764be15b50349ed07", "fusion_lat": 0.0, "rental_uris": {"ios": "https://dc.lft.to/lastmile_qr_scan", "android": "https://dc.lft.to/lastmile_qr_scan"}, "lon": -77.012183, "type": "electric_scooter"}, {"bike_id": "5c69520d2cf534ccf3fd3d07a491bd85", "is_reserved": 0, "fusion_lon": 0.0, "lat": 38.90014133333333, "is_disabled": 0, "name": "5c69520d2cf534ccf3fd3d07a491bd85", "fusion_lat": 0.0, "rental_uris": {"ios": "https://dc.lft.to/lastmile_qr_scan", "android": "https://dc.lft.to/lastmile_qr_scan"}, "lon": -76.988144, "type": "electric_scooter"}, {"bike_id": "f056e56bb8fcc436b2388df7c5bf8c94", "is_reserved": 0, "fusion_lon": 0.0, "lat": 38.92451466666667, "is_disabled": 0, "name": "f056e56bb8fcc436b2388df7c5bf8c94", "fusion_lat": 0.0, "rental_uris": {"ios": "https://dc.lft.to/lastmile_qr_scan", "android": "https://dc.lft.to/lastmile_qr_scan"}, "lon": -77.0411405, "type": "electric_scooter"}, {"bike_id": "33673846e623885d8d0b69bf0b25bfdf", "is_reserved": 0, "fusion_lon": 0.0, "lat": 38.89947166666666, "is_disabled": 0, "name": "33673846e623885d8d0b69bf0b25bfdf", "fusion_lat": 0.0, "rental_uris": {"ios": "https://dc.lft.to/lastmile_qr_scan", "android": "https://dc.lft.to/lastmile_qr_scan"}, "lon": -77.05055666666667, "type": "electric_scooter"}, {"bike_id": "229f5152c315befa328d8bd5355d9d66", "is_reserved": 0, "fusion_lon": 0.0, "lat": 38.908679666666664, "is_disabled": 0, "name": "229f5152c315befa328d8bd5355d9d66", "fusion_lat": 0.0, "rental_uris": {"ios": "https://dc.lft.to/lastmile_qr_scan", "android": "https://dc.lft.to/lastmile_qr_scan"}, "lon": -77.085923, "type": "electric_scooter"}, {"bike_id": "8c22e60536dd165478f63a9620fc05a7", "is_reserved": 0, "fusion_lon": 0.0, "lat": 38.941808333333334, "is_disabled": 0, "name": "8c22e60536dd165478f63a9620fc05a7", "fusion_lat": 0.0, "rental_uris": {"ios": "https://dc.lft.to/lastmile_qr_scan", "android": "https://dc.lft.to/lastmile_qr_scan"}, "lon": -77.03091133333334, "type": "electric_scooter"}, {"bike_id": "02cbb02f5ab47101da2f5095588794fc", "is_reserved": 0, "fusion_lon": 0.0, "lat": 38.9284765, "is_disabled": 0, "name": "02cbb02f5ab47101da2f5095588794fc", "fusion_lat": 0.0, "rental_uris": {"ios": "https://dc.lft.to/lastmile_qr_scan", "android": "https://dc.lft.to/lastmile_qr_scan"}, "lon": -77.02059033333333, "type": "electric_bike"}, {"bike_id": "6c68c07127e517d98e42604495f14cde", "is_reserved": 0, "fusion_lon": 0.0, "lat": 38.91722133333333, "is_disabled": 0, "name": "6c68c07127e517d98e42604495f14cde", "fusion_lat": 0.0, "rental_uris": {"ios": "https://dc.lft.to/lastmile_qr_scan", "android": "https://dc.lft.to/lastmile_qr_scan"}, "lon": -77.03836033333333, "type": "electric_scooter"}, {"bike_id": "9797ceab0d070cf29e7ce7ff13245ccd", "is_reserved": 0, "fusion_lon": 0.0, "lat": 38.87182633333333, "is_disabled": 0, "name": "9797ceab0d070cf29e7ce7ff13245ccd", "fusion_lat": 0.0, "rental_uris": {"ios": "https://dc.lft.to/lastmile_qr_scan", "android": "https://dc.lft.to/lastmile_qr_scan"}, "lon": -77.01216083333334, "type": "electric_scooter"}, {"bike_id": "50cc9f2c54fd2240ef83ff148d1892de", "is_reserved": 0, "fusion_lon": 0.0, "lat": 38.90400866666667, "is_disabled": 0, "name": "50cc9f2c54fd2240ef83ff148d1892de", "fusion_lat": 0.0, "rental_uris": {"ios": "https://dc.lft.to/lastmile_qr_scan", "android": "https://dc.lft.to/lastmile_qr_scan"}, "lon": -76.92419833333334, "type": "electric_scooter"}, {"bike_id": "fc79d9f2f49fc429c46c6d26b6c5fa8b", "is_reserved": 0, "fusion_lon": 0.0, "lat": 38.8997095, "is_disabled": 0, "name": "fc79d9f2f49fc429c46c6d26b6c5fa8b", "fusion_lat": 0.0, "rental_uris": {"ios": "https://dc.lft.to/lastmile_qr_scan", "android": "https://dc.lft.to/lastmile_qr_scan"}, "lon": -77.03345366666667, "type": "electric_scooter"}, {"bike_id": "f27d7db1e5d2e2f4e10c49ba1138e0bc", "is_reserved": 0, "fusion_lon": 0.0, "lat": 38.934351, "is_disabled": 0, "name": "f27d7db1e5d2e2f4e10c49ba1138e0bc", "fusion_lat": 0.0, "rental_uris": {"ios": "https://dc.lft.to/lastmile_qr_scan", "android": "https://dc.lft.to/lastmile_qr_scan"}, "lon": -77.03443416666667, "type": "electric_scooter"}, {"bike_id": "3a4bbc788d77f333e12917f8a334c143", "is_reserved": 0, "fusion_lon": 0.0, "lat": 38.893642166666666, "is_disabled": 0, "name": "3a4bbc788d77f333e12917f8a334c143", "fusion_lat": 0.0, "rental_uris": {"ios": "https://dc.lft.to/lastmile_qr_scan", "android": "https://dc.lft.to/lastmile_qr_scan"}, "lon": -76.98514166666666, "type": "electric_bike"}, {"bike_id": "33c8ebcb0c0d4f1e0692b5df96a2a409", "is_reserved": 0, "fusion_lon": 0.0, "lat": 38.950767666666664, "is_disabled": 0, "name": "33c8ebcb0c0d4f1e0692b5df96a2a409", "fusion_lat": 0.0, "rental_uris": {"ios": "https://dc.lft.to/lastmile_qr_scan", "android": "https://dc.lft.to/lastmile_qr_scan"}, "lon": -77.01193966666666, "type": "electric_bike"}, {"bike_id": "99f38c26426a36f54f3412916c3a95e6", "is_reserved": 0, "fusion_lon": 0.0, "lat": 38.92499766666667, "is_disabled": 0, "name": "99f38c26426a36f54f3412916c3a95e6", "fusion_lat": 0.0, "rental_uris": {"ios": "https://dc.lft.to/lastmile_qr_scan", "android": "https://dc.lft.to/lastmile_qr_scan"}, "lon": -77.008877, "type": "electric_scooter"}, {"bike_id": "42a8b6f04670c9a8b03b64fd55652e3f", "is_reserved": 0, "fusion_lon": 0.0, "lat": 38.898774833333334, "is_disabled": 0, "name": "42a8b6f04670c9a8b03b64fd55652e3f", "fusion_lat": 0.0, "rental_uris": {"ios": "https://dc.lft.to/lastmile_qr_scan", "android": "https://dc.lft.to/lastmile_qr_scan"}, "lon": -76.93161166666667, "type": "electric_scooter"}, {"bike_id": "af3e5659b210e4db8d60f0259c823fec", "is_reserved": 0, "fusion_lon": 0.0, "lat": 38.8637555, "is_disabled": 0, "name": "af3e5659b210e4db8d60f0259c823fec", "fusion_lat": 0.0, "rental_uris": {"ios": "https://dc.lft.to/lastmile_qr_scan", "android": "https://dc.lft.to/lastmile_qr_scan"}, "lon": -76.990598, "type": "electric_scooter"}, {"bike_id": "5a3b374a6d19c1a75eda43f3632eefc5", "is_reserved": 0, "fusion_lon": 0.0, "lat": 38.92165983333334, "is_disabled": 0, "name": "5a3b374a6d19c1a75eda43f3632eefc5", "fusion_lat": 0.0, "rental_uris": {"ios": "https://dc.lft.to/lastmile_qr_scan", "android": "https://dc.lft.to/lastmile_qr_scan"}, "lon": -77.04217616666666, "type": "electric_scooter"}, {"bike_id": "c238ffdbec8e7a43d8ed1bf5e8d5ba06", "is_reserved": 0, "fusion_lon": 0.0, "lat": 38.90172283333333, "is_disabled": 0, "name": "c238ffdbec8e7a43d8ed1bf5e8d5ba06", "fusion_lat": 0.0, "rental_uris": {"ios": "https://dc.lft.to/lastmile_qr_scan", "android": "https://dc.lft.to/lastmile_qr_scan"}, "lon": -76.98052383333334, "type": "electric_scooter"}, {"bike_id": "069ef1e73861600f764c92d354939a76", "is_reserved": 0, "fusion_lon": 0.0, "lat": 38.9638505, "is_disabled": 0, "name": "069ef1e73861600f764c92d354939a76", "fusion_lat": 0.0, "rental_uris": {"ios": "https://dc.lft.to/lastmile_qr_scan", "android": "https://dc.lft.to/lastmile_qr_scan"}, "lon": -77.0350215, "type": "electric_scooter"}, {"bike_id": "7fdfdebf935eb73e00464296c2bfd542", "is_reserved": 0, "fusion_lon": 0.0, "lat": 38.9233125, "is_disabled": 0, "name": "7fdfdebf935eb73e00464296c2bfd542", "fusion_lat": 0.0, "rental_uris": {"ios": "https://dc.lft.to/lastmile_qr_scan", "android": "https://dc.lft.to/lastmile_qr_scan"}, "lon": -77.0377895, "type": "electric_scooter"}, {"bike_id": "929d794e716dd2027d1a36cd82d6ab1b", "is_reserved": 0, "fusion_lon": 0.0, "lat": 38.91889583333333, "is_disabled": 0, "name": "929d794e716dd2027d1a36cd82d6ab1b", "fusion_lat": 0.0, "rental_uris": {"ios": "https://dc.lft.to/lastmile_qr_scan", "android": "https://dc.lft.to/lastmile_qr_scan"}, "lon": -77.0390855, "type": "electric_scooter"}, {"bike_id": "d239dbb72536e3c95fed04eae6698a30", "is_reserved": 0, "fusion_lon": 0.0, "lat": 38.9188095, "is_disabled": 0, "name": "d239dbb72536e3c95fed04eae6698a30", "fusion_lat": 0.0, "rental_uris": {"ios": "https://dc.lft.to/lastmile_qr_scan", "android": "https://dc.lft.to/lastmile_qr_scan"}, "lon": -77.02947016666667, "type": "electric_scooter"}, {"bike_id": "d35fb43f60ff48f68b9bd5b36cb8a756", "is_reserved": 0, "fusion_lon": 0.0, "lat": 38.903854333333335, "is_disabled": 0, "name": "d35fb43f60ff48f68b9bd5b36cb8a756", "fusion_lat": 0.0, "rental_uris": {"ios": "https://dc.lft.to/lastmile_qr_scan", "android": "https://dc.lft.to/lastmile_qr_scan"}, "lon": -77.04473783333333, "type": "electric_scooter"}, {"bike_id": "4033b92893417aebdc05fd2ce30aa474", "is_reserved": 0, "fusion_lon": 0.0, "lat": 38.89608833333333, "is_disabled": 0, "name": "4033b92893417aebdc05fd2ce30aa474", "fusion_lat": 0.0, "rental_uris": {"ios": "https://dc.lft.to/lastmile_qr_scan", "android": "https://dc.lft.to/lastmile_qr_scan"}, "lon": -76.9557805, "type": "electric_scooter"}, {"bike_id": "78a8af51a02ff4a0b58af70b07d1c326", "is_reserved": 0, "fusion_lon": 0.0, "lat": 38.9497715, "is_disabled": 0, "name": "78a8af51a02ff4a0b58af70b07d1c326", "fusion_lat": 0.0, "rental_uris": {"ios": "https://dc.lft.to/lastmile_qr_scan", "android": "https://dc.lft.to/lastmile_qr_scan"}, "lon": -77.07892916666667, "type": "electric_scooter"}, {"bike_id": "1ed826c487273691fbf11503a757e353", "is_reserved": 0, "fusion_lon": 0.0, "lat": 38.917774666666666, "is_disabled": 0, "name": "1ed826c487273691fbf11503a757e353", "fusion_lat": 0.0, "rental_uris": {"ios": "https://dc.lft.to/lastmile_qr_scan", "android": "https://dc.lft.to/lastmile_qr_scan"}, "lon": -77.04057833333333, "type": "electric_scooter"}, {"bike_id": "81f6a4e50bc598841a16687da0df6a85", "is_reserved": 0, "fusion_lon": 0.0, "lat": 38.91487933333333, "is_disabled": 0, "name": "81f6a4e50bc598841a16687da0df6a85", "fusion_lat": 0.0, "rental_uris": {"ios": "https://dc.lft.to/lastmile_qr_scan", "android": "https://dc.lft.to/lastmile_qr_scan"}, "lon": -77.02181833333333, "type": "electric_scooter"}, {"bike_id": "da6bbfe72ae2047c8045687762644ee5", "is_reserved": 0, "fusion_lon": 0.0, "lat": 38.941723333333336, "is_disabled": 0, "name": "da6bbfe72ae2047c8045687762644ee5", "fusion_lat": 0.0, "rental_uris": {"ios": "https://dc.lft.to/lastmile_qr_scan", "android": "https://dc.lft.to/lastmile_qr_scan"}, "lon": -77.04129583333334, "type": "electric_scooter"}, {"bike_id": "62f3d57e7075c94d4aeae6b99125ce9b", "is_reserved": 0, "fusion_lon": 0.0, "lat": 38.916937833333336, "is_disabled": 0, "name": "62f3d57e7075c94d4aeae6b99125ce9b", "fusion_lat": 0.0, "rental_uris": {"ios": "https://dc.lft.to/lastmile_qr_scan", "android": "https://dc.lft.to/lastmile_qr_scan"}, "lon": -77.01222983333334, "type": "electric_scooter"}, {"bike_id": "b92cf46a7e87fbbafa0570140be36297", "is_reserved": 0, "fusion_lon": 0.0, "lat": 38.99820583333333, "is_disabled": 0, "name": "b92cf46a7e87fbbafa0570140be36297", "fusion_lat": 0.0, "rental_uris": {"ios": "https://dc.lft.to/lastmile_qr_scan", "android": "https://dc.lft.to/lastmile_qr_scan"}, "lon": -76.883745, "type": "electric_bike"}, {"bike_id": "ec80332edc2f908674c2d4f32c42da2d", "is_reserved": 0, "fusion_lon": 0.0, "lat": 38.8987915, "is_disabled": 0, "name": "ec80332edc2f908674c2d4f32c42da2d", "fusion_lat": 0.0, "rental_uris": {"ios": "https://dc.lft.to/lastmile_qr_scan", "android": "https://dc.lft.to/lastmile_qr_scan"}, "lon": -76.931595, "type": "electric_scooter"}, {"bike_id": "0e574de0b65bb63c6c093220a077e966", "is_reserved": 0, "fusion_lon": 0.0, "lat": 38.90379866666667, "is_disabled": 0, "name": "0e574de0b65bb63c6c093220a077e966", "fusion_lat": 0.0, "rental_uris": {"ios": "https://dc.lft.to/lastmile_qr_scan", "android": "https://dc.lft.to/lastmile_qr_scan"}, "lon": -77.01093383333334, "type": "electric_scooter"}, {"bike_id": "74a8f9856d530b382d2da144b249a357", "is_reserved": 0, "fusion_lon": 0.0, "lat": 38.92899383333334, "is_disabled": 0, "name": "74a8f9856d530b382d2da144b249a357", "fusion_lat": 0.0, "rental_uris": {"ios": "https://dc.lft.to/lastmile_qr_scan", "android": "https://dc.lft.to/lastmile_qr_scan"}, "lon": -77.05450316666666, "type": "electric_scooter"}, {"bike_id": "150eff59d90b0d62dab2d4ab5df91217", "is_reserved": 0, "fusion_lon": 0.0, "lat": 38.921425, "is_disabled": 0, "name": "150eff59d90b0d62dab2d4ab5df91217", "fusion_lat": 0.0, "rental_uris": {"ios": "https://dc.lft.to/lastmile_qr_scan", "android": "https://dc.lft.to/lastmile_qr_scan"}, "lon": -77.03477683333334, "type": "electric_scooter"}, {"bike_id": "14f28cf75cfdd59c1a8a110b1801bfad", "is_reserved": 0, "fusion_lon": 0.0, "lat": 38.90334416666666, "is_disabled": 0, "name": "14f28cf75cfdd59c1a8a110b1801bfad", "fusion_lat": 0.0, "rental_uris": {"ios": "https://dc.lft.to/lastmile_qr_scan", "android": "https://dc.lft.to/lastmile_qr_scan"}, "lon": -77.06651016666666, "type": "electric_scooter"}, {"bike_id": "9ab40cbefa456a3b9d01ba4aa4ad221c", "is_reserved": 0, "fusion_lon": 0.0, "lat": 38.905730166666665, "is_disabled": 0, "name": "9ab40cbefa456a3b9d01ba4aa4ad221c", "fusion_lat": 0.0, "rental_uris": {"ios": "https://dc.lft.to/lastmile_qr_scan", "android": "https://dc.lft.to/lastmile_qr_scan"}, "lon": -77.00570033333334, "type": "electric_scooter"}, {"bike_id": "1f51972f551080f4d0416d52b01d3b2b", "is_reserved": 0, "fusion_lon": 0.0, "lat": 38.80746416666667, "is_disabled": 0, "name": "1f51972f551080f4d0416d52b01d3b2b", "fusion_lat": 0.0, "rental_uris": {"ios": "https://dc.lft.to/lastmile_qr_scan", "android": "https://dc.lft.to/lastmile_qr_scan"}, "lon": -77.09423116666666, "type": "electric_bike"}, {"bike_id": "eeb04db17ae78f2dba66846afb9a2f34", "is_reserved": 0, "fusion_lon": 0.0, "lat": 38.863907166666664, "is_disabled": 0, "name": "eeb04db17ae78f2dba66846afb9a2f34", "fusion_lat": 0.0, "rental_uris": {"ios": "https://dc.lft.to/lastmile_qr_scan", "android": "https://dc.lft.to/lastmile_qr_scan"}, "lon": -76.98985566666667, "type": "electric_bike"}, {"bike_id": "bb04f270c9826fdabe59a389b8f1abbb", "is_reserved": 0, "fusion_lon": 0.0, "lat": 38.957351, "is_disabled": 0, "name": "bb04f270c9826fdabe59a389b8f1abbb", "fusion_lat": 0.0, "rental_uris": {"ios": "https://dc.lft.to/lastmile_qr_scan", "android": "https://dc.lft.to/lastmile_qr_scan"}, "lon": -76.98013983333334, "type": "electric_bike"}, {"bike_id": "ecb78ffb7f17e2fce98ee0ec1492a072", "is_reserved": 0, "fusion_lon": 0.0, "lat": 38.92853366666667, "is_disabled": 0, "name": "ecb78ffb7f17e2fce98ee0ec1492a072", "fusion_lat": 0.0, "rental_uris": {"ios": "https://dc.lft.to/lastmile_qr_scan", "android": "https://dc.lft.to/lastmile_qr_scan"}, "lon": -77.10670883333333, "type": "electric_bike"}, {"bike_id": "05e5b5754160334769a6557524254a38", "is_reserved": 0, "fusion_lon": 0.0, "lat": 38.9156525, "is_disabled": 0, "name": "05e5b5754160334769a6557524254a38", "fusion_lat": 0.0, "rental_uris": {"ios": "https://dc.lft.to/lastmile_qr_scan", "android": "https://dc.lft.to/lastmile_qr_scan"}, "lon": -77.04019683333334, "type": "electric_scooter"}, {"bike_id": "f29f150d97ce5b6c0b959500e88504c0", "is_reserved": 0, "fusion_lon": 0.0, "lat": 38.92358766666667, "is_disabled": 0, "name": "f29f150d97ce5b6c0b959500e88504c0", "fusion_lat": 0.0, "rental_uris": {"ios": "https://dc.lft.to/lastmile_qr_scan", "android": "https://dc.lft.to/lastmile_qr_scan"}, "lon": -77.05230433333334, "type": "electric_scooter"}, {"bike_id": "f9009aee9c036e26f2a7222c05ea97a4", "is_reserved": 0, "fusion_lon": 0.0, "lat": 38.907269166666666, "is_disabled": 0, "name": "f9009aee9c036e26f2a7222c05ea97a4", "fusion_lat": 0.0, "rental_uris": {"ios": "https://dc.lft.to/lastmile_qr_scan", "android": "https://dc.lft.to/lastmile_qr_scan"}, "lon": -77.03211366666666, "type": "electric_scooter"}, {"bike_id": "793961c6582d5bb2570308c5611f379e", "is_reserved": 0, "fusion_lon": 0.0, "lat": 38.94832816666667, "is_disabled": 0, "name": "793961c6582d5bb2570308c5611f379e", "fusion_lat": 0.0, "rental_uris": {"ios": "https://dc.lft.to/lastmile_qr_scan", "android": "https://dc.lft.to/lastmile_qr_scan"}, "lon": -77.0241685, "type": "electric_scooter"}, {"bike_id": "2ecea96cdd72d60cd85f578ee28bd4bd", "is_reserved": 0, "fusion_lon": 0.0, "lat": 38.92560666666667, "is_disabled": 0, "name": "2ecea96cdd72d60cd85f578ee28bd4bd", "fusion_lat": 0.0, "rental_uris": {"ios": "https://dc.lft.to/lastmile_qr_scan", "android": "https://dc.lft.to/lastmile_qr_scan"}, "lon": -77.0404675, "type": "electric_scooter"}, {"bike_id": "89a65b6b266a2d85bb4450e9364122b0", "is_reserved": 0, "fusion_lon": 0.0, "lat": 38.92397016666666, "is_disabled": 0, "name": "89a65b6b266a2d85bb4450e9364122b0", "fusion_lat": 0.0, "rental_uris": {"ios": "https://dc.lft.to/lastmile_qr_scan", "android": "https://dc.lft.to/lastmile_qr_scan"}, "lon": -77.05248683333333, "type": "electric_scooter"}, {"bike_id": "6035269b37b33a33e0f6eacfa3413650", "is_reserved": 0, "fusion_lon": 0.0, "lat": 38.89879533333333, "is_disabled": 0, "name": "6035269b37b33a33e0f6eacfa3413650", "fusion_lat": 0.0, "rental_uris": {"ios": "https://dc.lft.to/lastmile_qr_scan", "android": "https://dc.lft.to/lastmile_qr_scan"}, "lon": -76.931584, "type": "electric_scooter"}, {"bike_id": "7d61109000069e097d1cc224fd99d865", "is_reserved": 0, "fusion_lon": 0.0, "lat": 38.90959683333333, "is_disabled": 0, "name": "7d61109000069e097d1cc224fd99d865", "fusion_lat": 0.0, "rental_uris": {"ios": "https://dc.lft.to/lastmile_qr_scan", "android": "https://dc.lft.to/lastmile_qr_scan"}, "lon": -77.0368295, "type": "electric_scooter"}, {"bike_id": "943dd2a5c08cfa7573cc87e07e0b8f5f", "is_reserved": 0, "fusion_lon": 0.0, "lat": 38.883907, "is_disabled": 0, "name": "943dd2a5c08cfa7573cc87e07e0b8f5f", "fusion_lat": 0.0, "rental_uris": {"ios": "https://dc.lft.to/lastmile_qr_scan", "android": "https://dc.lft.to/lastmile_qr_scan"}, "lon": -77.02505983333333, "type": "electric_scooter"}, {"bike_id": "2f80d1789941b3ba1ff1e3350108d002", "is_reserved": 0, "fusion_lon": 0.0, "lat": 38.90776616666667, "is_disabled": 0, "name": "2f80d1789941b3ba1ff1e3350108d002", "fusion_lat": 0.0, "rental_uris": {"ios": "https://dc.lft.to/lastmile_qr_scan", "android": "https://dc.lft.to/lastmile_qr_scan"}, "lon": -77.03818283333334, "type": "electric_scooter"}, {"bike_id": "fed0c0ace411cb87404c11cbbe547295", "is_reserved": 0, "fusion_lon": 0.0, "lat": 38.930758833333336, "is_disabled": 0, "name": "fed0c0ace411cb87404c11cbbe547295", "fusion_lat": 0.0, "rental_uris": {"ios": "https://dc.lft.to/lastmile_qr_scan", "android": "https://dc.lft.to/lastmile_qr_scan"}, "lon": -77.03424983333333, "type": "electric_scooter"}, {"bike_id": "269a7e3a4677dbe5350553257ce9691d", "is_reserved": 0, "fusion_lon": 0.0, "lat": 38.893706333333334, "is_disabled": 0, "name": "269a7e3a4677dbe5350553257ce9691d", "fusion_lat": 0.0, "rental_uris": {"ios": "https://dc.lft.to/lastmile_qr_scan", "android": "https://dc.lft.to/lastmile_qr_scan"}, "lon": -77.02843733333333, "type": "electric_scooter"}, {"bike_id": "ad2926a61cb4dafe5c93d9af6092af5a", "is_reserved": 0, "fusion_lon": 0.0, "lat": 38.907170666666666, "is_disabled": 0, "name": "ad2926a61cb4dafe5c93d9af6092af5a", "fusion_lat": 0.0, "rental_uris": {"ios": "https://dc.lft.to/lastmile_qr_scan", "android": "https://dc.lft.to/lastmile_qr_scan"}, "lon": -77.03245616666666, "type": "electric_scooter"}, {"bike_id": "f9f8d4d8b2b9f7adeed2af41be082ec6", "is_reserved": 0, "fusion_lon": 0.0, "lat": 38.900461166666666, "is_disabled": 0, "name": "f9f8d4d8b2b9f7adeed2af41be082ec6", "fusion_lat": 0.0, "rental_uris": {"ios": "https://dc.lft.to/lastmile_qr_scan", "android": "https://dc.lft.to/lastmile_qr_scan"}, "lon": -77.03202233333333, "type": "electric_scooter"}, {"bike_id": "a6c9c4c31d23e9853ea39f1129b9b82c", "is_reserved": 0, "fusion_lon": 0.0, "lat": 38.918433666666665, "is_disabled": 0, "name": "a6c9c4c31d23e9853ea39f1129b9b82c", "fusion_lat": 0.0, "rental_uris": {"ios": "https://dc.lft.to/lastmile_qr_scan", "android": "https://dc.lft.to/lastmile_qr_scan"}, "lon": -77.02605383333334, "type": "electric_scooter"}, {"bike_id": "7cb79d7a66b949f2957e6d6958fdd55a", "is_reserved": 0, "fusion_lon": 0.0, "lat": 38.91393166666667, "is_disabled": 0, "name": "7cb79d7a66b949f2957e6d6958fdd55a", "fusion_lat": 0.0, "rental_uris": {"ios": "https://dc.lft.to/lastmile_qr_scan", "android": "https://dc.lft.to/lastmile_qr_scan"}, "lon": -77.046094, "type": "electric_scooter"}, {"bike_id": "ac170e1928de29c064d21dcc4e9afcf5", "is_reserved": 0, "fusion_lon": 0.0, "lat": 38.86424066666667, "is_disabled": 0, "name": "ac170e1928de29c064d21dcc4e9afcf5", "fusion_lat": 0.0, "rental_uris": {"ios": "https://dc.lft.to/lastmile_qr_scan", "android": "https://dc.lft.to/lastmile_qr_scan"}, "lon": -76.98574616666667, "type": "electric_scooter"}, {"bike_id": "abce50186cd2e62111c6fc0420be5b3c", "is_reserved": 0, "fusion_lon": 0.0, "lat": 38.93361816666667, "is_disabled": 0, "name": "abce50186cd2e62111c6fc0420be5b3c", "fusion_lat": 0.0, "rental_uris": {"ios": "https://dc.lft.to/lastmile_qr_scan", "android": "https://dc.lft.to/lastmile_qr_scan"}, "lon": -77.05721266666667, "type": "electric_scooter"}, {"bike_id": "4289c277407b22c1e0f4a8c35e4e2e26", "is_reserved": 0, "fusion_lon": 0.0, "lat": 38.822650833333334, "is_disabled": 0, "name": "4289c277407b22c1e0f4a8c35e4e2e26", "fusion_lat": 0.0, "rental_uris": {"ios": "https://dc.lft.to/lastmile_qr_scan", "android": "https://dc.lft.to/lastmile_qr_scan"}, "lon": -77.00548183333333, "type": "electric_bike"}, {"bike_id": "0b10913b6b7567e48feec34382cecb91", "is_reserved": 0, "fusion_lon": 0.0, "lat": 38.914941166666665, "is_disabled": 0, "name": "0b10913b6b7567e48feec34382cecb91", "fusion_lat": 0.0, "rental_uris": {"ios": "https://dc.lft.to/lastmile_qr_scan", "android": "https://dc.lft.to/lastmile_qr_scan"}, "lon": -76.98362616666667, "type": "electric_scooter"}, {"bike_id": "51b5ab482d93bd5aa05da2b0445c3003", "is_reserved": 0, "fusion_lon": 0.0, "lat": 38.8859715, "is_disabled": 0, "name": "51b5ab482d93bd5aa05da2b0445c3003", "fusion_lat": 0.0, "rental_uris": {"ios": "https://dc.lft.to/lastmile_qr_scan", "android": "https://dc.lft.to/lastmile_qr_scan"}, "lon": -77.0176505, "type": "electric_scooter"}, {"bike_id": "01b5ba199720c8a2b97fd05b8280af82", "is_reserved": 0, "fusion_lon": 0.0, "lat": 38.8945485, "is_disabled": 0, "name": "01b5ba199720c8a2b97fd05b8280af82", "fusion_lat": 0.0, "rental_uris": {"ios": "https://dc.lft.to/lastmile_qr_scan", "android": "https://dc.lft.to/lastmile_qr_scan"}, "lon": -76.97036733333333, "type": "electric_bike"}, {"bike_id": "5e5fd6307d077945c109a09f3d65e28a", "is_reserved": 0, "fusion_lon": 0.0, "lat": 38.910438166666665, "is_disabled": 0, "name": "5e5fd6307d077945c109a09f3d65e28a", "fusion_lat": 0.0, "rental_uris": {"ios": "https://dc.lft.to/lastmile_qr_scan", "android": "https://dc.lft.to/lastmile_qr_scan"}, "lon": -77.03580716666667, "type": "electric_scooter"}, {"bike_id": "21c0766e3ade7cedd4a9486dc6eb4793", "is_reserved": 0, "fusion_lon": 0.0, "lat": 38.88754383333333, "is_disabled": 0, "name": "21c0766e3ade7cedd4a9486dc6eb4793", "fusion_lat": 0.0, "rental_uris": {"ios": "https://dc.lft.to/lastmile_qr_scan", "android": "https://dc.lft.to/lastmile_qr_scan"}, "lon": -77.02970733333333, "type": "electric_scooter"}, {"bike_id": "3c943c157901df0e140c537a212a3aa6", "is_reserved": 0, "fusion_lon": 0.0, "lat": 38.919687, "is_disabled": 0, "name": "3c943c157901df0e140c537a212a3aa6", "fusion_lat": 0.0, "rental_uris": {"ios": "https://dc.lft.to/lastmile_qr_scan", "android": "https://dc.lft.to/lastmile_qr_scan"}, "lon": -77.031867, "type": "electric_scooter"}, {"bike_id": "58bc1cd865f5b3283d3352be80c06687", "is_reserved": 0, "fusion_lon": 0.0, "lat": 38.9497335, "is_disabled": 0, "name": "58bc1cd865f5b3283d3352be80c06687", "fusion_lat": 0.0, "rental_uris": {"ios": "https://dc.lft.to/lastmile_qr_scan", "android": "https://dc.lft.to/lastmile_qr_scan"}, "lon": -76.97283116666667, "type": "electric_bike"}, {"bike_id": "b3adee440138db8d1a210da998b4dfc1", "is_reserved": 0, "fusion_lon": 0.0, "lat": 38.900787, "is_disabled": 0, "name": "b3adee440138db8d1a210da998b4dfc1", "fusion_lat": 0.0, "rental_uris": {"ios": "https://dc.lft.to/lastmile_qr_scan", "android": "https://dc.lft.to/lastmile_qr_scan"}, "lon": -76.938587, "type": "electric_scooter"}, {"bike_id": "1a923155fc68392f93c28c7cb350317b", "is_reserved": 0, "fusion_lon": 0.0, "lat": 38.896878, "is_disabled": 0, "name": "1a923155fc68392f93c28c7cb350317b", "fusion_lat": 0.0, "rental_uris": {"ios": "https://dc.lft.to/lastmile_qr_scan", "android": "https://dc.lft.to/lastmile_qr_scan"}, "lon": -76.99618633333333, "type": "electric_scooter"}, {"bike_id": "799bc1356276ff8d07deb2ac28d32c39", "is_reserved": 0, "fusion_lon": 0.0, "lat": 38.86013066666667, "is_disabled": 0, "name": "799bc1356276ff8d07deb2ac28d32c39", "fusion_lat": 0.0, "rental_uris": {"ios": "https://dc.lft.to/lastmile_qr_scan", "android": "https://dc.lft.to/lastmile_qr_scan"}, "lon": -77.05771783333333, "type": "electric_bike"}, {"bike_id": "711cdb8883b0da10f217ed26930af9e8", "is_reserved": 0, "fusion_lon": 0.0, "lat": 38.897340666666665, "is_disabled": 0, "name": "711cdb8883b0da10f217ed26930af9e8", "fusion_lat": 0.0, "rental_uris": {"ios": "https://dc.lft.to/lastmile_qr_scan", "android": "https://dc.lft.to/lastmile_qr_scan"}, "lon": -77.05568133333334, "type": "electric_scooter"}, {"bike_id": "46d0c22b91a10d47a9bb19719cbdc010", "is_reserved": 0, "fusion_lon": 0.0, "lat": 38.88848733333333, "is_disabled": 0, "name": "46d0c22b91a10d47a9bb19719cbdc010", "fusion_lat": 0.0, "rental_uris": {"ios": "https://dc.lft.to/lastmile_qr_scan", "android": "https://dc.lft.to/lastmile_qr_scan"}, "lon": -76.92679666666666, "type": "electric_scooter"}, {"bike_id": "03754c153506ec81a53c46568eafa50a", "is_reserved": 0, "fusion_lon": 0.0, "lat": 38.903771, "is_disabled": 0, "name": "03754c153506ec81a53c46568eafa50a", "fusion_lat": 0.0, "rental_uris": {"ios": "https://dc.lft.to/lastmile_qr_scan", "android": "https://dc.lft.to/lastmile_qr_scan"}, "lon": -76.99566533333333, "type": "electric_scooter"}, {"bike_id": "0796e0607682f3db1aedba2cad23b02f", "is_reserved": 0, "fusion_lon": 0.0, "lat": 38.903748666666665, "is_disabled": 0, "name": "0796e0607682f3db1aedba2cad23b02f", "fusion_lat": 0.0, "rental_uris": {"ios": "https://dc.lft.to/lastmile_qr_scan", "android": "https://dc.lft.to/lastmile_qr_scan"}, "lon": -77.04477966666667, "type": "electric_scooter"}, {"bike_id": "083afeea4421f0dbf5f9461f56a204d9", "is_reserved": 0, "fusion_lon": 0.0, "lat": 38.948056666666666, "is_disabled": 0, "name": "083afeea4421f0dbf5f9461f56a204d9", "fusion_lat": 0.0, "rental_uris": {"ios": "https://dc.lft.to/lastmile_qr_scan", "android": "https://dc.lft.to/lastmile_qr_scan"}, "lon": -77.0790515, "type": "electric_scooter"}, {"bike_id": "4d2f84502bce61b6da6f60e072e89625", "is_reserved": 0, "fusion_lon": 0.0, "lat": 38.905305, "is_disabled": 0, "name": "4d2f84502bce61b6da6f60e072e89625", "fusion_lat": 0.0, "rental_uris": {"ios": "https://dc.lft.to/lastmile_qr_scan", "android": "https://dc.lft.to/lastmile_qr_scan"}, "lon": -77.05115766666667, "type": "electric_scooter"}, {"bike_id": "73fe0431dcb22511b933917ed54fc23d", "is_reserved": 0, "fusion_lon": 0.0, "lat": 38.93900566666667, "is_disabled": 0, "name": "73fe0431dcb22511b933917ed54fc23d", "fusion_lat": 0.0, "rental_uris": {"ios": "https://dc.lft.to/lastmile_qr_scan", "android": "https://dc.lft.to/lastmile_qr_scan"}, "lon": -77.07728083333333, "type": "electric_scooter"}, {"bike_id": "140d0610f8dccaf6c08e71b1dbcee61c", "is_reserved": 0, "fusion_lon": 0.0, "lat": 38.894669666666665, "is_disabled": 0, "name": "140d0610f8dccaf6c08e71b1dbcee61c", "fusion_lat": 0.0, "rental_uris": {"ios": "https://dc.lft.to/lastmile_qr_scan", "android": "https://dc.lft.to/lastmile_qr_scan"}, "lon": -77.03073783333333, "type": "electric_scooter"}, {"bike_id": "8e2f02544eb2243a2fa41f8f0d054d11", "is_reserved": 0, "fusion_lon": 0.0, "lat": 38.906056666666665, "is_disabled": 0, "name": "8e2f02544eb2243a2fa41f8f0d054d11", "fusion_lat": 0.0, "rental_uris": {"ios": "https://dc.lft.to/lastmile_qr_scan", "android": "https://dc.lft.to/lastmile_qr_scan"}, "lon": -77.040424, "type": "electric_scooter"}, {"bike_id": "c6a3e8c243ee911729525d846b5077da", "is_reserved": 0, "fusion_lon": 0.0, "lat": 38.922162166666666, "is_disabled": 0, "name": "c6a3e8c243ee911729525d846b5077da", "fusion_lat": 0.0, "rental_uris": {"ios": "https://dc.lft.to/lastmile_qr_scan", "android": "https://dc.lft.to/lastmile_qr_scan"}, "lon": -77.04261733333334, "type": "electric_scooter"}, {"bike_id": "7fae1fc0920e46bddf4cfd1c0b4527a3", "is_reserved": 0, "fusion_lon": 0.0, "lat": 38.933784833333334, "is_disabled": 0, "name": "7fae1fc0920e46bddf4cfd1c0b4527a3", "fusion_lat": 0.0, "rental_uris": {"ios": "https://dc.lft.to/lastmile_qr_scan", "android": "https://dc.lft.to/lastmile_qr_scan"}, "lon": -77.03468866666667, "type": "electric_scooter"}, {"bike_id": "24879b6885c833b687f0f219989ef145", "is_reserved": 0, "fusion_lon": 0.0, "lat": 38.948367166666664, "is_disabled": 0, "name": "24879b6885c833b687f0f219989ef145", "fusion_lat": 0.0, "rental_uris": {"ios": "https://dc.lft.to/lastmile_qr_scan", "android": "https://dc.lft.to/lastmile_qr_scan"}, "lon": -77.03899833333334, "type": "electric_bike"}, {"bike_id": "2b22124ee5b09d9fc035c4fb2ea3dae3", "is_reserved": 0, "fusion_lon": 0.0, "lat": 38.91726, "is_disabled": 0, "name": "2b22124ee5b09d9fc035c4fb2ea3dae3", "fusion_lat": 0.0, "rental_uris": {"ios": "https://dc.lft.to/lastmile_qr_scan", "android": "https://dc.lft.to/lastmile_qr_scan"}, "lon": -77.0683935, "type": "electric_scooter"}, {"bike_id": "33cde64ee8ad8143656ee673ec4b95c1", "is_reserved": 0, "fusion_lon": 0.0, "lat": 38.90086, "is_disabled": 0, "name": "33cde64ee8ad8143656ee673ec4b95c1", "fusion_lat": 0.0, "rental_uris": {"ios": "https://dc.lft.to/lastmile_qr_scan", "android": "https://dc.lft.to/lastmile_qr_scan"}, "lon": -76.938609, "type": "electric_scooter"}, {"bike_id": "ac7b75773dae0f3f57f7927910467961", "is_reserved": 0, "fusion_lon": 0.0, "lat": 38.929726, "is_disabled": 0, "name": "ac7b75773dae0f3f57f7927910467961", "fusion_lat": 0.0, "rental_uris": {"ios": "https://dc.lft.to/lastmile_qr_scan", "android": "https://dc.lft.to/lastmile_qr_scan"}, "lon": -77.00525116666667, "type": "electric_scooter"}, {"bike_id": "9948cf96a189219f0719489e32b0cdd1", "is_reserved": 0, "fusion_lon": 0.0, "lat": 38.918088, "is_disabled": 0, "name": "9948cf96a189219f0719489e32b0cdd1", "fusion_lat": 0.0, "rental_uris": {"ios": "https://dc.lft.to/lastmile_qr_scan", "android": "https://dc.lft.to/lastmile_qr_scan"}, "lon": -77.0355925, "type": "electric_scooter"}, {"bike_id": "ce9bc4afd652b668b2d4fd64d276a910", "is_reserved": 0, "fusion_lon": 0.0, "lat": 38.927729, "is_disabled": 0, "name": "ce9bc4afd652b668b2d4fd64d276a910", "fusion_lat": 0.0, "rental_uris": {"ios": "https://dc.lft.to/lastmile_qr_scan", "android": "https://dc.lft.to/lastmile_qr_scan"}, "lon": -77.02775766666667, "type": "electric_scooter"}, {"bike_id": "b4a1ae21dd7424ea43b54615eccc18f8", "is_reserved": 0, "fusion_lon": 0.0, "lat": 38.92483083333333, "is_disabled": 0, "name": "b4a1ae21dd7424ea43b54615eccc18f8", "fusion_lat": 0.0, "rental_uris": {"ios": "https://dc.lft.to/lastmile_qr_scan", "android": "https://dc.lft.to/lastmile_qr_scan"}, "lon": -77.0520625, "type": "electric_scooter"}, {"bike_id": "76728aa455d20f7ee7ac7295fd7db981", "is_reserved": 0, "fusion_lon": 0.0, "lat": 38.931707833333334, "is_disabled": 0, "name": "76728aa455d20f7ee7ac7295fd7db981", "fusion_lat": 0.0, "rental_uris": {"ios": "https://dc.lft.to/lastmile_qr_scan", "android": "https://dc.lft.to/lastmile_qr_scan"}, "lon": -77.05646283333333, "type": "electric_scooter"}, {"bike_id": "280c4eaf4c2eeb41a1848d81a6b55832", "is_reserved": 0, "fusion_lon": 0.0, "lat": 38.899850666666666, "is_disabled": 0, "name": "280c4eaf4c2eeb41a1848d81a6b55832", "fusion_lat": 0.0, "rental_uris": {"ios": "https://dc.lft.to/lastmile_qr_scan", "android": "https://dc.lft.to/lastmile_qr_scan"}, "lon": -77.01551883333333, "type": "electric_scooter"}, {"bike_id": "ce95a687ba34d01f9af862b7f2c7a64c", "is_reserved": 0, "fusion_lon": 0.0, "lat": 38.909453, "is_disabled": 0, "name": "ce95a687ba34d01f9af862b7f2c7a64c", "fusion_lat": 0.0, "rental_uris": {"ios": "https://dc.lft.to/lastmile_qr_scan", "android": "https://dc.lft.to/lastmile_qr_scan"}, "lon": -77.03842966666667, "type": "electric_scooter"}, {"bike_id": "93eb8418f44fede620d80475112d32da", "is_reserved": 0, "fusion_lon": 0.0, "lat": 38.899594666666665, "is_disabled": 0, "name": "93eb8418f44fede620d80475112d32da", "fusion_lat": 0.0, "rental_uris": {"ios": "https://dc.lft.to/lastmile_qr_scan", "android": "https://dc.lft.to/lastmile_qr_scan"}, "lon": -76.92621466666667, "type": "electric_scooter"}, {"bike_id": "5dcc3c0dbf5ea717f105b491c333f5de", "is_reserved": 0, "fusion_lon": 0.0, "lat": 38.887750833333335, "is_disabled": 0, "name": "5dcc3c0dbf5ea717f105b491c333f5de", "fusion_lat": 0.0, "rental_uris": {"ios": "https://dc.lft.to/lastmile_qr_scan", "android": "https://dc.lft.to/lastmile_qr_scan"}, "lon": -76.93260833333333, "type": "electric_scooter"}, {"bike_id": "c620ca488efacb9d30eff312e3d7bed2", "is_reserved": 0, "fusion_lon": 0.0, "lat": 38.896678333333334, "is_disabled": 0, "name": "c620ca488efacb9d30eff312e3d7bed2", "fusion_lat": 0.0, "rental_uris": {"ios": "https://dc.lft.to/lastmile_qr_scan", "android": "https://dc.lft.to/lastmile_qr_scan"}, "lon": -77.02605166666666, "type": "electric_scooter"}, {"bike_id": "4a2a5c00684b4a09cf27205e00b27614", "is_reserved": 0, "fusion_lon": 0.0, "lat": 38.90269966666666, "is_disabled": 0, "name": "4a2a5c00684b4a09cf27205e00b27614", "fusion_lat": 0.0, "rental_uris": {"ios": "https://dc.lft.to/lastmile_qr_scan", "android": "https://dc.lft.to/lastmile_qr_scan"}, "lon": -77.03853733333334, "type": "electric_scooter"}, {"bike_id": "f3dc33a0da14b825dc4c66b3e5ce3366", "is_reserved": 0, "fusion_lon": 0.0, "lat": 38.89840916666667, "is_disabled": 0, "name": "f3dc33a0da14b825dc4c66b3e5ce3366", "fusion_lat": 0.0, "rental_uris": {"ios": "https://dc.lft.to/lastmile_qr_scan", "android": "https://dc.lft.to/lastmile_qr_scan"}, "lon": -76.995073, "type": "electric_scooter"}, {"bike_id": "3e25c8f7dd1c2f28d2507d457acea96b", "is_reserved": 0, "fusion_lon": 0.0, "lat": 38.90971483333333, "is_disabled": 0, "name": "3e25c8f7dd1c2f28d2507d457acea96b", "fusion_lat": 0.0, "rental_uris": {"ios": "https://dc.lft.to/lastmile_qr_scan", "android": "https://dc.lft.to/lastmile_qr_scan"}, "lon": -77.05263816666667, "type": "electric_scooter"}, {"bike_id": "1ce6ad947fe1615d29fded2131b90af2", "is_reserved": 0, "fusion_lon": 0.0, "lat": 38.890965666666666, "is_disabled": 0, "name": "1ce6ad947fe1615d29fded2131b90af2", "fusion_lat": 0.0, "rental_uris": {"ios": "https://dc.lft.to/lastmile_qr_scan", "android": "https://dc.lft.to/lastmile_qr_scan"}, "lon": -76.94390016666667, "type": "electric_scooter"}, {"bike_id": "c224b5dfc26e6724cf50a8999c45fdeb", "is_reserved": 0, "fusion_lon": 0.0, "lat": 38.923593, "is_disabled": 0, "name": "c224b5dfc26e6724cf50a8999c45fdeb", "fusion_lat": 0.0, "rental_uris": {"ios": "https://dc.lft.to/lastmile_qr_scan", "android": "https://dc.lft.to/lastmile_qr_scan"}, "lon": -77.01920216666667, "type": "electric_scooter"}, {"bike_id": "701d334931ac74eaf9a1439b8bf4d149", "is_reserved": 0, "fusion_lon": 0.0, "lat": 38.865197, "is_disabled": 0, "name": "701d334931ac74eaf9a1439b8bf4d149", "fusion_lat": 0.0, "rental_uris": {"ios": "https://dc.lft.to/lastmile_qr_scan", "android": "https://dc.lft.to/lastmile_qr_scan"}, "lon": -76.990324, "type": "electric_scooter"}, {"bike_id": "19f9645579e5203390f28d6352e46c96", "is_reserved": 0, "fusion_lon": 0.0, "lat": 38.9408755, "is_disabled": 0, "name": "19f9645579e5203390f28d6352e46c96", "fusion_lat": 0.0, "rental_uris": {"ios": "https://dc.lft.to/lastmile_qr_scan", "android": "https://dc.lft.to/lastmile_qr_scan"}, "lon": -77.0618485, "type": "electric_scooter"}, {"bike_id": "c3c3ef3d807617ad6f58a6a79c16898f", "is_reserved": 0, "fusion_lon": 0.0, "lat": 38.916162166666666, "is_disabled": 0, "name": "c3c3ef3d807617ad6f58a6a79c16898f", "fusion_lat": 0.0, "rental_uris": {"ios": "https://dc.lft.to/lastmile_qr_scan", "android": "https://dc.lft.to/lastmile_qr_scan"}, "lon": -77.04579183333334, "type": "electric_scooter"}, {"bike_id": "37da7708f7e570ec93e6221622f7a97f", "is_reserved": 0, "fusion_lon": 0.0, "lat": 38.89727633333333, "is_disabled": 0, "name": "37da7708f7e570ec93e6221622f7a97f", "fusion_lat": 0.0, "rental_uris": {"ios": "https://dc.lft.to/lastmile_qr_scan", "android": "https://dc.lft.to/lastmile_qr_scan"}, "lon": -77.0461005, "type": "electric_scooter"}, {"bike_id": "27e4c2a4a1fc32cd0696f5994b70733a", "is_reserved": 0, "fusion_lon": 0.0, "lat": 38.8927035, "is_disabled": 0, "name": "27e4c2a4a1fc32cd0696f5994b70733a", "fusion_lat": 0.0, "rental_uris": {"ios": "https://dc.lft.to/lastmile_qr_scan", "android": "https://dc.lft.to/lastmile_qr_scan"}, "lon": -77.02587416666667, "type": "electric_scooter"}, {"bike_id": "974ac7185f0b94562e24f37f427192b3", "is_reserved": 0, "fusion_lon": 0.0, "lat": 38.86961933333333, "is_disabled": 0, "name": "974ac7185f0b94562e24f37f427192b3", "fusion_lat": 0.0, "rental_uris": {"ios": "https://dc.lft.to/lastmile_qr_scan", "android": "https://dc.lft.to/lastmile_qr_scan"}, "lon": -77.0137345, "type": "electric_scooter"}, {"bike_id": "91374a8fe3aa649bff1ad7cea80b1bf5", "is_reserved": 0, "fusion_lon": 0.0, "lat": 38.95881216666667, "is_disabled": 0, "name": "91374a8fe3aa649bff1ad7cea80b1bf5", "fusion_lat": 0.0, "rental_uris": {"ios": "https://dc.lft.to/lastmile_qr_scan", "android": "https://dc.lft.to/lastmile_qr_scan"}, "lon": -76.97053433333333, "type": "electric_bike"}, {"bike_id": "58fbec19d8e2dbf20426eab85b7c25ee", "is_reserved": 0, "fusion_lon": 0.0, "lat": 38.9201475, "is_disabled": 0, "name": "58fbec19d8e2dbf20426eab85b7c25ee", "fusion_lat": 0.0, "rental_uris": {"ios": "https://dc.lft.to/lastmile_qr_scan", "android": "https://dc.lft.to/lastmile_qr_scan"}, "lon": -77.03775666666667, "type": "electric_scooter"}, {"bike_id": "cd48def85b7020404bb4702084f9a6b4", "is_reserved": 0, "fusion_lon": 0.0, "lat": 38.90735083333333, "is_disabled": 0, "name": "cd48def85b7020404bb4702084f9a6b4", "fusion_lat": 0.0, "rental_uris": {"ios": "https://dc.lft.to/lastmile_qr_scan", "android": "https://dc.lft.to/lastmile_qr_scan"}, "lon": -77.01134416666666, "type": "electric_scooter"}, {"bike_id": "bd53a088b6321902d307acfc799a10aa", "is_reserved": 0, "fusion_lon": 0.0, "lat": 38.897187833333334, "is_disabled": 0, "name": "bd53a088b6321902d307acfc799a10aa", "fusion_lat": 0.0, "rental_uris": {"ios": "https://dc.lft.to/lastmile_qr_scan", "android": "https://dc.lft.to/lastmile_qr_scan"}, "lon": -77.027232, "type": "electric_scooter"}, {"bike_id": "d6a2c2b723d1e38362148ead79cf7e15", "is_reserved": 0, "fusion_lon": 0.0, "lat": 38.917294, "is_disabled": 0, "name": "d6a2c2b723d1e38362148ead79cf7e15", "fusion_lat": 0.0, "rental_uris": {"ios": "https://dc.lft.to/lastmile_qr_scan", "android": "https://dc.lft.to/lastmile_qr_scan"}, "lon": -77.02295683333334, "type": "electric_scooter"}, {"bike_id": "2e293613e077ffb3d295f7a5270328f2", "is_reserved": 0, "fusion_lon": 0.0, "lat": 38.93962416666667, "is_disabled": 0, "name": "2e293613e077ffb3d295f7a5270328f2", "fusion_lat": 0.0, "rental_uris": {"ios": "https://dc.lft.to/lastmile_qr_scan", "android": "https://dc.lft.to/lastmile_qr_scan"}, "lon": -77.36088233333334, "type": "electric_bike"}, {"bike_id": "58ea8d9949e0bc201b49176b48e0eed7", "is_reserved": 0, "fusion_lon": 0.0, "lat": 38.90270116666667, "is_disabled": 0, "name": "58ea8d9949e0bc201b49176b48e0eed7", "fusion_lat": 0.0, "rental_uris": {"ios": "https://dc.lft.to/lastmile_qr_scan", "android": "https://dc.lft.to/lastmile_qr_scan"}, "lon": -77.03852633333334, "type": "electric_scooter"}, {"bike_id": "39e1c5d6fb5663cda6744fd83424093c", "is_reserved": 0, "fusion_lon": 0.0, "lat": 38.9243565, "is_disabled": 0, "name": "39e1c5d6fb5663cda6744fd83424093c", "fusion_lat": 0.0, "rental_uris": {"ios": "https://dc.lft.to/lastmile_qr_scan", "android": "https://dc.lft.to/lastmile_qr_scan"}, "lon": -77.0424705, "type": "electric_scooter"}, {"bike_id": "497e7ae1f079380547a57c26b5d74606", "is_reserved": 0, "fusion_lon": 0.0, "lat": 38.9104945, "is_disabled": 0, "name": "497e7ae1f079380547a57c26b5d74606", "fusion_lat": 0.0, "rental_uris": {"ios": "https://dc.lft.to/lastmile_qr_scan", "android": "https://dc.lft.to/lastmile_qr_scan"}, "lon": -77.0363845, "type": "electric_scooter"}, {"bike_id": "7b39b835c778c03f3f113a8889580f39", "is_reserved": 0, "fusion_lon": 0.0, "lat": 38.9593, "is_disabled": 0, "name": "7b39b835c778c03f3f113a8889580f39", "fusion_lat": 0.0, "rental_uris": {"ios": "https://dc.lft.to/lastmile_qr_scan", "android": "https://dc.lft.to/lastmile_qr_scan"}, "lon": -76.92535833333334, "type": "electric_bike"}, {"bike_id": "df3021d1107369254468d5f8882f0013", "is_reserved": 0, "fusion_lon": 0.0, "lat": 38.8870715, "is_disabled": 0, "name": "df3021d1107369254468d5f8882f0013", "fusion_lat": 0.0, "rental_uris": {"ios": "https://dc.lft.to/lastmile_qr_scan", "android": "https://dc.lft.to/lastmile_qr_scan"}, "lon": -77.00151216666667, "type": "electric_scooter"}, {"bike_id": "2681ef46bad1076d8c65bb1cdc02e23c", "is_reserved": 0, "fusion_lon": 0.0, "lat": 38.91881933333333, "is_disabled": 0, "name": "2681ef46bad1076d8c65bb1cdc02e23c", "fusion_lat": 0.0, "rental_uris": {"ios": "https://dc.lft.to/lastmile_qr_scan", "android": "https://dc.lft.to/lastmile_qr_scan"}, "lon": -77.04463133333333, "type": "electric_scooter"}, {"bike_id": "28513bbaa1538bf5f18b5d2e1de3c580", "is_reserved": 0, "fusion_lon": 0.0, "lat": 38.88001883333333, "is_disabled": 0, "name": "28513bbaa1538bf5f18b5d2e1de3c580", "fusion_lat": 0.0, "rental_uris": {"ios": "https://dc.lft.to/lastmile_qr_scan", "android": "https://dc.lft.to/lastmile_qr_scan"}, "lon": -76.98539083333333, "type": "electric_scooter"}, {"bike_id": "1fa3e2980e6c0e4b7211aef902dfbe40", "is_reserved": 0, "fusion_lon": 0.0, "lat": 38.895578, "is_disabled": 0, "name": "1fa3e2980e6c0e4b7211aef902dfbe40", "fusion_lat": 0.0, "rental_uris": {"ios": "https://dc.lft.to/lastmile_qr_scan", "android": "https://dc.lft.to/lastmile_qr_scan"}, "lon": -77.02573633333333, "type": "electric_scooter"}, {"bike_id": "a1972fafd24f5584b124bf0318df39c3", "is_reserved": 0, "fusion_lon": 0.0, "lat": 39.0305065, "is_disabled": 0, "name": "a1972fafd24f5584b124bf0318df39c3", "fusion_lat": 0.0, "rental_uris": {"ios": "https://dc.lft.to/lastmile_qr_scan", "android": "https://dc.lft.to/lastmile_qr_scan"}, "lon": -77.09478783333333, "type": "electric_bike"}, {"bike_id": "b72a832f41dc11e9d506c04dce14a9cc", "is_reserved": 0, "fusion_lon": 0.0, "lat": 38.89826866666667, "is_disabled": 0, "name": "b72a832f41dc11e9d506c04dce14a9cc", "fusion_lat": 0.0, "rental_uris": {"ios": "https://dc.lft.to/lastmile_qr_scan", "android": "https://dc.lft.to/lastmile_qr_scan"}, "lon": -76.98030066666666, "type": "electric_scooter"}, {"bike_id": "9c063c548a4d7e2c992993b38b53b4d0", "is_reserved": 0, "fusion_lon": 0.0, "lat": 38.9334965, "is_disabled": 0, "name": "9c063c548a4d7e2c992993b38b53b4d0", "fusion_lat": 0.0, "rental_uris": {"ios": "https://dc.lft.to/lastmile_qr_scan", "android": "https://dc.lft.to/lastmile_qr_scan"}, "lon": -77.057105, "type": "electric_scooter"}, {"bike_id": "123ae14046c3774366b3c32786eeb25e", "is_reserved": 0, "fusion_lon": 0.0, "lat": 38.902764166666664, "is_disabled": 0, "name": "123ae14046c3774366b3c32786eeb25e", "fusion_lat": 0.0, "rental_uris": {"ios": "https://dc.lft.to/lastmile_qr_scan", "android": "https://dc.lft.to/lastmile_qr_scan"}, "lon": -77.03330083333333, "type": "electric_scooter"}, {"bike_id": "a892a8d9888928506b0eba922dbb3ecb", "is_reserved": 0, "fusion_lon": 0.0, "lat": 38.90830116666667, "is_disabled": 0, "name": "a892a8d9888928506b0eba922dbb3ecb", "fusion_lat": 0.0, "rental_uris": {"ios": "https://dc.lft.to/lastmile_qr_scan", "android": "https://dc.lft.to/lastmile_qr_scan"}, "lon": -76.99699733333334, "type": "electric_scooter"}, {"bike_id": "064dd55fe94e08e7d109a454cef2f59c", "is_reserved": 0, "fusion_lon": 0.0, "lat": 38.94425783333333, "is_disabled": 0, "name": "064dd55fe94e08e7d109a454cef2f59c", "fusion_lat": 0.0, "rental_uris": {"ios": "https://dc.lft.to/lastmile_qr_scan", "android": "https://dc.lft.to/lastmile_qr_scan"}, "lon": -77.06272083333333, "type": "electric_scooter"}, {"bike_id": "89246c8c7e2d5194d6770ca2a7452a96", "is_reserved": 0, "fusion_lon": 0.0, "lat": 38.8971215, "is_disabled": 0, "name": "89246c8c7e2d5194d6770ca2a7452a96", "fusion_lat": 0.0, "rental_uris": {"ios": "https://dc.lft.to/lastmile_qr_scan", "android": "https://dc.lft.to/lastmile_qr_scan"}, "lon": -77.026816, "type": "electric_scooter"}, {"bike_id": "a0a11bf7ce8f2fc500d17ef33d905a68", "is_reserved": 0, "fusion_lon": 0.0, "lat": 38.90014216666667, "is_disabled": 0, "name": "a0a11bf7ce8f2fc500d17ef33d905a68", "fusion_lat": 0.0, "rental_uris": {"ios": "https://dc.lft.to/lastmile_qr_scan", "android": "https://dc.lft.to/lastmile_qr_scan"}, "lon": -76.99764566666667, "type": "electric_scooter"}, {"bike_id": "5148f55f6368274f8a983746b9f4d5f4", "is_reserved": 0, "fusion_lon": 0.0, "lat": 38.891998, "is_disabled": 0, "name": "5148f55f6368274f8a983746b9f4d5f4", "fusion_lat": 0.0, "rental_uris": {"ios": "https://dc.lft.to/lastmile_qr_scan", "android": "https://dc.lft.to/lastmile_qr_scan"}, "lon": -77.01552, "type": "electric_scooter"}, {"bike_id": "416d29f6b6b315b55ac63340783e92a7", "is_reserved": 0, "fusion_lon": 0.0, "lat": 38.919225, "is_disabled": 0, "name": "416d29f6b6b315b55ac63340783e92a7", "fusion_lat": 0.0, "rental_uris": {"ios": "https://dc.lft.to/lastmile_qr_scan", "android": "https://dc.lft.to/lastmile_qr_scan"}, "lon": -77.00061983333333, "type": "electric_scooter"}, {"bike_id": "72a42a923d305e7b211674e4f550b4df", "is_reserved": 0, "fusion_lon": 0.0, "lat": 38.9076765, "is_disabled": 0, "name": "72a42a923d305e7b211674e4f550b4df", "fusion_lat": 0.0, "rental_uris": {"ios": "https://dc.lft.to/lastmile_qr_scan", "android": "https://dc.lft.to/lastmile_qr_scan"}, "lon": -77.03199766666667, "type": "electric_scooter"}, {"bike_id": "d9424b71fae5c5876203aff70620a807", "is_reserved": 0, "fusion_lon": 0.0, "lat": 39.003803166666664, "is_disabled": 0, "name": "d9424b71fae5c5876203aff70620a807", "fusion_lat": 0.0, "rental_uris": {"ios": "https://dc.lft.to/lastmile_qr_scan", "android": "https://dc.lft.to/lastmile_qr_scan"}, "lon": -77.01290233333333, "type": "electric_bike"}, {"bike_id": "99285b37915daf2ac8cd4668263f3c15", "is_reserved": 0, "fusion_lon": 0.0, "lat": 38.956504333333335, "is_disabled": 0, "name": "99285b37915daf2ac8cd4668263f3c15", "fusion_lat": 0.0, "rental_uris": {"ios": "https://dc.lft.to/lastmile_qr_scan", "android": "https://dc.lft.to/lastmile_qr_scan"}, "lon": -77.03287133333333, "type": "electric_scooter"}, {"bike_id": "7c6a04c5391ccd630803bfcd19a1abf5", "is_reserved": 0, "fusion_lon": 0.0, "lat": 38.90072, "is_disabled": 0, "name": "7c6a04c5391ccd630803bfcd19a1abf5", "fusion_lat": 0.0, "rental_uris": {"ios": "https://dc.lft.to/lastmile_qr_scan", "android": "https://dc.lft.to/lastmile_qr_scan"}, "lon": -77.00747916666667, "type": "electric_scooter"}, {"bike_id": "5c280d601079838d1b485b2b8f11a59c", "is_reserved": 0, "fusion_lon": 0.0, "lat": 38.916102, "is_disabled": 0, "name": "5c280d601079838d1b485b2b8f11a59c", "fusion_lat": 0.0, "rental_uris": {"ios": "https://dc.lft.to/lastmile_qr_scan", "android": "https://dc.lft.to/lastmile_qr_scan"}, "lon": -77.02385333333334, "type": "electric_scooter"}, {"bike_id": "7ca50f67bdb9f7844da87154362fcbe7", "is_reserved": 0, "fusion_lon": 0.0, "lat": 38.88492866666667, "is_disabled": 0, "name": "7ca50f67bdb9f7844da87154362fcbe7", "fusion_lat": 0.0, "rental_uris": {"ios": "https://dc.lft.to/lastmile_qr_scan", "android": "https://dc.lft.to/lastmile_qr_scan"}, "lon": -77.00722216666666, "type": "electric_scooter"}, {"bike_id": "90402e16b3fd448572671f3759f895d0", "is_reserved": 0, "fusion_lon": 0.0, "lat": 38.90081133333333, "is_disabled": 0, "name": "90402e16b3fd448572671f3759f895d0", "fusion_lat": 0.0, "rental_uris": {"ios": "https://dc.lft.to/lastmile_qr_scan", "android": "https://dc.lft.to/lastmile_qr_scan"}, "lon": -77.04832333333333, "type": "electric_scooter"}, {"bike_id": "d6e8b57e160e630e26c5b919008c15c6", "is_reserved": 0, "fusion_lon": 0.0, "lat": 38.82786383333333, "is_disabled": 0, "name": "d6e8b57e160e630e26c5b919008c15c6", "fusion_lat": 0.0, "rental_uris": {"ios": "https://dc.lft.to/lastmile_qr_scan", "android": "https://dc.lft.to/lastmile_qr_scan"}, "lon": -77.00921783333334, "type": "electric_bike"}, {"bike_id": "b162d79bfb5c0e944647fa8515ab5314", "is_reserved": 0, "fusion_lon": 0.0, "lat": 38.902414, "is_disabled": 0, "name": "b162d79bfb5c0e944647fa8515ab5314", "fusion_lat": 0.0, "rental_uris": {"ios": "https://dc.lft.to/lastmile_qr_scan", "android": "https://dc.lft.to/lastmile_qr_scan"}, "lon": -77.03437366666667, "type": "electric_scooter"}, {"bike_id": "538ef584ebe17bd0953e0455214b0d9c", "is_reserved": 0, "fusion_lon": 0.0, "lat": 38.9119675, "is_disabled": 0, "name": "538ef584ebe17bd0953e0455214b0d9c", "fusion_lat": 0.0, "rental_uris": {"ios": "https://dc.lft.to/lastmile_qr_scan", "android": "https://dc.lft.to/lastmile_qr_scan"}, "lon": -77.00726033333333, "type": "electric_scooter"}, {"bike_id": "201172bee8b784b1092f01bae0f8e2ad", "is_reserved": 0, "fusion_lon": 0.0, "lat": 38.87884066666667, "is_disabled": 0, "name": "201172bee8b784b1092f01bae0f8e2ad", "fusion_lat": 0.0, "rental_uris": {"ios": "https://dc.lft.to/lastmile_qr_scan", "android": "https://dc.lft.to/lastmile_qr_scan"}, "lon": -76.99143816666667, "type": "electric_scooter"}, {"bike_id": "3de16913e3b28d277cd2b151a18f4114", "is_reserved": 0, "fusion_lon": 0.0, "lat": 38.88220033333333, "is_disabled": 0, "name": "3de16913e3b28d277cd2b151a18f4114", "fusion_lat": 0.0, "rental_uris": {"ios": "https://dc.lft.to/lastmile_qr_scan", "android": "https://dc.lft.to/lastmile_qr_scan"}, "lon": -76.94175816666667, "type": "electric_scooter"}, {"bike_id": "3038c73604f83c903194a2d8b99aa618", "is_reserved": 0, "fusion_lon": 0.0, "lat": 38.9032735, "is_disabled": 0, "name": "3038c73604f83c903194a2d8b99aa618", "fusion_lat": 0.0, "rental_uris": {"ios": "https://dc.lft.to/lastmile_qr_scan", "android": "https://dc.lft.to/lastmile_qr_scan"}, "lon": -77.03443283333333, "type": "electric_scooter"}, {"bike_id": "1a48e5495d6b8d09787feb4942b21e42", "is_reserved": 0, "fusion_lon": 0.0, "lat": 38.931234333333336, "is_disabled": 0, "name": "1a48e5495d6b8d09787feb4942b21e42", "fusion_lat": 0.0, "rental_uris": {"ios": "https://dc.lft.to/lastmile_qr_scan", "android": "https://dc.lft.to/lastmile_qr_scan"}, "lon": -77.0381585, "type": "electric_scooter"}, {"bike_id": "33e7db244743cab98dbdcf96b1a2cee5", "is_reserved": 0, "fusion_lon": 0.0, "lat": 38.9033645, "is_disabled": 0, "name": "33e7db244743cab98dbdcf96b1a2cee5", "fusion_lat": 0.0, "rental_uris": {"ios": "https://dc.lft.to/lastmile_qr_scan", "android": "https://dc.lft.to/lastmile_qr_scan"}, "lon": -76.98972433333333, "type": "electric_scooter"}, {"bike_id": "bd2c9f6b4c9d8f0e159a8973faffedd8", "is_reserved": 0, "fusion_lon": 0.0, "lat": 38.915825, "is_disabled": 0, "name": "bd2c9f6b4c9d8f0e159a8973faffedd8", "fusion_lat": 0.0, "rental_uris": {"ios": "https://dc.lft.to/lastmile_qr_scan", "android": "https://dc.lft.to/lastmile_qr_scan"}, "lon": -77.04679816666666, "type": "electric_scooter"}, {"bike_id": "27d230d0d06b84bb6e8ace3e5ad7230e", "is_reserved": 0, "fusion_lon": 0.0, "lat": 38.902825166666666, "is_disabled": 0, "name": "27d230d0d06b84bb6e8ace3e5ad7230e", "fusion_lat": 0.0, "rental_uris": {"ios": "https://dc.lft.to/lastmile_qr_scan", "android": "https://dc.lft.to/lastmile_qr_scan"}, "lon": -77.036469, "type": "electric_scooter"}, {"bike_id": "584a475e38283d6a17bbf08d469e1bec", "is_reserved": 0, "fusion_lon": 0.0, "lat": 38.916942166666665, "is_disabled": 0, "name": "584a475e38283d6a17bbf08d469e1bec", "fusion_lat": 0.0, "rental_uris": {"ios": "https://dc.lft.to/lastmile_qr_scan", "android": "https://dc.lft.to/lastmile_qr_scan"}, "lon": -77.02900383333333, "type": "electric_scooter"}, {"bike_id": "b29aa1df3282a42a57ad80d46ffbe3f6", "is_reserved": 0, "fusion_lon": 0.0, "lat": 38.91286516666667, "is_disabled": 0, "name": "b29aa1df3282a42a57ad80d46ffbe3f6", "fusion_lat": 0.0, "rental_uris": {"ios": "https://dc.lft.to/lastmile_qr_scan", "android": "https://dc.lft.to/lastmile_qr_scan"}, "lon": -77.03857083333334, "type": "electric_scooter"}, {"bike_id": "9e8b7134ea2e5e4fca9ea29416dd0739", "is_reserved": 0, "fusion_lon": 0.0, "lat": 38.90128033333333, "is_disabled": 0, "name": "9e8b7134ea2e5e4fca9ea29416dd0739", "fusion_lat": 0.0, "rental_uris": {"ios": "https://dc.lft.to/lastmile_qr_scan", "android": "https://dc.lft.to/lastmile_qr_scan"}, "lon": -77.01616833333334, "type": "electric_scooter"}, {"bike_id": "8977762610b35fe312abdce057950c18", "is_reserved": 0, "fusion_lon": 0.0, "lat": 38.93695116666667, "is_disabled": 0, "name": "8977762610b35fe312abdce057950c18", "fusion_lat": 0.0, "rental_uris": {"ios": "https://dc.lft.to/lastmile_qr_scan", "android": "https://dc.lft.to/lastmile_qr_scan"}, "lon": -77.06020483333333, "type": "electric_scooter"}, {"bike_id": "bbc9834e8496ebf707c97a6f401ebae1", "is_reserved": 0, "fusion_lon": 0.0, "lat": 38.89805833333333, "is_disabled": 0, "name": "bbc9834e8496ebf707c97a6f401ebae1", "fusion_lat": 0.0, "rental_uris": {"ios": "https://dc.lft.to/lastmile_qr_scan", "android": "https://dc.lft.to/lastmile_qr_scan"}, "lon": -77.02934116666667, "type": "electric_scooter"}, {"bike_id": "8c31da1cfcb8763ba4cd139526a1faf8", "is_reserved": 0, "fusion_lon": 0.0, "lat": 38.89659566666667, "is_disabled": 0, "name": "8c31da1cfcb8763ba4cd139526a1faf8", "fusion_lat": 0.0, "rental_uris": {"ios": "https://dc.lft.to/lastmile_qr_scan", "android": "https://dc.lft.to/lastmile_qr_scan"}, "lon": -77.02970366666666, "type": "electric_scooter"}, {"bike_id": "ab01a18bc638886b36d1b5b1e6f5bb1e", "is_reserved": 0, "fusion_lon": 0.0, "lat": 38.85533483333333, "is_disabled": 0, "name": "ab01a18bc638886b36d1b5b1e6f5bb1e", "fusion_lat": 0.0, "rental_uris": {"ios": "https://dc.lft.to/lastmile_qr_scan", "android": "https://dc.lft.to/lastmile_qr_scan"}, "lon": -77.11328233333333, "type": "electric_bike"}, {"bike_id": "f49ae368396a5488abd5bc9d7965eb1f", "is_reserved": 0, "fusion_lon": 0.0, "lat": 38.8831685, "is_disabled": 0, "name": "f49ae368396a5488abd5bc9d7965eb1f", "fusion_lat": 0.0, "rental_uris": {"ios": "https://dc.lft.to/lastmile_qr_scan", "android": "https://dc.lft.to/lastmile_qr_scan"}, "lon": -77.01758116666667, "type": "electric_scooter"}, {"bike_id": "6f7d6097d787cc593e2a8c6c1b8bda9c", "is_reserved": 0, "fusion_lon": 0.0, "lat": 38.917209666666665, "is_disabled": 0, "name": "6f7d6097d787cc593e2a8c6c1b8bda9c", "fusion_lat": 0.0, "rental_uris": {"ios": "https://dc.lft.to/lastmile_qr_scan", "android": "https://dc.lft.to/lastmile_qr_scan"}, "lon": -77.03104533333334, "type": "electric_scooter"}, {"bike_id": "d74947fa7ce87671010fc9ab9f9a9f77", "is_reserved": 0, "fusion_lon": 0.0, "lat": 38.925695833333336, "is_disabled": 0, "name": "d74947fa7ce87671010fc9ab9f9a9f77", "fusion_lat": 0.0, "rental_uris": {"ios": "https://dc.lft.to/lastmile_qr_scan", "android": "https://dc.lft.to/lastmile_qr_scan"}, "lon": -77.03898866666667, "type": "electric_scooter"}, {"bike_id": "19295b53bfa6162813fbb27a144152ff", "is_reserved": 0, "fusion_lon": 0.0, "lat": 38.925709499999996, "is_disabled": 0, "name": "19295b53bfa6162813fbb27a144152ff", "fusion_lat": 0.0, "rental_uris": {"ios": "https://dc.lft.to/lastmile_qr_scan", "android": "https://dc.lft.to/lastmile_qr_scan"}, "lon": -77.039211, "type": "electric_scooter"}, {"bike_id": "bc2bd1a3c738e8539546cf28a113e20e", "is_reserved": 0, "fusion_lon": 0.0, "lat": 38.90434183333333, "is_disabled": 0, "name": "bc2bd1a3c738e8539546cf28a113e20e", "fusion_lat": 0.0, "rental_uris": {"ios": "https://dc.lft.to/lastmile_qr_scan", "android": "https://dc.lft.to/lastmile_qr_scan"}, "lon": -77.02884066666667, "type": "electric_scooter"}, {"bike_id": "7dee4136f10fe02e5af091f478cf98b5", "is_reserved": 0, "fusion_lon": 0.0, "lat": 38.91594166666667, "is_disabled": 0, "name": "7dee4136f10fe02e5af091f478cf98b5", "fusion_lat": 0.0, "rental_uris": {"ios": "https://dc.lft.to/lastmile_qr_scan", "android": "https://dc.lft.to/lastmile_qr_scan"}, "lon": -76.98376983333333, "type": "electric_scooter"}, {"bike_id": "066460d468b25c8b9e20945937401132", "is_reserved": 0, "fusion_lon": 0.0, "lat": 38.8783945, "is_disabled": 0, "name": "066460d468b25c8b9e20945937401132", "fusion_lat": 0.0, "rental_uris": {"ios": "https://dc.lft.to/lastmile_qr_scan", "android": "https://dc.lft.to/lastmile_qr_scan"}, "lon": -76.99032233333334, "type": "electric_scooter"}, {"bike_id": "f22a22c045b3781e00f3039626256cc9", "is_reserved": 0, "fusion_lon": 0.0, "lat": 38.941740333333335, "is_disabled": 0, "name": "f22a22c045b3781e00f3039626256cc9", "fusion_lat": 0.0, "rental_uris": {"ios": "https://dc.lft.to/lastmile_qr_scan", "android": "https://dc.lft.to/lastmile_qr_scan"}, "lon": -77.02500916666666, "type": "electric_scooter"}, {"bike_id": "7502b1567b36585ac95193dd804ceb09", "is_reserved": 0, "fusion_lon": 0.0, "lat": 38.842943, "is_disabled": 0, "name": "7502b1567b36585ac95193dd804ceb09", "fusion_lat": 0.0, "rental_uris": {"ios": "https://dc.lft.to/lastmile_qr_scan", "android": "https://dc.lft.to/lastmile_qr_scan"}, "lon": -76.999451, "type": "electric_scooter"}, {"bike_id": "0d317ff544a95cdb97abf416a76a0c03", "is_reserved": 0, "fusion_lon": 0.0, "lat": 38.876287166666664, "is_disabled": 0, "name": "0d317ff544a95cdb97abf416a76a0c03", "fusion_lat": 0.0, "rental_uris": {"ios": "https://dc.lft.to/lastmile_qr_scan", "android": "https://dc.lft.to/lastmile_qr_scan"}, "lon": -76.96523633333334, "type": "electric_scooter"}, {"bike_id": "a3d570e0a640aaf860212efb1cb106c5", "is_reserved": 0, "fusion_lon": 0.0, "lat": 38.885053, "is_disabled": 0, "name": "a3d570e0a640aaf860212efb1cb106c5", "fusion_lat": 0.0, "rental_uris": {"ios": "https://dc.lft.to/lastmile_qr_scan", "android": "https://dc.lft.to/lastmile_qr_scan"}, "lon": -77.09688533333333, "type": "electric_bike"}, {"bike_id": "d0b6f6c5959f457c36de38349686179e", "is_reserved": 0, "fusion_lon": 0.0, "lat": 38.9193185, "is_disabled": 0, "name": "d0b6f6c5959f457c36de38349686179e", "fusion_lat": 0.0, "rental_uris": {"ios": "https://dc.lft.to/lastmile_qr_scan", "android": "https://dc.lft.to/lastmile_qr_scan"}, "lon": -77.03179933333334, "type": "electric_scooter"}, {"bike_id": "4d2afadc9c9716e64635e36131dec8b9", "is_reserved": 0, "fusion_lon": 0.0, "lat": 38.907773166666665, "is_disabled": 0, "name": "4d2afadc9c9716e64635e36131dec8b9", "fusion_lat": 0.0, "rental_uris": {"ios": "https://dc.lft.to/lastmile_qr_scan", "android": "https://dc.lft.to/lastmile_qr_scan"}, "lon": -77.0692695, "type": "electric_scooter"}, {"bike_id": "0a9aea90d71c1e3d8eed29de82d51588", "is_reserved": 0, "fusion_lon": 0.0, "lat": 38.92261383333334, "is_disabled": 0, "name": "0a9aea90d71c1e3d8eed29de82d51588", "fusion_lat": 0.0, "rental_uris": {"ios": "https://dc.lft.to/lastmile_qr_scan", "android": "https://dc.lft.to/lastmile_qr_scan"}, "lon": -77.01825816666667, "type": "electric_scooter"}, {"bike_id": "915869144e3164ef14180b3268095a5d", "is_reserved": 0, "fusion_lon": 0.0, "lat": 38.90445116666667, "is_disabled": 0, "name": "915869144e3164ef14180b3268095a5d", "fusion_lat": 0.0, "rental_uris": {"ios": "https://dc.lft.to/lastmile_qr_scan", "android": "https://dc.lft.to/lastmile_qr_scan"}, "lon": -76.9962175, "type": "electric_scooter"}, {"bike_id": "5d94667c0aaf160da408c978c5a610d9", "is_reserved": 0, "fusion_lon": 0.0, "lat": 38.916185166666665, "is_disabled": 0, "name": "5d94667c0aaf160da408c978c5a610d9", "fusion_lat": 0.0, "rental_uris": {"ios": "https://dc.lft.to/lastmile_qr_scan", "android": "https://dc.lft.to/lastmile_qr_scan"}, "lon": -77.03172216666667, "type": "electric_scooter"}, {"bike_id": "e59707b2d0f812fd89440f62f0a6521b", "is_reserved": 0, "fusion_lon": 0.0, "lat": 38.90298333333333, "is_disabled": 0, "name": "e59707b2d0f812fd89440f62f0a6521b", "fusion_lat": 0.0, "rental_uris": {"ios": "https://dc.lft.to/lastmile_qr_scan", "android": "https://dc.lft.to/lastmile_qr_scan"}, "lon": -76.998593, "type": "electric_scooter"}, {"bike_id": "c1ce8199608789f6e801a639a5dc757c", "is_reserved": 0, "fusion_lon": 0.0, "lat": 38.86361616666667, "is_disabled": 0, "name": "c1ce8199608789f6e801a639a5dc757c", "fusion_lat": 0.0, "rental_uris": {"ios": "https://dc.lft.to/lastmile_qr_scan", "android": "https://dc.lft.to/lastmile_qr_scan"}, "lon": -76.99071183333334, "type": "electric_scooter"}, {"bike_id": "1ba33222b3dbc5a4554bf713d16dca86", "is_reserved": 0, "fusion_lon": 0.0, "lat": 38.90223133333333, "is_disabled": 0, "name": "1ba33222b3dbc5a4554bf713d16dca86", "fusion_lat": 0.0, "rental_uris": {"ios": "https://dc.lft.to/lastmile_qr_scan", "android": "https://dc.lft.to/lastmile_qr_scan"}, "lon": -77.060628, "type": "electric_scooter"}, {"bike_id": "2be5352fae964e7b022b886e7bf249a7", "is_reserved": 0, "fusion_lon": 0.0, "lat": 38.903597833333336, "is_disabled": 0, "name": "2be5352fae964e7b022b886e7bf249a7", "fusion_lat": 0.0, "rental_uris": {"ios": "https://dc.lft.to/lastmile_qr_scan", "android": "https://dc.lft.to/lastmile_qr_scan"}, "lon": -77.043474, "type": "electric_scooter"}, {"bike_id": "3d0c66fe673a6a2b042811eba23b833e", "is_reserved": 0, "fusion_lon": 0.0, "lat": 38.87999883333333, "is_disabled": 0, "name": "3d0c66fe673a6a2b042811eba23b833e", "fusion_lat": 0.0, "rental_uris": {"ios": "https://dc.lft.to/lastmile_qr_scan", "android": "https://dc.lft.to/lastmile_qr_scan"}, "lon": -76.9950805, "type": "electric_scooter"}, {"bike_id": "51597d4db829e7d44a254a79b2c176ac", "is_reserved": 0, "fusion_lon": 0.0, "lat": 38.86627466666667, "is_disabled": 0, "name": "51597d4db829e7d44a254a79b2c176ac", "fusion_lat": 0.0, "rental_uris": {"ios": "https://dc.lft.to/lastmile_qr_scan", "android": "https://dc.lft.to/lastmile_qr_scan"}, "lon": -76.9871635, "type": "electric_scooter"}, {"bike_id": "75363843981b6982e26e1ec696a462da", "is_reserved": 0, "fusion_lon": 0.0, "lat": 38.92883166666667, "is_disabled": 0, "name": "75363843981b6982e26e1ec696a462da", "fusion_lat": 0.0, "rental_uris": {"ios": "https://dc.lft.to/lastmile_qr_scan", "android": "https://dc.lft.to/lastmile_qr_scan"}, "lon": -77.054497, "type": "electric_scooter"}, {"bike_id": "f1ae2f5e81050c60cd8f50b412792b0f", "is_reserved": 0, "fusion_lon": 0.0, "lat": 38.908065, "is_disabled": 0, "name": "f1ae2f5e81050c60cd8f50b412792b0f", "fusion_lat": 0.0, "rental_uris": {"ios": "https://dc.lft.to/lastmile_qr_scan", "android": "https://dc.lft.to/lastmile_qr_scan"}, "lon": -77.03454616666667, "type": "electric_scooter"},