{"data": {"bikes": [{"rental_uris": {"android": "https://dc.lft.to/lastmile_qr_scan", "ios": "https://dc.lft.to/lastmile_qr_scan"}, "type": "electric_scooter", "lon": -77.033046, "name": "29bc9279faa5c5093d38c9052b00f033", "bike_id": "29bc9279faa5c5093d38c9052b00f033", "fusion_lat": 0.0, "is_reserved": 0, "lat": 38.90868966666667, "fusion_lon": 0.0, "is_disabled": 0}, {"rental_uris": {"android": "https://dc.lft.to/lastmile_qr_scan", "ios": "https://dc.lft.to/lastmile_qr_scan"}, "type": "electric_scooter", "lon": -77.04170133333334, "name": "65995365293de2ff967e299daefcb3a4", "bike_id": "65995365293de2ff967e299daefcb3a4", "fusion_lat": 0.0, "is_reserved": 0, "lat": 38.91973133333333, "fusion_lon": 0.0, "is_disabled": 0}, {"rental_uris": {"android": "https://dc.lft.to/lastmile_qr_scan", "ios": "https://dc.lft.to/lastmile_qr_scan"}, "type": "electric_scooter", "lon": -77.03866083333334, "name": "c58a5d9ca8791f7710996638c99078a9", "bike_id": "c58a5d9ca8791f7710996638c99078a9", "fusion_lat": 0.0, "is_reserved": 0, "lat": 38.914747, "fusion_lon": 0.0, "is_disabled": 0}, {"rental_uris": {"android": "https://dc.lft.to/lastmile_qr_scan", "ios": "https://dc.lft.to/lastmile_qr_scan"}, "type": "electric_bike", "lon": -76.93190683333333, "name": "ed431498feddc2ad2af914aeee8153a6", "bike_id": "ed431498feddc2ad2af914aeee8153a6", "fusion_lat": 0.0, "is_reserved": 0, "lat": 38.8985015, "fusion_lon": 0.0, "is_disabled": 0}, {"rental_uris": {"android": "https://dc.lft.to/lastmile_qr_scan", "ios": "https://dc.lft.to/lastmile_qr_scan"}, "type": "electric_scooter", "lon": -76.991526, "name": "b487ad6b168a70290ea5491c82da155c", "bike_id": "b487ad6b168a70290ea5491c82da155c", "fusion_lat": 0.0, "is_reserved": 0, "lat": 38.87316033333333, "fusion_lon": 0.0, "is_disabled": 0}, {"rental_uris": {"android": "https://dc.lft.to/lastmile_qr_scan", "ios": "https://dc.lft.to/lastmile_qr_scan"}, "type": "electric_scooter", "lon": -77.0378625, "name": "00120799e56610238d8966565bb901da", "bike_id": "00120799e56610238d8966565bb901da", "fusion_lat": 0.0, "is_reserved": 0, "lat": 38.92470616666667, "fusion_lon": 0.0, "is_disabled": 0}, {"rental_uris": {"android": "https://dc.lft.to/lastmile_qr_scan", "ios": "https://dc.lft.to/lastmile_qr_scan"}, "type": "electric_scooter", "lon": -77.0121105, "name": "9537e01be429f6d1650f0c9e600114f0", "bike_id": "9537e01be429f6d1650f0c9e600114f0", "fusion_lat": 0.0, "is_reserved": 0, "lat": 38.91822633333334, "fusion_lon": 0.0, "is_disabled": 0}, {"rental_uris": {"android": "https://dc.lft.to/lastmile_qr_scan", "ios": "https://dc.lft.to/lastmile_qr_scan"}, "type": "electric_scooter", "lon": -76.9740145, "name": "3728e35fb4f1c94e61f45f5e55ac7b5c", "bike_id": "3728e35fb4f1c94e61f45f5e55ac7b5c", "fusion_lat": 0.0, "is_reserved": 0, "lat": 38.8655765, "fusion_lon": 0.0, "is_disabled": 0}, {"rental_uris": {"android": "https://dc.lft.to/lastmile_qr_scan", "ios": "https://dc.lft.to/lastmile_qr_scan"}, "type": "electric_scooter", "lon": -77.02721883333334, "name": "6aeeeca4d5c9a4dda848fe770eff864f", "bike_id": "6aeeeca4d5c9a4dda848fe770eff864f", "fusion_lat": 0.0, "is_reserved": 0, "lat": 38.9344925, "fusion_lon": 0.0, "is_disabled": 0}, {"rental_uris": {"android": "https://dc.lft.to/lastmile_qr_scan", "ios": "https://dc.lft.to/lastmile_qr_scan"}, "type": "electric_scooter", "lon": -77.00277733333333, "name": "3dbdb38c00e7cbbb957cc2bb2833805c", "bike_id": "3dbdb38c00e7cbbb957cc2bb2833805c", "fusion_lat": 0.0, "is_reserved": 0, "lat": 38.93917016666666, "fusion_lon": 0.0, "is_disabled": 0}, {"rental_uris": {"android": "https://dc.lft.to/lastmile_qr_scan", "ios": "https://dc.lft.to/lastmile_qr_scan"}, "type": "electric_scooter", "lon": -76.98680633333333, "name": "23dc5627813889584bc719d31c054a60", "bike_id": "23dc5627813889584bc719d31c054a60", "fusion_lat": 0.0, "is_reserved": 0, "lat": 38.900289666666666, "fusion_lon": 0.0, "is_disabled": 0}, {"rental_uris": {"android": "https://dc.lft.to/lastmile_qr_scan", "ios": "https://dc.lft.to/lastmile_qr_scan"}, "type": "electric_scooter", "lon": -77.0334765, "name": "545b609b15c462c842732cab257d27c5", "bike_id": "545b609b15c462c842732cab257d27c5", "fusion_lat": 0.0, "is_reserved": 0, "lat": 38.92050283333333, "fusion_lon": 0.0, "is_disabled": 0}, {"rental_uris": {"android": "https://dc.lft.to/lastmile_qr_scan", "ios": "https://dc.lft.to/lastmile_qr_scan"}, "type": "electric_scooter", "lon": -76.9374145, "name": "bde14185247ced7bb5a464bee17fc661", "bike_id": "bde14185247ced7bb5a464bee17fc661", "fusion_lat": 0.0, "is_reserved": 0, "lat": 38.890166666666666, "fusion_lon": 0.0, "is_disabled": 0}, {"rental_uris": {"android": "https://dc.lft.to/lastmile_qr_scan", "ios": "https://dc.lft.to/lastmile_qr_scan"}, "type": "electric_scooter", "lon": -76.99075966666666, "name": "48930ca99d0e7011f17b9136096b67d5", "bike_id": "48930ca99d0e7011f17b9136096b67d5", "fusion_lat": 0.0, "is_reserved": 0, "lat": 38.900416, "fusion_lon": 0.0, "is_disabled": 0}, {"rental_uris": {"android": "https://dc.lft.to/lastmile_qr_scan", "ios": "https://dc.lft.to/lastmile_qr_scan"}, "type": "electric_scooter", "lon": -77.04236916666666, "name": "19de85b9a8f1d518b8dff40cc7d36673", "bike_id": "19de85b9a8f1d518b8dff40cc7d36673", "fusion_lat": 0.0, "is_reserved": 0, "lat": 38.9179005, "fusion_lon": 0.0, "is_disabled": 0}, {"rental_uris": {"android": "https://dc.lft.to/lastmile_qr_scan", "ios": "https://dc.lft.to/lastmile_qr_scan"}, "type": "electric_bike", "lon": -77.130915, "name": "8fc35fe93c6de559919b21204f0b2657", "bike_id": "8fc35fe93c6de559919b21204f0b2657", "fusion_lat": 0.0, "is_reserved": 0, "lat": 38.86165, "fusion_lon": 0.0, "is_disabled": 0}, {"rental_uris": {"android": "https://dc.lft.to/lastmile_qr_scan", "ios": "https://dc.lft.to/lastmile_qr_scan"}, "type": "electric_scooter", "lon": -76.99292266666667, "name": "b85c28ef8cc2ff2799af129f6b6a0d56", "bike_id": "b85c28ef8cc2ff2799af129f6b6a0d56", "fusion_lat": 0.0, "is_reserved": 0, "lat": 38.857647666666665, "fusion_lon": 0.0, "is_disabled": 0}, {"rental_uris": {"android": "https://dc.lft.to/lastmile_qr_scan", "ios": "https://dc.lft.to/lastmile_qr_scan"}, "type": "electric_scooter", "lon": -77.024349, "name": "96b5ae7dfdf6089e5d5cfc795562eae4", "bike_id": "96b5ae7dfdf6089e5d5cfc795562eae4", "fusion_lat": 0.0, "is_reserved": 0, "lat": 38.93288833333333, "fusion_lon": 0.0, "is_disabled": 0}, {"rental_uris": {"android": "https://dc.lft.to/lastmile_qr_scan", "ios": "https://dc.lft.to/lastmile_qr_scan"}, "type": "electric_scooter", "lon": -77.0327725, "name": "8a749e15d1ba56034adce90cec3492af", "bike_id": "8a749e15d1ba56034adce90cec3492af", "fusion_lat": 0.0, "is_reserved": 0, "lat": 38.896308, "fusion_lon": 0.0, "is_disabled": 0}, {"rental_uris": {"android": "https://dc.lft.to/lastmile_qr_scan", "ios": "https://dc.lft.to/lastmile_qr_scan"}, "type": "electric_scooter", "lon": -77.01494766666667, "name": "df1788b99020408cabc761eb50b2a589", "bike_id": "df1788b99020408cabc761eb50b2a589", "fusion_lat": 0.0, "is_reserved": 0, "lat": 38.91770233333333, "fusion_lon": 0.0, "is_disabled": 0}, {"rental_uris": {"android": "https://dc.lft.to/lastmile_qr_scan", "ios": "https://dc.lft.to/lastmile_qr_scan"}, "type": "electric_scooter", "lon": -77.00712, "name": "d9c2e1f7d1c4ec6416fad3ac592f4b08", "bike_id": "d9c2e1f7d1c4ec6416fad3ac592f4b08", "fusion_lat": 0.0, "is_reserved": 0, "lat": 38.8767, "fusion_lon": 0.0, "is_disabled": 0}, {"rental_uris": {"android": "https://dc.lft.to/lastmile_qr_scan", "ios": "https://dc.lft.to/lastmile_qr_scan"}, "type": "electric_scooter", "lon": -77.00594033333333, "name": "70f44440dde7c38fcaf21d212d51c956", "bike_id": "70f44440dde7c38fcaf21d212d51c956", "fusion_lat": 0.0, "is_reserved": 0, "lat": 38.90554, "fusion_lon": 0.0, "is_disabled": 0}, {"rental_uris": {"android": "https://dc.lft.to/lastmile_qr_scan", "ios": "https://dc.lft.to/lastmile_qr_scan"}, "type": "electric_scooter", "lon": -77.04251316666667, "name": "0badabd2640357717ce1d3bf1827ca71", "bike_id": "0badabd2640357717ce1d3bf1827ca71", "fusion_lat": 0.0, "is_reserved": 0, "lat": 38.92202733333333, "fusion_lon": 0.0, "is_disabled": 0}, {"rental_uris": {"android": "https://dc.lft.to/lastmile_qr_scan", "ios": "https://dc.lft.to/lastmile_qr_scan"}, "type": "electric_scooter", "lon": -77.0314995, "name": "5e0286b7d128f2db6f6861b621c474d8", "bike_id": "5e0286b7d128f2db6f6861b621c474d8", "fusion_lat": 0.0, "is_reserved": 0, "lat": 38.897259166666664, "fusion_lon": 0.0, "is_disabled": 0}, {"rental_uris": {"android": "https://dc.lft.to/lastmile_qr_scan", "ios": "https://dc.lft.to/lastmile_qr_scan"}, "type": "electric_scooter", "lon": -77.0486515, "name": "c39781616b5922436edf793ecdd93390", "bike_id": "c39781616b5922436edf793ecdd93390", "fusion_lat": 0.0, "is_reserved": 0, "lat": 38.90980966666667, "fusion_lon": 0.0, "is_disabled": 0}, {"rental_uris": {"android": "https://dc.lft.to/lastmile_qr_scan", "ios": "https://dc.lft.to/lastmile_qr_scan"}, "type": "electric_scooter", "lon": -77.01577766666666, "name": "6174f79b94228dc7f4f377124bc78c51", "bike_id": "6174f79b94228dc7f4f377124bc78c51", "fusion_lat": 0.0, "is_reserved": 0, "lat": 38.916758, "fusion_lon": 0.0, "is_disabled": 0}, {"rental_uris": {"android": "https://dc.lft.to/lastmile_qr_scan", "ios": "https://dc.lft.to/lastmile_qr_scan"}, "type": "electric_scooter", "lon": -77.03208333333333, "name": "87b48da653ddb4dfdab62c39a60a2047", "bike_id": "87b48da653ddb4dfdab62c39a60a2047", "fusion_lat": 0.0, "is_reserved": 0, "lat": 38.91979233333333, "fusion_lon": 0.0, "is_disabled": 0}, {"rental_uris": {"android": "https://dc.lft.to/lastmile_qr_scan", "ios": "https://dc.lft.to/lastmile_qr_scan"}, "type": "electric_scooter", "lon": -77.03141966666666, "name": "7b3e57f698e3c43f283592c4c96404bb", "bike_id": "7b3e57f698e3c43f283592c4c96404bb", "fusion_lat": 0.0, "is_reserved": 0, "lat": 38.897206, "fusion_lon": 0.0, "is_disabled": 0}, {"rental_uris": {"android": "https://dc.lft.to/lastmile_qr_scan", "ios": "https://dc.lft.to/lastmile_qr_scan"}, "type": "electric_scooter", "lon": -76.991979, "name": "ee1f983641d06c54b17aa307476c7a28", "bike_id": "ee1f983641d06c54b17aa307476c7a28", "fusion_lat": 0.0, "is_reserved": 0, "lat": 38.89519933333333, "fusion_lon": 0.0, "is_disabled": 0}, {"rental_uris": {"android": "https://dc.lft.to/lastmile_qr_scan", "ios": "https://dc.lft.to/lastmile_qr_scan"}, "type": "electric_scooter", "lon": -77.00757483333334, "name": "5689047b902f933db79fe813b4718308", "bike_id": "5689047b902f933db79fe813b4718308", "fusion_lat": 0.0, "is_reserved": 0, "lat": 38.9005075, "fusion_lon": 0.0, "is_disabled": 0}, {"rental_uris": {"android": "https://dc.lft.to/lastmile_qr_scan", "ios": "https://dc.lft.to/lastmile_qr_scan"}, "type": "electric_bike", "lon": -77.001921, "name": "dae562f20ee1337bbbd9fa3c9fa56962", "bike_id": "dae562f20ee1337bbbd9fa3c9fa56962", "fusion_lat": 0.0, "is_reserved": 0, "lat": 38.89743983333334, "fusion_lon": 0.0, "is_disabled": 0}, {"rental_uris": {"android": "https://dc.lft.to/lastmile_qr_scan", "ios": "https://dc.lft.to/lastmile_qr_scan"}, "type": "electric_scooter", "lon": -77.031768, "name": "4a27d659c294adfda493706475ee1e53", "bike_id": "4a27d659c294adfda493706475ee1e53", "fusion_lat": 0.0, "is_reserved": 0, "lat": 38.886602333333336, "fusion_lon": 0.0, "is_disabled": 0}, {"rental_uris": {"android": "https://dc.lft.to/lastmile_qr_scan", "ios": "https://dc.lft.to/lastmile_qr_scan"}, "type": "electric_scooter", "lon": -77.01558483333334, "name": "89778d1055d8e160cdddbe9e95bb904e", "bike_id": "89778d1055d8e160cdddbe9e95bb904e", "fusion_lat": 0.0, "is_reserved": 0, "lat": 38.9136705, "fusion_lon": 0.0, "is_disabled": 0}, {"rental_uris": {"android": "https://dc.lft.to/lastmile_qr_scan", "ios": "https://dc.lft.to/lastmile_qr_scan"}, "type": "electric_scooter", "lon": -77.052864, "name": "2c854751882ee42c55334ab851214bfe", "bike_id": "2c854751882ee42c55334ab851214bfe", "fusion_lat": 0.0, "is_reserved": 0, "lat": 38.9106945, "fusion_lon": 0.0, "is_disabled": 0}, {"rental_uris": {"android": "https://dc.lft.to/lastmile_qr_scan", "ios": "https://dc.lft.to/lastmile_qr_scan"}, "type": "electric_scooter", "lon": -77.02174116666667, "name": "034f7fadb9c259e466a1c293a5854add", "bike_id": "034f7fadb9c259e466a1c293a5854add", "fusion_lat": 0.0, "is_reserved": 0, "lat": 38.94311233333333, "fusion_lon": 0.0, "is_disabled": 0}, {"rental_uris": {"android": "https://dc.lft.to/lastmile_qr_scan", "ios": "https://dc.lft.to/lastmile_qr_scan"}, "type": "electric_scooter", "lon": -76.99545733333333, "name": "7172c3b469370c38ce88739cf87752b3", "bike_id": "7172c3b469370c38ce88739cf87752b3", "fusion_lat": 0.0, "is_reserved": 0, "lat": 38.8842175, "fusion_lon": 0.0, "is_disabled": 0}, {"rental_uris": {"android": "https://dc.lft.to/lastmile_qr_scan", "ios": "https://dc.lft.to/lastmile_qr_scan"}, "type": "electric_bike", "lon": -77.09516816666667, "name": "cd0c3e686399e3392be0812fdce4dc9b", "bike_id": "cd0c3e686399e3392be0812fdce4dc9b", "fusion_lat": 0.0, "is_reserved": 0, "lat": 38.838095833333334, "fusion_lon": 0.0, "is_disabled": 0}, {"rental_uris": {"android": "https://dc.lft.to/lastmile_qr_scan", "ios": "https://dc.lft.to/lastmile_qr_scan"}, "type": "electric_scooter", "lon": -77.0457885, "name": "6e23b1d49fb9ddc2d8034380900e7939", "bike_id": "6e23b1d49fb9ddc2d8034380900e7939", "fusion_lat": 0.0, "is_reserved": 0, "lat": 38.92133583333333, "fusion_lon": 0.0, "is_disabled": 0}, {"rental_uris": {"android": "https://dc.lft.to/lastmile_qr_scan", "ios": "https://dc.lft.to/lastmile_qr_scan"}, "type": "electric_scooter", "lon": -77.04212833333334, "name": "21911c4cd71e7f231ff61ca153603966", "bike_id": "21911c4cd71e7f231ff61ca153603966", "fusion_lat": 0.0, "is_reserved": 0, "lat": 38.921291333333336, "fusion_lon": 0.0, "is_disabled": 0}, {"rental_uris": {"android": "https://dc.lft.to/lastmile_qr_scan", "ios": "https://dc.lft.to/lastmile_qr_scan"}, "type": "electric_scooter", "lon": -77.03448466666667, "name": "2668a4511fda57f8a7018678dfec1780", "bike_id": "2668a4511fda57f8a7018678dfec1780", "fusion_lat": 0.0, "is_reserved": 0, "lat": 38.90717633333333, "fusion_lon": 0.0, "is_disabled": 0}, {"rental_uris": {"android": "https://dc.lft.to/lastmile_qr_scan", "ios": "https://dc.lft.to/lastmile_qr_scan"}, "type": "electric_scooter", "lon": -76.98449383333333, "name": "0736f1a29ed458d32fa40188dcc193bd", "bike_id": "0736f1a29ed458d32fa40188dcc193bd", "fusion_lat": 0.0, "is_reserved": 0, "lat": 38.8801, "fusion_lon": 0.0, "is_disabled": 0}, {"rental_uris": {"android": "https://dc.lft.to/lastmile_qr_scan", "ios": "https://dc.lft.to/lastmile_qr_scan"}, "type": "electric_bike", "lon": -76.981668, "name": "ea1a586928b731867737f8882a833f1c", "bike_id": "ea1a586928b731867737f8882a833f1c", "fusion_lat": 0.0, "is_reserved": 0, "lat": 38.959591833333334, "fusion_lon": 0.0, "is_disabled": 0}, {"rental_uris": {"android": "https://dc.lft.to/lastmile_qr_scan", "ios": "https://dc.lft.to/lastmile_qr_scan"}, "type": "electric_scooter", "lon": -77.00002983333333, "name": "719b54331905edd8d118d314ddf3c555", "bike_id": "719b54331905edd8d118d314ddf3c555", "fusion_lat": 0.0, "is_reserved": 0, "lat": 38.900264, "fusion_lon": 0.0, "is_disabled": 0}, {"rental_uris": {"android": "https://dc.lft.to/lastmile_qr_scan", "ios": "https://dc.lft.to/lastmile_qr_scan"}, "type": "electric_scooter", "lon": -77.02510083333334, "name": "bc94a6bff6509a34036f03149730b3ce", "bike_id": "bc94a6bff6509a34036f03149730b3ce", "fusion_lat": 0.0, "is_reserved": 0, "lat": 38.9417495, "fusion_lon": 0.0, "is_disabled": 0}, {"rental_uris": {"android": "https://dc.lft.to/lastmile_qr_scan", "ios": "https://dc.lft.to/lastmile_qr_scan"}, "type": "electric_scooter", "lon": -77.0363325, "name": "63999db2204daf276874770b79fb6395", "bike_id": "63999db2204daf276874770b79fb6395", "fusion_lat": 0.0, "is_reserved": 0, "lat": 38.936699, "fusion_lon": 0.0, "is_disabled": 0}, {"rental_uris": {"android": "https://dc.lft.to/lastmile_qr_scan", "ios": "https://dc.lft.to/lastmile_qr_scan"}, "type": "electric_scooter", "lon": -77.01869816666667, "name": "955f2ecdd316f515528a5d96253f436e", "bike_id": "955f2ecdd316f515528a5d96253f436e", "fusion_lat": 0.0, "is_reserved": 0, "lat": 38.948972499999996, "fusion_lon": 0.0, "is_disabled": 0}, {"rental_uris": {"android": "https://dc.lft.to/lastmile_qr_scan", "ios": "https://dc.lft.to/lastmile_qr_scan"}, "type": "electric_scooter", "lon": -77.009357, "name": "29c1c849cd2c4a4ba7c739d1d1c1640e", "bike_id": "29c1c849cd2c4a4ba7c739d1d1c1640e", "fusion_lat": 0.0, "is_reserved": 0, "lat": 38.87628766666667, "fusion_lon": 0.0, "is_disabled": 0}, {"rental_uris": {"android": "https://dc.lft.to/lastmile_qr_scan", "ios": "https://dc.lft.to/lastmile_qr_scan"}, "type": "electric_scooter", "lon": -77.0019265, "name": "1a77bb2d112063075175f3e8ad9011bb", "bike_id": "1a77bb2d112063075175f3e8ad9011bb", "fusion_lat": 0.0, "is_reserved": 0, "lat": 38.90379183333334, "fusion_lon": 0.0, "is_disabled": 0}, {"rental_uris": {"android": "https://dc.lft.to/lastmile_qr_scan", "ios": "https://dc.lft.to/lastmile_qr_scan"}, "type": "electric_scooter", "lon": -77.02927283333334, "name": "89ae5abc2941f428646faad5938f1d3a", "bike_id": "89ae5abc2941f428646faad5938f1d3a", "fusion_lat": 0.0, "is_reserved": 0, "lat": 38.882203, "fusion_lon": 0.0, "is_disabled": 0}, {"rental_uris": {"android": "https://dc.lft.to/lastmile_qr_scan", "ios": "https://dc.lft.to/lastmile_qr_scan"}, "type": "electric_scooter", "lon": -77.04098383333333, "name": "f39c234cbb3752d7cc85de374df9cf26", "bike_id": "f39c234cbb3752d7cc85de374df9cf26", "fusion_lat": 0.0, "is_reserved": 0, "lat": 38.92079233333333, "fusion_lon": 0.0, "is_disabled": 0}, {"rental_uris": {"android": "https://dc.lft.to/lastmile_qr_scan", "ios": "https://dc.lft.to/lastmile_qr_scan"}, "type": "electric_scooter", "lon": -77.01992416666667, "name": "5eb0f2753df369f0c2477567b6ac6bf0", "bike_id": "5eb0f2753df369f0c2477567b6ac6bf0", "fusion_lat": 0.0, "is_reserved": 0, "lat": 38.913288333333334, "fusion_lon": 0.0, "is_disabled": 0}, {"rental_uris": {"android": "https://dc.lft.to/lastmile_qr_scan", "ios": "https://dc.lft.to/lastmile_qr_scan"}, "type": "electric_scooter", "lon": -77.03146216666667, "name": "d688d5513f37686d090feaf8eef384e4", "bike_id": "d688d5513f37686d090feaf8eef384e4", "fusion_lat": 0.0, "is_reserved": 0, "lat": 38.927215333333336, "fusion_lon": 0.0, "is_disabled": 0}, {"rental_uris": {"android": "https://dc.lft.to/lastmile_qr_scan", "ios": "https://dc.lft.to/lastmile_qr_scan"}, "type": "electric_bike", "lon": -76.979806, "name": "b2c7ad41cc9715143a3b6f8a30e319d8", "bike_id": "b2c7ad41cc9715143a3b6f8a30e319d8", "fusion_lat": 0.0, "is_reserved": 0, "lat": 38.957749166666666, "fusion_lon": 0.0, "is_disabled": 0}, {"rental_uris": {"android": "https://dc.lft.to/lastmile_qr_scan", "ios": "https://dc.lft.to/lastmile_qr_scan"}, "type": "electric_scooter", "lon": -77.02179466666666, "name": "6b0366edaeb62c338916aab155831390", "bike_id": "6b0366edaeb62c338916aab155831390", "fusion_lat": 0.0, "is_reserved": 0, "lat": 38.905999, "fusion_lon": 0.0, "is_disabled": 0}, {"rental_uris": {"android": "https://dc.lft.to/lastmile_qr_scan", "ios": "https://dc.lft.to/lastmile_qr_scan"}, "type": "electric_scooter", "lon": -77.03825166666667, "name": "05f6216528740ad114d2be05b7b2b178", "bike_id": "05f6216528740ad114d2be05b7b2b178", "fusion_lat": 0.0, "is_reserved": 0, "lat": 38.90843866666667, "fusion_lon": 0.0, "is_disabled": 0}, {"rental_uris": {"android": "https://dc.lft.to/lastmile_qr_scan", "ios": "https://dc.lft.to/lastmile_qr_scan"}, "type": "electric_scooter", "lon": -77.03635066666666, "name": "9c6c4b95ccc3ea955f9e11e588ccea0b", "bike_id": "9c6c4b95ccc3ea955f9e11e588ccea0b", "fusion_lat": 0.0, "is_reserved": 0, "lat": 38.92740583333333, "fusion_lon": 0.0, "is_disabled": 0}, {"rental_uris": {"android": "https://dc.lft.to/lastmile_qr_scan", "ios": "https://dc.lft.to/lastmile_qr_scan"}, "type": "electric_scooter", "lon": -77.0071205, "name": "a7c94546fd009d442f6df21202c8cf45", "bike_id": "a7c94546fd009d442f6df21202c8cf45", "fusion_lat": 0.0, "is_reserved": 0, "lat": 38.87647666666667, "fusion_lon": 0.0, "is_disabled": 0}, {"rental_uris": {"android": "https://dc.lft.to/lastmile_qr_scan", "ios": "https://dc.lft.to/lastmile_qr_scan"}, "type": "electric_scooter", "lon": -77.02155133333333, "name": "7e3798fa650e8233fc106d1d9b67d8a2", "bike_id": "7e3798fa650e8233fc106d1d9b67d8a2", "fusion_lat": 0.0, "is_reserved": 0, "lat": 38.89611683333333, "fusion_lon": 0.0, "is_disabled": 0}, {"rental_uris": {"android": "https://dc.lft.to/lastmile_qr_scan", "ios": "https://dc.lft.to/lastmile_qr_scan"}, "type": "electric_scooter", "lon": -76.99827433333333, "name": "31a08e418645773d695cb3b2d82f4f01", "bike_id": "31a08e418645773d695cb3b2d82f4f01", "fusion_lat": 0.0, "is_reserved": 0, "lat": 38.8826615, "fusion_lon": 0.0, "is_disabled": 0}, {"rental_uris": {"android": "https://dc.lft.to/lastmile_qr_scan", "ios": "https://dc.lft.to/lastmile_qr_scan"}, "type": "electric_bike", "lon": -77.19539166666667, "name": "68db1b2ff498882052adf9921302d68b", "bike_id": "68db1b2ff498882052adf9921302d68b", "fusion_lat": 0.0, "is_reserved": 0, "lat": 39.11507233333333, "fusion_lon": 0.0, "is_disabled": 0}, {"rental_uris": {"android": "https://dc.lft.to/lastmile_qr_scan", "ios": "https://dc.lft.to/lastmile_qr_scan"}, "type": "electric_scooter", "lon": -76.9903115, "name": "f3a9a5b971c1cc38779a4e770973d31b", "bike_id": "f3a9a5b971c1cc38779a4e770973d31b", "fusion_lat": 0.0, "is_reserved": 0, "lat": 38.9234415, "fusion_lon": 0.0, "is_disabled": 0}, {"rental_uris": {"android": "https://dc.lft.to/lastmile_qr_scan", "ios": "https://dc.lft.to/lastmile_qr_scan"}, "type": "electric_scooter", "lon": -77.0357605, "name": "6097aa3edd39c796f7abac00861cff10", "bike_id": "6097aa3edd39c796f7abac00861cff10", "fusion_lat": 0.0, "is_reserved": 0, "lat": 38.92868883333333, "fusion_lon": 0.0, "is_disabled": 0}, {"rental_uris": {"android": "https://dc.lft.to/lastmile_qr_scan", "ios": "https://dc.lft.to/lastmile_qr_scan"}, "type": "electric_bike", "lon": -76.96696733333333, "name": "36a5d2041938d188af87d03fcf48e5c6", "bike_id": "36a5d2041938d188af87d03fcf48e5c6", "fusion_lat": 0.0, "is_reserved": 0, "lat": 38.86862166666667, "fusion_lon": 0.0, "is_disabled": 0}, {"rental_uris": {"android": "https://dc.lft.to/lastmile_qr_scan", "ios": "https://dc.lft.to/lastmile_qr_scan"}, "type": "electric_bike", "lon": -77.0119945, "name": "e04b9bc03939ecec8b5c54f3b7561b42", "bike_id": "e04b9bc03939ecec8b5c54f3b7561b42", "fusion_lat": 0.0, "is_reserved": 0, "lat": 38.950724666666666, "fusion_lon": 0.0, "is_disabled": 0}, {"rental_uris": {"android": "https://dc.lft.to/lastmile_qr_scan", "ios": "https://dc.lft.to/lastmile_qr_scan"}, "type": "electric_bike", "lon": -77.049782, "name": "e92110271e2a7d5d4481f11d52347201", "bike_id": "e92110271e2a7d5d4481f11d52347201", "fusion_lat": 0.0, "is_reserved": 0, "lat": 38.99242783333333, "fusion_lon": 0.0, "is_disabled": 0}, {"rental_uris": {"android": "https://dc.lft.to/lastmile_qr_scan", "ios": "https://dc.lft.to/lastmile_qr_scan"}, "type": "electric_scooter", "lon": -77.00916183333334, "name": "d825a2d9f14fe595fe747abdb8c3e12d", "bike_id": "d825a2d9f14fe595fe747abdb8c3e12d", "fusion_lat": 0.0, "is_reserved": 0, "lat": 38.876347833333334, "fusion_lon": 0.0, "is_disabled": 0}, {"rental_uris": {"android": "https://dc.lft.to/lastmile_qr_scan", "ios": "https://dc.lft.to/lastmile_qr_scan"}, "type": "electric_scooter", "lon": -77.04678466666667, "name": "d1c782fa761c37f85e55fe375330cc90", "bike_id": "d1c782fa761c37f85e55fe375330cc90", "fusion_lat": 0.0, "is_reserved": 0, "lat": 38.915715166666665, "fusion_lon": 0.0, "is_disabled": 0}, {"rental_uris": {"android": "https://dc.lft.to/lastmile_qr_scan", "ios": "https://dc.lft.to/lastmile_qr_scan"}, "type": "electric_scooter", "lon": -77.02948483333333, "name": "47c94a7619835bb55940109b814a467e", "bike_id": "47c94a7619835bb55940109b814a467e", "fusion_lat": 0.0, "is_reserved": 0, "lat": 38.90503133333333, "fusion_lon": 0.0, "is_disabled": 0}, {"rental_uris": {"android": "https://dc.lft.to/lastmile_qr_scan", "ios": "https://dc.lft.to/lastmile_qr_scan"}, "type": "electric_scooter", "lon": -76.99019633333333, "name": "de9115b407fa5646bba1b0bedeb81f96", "bike_id": "de9115b407fa5646bba1b0bedeb81f96", "fusion_lat": 0.0, "is_reserved": 0, "lat": 38.85870233333333, "fusion_lon": 0.0, "is_disabled": 0}, {"rental_uris": {"android": "https://dc.lft.to/lastmile_qr_scan", "ios": "https://dc.lft.to/lastmile_qr_scan"}, "type": "electric_scooter", "lon": -77.06106333333334, "name": "fca4add744ad0b0d93775f0a379eef4e", "bike_id": "fca4add744ad0b0d93775f0a379eef4e", "fusion_lat": 0.0, "is_reserved": 0, "lat": 38.943236666666664, "fusion_lon": 0.0, "is_disabled": 0}, {"rental_uris": {"android": "https://dc.lft.to/lastmile_qr_scan", "ios": "https://dc.lft.to/lastmile_qr_scan"}, "type": "electric_scooter", "lon": -77.039076, "name": "097df0975eccfe5c5d277c827058d3cf", "bike_id": "097df0975eccfe5c5d277c827058d3cf", "fusion_lat": 0.0, "is_reserved": 0, "lat": 38.914197, "fusion_lon": 0.0, "is_disabled": 0}, {"rental_uris": {"android": "https://dc.lft.to/lastmile_qr_scan", "ios": "https://dc.lft.to/lastmile_qr_scan"}, "type": "electric_scooter", "lon": -77.00285333333333, "name": "0d1c9ad952f143a9c6490cfc601ad711", "bike_id": "0d1c9ad952f143a9c6490cfc601ad711", "fusion_lat": 0.0, "is_reserved": 0, "lat": 38.91486916666667, "fusion_lon": 0.0, "is_disabled": 0}, {"rental_uris": {"android": "https://dc.lft.to/lastmile_qr_scan", "ios": "https://dc.lft.to/lastmile_qr_scan"}, "type": "electric_bike", "lon": -77.18296483333333, "name": "73ec6219ad164f6f40e1f74bad31a463", "bike_id": "73ec6219ad164f6f40e1f74bad31a463", "fusion_lat": 0.0, "is_reserved": 0, "lat": 38.883402833333335, "fusion_lon": 0.0, "is_disabled": 0}, {"rental_uris": {"android": "https://dc.lft.to/lastmile_qr_scan", "ios": "https://dc.lft.to/lastmile_qr_scan"}, "type": "electric_scooter", "lon": -76.9975895, "name": "db388ecf2e7be47fad8bb06e1141944b", "bike_id": "db388ecf2e7be47fad8bb06e1141944b", "fusion_lat": 0.0, "is_reserved": 0, "lat": 38.92194516666667, "fusion_lon": 0.0, "is_disabled": 0}, {"rental_uris": {"android": "https://dc.lft.to/lastmile_qr_scan", "ios": "https://dc.lft.to/lastmile_qr_scan"}, "type": "electric_scooter", "lon": -77.03997833333334, "name": "3da33522341dd56a443babb30782dcc5", "bike_id": "3da33522341dd56a443babb30782dcc5", "fusion_lat": 0.0, "is_reserved": 0, "lat": 38.91812433333333, "fusion_lon": 0.0, "is_disabled": 0}, {"rental_uris": {"android": "https://dc.lft.to/lastmile_qr_scan", "ios": "https://dc.lft.to/lastmile_qr_scan"}, "type": "electric_scooter", "lon": -77.03218583333333, "name": "4c8431d7d6a065733b25b6f640b5bf11", "bike_id": "4c8431d7d6a065733b25b6f640b5bf11", "fusion_lat": 0.0, "is_reserved": 0, "lat": 38.907570666666665, "fusion_lon": 0.0, "is_disabled": 0}, {"rental_uris": {"android": "https://dc.lft.to/lastmile_qr_scan", "ios": "https://dc.lft.to/lastmile_qr_scan"}, "type": "electric_scooter", "lon": -76.92657833333334, "name": "46de057a4e5bec71cf7e3b50cdd81f64", "bike_id": "46de057a4e5bec71cf7e3b50cdd81f64", "fusion_lat": 0.0, "is_reserved": 0, "lat": 38.89543833333333, "fusion_lon": 0.0, "is_disabled": 0}, {"rental_uris": {"android": "https://dc.lft.to/lastmile_qr_scan", "ios": "https://dc.lft.to/lastmile_qr_scan"}, "type": "electric_scooter", "lon": -77.02308066666667, "name": "cb7b99ca481159f5dc95a9a21a90799c", "bike_id": "cb7b99ca481159f5dc95a9a21a90799c", "fusion_lat": 0.0, "is_reserved": 0, "lat": 38.918142, "fusion_lon": 0.0, "is_disabled": 0}, {"rental_uris": {"android": "https://dc.lft.to/lastmile_qr_scan", "ios": "https://dc.lft.to/lastmile_qr_scan"}, "type": "electric_scooter", "lon": -77.02469783333333, "name": "72190ce6a929151b09f5de87638b5fe9", "bike_id": "72190ce6a929151b09f5de87638b5fe9", "fusion_lat": 0.0, "is_reserved": 0, "lat": 38.93901233333333, "fusion_lon": 0.0, "is_disabled": 0}, {"rental_uris": {"android": "https://dc.lft.to/lastmile_qr_scan", "ios": "https://dc.lft.to/lastmile_qr_scan"}, "type": "electric_scooter", "lon": -77.025485, "name": "1d55265164381273078c00889dae7fd8", "bike_id": "1d55265164381273078c00889dae7fd8", "fusion_lat": 0.0, "is_reserved": 0, "lat": 38.89218133333333, "fusion_lon": 0.0, "is_disabled": 0}, {"rental_uris": {"android": "https://dc.lft.to/lastmile_qr_scan", "ios": "https://dc.lft.to/lastmile_qr_scan"}, "type": "electric_scooter", "lon": -77.0615825, "name": "9c61aa99caf91974c4928e23a17ea7dd", "bike_id": "9c61aa99caf91974c4928e23a17ea7dd", "fusion_lat": 0.0, "is_reserved": 0, "lat": 38.905278, "fusion_lon": 0.0, "is_disabled": 0}, {"rental_uris": {"android": "https://dc.lft.to/lastmile_qr_scan", "ios": "https://dc.lft.to/lastmile_qr_scan"}, "type": "electric_scooter", "lon": -76.98495516666667, "name": "43991059cfd4087e4e503f443b558077", "bike_id": "43991059cfd4087e4e503f443b558077", "fusion_lat": 0.0, "is_reserved": 0, "lat": 38.8604755, "fusion_lon": 0.0, "is_disabled": 0}, {"rental_uris": {"android": "https://dc.lft.to/lastmile_qr_scan", "ios": "https://dc.lft.to/lastmile_qr_scan"}, "type": "electric_bike", "lon": -77.12404266666667, "name": "de7b48a028e113f5be4d1f24a78c4a03", "bike_id": "de7b48a028e113f5be4d1f24a78c4a03", "fusion_lat": 0.0, "is_reserved": 0, "lat": 38.89336616666667, "fusion_lon": 0.0, "is_disabled": 0}, {"rental_uris": {"android": "https://dc.lft.to/lastmile_qr_scan", "ios": "https://dc.lft.to/lastmile_qr_scan"}, "type": "electric_scooter", "lon": -76.96505283333333, "name": "f42061bdb4e9b62a397cbd36153fbeec", "bike_id": "f42061bdb4e9b62a397cbd36153fbeec", "fusion_lat": 0.0, "is_reserved": 0, "lat": 38.876500166666666, "fusion_lon": 0.0, "is_disabled": 0}, {"rental_uris": {"android": "https://dc.lft.to/lastmile_qr_scan", "ios": "https://dc.lft.to/lastmile_qr_scan"}, "type": "electric_scooter", "lon": -77.0270035, "name": "e6a7d8f008cb668ce36460e821676746", "bike_id": "e6a7d8f008cb668ce36460e821676746", "fusion_lat": 0.0, "is_reserved": 0, "lat": 38.899394666666666, "fusion_lon": 0.0, "is_disabled": 0}, {"rental_uris": {"android": "https://dc.lft.to/lastmile_qr_scan", "ios": "https://dc.lft.to/lastmile_qr_scan"}, "type": "electric_scooter", "lon": -77.04965733333333, "name": "27dc585f62a095c55e6af355899f848b", "bike_id": "27dc585f62a095c55e6af355899f848b", "fusion_lat": 0.0, "is_reserved": 0, "lat": 38.900924333333336, "fusion_lon": 0.0, "is_disabled": 0}, {"rental_uris": {"android": "https://dc.lft.to/lastmile_qr_scan", "ios": "https://dc.lft.to/lastmile_qr_scan"}, "type": "electric_scooter", "lon": -77.00795966666666, "name": "d19ab6590087754f2bdcb94f50ba6b47", "bike_id": "d19ab6590087754f2bdcb94f50ba6b47", "fusion_lat": 0.0, "is_reserved": 0, "lat": 38.896853166666666, "fusion_lon": 0.0, "is_disabled": 0}, {"rental_uris": {"android": "https://dc.lft.to/lastmile_qr_scan", "ios": "https://dc.lft.to/lastmile_qr_scan"}, "type": "electric_scooter", "lon": -77.021743, "name": "5dc790360055a99c3a73de12871aaf7c", "bike_id": "5dc790360055a99c3a73de12871aaf7c", "fusion_lat": 0.0, "is_reserved": 0, "lat": 38.910583333333335, "fusion_lon": 0.0, "is_disabled": 0}, {"rental_uris": {"android": "https://dc.lft.to/lastmile_qr_scan", "ios": "https://dc.lft.to/lastmile_qr_scan"}, "type": "electric_scooter", "lon": -77.0501465, "name": "ee2e7ab8615f7831c6d39aa16568b5c0", "bike_id": "ee2e7ab8615f7831c6d39aa16568b5c0", "fusion_lat": 0.0, "is_reserved": 0, "lat": 38.89547833333334, "fusion_lon": 0.0, "is_disabled": 0}, {"rental_uris": {"android": "https://dc.lft.to/lastmile_qr_scan", "ios": "https://dc.lft.to/lastmile_qr_scan"}, "type": "electric_scooter", "lon": -76.996318, "name": "8cd9fbb63312a23d7859dcf842136114", "bike_id": "8cd9fbb63312a23d7859dcf842136114", "fusion_lat": 0.0, "is_reserved": 0, "lat": 38.84621516666667, "fusion_lon": 0.0, "is_disabled": 0}, {"rental_uris": {"android": "https://dc.lft.to/lastmile_qr_scan", "ios": "https://dc.lft.to/lastmile_qr_scan"}, "type": "electric_bike", "lon": -77.02053116666667, "name": "b4e3519dbcf59231288b556009870407", "bike_id": "b4e3519dbcf59231288b556009870407", "fusion_lat": 0.0, "is_reserved": 0, "lat": 38.92842533333334, "fusion_lon": 0.0, "is_disabled": 0}, {"rental_uris": {"android": "https://dc.lft.to/lastmile_qr_scan", "ios": "https://dc.lft.to/lastmile_qr_scan"}, "type": "electric_scooter", "lon": -76.936722, "name": "2518670c69b709221d7397ff12b7ea5d", "bike_id": "2518670c69b709221d7397ff12b7ea5d", "fusion_lat": 0.0, "is_reserved": 0, "lat": 38.88753633333334, "fusion_lon": 0.0, "is_disabled": 0}, {"rental_uris": {"android": "https://dc.lft.to/lastmile_qr_scan", "ios": "https://dc.lft.to/lastmile_qr_scan"}, "type": "electric_scooter", "lon": -77.05882416666667, "name": "56273c0ec8a623e70fa780c8e2b07d23", "bike_id": "56273c0ec8a623e70fa780c8e2b07d23", "fusion_lat": 0.0, "is_reserved": 0, "lat": 38.93639966666667, "fusion_lon": 0.0, "is_disabled": 0}, {"rental_uris": {"android": "https://dc.lft.to/lastmile_qr_scan", "ios": "https://dc.lft.to/lastmile_qr_scan"}, "type": "electric_scooter", "lon": -77.04970216666666, "name": "a5999598bbab6a60ad57f01ba7483d5b", "bike_id": "a5999598bbab6a60ad57f01ba7483d5b", "fusion_lat": 0.0, "is_reserved": 0, "lat": 38.90506283333333, "fusion_lon": 0.0, "is_disabled": 0}, {"rental_uris": {"android": "https://dc.lft.to/lastmile_qr_scan", "ios": "https://dc.lft.to/lastmile_qr_scan"}, "type": "electric_scooter", "lon": -76.9832285, "name": "07f69f1db7df719d48a32f6f9153c3dc", "bike_id": "07f69f1db7df719d48a32f6f9153c3dc", "fusion_lat": 0.0, "is_reserved": 0, "lat": 38.861716, "fusion_lon": 0.0, "is_disabled": 0}, {"rental_uris": {"android": "https://dc.lft.to/lastmile_qr_scan", "ios": "https://dc.lft.to/lastmile_qr_scan"}, "type": "electric_scooter", "lon": -77.03296416666667, "name": "aac985f97b2207f17b03403cf0d32cfb", "bike_id": "aac985f97b2207f17b03403cf0d32cfb", "fusion_lat": 0.0, "is_reserved": 0, "lat": 38.9275055, "fusion_lon": 0.0, "is_disabled": 0}, {"rental_uris": {"android": "https://dc.lft.to/lastmile_qr_scan", "ios": "https://dc.lft.to/lastmile_qr_scan"}, "type": "electric_bike", "lon": -76.96833883333333, "name": "e2e88e8b409a1854efd11ca2e2ecb582", "bike_id": "e2e88e8b409a1854efd11ca2e2ecb582", "fusion_lat": 0.0, "is_reserved": 0, "lat": 38.92446116666667, "fusion_lon": 0.0, "is_disabled": 0}, {"rental_uris": {"android": "https://dc.lft.to/lastmile_qr_scan", "ios": "https://dc.lft.to/lastmile_qr_scan"}, "type": "electric_bike", "lon": -76.92997566666666, "name": "8ef83963e4605be966c2d90e3eea0a7e", "bike_id": "8ef83963e4605be966c2d90e3eea0a7e", "fusion_lat": 0.0, "is_reserved": 0, "lat": 38.887977166666666, "fusion_lon": 0.0, "is_disabled": 0}, {"rental_uris": {"android": "https://dc.lft.to/lastmile_qr_scan", "ios": "https://dc.lft.to/lastmile_qr_scan"}, "type": "electric_scooter", "lon": -77.04734783333333, "name": "63a39c185fff7738fb20419bfb1115d2", "bike_id": "63a39c185fff7738fb20419bfb1115d2", "fusion_lat": 0.0, "is_reserved": 0, "lat": 38.899546, "fusion_lon": 0.0, "is_disabled": 0}, {"rental_uris": {"android": "https://dc.lft.to/lastmile_qr_scan", "ios": "https://dc.lft.to/lastmile_qr_scan"}, "type": "electric_scooter", "lon": -76.9650305, "name": "27ba5c523e363779b6febe7df7892fa4", "bike_id": "27ba5c523e363779b6febe7df7892fa4", "fusion_lat": 0.0, "is_reserved": 0, "lat": 38.87648016666667, "fusion_lon": 0.0, "is_disabled": 0}, {"rental_uris": {"android": "https://dc.lft.to/lastmile_qr_scan", "ios": "https://dc.lft.to/lastmile_qr_scan"}, "type": "electric_bike", "lon": -77.15263083333333, "name": "6529189b64e9959af6f5467d88708adf", "bike_id": "6529189b64e9959af6f5467d88708adf", "fusion_lat": 0.0, "is_reserved": 0, "lat": 39.10565316666667, "fusion_lon": 0.0, "is_disabled": 0}, {"rental_uris": {"android": "https://dc.lft.to/lastmile_qr_scan", "ios": "https://dc.lft.to/lastmile_qr_scan"}, "type": "electric_scooter", "lon": -77.03797583333333, "name": "98d549738c1d66c8627558f2457e47d1", "bike_id": "98d549738c1d66c8627558f2457e47d1", "fusion_lat": 0.0, "is_reserved": 0, "lat": 38.9301815, "fusion_lon": 0.0, "is_disabled": 0}, {"rental_uris": {"android": "https://dc.lft.to/lastmile_qr_scan", "ios": "https://dc.lft.to/lastmile_qr_scan"}, "type": "electric_scooter", "lon": -77.0726695, "name": "1d8d32491b27fb5ec4cca1e96529c41d", "bike_id": "1d8d32491b27fb5ec4cca1e96529c41d", "fusion_lat": 0.0, "is_reserved": 0, "lat": 38.934823, "fusion_lon": 0.0, "is_disabled": 0}, {"rental_uris": {"android": "https://dc.lft.to/lastmile_qr_scan", "ios": "https://dc.lft.to/lastmile_qr_scan"}, "type": "electric_scooter", "lon": -77.02787916666666, "name": "1447fed05d887d88cc9f5cc4e8694b03", "bike_id": "1447fed05d887d88cc9f5cc4e8694b03", "fusion_lat": 0.0, "is_reserved": 0, "lat": 38.89982466666667, "fusion_lon": 0.0, "is_disabled": 0}, {"rental_uris": {"android": "https://dc.lft.to/lastmile_qr_scan", "ios": "https://dc.lft.to/lastmile_qr_scan"}, "type": "electric_scooter", "lon": -77.07069866666667, "name": "6b193992ae759dcbe5301465fe6fa2f4", "bike_id": "6b193992ae759dcbe5301465fe6fa2f4", "fusion_lat": 0.0, "is_reserved": 0, "lat": 38.91930933333333, "fusion_lon": 0.0, "is_disabled": 0}, {"rental_uris": {"android": "https://dc.lft.to/lastmile_qr_scan", "ios": "https://dc.lft.to/lastmile_qr_scan"}, "type": "electric_scooter", "lon": -77.04879016666666, "name": "7c24d784b9281d468db4605ee36cb42b", "bike_id": "7c24d784b9281d468db4605ee36cb42b", "fusion_lat": 0.0, "is_reserved": 0, "lat": 38.903050666666665, "fusion_lon": 0.0, "is_disabled": 0}, {"rental_uris": {"android": "https://dc.lft.to/lastmile_qr_scan", "ios": "https://dc.lft.to/lastmile_qr_scan"}, "type": "electric_scooter", "lon": -76.9946075, "name": "9c3290087c089a5cec8c7ce2c3aa934d", "bike_id": "9c3290087c089a5cec8c7ce2c3aa934d", "fusion_lat": 0.0, "is_reserved": 0, "lat": 38.922870833333334, "fusion_lon": 0.0, "is_disabled": 0}, {"rental_uris": {"android": "https://dc.lft.to/lastmile_qr_scan", "ios": "https://dc.lft.to/lastmile_qr_scan"}, "type": "electric_scooter", "lon": -77.04611166666666, "name": "13a878a27e296fd8adf67820ccdf1d59", "bike_id": "13a878a27e296fd8adf67820ccdf1d59", "fusion_lat": 0.0, "is_reserved": 0, "lat": 38.883823666666665, "fusion_lon": 0.0, "is_disabled": 0}, {"rental_uris": {"android": "https://dc.lft.to/lastmile_qr_scan", "ios": "https://dc.lft.to/lastmile_qr_scan"}, "type": "electric_scooter", "lon": -77.03923666666667, "name": "450a89bfb6151e238e5b20aa73507a43", "bike_id": "450a89bfb6151e238e5b20aa73507a43", "fusion_lat": 0.0, "is_reserved": 0, "lat": 38.908286, "fusion_lon": 0.0, "is_disabled": 0}, {"rental_uris": {"android": "https://dc.lft.to/lastmile_qr_scan", "ios": "https://dc.lft.to/lastmile_qr_scan"}, "type": "electric_scooter", "lon": -77.01352816666666, "name": "23627e63c457156cf9a6dd84a55b723a", "bike_id": "23627e63c457156cf9a6dd84a55b723a", "fusion_lat": 0.0, "is_reserved": 0, "lat": 38.919252, "fusion_lon": 0.0, "is_disabled": 0}, {"rental_uris": {"android": "https://dc.lft.to/lastmile_qr_scan", "ios": "https://dc.lft.to/lastmile_qr_scan"}, "type": "electric_scooter", "lon": -77.05317716666667, "name": "d23f38e5df3e497e094058b675af7522", "bike_id": "d23f38e5df3e497e094058b675af7522", "fusion_lat": 0.0, "is_reserved": 0, "lat": 38.906737666666665, "fusion_lon": 0.0, "is_disabled": 0}, {"rental_uris": {"android": "https://dc.lft.to/lastmile_qr_scan", "ios": "https://dc.lft.to/lastmile_qr_scan"}, "type": "electric_scooter", "lon": -77.037846, "name": "3b0a9c96ebaa96a43995ac4dcbc624bb", "bike_id": "3b0a9c96ebaa96a43995ac4dcbc624bb", "fusion_lat": 0.0, "is_reserved": 0, "lat": 38.933233, "fusion_lon": 0.0, "is_disabled": 0}, {"rental_uris": {"android": "https://dc.lft.to/lastmile_qr_scan", "ios": "https://dc.lft.to/lastmile_qr_scan"}, "type": "electric_scooter", "lon": -77.03284416666666, "name": "4e4c0d228d150f38a9cee8f135c17b6c", "bike_id": "4e4c0d228d150f38a9cee8f135c17b6c", "fusion_lat": 0.0, "is_reserved": 0, "lat": 38.928305, "fusion_lon": 0.0, "is_disabled": 0}, {"rental_uris": {"android": "https://dc.lft.to/lastmile_qr_scan", "ios": "https://dc.lft.to/lastmile_qr_scan"}, "type": "electric_scooter", "lon": -77.02718266666666, "name": "cb75358d6686736d7cad77022f46a09d", "bike_id": "cb75358d6686736d7cad77022f46a09d", "fusion_lat": 0.0, "is_reserved": 0, "lat": 38.951308166666664, "fusion_lon": 0.0, "is_disabled": 0}, {"rental_uris": {"android": "https://dc.lft.to/lastmile_qr_scan", "ios": "https://dc.lft.to/lastmile_qr_scan"}, "type": "electric_scooter", "lon": -76.98765683333333, "name": "5ce13e97549fe6fd96a09fdea75eacad", "bike_id": "5ce13e97549fe6fd96a09fdea75eacad", "fusion_lat": 0.0, "is_reserved": 0, "lat": 38.883147666666666, "fusion_lon": 0.0, "is_disabled": 0}, {"rental_uris": {"android": "https://dc.lft.to/lastmile_qr_scan", "ios": "https://dc.lft.to/lastmile_qr_scan"}, "type": "electric_scooter", "lon": -77.02573166666667, "name": "73d11edb860c1b2b3e6c78793abc9ba6", "bike_id": "73d11edb860c1b2b3e6c78793abc9ba6", "fusion_lat": 0.0, "is_reserved": 0, "lat": 38.925073166666664, "fusion_lon": 0.0, "is_disabled": 0}, {"rental_uris": {"android": "https://dc.lft.to/lastmile_qr_scan", "ios": "https://dc.lft.to/lastmile_qr_scan"}, "type": "electric_bike", "lon": -76.94617966666667, "name": "08ccdebb9b9cb3e73bba808204c4ae6b", "bike_id": "08ccdebb9b9cb3e73bba808204c4ae6b", "fusion_lat": 0.0, "is_reserved": 0, "lat": 38.8323655, "fusion_lon": 0.0, "is_disabled": 0}, {"rental_uris": {"android": "https://dc.lft.to/lastmile_qr_scan", "ios": "https://dc.lft.to/lastmile_qr_scan"}, "type": "electric_scooter", "lon": -77.0529955, "name": "737c8b7f90a3d23a3b8a797615b01355", "bike_id": "737c8b7f90a3d23a3b8a797615b01355", "fusion_lat": 0.0, "is_reserved": 0, "lat": 38.9169675, "fusion_lon": 0.0, "is_disabled": 0}, {"rental_uris": {"android": "https://dc.lft.to/lastmile_qr_scan", "ios": "https://dc.lft.to/lastmile_qr_scan"}, "type": "electric_scooter", "lon": -77.026917, "name": "dc1f78c748d0a91c44474f2b703d20d3", "bike_id": "dc1f78c748d0a91c44474f2b703d20d3", "fusion_lat": 0.0, "is_reserved": 0, "lat": 38.9181775, "fusion_lon": 0.0, "is_disabled": 0}, {"rental_uris": {"android": "https://dc.lft.to/lastmile_qr_scan", "ios": "https://dc.lft.to/lastmile_qr_scan"}, "type": "electric_bike", "lon": -76.99059333333334, "name": "aef24fde2f06fdaabc4854de05e0c0d4", "bike_id": "aef24fde2f06fdaabc4854de05e0c0d4", "fusion_lat": 0.0, "is_reserved": 0, "lat": 38.93688316666667, "fusion_lon": 0.0, "is_disabled": 0}, {"rental_uris": {"android": "https://dc.lft.to/lastmile_qr_scan", "ios": "https://dc.lft.to/lastmile_qr_scan"}, "type": "electric_scooter", "lon": -77.03164683333334, "name": "9f4a5769e7fa68dac3c5802764b7b52d", "bike_id": "9f4a5769e7fa68dac3c5802764b7b52d", "fusion_lat": 0.0, "is_reserved": 0, "lat": 38.91823933333333, "fusion_lon": 0.0, "is_disabled": 0}, {"rental_uris": {"android": "https://dc.lft.to/lastmile_qr_scan", "ios": "https://dc.lft.to/lastmile_qr_scan"}, "type": "electric_scooter", "lon": -77.0176185, "name": "a39f35e7070ea800a76f7f0b6b00c18e", "bike_id": "a39f35e7070ea800a76f7f0b6b00c18e", "fusion_lat": 0.0, "is_reserved": 0, "lat": 38.873511, "fusion_lon": 0.0, "is_disabled": 0}, {"rental_uris": {"android": "https://dc.lft.to/lastmile_qr_scan", "ios": "https://dc.lft.to/lastmile_qr_scan"}, "type": "electric_scooter", "lon": -77.03137066666666, "name": "e33c4d98a62ae22f43a963a585d24ef3", "bike_id": "e33c4d98a62ae22f43a963a585d24ef3", "fusion_lat": 0.0, "is_reserved": 0, "lat": 38.91262416666667, "fusion_lon": 0.0, "is_disabled": 0}, {"rental_uris": {"android": "https://dc.lft.to/lastmile_qr_scan", "ios": "https://dc.lft.to/lastmile_qr_scan"}, "type": "electric_scooter", "lon": -77.04825166666667, "name": "057f315823df51718899696fa0917500", "bike_id": "057f315823df51718899696fa0917500", "fusion_lat": 0.0, "is_reserved": 0, "lat": 38.911437666666664, "fusion_lon": 0.0, "is_disabled": 0}, {"rental_uris": {"android": "https://dc.lft.to/lastmile_qr_scan", "ios": "https://dc.lft.to/lastmile_qr_scan"}, "type": "electric_scooter", "lon": -77.00889916666667, "name": "4afc559e4c2dfee6c69d2300076d65ca", "bike_id": "4afc559e4c2dfee6c69d2300076d65ca", "fusion_lat": 0.0, "is_reserved": 0, "lat": 38.87339633333333, "fusion_lon": 0.0, "is_disabled": 0}, {"rental_uris": {"android": "https://dc.lft.to/lastmile_qr_scan", "ios": "https://dc.lft.to/lastmile_qr_scan"}, "type": "electric_scooter", "lon": -77.0021535, "name": "d9eff574acd89a8f74f03fb114907d1d", "bike_id": "d9eff574acd89a8f74f03fb114907d1d", "fusion_lat": 0.0, "is_reserved": 0, "lat": 38.90292783333334, "fusion_lon": 0.0, "is_disabled": 0}, {"rental_uris": {"android": "https://dc.lft.to/lastmile_qr_scan", "ios": "https://dc.lft.to/lastmile_qr_scan"}, "type": "electric_scooter", "lon": -77.03817666666667, "name": "9736bc07e4576fb77d334331f6da3c6b", "bike_id": "9736bc07e4576fb77d334331f6da3c6b", "fusion_lat": 0.0, "is_reserved": 0, "lat": 38.920654166666665, "fusion_lon": 0.0, "is_disabled": 0}, {"rental_uris": {"android": "https://dc.lft.to/lastmile_qr_scan", "ios": "https://dc.lft.to/lastmile_qr_scan"}, "type": "electric_bike", "lon": -77.016216, "name": "a2e63aff7544106bde4931a5f7ea7b8e", "bike_id": "a2e63aff7544106bde4931a5f7ea7b8e", "fusion_lat": 0.0, "is_reserved": 0, "lat": 38.99088533333333, "fusion_lon": 0.0, "is_disabled": 0}, {"rental_uris": {"android": "https://dc.lft.to/lastmile_qr_scan", "ios": "https://dc.lft.to/lastmile_qr_scan"}, "type": "electric_scooter", "lon": -76.97659, "name": "313c09fcf8ec1c21c09d2b5980a1f994", "bike_id": "313c09fcf8ec1c21c09d2b5980a1f994", "fusion_lat": 0.0, "is_reserved": 0, "lat": 38.898571833333335, "fusion_lon": 0.0, "is_disabled": 0}, {"rental_uris": {"android": "https://dc.lft.to/lastmile_qr_scan", "ios": "https://dc.lft.to/lastmile_qr_scan"}, "type": "electric_scooter", "lon": -76.9191315, "name": "b7fa2f7be39efccffd0822e9342ad08c", "bike_id": "b7fa2f7be39efccffd0822e9342ad08c", "fusion_lat": 0.0, "is_reserved": 0, "lat": 38.890743666666665, "fusion_lon": 0.0, "is_disabled": 0}, {"rental_uris": {"android": "https://dc.lft.to/lastmile_qr_scan", "ios": "https://dc.lft.to/lastmile_qr_scan"}, "type": "electric_scooter", "lon": -77.03340116666666, "name": "58bf4b31c8c967b93553b1717b0e28d3", "bike_id": "58bf4b31c8c967b93553b1717b0e28d3", "fusion_lat": 0.0, "is_reserved": 0, "lat": 38.922576666666664, "fusion_lon": 0.0, "is_disabled": 0}, {"rental_uris": {"android": "https://dc.lft.to/lastmile_qr_scan", "ios": "https://dc.lft.to/lastmile_qr_scan"}, "type": "electric_bike", "lon": -76.96683133333333, "name": "c27328e579ecacc69a8e233d6ed4a5e7", "bike_id": "c27328e579ecacc69a8e233d6ed4a5e7", "fusion_lat": 0.0, "is_reserved": 0, "lat": 38.94563266666667, "fusion_lon": 0.0, "is_disabled": 0}, {"rental_uris": {"android": "https://dc.lft.to/lastmile_qr_scan", "ios": "https://dc.lft.to/lastmile_qr_scan"}, "type": "electric_scooter", "lon": -76.98572, "name": "56f1cd3c8d6dbe7e6619a6c182cac34d", "bike_id": "56f1cd3c8d6dbe7e6619a6c182cac34d", "fusion_lat": 0.0, "is_reserved": 0, "lat": 38.909317333333334, "fusion_lon": 0.0, "is_disabled": 0}, {"rental_uris": {"android": "https://dc.lft.to/lastmile_qr_scan", "ios": "https://dc.lft.to/lastmile_qr_scan"}, "type": "electric_bike", "lon": -77.06970616666666, "name": "caf5acd6464943fb22063c3d8443b4ed", "bike_id": "caf5acd6464943fb22063c3d8443b4ed", "fusion_lat": 0.0, "is_reserved": 0, "lat": 38.9527295, "fusion_lon": 0.0, "is_disabled": 0}, {"rental_uris": {"android": "https://dc.lft.to/lastmile_qr_scan", "ios": "https://dc.lft.to/lastmile_qr_scan"}, "type": "electric_scooter", "lon": -77.03426733333333, "name": "e2fa902a1143db263354378332a0e5ab", "bike_id": "e2fa902a1143db263354378332a0e5ab", "fusion_lat": 0.0, "is_reserved": 0, "lat": 38.90425366666667, "fusion_lon": 0.0, "is_disabled": 0}, {"rental_uris": {"android": "https://dc.lft.to/lastmile_qr_scan", "ios": "https://dc.lft.to/lastmile_qr_scan"}, "type": "electric_scooter", "lon": -77.04502666666667, "name": "8f77220cdaf440d025c069c3e15e11bd", "bike_id": "8f77220cdaf440d025c069c3e15e11bd", "fusion_lat": 0.0, "is_reserved": 0, "lat": 38.892213166666664, "fusion_lon": 0.0, "is_disabled": 0}, {"rental_uris": {"android": "https://dc.lft.to/lastmile_qr_scan", "ios": "https://dc.lft.to/lastmile_qr_scan"}, "type": "electric_scooter", "lon": -76.99657533333334, "name": "46ed5cf85bdaf8f284457c51a1a6a04d", "bike_id": "46ed5cf85bdaf8f284457c51a1a6a04d", "fusion_lat": 0.0, "is_reserved": 0, "lat": 38.898857666666665, "fusion_lon": 0.0, "is_disabled": 0}, {"rental_uris": {"android": "https://dc.lft.to/lastmile_qr_scan", "ios": "https://dc.lft.to/lastmile_qr_scan"}, "type": "electric_scooter", "lon": -77.0268825, "name": "1bd00c340743fe4a47f17c2f6a8823df", "bike_id": "1bd00c340743fe4a47f17c2f6a8823df", "fusion_lat": 0.0, "is_reserved": 0, "lat": 38.91270883333333, "fusion_lon": 0.0, "is_disabled": 0}, {"rental_uris": {"android": "https://dc.lft.to/lastmile_qr_scan", "ios": "https://dc.lft.to/lastmile_qr_scan"}, "type": "electric_scooter", "lon": -77.02384016666667, "name": "5a8a3985aab7edc54841873e62dab2e1", "bike_id": "5a8a3985aab7edc54841873e62dab2e1", "fusion_lat": 0.0, "is_reserved": 0, "lat": 38.8989675, "fusion_lon": 0.0, "is_disabled": 0}, {"rental_uris": {"android": "https://dc.lft.to/lastmile_qr_scan", "ios": "https://dc.lft.to/lastmile_qr_scan"}, "type": "electric_scooter", "lon": -77.028296, "name": "72250c2840ebd80740f5e5c629f586d9", "bike_id": "72250c2840ebd80740f5e5c629f586d9", "fusion_lat": 0.0, "is_reserved": 0, "lat": 38.9508605, "fusion_lon": 0.0, "is_disabled": 0}, {"rental_uris": {"android": "https://dc.lft.to/lastmile_qr_scan", "ios": "https://dc.lft.to/lastmile_qr_scan"}, "type": "electric_scooter", "lon": -77.03198966666666, "name": "157d7f2211dce247abd79d5d79e6fb46", "bike_id": "157d7f2211dce247abd79d5d79e6fb46", "fusion_lat": 0.0, "is_reserved": 0, "lat": 38.9027385, "fusion_lon": 0.0, "is_disabled": 0}, {"rental_uris": {"android": "https://dc.lft.to/lastmile_qr_scan", "ios": "https://dc.lft.to/lastmile_qr_scan"}, "type": "electric_scooter", "lon": -77.02704466666667, "name": "14a576e4446d083a491464015a902f63", "bike_id": "14a576e4446d083a491464015a902f63", "fusion_lat": 0.0, "is_reserved": 0, "lat": 38.949981333333334, "fusion_lon": 0.0, "is_disabled": 0}, {"rental_uris": {"android": "https://dc.lft.to/lastmile_qr_scan", "ios": "https://dc.lft.to/lastmile_qr_scan"}, "type": "electric_scooter", "lon": -77.08216066666667, "name": "e9f9ebb3f51da1c6fbbbbdb2f6bad351", "bike_id": "e9f9ebb3f51da1c6fbbbbdb2f6bad351", "fusion_lat": 0.0, "is_reserved": 0, "lat": 38.93547183333333, "fusion_lon": 0.0, "is_disabled": 0}, {"rental_uris": {"android": "https://dc.lft.to/lastmile_qr_scan", "ios": "https://dc.lft.to/lastmile_qr_scan"}, "type": "electric_scooter", "lon": -77.01521116666666, "name": "4666d8abc042465f6e8d91cf8170da65", "bike_id": "4666d8abc042465f6e8d91cf8170da65", "fusion_lat": 0.0, "is_reserved": 0, "lat": 38.913536, "fusion_lon": 0.0, "is_disabled": 0}, {"rental_uris": {"android": "https://dc.lft.to/lastmile_qr_scan", "ios": "https://dc.lft.to/lastmile_qr_scan"}, "type": "electric_scooter", "lon": -77.0499545, "name": "fe61a20e07a882915df7bb46284f9de2", "bike_id": "fe61a20e07a882915df7bb46284f9de2", "fusion_lat": 0.0, "is_reserved": 0, "lat": 38.898985833333334, "fusion_lon": 0.0, "is_disabled": 0}, {"rental_uris": {"android": "https://dc.lft.to/lastmile_qr_scan", "ios": "https://dc.lft.to/lastmile_qr_scan"}, "type": "electric_bike", "lon": -77.178471, "name": "a632bdf9c6751597364ea8a7b7754439", "bike_id": "a632bdf9c6751597364ea8a7b7754439", "fusion_lat": 0.0, "is_reserved": 0, "lat": 39.08902, "fusion_lon": 0.0, "is_disabled": 0}, {"rental_uris": {"android": "https://dc.lft.to/lastmile_qr_scan", "ios": "https://dc.lft.to/lastmile_qr_scan"}, "type": "electric_scooter", "lon": -77.0241055, "name": "9ea31643ef2b277f9528369faf6fb9af", "bike_id": "9ea31643ef2b277f9528369faf6fb9af", "fusion_lat": 0.0, "is_reserved": 0, "lat": 38.913448333333335, "fusion_lon": 0.0, "is_disabled": 0}, {"rental_uris": {"android": "https://dc.lft.to/lastmile_qr_scan", "ios": "https://dc.lft.to/lastmile_qr_scan"}, "type": "electric_scooter", "lon": -77.0228025, "name": "d928c6bc5f37c3a249346970a9fd0218", "bike_id": "d928c6bc5f37c3a249346970a9fd0218", "fusion_lat": 0.0, "is_reserved": 0, "lat": 38.924132, "fusion_lon": 0.0, "is_disabled": 0}, {"rental_uris": {"android": "https://dc.lft.to/lastmile_qr_scan", "ios": "https://dc.lft.to/lastmile_qr_scan"}, "type": "electric_scooter", "lon": -76.9947725, "name": "be5348c9bacd1fb5148f0baca2d51202", "bike_id": "be5348c9bacd1fb5148f0baca2d51202", "fusion_lat": 0.0, "is_reserved": 0, "lat": 38.88861516666667, "fusion_lon": 0.0, "is_disabled": 0}, {"rental_uris": {"android": "https://dc.lft.to/lastmile_qr_scan", "ios": "https://dc.lft.to/lastmile_qr_scan"}, "type": "electric_scooter", "lon": -77.02702883333333, "name": "9c7434d078722eb290c10b288260791a", "bike_id": "9c7434d078722eb290c10b288260791a", "fusion_lat": 0.0, "is_reserved": 0, "lat": 38.906635333333334, "fusion_lon": 0.0, "is_disabled": 0}, {"rental_uris": {"android": "https://dc.lft.to/lastmile_qr_scan", "ios": "https://dc.lft.to/lastmile_qr_scan"}, "type": "electric_bike", "lon": -77.04301966666667, "name": "8cb885220d6e4d2bc0f45d88192c0e07", "bike_id": "8cb885220d6e4d2bc0f45d88192c0e07", "fusion_lat": 0.0, "is_reserved": 0, "lat": 39.05448666666667, "fusion_lon": 0.0, "is_disabled": 0}, {"rental_uris": {"android": "https://dc.lft.to/lastmile_qr_scan", "ios": "https://dc.lft.to/lastmile_qr_scan"}, "type": "electric_scooter", "lon": -77.03860416666667, "name": "06b15eff9ad68091db7d1bfc3987c317", "bike_id": "06b15eff9ad68091db7d1bfc3987c317", "fusion_lat": 0.0, "is_reserved": 0, "lat": 38.917108, "fusion_lon": 0.0, "is_disabled": 0}, {"rental_uris": {"android": "https://dc.lft.to/lastmile_qr_scan", "ios": "https://dc.lft.to/lastmile_qr_scan"}, "type": "electric_scooter", "lon": -77.0344085, "name": "f8289b58cfa2865950f65239493be7bd", "bike_id": "f8289b58cfa2865950f65239493be7bd", "fusion_lat": 0.0, "is_reserved": 0, "lat": 38.9026885, "fusion_lon": 0.0, "is_disabled": 0}, {"rental_uris": {"android": "https://dc.lft.to/lastmile_qr_scan", "ios": "https://dc.lft.to/lastmile_qr_scan"}, "type": "electric_scooter", "lon": -77.05513383333333, "name": "2280cb8a270d58879c6659f55aa03ff0", "bike_id": "2280cb8a270d58879c6659f55aa03ff0", "fusion_lat": 0.0, "is_reserved": 0, "lat": 38.94413216666667, "fusion_lon": 0.0, "is_disabled": 0}, {"rental_uris": {"android": "https://dc.lft.to/lastmile_qr_scan", "ios": "https://dc.lft.to/lastmile_qr_scan"}, "type": "electric_scooter", "lon": -77.03003766666667, "name": "69e339e53b9d267d3a2b347bd91e42e5", "bike_id": "69e339e53b9d267d3a2b347bd91e42e5", "fusion_lat": 0.0, "is_reserved": 0, "lat": 38.931053166666665, "fusion_lon": 0.0, "is_disabled": 0}, {"rental_uris": {"android": "https://dc.lft.to/lastmile_qr_scan", "ios": "https://dc.lft.to/lastmile_qr_scan"}, "type": "electric_scooter", "lon": -77.045731, "name": "c03ca3721cee9f216ae07aa4e78246d0", "bike_id": "c03ca3721cee9f216ae07aa4e78246d0", "fusion_lat": 0.0, "is_reserved": 0, "lat": 38.9212405, "fusion_lon": 0.0, "is_disabled": 0}, {"rental_uris": {"android": "https://dc.lft.to/lastmile_qr_scan", "ios": "https://dc.lft.to/lastmile_qr_scan"}, "type": "electric_scooter", "lon": -77.02375283333333, "name": "b018f056e37cf6201bc446cb7ef448e6", "bike_id": "b018f056e37cf6201bc446cb7ef448e6", "fusion_lat": 0.0, "is_reserved": 0, "lat": 38.89376033333333, "fusion_lon": 0.0, "is_disabled": 0}, {"rental_uris": {"android": "https://dc.lft.to/lastmile_qr_scan", "ios": "https://dc.lft.to/lastmile_qr_scan"}, "type": "electric_scooter", "lon": -76.9485245, "name": "a57c9cd0a284ba73e78ac6afd7fba9e7", "bike_id": "a57c9cd0a284ba73e78ac6afd7fba9e7", "fusion_lat": 0.0, "is_reserved": 0, "lat": 38.88304566666667, "fusion_lon": 0.0, "is_disabled": 0}, {"rental_uris": {"android": "https://dc.lft.to/lastmile_qr_scan", "ios": "https://dc.lft.to/lastmile_qr_scan"}, "type": "electric_scooter", "lon": -77.0010745, "name": "23eaa15995c4661aef6d53cd32b7ba26", "bike_id": "23eaa15995c4661aef6d53cd32b7ba26", "fusion_lat": 0.0, "is_reserved": 0, "lat": 38.916306666666664, "fusion_lon": 0.0, "is_disabled": 0}, {"rental_uris": {"android": "https://dc.lft.to/lastmile_qr_scan", "ios": "https://dc.lft.to/lastmile_qr_scan"}, "type": "electric_scooter", "lon": -77.058807, "name": "1c1477852006e47f25ca018245a3d9d8", "bike_id": "1c1477852006e47f25ca018245a3d9d8", "fusion_lat": 0.0, "is_reserved": 0, "lat": 38.936362833333334, "fusion_lon": 0.0, "is_disabled": 0}, {"rental_uris": {"android": "https://dc.lft.to/lastmile_qr_scan", "ios": "https://dc.lft.to/lastmile_qr_scan"}, "type": "electric_scooter", "lon": -76.9892615, "name": "c276e4f3d81f60a3057e02ad63328f11", "bike_id": "c276e4f3d81f60a3057e02ad63328f11", "fusion_lat": 0.0, "is_reserved": 0, "lat": 38.902263166666664, "fusion_lon": 0.0, "is_disabled": 0}, {"rental_uris": {"android": "https://dc.lft.to/lastmile_qr_scan", "ios": "https://dc.lft.to/lastmile_qr_scan"}, "type": "electric_bike", "lon": -76.9938855, "name": "a75afd44d7e8753a87e59a4dbf29a30d", "bike_id": "a75afd44d7e8753a87e59a4dbf29a30d", "fusion_lat": 0.0, "is_reserved": 0, "lat": 38.92284183333334, "fusion_lon": 0.0, "is_disabled": 0}, {"rental_uris": {"android": "https://dc.lft.to/lastmile_qr_scan", "ios": "https://dc.lft.to/lastmile_qr_scan"}, "type": "electric_scooter", "lon": -76.98606483333333, "name": "cbf19cc100e053bb554b17b3bdffb22a", "bike_id": "cbf19cc100e053bb554b17b3bdffb22a", "fusion_lat": 0.0, "is_reserved": 0, "lat": 38.854421333333335, "fusion_lon": 0.0, "is_disabled": 0}, {"rental_uris": {"android": "https://dc.lft.to/lastmile_qr_scan", "ios": "https://dc.lft.to/lastmile_qr_scan"}, "type": "electric_scooter", "lon": -76.9483915, "name": "48adcfe81a4399fabe028b972b4fdc49", "bike_id": "48adcfe81a4399fabe028b972b4fdc49", "fusion_lat": 0.0, "is_reserved": 0, "lat": 38.89482783333333, "fusion_lon": 0.0, "is_disabled": 0}, {"rental_uris": {"android": "https://dc.lft.to/lastmile_qr_scan", "ios": "https://dc.lft.to/lastmile_qr_scan"}, "type": "electric_scooter", "lon": -77.035009, "name": "320423af01ca79f66ef5cf3911ae547a", "bike_id": "320423af01ca79f66ef5cf3911ae547a", "fusion_lat": 0.0, "is_reserved": 0, "lat": 38.926323833333335, "fusion_lon": 0.0, "is_disabled": 0}, {"rental_uris": {"android": "https://dc.lft.to/lastmile_qr_scan", "ios": "https://dc.lft.to/lastmile_qr_scan"}, "type": "electric_scooter", "lon": -77.031453, "name": "17e73b2a70cf739ada8271cd5d0538e1", "bike_id": "17e73b2a70cf739ada8271cd5d0538e1", "fusion_lat": 0.0, "is_reserved": 0, "lat": 38.887493, "fusion_lon": 0.0, "is_disabled": 0}, {"rental_uris": {"android": "https://dc.lft.to/lastmile_qr_scan", "ios": "https://dc.lft.to/lastmile_qr_scan"}, "type": "electric_bike", "lon": -76.97819866666667, "name": "fdf6c2a182ae5316e52ba21c04cd6d44", "bike_id": "fdf6c2a182ae5316e52ba21c04cd6d44", "fusion_lat": 0.0, "is_reserved": 0, "lat": 38.84612666666666, "fusion_lon": 0.0, "is_disabled": 0}, {"rental_uris": {"android": "https://dc.lft.to/lastmile_qr_scan", "ios": "https://dc.lft.to/lastmile_qr_scan"}, "type": "electric_bike", "lon": -76.9159405, "name": "293c62699b8a8dd389719dca341a6ab7", "bike_id": "293c62699b8a8dd389719dca341a6ab7", "fusion_lat": 0.0, "is_reserved": 0, "lat": 38.88009483333333, "fusion_lon": 0.0, "is_disabled": 0}, {"rental_uris": {"android": "https://dc.lft.to/lastmile_qr_scan", "ios": "https://dc.lft.to/lastmile_qr_scan"}, "type": "electric_scooter", "lon": -77.1016735, "name": "b68cefe2e4d2d42dfacb4af1422db62d", "bike_id": "b68cefe2e4d2d42dfacb4af1422db62d", "fusion_lat": 0.0, "is_reserved": 0, "lat": 38.92543966666667, "fusion_lon": 0.0, "is_disabled": 0}, {"rental_uris": {"android": "https://dc.lft.to/lastmile_qr_scan", "ios": "https://dc.lft.to/lastmile_qr_scan"}, "type": "electric_scooter", "lon": -77.01763583333333, "name": "6ad2e757e9617d80210e964800c79c0e", "bike_id": "6ad2e757e9617d80210e964800c79c0e", "fusion_lat": 0.0, "is_reserved": 0, "lat": 38.9039515, "fusion_lon": 0.0, "is_disabled": 0}, {"rental_uris": {"android": "https://dc.lft.to/lastmile_qr_scan", "ios": "https://dc.lft.to/lastmile_qr_scan"}, "type": "electric_scooter", "lon": -76.99458766666666, "name": "60520e622c1b5e81750336fc82eb1c3f", "bike_id": "60520e622c1b5e81750336fc82eb1c3f", "fusion_lat": 0.0, "is_reserved": 0, "lat": 38.862231666666666, "fusion_lon": 0.0, "is_disabled": 0}, {"rental_uris": {"android": "https://dc.lft.to/lastmile_qr_scan", "ios": "https://dc.lft.to/lastmile_qr_scan"}, "type": "electric_scooter", "lon": -77.06527366666667, "name": "40dee58720bd74875afccc18e2a15b81", "bike_id": "40dee58720bd74875afccc18e2a15b81", "fusion_lat": 0.0, "is_reserved": 0, "lat": 38.934721333333336, "fusion_lon": 0.0, "is_disabled": 0}, {"rental_uris": {"android": "https://dc.lft.to/lastmile_qr_scan", "ios": "https://dc.lft.to/lastmile_qr_scan"}, "type": "electric_scooter", "lon": -76.98715066666666, "name": "3b632472db436931bdcc8a31e0d67727", "bike_id": "3b632472db436931bdcc8a31e0d67727", "fusion_lat": 0.0, "is_reserved": 0, "lat": 38.899292833333334, "fusion_lon": 0.0, "is_disabled": 0}, {"rental_uris": {"android": "https://dc.lft.to/lastmile_qr_scan", "ios": "https://dc.lft.to/lastmile_qr_scan"}, "type": "electric_bike", "lon": -76.90814916666666, "name": "d914eebcf0ec3e1dcde31295fb5ced23", "bike_id": "d914eebcf0ec3e1dcde31295fb5ced23", "fusion_lat": 0.0, "is_reserved": 0, "lat": 38.99454333333333, "fusion_lon": 0.0, "is_disabled": 0}, {"rental_uris": {"android": "https://dc.lft.to/lastmile_qr_scan", "ios": "https://dc.lft.to/lastmile_qr_scan"}, "type": "electric_scooter", "lon": -77.0240575, "name": "dad581e021c212bedd535777ed9f967c", "bike_id": "dad581e021c212bedd535777ed9f967c", "fusion_lat": 0.0, "is_reserved": 0, "lat": 38.917012166666666, "fusion_lon": 0.0, "is_disabled": 0}, {"rental_uris": {"android": "https://dc.lft.to/lastmile_qr_scan", "ios": "https://dc.lft.to/lastmile_qr_scan"}, "type": "electric_scooter", "lon": -77.06238333333333, "name": "6a2edf9b71439e4df0c75185c1d4c323", "bike_id": "6a2edf9b71439e4df0c75185c1d4c323", "fusion_lat": 0.0, "is_reserved": 0, "lat": 38.905308, "fusion_lon": 0.0, "is_disabled": 0}, {"rental_uris": {"android": "https://dc.lft.to/lastmile_qr_scan", "ios": "https://dc.lft.to/lastmile_qr_scan"}, "type": "electric_scooter", "lon": -77.02714366666666, "name": "2dac191610eac6480bf3fdec469e709c", "bike_id": "2dac191610eac6480bf3fdec469e709c", "fusion_lat": 0.0, "is_reserved": 0, "lat": 38.907528, "fusion_lon": 0.0, "is_disabled": 0}, {"rental_uris": {"android": "https://dc.lft.to/lastmile_qr_scan", "ios": "https://dc.lft.to/lastmile_qr_scan"}, "type": "electric_scooter", "lon": -77.03276716666667, "name": "8011d921041c3f577883b5c45e717713", "bike_id": "8011d921041c3f577883b5c45e717713", "fusion_lat": 0.0, "is_reserved": 0, "lat": 38.929340833333335, "fusion_lon": 0.0, "is_disabled": 0}, {"rental_uris": {"android": "https://dc.lft.to/lastmile_qr_scan", "ios": "https://dc.lft.to/lastmile_qr_scan"}, "type": "electric_scooter", "lon": -77.01188833333333, "name": "261bfaff733b13cf7e97b60395471a2e", "bike_id": "261bfaff733b13cf7e97b60395471a2e", "fusion_lat": 0.0, "is_reserved": 0, "lat": 38.900175833333336, "fusion_lon": 0.0, "is_disabled": 0}, {"rental_uris": {"android": "https://dc.lft.to/lastmile_qr_scan", "ios": "https://dc.lft.to/lastmile_qr_scan"}, "type": "electric_scooter", "lon": -77.03171066666667, "name": "cd07e5ea08ecbe757eb278184c5fc234", "bike_id": "cd07e5ea08ecbe757eb278184c5fc234", "fusion_lat": 0.0, "is_reserved": 0, "lat": 38.900494333333334, "fusion_lon": 0.0, "is_disabled": 0}, {"rental_uris": {"android": "https://dc.lft.to/lastmile_qr_scan", "ios": "https://dc.lft.to/lastmile_qr_scan"}, "type": "electric_scooter", "lon": -77.02935466666666, "name": "761ef5199a6c4b7198d888f70dd25bef", "bike_id": "761ef5199a6c4b7198d888f70dd25bef", "fusion_lat": 0.0, "is_reserved": 0, "lat": 38.90668133333333, "fusion_lon": 0.0, "is_disabled": 0}, {"rental_uris": {"android": "https://dc.lft.to/lastmile_qr_scan", "ios": "https://dc.lft.to/lastmile_qr_scan"}, "type": "electric_scooter", "lon": -77.03681166666667, "name": "6c5b96252152fcbf151d0889c1f76889", "bike_id": "6c5b96252152fcbf151d0889c1f76889", "fusion_lat": 0.0, "is_reserved": 0, "lat": 38.916817333333334, "fusion_lon": 0.0, "is_disabled": 0}, {"rental_uris": {"android": "https://dc.lft.to/lastmile_qr_scan", "ios": "https://dc.lft.to/lastmile_qr_scan"}, "type": "electric_scooter", "lon": -77.02366666666667, "name": "f0a155d84ed31eb6dfff35044c6f5e6e", "bike_id": "f0a155d84ed31eb6dfff35044c6f5e6e", "fusion_lat": 0.0, "is_reserved": 0, "lat": 38.91782, "fusion_lon": 0.0, "is_disabled": 0}, {"rental_uris": {"android": "https://dc.lft.to/lastmile_qr_scan", "ios": "https://dc.lft.to/lastmile_qr_scan"}, "type": "electric_scooter", "lon": -77.03192466666667, "name": "bbbe9bd2ee7fd3cbd79abab66b1e4b51", "bike_id": "bbbe9bd2ee7fd3cbd79abab66b1e4b51", "fusion_lat": 0.0, "is_reserved": 0, "lat": 38.90768966666667, "fusion_lon": 0.0, "is_disabled": 0}, {"rental_uris": {"android": "https://dc.lft.to/lastmile_qr_scan", "ios": "https://dc.lft.to/lastmile_qr_scan"}, "type": "electric_scooter", "lon": -77.00217516666666, "name": "1b2f2609bf0182c960e2e1d1e65767a8", "bike_id": "1b2f2609bf0182c960e2e1d1e65767a8", "fusion_lat": 0.0, "is_reserved": 0, "lat": 38.91432533333333, "fusion_lon": 0.0, "is_disabled": 0}, {"rental_uris": {"android": "https://dc.lft.to/lastmile_qr_scan", "ios": "https://dc.lft.to/lastmile_qr_scan"}, "type": "electric_scooter", "lon": -77.01200133333333, "name": "8baf1c28964a6c165dfa8d9959a71aa5", "bike_id": "8baf1c28964a6c165dfa8d9959a71aa5", "fusion_lat": 0.0, "is_reserved": 0, "lat": 38.913035, "fusion_lon": 0.0, "is_disabled": 0}, {"rental_uris": {"android": "https://dc.lft.to/lastmile_qr_scan", "ios": "https://dc.lft.to/lastmile_qr_scan"}, "type": "electric_scooter", "lon": -77.0329975, "name": "ffbb3a71077a1d3b56a216f46d585d69", "bike_id": "ffbb3a71077a1d3b56a216f46d585d69", "fusion_lat": 0.0, "is_reserved": 0, "lat": 38.898480166666666, "fusion_lon": 0.0, "is_disabled": 0}, {"rental_uris": {"android": "https://dc.lft.to/lastmile_qr_scan", "ios": "https://dc.lft.to/lastmile_qr_scan"}, "type": "electric_bike", "lon": -77.07145833333334, "name": "c0e3ab24e9edd8e01b0849d4c297c686", "bike_id": "c0e3ab24e9edd8e01b0849d4c297c686", "fusion_lat": 0.0, "is_reserved": 0, "lat": 38.9334405, "fusion_lon": 0.0, "is_disabled": 0}, {"rental_uris": {"android": "https://dc.lft.to/lastmile_qr_scan", "ios": "https://dc.lft.to/lastmile_qr_scan"}, "type": "electric_scooter", "lon": -76.98320316666667, "name": "09af74a28e39547614aaa879ff851e75", "bike_id": "09af74a28e39547614aaa879ff851e75", "fusion_lat": 0.0, "is_reserved": 0, "lat": 38.90743166666667, "fusion_lon": 0.0, "is_disabled": 0}, {"rental_uris": {"android": "https://dc.lft.to/lastmile_qr_scan", "ios": "https://dc.lft.to/lastmile_qr_scan"}, "type": "electric_scooter", "lon": -77.04654766666667, "name": "debffe12c973df439ef2e727910ff994", "bike_id": "debffe12c973df439ef2e727910ff994", "fusion_lat": 0.0, "is_reserved": 0, "lat": 38.89297833333333, "fusion_lon": 0.0, "is_disabled": 0}, {"rental_uris": {"android": "https://dc.lft.to/lastmile_qr_scan", "ios": "https://dc.lft.to/lastmile_qr_scan"}, "type": "electric_bike", "lon": -77.09161983333334, "name": "d892aa86d9eeb866270a2a9e00914d3d", "bike_id": "d892aa86d9eeb866270a2a9e00914d3d", "fusion_lat": 0.0, "is_reserved": 0, "lat": 38.96756533333333, "fusion_lon": 0.0, "is_disabled": 0}, {"rental_uris": {"android": "https://dc.lft.to/lastmile_qr_scan", "ios": "https://dc.lft.to/lastmile_qr_scan"}, "type": "electric_scooter", "lon": -77.03257883333333, "name": "d4f2bb1b9f9a8649fe01d562ec25f339", "bike_id": "d4f2bb1b9f9a8649fe01d562ec25f339", "fusion_lat": 0.0, "is_reserved": 0, "lat": 38.9425875, "fusion_lon": 0.0, "is_disabled": 0}, {"rental_uris": {"android": "https://dc.lft.to/lastmile_qr_scan", "ios": "https://dc.lft.to/lastmile_qr_scan"}, "type": "electric_scooter", "lon": -77.04048916666666, "name": "7a84d1307e5738a8aad6d356f9a509ab", "bike_id": "7a84d1307e5738a8aad6d356f9a509ab", "fusion_lat": 0.0, "is_reserved": 0, "lat": 38.9287475, "fusion_lon": 0.0, "is_disabled": 0}, {"rental_uris": {"android": "https://dc.lft.to/lastmile_qr_scan", "ios": "https://dc.lft.to/lastmile_qr_scan"}, "type": "electric_scooter", "lon": -77.04403, "name": "bd30f030f427e9f402d1b01e32e9adbf", "bike_id": "bd30f030f427e9f402d1b01e32e9adbf", "fusion_lat": 0.0, "is_reserved": 0, "lat": 38.87429933333333, "fusion_lon": 0.0, "is_disabled": 0}, {"rental_uris": {"android": "https://dc.lft.to/lastmile_qr_scan", "ios": "https://dc.lft.to/lastmile_qr_scan"}, "type": "electric_scooter", "lon": -77.022802, "name": "50d4c7bc1911f036cabb49bd3f0dfae5", "bike_id": "50d4c7bc1911f036cabb49bd3f0dfae5", "fusion_lat": 0.0, "is_reserved": 0, "lat": 38.9174185, "fusion_lon": 0.0, "is_disabled": 0}, {"rental_uris": {"android": "https://dc.lft.to/lastmile_qr_scan", "ios": "https://dc.lft.to/lastmile_qr_scan"}, "type": "electric_bike", "lon": -77.01439016666667, "name": "963f70dcb3415c847bd0e229451cb5b0", "bike_id": "963f70dcb3415c847bd0e229451cb5b0", "fusion_lat": 0.0, "is_reserved": 0, "lat": 38.87677266666667, "fusion_lon": 0.0, "is_disabled": 0}, {"rental_uris": {"android": "https://dc.lft.to/lastmile_qr_scan", "ios": "https://dc.lft.to/lastmile_qr_scan"}, "type": "electric_scooter", "lon": -77.03261483333333, "name": "53ef5470df418060dda3380c58468fd9", "bike_id": "53ef5470df418060dda3380c58468fd9", "fusion_lat": 0.0, "is_reserved": 0, "lat": 38.93257466666667, "fusion_lon": 0.0, "is_disabled": 0}, {"rental_uris": {"android": "https://dc.lft.to/lastmile_qr_scan", "ios": "https://dc.lft.to/lastmile_qr_scan"}, "type": "electric_scooter", "lon": -76.969139, "name": "96cc240ad70d95dc674d9a90502b6351", "bike_id": "96cc240ad70d95dc674d9a90502b6351", "fusion_lat": 0.0, "is_reserved": 0, "lat": 38.855264, "fusion_lon": 0.0, "is_disabled": 0}, {"rental_uris": {"android": "https://dc.lft.to/lastmile_qr_scan", "ios": "https://dc.lft.to/lastmile_qr_scan"}, "type": "electric_scooter", "lon": -77.03219183333333, "name": "698d31a77e5bbaf41e7d3d929160bd34", "bike_id": "698d31a77e5bbaf41e7d3d929160bd34", "fusion_lat": 0.0, "is_reserved": 0, "lat": 38.91854766666667, "fusion_lon": 0.0, "is_disabled": 0}, {"rental_uris": {"android": "https://dc.lft.to/lastmile_qr_scan", "ios": "https://dc.lft.to/lastmile_qr_scan"}, "type": "electric_scooter", "lon": -77.03121216666666, "name": "fa33acfcb7cb9ca6af93b8071766c6b9", "bike_id": "fa33acfcb7cb9ca6af93b8071766c6b9", "fusion_lat": 0.0, "is_reserved": 0, "lat": 38.9737625, "fusion_lon": 0.0, "is_disabled": 0}, {"rental_uris": {"android": "https://dc.lft.to/lastmile_qr_scan", "ios": "https://dc.lft.to/lastmile_qr_scan"}, "type": "electric_bike", "lon": -77.05030266666667, "name": "1996d41652a6ce93aab5961a27ddaf9f", "bike_id": "1996d41652a6ce93aab5961a27ddaf9f", "fusion_lat": 0.0, "is_reserved": 0, "lat": 38.91113683333333, "fusion_lon": 0.0, "is_disabled": 0}, {"rental_uris": {"android": "https://dc.lft.to/lastmile_qr_scan", "ios": "https://dc.lft.to/lastmile_qr_scan"}, "type": "electric_bike", "lon": -76.91651733333333, "name": "368611882213bdd927096aef45400ed2", "bike_id": "368611882213bdd927096aef45400ed2", "fusion_lat": 0.0, "is_reserved": 0, "lat": 38.86857033333333, "fusion_lon": 0.0, "is_disabled": 0}, {"rental_uris": {"android": "https://dc.lft.to/lastmile_qr_scan", "ios": "https://dc.lft.to/lastmile_qr_scan"}, "type": "electric_scooter", "lon": -77.04375066666667, "name": "e219156bd10a2ab5892b6339045d41a7", "bike_id": "e219156bd10a2ab5892b6339045d41a7", "fusion_lat": 0.0, "is_reserved": 0, "lat": 38.906454333333336, "fusion_lon": 0.0, "is_disabled": 0}, {"rental_uris": {"android": "https://dc.lft.to/lastmile_qr_scan", "ios": "https://dc.lft.to/lastmile_qr_scan"}, "type": "electric_scooter", "lon": -77.07344516666667, "name": "8514834095e5583898eea69e59448b0c", "bike_id": "8514834095e5583898eea69e59448b0c", "fusion_lat": 0.0, "is_reserved": 0, "lat": 38.91102566666667, "fusion_lon": 0.0, "is_disabled": 0}, {"rental_uris": {"android": "https://dc.lft.to/lastmile_qr_scan", "ios": "https://dc.lft.to/lastmile_qr_scan"}, "type": "electric_scooter", "lon": -76.95407916666667, "name": "0083df5e276a119839dd3f119fd91f89", "bike_id": "0083df5e276a119839dd3f119fd91f89", "fusion_lat": 0.0, "is_reserved": 0, "lat": 38.891598333333334, "fusion_lon": 0.0, "is_disabled": 0}, {"rental_uris": {"android": "https://dc.lft.to/lastmile_qr_scan", "ios": "https://dc.lft.to/lastmile_qr_scan"}, "type": "electric_scooter", "lon": -77.04006783333334, "name": "ff6c92bb66b8f88b3808c0433e623a7e", "bike_id": "ff6c92bb66b8f88b3808c0433e623a7e", "fusion_lat": 0.0, "is_reserved": 0, "lat": 38.912976, "fusion_lon": 0.0, "is_disabled": 0}, {"rental_uris": {"android": "https://dc.lft.to/lastmile_qr_scan", "ios": "https://dc.lft.to/lastmile_qr_scan"}, "type": "electric_scooter", "lon": -76.9424825, "name": "cdc5d1662a420b88b72452aec3074c28", "bike_id": "cdc5d1662a420b88b72452aec3074c28", "fusion_lat": 0.0, "is_reserved": 0, "lat": 38.89680366666666, "fusion_lon": 0.0, "is_disabled": 0}, {"rental_uris": {"android": "https://dc.lft.to/lastmile_qr_scan", "ios": "https://dc.lft.to/lastmile_qr_scan"}, "type": "electric_bike", "lon": -77.12265866666667, "name": "59d03364484bc08cf130a0f6acd88477", "bike_id": "59d03364484bc08cf130a0f6acd88477", "fusion_lat": 0.0, "is_reserved": 0, "lat": 38.897350333333335, "fusion_lon": 0.0, "is_disabled": 0}, {"rental_uris": {"android": "https://dc.lft.to/lastmile_qr_scan", "ios": "https://dc.lft.to/lastmile_qr_scan"}, "type": "electric_bike", "lon": -77.01620883333334, "name": "f3faf3ca04918aa6f96001e79d9a1359", "bike_id": "f3faf3ca04918aa6f96001e79d9a1359", "fusion_lat": 0.0, "is_reserved": 0, "lat": 38.91227683333334, "fusion_lon": 0.0, "is_disabled": 0}, {"rental_uris": {"android": "https://dc.lft.to/lastmile_qr_scan", "ios": "https://dc.lft.to/lastmile_qr_scan"}, "type": "electric_scooter", "lon": -77.04802266666667, "name": "34da443e69e6bc30d39fe10edda1888a", "bike_id": "34da443e69e6bc30d39fe10edda1888a", "fusion_lat": 0.0, "is_reserved": 0, "lat": 38.91109083333333, "fusion_lon": 0.0, "is_disabled": 0}, {"rental_uris": {"android": "https://dc.lft.to/lastmile_qr_scan", "ios": "https://dc.lft.to/lastmile_qr_scan"}, "type": "electric_scooter", "lon": -76.99902316666666, "name": "1d98cadbd4efb4d76a46ca0272043538", "bike_id": "1d98cadbd4efb4d76a46ca0272043538", "fusion_lat": 0.0, "is_reserved": 0, "lat": 38.909203166666664, "fusion_lon": 0.0, "is_disabled": 0}, {"rental_uris": {"android": "https://dc.lft.to/lastmile_qr_scan", "ios": "https://dc.lft.to/lastmile_qr_scan"}, "type": "electric_scooter", "lon": -77.02562933333333, "name": "a7d8ed63b67bd839744dc630b1a02dda", "bike_id": "a7d8ed63b67bd839744dc630b1a02dda", "fusion_lat": 0.0, "is_reserved": 0, "lat": 38.895188, "fusion_lon": 0.0, "is_disabled": 0}, {"rental_uris": {"android": "https://dc.lft.to/lastmile_qr_scan", "ios": "https://dc.lft.to/lastmile_qr_scan"}, "type": "electric_bike", "lon": -77.23308633333333, "name": "bfee9a1ebd641939a8a08a1f157ca1d4", "bike_id": "bfee9a1ebd641939a8a08a1f157ca1d4", "fusion_lat": 0.0, "is_reserved": 0, "lat": 38.9250955, "fusion_lon": 0.0, "is_disabled": 0}, {"rental_uris": {"android": "https://dc.lft.to/lastmile_qr_scan", "ios": "https://dc.lft.to/lastmile_qr_scan"}, "type": "electric_scooter", "lon": -77.0257195, "name": "d2774df8dc87af100fdc0b6a02072f23", "bike_id": "d2774df8dc87af100fdc0b6a02072f23", "fusion_lat": 0.0, "is_reserved": 0, "lat": 38.92506066666667, "fusion_lon": 0.0, "is_disabled": 0}, {"rental_uris": {"android": "https://dc.lft.to/lastmile_qr_scan", "ios": "https://dc.lft.to/lastmile_qr_scan"}, "type": "electric_scooter", "lon": -77.06073083333334, "name": "3b36e4cd6c31a3b82b4506e48cdc42fe", "bike_id": "3b36e4cd6c31a3b82b4506e48cdc42fe", "fusion_lat": 0.0, "is_reserved": 0, "lat": 38.90525216666666, "fusion_lon": 0.0, "is_disabled": 0}, {"rental_uris": {"android": "https://dc.lft.to/lastmile_qr_scan", "ios": "https://dc.lft.to/lastmile_qr_scan"}, "type": "electric_bike", "lon": -76.9832965, "name": "a30b3c98aca4532f698c011829e078ca", "bike_id": "a30b3c98aca4532f698c011829e078ca", "fusion_lat": 0.0, "is_reserved": 0, "lat": 38.966036, "fusion_lon": 0.0, "is_disabled": 0}, {"rental_uris": {"android": "https://dc.lft.to/lastmile_qr_scan", "ios": "https://dc.lft.to/lastmile_qr_scan"}, "type": "electric_scooter", "lon": -77.02152933333333, "name": "93d7749d9cf1b8455bc9a96eeda92f06", "bike_id": "93d7749d9cf1b8455bc9a96eeda92f06", "fusion_lat": 0.0, "is_reserved": 0, "lat": 38.926007, "fusion_lon": 0.0, "is_disabled": 0}, {"rental_uris": {"android": "https://dc.lft.to/lastmile_qr_scan", "ios": "https://dc.lft.to/lastmile_qr_scan"}, "type": "electric_scooter", "lon": -77.0456335, "name": "52d31e2413f5da1d711f67b437c00697", "bike_id": "52d31e2413f5da1d711f67b437c00697", "fusion_lat": 0.0, "is_reserved": 0, "lat": 38.9194545, "fusion_lon": 0.0, "is_disabled": 0}, {"rental_uris": {"android": "https://dc.lft.to/lastmile_qr_scan", "ios": "https://dc.lft.to/lastmile_qr_scan"}, "type": "electric_scooter", "lon": -77.0214755, "name": "9f182abd3d3b63a5282272db8f9afd25", "bike_id": "9f182abd3d3b63a5282272db8f9afd25", "fusion_lat": 0.0, "is_reserved": 0, "lat": 38.912278, "fusion_lon": 0.0, "is_disabled": 0}, {"rental_uris": {"android": "https://dc.lft.to/lastmile_qr_scan", "ios": "https://dc.lft.to/lastmile_qr_scan"}, "type": "electric_scooter", "lon": -77.02790283333333, "name": "2d561b52e8daa66fe40da99e802654d3", "bike_id": "2d561b52e8daa66fe40da99e802654d3", "fusion_lat": 0.0, "is_reserved": 0, "lat": 38.930818333333335, "fusion_lon": 0.0, "is_disabled": 0}, {"rental_uris": {"android": "https://dc.lft.to/lastmile_qr_scan", "ios": "https://dc.lft.to/lastmile_qr_scan"}, "type": "electric_scooter", "lon": -77.0294865, "name": "972d36321d82c67d7a422e33d8dec806", "bike_id": "972d36321d82c67d7a422e33d8dec806", "fusion_lat": 0.0, "is_reserved": 0, "lat": 38.91771833333333, "fusion_lon": 0.0, "is_disabled": 0}, {"rental_uris": {"android": "https://dc.lft.to/lastmile_qr_scan", "ios": "https://dc.lft.to/lastmile_qr_scan"}, "type": "electric_scooter", "lon": -77.00616066666667, "name": "c1f3823001a000d7521468884a32486c", "bike_id": "c1f3823001a000d7521468884a32486c", "fusion_lat": 0.0, "is_reserved": 0, "lat": 38.885069666666666, "fusion_lon": 0.0, "is_disabled": 0}, {"rental_uris": {"android": "https://dc.lft.to/lastmile_qr_scan", "ios": "https://dc.lft.to/lastmile_qr_scan"}, "type": "electric_bike", "lon": -77.112234, "name": "2ccc91ceac1fb0a2afa8a56056b4fd21", "bike_id": "2ccc91ceac1fb0a2afa8a56056b4fd21", "fusion_lat": 0.0, "is_reserved": 0, "lat": 38.812186833333335, "fusion_lon": 0.0, "is_disabled": 0}, {"rental_uris": {"android": "https://dc.lft.to/lastmile_qr_scan", "ios": "https://dc.lft.to/lastmile_qr_scan"}, "type": "electric_scooter", "lon": -77.02208033333334, "name": "231d3eabd24520984622406f34e2bee4", "bike_id": "231d3eabd24520984622406f34e2bee4", "fusion_lat": 0.0, "is_reserved": 0, "lat": 38.88717916666667, "fusion_lon": 0.0, "is_disabled": 0}, {"rental_uris": {"android": "https://dc.lft.to/lastmile_qr_scan", "ios": "https://dc.lft.to/lastmile_qr_scan"}, "type": "electric_bike", "lon": -76.98121266666666, "name": "ad9ece61b68f90aa1d46ecde4a9c706f", "bike_id": "ad9ece61b68f90aa1d46ecde4a9c706f", "fusion_lat": 0.0, "is_reserved": 0, "lat": 38.896752, "fusion_lon": 0.0, "is_disabled": 0}, {"rental_uris": {"android": "https://dc.lft.to/lastmile_qr_scan", "ios": "https://dc.lft.to/lastmile_qr_scan"}, "type": "electric_scooter", "lon": -77.0415275, "name": "367c15dff1ad51f8fb06ae2b7bc9d565", "bike_id": "367c15dff1ad51f8fb06ae2b7bc9d565", "fusion_lat": 0.0, "is_reserved": 0, "lat": 38.91090766666667, "fusion_lon": 0.0, "is_disabled": 0}, {"rental_uris": {"android": "https://dc.lft.to/lastmile_qr_scan", "ios": "https://dc.lft.to/lastmile_qr_scan"}, "type": "electric_bike", "lon": -77.1017875, "name": "fad23bcbf77e41ce362cfcbbc8614fd9", "bike_id": "fad23bcbf77e41ce362cfcbbc8614fd9", "fusion_lat": 0.0, "is_reserved": 0, "lat": 38.9181235, "fusion_lon": 0.0, "is_disabled": 0}, {"rental_uris": {"android": "https://dc.lft.to/lastmile_qr_scan", "ios": "https://dc.lft.to/lastmile_qr_scan"}, "type": "electric_scooter", "lon": -77.02390583333333, "name": "3fa5c371cbe141dace6469f2782d72da", "bike_id": "3fa5c371cbe141dace6469f2782d72da", "fusion_lat": 0.0, "is_reserved": 0, "lat": 38.91654666666667, "fusion_lon": 0.0, "is_disabled": 0}, {"rental_uris": {"android": "https://dc.lft.to/lastmile_qr_scan", "ios": "https://dc.lft.to/lastmile_qr_scan"}, "type": "electric_scooter", "lon": -76.94939416666666, "name": "b7ebc413af981b6bfacffb2f6645a25f", "bike_id": "b7ebc413af981b6bfacffb2f6645a25f", "fusion_lat": 0.0, "is_reserved": 0, "lat": 38.8831535, "fusion_lon": 0.0, "is_disabled": 0}, {"rental_uris": {"android": "https://dc.lft.to/lastmile_qr_scan", "ios": "https://dc.lft.to/lastmile_qr_scan"}, "type": "electric_bike", "lon": -77.089349, "name": "be1922e25ce371ada43ffa6106543bdd", "bike_id": "be1922e25ce371ada43ffa6106543bdd", "fusion_lat": 0.0, "is_reserved": 0, "lat": 38.840982, "fusion_lon": 0.0, "is_disabled": 0}, {"rental_uris": {"android": "https://dc.lft.to/lastmile_qr_scan", "ios": "https://dc.lft.to/lastmile_qr_scan"}, "type": "electric_scooter", "lon": -77.02191266666667, "name": "71ceb6d9bfffb28885101748b83691f3", "bike_id": "71ceb6d9bfffb28885101748b83691f3", "fusion_lat": 0.0, "is_reserved": 0, "lat": 38.910130833333334, "fusion_lon": 0.0, "is_disabled": 0}, {"rental_uris": {"android": "https://dc.lft.to/lastmile_qr_scan", "ios": "https://dc.lft.to/lastmile_qr_scan"}, "type": "electric_scooter", "lon": -77.03281466666667, "name": "5f16758a8e0302d55974347ef1581246", "bike_id": "5f16758a8e0302d55974347ef1581246", "fusion_lat": 0.0, "is_reserved": 0, "lat": 38.956491666666665, "fusion_lon": 0.0, "is_disabled": 0}, {"rental_uris": {"android": "https://dc.lft.to/lastmile_qr_scan", "ios": "https://dc.lft.to/lastmile_qr_scan"}, "type": "electric_scooter", "lon": -76.94773616666667, "name": "ef1eb010819cd5791aab2a368497f6e3", "bike_id": "ef1eb010819cd5791aab2a368497f6e3", "fusion_lat": 0.0, "is_reserved": 0, "lat": 38.8962405, "fusion_lon": 0.0, "is_disabled": 0}, {"rental_uris": {"android": "https://dc.lft.to/lastmile_qr_scan", "ios": "https://dc.lft.to/lastmile_qr_scan"}, "type": "electric_scooter", "lon": -76.99771916666667, "name": "bda0db1a308bbdfc4ff3aa8720d76ff4", "bike_id": "bda0db1a308bbdfc4ff3aa8720d76ff4", "fusion_lat": 0.0, "is_reserved": 0, "lat": 38.8442155, "fusion_lon": 0.0, "is_disabled": 0}, {"rental_uris": {"android": "https://dc.lft.to/lastmile_qr_scan", "ios": "https://dc.lft.to/lastmile_qr_scan"}, "type": "electric_scooter", "lon": -77.0114195, "name": "ca9b0e8dbd1abd5e153609070402d40a", "bike_id": "ca9b0e8dbd1abd5e153609070402d40a", "fusion_lat": 0.0, "is_reserved": 0, "lat": 38.91820166666667, "fusion_lon": 0.0, "is_disabled": 0}, {"rental_uris": {"android": "https://dc.lft.to/lastmile_qr_scan", "ios": "https://dc.lft.to/lastmile_qr_scan"}, "type": "electric_bike", "lon": -77.02680866666667, "name": "8b2da3b489d1b2023de48f7d7225602b", "bike_id": "8b2da3b489d1b2023de48f7d7225602b", "fusion_lat": 0.0, "is_reserved": 0, "lat": 38.973750833333334, "fusion_lon": 0.0, "is_disabled": 0}, {"rental_uris": {"android": "https://dc.lft.to/lastmile_qr_scan", "ios": "https://dc.lft.to/lastmile_qr_scan"}, "type": "electric_bike", "lon": -76.931888, "name": "d53cc98fe755c721c0a4607694b900bc", "bike_id": "d53cc98fe755c721c0a4607694b900bc", "fusion_lat": 0.0, "is_reserved": 0, "lat": 38.89853016666667, "fusion_lon": 0.0, "is_disabled": 0}, {"rental_uris": {"android": "https://dc.lft.to/lastmile_qr_scan", "ios": "https://dc.lft.to/lastmile_qr_scan"}, "type": "electric_scooter", "lon": -77.01671516666667, "name": "c849bc7c4975d3460d32aeba1f6f166c", "bike_id": "c849bc7c4975d3460d32aeba1f6f166c", "fusion_lat": 0.0, "is_reserved": 0, "lat": 38.88324816666667, "fusion_lon": 0.0, "is_disabled": 0}, {"rental_uris": {"android": "https://dc.lft.to/lastmile_qr_scan", "ios": "https://dc.lft.to/lastmile_qr_scan"}, "type": "electric_scooter", "lon": -77.04197883333333, "name": "37c79a605e4d11695f7434b589e17990", "bike_id": "37c79a605e4d11695f7434b589e17990", "fusion_lat": 0.0, "is_reserved": 0, "lat": 38.8922365, "fusion_lon": 0.0, "is_disabled": 0}, {"rental_uris": {"android": "https://dc.lft.to/lastmile_qr_scan", "ios": "https://dc.lft.to/lastmile_qr_scan"}, "type": "electric_scooter", "lon": -77.0344415, "name": "c7eb22792dc6dee94b86fa271ff8370d", "bike_id": "c7eb22792dc6dee94b86fa271ff8370d", "fusion_lat": 0.0, "is_reserved": 0, "lat": 38.928725, "fusion_lon": 0.0, "is_disabled": 0}, {"rental_uris": {"android": "https://dc.lft.to/lastmile_qr_scan", "ios": "https://dc.lft.to/lastmile_qr_scan"}, "type": "electric_scooter", "lon": -76.9377795, "name": "1d71e29a7296a9b1ee1cd1449908feb4", "bike_id": "1d71e29a7296a9b1ee1cd1449908feb4", "fusion_lat": 0.0, "is_reserved": 0, "lat": 38.8995875, "fusion_lon": 0.0, "is_disabled": 0}, {"rental_uris": {"android": "https://dc.lft.to/lastmile_qr_scan", "ios": "https://dc.lft.to/lastmile_qr_scan"}, "type": "electric_scooter", "lon": -77.01966933333334, "name": "e6f2fbeca5ed614cd9b6ea03f3198df8", "bike_id": "e6f2fbeca5ed614cd9b6ea03f3198df8", "fusion_lat": 0.0, "is_reserved": 0, "lat": 38.87635866666667, "fusion_lon": 0.0, "is_disabled": 0}, {"rental_uris": {"android": "https://dc.lft.to/lastmile_qr_scan", "ios": "https://dc.lft.to/lastmile_qr_scan"}, "type": "electric_scooter", "lon": -77.0289155, "name": "2540c8a01caee4698e7b2220e4689418", "bike_id": "2540c8a01caee4698e7b2220e4689418", "fusion_lat": 0.0, "is_reserved": 0, "lat": 38.90366316666667, "fusion_lon": 0.0, "is_disabled": 0}, {"rental_uris": {"android": "https://dc.lft.to/lastmile_qr_scan", "ios": "https://dc.lft.to/lastmile_qr_scan"}, "type": "electric_scooter", "lon": -77.03836, "name": "df93dd070793b939d1c6101805b0154c", "bike_id": "df93dd070793b939d1c6101805b0154c", "fusion_lat": 0.0, "is_reserved": 0, "lat": 38.903221, "fusion_lon": 0.0, "is_disabled": 0}, {"rental_uris": {"android": "https://dc.lft.to/lastmile_qr_scan", "ios": "https://dc.lft.to/lastmile_qr_scan"}, "type": "electric_scooter", "lon": -76.99024233333333, "name": "aa145401dfc90064900a9f6dd8a8c618", "bike_id": "aa145401dfc90064900a9f6dd8a8c618", "fusion_lat": 0.0, "is_reserved": 0, "lat": 38.864078666666664, "fusion_lon": 0.0, "is_disabled": 0}, {"rental_uris": {"android": "https://dc.lft.to/lastmile_qr_scan", "ios": "https://dc.lft.to/lastmile_qr_scan"}, "type": "electric_scooter", "lon": -76.990202, "name": "15a2f8ec40bcf7dc14c278e3dddf8818", "bike_id": "15a2f8ec40bcf7dc14c278e3dddf8818", "fusion_lat": 0.0, "is_reserved": 0, "lat": 38.901481, "fusion_lon": 0.0, "is_disabled": 0}, {"rental_uris": {"android": "https://dc.lft.to/lastmile_qr_scan", "ios": "https://dc.lft.to/lastmile_qr_scan"}, "type": "electric_scooter", "lon": -77.070816, "name": "0ed849d87a87f69cde067cd865805fa7", "bike_id": "0ed849d87a87f69cde067cd865805fa7", "fusion_lat": 0.0, "is_reserved": 0, "lat": 38.939054666666664, "fusion_lon": 0.0, "is_disabled": 0}, {"rental_uris": {"android": "https://dc.lft.to/lastmile_qr_scan", "ios": "https://dc.lft.to/lastmile_qr_scan"}, "type": "electric_scooter", "lon": -76.9902595, "name": "c04d5c75cb7f520bca1daa274cefd8f7", "bike_id": "c04d5c75cb7f520bca1daa274cefd8f7", "fusion_lat": 0.0, "is_reserved": 0, "lat": 38.888704833333335, "fusion_lon": 0.0, "is_disabled": 0}, {"rental_uris": {"android": "https://dc.lft.to/lastmile_qr_scan", "ios": "https://dc.lft.to/lastmile_qr_scan"}, "type": "electric_bike", "lon": -77.06943183333334, "name": "f4d070bcde3ae860b8dc6be80e3c5644", "bike_id": "f4d070bcde3ae860b8dc6be80e3c5644", "fusion_lat": 0.0, "is_reserved": 0, "lat": 38.9904095, "fusion_lon": 0.0, "is_disabled": 0}, {"rental_uris": {"android": "https://dc.lft.to/lastmile_qr_scan", "ios": "https://dc.lft.to/lastmile_qr_scan"}, "type": "electric_scooter", "lon": -77.04510883333333, "name": "b690d8b887baaddd6e69442935e8c277", "bike_id": "b690d8b887baaddd6e69442935e8c277", "fusion_lat": 0.0, "is_reserved": 0, "lat": 38.892221, "fusion_lon": 0.0, "is_disabled": 0}, {"rental_uris": {"android": "https://dc.lft.to/lastmile_qr_scan", "ios": "https://dc.lft.to/lastmile_qr_scan"}, "type": "electric_scooter", "lon": -77.034819, "name": "00a5448ef46ef8dfaa144a3d9ca0c44b", "bike_id": "00a5448ef46ef8dfaa144a3d9ca0c44b", "fusion_lat": 0.0, "is_reserved": 0, "lat": 38.924827, "fusion_lon": 0.0, "is_disabled": 0}, {"rental_uris": {"android": "https://dc.lft.to/lastmile_qr_scan", "ios": "https://dc.lft.to/lastmile_qr_scan"}, "type": "electric_scooter", "lon": -76.98241933333334, "name": "dab63d4c8fc8e25d4591ba543ed1ed67", "bike_id": "dab63d4c8fc8e25d4591ba543ed1ed67", "fusion_lat": 0.0, "is_reserved": 0, "lat": 38.9031, "fusion_lon": 0.0, "is_disabled": 0}, {"rental_uris": {"android": "https://dc.lft.to/lastmile_qr_scan", "ios": "https://dc.lft.to/lastmile_qr_scan"}, "type": "electric_scooter", "lon": -77.01393883333333, "name": "004ff61239842b82790faba3a33b3a04", "bike_id": "004ff61239842b82790faba3a33b3a04", "fusion_lat": 0.0, "is_reserved": 0, "lat": 38.880284333333336, "fusion_lon": 0.0, "is_disabled": 0}, {"rental_uris": {"android": "https://dc.lft.to/lastmile_qr_scan", "ios": "https://dc.lft.to/lastmile_qr_scan"}, "type": "electric_scooter", "lon": -77.02507983333334, "name": "5b128341328772e3e69a16e5872fc0f1", "bike_id": "5b128341328772e3e69a16e5872fc0f1", "fusion_lat": 0.0, "is_reserved": 0, "lat": 38.92650183333333, "fusion_lon": 0.0, "is_disabled": 0}, {"rental_uris": {"android": "https://dc.lft.to/lastmile_qr_scan", "ios": "https://dc.lft.to/lastmile_qr_scan"}, "type": "electric_scooter", "lon": -76.98776266666667, "name": "2dd9120653891e72734ee7f243be3458", "bike_id": "2dd9120653891e72734ee7f243be3458", "fusion_lat": 0.0, "is_reserved": 0, "lat": 38.90029583333333, "fusion_lon": 0.0, "is_disabled": 0}, {"rental_uris": {"android": "https://dc.lft.to/lastmile_qr_scan", "ios": "https://dc.lft.to/lastmile_qr_scan"}, "type": "electric_scooter", "lon": -77.02334016666667, "name": "d76871a52f5d78272164221e7c996d09", "bike_id": "d76871a52f5d78272164221e7c996d09", "fusion_lat": 0.0, "is_reserved": 0, "lat": 38.929708166666664, "fusion_lon": 0.0, "is_disabled": 0}, {"rental_uris": {"android": "https://dc.lft.to/lastmile_qr_scan", "ios": "https://dc.lft.to/lastmile_qr_scan"}, "type": "electric_bike", "lon": -77.02978466666667, "name": "850c7f841aed59384d2f1a33c675d1ae", "bike_id": "850c7f841aed59384d2f1a33c675d1ae", "fusion_lat": 0.0, "is_reserved": 0, "lat": 38.93699733333333, "fusion_lon": 0.0, "is_disabled": 0}, {"rental_uris": {"android": "https://dc.lft.to/lastmile_qr_scan", "ios": "https://dc.lft.to/lastmile_qr_scan"}, "type": "electric_scooter", "lon": -77.0421825, "name": "5b5cc1c9bc211f8be6cfa4031521634b", "bike_id": "5b5cc1c9bc211f8be6cfa4031521634b", "fusion_lat": 0.0, "is_reserved": 0, "lat": 38.9263595, "fusion_lon": 0.0, "is_disabled": 0}, {"rental_uris": {"android": "https://dc.lft.to/lastmile_qr_scan", "ios": "https://dc.lft.to/lastmile_qr_scan"}, "type": "electric_scooter", "lon": -77.0298155, "name": "10275a7dab65587d5cc1c630e8508366", "bike_id": "10275a7dab65587d5cc1c630e8508366", "fusion_lat": 0.0, "is_reserved": 0, "lat": 38.937549, "fusion_lon": 0.0, "is_disabled": 0}, {"rental_uris": {"android": "https://dc.lft.to/lastmile_qr_scan", "ios": "https://dc.lft.to/lastmile_qr_scan"}, "type": "electric_scooter", "lon": -77.07272866666666, "name": "6f3a0be15e3e65e8ed59d97ed90e50ec", "bike_id": "6f3a0be15e3e65e8ed59d97ed90e50ec", "fusion_lat": 0.0, "is_reserved": 0, "lat": 38.934800833333334, "fusion_lon": 0.0, "is_disabled": 0}, {"rental_uris": {"android": "https://dc.lft.to/lastmile_qr_scan", "ios": "https://dc.lft.to/lastmile_qr_scan"}, "type": "electric_scooter", "lon": -77.03170466666667, "name": "766164b79498894bf35e8d623d940068", "bike_id": "766164b79498894bf35e8d623d940068", "fusion_lat": 0.0, "is_reserved": 0, "lat": 38.901604666666664, "fusion_lon": 0.0, "is_disabled": 0}, {"rental_uris": {"android": "https://dc.lft.to/lastmile_qr_scan", "ios": "https://dc.lft.to/lastmile_qr_scan"}, "type": "electric_scooter", "lon": -76.990221, "name": "7a6431c5b0ce28b6c60bc8a4c6c3b2fb", "bike_id": "7a6431c5b0ce28b6c60bc8a4c6c3b2fb", "fusion_lat": 0.0, "is_reserved": 0, "lat": 38.8640755, "fusion_lon": 0.0, "is_disabled": 0}, {"rental_uris": {"android": "https://dc.lft.to/lastmile_qr_scan", "ios": "https://dc.lft.to/lastmile_qr_scan"}, "type": "electric_scooter", "lon": -77.03500683333333, "name": "1e51acd18542b74b936df01685d86256", "bike_id": "1e51acd18542b74b936df01685d86256", "fusion_lat": 0.0, "is_reserved": 0, "lat": 38.921539833333334, "fusion_lon": 0.0, "is_disabled": 0}, {"rental_uris": {"android": "https://dc.lft.to/lastmile_qr_scan", "ios": "https://dc.lft.to/lastmile_qr_scan"}, "type": "electric_scooter", "lon": -77.04961916666667, "name": "ab1bb032becb08cb2df8266312b22145", "bike_id": "ab1bb032becb08cb2df8266312b22145", "fusion_lat": 0.0, "is_reserved": 0, "lat": 38.9126165, "fusion_lon": 0.0, "is_disabled": 0}, {"rental_uris": {"android": "https://dc.lft.to/lastmile_qr_scan", "ios": "https://dc.lft.to/lastmile_qr_scan"}, "type": "electric_bike", "lon": -76.923367, "name": "9ce02149b263b607d489474f57cc8600", "bike_id": "9ce02149b263b607d489474f57cc8600", "fusion_lat": 0.0, "is_reserved": 0, "lat": 38.887903, "fusion_lon": 0.0, "is_disabled": 0}, {"rental_uris": {"android": "https://dc.lft.to/lastmile_qr_scan", "ios": "https://dc.lft.to/lastmile_qr_scan"}, "type": "electric_scooter", "lon": -77.0237395, "name": "24ae9862769855a044610d03381771ab", "bike_id": "24ae9862769855a044610d03381771ab", "fusion_lat": 0.0, "is_reserved": 0, "lat": 38.892219, "fusion_lon": 0.0, "is_disabled": 0}, {"rental_uris": {"android": "https://dc.lft.to/lastmile_qr_scan", "ios": "https://dc.lft.to/lastmile_qr_scan"}, "type": "electric_scooter", "lon": -77.04898883333334, "name": "2dcd285ec9a3ba194d49247bc95e467e", "bike_id": "2dcd285ec9a3ba194d49247bc95e467e", "fusion_lat": 0.0, "is_reserved": 0, "lat": 38.892551166666664, "fusion_lon": 0.0, "is_disabled": 0}, {"rental_uris": {"android": "https://dc.lft.to/lastmile_qr_scan", "ios": "https://dc.lft.to/lastmile_qr_scan"}, "type": "electric_scooter", "lon": -76.99575, "name": "bc490614058abbd5ad0ba85bec8d747d", "bike_id": "bc490614058abbd5ad0ba85bec8d747d", "fusion_lat": 0.0, "is_reserved": 0, "lat": 38.92066283333333, "fusion_lon": 0.0, "is_disabled": 0}, {"rental_uris": {"android": "https://dc.lft.to/lastmile_qr_scan", "ios": "https://dc.lft.to/lastmile_qr_scan"}, "type": "electric_bike", "lon": -77.01216733333334, "name": "1b77f0c74516148c6ed90a2929b1004a", "bike_id": "1b77f0c74516148c6ed90a2929b1004a", "fusion_lat": 0.0, "is_reserved": 0, "lat": 38.870815666666665, "fusion_lon": 0.0, "is_disabled": 0}, {"rental_uris": {"android": "https://dc.lft.to/lastmile_qr_scan", "ios": "https://dc.lft.to/lastmile_qr_scan"}, "type": "electric_scooter", "lon": -77.00808683333334, "name": "4ae02b58f053a9622a189a0594d85a75", "bike_id": "4ae02b58f053a9622a189a0594d85a75", "fusion_lat": 0.0, "is_reserved": 0, "lat": 38.87654766666667, "fusion_lon": 0.0, "is_disabled": 0}, {"rental_uris": {"android": "https://dc.lft.to/lastmile_qr_scan", "ios": "https://dc.lft.to/lastmile_qr_scan"}, "type": "electric_scooter", "lon": -77.01822, "name": "3cd6231550d92eed2564afaf2fdb2863", "bike_id": "3cd6231550d92eed2564afaf2fdb2863", "fusion_lat": 0.0, "is_reserved": 0, "lat": 38.908108, "fusion_lon": 0.0, "is_disabled": 0}, {"rental_uris": {"android": "https://dc.lft.to/lastmile_qr_scan", "ios": "https://dc.lft.to/lastmile_qr_scan"}, "type": "electric_scooter", "lon": -77.04322433333333, "name": "0d927ea79cf72f7f43451cbf51f4d318", "bike_id": "0d927ea79cf72f7f43451cbf51f4d318", "fusion_lat": 0.0, "is_reserved": 0, "lat": 38.9032865, "fusion_lon": 0.0, "is_disabled": 0}, {"rental_uris": {"android": "https://dc.lft.to/lastmile_qr_scan", "ios": "https://dc.lft.to/lastmile_qr_scan"}, "type": "electric_scooter", "lon": -76.96504966666667, "name": "8c7c2223333b45d9f78dce0266ec8a5a", "bike_id": "8c7c2223333b45d9f78dce0266ec8a5a", "fusion_lat": 0.0, "is_reserved": 0, "lat": 38.87649066666667, "fusion_lon": 0.0, "is_disabled": 0}, {"rental_uris": {"android": "https://dc.lft.to/lastmile_qr_scan", "ios": "https://dc.lft.to/lastmile_qr_scan"}, "type": "electric_bike", "lon": -77.10915716666666, "name": "bdfb8141e986fb85d055f2c67712880e", "bike_id": "bdfb8141e986fb85d055f2c67712880e", "fusion_lat": 0.0, "is_reserved": 0, "lat": 39.05200716666667, "fusion_lon": 0.0, "is_disabled": 0}, {"rental_uris": {"android": "https://dc.lft.to/lastmile_qr_scan", "ios": "https://dc.lft.to/lastmile_qr_scan"}, "type": "electric_scooter", "lon": -77.04383583333333, "name": "f2802f7435fb0e9bb5c39ba3e866aa39", "bike_id": "f2802f7435fb0e9bb5c39ba3e866aa39", "fusion_lat": 0.0, "is_reserved": 0, "lat": 38.9227915, "fusion_lon": 0.0, "is_disabled": 0}, {"rental_uris": {"android": "https://dc.lft.to/lastmile_qr_scan", "ios": "https://dc.lft.to/lastmile_qr_scan"}, "type": "electric_scooter", "lon": -76.98302466666667, "name": "c40e6a2ef79e983aaf5ecd122a0ffb5a", "bike_id": "c40e6a2ef79e983aaf5ecd122a0ffb5a", "fusion_lat": 0.0, "is_reserved": 0, "lat": 38.86890433333333, "fusion_lon": 0.0, "is_disabled": 0}, {"rental_uris": {"android": "https://dc.lft.to/lastmile_qr_scan", "ios": "https://dc.lft.to/lastmile_qr_scan"}, "type": "electric_scooter", "lon": -77.03501766666666, "name": "3d6a2a84952e7db8006c1196f95e5517", "bike_id": "3d6a2a84952e7db8006c1196f95e5517", "fusion_lat": 0.0, "is_reserved": 0, "lat": 38.91870766666667, "fusion_lon": 0.0, "is_disabled": 0}, {"rental_uris": {"android": "https://dc.lft.to/lastmile_qr_scan", "ios": "https://dc.lft.to/lastmile_qr_scan"}, "type": "electric_scooter", "lon": -77.04325216666666, "name": "b82a891fc81149e9a9139b0ba7d8d84a", "bike_id": "b82a891fc81149e9a9139b0ba7d8d84a", "fusion_lat": 0.0, "is_reserved": 0, "lat": 38.90393733333333, "fusion_lon": 0.0, "is_disabled": 0}, {"rental_uris": {"android": "https://dc.lft.to/lastmile_qr_scan", "ios": "https://dc.lft.to/lastmile_qr_scan"}, "type": "electric_scooter", "lon": -77.04133783333333, "name": "0d8050cc4b9eacab17e1ffc803d0ad74", "bike_id": "0d8050cc4b9eacab17e1ffc803d0ad74", "fusion_lat": 0.0, "is_reserved": 0, "lat": 38.90613483333333, "fusion_lon": 0.0, "is_disabled": 0}, {"rental_uris": {"android": "https://dc.lft.to/lastmile_qr_scan", "ios": "https://dc.lft.to/lastmile_qr_scan"}, "type": "electric_scooter", "lon": -76.99030966666666, "name": "86224c57082b2148dca0d19fcd4f7cd6", "bike_id": "86224c57082b2148dca0d19fcd4f7cd6", "fusion_lat": 0.0, "is_reserved": 0, "lat": 38.858729333333336, "fusion_lon": 0.0, "is_disabled": 0}, {"rental_uris": {"android": "https://dc.lft.to/lastmile_qr_scan", "ios": "https://dc.lft.to/lastmile_qr_scan"}, "type": "electric_scooter", "lon": -76.97346533333334, "name": "9417f7e8f60f519d8e80a90c1be0fca5", "bike_id": "9417f7e8f60f519d8e80a90c1be0fca5", "fusion_lat": 0.0, "is_reserved": 0, "lat": 38.8651055, "fusion_lon": 0.0, "is_disabled": 0}, {"rental_uris": {"android": "https://dc.lft.to/lastmile_qr_scan", "ios": "https://dc.lft.to/lastmile_qr_scan"}, "type": "electric_scooter", "lon": -77.03269883333333, "name": "4aca7b1eb29c1d787fbd6e328ce7a274", "bike_id": "4aca7b1eb29c1d787fbd6e328ce7a274", "fusion_lat": 0.0, "is_reserved": 0, "lat": 38.930976333333334, "fusion_lon": 0.0, "is_disabled": 0}, {"rental_uris": {"android": "https://dc.lft.to/lastmile_qr_scan", "ios": "https://dc.lft.to/lastmile_qr_scan"},