{"data": {"bikes": [{"is_reserved": 0, "type": "electric_scooter", "bike_id": "cdbda6460da02fec3699728f74dfd534", "lat": 38.89923266666667, "lon": -77.03195016666666, "rental_uris": {"android": "https://dc.lft.to/lastmile_qr_scan", "ios": "https://dc.lft.to/lastmile_qr_scan"}, "is_disabled": 0, "fusion_lat": 0.0, "name": "cdbda6460da02fec3699728f74dfd534", "fusion_lon": 0.0}, {"is_reserved": 0, "type": "electric_scooter", "bike_id": "b34dea37906e5e53b1edb3024b2b2888", "lat": 38.910461, "lon": -77.015124, "rental_uris": {"android": "https://dc.lft.to/lastmile_qr_scan", "ios": "https://dc.lft.to/lastmile_qr_scan"}, "is_disabled": 0, "fusion_lat": 0.0, "name": "b34dea37906e5e53b1edb3024b2b2888", "fusion_lon": 0.0}, {"is_reserved": 0, "type": "electric_scooter", "bike_id": "8c4de1597c9fe248ede2fb0139ba6844", "lat": 38.92022983333333, "lon": -77.02704733333333, "rental_uris": {"android": "https://dc.lft.to/lastmile_qr_scan", "ios": "https://dc.lft.to/lastmile_qr_scan"}, "is_disabled": 0, "fusion_lat": 0.0, "name": "8c4de1597c9fe248ede2fb0139ba6844", "fusion_lon": 0.0}, {"is_reserved": 0, "type": "electric_scooter", "bike_id": "8ecc70795f883d6207b066d43922cdd5", "lat": 38.92365616666667, "lon": -77.036556, "rental_uris": {"android": "https://dc.lft.to/lastmile_qr_scan", "ios": "https://dc.lft.to/lastmile_qr_scan"}, "is_disabled": 0, "fusion_lat": 0.0, "name": "8ecc70795f883d6207b066d43922cdd5", "fusion_lon": 0.0}, {"is_reserved": 0, "type": "electric_bike", "bike_id": "ee2652d2b00cc50a67c0438f5ef67901", "lat": 38.840508666666665, "lon": -77.0559895, "rental_uris": {"android": "https://dc.lft.to/lastmile_qr_scan", "ios": "https://dc.lft.to/lastmile_qr_scan"}, "is_disabled": 0, "fusion_lat": 0.0, "name": "ee2652d2b00cc50a67c0438f5ef67901", "fusion_lon": 0.0}, {"is_reserved": 0, "type": "electric_scooter", "bike_id": "b9e82336f80eaf32ac44bee9b8b93c5e", "lat": 38.936308833333335, "lon": -77.036882, "rental_uris": {"android": "https://dc.lft.to/lastmile_qr_scan", "ios": "https://dc.lft.to/lastmile_qr_scan"}, "is_disabled": 0, "fusion_lat": 0.0, "name": "b9e82336f80eaf32ac44bee9b8b93c5e", "fusion_lon": 0.0}, {"is_reserved": 0, "type": "electric_scooter", "bike_id": "38375ab3740192596cf4d2054e03e144", "lat": 38.921450166666666, "lon": -77.03514616666666, "rental_uris": {"android": "https://dc.lft.to/lastmile_qr_scan", "ios": "https://dc.lft.to/lastmile_qr_scan"}, "is_disabled": 0, "fusion_lat": 0.0, "name": "38375ab3740192596cf4d2054e03e144", "fusion_lon": 0.0}, {"is_reserved": 0, "type": "electric_scooter", "bike_id": "36c67be1f703765dfa75c97ca2364716", "lat": 38.90680283333333, "lon": -77.06261233333333, "rental_uris": {"android": "https://dc.lft.to/lastmile_qr_scan", "ios": "https://dc.lft.to/lastmile_qr_scan"}, "is_disabled": 0, "fusion_lat": 0.0, "name": "36c67be1f703765dfa75c97ca2364716", "fusion_lon": 0.0}, {"is_reserved": 0, "type": "electric_scooter", "bike_id": "0c09f760ad0ac46149113624b9ce425f", "lat": 38.90397, "lon": -77.0185925, "rental_uris": {"android": "https://dc.lft.to/lastmile_qr_scan", "ios": "https://dc.lft.to/lastmile_qr_scan"}, "is_disabled": 0, "fusion_lat": 0.0, "name": "0c09f760ad0ac46149113624b9ce425f", "fusion_lon": 0.0}, {"is_reserved": 0, "type": "electric_bike", "bike_id": "ad3e4da763082cf72b39921b63129ec7", "lat": 38.80867083333333, "lon": -77.11254166666667, "rental_uris": {"android": "https://dc.lft.to/lastmile_qr_scan", "ios": "https://dc.lft.to/lastmile_qr_scan"}, "is_disabled": 0, "fusion_lat": 0.0, "name": "ad3e4da763082cf72b39921b63129ec7", "fusion_lon": 0.0}, {"is_reserved": 0, "type": "electric_scooter", "bike_id": "b898127cb97ee91c83ba92cd6ae4167c", "lat": 38.935224833333336, "lon": -77.0195525, "rental_uris": {"android": "https://dc.lft.to/lastmile_qr_scan", "ios": "https://dc.lft.to/lastmile_qr_scan"}, "is_disabled": 0, "fusion_lat": 0.0, "name": "b898127cb97ee91c83ba92cd6ae4167c", "fusion_lon": 0.0}, {"is_reserved": 0, "type": "electric_scooter", "bike_id": "53d325fb20df08eba86c43a28eb79b11", "lat": 38.905132, "lon": -77.0566505, "rental_uris": {"android": "https://dc.lft.to/lastmile_qr_scan", "ios": "https://dc.lft.to/lastmile_qr_scan"}, "is_disabled": 0, "fusion_lat": 0.0, "name": "53d325fb20df08eba86c43a28eb79b11", "fusion_lon": 0.0}, {"is_reserved": 0, "type": "electric_scooter", "bike_id": "6ba2cf2700e84f684b8207b89ddb4cd5", "lat": 38.893720333333334, "lon": -77.02831633333334, "rental_uris": {"android": "https://dc.lft.to/lastmile_qr_scan", "ios": "https://dc.lft.to/lastmile_qr_scan"}, "is_disabled": 0, "fusion_lat": 0.0, "name": "6ba2cf2700e84f684b8207b89ddb4cd5", "fusion_lon": 0.0}, {"is_reserved": 0, "type": "electric_scooter", "bike_id": "99674a780f0b7d100ef24852a23b374b", "lat": 38.900877, "lon": -77.01605583333334, "rental_uris": {"android": "https://dc.lft.to/lastmile_qr_scan", "ios": "https://dc.lft.to/lastmile_qr_scan"}, "is_disabled": 0, "fusion_lat": 0.0, "name": "99674a780f0b7d100ef24852a23b374b", "fusion_lon": 0.0}, {"is_reserved": 0, "type": "electric_scooter", "bike_id": "a12741944dba3080735568efc0b90c81", "lat": 38.90088083333333, "lon": -77.05739066666666, "rental_uris": {"android": "https://dc.lft.to/lastmile_qr_scan", "ios": "https://dc.lft.to/lastmile_qr_scan"}, "is_disabled": 0, "fusion_lat": 0.0, "name": "a12741944dba3080735568efc0b90c81", "fusion_lon": 0.0}, {"is_reserved": 0, "type": "electric_scooter", "bike_id": "1327721074002b09190a32d42db21c18", "lat": 38.905955666666664, "lon": -77.0416105, "rental_uris": {"android": "https://dc.lft.to/lastmile_qr_scan", "ios": "https://dc.lft.to/lastmile_qr_scan"}, "is_disabled": 0, "fusion_lat": 0.0, "name": "1327721074002b09190a32d42db21c18", "fusion_lon": 0.0}, {"is_reserved": 0, "type": "electric_scooter", "bike_id": "8cc215a5349dd24d01365009931ae63f", "lat": 38.911138333333334, "lon": -77.043555, "rental_uris": {"android": "https://dc.lft.to/lastmile_qr_scan", "ios": "https://dc.lft.to/lastmile_qr_scan"}, "is_disabled": 0, "fusion_lat": 0.0, "name": "8cc215a5349dd24d01365009931ae63f", "fusion_lon": 0.0}, {"is_reserved": 0, "type": "electric_scooter", "bike_id": "980a64238956dbbaedf5f2acc18e251f", "lat": 38.87159666666667, "lon": -77.01316483333333, "rental_uris": {"android": "https://dc.lft.to/lastmile_qr_scan", "ios": "https://dc.lft.to/lastmile_qr_scan"}, "is_disabled": 0, "fusion_lat": 0.0, "name": "980a64238956dbbaedf5f2acc18e251f", "fusion_lon": 0.0}, {"is_reserved": 0, "type": "electric_scooter", "bike_id": "eaed0251bc5bf6c970334c54a37bc955", "lat": 38.90691416666667, "lon": -77.05620466666667, "rental_uris": {"android": "https://dc.lft.to/lastmile_qr_scan", "ios": "https://dc.lft.to/lastmile_qr_scan"}, "is_disabled": 0, "fusion_lat": 0.0, "name": "eaed0251bc5bf6c970334c54a37bc955", "fusion_lon": 0.0}, {"is_reserved": 0, "type": "electric_scooter", "bike_id": "8f2141249e324f21fdea89c96797c1ed", "lat": 38.872676, "lon": -77.01710066666666, "rental_uris": {"android": "https://dc.lft.to/lastmile_qr_scan", "ios": "https://dc.lft.to/lastmile_qr_scan"}, "is_disabled": 0, "fusion_lat": 0.0, "name": "8f2141249e324f21fdea89c96797c1ed", "fusion_lon": 0.0}, {"is_reserved": 0, "type": "electric_bike", "bike_id": "bd038daabbb3b3241aa93332480bc0ce", "lat": 38.949638, "lon": -76.96091783333334, "rental_uris": {"android": "https://dc.lft.to/lastmile_qr_scan", "ios": "https://dc.lft.to/lastmile_qr_scan"}, "is_disabled": 0, "fusion_lat": 0.0, "name": "bd038daabbb3b3241aa93332480bc0ce", "fusion_lon": 0.0}, {"is_reserved": 0, "type": "electric_bike", "bike_id": "a36acccf0d0456b34456af691312aee3", "lat": 38.900456166666665, "lon": -76.97793216666666, "rental_uris": {"android": "https://dc.lft.to/lastmile_qr_scan", "ios": "https://dc.lft.to/lastmile_qr_scan"}, "is_disabled": 0, "fusion_lat": 0.0, "name": "a36acccf0d0456b34456af691312aee3", "fusion_lon": 0.0}, {"is_reserved": 0, "type": "electric_bike", "bike_id": "8e4ed13fd45c632e0e5700baa52e5eb0", "lat": 38.95153366666667, "lon": -76.93333316666667, "rental_uris": {"android": "https://dc.lft.to/lastmile_qr_scan", "ios": "https://dc.lft.to/lastmile_qr_scan"}, "is_disabled": 0, "fusion_lat": 0.0, "name": "8e4ed13fd45c632e0e5700baa52e5eb0", "fusion_lon": 0.0}, {"is_reserved": 0, "type": "electric_scooter", "bike_id": "91be1d9b7d8584c5d24fc253024e6ddb", "lat": 38.91046466666667, "lon": -77.01514466666667, "rental_uris": {"android": "https://dc.lft.to/lastmile_qr_scan", "ios": "https://dc.lft.to/lastmile_qr_scan"}, "is_disabled": 0, "fusion_lat": 0.0, "name": "91be1d9b7d8584c5d24fc253024e6ddb", "fusion_lon": 0.0}, {"is_reserved": 0, "type": "electric_scooter", "bike_id": "0e5403691a4de5293a7816adce7cbb37", "lat": 38.933408166666666, "lon": -77.04133966666667, "rental_uris": {"android": "https://dc.lft.to/lastmile_qr_scan", "ios": "https://dc.lft.to/lastmile_qr_scan"}, "is_disabled": 0, "fusion_lat": 0.0, "name": "0e5403691a4de5293a7816adce7cbb37", "fusion_lon": 0.0}, {"is_reserved": 0, "type": "electric_scooter", "bike_id": "a5acdbed53486a535e760ce170a282e9", "lat": 38.92599233333333, "lon": -77.0570855, "rental_uris": {"android": "https://dc.lft.to/lastmile_qr_scan", "ios": "https://dc.lft.to/lastmile_qr_scan"}, "is_disabled": 0, "fusion_lat": 0.0, "name": "a5acdbed53486a535e760ce170a282e9", "fusion_lon": 0.0}, {"is_reserved": 0, "type": "electric_bike", "bike_id": "7a1394a325a972660a144e90074e4c04", "lat": 38.8025665, "lon": -77.121717, "rental_uris": {"android": "https://dc.lft.to/lastmile_qr_scan", "ios": "https://dc.lft.to/lastmile_qr_scan"}, "is_disabled": 0, "fusion_lat": 0.0, "name": "7a1394a325a972660a144e90074e4c04", "fusion_lon": 0.0}, {"is_reserved": 0, "type": "electric_scooter", "bike_id": "1cd71a19b70f40a9903a7e4d6f580b82", "lat": 38.949744, "lon": -77.02444916666667, "rental_uris": {"android": "https://dc.lft.to/lastmile_qr_scan", "ios": "https://dc.lft.to/lastmile_qr_scan"}, "is_disabled": 0, "fusion_lat": 0.0, "name": "1cd71a19b70f40a9903a7e4d6f580b82", "fusion_lon": 0.0}, {"is_reserved": 0, "type": "electric_scooter", "bike_id": "78e20d64fe16960a21ff3b82c7a07c24", "lat": 38.89770433333333, "lon": -77.05025183333333, "rental_uris": {"android": "https://dc.lft.to/lastmile_qr_scan", "ios": "https://dc.lft.to/lastmile_qr_scan"}, "is_disabled": 0, "fusion_lat": 0.0, "name": "78e20d64fe16960a21ff3b82c7a07c24", "fusion_lon": 0.0}, {"is_reserved": 0, "type": "electric_scooter", "bike_id": "927889f11bed1a082761f6561256014d", "lat": 38.91761183333333, "lon": -77.00462233333333, "rental_uris": {"android": "https://dc.lft.to/lastmile_qr_scan", "ios": "https://dc.lft.to/lastmile_qr_scan"}, "is_disabled": 0, "fusion_lat": 0.0, "name": "927889f11bed1a082761f6561256014d", "fusion_lon": 0.0}, {"is_reserved": 0, "type": "electric_scooter", "bike_id": "fda7907b6155f9341812409b7d985444", "lat": 38.92685083333333, "lon": -77.03235566666666, "rental_uris": {"android": "https://dc.lft.to/lastmile_qr_scan", "ios": "https://dc.lft.to/lastmile_qr_scan"}, "is_disabled": 0, "fusion_lat": 0.0, "name": "fda7907b6155f9341812409b7d985444", "fusion_lon": 0.0}, {"is_reserved": 0, "type": "electric_bike", "bike_id": "9f887b0d2074d8bcae4aa04895f7b2b0", "lat": 38.92068483333333, "lon": -76.9958025, "rental_uris": {"android": "https://dc.lft.to/lastmile_qr_scan", "ios": "https://dc.lft.to/lastmile_qr_scan"}, "is_disabled": 0, "fusion_lat": 0.0, "name": "9f887b0d2074d8bcae4aa04895f7b2b0", "fusion_lon": 0.0}, {"is_reserved": 0, "type": "electric_scooter", "bike_id": "7fa60bbf2e1b22550db4f2dc526d4909", "lat": 38.88293566666667, "lon": -77.023662, "rental_uris": {"android": "https://dc.lft.to/lastmile_qr_scan", "ios": "https://dc.lft.to/lastmile_qr_scan"}, "is_disabled": 0, "fusion_lat": 0.0, "name": "7fa60bbf2e1b22550db4f2dc526d4909", "fusion_lon": 0.0}, {"is_reserved": 0, "type": "electric_bike", "bike_id": "1d011f76d4c0d22d9009603c57251b0e", "lat": 38.917019833333335, "lon": -77.05719266666667, "rental_uris": {"android": "https://dc.lft.to/lastmile_qr_scan", "ios": "https://dc.lft.to/lastmile_qr_scan"}, "is_disabled": 0, "fusion_lat": 0.0, "name": "1d011f76d4c0d22d9009603c57251b0e", "fusion_lon": 0.0}, {"is_reserved": 0, "type": "electric_bike", "bike_id": "404a4fbe84a373fd33a101d4fc394708", "lat": 38.92035033333333, "lon": -76.9795605, "rental_uris": {"android": "https://dc.lft.to/lastmile_qr_scan", "ios": "https://dc.lft.to/lastmile_qr_scan"}, "is_disabled": 0, "fusion_lat": 0.0, "name": "404a4fbe84a373fd33a101d4fc394708", "fusion_lon": 0.0}, {"is_reserved": 0, "type": "electric_scooter", "bike_id": "ef4d4269a93270809278a0c1328703cc", "lat": 38.9032015, "lon": -77.01078616666666, "rental_uris": {"android": "https://dc.lft.to/lastmile_qr_scan", "ios": "https://dc.lft.to/lastmile_qr_scan"}, "is_disabled": 0, "fusion_lat": 0.0, "name": "ef4d4269a93270809278a0c1328703cc", "fusion_lon": 0.0}, {"is_reserved": 0, "type": "electric_scooter", "bike_id": "6aceb043fc88a6f58caa67cf88e58dc2", "lat": 38.892193, "lon": -77.02423983333334, "rental_uris": {"android": "https://dc.lft.to/lastmile_qr_scan", "ios": "https://dc.lft.to/lastmile_qr_scan"}, "is_disabled": 0, "fusion_lat": 0.0, "name": "6aceb043fc88a6f58caa67cf88e58dc2", "fusion_lon": 0.0}, {"is_reserved": 0, "type": "electric_scooter", "bike_id": "3bb8e045544b1dad8f51904c1d15ea92", "lat": 38.88122633333333, "lon": -77.0197895, "rental_uris": {"android": "https://dc.lft.to/lastmile_qr_scan", "ios": "https://dc.lft.to/lastmile_qr_scan"}, "is_disabled": 0, "fusion_lat": 0.0, "name": "3bb8e045544b1dad8f51904c1d15ea92", "fusion_lon": 0.0}, {"is_reserved": 0, "type": "electric_bike", "bike_id": "a7028c77dfb2bb52e3573e95b01f28db", "lat": 38.86756333333334, "lon": -76.94538616666667, "rental_uris": {"android": "https://dc.lft.to/lastmile_qr_scan", "ios": "https://dc.lft.to/lastmile_qr_scan"}, "is_disabled": 0, "fusion_lat": 0.0, "name": "a7028c77dfb2bb52e3573e95b01f28db", "fusion_lon": 0.0}, {"is_reserved": 0, "type": "electric_scooter", "bike_id": "5726030d507cff74ca2cc0e739ba0602", "lat": 38.88769633333333, "lon": -76.93261866666667, "rental_uris": {"android": "https://dc.lft.to/lastmile_qr_scan", "ios": "https://dc.lft.to/lastmile_qr_scan"}, "is_disabled": 0, "fusion_lat": 0.0, "name": "5726030d507cff74ca2cc0e739ba0602", "fusion_lon": 0.0}, {"is_reserved": 0, "type": "electric_bike", "bike_id": "78be9b609a07bf8ec1b6593a8bd4663f", "lat": 38.8919835, "lon": -77.06977783333333, "rental_uris": {"android": "https://dc.lft.to/lastmile_qr_scan", "ios": "https://dc.lft.to/lastmile_qr_scan"}, "is_disabled": 0, "fusion_lat": 0.0, "name": "78be9b609a07bf8ec1b6593a8bd4663f", "fusion_lon": 0.0}, {"is_reserved": 0, "type": "electric_scooter", "bike_id": "6572b91bb5f5b8a04836191024fecd57", "lat": 38.912668, "lon": -77.0183855, "rental_uris": {"android": "https://dc.lft.to/lastmile_qr_scan", "ios": "https://dc.lft.to/lastmile_qr_scan"}, "is_disabled": 0, "fusion_lat": 0.0, "name": "6572b91bb5f5b8a04836191024fecd57", "fusion_lon": 0.0}, {"is_reserved": 0, "type": "electric_scooter", "bike_id": "af322490b1f3add6a187f8fbc36370ea", "lat": 38.919133333333335, "lon": -77.00990516666667, "rental_uris": {"android": "https://dc.lft.to/lastmile_qr_scan", "ios": "https://dc.lft.to/lastmile_qr_scan"}, "is_disabled": 0, "fusion_lat": 0.0, "name": "af322490b1f3add6a187f8fbc36370ea", "fusion_lon": 0.0}, {"is_reserved": 0, "type": "electric_scooter", "bike_id": "779057bfea398d5280427834b7209ada", "lat": 38.90566366666667, "lon": -77.01847883333333, "rental_uris": {"android": "https://dc.lft.to/lastmile_qr_scan", "ios": "https://dc.lft.to/lastmile_qr_scan"}, "is_disabled": 0, "fusion_lat": 0.0, "name": "779057bfea398d5280427834b7209ada", "fusion_lon": 0.0}, {"is_reserved": 0, "type": "electric_bike", "bike_id": "a08f9a3bdd978f53be333f1da808cd49", "lat": 38.932080166666665, "lon": -77.02340383333333, "rental_uris": {"android": "https://dc.lft.to/lastmile_qr_scan", "ios": "https://dc.lft.to/lastmile_qr_scan"}, "is_disabled": 0, "fusion_lat": 0.0, "name": "a08f9a3bdd978f53be333f1da808cd49", "fusion_lon": 0.0}, {"is_reserved": 0, "type": "electric_scooter", "bike_id": "4eabe9c59d6fc9f7280af4234a686fd6", "lat": 38.919758333333334, "lon": -77.02388816666667, "rental_uris": {"android": "https://dc.lft.to/lastmile_qr_scan", "ios": "https://dc.lft.to/lastmile_qr_scan"}, "is_disabled": 0, "fusion_lat": 0.0, "name": "4eabe9c59d6fc9f7280af4234a686fd6", "fusion_lon": 0.0}, {"is_reserved": 0, "type": "electric_scooter", "bike_id": "687543e05a55ee633ed86e1ec18b14c6", "lat": 38.92100383333333, "lon": -77.01797433333333, "rental_uris": {"android": "https://dc.lft.to/lastmile_qr_scan", "ios": "https://dc.lft.to/lastmile_qr_scan"}, "is_disabled": 0, "fusion_lat": 0.0, "name": "687543e05a55ee633ed86e1ec18b14c6", "fusion_lon": 0.0}, {"is_reserved": 0, "type": "electric_scooter", "bike_id": "71da770ece7ea74a5fdf560be94b4e90", "lat": 38.93388016666667, "lon": -77.02389383333333, "rental_uris": {"android": "https://dc.lft.to/lastmile_qr_scan", "ios": "https://dc.lft.to/lastmile_qr_scan"}, "is_disabled": 0, "fusion_lat": 0.0, "name": "71da770ece7ea74a5fdf560be94b4e90", "fusion_lon": 0.0}, {"is_reserved": 0, "type": "electric_scooter", "bike_id": "c72918c50ffcc422f83cf2459bcd0599", "lat": 38.89991933333334, "lon": -77.02713066666666, "rental_uris": {"android": "https://dc.lft.to/lastmile_qr_scan", "ios": "https://dc.lft.to/lastmile_qr_scan"}, "is_disabled": 0, "fusion_lat": 0.0, "name": "c72918c50ffcc422f83cf2459bcd0599", "fusion_lon": 0.0}, {"is_reserved": 0, "type": "electric_scooter", "bike_id": "7a06e6299313c2ac2a3915a2434bf3a1", "lat": 38.9198775, "lon": -77.03214716666666, "rental_uris": {"android": "https://dc.lft.to/lastmile_qr_scan", "ios": "https://dc.lft.to/lastmile_qr_scan"}, "is_disabled": 0, "fusion_lat": 0.0, "name": "7a06e6299313c2ac2a3915a2434bf3a1", "fusion_lon": 0.0}, {"is_reserved": 0, "type": "electric_scooter", "bike_id": "a25507048e4e0ff2259e8ec24cf9e1b8", "lat": 38.95623116666667, "lon": -77.03559916666667, "rental_uris": {"android": "https://dc.lft.to/lastmile_qr_scan", "ios": "https://dc.lft.to/lastmile_qr_scan"}, "is_disabled": 0, "fusion_lat": 0.0, "name": "a25507048e4e0ff2259e8ec24cf9e1b8", "fusion_lon": 0.0}, {"is_reserved": 0, "type": "electric_scooter", "bike_id": "83c7cb3aff8f23f52ea41282eeddca7b", "lat": 38.91261433333333, "lon": -77.04444383333333, "rental_uris": {"android": "https://dc.lft.to/lastmile_qr_scan", "ios": "https://dc.lft.to/lastmile_qr_scan"}, "is_disabled": 0, "fusion_lat": 0.0, "name": "83c7cb3aff8f23f52ea41282eeddca7b", "fusion_lon": 0.0}, {"is_reserved": 0, "type": "electric_scooter", "bike_id": "71fedf837e10f66bd64b5dd29f7dbfef", "lat": 38.9141215, "lon": -77.02211466666667, "rental_uris": {"android": "https://dc.lft.to/lastmile_qr_scan", "ios": "https://dc.lft.to/lastmile_qr_scan"}, "is_disabled": 0, "fusion_lat": 0.0, "name": "71fedf837e10f66bd64b5dd29f7dbfef", "fusion_lon": 0.0}, {"is_reserved": 0, "type": "electric_scooter", "bike_id": "6bc8cf8c5c348ff67c4eceb11fbb5372", "lat": 38.92921166666667, "lon": -77.02006616666667, "rental_uris": {"android": "https://dc.lft.to/lastmile_qr_scan", "ios": "https://dc.lft.to/lastmile_qr_scan"}, "is_disabled": 0, "fusion_lat": 0.0, "name": "6bc8cf8c5c348ff67c4eceb11fbb5372", "fusion_lon": 0.0}, {"is_reserved": 0, "type": "electric_scooter", "bike_id": "c174b81c6c8fcbf41d50753d799cf23b", "lat": 38.904990166666664, "lon": -77.02946466666667, "rental_uris": {"android": "https://dc.lft.to/lastmile_qr_scan", "ios": "https://dc.lft.to/lastmile_qr_scan"}, "is_disabled": 0, "fusion_lat": 0.0, "name": "c174b81c6c8fcbf41d50753d799cf23b", "fusion_lon": 0.0}, {"is_reserved": 0, "type": "electric_scooter", "bike_id": "1f52b118e9da452cd5a4f61c0aab5cac", "lat": 38.88736016666667, "lon": -77.01352283333334, "rental_uris": {"android": "https://dc.lft.to/lastmile_qr_scan", "ios": "https://dc.lft.to/lastmile_qr_scan"}, "is_disabled": 0, "fusion_lat": 0.0, "name": "1f52b118e9da452cd5a4f61c0aab5cac", "fusion_lon": 0.0}, {"is_reserved": 0, "type": "electric_scooter", "bike_id": "78bbc81cbbbb0d3b64d5db1dc850d669", "lat": 38.94435033333333, "lon": -77.02918366666667, "rental_uris": {"android": "https://dc.lft.to/lastmile_qr_scan", "ios": "https://dc.lft.to/lastmile_qr_scan"}, "is_disabled": 0, "fusion_lat": 0.0, "name": "78bbc81cbbbb0d3b64d5db1dc850d669", "fusion_lon": 0.0}, {"is_reserved": 0, "type": "electric_scooter", "bike_id": "c5bf168200027b17aed811539672b4c1", "lat": 38.9001715, "lon": -77.00688933333333, "rental_uris": {"android": "https://dc.lft.to/lastmile_qr_scan", "ios": "https://dc.lft.to/lastmile_qr_scan"}, "is_disabled": 0, "fusion_lat": 0.0, "name": "c5bf168200027b17aed811539672b4c1", "fusion_lon": 0.0}, {"is_reserved": 0, "type": "electric_scooter", "bike_id": "3a256ae797e5ae5d4fefce43732347ec", "lat": 38.9224305, "lon": -77.02237566666666, "rental_uris": {"android": "https://dc.lft.to/lastmile_qr_scan", "ios": "https://dc.lft.to/lastmile_qr_scan"}, "is_disabled": 0, "fusion_lat": 0.0, "name": "3a256ae797e5ae5d4fefce43732347ec", "fusion_lon": 0.0}, {"is_reserved": 0, "type": "electric_scooter", "bike_id": "3fc210dc90119fbf6b8c5e65692d9935", "lat": 38.9157775, "lon": -77.0122995, "rental_uris": {"android": "https://dc.lft.to/lastmile_qr_scan", "ios": "https://dc.lft.to/lastmile_qr_scan"}, "is_disabled": 0, "fusion_lat": 0.0, "name": "3fc210dc90119fbf6b8c5e65692d9935", "fusion_lon": 0.0}, {"is_reserved": 0, "type": "electric_scooter", "bike_id": "c1b0dad7d67ea5047b03115ddbfbbbde", "lat": 38.919815, "lon": -77.02388066666667, "rental_uris": {"android": "https://dc.lft.to/lastmile_qr_scan", "ios": "https://dc.lft.to/lastmile_qr_scan"}, "is_disabled": 0, "fusion_lat": 0.0, "name": "c1b0dad7d67ea5047b03115ddbfbbbde", "fusion_lon": 0.0}, {"is_reserved": 0, "type": "electric_scooter", "bike_id": "283d34e71ff8f0b8aabb00393d5a0f1c", "lat": 38.8850895, "lon": -77.02104866666667, "rental_uris": {"android": "https://dc.lft.to/lastmile_qr_scan", "ios": "https://dc.lft.to/lastmile_qr_scan"}, "is_disabled": 0, "fusion_lat": 0.0, "name": "283d34e71ff8f0b8aabb00393d5a0f1c", "fusion_lon": 0.0}, {"is_reserved": 0, "type": "electric_bike", "bike_id": "94fec6b51060e1dd8449b1e452855f8c", "lat": 38.862837166666665, "lon": -76.98014416666666, "rental_uris": {"android": "https://dc.lft.to/lastmile_qr_scan", "ios": "https://dc.lft.to/lastmile_qr_scan"}, "is_disabled": 0, "fusion_lat": 0.0, "name": "94fec6b51060e1dd8449b1e452855f8c", "fusion_lon": 0.0}, {"is_reserved": 0, "type": "electric_scooter", "bike_id": "7dd6e7e61bf19d6ca2daf111f4f88979", "lat": 38.886335833333334, "lon": -77.01286416666666, "rental_uris": {"android": "https://dc.lft.to/lastmile_qr_scan", "ios": "https://dc.lft.to/lastmile_qr_scan"}, "is_disabled": 0, "fusion_lat": 0.0, "name": "7dd6e7e61bf19d6ca2daf111f4f88979", "fusion_lon": 0.0}, {"is_reserved": 0, "type": "electric_scooter", "bike_id": "72e0f6d9574caba39977226311cbc33e", "lat": 38.91781183333333, "lon": -77.0231325, "rental_uris": {"android": "https://dc.lft.to/lastmile_qr_scan", "ios": "https://dc.lft.to/lastmile_qr_scan"}, "is_disabled": 0, "fusion_lat": 0.0, "name": "72e0f6d9574caba39977226311cbc33e", "fusion_lon": 0.0}, {"is_reserved": 0, "type": "electric_scooter", "bike_id": "2fa18c180f4f94c3a7dc18d71b1f3b25", "lat": 38.9299615, "lon": -77.02169783333333, "rental_uris": {"android": "https://dc.lft.to/lastmile_qr_scan", "ios": "https://dc.lft.to/lastmile_qr_scan"}, "is_disabled": 0, "fusion_lat": 0.0, "name": "2fa18c180f4f94c3a7dc18d71b1f3b25", "fusion_lon": 0.0}, {"is_reserved": 0, "type": "electric_scooter", "bike_id": "178df3b1780483a2ce91ce9a97d21e99", "lat": 38.92546733333333, "lon": -76.99956683333333, "rental_uris": {"android": "https://dc.lft.to/lastmile_qr_scan", "ios": "https://dc.lft.to/lastmile_qr_scan"}, "is_disabled": 0, "fusion_lat": 0.0, "name": "178df3b1780483a2ce91ce9a97d21e99", "fusion_lon": 0.0}, {"is_reserved": 0, "type": "electric_scooter", "bike_id": "bb58be265fa87ef79c4133d371f84e8e", "lat": 38.92019633333334, "lon": -77.03196966666667, "rental_uris": {"android": "https://dc.lft.to/lastmile_qr_scan", "ios": "https://dc.lft.to/lastmile_qr_scan"}, "is_disabled": 0, "fusion_lat": 0.0, "name": "bb58be265fa87ef79c4133d371f84e8e", "fusion_lon": 0.0}, {"is_reserved": 0, "type": "electric_scooter", "bike_id": "466c45e832494e79b3f556ce8257d1eb", "lat": 38.900841666666665, "lon": -77.0163845, "rental_uris": {"android": "https://dc.lft.to/lastmile_qr_scan", "ios": "https://dc.lft.to/lastmile_qr_scan"}, "is_disabled": 0, "fusion_lat": 0.0, "name": "466c45e832494e79b3f556ce8257d1eb", "fusion_lon": 0.0}, {"is_reserved": 0, "type": "electric_scooter", "bike_id": "3ca02f71e632e876781456208b1b33ee", "lat": 38.91953633333333, "lon": -77.04457866666667, "rental_uris": {"android": "https://dc.lft.to/lastmile_qr_scan", "ios": "https://dc.lft.to/lastmile_qr_scan"}, "is_disabled": 0, "fusion_lat": 0.0, "name": "3ca02f71e632e876781456208b1b33ee", "fusion_lon": 0.0}, {"is_reserved": 0, "type": "electric_scooter", "bike_id": "7651bbcdb4465fd35d742ed64fd07f93", "lat": 38.90869466666667, "lon": -77.0641215, "rental_uris": {"android": "https://dc.lft.to/lastmile_qr_scan", "ios": "https://dc.lft.to/lastmile_qr_scan"}, "is_disabled": 0, "fusion_lat": 0.0, "name": "7651bbcdb4465fd35d742ed64fd07f93", "fusion_lon": 0.0}, {"is_reserved": 0, "type": "electric_scooter", "bike_id": "7b161ebd916c7534a6f84950c00cfad9", "lat": 38.89224466666667, "lon": -77.03150433333333, "rental_uris": {"android": "https://dc.lft.to/lastmile_qr_scan", "ios": "https://dc.lft.to/lastmile_qr_scan"}, "is_disabled": 0, "fusion_lat": 0.0, "name": "7b161ebd916c7534a6f84950c00cfad9", "fusion_lon": 0.0}, {"is_reserved": 0, "type": "electric_scooter", "bike_id": "fcfb278a2453ef94ebcf790b64909656", "lat": 38.8967225, "lon": -77.01205633333333, "rental_uris": {"android": "https://dc.lft.to/lastmile_qr_scan", "ios": "https://dc.lft.to/lastmile_qr_scan"}, "is_disabled": 0, "fusion_lat": 0.0, "name": "fcfb278a2453ef94ebcf790b64909656", "fusion_lon": 0.0}, {"is_reserved": 0, "type": "electric_scooter", "bike_id": "ac513ad971635f80b0f7663af41eaddf", "lat": 38.903779666666665, "lon": -77.03132833333333, "rental_uris": {"android": "https://dc.lft.to/lastmile_qr_scan", "ios": "https://dc.lft.to/lastmile_qr_scan"}, "is_disabled": 0, "fusion_lat": 0.0, "name": "ac513ad971635f80b0f7663af41eaddf", "fusion_lon": 0.0}, {"is_reserved": 0, "type": "electric_scooter", "bike_id": "2d5b89fa2345e50a88fe7d2460534957", "lat": 38.93062333333334, "lon": -77.02836833333333, "rental_uris": {"android": "https://dc.lft.to/lastmile_qr_scan", "ios": "https://dc.lft.to/lastmile_qr_scan"}, "is_disabled": 0, "fusion_lat": 0.0, "name": "2d5b89fa2345e50a88fe7d2460534957", "fusion_lon": 0.0}, {"is_reserved": 0, "type": "electric_scooter", "bike_id": "8b42e141e597a5d70dfc9f4bfa7a0c92", "lat": 38.93291983333334, "lon": -77.04123266666667, "rental_uris": {"android": "https://dc.lft.to/lastmile_qr_scan", "ios": "https://dc.lft.to/lastmile_qr_scan"}, "is_disabled": 0, "fusion_lat": 0.0, "name": "8b42e141e597a5d70dfc9f4bfa7a0c92", "fusion_lon": 0.0}, {"is_reserved": 0, "type": "electric_scooter", "bike_id": "844d81d2298c65dab9386593792407ed", "lat": 38.93829133333333, "lon": -77.0263825, "rental_uris": {"android": "https://dc.lft.to/lastmile_qr_scan", "ios": "https://dc.lft.to/lastmile_qr_scan"}, "is_disabled": 0, "fusion_lat": 0.0, "name": "844d81d2298c65dab9386593792407ed", "fusion_lon": 0.0}, {"is_reserved": 0, "type": "electric_bike", "bike_id": "f0b95974e4c406f4371890c4e0b00cca", "lat": 38.97420016666667, "lon": -77.01256516666666, "rental_uris": {"android": "https://dc.lft.to/lastmile_qr_scan", "ios": "https://dc.lft.to/lastmile_qr_scan"}, "is_disabled": 0, "fusion_lat": 0.0, "name": "f0b95974e4c406f4371890c4e0b00cca", "fusion_lon": 0.0}, {"is_reserved": 0, "type": "electric_scooter", "bike_id": "071922fa5fb246669c6497c05261188d", "lat": 38.911238166666664, "lon": -77.018189, "rental_uris": {"android": "https://dc.lft.to/lastmile_qr_scan", "ios": "https://dc.lft.to/lastmile_qr_scan"}, "is_disabled": 0, "fusion_lat": 0.0, "name": "071922fa5fb246669c6497c05261188d", "fusion_lon": 0.0}, {"is_reserved": 0, "type": "electric_scooter", "bike_id": "0cf89ec7edde336f6d421d4ce9cf4e31", "lat": 38.91459616666667, "lon": -77.00215283333333, "rental_uris": {"android": "https://dc.lft.to/lastmile_qr_scan", "ios": "https://dc.lft.to/lastmile_qr_scan"}, "is_disabled": 0, "fusion_lat": 0.0, "name": "0cf89ec7edde336f6d421d4ce9cf4e31", "fusion_lon": 0.0}, {"is_reserved": 0, "type": "electric_scooter", "bike_id": "c0843dc7e70eefae556d2b00dce8b63c", "lat": 38.90722683333333, "lon": -77.0475725, "rental_uris": {"android": "https://dc.lft.to/lastmile_qr_scan", "ios": "https://dc.lft.to/lastmile_qr_scan"}, "is_disabled": 0, "fusion_lat": 0.0, "name": "c0843dc7e70eefae556d2b00dce8b63c", "fusion_lon": 0.0}, {"is_reserved": 0, "type": "electric_scooter", "bike_id": "c855d87c1f58e22783a872fe4cf71bf4", "lat": 38.919109666666664, "lon": -77.0357455, "rental_uris": {"android": "https://dc.lft.to/lastmile_qr_scan", "ios": "https://dc.lft.to/lastmile_qr_scan"}, "is_disabled": 0, "fusion_lat": 0.0, "name": "c855d87c1f58e22783a872fe4cf71bf4", "fusion_lon": 0.0}, {"is_reserved": 0, "type": "electric_scooter", "bike_id": "600412a5c944187a68beaf12d6b1b7e9", "lat": 38.899078, "lon": -77.03347083333334, "rental_uris": {"android": "https://dc.lft.to/lastmile_qr_scan", "ios": "https://dc.lft.to/lastmile_qr_scan"}, "is_disabled": 0, "fusion_lat": 0.0, "name": "600412a5c944187a68beaf12d6b1b7e9", "fusion_lon": 0.0}, {"is_reserved": 0, "type": "electric_scooter", "bike_id": "3cfc3b5c03b85904d8e120d65ba8d56f", "lat": 38.907190666666665, "lon": -77.045015, "rental_uris": {"android": "https://dc.lft.to/lastmile_qr_scan", "ios": "https://dc.lft.to/lastmile_qr_scan"}, "is_disabled": 0, "fusion_lat": 0.0, "name": "3cfc3b5c03b85904d8e120d65ba8d56f", "fusion_lon": 0.0}, {"is_reserved": 0, "type": "electric_scooter", "bike_id": "c79b7a16351d7d551cacdc18adc86005", "lat": 38.889892, "lon": -77.00156366666667, "rental_uris": {"android": "https://dc.lft.to/lastmile_qr_scan", "ios": "https://dc.lft.to/lastmile_qr_scan"}, "is_disabled": 0, "fusion_lat": 0.0, "name": "c79b7a16351d7d551cacdc18adc86005", "fusion_lon": 0.0}, {"is_reserved": 0, "type": "electric_scooter", "bike_id": "4a18e8d580cb25463e96d358f9accfa2", "lat": 38.92864566666667, "lon": -77.03281233333334, "rental_uris": {"android": "https://dc.lft.to/lastmile_qr_scan", "ios": "https://dc.lft.to/lastmile_qr_scan"}, "is_disabled": 0, "fusion_lat": 0.0, "name": "4a18e8d580cb25463e96d358f9accfa2", "fusion_lon": 0.0}, {"is_reserved": 0, "type": "electric_scooter", "bike_id": "573dbacc4252da25c920b5ea4c2c12bc", "lat": 38.898654, "lon": -77.01949433333333, "rental_uris": {"android": "https://dc.lft.to/lastmile_qr_scan", "ios": "https://dc.lft.to/lastmile_qr_scan"}, "is_disabled": 0, "fusion_lat": 0.0, "name": "573dbacc4252da25c920b5ea4c2c12bc", "fusion_lon": 0.0}, {"is_reserved": 0, "type": "electric_bike", "bike_id": "416f2f55ee40940cdc448bf7d6f55a3e", "lat": 38.91223183333334, "lon": -77.06596283333333, "rental_uris": {"android": "https://dc.lft.to/lastmile_qr_scan", "ios": "https://dc.lft.to/lastmile_qr_scan"}, "is_disabled": 0, "fusion_lat": 0.0, "name": "416f2f55ee40940cdc448bf7d6f55a3e", "fusion_lon": 0.0}, {"is_reserved": 0, "type": "electric_scooter", "bike_id": "9eefd47cd95a2bfe3f0bacd91b8113e8", "lat": 38.924393333333335, "lon": -77.04024733333334, "rental_uris": {"android": "https://dc.lft.to/lastmile_qr_scan", "ios": "https://dc.lft.to/lastmile_qr_scan"}, "is_disabled": 0, "fusion_lat": 0.0, "name": "9eefd47cd95a2bfe3f0bacd91b8113e8", "fusion_lon": 0.0}, {"is_reserved": 0, "type": "electric_scooter", "bike_id": "69053339810d62ff4b1bd95286bff258", "lat": 38.919891166666666, "lon": -77.02888366666667, "rental_uris": {"android": "https://dc.lft.to/lastmile_qr_scan", "ios": "https://dc.lft.to/lastmile_qr_scan"}, "is_disabled": 0, "fusion_lat": 0.0, "name": "69053339810d62ff4b1bd95286bff258", "fusion_lon": 0.0}, {"is_reserved": 0, "type": "electric_scooter", "bike_id": "1f09637659331a4504754a01ba1e4aa1", "lat": 38.94071316666667, "lon": -77.033275, "rental_uris": {"android": "https://dc.lft.to/lastmile_qr_scan", "ios": "https://dc.lft.to/lastmile_qr_scan"}, "is_disabled": 0, "fusion_lat": 0.0, "name": "1f09637659331a4504754a01ba1e4aa1", "fusion_lon": 0.0}, {"is_reserved": 0, "type": "electric_scooter", "bike_id": "a3eab6095cd8bf0dfc682e9bf751fa26", "lat": 38.914070333333335, "lon": -77.0381615, "rental_uris": {"android": "https://dc.lft.to/lastmile_qr_scan", "ios": "https://dc.lft.to/lastmile_qr_scan"}, "is_disabled": 0, "fusion_lat": 0.0, "name": "a3eab6095cd8bf0dfc682e9bf751fa26", "fusion_lon": 0.0}, {"is_reserved": 0, "type": "electric_scooter", "bike_id": "d9aa33c3b509ab997e18ae7dc854c304", "lat": 38.88392, "lon": -76.989857, "rental_uris": {"android": "https://dc.lft.to/lastmile_qr_scan", "ios": "https://dc.lft.to/lastmile_qr_scan"}, "is_disabled": 0, "fusion_lat": 0.0, "name": "d9aa33c3b509ab997e18ae7dc854c304", "fusion_lon": 0.0}, {"is_reserved": 0, "type": "electric_scooter", "bike_id": "cc4dc0cc7f2fe0fa88707d5bc1674876", "lat": 38.920997166666666, "lon": -77.01754066666666, "rental_uris": {"android": "https://dc.lft.to/lastmile_qr_scan", "ios": "https://dc.lft.to/lastmile_qr_scan"}, "is_disabled": 0, "fusion_lat": 0.0, "name": "cc4dc0cc7f2fe0fa88707d5bc1674876", "fusion_lon": 0.0}, {"is_reserved": 0, "type": "electric_scooter", "bike_id": "cd62aac1d70e606c6c4a7f4dbfe35c5a", "lat": 38.877626666666664, "lon": -76.9942705, "rental_uris": {"android": "https://dc.lft.to/lastmile_qr_scan", "ios": "https://dc.lft.to/lastmile_qr_scan"}, "is_disabled": 0, "fusion_lat": 0.0, "name": "cd62aac1d70e606c6c4a7f4dbfe35c5a", "fusion_lon": 0.0}, {"is_reserved": 0, "type": "electric_scooter", "bike_id": "90dc39e8df9070219e428cd2655042d6", "lat": 38.89885316666667, "lon": -76.9317525, "rental_uris": {"android": "https://dc.lft.to/lastmile_qr_scan", "ios": "https://dc.lft.to/lastmile_qr_scan"}, "is_disabled": 0, "fusion_lat": 0.0, "name": "90dc39e8df9070219e428cd2655042d6", "fusion_lon": 0.0}, {"is_reserved": 0, "type": "electric_scooter", "bike_id": "cf5eb38687e500d4519f6b2b3b42accc", "lat": 38.942404333333336, "lon": -77.03582733333333, "rental_uris": {"android": "https://dc.lft.to/lastmile_qr_scan", "ios": "https://dc.lft.to/lastmile_qr_scan"}, "is_disabled": 0, "fusion_lat": 0.0, "name": "cf5eb38687e500d4519f6b2b3b42accc", "fusion_lon": 0.0}, {"is_reserved": 0, "type": "electric_scooter", "bike_id": "9a88cf9fe628a5850792fe0093900ebe", "lat": 38.900662833333335, "lon": -76.9274035, "rental_uris": {"android": "https://dc.lft.to/lastmile_qr_scan", "ios": "https://dc.lft.to/lastmile_qr_scan"}, "is_disabled": 0, "fusion_lat": 0.0, "name": "9a88cf9fe628a5850792fe0093900ebe", "fusion_lon": 0.0}, {"is_reserved": 0, "type": "electric_bike", "bike_id": "efce5c0368c40b444e5ceeb24cb9c2d7", "lat": 38.911287, "lon": -77.06571166666667, "rental_uris": {"android": "https://dc.lft.to/lastmile_qr_scan", "ios": "https://dc.lft.to/lastmile_qr_scan"}, "is_disabled": 0, "fusion_lat": 0.0, "name": "efce5c0368c40b444e5ceeb24cb9c2d7", "fusion_lon": 0.0}, {"is_reserved": 0, "type": "electric_scooter", "bike_id": "fb3417cae46d42cfc617e26b62c06a05", "lat": 38.91580283333333, "lon": -77.01229033333334, "rental_uris": {"android": "https://dc.lft.to/lastmile_qr_scan", "ios": "https://dc.lft.to/lastmile_qr_scan"}, "is_disabled": 0, "fusion_lat": 0.0, "name": "fb3417cae46d42cfc617e26b62c06a05", "fusion_lon": 0.0}, {"is_reserved": 0, "type": "electric_scooter", "bike_id": "b0b07ee78cd05ac727d209c4b185ea81", "lat": 38.92515483333333, "lon": -77.05044433333333, "rental_uris": {"android": "https://dc.lft.to/lastmile_qr_scan", "ios": "https://dc.lft.to/lastmile_qr_scan"}, "is_disabled": 0, "fusion_lat": 0.0, "name": "b0b07ee78cd05ac727d209c4b185ea81", "fusion_lon": 0.0}, {"is_reserved": 0, "type": "electric_scooter", "bike_id": "d7116e990cb66f8068953bdc9f706a29", "lat": 38.87524, "lon": -77.000595, "rental_uris": {"android": "https://dc.lft.to/lastmile_qr_scan", "ios": "https://dc.lft.to/lastmile_qr_scan"}, "is_disabled": 0, "fusion_lat": 0.0, "name": "d7116e990cb66f8068953bdc9f706a29", "fusion_lon": 0.0}, {"is_reserved": 0, "type": "electric_scooter", "bike_id": "e1f4ede20521744504ddb1a7e06eb3d8", "lat": 38.908455333333336, "lon": -77.04461616666667, "rental_uris": {"android": "https://dc.lft.to/lastmile_qr_scan", "ios": "https://dc.lft.to/lastmile_qr_scan"}, "is_disabled": 0, "fusion_lat": 0.0, "name": "e1f4ede20521744504ddb1a7e06eb3d8", "fusion_lon": 0.0}, {"is_reserved": 0, "type": "electric_scooter", "bike_id": "60bcd6a3c4f62f90168cd1a685981e52", "lat": 38.922498, "lon": -77.030845, "rental_uris": {"android": "https://dc.lft.to/lastmile_qr_scan", "ios": "https://dc.lft.to/lastmile_qr_scan"}, "is_disabled": 0, "fusion_lat": 0.0, "name": "60bcd6a3c4f62f90168cd1a685981e52", "fusion_lon": 0.0}, {"is_reserved": 0, "type": "electric_bike", "bike_id": "c034b11bb757c3be3d1462f6f637deae", "lat": 38.854157666666666, "lon": -77.08366716666667, "rental_uris": {"android": "https://dc.lft.to/lastmile_qr_scan", "ios": "https://dc.lft.to/lastmile_qr_scan"}, "is_disabled": 0, "fusion_lat": 0.0, "name": "c034b11bb757c3be3d1462f6f637deae", "fusion_lon": 0.0}, {"is_reserved": 0, "type": "electric_bike", "bike_id": "02924b0f69a8d7428f54026d3401c638", "lat": 38.86999, "lon": -77.22998333333334, "rental_uris": {"android": "https://dc.lft.to/lastmile_qr_scan", "ios": "https://dc.lft.to/lastmile_qr_scan"}, "is_disabled": 0, "fusion_lat": 0.0, "name": "02924b0f69a8d7428f54026d3401c638", "fusion_lon": 0.0}, {"is_reserved": 0, "type": "electric_scooter", "bike_id": "87cb75c0e93c1da05eb90510252192d7", "lat": 38.92059783333333, "lon": -77.0230035, "rental_uris": {"android": "https://dc.lft.to/lastmile_qr_scan", "ios": "https://dc.lft.to/lastmile_qr_scan"}, "is_disabled": 0, "fusion_lat": 0.0, "name": "87cb75c0e93c1da05eb90510252192d7", "fusion_lon": 0.0}, {"is_reserved": 0, "type": "electric_bike", "bike_id": "6fda83bd769cb23f2e8f293af3374f88", "lat": 38.86330533333334, "lon": -76.9872245, "rental_uris": {"android": "https://dc.lft.to/lastmile_qr_scan", "ios": "https://dc.lft.to/lastmile_qr_scan"}, "is_disabled": 0, "fusion_lat": 0.0, "name": "6fda83bd769cb23f2e8f293af3374f88", "fusion_lon": 0.0}, {"is_reserved": 0, "type": "electric_scooter", "bike_id": "0d46c07efc648bf168a009f1af8b8efa", "lat": 38.8862595, "lon": -77.02221733333333, "rental_uris": {"android": "https://dc.lft.to/lastmile_qr_scan", "ios": "https://dc.lft.to/lastmile_qr_scan"}, "is_disabled": 0, "fusion_lat": 0.0, "name": "0d46c07efc648bf168a009f1af8b8efa", "fusion_lon": 0.0}, {"is_reserved": 0, "type": "electric_scooter", "bike_id": "2deef2e651e6dba66b6a5e691622aa9b", "lat": 38.8984125, "lon": -77.02222566666667, "rental_uris": {"android": "https://dc.lft.to/lastmile_qr_scan", "ios": "https://dc.lft.to/lastmile_qr_scan"}, "is_disabled": 0, "fusion_lat": 0.0, "name": "2deef2e651e6dba66b6a5e691622aa9b", "fusion_lon": 0.0}, {"is_reserved": 0, "type": "electric_scooter", "bike_id": "d1300517a61978c15c36450b9f67cdc1", "lat": 38.93324883333333, "lon": -77.02915566666667, "rental_uris": {"android": "https://dc.lft.to/lastmile_qr_scan", "ios": "https://dc.lft.to/lastmile_qr_scan"}, "is_disabled": 0, "fusion_lat": 0.0, "name": "d1300517a61978c15c36450b9f67cdc1", "fusion_lon": 0.0}, {"is_reserved": 0, "type": "electric_scooter", "bike_id": "2142f36d1f63ca553d1c71ba21dd27a0", "lat": 38.91912716666667, "lon": -77.047974, "rental_uris": {"android": "https://dc.lft.to/lastmile_qr_scan", "ios": "https://dc.lft.to/lastmile_qr_scan"}, "is_disabled": 0, "fusion_lat": 0.0, "name": "2142f36d1f63ca553d1c71ba21dd27a0", "fusion_lon": 0.0}, {"is_reserved": 0, "type": "electric_scooter", "bike_id": "70397a354c3caf3c06ff1e2796aa1db2", "lat": 38.9117655, "lon": -77.02306533333334, "rental_uris": {"android": "https://dc.lft.to/lastmile_qr_scan", "ios": "https://dc.lft.to/lastmile_qr_scan"}, "is_disabled": 0, "fusion_lat": 0.0, "name": "70397a354c3caf3c06ff1e2796aa1db2", "fusion_lon": 0.0}, {"is_reserved": 0, "type": "electric_scooter", "bike_id": "699e67def96c03d61f15f05e3b4ef63d", "lat": 38.85313766666667, "lon": -76.98035366666667, "rental_uris": {"android": "https://dc.lft.to/lastmile_qr_scan", "ios": "https://dc.lft.to/lastmile_qr_scan"}, "is_disabled": 0, "fusion_lat": 0.0, "name": "699e67def96c03d61f15f05e3b4ef63d", "fusion_lon": 0.0}, {"is_reserved": 0, "type": "electric_scooter", "bike_id": "b75ad219a531cd708c07a11fa35fc952", "lat": 38.906120333333334, "lon": -77.0651555, "rental_uris": {"android": "https://dc.lft.to/lastmile_qr_scan", "ios": "https://dc.lft.to/lastmile_qr_scan"}, "is_disabled": 0, "fusion_lat": 0.0, "name": "b75ad219a531cd708c07a11fa35fc952", "fusion_lon": 0.0}, {"is_reserved": 0, "type": "electric_scooter", "bike_id": "d3b28ad431da7d4157b54abb46d3623d", "lat": 38.90721383333333, "lon": -77.04799833333334, "rental_uris": {"android": "https://dc.lft.to/lastmile_qr_scan", "ios": "https://dc.lft.to/lastmile_qr_scan"}, "is_disabled": 0, "fusion_lat": 0.0, "name": "d3b28ad431da7d4157b54abb46d3623d", "fusion_lon": 0.0}, {"is_reserved": 0, "type": "electric_scooter", "bike_id": "141e2958aadf9db1b2406a9c9f69f0c3", "lat": 38.9220255, "lon": -77.0390005, "rental_uris": {"android": "https://dc.lft.to/lastmile_qr_scan", "ios": "https://dc.lft.to/lastmile_qr_scan"}, "is_disabled": 0, "fusion_lat": 0.0, "name": "141e2958aadf9db1b2406a9c9f69f0c3", "fusion_lon": 0.0}, {"is_reserved": 0, "type": "electric_scooter", "bike_id": "a62a35cac36d4cd72fc6e55633dd4fab", "lat": 38.913085833333334, "lon": -77.036422, "rental_uris": {"android": "https://dc.lft.to/lastmile_qr_scan", "ios": "https://dc.lft.to/lastmile_qr_scan"}, "is_disabled": 0, "fusion_lat": 0.0, "name": "a62a35cac36d4cd72fc6e55633dd4fab", "fusion_lon": 0.0}, {"is_reserved": 0, "type": "electric_scooter", "bike_id": "1ea22047b0c04088267e41b447a75ce5", "lat": 38.9086415, "lon": -77.04587783333334, "rental_uris": {"android": "https://dc.lft.to/lastmile_qr_scan", "ios": "https://dc.lft.to/lastmile_qr_scan"}, "is_disabled": 0, "fusion_lat": 0.0, "name": "1ea22047b0c04088267e41b447a75ce5", "fusion_lon": 0.0}, {"is_reserved": 0, "type": "electric_scooter", "bike_id": "078dcdc35376d27463c2ecdfbf4d3fbb", "lat": 38.900537, "lon": -76.98549166666666, "rental_uris": {"android": "https://dc.lft.to/lastmile_qr_scan", "ios": "https://dc.lft.to/lastmile_qr_scan"}, "is_disabled": 0, "fusion_lat": 0.0, "name": "078dcdc35376d27463c2ecdfbf4d3fbb", "fusion_lon": 0.0}, {"is_reserved": 0, "type": "electric_scooter", "bike_id": "12b0ddcb4fad8c14743dac7e5fc2035c", "lat": 38.92000383333333, "lon": -77.01782333333334, "rental_uris": {"android": "https://dc.lft.to/lastmile_qr_scan", "ios": "https://dc.lft.to/lastmile_qr_scan"}, "is_disabled": 0, "fusion_lat": 0.0, "name": "12b0ddcb4fad8c14743dac7e5fc2035c", "fusion_lon": 0.0}, {"is_reserved": 0, "type": "electric_scooter", "bike_id": "9e8f313a02da08f37efdd6d31fa2c1a7", "lat": 38.924520666666666, "lon": -77.02029416666667, "rental_uris": {"android": "https://dc.lft.to/lastmile_qr_scan", "ios": "https://dc.lft.to/lastmile_qr_scan"}, "is_disabled": 0, "fusion_lat": 0.0, "name": "9e8f313a02da08f37efdd6d31fa2c1a7", "fusion_lon": 0.0}, {"is_reserved": 0, "type": "electric_scooter", "bike_id": "117445b83bcc5e2dea808b2f678015ad", "lat": 38.94166883333333, "lon": -77.018258, "rental_uris": {"android": "https://dc.lft.to/lastmile_qr_scan", "ios": "https://dc.lft.to/lastmile_qr_scan"}, "is_disabled": 0, "fusion_lat": 0.0, "name": "117445b83bcc5e2dea808b2f678015ad", "fusion_lon": 0.0}, {"is_reserved": 0, "type": "electric_scooter", "bike_id": "ee0500ab9d9949673dab7fb26f39e2a9", "lat": 38.89713916666667, "lon": -77.00798783333333, "rental_uris": {"android": "https://dc.lft.to/lastmile_qr_scan", "ios": "https://dc.lft.to/lastmile_qr_scan"}, "is_disabled": 0, "fusion_lat": 0.0, "name": "ee0500ab9d9949673dab7fb26f39e2a9", "fusion_lon": 0.0}, {"is_reserved": 0, "type": "electric_scooter", "bike_id": "aa4db19f23ebe89553ab0a855e2e50d1", "lat": 38.92273383333333, "lon": -77.04022116666667, "rental_uris": {"android": "https://dc.lft.to/lastmile_qr_scan", "ios": "https://dc.lft.to/lastmile_qr_scan"}, "is_disabled": 0, "fusion_lat": 0.0, "name": "aa4db19f23ebe89553ab0a855e2e50d1", "fusion_lon": 0.0}, {"is_reserved": 0, "type": "electric_scooter", "bike_id": "6e543244de21797c99013108f94d8c1e", "lat": 38.91555233333333, "lon": -77.02120666666667, "rental_uris": {"android": "https://dc.lft.to/lastmile_qr_scan", "ios": "https://dc.lft.to/lastmile_qr_scan"}, "is_disabled": 0, "fusion_lat": 0.0, "name": "6e543244de21797c99013108f94d8c1e", "fusion_lon": 0.0}, {"is_reserved": 0, "type": "electric_scooter", "bike_id": "d30d03cbfc0a3c5002207d33e2f3eac8", "lat": 38.903805, "lon": -77.0534635, "rental_uris": {"android": "https://dc.lft.to/lastmile_qr_scan", "ios": "https://dc.lft.to/lastmile_qr_scan"}, "is_disabled": 0, "fusion_lat": 0.0, "name": "d30d03cbfc0a3c5002207d33e2f3eac8", "fusion_lon": 0.0}, {"is_reserved": 0, "type": "electric_scooter", "bike_id": "f963559d2abe55b7d999139a2b950f92", "lat": 38.940373, "lon": -77.029042, "rental_uris": {"android": "https://dc.lft.to/lastmile_qr_scan", "ios": "https://dc.lft.to/lastmile_qr_scan"}, "is_disabled": 0, "fusion_lat": 0.0, "name": "f963559d2abe55b7d999139a2b950f92", "fusion_lon": 0.0}, {"is_reserved": 0, "type": "electric_scooter", "bike_id": "1866547e88221eda426e4da0741aede2", "lat": 38.90010266666667, "lon": -77.04029583333333, "rental_uris": {"android": "https://dc.lft.to/lastmile_qr_scan", "ios": "https://dc.lft.to/lastmile_qr_scan"}, "is_disabled": 0, "fusion_lat": 0.0, "name": "1866547e88221eda426e4da0741aede2", "fusion_lon": 0.0}, {"is_reserved": 0, "type": "electric_scooter", "bike_id": "38e8840b60ff96d8dcaacbdd87c627c5", "lat": 38.875339333333336, "lon": -77.00061083333334, "rental_uris": {"android": "https://dc.lft.to/lastmile_qr_scan", "ios": "https://dc.lft.to/lastmile_qr_scan"}, "is_disabled": 0, "fusion_lat": 0.0, "name": "38e8840b60ff96d8dcaacbdd87c627c5", "fusion_lon": 0.0}, {"is_reserved": 0, "type": "electric_scooter", "bike_id": "bd001ce374412baad142dbfcf85bdfc8", "lat": 38.914677833333336, "lon": -77.01831833333334, "rental_uris": {"android": "https://dc.lft.to/lastmile_qr_scan", "ios": "https://dc.lft.to/lastmile_qr_scan"}, "is_disabled": 0, "fusion_lat": 0.0, "name": "bd001ce374412baad142dbfcf85bdfc8", "fusion_lon": 0.0}, {"is_reserved": 0, "type": "electric_bike", "bike_id": "fa6e1e2f02bfb52d28ef9b7582f04d6d", "lat": 38.845633666666664, "lon": -76.97056766666667, "rental_uris": {"android": "https://dc.lft.to/lastmile_qr_scan", "ios": "https://dc.lft.to/lastmile_qr_scan"}, "is_disabled": 0, "fusion_lat": 0.0, "name": "fa6e1e2f02bfb52d28ef9b7582f04d6d", "fusion_lon": 0.0}, {"is_reserved": 0, "type": "electric_scooter", "bike_id": "c95c053333a1ea7d4e5cde5440093f3b", "lat": 38.90131816666667, "lon": -77.0318835, "rental_uris": {"android": "https://dc.lft.to/lastmile_qr_scan", "ios": "https://dc.lft.to/lastmile_qr_scan"}, "is_disabled": 0, "fusion_lat": 0.0, "name": "c95c053333a1ea7d4e5cde5440093f3b", "fusion_lon": 0.0}, {"is_reserved": 0, "type": "electric_bike", "bike_id": "6fc57ea762684a8ddea3bbcd2b57c962", "lat": 38.838121666666666, "lon": -77.09527583333333, "rental_uris": {"android": "https://dc.lft.to/lastmile_qr_scan", "ios": "https://dc.lft.to/lastmile_qr_scan"}, "is_disabled": 0, "fusion_lat": 0.0, "name": "6fc57ea762684a8ddea3bbcd2b57c962", "fusion_lon": 0.0}, {"is_reserved": 0, "type": "electric_scooter", "bike_id": "3df59d5754e0b2116be51866c891edd3", "lat": 38.940743166666664, "lon": -77.02912183333333, "rental_uris": {"android": "https://dc.lft.to/lastmile_qr_scan", "ios": "https://dc.lft.to/lastmile_qr_scan"}, "is_disabled": 0, "fusion_lat": 0.0, "name": "3df59d5754e0b2116be51866c891edd3", "fusion_lon": 0.0}, {"is_reserved": 0, "type": "electric_scooter", "bike_id": "7d7b8c1b675a821fb26284c2615c1aca", "lat": 38.87594716666667, "lon": -77.00075633333333, "rental_uris": {"android": "https://dc.lft.to/lastmile_qr_scan", "ios": "https://dc.lft.to/lastmile_qr_scan"}, "is_disabled": 0, "fusion_lat": 0.0, "name": "7d7b8c1b675a821fb26284c2615c1aca", "fusion_lon": 0.0}, {"is_reserved": 0, "type": "electric_scooter", "bike_id": "5d10893e54d9c070aaf16977235f8154", "lat": 38.876169166666664, "lon": -77.0124965, "rental_uris": {"android": "https://dc.lft.to/lastmile_qr_scan", "ios": "https://dc.lft.to/lastmile_qr_scan"}, "is_disabled": 0, "fusion_lat": 0.0, "name": "5d10893e54d9c070aaf16977235f8154", "fusion_lon": 0.0}, {"is_reserved": 0, "type": "electric_scooter", "bike_id": "b24e3b578f8919c225cbe6498e25ee06", "lat": 38.91156866666667, "lon": -77.01103033333334, "rental_uris": {"android": "https://dc.lft.to/lastmile_qr_scan", "ios": "https://dc.lft.to/lastmile_qr_scan"}, "is_disabled": 0, "fusion_lat": 0.0, "name": "b24e3b578f8919c225cbe6498e25ee06", "fusion_lon": 0.0}, {"is_reserved": 0, "type": "electric_scooter", "bike_id": "7d2ebe76e4b280002caec52b3055ba0d", "lat": 38.934993666666664, "lon": -77.02001666666666, "rental_uris": {"android": "https://dc.lft.to/lastmile_qr_scan", "ios": "https://dc.lft.to/lastmile_qr_scan"}, "is_disabled": 0, "fusion_lat": 0.0, "name": "7d2ebe76e4b280002caec52b3055ba0d", "fusion_lon": 0.0}, {"is_reserved": 0, "type": "electric_scooter", "bike_id": "0faf83c1eb0163fd44d818cf0dd6ec61", "lat": 38.895391833333335, "lon": -77.01115966666667, "rental_uris": {"android": "https://dc.lft.to/lastmile_qr_scan", "ios": "https://dc.lft.to/lastmile_qr_scan"}, "is_disabled": 0, "fusion_lat": 0.0, "name": "0faf83c1eb0163fd44d818cf0dd6ec61", "fusion_lon": 0.0}, {"is_reserved": 0, "type": "electric_scooter", "bike_id": "bdafa7b454f121552bddafe4fc8dc23a", "lat": 38.92476383333333, "lon": -77.03483266666667, "rental_uris": {"android": "https://dc.lft.to/lastmile_qr_scan", "ios": "https://dc.lft.to/lastmile_qr_scan"}, "is_disabled": 0, "fusion_lat": 0.0, "name": "bdafa7b454f121552bddafe4fc8dc23a", "fusion_lon": 0.0}, {"is_reserved": 0, "type": "electric_scooter", "bike_id": "4a07d460e9d4e59cb835a00fd0f61f9c", "lat": 38.9328065, "lon": -77.0393835, "rental_uris": {"android": "https://dc.lft.to/lastmile_qr_scan", "ios": "https://dc.lft.to/lastmile_qr_scan"}, "is_disabled": 0, "fusion_lat": 0.0, "name": "4a07d460e9d4e59cb835a00fd0f61f9c", "fusion_lon": 0.0}, {"is_reserved": 0, "type": "electric_scooter", "bike_id": "a4274d4a5a823d5c028c27ba9bd2a48c", "lat": 38.879407, "lon": -77.00385683333333, "rental_uris": {"android": "https://dc.lft.to/lastmile_qr_scan", "ios": "https://dc.lft.to/lastmile_qr_scan"}, "is_disabled": 0, "fusion_lat": 0.0, "name": "a4274d4a5a823d5c028c27ba9bd2a48c", "fusion_lon": 0.0}, {"is_reserved": 0, "type": "electric_scooter", "bike_id": "7574fb346c03c589d0359771d86ac38d", "lat": 38.943087166666665, "lon": -77.06171416666666, "rental_uris": {"android": "https://dc.lft.to/lastmile_qr_scan", "ios": "https://dc.lft.to/lastmile_qr_scan"}, "is_disabled": 0, "fusion_lat": 0.0, "name": "7574fb346c03c589d0359771d86ac38d", "fusion_lon": 0.0}, {"is_reserved": 0, "type": "electric_scooter", "bike_id": "c28f61ec9f814e09bd4991dd80f5fb0d", "lat": 38.930941, "lon": -77.02545783333333, "rental_uris": {"android": "https://dc.lft.to/lastmile_qr_scan", "ios": "https://dc.lft.to/lastmile_qr_scan"}, "is_disabled": 0, "fusion_lat": 0.0, "name": "c28f61ec9f814e09bd4991dd80f5fb0d", "fusion_lon": 0.0}, {"is_reserved": 0, "type": "electric_scooter", "bike_id": "2fc46090e9e55b2297d79be7964dda5a", "lat": 38.907837666666666, "lon": -77.01079483333334, "rental_uris": {"android": "https://dc.lft.to/lastmile_qr_scan", "ios": "https://dc.lft.to/lastmile_qr_scan"}, "is_disabled": 0, "fusion_lat": 0.0, "name": "2fc46090e9e55b2297d79be7964dda5a", "fusion_lon": 0.0}, {"is_reserved": 0, "type": "electric_scooter", "bike_id": "6926161606d59a849f9453d20093e33c", "lat": 38.922351, "lon": -77.04013933333333, "rental_uris": {"android": "https://dc.lft.to/lastmile_qr_scan", "ios": "https://dc.lft.to/lastmile_qr_scan"}, "is_disabled": 0, "fusion_lat": 0.0, "name": "6926161606d59a849f9453d20093e33c", "fusion_lon": 0.0}, {"is_reserved": 0, "type": "electric_scooter", "bike_id": "2c8d5e90ea68b0be3c6b0b23f38205b8", "lat": 38.934074, "lon": -77.04545433333334, "rental_uris": {"android": "https://dc.lft.to/lastmile_qr_scan", "ios": "https://dc.lft.to/lastmile_qr_scan"}, "is_disabled": 0, "fusion_lat": 0.0, "name": "2c8d5e90ea68b0be3c6b0b23f38205b8", "fusion_lon": 0.0}, {"is_reserved": 0, "type": "electric_scooter", "bike_id": "77eecaf3f614a3ff31a4483cb2edf8ca", "lat": 38.9451075, "lon": -77.03363066666667, "rental_uris": {"android": "https://dc.lft.to/lastmile_qr_scan", "ios": "https://dc.lft.to/lastmile_qr_scan"}, "is_disabled": 0, "fusion_lat": 0.0, "name": "77eecaf3f614a3ff31a4483cb2edf8ca", "fusion_lon": 0.0}, {"is_reserved": 0, "type": "electric_scooter", "bike_id": "a4de1311e8ca6949e96ef7fcf0a22921", "lat": 38.9206175, "lon": -77.0294635, "rental_uris": {"android": "https://dc.lft.to/lastmile_qr_scan", "ios": "https://dc.lft.to/lastmile_qr_scan"}, "is_disabled": 0, "fusion_lat": 0.0, "name": "a4de1311e8ca6949e96ef7fcf0a22921", "fusion_lon": 0.0}, {"is_reserved": 0, "type": "electric_scooter", "bike_id": "0f846b63ff000493d17bff26c6cefc48", "lat": 38.89894566666667, "lon": -77.03956866666667, "rental_uris": {"android": "https://dc.lft.to/lastmile_qr_scan", "ios": "https://dc.lft.to/lastmile_qr_scan"}, "is_disabled": 0, "fusion_lat": 0.0, "name": "0f846b63ff000493d17bff26c6cefc48", "fusion_lon": 0.0}, {"is_reserved": 0, "type": "electric_bike", "bike_id": "ea5d7789a353f905c885995b0a58919b", "lat": 38.94919, "lon": -77.007952, "rental_uris": {"android": "https://dc.lft.to/lastmile_qr_scan", "ios": "https://dc.lft.to/lastmile_qr_scan"}, "is_disabled": 0, "fusion_lat": 0.0, "name": "ea5d7789a353f905c885995b0a58919b", "fusion_lon": 0.0}, {"is_reserved": 0, "type": "electric_bike", "bike_id": "ed66364e8a57cfa3dfccdbf8a0ce1dda", "lat": 38.96242383333333, "lon": -76.99671, "rental_uris": {"android": "https://dc.lft.to/lastmile_qr_scan", "ios": "https://dc.lft.to/lastmile_qr_scan"}, "is_disabled": 0, "fusion_lat": 0.0, "name": "ed66364e8a57cfa3dfccdbf8a0ce1dda", "fusion_lon": 0.0}, {"is_reserved": 0, "type": "electric_scooter", "bike_id": "fd24d26fdd254da9ee94a36a1225b155", "lat": 38.890823166666664, "lon": -77.04043816666666, "rental_uris": {"android": "https://dc.lft.to/lastmile_qr_scan", "ios": "https://dc.lft.to/lastmile_qr_scan"}, "is_disabled": 0, "fusion_lat": 0.0, "name": "fd24d26fdd254da9ee94a36a1225b155", "fusion_lon": 0.0}, {"is_reserved": 0, "type": "electric_scooter", "bike_id": "b54985bd3ffb96d2df50c6e5a89fc5d8", "lat": 38.889027, "lon": -76.97736933333333, "rental_uris": {"android": "https://dc.lft.to/lastmile_qr_scan", "ios": "https://dc.lft.to/lastmile_qr_scan"}, "is_disabled": 0, "fusion_lat": 0.0, "name": "b54985bd3ffb96d2df50c6e5a89fc5d8", "fusion_lon": 0.0}, {"is_reserved": 0, "type": "electric_scooter", "bike_id": "284f7dc439449de8162743e7b65cd98d", "lat": 38.90024066666667, "lon": -77.00216433333334, "rental_uris": {"android": "https://dc.lft.to/lastmile_qr_scan", "ios": "https://dc.lft.to/lastmile_qr_scan"}, "is_disabled": 0, "fusion_lat": 0.0, "name": "284f7dc439449de8162743e7b65cd98d", "fusion_lon": 0.0}, {"is_reserved": 0, "type": "electric_scooter", "bike_id": "133b077a07277696d764b6e184576b87", "lat": 38.94975433333333, "lon": -77.02437416666666, "rental_uris": {"android": "https://dc.lft.to/lastmile_qr_scan", "ios": "https://dc.lft.to/lastmile_qr_scan"}, "is_disabled": 0, "fusion_lat": 0.0, "name": "133b077a07277696d764b6e184576b87", "fusion_lon": 0.0}, {"is_reserved": 0, "type": "electric_scooter", "bike_id": "8fdd6e950a49554f5c97ca2e7625a766", "lat": 38.92025366666667, "lon": -77.0103335, "rental_uris": {"android": "https://dc.lft.to/lastmile_qr_scan", "ios": "https://dc.lft.to/lastmile_qr_scan"}, "is_disabled": 0, "fusion_lat": 0.0, "name": "8fdd6e950a49554f5c97ca2e7625a766", "fusion_lon": 0.0}, {"is_reserved": 0, "type": "electric_scooter", "bike_id": "c85cce5eef2dd8710ee21a1ace904a21", "lat": 38.90687033333333, "lon": -77.01015883333334, "rental_uris": {"android": "https://dc.lft.to/lastmile_qr_scan", "ios": "https://dc.lft.to/lastmile_qr_scan"}, "is_disabled": 0, "fusion_lat": 0.0, "name": "c85cce5eef2dd8710ee21a1ace904a21", "fusion_lon": 0.0}, {"is_reserved": 0, "type": "electric_scooter", "bike_id": "71047754d014f6bcd182fadb5691210d", "lat": 38.92404066666667, "lon": -77.02984433333333, "rental_uris": {"android": "https://dc.lft.to/lastmile_qr_scan", "ios": "https://dc.lft.to/lastmile_qr_scan"}, "is_disabled": 0, "fusion_lat": 0.0, "name": "71047754d014f6bcd182fadb5691210d", "fusion_lon": 0.0}, {"is_reserved": 0, "type": "electric_scooter", "bike_id": "192237f7d8d48c4c31e0087ec9bbb3f5", "lat": 38.907203, "lon": -77.04267816666666, "rental_uris": {"android": "https://dc.lft.to/lastmile_qr_scan", "ios": "https://dc.lft.to/lastmile_qr_scan"}, "is_disabled": 0, "fusion_lat": 0.0, "name": "192237f7d8d48c4c31e0087ec9bbb3f5", "fusion_lon": 0.0}, {"is_reserved": 0, "type": "electric_scooter", "bike_id": "cfc1d1f0d1fc1ac20bb77a71e0418b06", "lat": 38.895374333333336, "lon": -77.01117583333334, "rental_uris": {"android": "https://dc.lft.to/lastmile_qr_scan", "ios": "https://dc.lft.to/lastmile_qr_scan"}, "is_disabled": 0, "fusion_lat": 0.0, "name": "cfc1d1f0d1fc1ac20bb77a71e0418b06", "fusion_lon": 0.0}, {"is_reserved": 0, "type": "electric_scooter", "bike_id": "e008380335f4fcf10b746578b4203d72", "lat": 38.900724, "lon": -77.0483755, "rental_uris": {"android": "https://dc.lft.to/lastmile_qr_scan", "ios": "https://dc.lft.to/lastmile_qr_scan"}, "is_disabled": 0, "fusion_lat": 0.0, "name": "e008380335f4fcf10b746578b4203d72", "fusion_lon": 0.0}, {"is_reserved": 0, "type": "electric_scooter", "bike_id": "15d8efd0ccab8bd1ef96d42dcfbb5470", "lat": 38.881802, "lon": -77.01768216666666, "rental_uris": {"android": "https://dc.lft.to/lastmile_qr_scan", "ios": "https://dc.lft.to/lastmile_qr_scan"}, "is_disabled": 0, "fusion_lat": 0.0, "name": "15d8efd0ccab8bd1ef96d42dcfbb5470", "fusion_lon": 0.0}, {"is_reserved": 0, "type": "electric_scooter", "bike_id": "4247580b26502a1bbd8b7c9bf0323e4e", "lat": 38.93358083333333, "lon": -77.0341475, "rental_uris": {"android": "https://dc.lft.to/lastmile_qr_scan", "ios": "https://dc.lft.to/lastmile_qr_scan"}, "is_disabled": 0, "fusion_lat": 0.0, "name": "4247580b26502a1bbd8b7c9bf0323e4e", "fusion_lon": 0.0}, {"is_reserved": 0, "type": "electric_scooter", "bike_id": "74e87e0766cea4f11ab043c6db355099", "lat": 38.9133985, "lon": -77.05007433333333, "rental_uris": {"android": "https://dc.lft.to/lastmile_qr_scan", "ios": "https://dc.lft.to/lastmile_qr_scan"}, "is_disabled": 0, "fusion_lat": 0.0, "name": "74e87e0766cea4f11ab043c6db355099", "fusion_lon": 0.0}, {"is_reserved": 0, "type": "electric_scooter", "bike_id": "1505686ba5ff85ce2c2a464f84bd4bcd", "lat": 38.92070433333333, "lon": -77.0745855, "rental_uris": {"android": "https://dc.lft.to/lastmile_qr_scan", "ios": "https://dc.lft.to/lastmile_qr_scan"}, "is_disabled": 0, "fusion_lat": 0.0, "name": "1505686ba5ff85ce2c2a464f84bd4bcd", "fusion_lon": 0.0}, {"is_reserved": 0, "type": "electric_scooter", "bike_id": "242d3a1b8adfddc4ed51b8a8b626636e", "lat": 38.92086183333333, "lon": -77.03725916666667, "rental_uris": {"android": "https://dc.lft.to/lastmile_qr_scan", "ios": "https://dc.lft.to/lastmile_qr_scan"}, "is_disabled": 0, "fusion_lat": 0.0, "name": "242d3a1b8adfddc4ed51b8a8b626636e", "fusion_lon": 0.0}, {"is_reserved": 0, "type": "electric_scooter", "bike_id": "6656c210e06907971436220568f6b664", "lat": 38.899243166666665, "lon": -77.026751, "rental_uris": {"android": "https://dc.lft.to/lastmile_qr_scan", "ios": "https://dc.lft.to/lastmile_qr_scan"}, "is_disabled": 0, "fusion_lat": 0.0, "name": "6656c210e06907971436220568f6b664", "fusion_lon": 0.0}, {"is_reserved": 0, "type": "electric_scooter", "bike_id": "9f4c9ead7895be608b31f66c8aafa190", "lat": 38.9042065, "lon": -77.02521833333333, "rental_uris": {"android": "https://dc.lft.to/lastmile_qr_scan", "ios": "https://dc.lft.to/lastmile_qr_scan"}, "is_disabled": 0, "fusion_lat": 0.0, "name": "9f4c9ead7895be608b31f66c8aafa190", "fusion_lon": 0.0}, {"is_reserved": 0, "type": "electric_scooter", "bike_id": "2303637dcd2dfddb0f1ab4d1dd5cde92", "lat": 38.9262965, "lon": -77.0424335, "rental_uris": {"android": "https://dc.lft.to/lastmile_qr_scan", "ios": "https://dc.lft.to/lastmile_qr_scan"}, "is_disabled": 0, "fusion_lat": 0.0, "name": "2303637dcd2dfddb0f1ab4d1dd5cde92", "fusion_lon": 0.0}, {"is_reserved": 0, "type": "electric_scooter", "bike_id": "69f9013112adea60c2efe65c5eb3d119", "lat": 38.911775666666664, "lon": -77.03755, "rental_uris": {"android": "https://dc.lft.to/lastmile_qr_scan", "ios": "https://dc.lft.to/lastmile_qr_scan"}, "is_disabled": 0, "fusion_lat": 0.0, "name": "69f9013112adea60c2efe65c5eb3d119", "fusion_lon": 0.0}, {"is_reserved": 0, "type": "electric_scooter", "bike_id": "51adbadf222ab8af6b2f37a73977787c", "lat": 38.93043633333333, "lon": -77.05536483333333, "rental_uris": {"android": "https://dc.lft.to/lastmile_qr_scan", "ios": "https://dc.lft.to/lastmile_qr_scan"}, "is_disabled": 0, "fusion_lat": 0.0, "name": "51adbadf222ab8af6b2f37a73977787c", "fusion_lon": 0.0}, {"is_reserved": 0, "type": "electric_scooter", "bike_id": "67ce82727db93de97f5c259bc4a63fb4", "lat": 38.909025166666666, "lon": -76.9961655, "rental_uris": {"android": "https://dc.lft.to/lastmile_qr_scan", "ios": "https://dc.lft.to/lastmile_qr_scan"}, "is_disabled": 0, "fusion_lat": 0.0, "name": "67ce82727db93de97f5c259bc4a63fb4", "fusion_lon": 0.0}, {"is_reserved": 0, "type": "electric_scooter", "bike_id": "0ef06b749cb57a9c32fc876804415191", "lat": 38.90260833333333, "lon": -77.0346645, "rental_uris": {"android": "https://dc.lft.to/lastmile_qr_scan", "ios": "https://dc.lft.to/lastmile_qr_scan"}, "is_disabled": 0, "fusion_lat": 0.0, "name": "0ef06b749cb57a9c32fc876804415191", "fusion_lon": 0.0}, {"is_reserved": 0, "type": "electric_scooter", "bike_id": "7f0bfce10487706b75e35dd319a0a841", "lat": 38.92102033333333, "lon": -77.04698233333333, "rental_uris": {"android": "https://dc.lft.to/lastmile_qr_scan", "ios": "https://dc.lft.to/lastmile_qr_scan"}, "is_disabled": 0, "fusion_lat": 0.0, "name": "7f0bfce10487706b75e35dd319a0a841", "fusion_lon": 0.0}, {"is_reserved": 0, "type": "electric_scooter", "bike_id": "926f5eb37d9e677825c42291766c4afa", "lat": 38.94323133333333, "lon": -77.012553, "rental_uris": {"android": "https://dc.lft.to/lastmile_qr_scan", "ios": "https://dc.lft.to/lastmile_qr_scan"}, "is_disabled": 0, "fusion_lat": 0.0, "name": "926f5eb37d9e677825c42291766c4afa", "fusion_lon": 0.0}, {"is_reserved": 0, "type": "electric_scooter", "bike_id": "7a13dc3aac7438a1bf68dc7d4f74f4d6", "lat": 38.895315833333335, "lon": -76.97895866666667, "rental_uris": {"android": "https://dc.lft.to/lastmile_qr_scan", "ios": "https://dc.lft.to/lastmile_qr_scan"}, "is_disabled": 0, "fusion_lat": 0.0, "name": "7a13dc3aac7438a1bf68dc7d4f74f4d6", "fusion_lon": 0.0}, {"is_reserved": 0, "type": "electric_scooter", "bike_id": "154004c63470bcfdcc8ff31de76b159c", "lat": 38.924262166666665, "lon": -77.0341765, "rental_uris": {"android": "https://dc.lft.to/lastmile_qr_scan", "ios": "https://dc.lft.to/lastmile_qr_scan"}, "is_disabled": 0, "fusion_lat": 0.0, "name": "154004c63470bcfdcc8ff31de76b159c", "fusion_lon": 0.0}, {"is_reserved": 0, "type": "electric_scooter", "bike_id": "7ebe5e92a9770696505ff3c66ba428a0", "lat": 38.90982483333333, "lon": -77.03461716666666, "rental_uris": {"android": "https://dc.lft.to/lastmile_qr_scan", "ios": "https://dc.lft.to/lastmile_qr_scan"}, "is_disabled": 0, "fusion_lat": 0.0, "name": "7ebe5e92a9770696505ff3c66ba428a0", "fusion_lon": 0.0}, {"is_reserved": 0, "type": "electric_scooter", "bike_id": "4be7a7a38b13b1de151b76d721b16d18", "lat": 38.972951333333334, "lon": -77.03625516666666, "rental_uris": {"android": "https://dc.lft.to/lastmile_qr_scan", "ios": "https://dc.lft.to/lastmile_qr_scan"}, "is_disabled": 0, "fusion_lat": 0.0, "name": "4be7a7a38b13b1de151b76d721b16d18", "fusion_lon": 0.0}, {"is_reserved": 0, "type": "electric_scooter", "bike_id": "f53d688137596999b6cf6d7b7f4e2d27", "lat": 38.93024616666667, "lon": -77.03786216666667, "rental_uris": {"android": "https://dc.lft.to/lastmile_qr_scan", "ios": "https://dc.lft.to/lastmile_qr_scan"}, "is_disabled": 0, "fusion_lat": 0.0, "name": "f53d688137596999b6cf6d7b7f4e2d27", "fusion_lon": 0.0}, {"is_reserved": 0, "type": "electric_bike", "bike_id": "b6122d19029558017bf45de222c7441d", "lat": 38.898540833333335, "lon": -76.93190783333333, "rental_uris": {"android": "https://dc.lft.to/lastmile_qr_scan", "ios": "https://dc.lft.to/lastmile_qr_scan"}, "is_disabled": 0, "fusion_lat": 0.0, "name": "b6122d19029558017bf45de222c7441d", "fusion_lon": 0.0}, {"is_reserved": 0, "type": "electric_scooter", "bike_id": "c0a1654d9c21048f0c7e6c7f455b82e0", "lat": 38.92132133333333, "lon": -77.01774633333333, "rental_uris": {"android": "https://dc.lft.to/lastmile_qr_scan", "ios": "https://dc.lft.to/lastmile_qr_scan"}, "is_disabled": 0, "fusion_lat": 0.0, "name": "c0a1654d9c21048f0c7e6c7f455b82e0", "fusion_lon": 0.0}, {"is_reserved": 0, "type": "electric_scooter", "bike_id": "8b18ef0bbe725cc4c067c4274384b736", "lat": 38.884584333333336, "lon": -76.9262105, "rental_uris": {"android": "https://dc.lft.to/lastmile_qr_scan", "ios": "https://dc.lft.to/lastmile_qr_scan"}, "is_disabled": 0, "fusion_lat": 0.0, "name": "8b18ef0bbe725cc4c067c4274384b736", "fusion_lon": 0.0}, {"is_reserved": 0, "type": "electric_scooter", "bike_id": "2a184720e47d624dcc7df12f91f5222f", "lat": 38.919270166666664, "lon": -77.01977966666666, "rental_uris": {"android": "https://dc.lft.to/lastmile_qr_scan", "ios": "https://dc.lft.to/lastmile_qr_scan"}, "is_disabled": 0, "fusion_lat": 0.0, "name": "2a184720e47d624dcc7df12f91f5222f", "fusion_lon": 0.0}, {"is_reserved": 0, "type": "electric_bike", "bike_id": "404f68e19d51032a8b347aa169fb25eb", "lat": 39.09446366666667, "lon": -77.13460233333333, "rental_uris": {"android": "https://dc.lft.to/lastmile_qr_scan", "ios": "https://dc.lft.to/lastmile_qr_scan"}, "is_disabled": 0, "fusion_lat": 0.0, "name": "404f68e19d51032a8b347aa169fb25eb", "fusion_lon": 0.0}, {"is_reserved": 0, "type": "electric_scooter", "bike_id": "61923f203c300dbe918b47b359cecda7", "lat": 38.904333333333334, "lon": -77.03449833333333, "rental_uris": {"android": "https://dc.lft.to/lastmile_qr_scan", "ios": "https://dc.lft.to/lastmile_qr_scan"}, "is_disabled": 0, "fusion_lat": 0.0, "name": "61923f203c300dbe918b47b359cecda7", "fusion_lon": 0.0}, {"is_reserved": 0, "type": "electric_scooter", "bike_id": "3f3374a782e1f077e49ec2ef80549acd", "lat": 38.906377166666665, "lon": -77.04130583333334, "rental_uris": {"android": "https://dc.lft.to/lastmile_qr_scan", "ios": "https://dc.lft.to/lastmile_qr_scan"}, "is_disabled": 0, "fusion_lat": 0.0, "name": "3f3374a782e1f077e49ec2ef80549acd", "fusion_lon": 0.0}, {"is_reserved": 0, "type": "electric_scooter", "bike_id": "3ec50cc7481b865d8286ee59e73a5484", "lat": 38.9306385, "lon": -77.04217033333333, "rental_uris": {"android": "https://dc.lft.to/lastmile_qr_scan", "ios": "https://dc.lft.to/lastmile_qr_scan"}, "is_disabled": 0, "fusion_lat": 0.0, "name": "3ec50cc7481b865d8286ee59e73a5484", "fusion_lon": 0.0}, {"is_reserved": 0, "type": "electric_scooter", "bike_id": "5e090277fa3b2bffd0941dec6e4c2ad3", "lat": 38.927449833333334, "lon": -77.06959983333333, "rental_uris": {"android": "https://dc.lft.to/lastmile_qr_scan", "ios": "https://dc.lft.to/lastmile_qr_scan"}, "is_disabled": 0, "fusion_lat": 0.0, "name": "5e090277fa3b2bffd0941dec6e4c2ad3", "fusion_lon": 0.0}, {"is_reserved": 0, "type": "electric_scooter", "bike_id": "fa311952b8593f14171201c015b0a1ed", "lat": 38.927852, "lon": -77.03592266666666, "rental_uris": {"android": "https://dc.lft.to/lastmile_qr_scan", "ios": "https://dc.lft.to/lastmile_qr_scan"}, "is_disabled": 0, "fusion_lat": 0.0, "name": "fa311952b8593f14171201c015b0a1ed", "fusion_lon": 0.0}, {"is_reserved": 0, "type": "electric_scooter", "bike_id": "2c2f7c27aaf5c4968773a334b5af65b8", "lat": 38.86450683333333, "lon": -76.991176, "rental_uris": {"android": "https://dc.lft.to/lastmile_qr_scan", "ios": "https://dc.lft.to/lastmile_qr_scan"}, "is_disabled": 0, "fusion_lat": 0.0, "name": "2c2f7c27aaf5c4968773a334b5af65b8", "fusion_lon": 0.0}, {"is_reserved": 0, "type": "electric_scooter", "bike_id": "28a3e8663b68c7e0c68e69634037c364", "lat": 38.9219535, "lon": -77.01830666666666, "rental_uris": {"android": "https://dc.lft.to/lastmile_qr_scan", "ios": "https://dc.lft.to/lastmile_qr_scan"}, "is_disabled": 0, "fusion_lat": 0.0, "name": "28a3e8663b68c7e0c68e69634037c364", "fusion_lon": 0.0}, {"is_reserved": 0, "type": "electric_scooter", "bike_id": "7d982a313290984b24ab9b4f7eef1780", "lat": 38.87638783333333, "lon": -77.002449, "rental_uris": {"android": "https://dc.lft.to/lastmile_qr_scan", "ios": "https://dc.lft.to/lastmile_qr_scan"}, "is_disabled": 0, "fusion_lat": 0.0, "name": "7d982a313290984b24ab9b4f7eef1780", "fusion_lon": 0.0}, {"is_reserved": 0, "type": "electric_scooter", "bike_id": "c75274f4e658365c5ce77f97f85c1166", "lat": 38.9055275, "lon": -77.05133316666667, "rental_uris": {"android": "https://dc.lft.to/lastmile_qr_scan", "ios": "https://dc.lft.to/lastmile_qr_scan"}, "is_disabled": 0, "fusion_lat": 0.0, "name": "c75274f4e658365c5ce77f97f85c1166", "fusion_lon": 0.0}, {"is_reserved": 0, "type": "electric_scooter", "bike_id": "3b1816af3a60605087abd194980121c7", "lat": 38.917027, "lon": -77.029459, "rental_uris": {"android": "https://dc.lft.to/lastmile_qr_scan", "ios": "https://dc.lft.to/lastmile_qr_scan"}, "is_disabled": 0, "fusion_lat": 0.0, "name": "3b1816af3a60605087abd194980121c7", "fusion_lon": 0.0}, {"is_reserved": 0, "type": "electric_scooter", "bike_id": "f4123430a4aa07ce3b6d7188a60eccc6", "lat": 38.9073325, "lon": -77.04881733333333, "rental_uris": {"android": "https://dc.lft.to/lastmile_qr_scan", "ios": "https://dc.lft.to/lastmile_qr_scan"}, "is_disabled": 0, "fusion_lat": 0.0, "name": "f4123430a4aa07ce3b6d7188a60eccc6", "fusion_lon": 0.0}, {"is_reserved": 0, "type": "electric_scooter", "bike_id": "f83bea91af3536185f4c65ca30f60db8", "lat": 38.92765133333333, "lon": -77.02871866666666, "rental_uris": {"android": "https://dc.lft.to/lastmile_qr_scan", "ios": "https://dc.lft.to/lastmile_qr_scan"}, "is_disabled": 0, "fusion_lat": 0.0, "name": "f83bea91af3536185f4c65ca30f60db8", "fusion_lon": 0.0}, {"is_reserved": 0, "type": "electric_scooter", "bike_id": "974eb7289ae781fe424a82905729da81", "lat": 38.90264833333333, "lon": -77.05404933333334, "rental_uris": {"android": "https://dc.lft.to/lastmile_qr_scan", "ios": "https://dc.lft.to/lastmile_qr_scan"}, "is_disabled": 0, "fusion_lat": 0.0, "name": "974eb7289ae781fe424a82905729da81", "fusion_lon": 0.0}, {"is_reserved": 0, "type": "electric_scooter", "bike_id": "2b0271a92a08fd3fb6f74a00a219d1d3", "lat": 38.92621916666667, "lon": -77.037829, "rental_uris": {"android": "https://dc.lft.to/lastmile_qr_scan", "ios": "https://dc.lft.to/lastmile_qr_scan"}, "is_disabled": 0, "fusion_lat": 0.0, "name": "2b0271a92a08fd3fb6f74a00a219d1d3", "fusion_lon": 0.0}, {"is_reserved": 0, "type": "electric_scooter", "bike_id": "ebe8b1da576ce6b8fc15787b42e29f09", "lat": 38.848190333333335, "lon": -76.97815633333333, "rental_uris": {"android": "https://dc.lft.to/lastmile_qr_scan", "ios": "https://dc.lft.to/lastmile_qr_scan"}, "is_disabled": 0, "fusion_lat": 0.0, "name": "ebe8b1da576ce6b8fc15787b42e29f09", "fusion_lon": 0.0}, {"is_reserved": 0, "type": "electric_bike", "bike_id": "ae55351d16c7d3494e6d68dee4f2f794", "lat": 38.8038475, "lon": -76.98812616666666, "rental_uris": {"android": "https://dc.lft.to/lastmile_qr_scan", "ios": "https://dc.lft.to/lastmile_qr_scan"}, "is_disabled": 0, "fusion_lat": 0.0, "name": "ae55351d16c7d3494e6d68dee4f2f794", "fusion_lon": 0.0}, {"is_reserved": 0, "type": "electric_scooter", "bike_id": "4fd038592e2d71ccc8c1191457b9e1b2", "lat": 38.92538416666667, "lon": -77.0325605, "rental_uris": {"android": "https://dc.lft.to/lastmile_qr_scan", "ios": "https://dc.lft.to/lastmile_qr_scan"}, "is_disabled": 0, "fusion_lat": 0.0, "name": "4fd038592e2d71ccc8c1191457b9e1b2", "fusion_lon": 0.0}, {"is_reserved": 0, "type": "electric_scooter", "bike_id": "e3d3cb1fe0d5c8c1cbf5b873d783fa48", "lat": 38.89223766666667, "lon": -77.03146733333334, "rental_uris": {"android": "https://dc.lft.to/lastmile_qr_scan", "ios": "https://dc.lft.to/lastmile_qr_scan"}, "is_disabled": 0, "fusion_lat": 0.0, "name": "e3d3cb1fe0d5c8c1cbf5b873d783fa48", "fusion_lon": 0.0}, {"is_reserved": 0, "type": "electric_scooter", "bike_id": "2d938ef7283231e6409c9a3e0fd9e933", "lat": 38.90362, "lon": -77.04181666666666, "rental_uris": {"android": "https://dc.lft.to/lastmile_qr_scan", "ios": "https://dc.lft.to/lastmile_qr_scan"}, "is_disabled": 0, "fusion_lat": 0.0, "name": "2d938ef7283231e6409c9a3e0fd9e933", "fusion_lon": 0.0}, {"is_reserved": 0, "type": "electric_scooter", "bike_id": "6c0de3729ada5bf0defb6459bb398678", "lat": 38.921543, "lon": -77.034871, "rental_uris": {"android": "https://dc.lft.to/lastmile_qr_scan", "ios": "https://dc.lft.to/lastmile_qr_scan"}, "is_disabled": 0, "fusion_lat": 0.0, "name": "6c0de3729ada5bf0defb6459bb398678", "fusion_lon": 0.0}, {"is_reserved": 0, "type": "electric_scooter", "bike_id": "a166b5ded061daa39de1cc36c4aeecce", "lat": 38.9272575, "lon": -77.035519, "rental_uris": {"android": "https://dc.lft.to/lastmile_qr_scan", "ios": "https://dc.lft.to/lastmile_qr_scan"}, "is_disabled": 0, "fusion_lat": 0.0, "name": "a166b5ded061daa39de1cc36c4aeecce", "fusion_lon": 0.0}, {"is_reserved": 0, "type": "electric_scooter", "bike_id": "d42f4dcf3b5e28b9e0fd8d51063615f5", "lat": 38.91198466666667, "lon": -77.01992583333333, "rental_uris": {"android": "https://dc.lft.to/lastmile_qr_scan", "ios": "https://dc.lft.to/lastmile_qr_scan"}, "is_disabled": 0, "fusion_lat": 0.0, "name": "d42f4dcf3b5e28b9e0fd8d51063615f5", "fusion_lon": 0.0}, {"is_reserved": 0, "type": "electric_scooter", "bike_id": "ce935885d27e65ce498cdd63cb79e7af", "lat": 38.9027605, "lon": -77.01753566666666, "rental_uris": {"android": "https://dc.lft.to/lastmile_qr_scan", "ios": "https://dc.lft.to/lastmile_qr_scan"}, "is_disabled": 0, "fusion_lat": 0.0, "name": "ce935885d27e65ce498cdd63cb79e7af", "fusion_lon": 0.0}, {"is_reserved": 0, "type": "electric_scooter", "bike_id": "3cd841614f72373093c3ad32615873b6", "lat": 38.94377683333333, "lon": -77.023526, "rental_uris": {"android": "https://dc.lft.to/lastmile_qr_scan", "ios": "https://dc.lft.to/lastmile_qr_scan"}, "is_disabled": 0, "fusion_lat": 0.0, "name": "3cd841614f72373093c3ad32615873b6", "fusion_lon": 0.0}, {"is_reserved": 0, "type": "electric_scooter", "bike_id": "9be2218d80a42b20701773070a270cf4", "lat": 38.900301, "lon": -77.00217566666667, "rental_uris": {"android": "https://dc.lft.to/lastmile_qr_scan", "ios": "https://dc.lft.to/lastmile_qr_scan"}, "is_disabled": 0, "fusion_lat": 0.0, "name": "9be2218d80a42b20701773070a270cf4", "fusion_lon": 0.0}, {"is_reserved": 0, "type": "electric_scooter", "bike_id": "31f9b01fc14c6844e67fd0306fe50b3a", "lat": 38.9086085, "lon": -77.0194425, "rental_uris": {"android": "https://dc.lft.to/lastmile_qr_scan", "ios": "https://dc.lft.to/lastmile_qr_scan"}, "is_disabled": 0, "fusion_lat": 0.0, "name": "31f9b01fc14c6844e67fd0306fe50b3a", "fusion_lon": 0.0}, {"is_reserved": 0, "type": "electric_scooter", "bike_id": "da9dab28229a02e41f2ca3f46c9e0142", "lat": 38.93560333333333, "lon": -77.0296945, "rental_uris": {"android": "https://dc.lft.to/lastmile_qr_scan", "ios": "https://dc.lft.to/lastmile_qr_scan"}, "is_disabled": 0, "fusion_lat": 0.0, "name": "da9dab28229a02e41f2ca3f46c9e0142", "fusion_lon": 0.0}, {"is_reserved": 0, "type": "electric_bike", "bike_id": "a8599ccf23de9b27ac151dc154a1dfa8", "lat": 38.8024515, "lon": -77.11436166666667, "rental_uris": {"android": "https://dc.lft.to/lastmile_qr_scan", "ios": "https://dc.lft.to/lastmile_qr_scan"}, "is_disabled": 0, "fusion_lat": 0.0, "name": "a8599ccf23de9b27ac151dc154a1dfa8", "fusion_lon": 0.0}, {"is_reserved": 0, "type": "electric_scooter", "bike_id": "b5a5bd959425a11aee7d8ba5199dc599", "lat": 38.92907016666667, "lon": -77.0208995, "rental_uris": {"android": "https://dc.lft.to/lastmile_qr_scan", "ios": "https://dc.lft.to/lastmile_qr_scan"}, "is_disabled": 0, "fusion_lat": 0.0, "name": "b5a5bd959425a11aee7d8ba5199dc599", "fusion_lon": 0.0}, {"is_reserved": 0, "type": "electric_scooter", "bike_id": "d2abd05b680c23efa67443e5de938c90", "lat": 38.89609083333333, "lon": -77.04410716666666, "rental_uris": {"android": "https://dc.lft.to/lastmile_qr_scan", "ios": "https://dc.lft.to/lastmile_qr_scan"}, "is_disabled": 0, "fusion_lat": 0.0, "name": "d2abd05b680c23efa67443e5de938c90", "fusion_lon": 0.0}, {"is_reserved": 0, "type": "electric_scooter", "bike_id": "3aaf388dafcd259e248b03ce9394b91e", "lat": 38.865245, "lon": -76.9690565, "rental_uris": {"android": "https://dc.lft.to/lastmile_qr_scan", "ios": "https://dc.lft.to/lastmile_qr_scan"}, "is_disabled": 0, "fusion_lat": 0.0, "name": "3aaf388dafcd259e248b03ce9394b91e", "fusion_lon": 0.0}, {"is_reserved": 0, "type": "electric_scooter", "bike_id": "e24c8016b6f247f9c6f62bf2c5b6f978", "lat": 38.909555166666664, "lon": -77.04569766666667, "rental_uris": {"android": "https://dc.lft.to/lastmile_qr_scan", "ios": "https://dc.lft.to/lastmile_qr_scan"}, "is_disabled": 0, "fusion_lat": 0.0, "name": "e24c8016b6f247f9c6f62bf2c5b6f978", "fusion_lon": 0.0}, {"is_reserved": 0, "type": "electric_scooter", "bike_id": "5a004f5425cc556e27355b55eab59679", "lat": 38.91123783333333, "lon": -77.0209385, "rental_uris": {"android": "https://dc.lft.to/lastmile_qr_scan", "ios": "https://dc.lft.to/lastmile_qr_scan"}, "is_disabled": 0, "fusion_lat": 0.0, "name": "5a004f5425cc556e27355b55eab59679", "fusion_lon": 0.0}, {"is_reserved": 0, "type": "electric_scooter", "bike_id": "b52314f13eace835902ce4d6dd400f3d", "lat": 38.918859, "lon": -77.034851, "rental_uris": {"android": "https://dc.lft.to/lastmile_qr_scan", "ios": "https://dc.lft.to/lastmile_qr_scan"}, "is_disabled": 0, "fusion_lat": 0.0, "name": "b52314f13eace835902ce4d6dd400f3d", "fusion_lon": 0.0}, {"is_reserved": 0, "type": "electric_scooter", "bike_id": "2ae6ebaabd57a81510386e4061ad6882", "lat": 38.934765166666665, "lon": -77.0565065, "rental_uris": {"android": "https://dc.lft.to/lastmile_qr_scan", "ios": "https://dc.lft.to/lastmile_qr_scan"}, "is_disabled": 0, "fusion_lat": 0.0, "name": "2ae6ebaabd57a81510386e4061ad6882", "fusion_lon": 0.0}, {"is_reserved": 0, "type": "electric_scooter", "bike_id": "506dc6a006e96f92e02f53b98b2f8e34", "lat": 38.89898633333333, "lon": -77.00354816666666, "rental_uris": {"android": "https://dc.lft.to/lastmile_qr_scan", "ios": "https://dc.lft.to/lastmile_qr_scan"}, "is_disabled": 0, "fusion_lat": 0.0, "name": "506dc6a006e96f92e02f53b98b2f8e34", "fusion_lon": 0.0}, {"is_reserved": 0, "type": "electric_scooter", "bike_id": "b8d3db95c26f137ae3e7b87ab462e1f1", "lat": 38.92627, "lon": -77.05315916666666, "rental_uris": {"android": "https://dc.lft.to/lastmile_qr_scan", "ios": "https://dc.lft.to/lastmile_qr_scan"}, "is_disabled": 0, "fusion_lat": 0.0, "name": "b8d3db95c26f137ae3e7b87ab462e1f1", "fusion_lon": 0.0}, {"is_reserved": 0, "type": "electric_scooter", "bike_id": "bce4285f2172f8ce7c5380ca92a11684", "lat": 38.93410933333333, "lon": -77.02038433333334, "rental_uris": {"android": "https://dc.lft.to/lastmile_qr_scan", "ios": "https://dc.lft.to/lastmile_qr_scan"}, "is_disabled": 0, "fusion_lat": 0.0, "name": "bce4285f2172f8ce7c5380ca92a11684", "fusion_lon": 0.0}, {"is_reserved": 0, "type": "electric_scooter", "bike_id": "2f5120d45fff2f1b596a5cfdf3232a8f", "lat": 38.92587783333333, "lon": -77.0409965, "rental_uris": {"android": "https://dc.lft.to/lastmile_qr_scan", "ios": "https://dc.lft.to/lastmile_qr_scan"}, "is_disabled": 0, "fusion_lat": 0.0, "name": "2f5120d45fff2f1b596a5cfdf3232a8f", "fusion_lon": 0.0}, {"is_reserved": 0, "type": "electric_scooter", "bike_id": "a54de1a3f3fb0cb2ff5aa2ca3f636e2c", "lat": 38.89884266666667, "lon": -77.01621183333333, "rental_uris": {"android": "https://dc.lft.to/lastmile_qr_scan", "ios": "https://dc.lft.to/lastmile_qr_scan"}, "is_disabled": 0, "fusion_lat": 0.0, "name": "a54de1a3f3fb0cb2ff5aa2ca3f636e2c", "fusion_lon": 0.0}, {"is_reserved": 0, "type": "electric_scooter", "bike_id": "fb259d6fa9f7ab8f52821376f2fe8de1", "lat": 38.9133245, "lon": -77.04800533333334, "rental_uris": {"android": "https://dc.lft.to/lastmile_qr_scan", "ios": "https://dc.lft.to/lastmile_qr_scan"}, "is_disabled": 0, "fusion_lat": 0.0, "name": "fb259d6fa9f7ab8f52821376f2fe8de1", "fusion_lon": 0.0}, {"is_reserved": 0, "type": "electric_scooter", "bike_id": "8a583533ba7b534521b9fc39cdda7841", "lat": 38.902283, "lon": -77.05331183333334, "rental_uris": {"android": "https://dc.lft.to/lastmile_qr_scan", "ios": "https://dc.lft.to/lastmile_qr_scan"}, "is_disabled": 0, "fusion_lat": 0.0, "name": "8a583533ba7b534521b9fc39cdda7841", "fusion_lon": 0.0}, {"is_reserved": 0, "type": "electric_scooter", "bike_id": "df67e061a78875ebdd2a3e0b0f16ea1e", "lat": 38.92006933333333, "lon": -77.0419055, "rental_uris": {"android": "https://dc.lft.to/lastmile_qr_scan", "ios": "https://dc.lft.to/lastmile_qr_scan"}, "is_disabled": 0, "fusion_lat": 0.0, "name": "df67e061a78875ebdd2a3e0b0f16ea1e", "fusion_lon": 0.0}, {"is_reserved": 0, "type": "electric_scooter", "bike_id": "61233a73eaca7f7067321feb6f321ded", "lat": 38.892455, "lon": -77.03958066666667, "rental_uris": {"android": "https://dc.lft.to/lastmile_qr_scan", "ios": "https://dc.lft.to/lastmile_qr_scan"}, "is_disabled": 0, "fusion_lat": 0.0, "name": "61233a73eaca7f7067321feb6f321ded", "fusion_lon": 0.0}, {"is_reserved": 0, "type": "electric_scooter", "bike_id": "ee94a4574ab4e2f4100507f46f018408", "lat": 38.914918666666665, "lon": -77.012188, "rental_uris": {"android": "https://dc.lft.to/lastmile_qr_scan", "ios": "https://dc.lft.to/lastmile_qr_scan"}, "is_disabled": 0, "fusion_lat": 0.0, "name": "ee94a4574ab4e2f4100507f46f018408", "fusion_lon": 0.0}, {"is_reserved": 0, "type": "electric_bike", "bike_id": "af09a8be25e11ecd6655072b65e17afb", "lat": 38.88784316666667, "lon": -76.923408, "rental_uris": {"android": "https://dc.lft.to/lastmile_qr_scan", "ios": "https://dc.lft.to/lastmile_qr_scan"}, "is_disabled": 0, "fusion_lat": 0.0, "name": "af09a8be25e11ecd6655072b65e17afb", "fusion_lon": 0.0}, {"is_reserved": 0, "type": "electric_scooter", "bike_id": "f6d62a98aef8fcbcf6df3f3243e2f7f1", "lat": 38.916205166666664, "lon": -77.002009, "rental_uris": {"android": "https://dc.lft.to/lastmile_qr_scan", "ios": "https://dc.lft.to/lastmile_qr_scan"}, "is_disabled": 0, "fusion_lat": 0.0, "name": "f6d62a98aef8fcbcf6df3f3243e2f7f1", "fusion_lon": 0.0}, {"is_reserved": 0, "type": "electric_scooter", "bike_id": "c3fe3cd802bb76ab7767f206384e220e", "lat": 38.89903483333333, "lon": -77.00371466666667, "rental_uris": {"android": "https://dc.lft.to/lastmile_qr_scan", "ios": "https://dc.lft.to/lastmile_qr_scan"}, "is_disabled": 0, "fusion_lat": 0.0, "name": "c3fe3cd802bb76ab7767f206384e220e", "fusion_lon": 0.0}, {"is_reserved": 0, "type": "electric_scooter", "bike_id": "9b9e5f28d4acc59e0bd351891efcc4b1", "lat": 38.920712333333334, "lon": -77.025043, "rental_uris": {"android": "https://dc.lft.to/lastmile_qr_scan", "ios": "https://dc.lft.to/lastmile_qr_scan"}, "is_disabled": 0, "fusion_lat": 0.0, "name": "9b9e5f28d4acc59e0bd351891efcc4b1", "fusion_lon": 0.0}, {"is_reserved": 0, "type": "electric_scooter", "bike_id": "f95ad46c554fad8c8fd472deb026478f", "lat": 38.898942, "lon": -77.03963866666666, "rental_uris": {"android": "https://dc.lft.to/lastmile_qr_scan", "ios": "https://dc.lft.to/lastmile_qr_scan"}, "is_disabled": 0, "fusion_lat": 0.0, "name": "f95ad46c554fad8c8fd472deb026478f", "fusion_lon": 0.0}, {"is_reserved": 0, "type": "electric_scooter", "bike_id": "edf4f8a8cbd5ef5b3a914a070f401004", "lat": 38.926229666666664, "lon": -77.07711166666667, "rental_uris": {"android": "https://dc.lft.to/lastmile_qr_scan", "ios": "https://dc.lft.to/lastmile_qr_scan"}, "is_disabled": 0, "fusion_lat": 0.0, "name": "edf4f8a8cbd5ef5b3a914a070f401004", "fusion_lon": 0.0}, {"is_reserved": 0, "type": "electric_scooter", "bike_id": "eaa837cf2e86905db332acee36f24dcf", "lat": 38.92343433333333, "lon": -76.99093016666667, "rental_uris": {"android": "https://dc.lft.to/lastmile_qr_scan", "ios": "https://dc.lft.to/lastmile_qr_scan"}, "is_disabled": 0, "fusion_lat": 0.0, "name": "eaa837cf2e86905db332acee36f24dcf", "fusion_lon": 0.0}, {"is_reserved": 0, "type": "electric_scooter", "bike_id": "3c834cc2a696755ee72e0fbaf89a25f7", "lat": 38.90865733333333, "lon": -77.04653866666666, "rental_uris": {"android": "https://dc.lft.to/lastmile_qr_scan", "ios": "https://dc.lft.to/lastmile_qr_scan"}, "is_disabled": 0, "fusion_lat": 0.0, "name": "3c834cc2a696755ee72e0fbaf89a25f7", "fusion_lon": 0.0}, {"is_reserved": 0, "type": "electric_scooter", "bike_id": "25b7d65583e1578f27429560352f244a", "lat": 38.922417, "lon": -77.03526866666667, "rental_uris": {"android": "https://dc.lft.to/lastmile_qr_scan", "ios": "https://dc.lft.to/lastmile_qr_scan"}, "is_disabled": 0, "fusion_lat": 0.0, "name": "25b7d65583e1578f27429560352f244a", "fusion_lon": 0.0}, {"is_reserved": 0, "type": "electric_scooter", "bike_id": "b85f493ef451ba4cbd7c75603053737a", "lat": 38.921231666666664, "lon": -77.04358116666667, "rental_uris": {"android": "https://dc.lft.to/lastmile_qr_scan", "ios": "https://dc.lft.to/lastmile_qr_scan"}, "is_disabled": 0, "fusion_lat": 0.0, "name": "b85f493ef451ba4cbd7c75603053737a", "fusion_lon": 0.0}, {"is_reserved": 0, "type": "electric_scooter", "bike_id": "c13ddc3da9a15e20a54b4d1fea199f18", "lat": 38.9231965, "lon": -77.037115, "rental_uris": {"android": "https://dc.lft.to/lastmile_qr_scan", "ios": "https://dc.lft.to/lastmile_qr_scan"}, "is_disabled": 0, "fusion_lat": 0.0, "name": "c13ddc3da9a15e20a54b4d1fea199f18", "fusion_lon": 0.0}, {"is_reserved": 0, "type": "electric_scooter", "bike_id": "e7dce7573f8c0df9ed0fb90ef1492f62", "lat": 38.92672983333333, "lon": -77.00729983333333, "rental_uris": {"android": "https://dc.lft.to/lastmile_qr_scan", "ios": "https://dc.lft.to/lastmile_qr_scan"}, "is_disabled": 0, "fusion_lat": 0.0, "name": "e7dce7573f8c0df9ed0fb90ef1492f62", "fusion_lon": 0.0}, {"is_reserved": 0, "type": "electric_scooter", "bike_id": "829b728e0e1d73a3a13dbb8c8ae82d8d", "lat": 38.905997, "lon": -77.00714283333333, "rental_uris": {"android": "https://dc.lft.to/lastmile_qr_scan", "ios": "https://dc.lft.to/lastmile_qr_scan"}, "is_disabled": 0, "fusion_lat": 0.0, "name": "829b728e0e1d73a3a13dbb8c8ae82d8d", "fusion_lon": 0.0}, {"is_reserved": 0, "type": "electric_scooter", "bike_id": "7c77c57e0eea99cc18d86c803ff636ee", "lat": 38.926885666666664, "lon": -77.02082616666667, "rental_uris": {"android": "https://dc.lft.to/lastmile_qr_scan", "ios": "https://dc.lft.to/lastmile_qr_scan"}, "is_disabled": 0, "fusion_lat": 0.0, "name": "7c77c57e0eea99cc18d86c803ff636ee", "fusion_lon": 0.0}, {"is_reserved": 0, "type": "electric_scooter", "bike_id": "159c768fa3dc6c0d700af8743d292ac6", "lat": 38.89544083333333, "lon": -76.98339216666666, "rental_uris": {"android": "https://dc.lft.to/lastmile_qr_scan", "ios": "https://dc.lft.to/lastmile_qr_scan"}, "is_disabled": 0, "fusion_lat": 0.0, "name": "159c768fa3dc6c0d700af8743d292ac6", "fusion_lon": 0.0}, {"is_reserved": 0, "type": "electric_scooter", "bike_id": "603d6cbe3b6656729b1c680af9ac9282", "lat": 38.94010766666667, "lon": -77.01905216666667, "rental_uris": {"android": "https://dc.lft.to/lastmile_qr_scan", "ios": "https://dc.lft.to/lastmile_qr_scan"}, "is_disabled": 0, "fusion_lat": 0.0, "name": "603d6cbe3b6656729b1c680af9ac9282", "fusion_lon": 0.0}, {"is_reserved": 0, "type": "electric_scooter", "bike_id": "d5cda84a31b12e07afdc0cee1d10099e", "lat": 38.898500166666665, "lon": -76.99029916666667, "rental_uris": {"android": "https://dc.lft.to/lastmile_qr_scan", "ios": "https://dc.lft.to/lastmile_qr_scan"}, "is_disabled": 0, "fusion_lat": 0.0, "name": "d5cda84a31b12e07afdc0cee1d10099e", "fusion_lon": 0.0}, {"is_reserved": 0, "type": "electric_scooter", "bike_id": "b34fc7aa4eaffa3448cb833c32466e9f", "lat": 38.92475833333334, "lon": -77.0266785, "rental_uris": {"android": "https://dc.lft.to/lastmile_qr_scan", "ios": "https://dc.lft.to/lastmile_qr_scan"}, "is_disabled": 0, "fusion_lat": 0.0, "name": "b34fc7aa4eaffa3448cb833c32466e9f", "fusion_lon": 0.0}, {"is_reserved": 0, "type": "electric_bike", "bike_id": "3730d1c5a0ce585c7ba6e4c1978c2eb5", "lat": 38.85791183333333, "lon": -77.099647, "rental_uris": {"android": "https://dc.lft.to/lastmile_qr_scan", "ios": "https://dc.lft.to/lastmile_qr_scan"}, "is_disabled": 0, "fusion_lat": 0.0, "name": "3730d1c5a0ce585c7ba6e4c1978c2eb5", "fusion_lon": 0.0}, {"is_reserved": 0, "type": "electric_scooter", "bike_id": "582208cbf5418c0e885d6019fa90eeb6", "lat": 38.921544, "lon": -77.07219333333333, "rental_uris": {"android": "https://dc.lft.to/lastmile_qr_scan", "ios": "https://dc.lft.to/lastmile_qr_scan"}, "is_disabled": 0, "fusion_lat": 0.0, "name": "582208cbf5418c0e885d6019fa90eeb6", "fusion_lon": 0.0}, {"is_reserved": 0, "type": "electric_scooter", "bike_id": "a0cb8bb4e4314f4ab2b21c7716006c25", "lat": 38.93122533333333, "lon": -77.0387855, "rental_uris": {"android": "https://dc.lft.to/lastmile_qr_scan", "ios": "https://dc.lft.to/lastmile_qr_scan"}, "is_disabled": 0, "fusion_lat": 0.0, "name": "a0cb8bb4e4314f4ab2b21c7716006c25", "fusion_lon": 0.0}, {"is_reserved": 0, "type": "electric_scooter", "bike_id": "69319372b11ef74d4d2ac6599a17f183", "lat": 38.90396066666667, "lon": -77.048942, "rental_uris": {"android": "https://dc.lft.to/lastmile_qr_scan", "ios": "https://dc.lft.to/lastmile_qr_scan"}, "is_disabled": 0, "fusion_lat": 0.0, "name": "69319372b11ef74d4d2ac6599a17f183", "fusion_lon": 0.0}, {"is_reserved": 0, "type": "electric_scooter", "bike_id": "ac008779fac665fe6d79dd605a80ff80", "lat": 38.901825, "lon": -76.93002266666667, "rental_uris": {"android": "https://dc.lft.to/lastmile_qr_scan", "ios": "https://dc.lft.to/lastmile_qr_scan"}, "is_disabled": 0, "fusion_lat": 0.0, "name": "ac008779fac665fe6d79dd605a80ff80", "fusion_lon": 0.0}, {"is_reserved": 0, "type": "electric_scooter", "bike_id": "e3fe49f12ed3c8f270f3dd230643dd88", "lat": 38.92062683333333, "lon": -77.02247683333333, "rental_uris": {"android": "https://dc.lft.to/lastmile_qr_scan", "ios": "https://dc.lft.to/lastmile_qr_scan"}, "is_disabled": 0, "fusion_lat": 0.0, "name": "e3fe49f12ed3c8f270f3dd230643dd88", "fusion_lon": 0.0}, {"is_reserved": 0, "type": "electric_scooter", "bike_id": "0085696b5b3e32a576f7e2d89d4a2273", "lat": 38.9422565, "lon": -77.07150866666667, "rental_uris": {"android": "https://dc.lft.to/lastmile_qr_scan", "ios": "https://dc.lft.to/lastmile_qr_scan"}, "is_disabled": 0, "fusion_lat": 0.0, "name": "0085696b5b3e32a576f7e2d89d4a2273", "fusion_lon": 0.0}, {"is_reserved": 0, "type": "electric_scooter", "bike_id": "16d67770ba635564082897c52336707d", "lat": 38.91496883333333, "lon": -77.0219155, "rental_uris": {"android": "https://dc.lft.to/lastmile_qr_scan", "ios": "https://dc.lft.to/lastmile_qr_scan"}, "is_disabled": 0, "fusion_lat": 0.0, "name": "16d67770ba635564082897c52336707d", "fusion_lon": 0.0}, {"is_reserved": 0, "type": "electric_scooter", "bike_id": "a265867f673396ddd79878a49d295949", "lat": 38.920140833333335, "lon": -77.02951383333334, "rental_uris": {"android": "https://dc.lft.to/lastmile_qr_scan", "ios": "https://dc.lft.to/lastmile_qr_scan"}, "is_disabled": 0, "fusion_lat": 0.0, "name": "a265867f673396ddd79878a49d295949", "fusion_lon": 0.0}, {"is_reserved": 0, "type": "electric_scooter", "bike_id": "3095130c4bfc2991e70917a898a7cc31", "lat": 38.91990116666667, "lon": -77.0331525, "rental_uris": {"android": "https://dc.lft.to/lastmile_qr_scan", "ios": "https://dc.lft.to/lastmile_qr_scan"}, "is_disabled": 0, "fusion_lat": 0.0, "name": "3095130c4bfc2991e70917a898a7cc31", "fusion_lon": 0.0}, {"is_reserved": 0, "type": "electric_scooter", "bike_id": "71fb04a9f7d9f70862d310e50c02472e", "lat": 38.896098333333335, "lon": -77.0470065, "rental_uris": {"android": "https://dc.lft.to/lastmile_qr_scan", "ios": "https://dc.lft.to/lastmile_qr_scan"}, "is_disabled": 0, "fusion_lat": 0.0, "name": "71fb04a9f7d9f70862d310e50c02472e", "fusion_lon": 0.0}, {"is_reserved": 0, "type": "electric_scooter", "bike_id": "aada13e9f7a96161bfc02b53a15ad76e", "lat": 38.892701833333334, "lon": -76.95254033333333, "rental_uris": {"android": "https://dc.lft.to/lastmile_qr_scan", "ios": "https://dc.lft.to/lastmile_qr_scan"}, "is_disabled": 0, "fusion_lat": 0.0, "name": "aada13e9f7a96161bfc02b53a15ad76e", "fusion_lon": 0.0}, {"is_reserved": 0, "type": "electric_scooter", "bike_id": "ad458942ee2d7bfad816b7cbdb23c868", "lat": 38.89603533333333, "lon": -77.02592483333333, "rental_uris": {"android": "https://dc.lft.to/lastmile_qr_scan", "ios": "https://dc.lft.to/lastmile_qr_scan"}, "is_disabled": 0, "fusion_lat": 0.0, "name": "ad458942ee2d7bfad816b7cbdb23c868", "fusion_lon": 0.0}, {"is_reserved": 0, "type": "electric_scooter", "bike_id": "130be0e597c8e794fddd99dfdce32f08", "lat": 38.892691, "lon": -76.92998, "rental_uris": {"android": "https://dc.lft.to/lastmile_qr_scan", "ios": "https://dc.lft.to/lastmile_qr_scan"}, "is_disabled": 0, "fusion_lat": 0.0, "name": "130be0e597c8e794fddd99dfdce32f08", "fusion_lon": 0.0}, {"is_reserved": 0, "type": "electric_scooter", "bike_id": "c8947c4e2c21f73271a7880f88bcbffc", "lat": 38.903098166666666, "lon": -77.05320633333334, "rental_uris": {"android": "https://dc.lft.to/lastmile_qr_scan", "ios": "https://dc.lft.to/lastmile_qr_scan"}, "is_disabled": 0, "fusion_lat": 0.0, "name": "c8947c4e2c21f73271a7880f88bcbffc", "fusion_lon": 0.0}, {"is_reserved": 0, "type": "electric_scooter", "bike_id": "87a8e5ea5cd32a81bc7ecbdfb895f50d", "lat": 38.921241333333334, "lon": -77.017851, "rental_uris": {"android": "https://dc.lft.to/lastmile_qr_scan", "ios": "https://dc.lft.to/lastmile_qr_scan"}, "is_disabled": 0, "fusion_lat": 0.0, "name": "87a8e5ea5cd32a81bc7ecbdfb895f50d", "fusion_lon": 0.0}, {"is_reserved": 0, "type": "electric_scooter", "bike_id": "2c0ce9e5546d5378bbef6ad9cea18c69", "lat": 38.91327966666667, "lon": -77.024429, "rental_uris": {"android": "https://dc.lft.to/lastmile_qr_scan", "ios": "https://dc.lft.to/lastmile_qr_scan"}, "is_disabled": 0, "fusion_lat": 0.0, "name": "2c0ce9e5546d5378bbef6ad9cea18c69", "fusion_lon": 0.0}, {"is_reserved": 0, "type": "electric_scooter", "bike_id": "8acdfdf13278a7654d2e86907577a494", "lat": 38.883951833333334, "lon": -76.930429, "rental_uris": {"android": "https://dc.lft.to/lastmile_qr_scan", "ios": "https://dc.lft.to/lastmile_qr_scan"}, "is_disabled": 0, "fusion_lat": 0.0, "name": "8acdfdf13278a7654d2e86907577a494", "fusion_lon": 0.0}, {"is_reserved": 0, "type": "electric_scooter", "bike_id": "92f4a5cc0a95b5518465cc19baee68e4", "lat": 38.896440166666665, "lon": -76.99030483333334, "rental_uris": {"android": "https://dc.lft.to/lastmile_qr_scan", "ios": "https://dc.lft.to/lastmile_qr_scan"}, "is_disabled": 0, "fusion_lat": 0.0, "name": "92f4a5cc0a95b5518465cc19baee68e4", "fusion_lon": 0.0}, {"is_reserved": 0, "type": "electric_scooter", "bike_id": "94246ea98c426b748bd239cdc899f3fb", "lat": 38.897540166666666, "lon": -77.03051883333333, "rental_uris": {"android": "https://dc.lft.to/lastmile_qr_scan", "ios": "https://dc.lft.to/lastmile_qr_scan"}, "is_disabled": 0, "fusion_lat": 0.0, "name": "94246ea98c426b748bd239cdc899f3fb", "fusion_lon": 0.0}, {"is_reserved": 0, "type": "electric_scooter", "bike_id": "44dfabc8b1c7de935028e073b563d5cf", "lat": 38.900855166666666, "lon": -77.05735466666667, "rental_uris": {"android": "https://dc.lft.to/lastmile_qr_scan", "ios": "https://dc.lft.to/lastmile_qr_scan"}, "is_disabled": 0, "fusion_lat": 0.0, "name": "44dfabc8b1c7de935028e073b563d5cf", "fusion_lon": 0.0}, {"is_reserved": 0, "type": "electric_scooter", "bike_id": "d13f2d07c32909c08d1f776e820fa1ab", "lat": 38.9297165, "lon": -77.03924333333333, "rental_uris": {"android": "https://dc.lft.to/lastmile_qr_scan", "ios": "https://dc.lft.to/lastmile_qr_scan"}, "is_disabled": 0, "fusion_lat": 0.0, "name": "d13f2d07c32909c08d1f776e820fa1ab", "fusion_lon": 0.0}, {"is_reserved": 0, "type": "electric_scooter", "bike_id": "07f9f13728a8b7a3dca6cf2700712af5", "lat": 38.896187, "lon": -76.976825, "rental_uris": {"android": "https://dc.lft.to/lastmile_qr_scan", "ios": "https://dc.lft.to/lastmile_qr_scan"}, "is_disabled": 0, "fusion_lat": 0.0, "name": "07f9f13728a8b7a3dca6cf2700712af5", "fusion_lon": 0.0}, {"is_reserved": 0, "type": "electric_scooter", "bike_id": "a53eef3ac99c08f7169834ea101b1362", "lat": 38.9087875, "lon": -76.99123816666666, "rental_uris": {"android": "https://dc.lft.to/lastmile_qr_scan", "ios": "https://dc.lft.to/lastmile_qr_scan"}, "is_disabled": 0, "fusion_lat": 0.0, "name": "a53eef3ac99c08f7169834ea101b1362", "fusion_lon": 0.0}, {"is_reserved": 0, "type": "electric_scooter", "bike_id": "888788c7576ead64207e573876bb8d1d", "lat": 38.8967995, "lon": -76.9353105, "rental_uris": {"android": "https://dc.lft.to/lastmile_qr_scan", "ios": "https://dc.lft.to/lastmile_qr_scan"}, "is_disabled": 0, "fusion_lat": 0.0, "name": "888788c7576ead64207e573876bb8d1d", "fusion_lon": 0.0}, {"is_reserved": 0, "type": "electric_scooter", "bike_id": "94b90173cd8f8e970a5baa7d294f55d8", "lat": 38.9185055, "lon": -77.02425633333333, "rental_uris": {"android": "https://dc.lft.to/lastmile_qr_scan", "ios": "https://dc.lft.to/lastmile_qr_scan"}, "is_disabled": 0, "fusion_lat": 0.0, "name": "94b90173cd8f8e970a5baa7d294f55d8", "fusion_lon": 0.0}, {"is_reserved": 0, "type": "electric_scooter", "bike_id": "9f8f8c9ff12fbae44f77878ebe1504a3", "lat": 38.88718633333333, "lon": -77.0197765, "rental_uris": {"android": "https://dc.lft.to/lastmile_qr_scan", "ios": "https://dc.lft.to/lastmile_qr_scan"}, "is_disabled": 0, "fusion_lat": 0.0, "name": "9f8f8c9ff12fbae44f77878ebe1504a3", "fusion_lon": 0.0}, {"is_reserved": 0, "type": "electric_scooter", "bike_id": "09ed42ba68a429a1460bbda2f076e156", "lat": 38.9422525, "lon": -77.0715555, "rental_uris": {"android": "https://dc.lft.to/lastmile_qr_scan", "ios": "https://dc.lft.to/lastmile_qr_scan"}, "is_disabled": 0, "fusion_lat": 0.0, "name": "09ed42ba68a429a1460bbda2f076e156", "fusion_lon": 0.0}, {"is_reserved": 0, "type": "electric_scooter", "bike_id": "73b300c28d011e182713a2b7024adde4", "lat": 38.919453833333336, "lon": -77.01354816666667, "rental_uris": {"android": "https://dc.lft.to/lastmile_qr_scan", "ios": "https://dc.lft.to/lastmile_qr_scan"}, "is_disabled": 0, "fusion_lat": 0.0, "name": "73b300c28d011e182713a2b7024adde4", "fusion_lon": 0.0}, {"is_reserved": 0, "type": "electric_scooter", "bike_id": "cd4fe92ef45731435d61b6ce076dad45", "lat": 38.923335333333334, "lon": -77.03559266666667, "rental_uris": {"android": "https://dc.lft.to/lastmile_qr_scan", "ios": "https://dc.lft.to/lastmile_qr_scan"}, "is_disabled": 0, "fusion_lat": 0.0, "name": "cd4fe92ef45731435d61b6ce076dad45", "fusion_lon": 0.0}, {"is_reserved": 0, "type": "electric_scooter", "bike_id": "9fcbea5dbc203eb1689b9b75a4c75b7a", "lat": 38.940796166666665, "lon": -77.05490516666667, "rental_uris": {"android": "https://dc.lft.to/lastmile_qr_scan", "ios": "https://dc.lft.to/lastmile_qr_scan"}, "is_disabled": 0, "fusion_lat": 0.0, "name": "9fcbea5dbc203eb1689b9b75a4c75b7a", "fusion_lon": 0.0}, {"is_reserved": 0, "type": "electric_scooter", "bike_id": "a4ddfb6fa0718f7845d4c97be219a956", "lat": 38.9174875, "lon": -77.02787316666667, "rental_uris": {"android": "https://dc.lft.to/lastmile_qr_scan", "ios": "https://dc.lft.to/lastmile_qr_scan"}, "is_disabled": 0, "fusion_lat": 0.0, "name": "a4ddfb6fa0718f7845d4c97be219a956", "fusion_lon": 0.0},