{"data": {"bikes": [{"lon": -77.02402516666666, "is_disabled": 0, "lat": 38.9154695, "fusion_lat": 0.0, "is_reserved": 0, "rental_uris": {"ios": "https://dc.lft.to/lastmile_qr_scan", "android": "https://dc.lft.to/lastmile_qr_scan"}, "fusion_lon": 0.0, "type": "electric_scooter", "bike_id": "7cdb1a193b3343b9341f16b9df767ef2", "name": "7cdb1a193b3343b9341f16b9df767ef2"}, {"lon": -77.0693455, "is_disabled": 0, "lat": 38.95212316666667, "fusion_lat": 0.0, "is_reserved": 0, "rental_uris": {"ios": "https://dc.lft.to/lastmile_qr_scan", "android": "https://dc.lft.to/lastmile_qr_scan"}, "fusion_lon": 0.0, "type": "electric_scooter", "bike_id": "be83a13c4cd3364f77940a3c9b31818a", "name": "be83a13c4cd3364f77940a3c9b31818a"}, {"lon": -77.05152316666667, "is_disabled": 0, "lat": 38.92378466666667, "fusion_lat": 0.0, "is_reserved": 0, "rental_uris": {"ios": "https://dc.lft.to/lastmile_qr_scan", "android": "https://dc.lft.to/lastmile_qr_scan"}, "fusion_lon": 0.0, "type": "electric_scooter", "bike_id": "d199219a6449db1aaaf12b5599e3be80", "name": "d199219a6449db1aaaf12b5599e3be80"}, {"lon": -77.03266416666666, "is_disabled": 0, "lat": 38.92753616666667, "fusion_lat": 0.0, "is_reserved": 0, "rental_uris": {"ios": "https://dc.lft.to/lastmile_qr_scan", "android": "https://dc.lft.to/lastmile_qr_scan"}, "fusion_lon": 0.0, "type": "electric_scooter", "bike_id": "1cb96fdd4f5d6a94c9c6d307b6f70a92", "name": "1cb96fdd4f5d6a94c9c6d307b6f70a92"}, {"lon": -77.00795433333333, "is_disabled": 0, "lat": 38.9491425, "fusion_lat": 0.0, "is_reserved": 0, "rental_uris": {"ios": "https://dc.lft.to/lastmile_qr_scan", "android": "https://dc.lft.to/lastmile_qr_scan"}, "fusion_lon": 0.0, "type": "electric_bike", "bike_id": "4e609635fb23a938ca47c517cf41195f", "name": "4e609635fb23a938ca47c517cf41195f"}, {"lon": -77.03518483333333, "is_disabled": 0, "lat": 38.922350333333334, "fusion_lat": 0.0, "is_reserved": 0, "rental_uris": {"ios": "https://dc.lft.to/lastmile_qr_scan", "android": "https://dc.lft.to/lastmile_qr_scan"}, "fusion_lon": 0.0, "type": "electric_scooter", "bike_id": "de71f3d8b6f2288fe9cba89d3d382cce", "name": "de71f3d8b6f2288fe9cba89d3d382cce"}, {"lon": -77.0321285, "is_disabled": 0, "lat": 38.919937, "fusion_lat": 0.0, "is_reserved": 0, "rental_uris": {"ios": "https://dc.lft.to/lastmile_qr_scan", "android": "https://dc.lft.to/lastmile_qr_scan"}, "fusion_lon": 0.0, "type": "electric_scooter", "bike_id": "66b15e3a300ee479234bf676f37a9348", "name": "66b15e3a300ee479234bf676f37a9348"}, {"lon": -77.046763, "is_disabled": 0, "lat": 38.903561833333335, "fusion_lat": 0.0, "is_reserved": 0, "rental_uris": {"ios": "https://dc.lft.to/lastmile_qr_scan", "android": "https://dc.lft.to/lastmile_qr_scan"}, "fusion_lon": 0.0, "type": "electric_scooter", "bike_id": "628696730224bf05b5dfaec4be3df76a", "name": "628696730224bf05b5dfaec4be3df76a"}, {"lon": -77.005197, "is_disabled": 0, "lat": 38.874673, "fusion_lat": 0.0, "is_reserved": 0, "rental_uris": {"ios": "https://dc.lft.to/lastmile_qr_scan", "android": "https://dc.lft.to/lastmile_qr_scan"}, "fusion_lon": 0.0, "type": "electric_scooter", "bike_id": "2cdf1048bea406013a3a3f2c16569429", "name": "2cdf1048bea406013a3a3f2c16569429"}, {"lon": -77.01852883333333, "is_disabled": 0, "lat": 38.87452366666667, "fusion_lat": 0.0, "is_reserved": 0, "rental_uris": {"ios": "https://dc.lft.to/lastmile_qr_scan", "android": "https://dc.lft.to/lastmile_qr_scan"}, "fusion_lon": 0.0, "type": "electric_scooter", "bike_id": "e00988ec157c911de90839707d9c2275", "name": "e00988ec157c911de90839707d9c2275"}, {"lon": -77.08430216666666, "is_disabled": 0, "lat": 38.93184466666666, "fusion_lat": 0.0, "is_reserved": 0, "rental_uris": {"ios": "https://dc.lft.to/lastmile_qr_scan", "android": "https://dc.lft.to/lastmile_qr_scan"}, "fusion_lon": 0.0, "type": "electric_scooter", "bike_id": "e3f9df2d2c4b6d4f624f72252bd79990", "name": "e3f9df2d2c4b6d4f624f72252bd79990"}, {"lon": -77.04157733333334, "is_disabled": 0, "lat": 38.90139083333333, "fusion_lat": 0.0, "is_reserved": 0, "rental_uris": {"ios": "https://dc.lft.to/lastmile_qr_scan", "android": "https://dc.lft.to/lastmile_qr_scan"}, "fusion_lon": 0.0, "type": "electric_scooter", "bike_id": "8583e61b3fcefdf8cd5174182e869e9d", "name": "8583e61b3fcefdf8cd5174182e869e9d"}, {"lon": -76.94573883333334, "is_disabled": 0, "lat": 38.8661995, "fusion_lat": 0.0, "is_reserved": 0, "rental_uris": {"ios": "https://dc.lft.to/lastmile_qr_scan", "android": "https://dc.lft.to/lastmile_qr_scan"}, "fusion_lon": 0.0, "type": "electric_bike", "bike_id": "3b74e385e9da2ce6a55e3e3efad94892", "name": "3b74e385e9da2ce6a55e3e3efad94892"}, {"lon": -77.04529283333333, "is_disabled": 0, "lat": 38.91331316666667, "fusion_lat": 0.0, "is_reserved": 0, "rental_uris": {"ios": "https://dc.lft.to/lastmile_qr_scan", "android": "https://dc.lft.to/lastmile_qr_scan"}, "fusion_lon": 0.0, "type": "electric_scooter", "bike_id": "03f60437894b7f49540c1ed48b0b842a", "name": "03f60437894b7f49540c1ed48b0b842a"}, {"lon": -77.00682866666666, "is_disabled": 0, "lat": 38.871696166666666, "fusion_lat": 0.0, "is_reserved": 0, "rental_uris": {"ios": "https://dc.lft.to/lastmile_qr_scan", "android": "https://dc.lft.to/lastmile_qr_scan"}, "fusion_lon": 0.0, "type": "electric_scooter", "bike_id": "a2c11fe68c7d3383c407d5c31d6210cb", "name": "a2c11fe68c7d3383c407d5c31d6210cb"}, {"lon": -76.94895016666666, "is_disabled": 0, "lat": 38.895355, "fusion_lat": 0.0, "is_reserved": 0, "rental_uris": {"ios": "https://dc.lft.to/lastmile_qr_scan", "android": "https://dc.lft.to/lastmile_qr_scan"}, "fusion_lon": 0.0, "type": "electric_scooter", "bike_id": "7e30d640c4260934ecd79fff0afed06a", "name": "7e30d640c4260934ecd79fff0afed06a"}, {"lon": -77.0401315, "is_disabled": 0, "lat": 38.90998066666667, "fusion_lat": 0.0, "is_reserved": 0, "rental_uris": {"ios": "https://dc.lft.to/lastmile_qr_scan", "android": "https://dc.lft.to/lastmile_qr_scan"}, "fusion_lon": 0.0, "type": "electric_scooter", "bike_id": "f6294d194e03a52deb7cc927f3792250", "name": "f6294d194e03a52deb7cc927f3792250"}, {"lon": -77.01831033333333, "is_disabled": 0, "lat": 38.9499215, "fusion_lat": 0.0, "is_reserved": 0, "rental_uris": {"ios": "https://dc.lft.to/lastmile_qr_scan", "android": "https://dc.lft.to/lastmile_qr_scan"}, "fusion_lon": 0.0, "type": "electric_scooter", "bike_id": "aae8c4e87ca541bbad5bf08aebd42300", "name": "aae8c4e87ca541bbad5bf08aebd42300"}, {"lon": -76.98816716666667, "is_disabled": 0, "lat": 38.900706166666666, "fusion_lat": 0.0, "is_reserved": 0, "rental_uris": {"ios": "https://dc.lft.to/lastmile_qr_scan", "android": "https://dc.lft.to/lastmile_qr_scan"}, "fusion_lon": 0.0, "type": "electric_scooter", "bike_id": "5a7382b8848a370f1da3d3d6e57dd267", "name": "5a7382b8848a370f1da3d3d6e57dd267"}, {"lon": -76.9860295, "is_disabled": 0, "lat": 38.900101166666666, "fusion_lat": 0.0, "is_reserved": 0, "rental_uris": {"ios": "https://dc.lft.to/lastmile_qr_scan", "android": "https://dc.lft.to/lastmile_qr_scan"}, "fusion_lon": 0.0, "type": "electric_scooter", "bike_id": "abba6e4615ce82bd512b9db8f8f8e2d0", "name": "abba6e4615ce82bd512b9db8f8f8e2d0"}, {"lon": -77.04873716666667, "is_disabled": 0, "lat": 38.9097865, "fusion_lat": 0.0, "is_reserved": 0, "rental_uris": {"ios": "https://dc.lft.to/lastmile_qr_scan", "android": "https://dc.lft.to/lastmile_qr_scan"}, "fusion_lon": 0.0, "type": "electric_scooter", "bike_id": "520e05906ee63a0c95a2183e70b5d9de", "name": "520e05906ee63a0c95a2183e70b5d9de"}, {"lon": -77.020906, "is_disabled": 0, "lat": 38.8818255, "fusion_lat": 0.0, "is_reserved": 0, "rental_uris": {"ios": "https://dc.lft.to/lastmile_qr_scan", "android": "https://dc.lft.to/lastmile_qr_scan"}, "fusion_lon": 0.0, "type": "electric_scooter", "bike_id": "cd78f63802f0227635063044b22970a1", "name": "cd78f63802f0227635063044b22970a1"}, {"lon": -76.9949865, "is_disabled": 0, "lat": 38.88340683333333, "fusion_lat": 0.0, "is_reserved": 0, "rental_uris": {"ios": "https://dc.lft.to/lastmile_qr_scan", "android": "https://dc.lft.to/lastmile_qr_scan"}, "fusion_lon": 0.0, "type": "electric_scooter", "bike_id": "7b47daf30b260abcaa50f75a2d7fb458", "name": "7b47daf30b260abcaa50f75a2d7fb458"}, {"lon": -77.02123466666667, "is_disabled": 0, "lat": 38.93576216666666, "fusion_lat": 0.0, "is_reserved": 0, "rental_uris": {"ios": "https://dc.lft.to/lastmile_qr_scan", "android": "https://dc.lft.to/lastmile_qr_scan"}, "fusion_lon": 0.0, "type": "electric_bike", "bike_id": "1931f3716ca67759b62ae64bc1f241d0", "name": "1931f3716ca67759b62ae64bc1f241d0"}, {"lon": -76.96527266666666, "is_disabled": 0, "lat": 38.87623416666667, "fusion_lat": 0.0, "is_reserved": 0, "rental_uris": {"ios": "https://dc.lft.to/lastmile_qr_scan", "android": "https://dc.lft.to/lastmile_qr_scan"}, "fusion_lon": 0.0, "type": "electric_scooter", "bike_id": "61a5f5f24f5261ccfda8731c7f2e9c60", "name": "61a5f5f24f5261ccfda8731c7f2e9c60"}, {"lon": -77.00670383333333, "is_disabled": 0, "lat": 38.945063, "fusion_lat": 0.0, "is_reserved": 0, "rental_uris": {"ios": "https://dc.lft.to/lastmile_qr_scan", "android": "https://dc.lft.to/lastmile_qr_scan"}, "fusion_lon": 0.0, "type": "electric_bike", "bike_id": "6832a45cb71a4c447d04f6f907243dc1", "name": "6832a45cb71a4c447d04f6f907243dc1"}, {"lon": -77.04162766666667, "is_disabled": 0, "lat": 38.9141905, "fusion_lat": 0.0, "is_reserved": 0, "rental_uris": {"ios": "https://dc.lft.to/lastmile_qr_scan", "android": "https://dc.lft.to/lastmile_qr_scan"}, "fusion_lon": 0.0, "type": "electric_scooter", "bike_id": "f5c55b69eee1824dea34039dd78f6e6c", "name": "f5c55b69eee1824dea34039dd78f6e6c"}, {"lon": -77.01578416666666, "is_disabled": 0, "lat": 38.87630883333333, "fusion_lat": 0.0, "is_reserved": 0, "rental_uris": {"ios": "https://dc.lft.to/lastmile_qr_scan", "android": "https://dc.lft.to/lastmile_qr_scan"}, "fusion_lon": 0.0, "type": "electric_scooter", "bike_id": "1fe49c4ff187fa02ea4f717210e9b561", "name": "1fe49c4ff187fa02ea4f717210e9b561"}, {"lon": -77.01690666666667, "is_disabled": 0, "lat": 38.93901183333333, "fusion_lat": 0.0, "is_reserved": 0, "rental_uris": {"ios": "https://dc.lft.to/lastmile_qr_scan", "android": "https://dc.lft.to/lastmile_qr_scan"}, "fusion_lon": 0.0, "type": "electric_bike", "bike_id": "c20d604b57cec2e6baa1c56d0286710d", "name": "c20d604b57cec2e6baa1c56d0286710d"}, {"lon": -77.051495, "is_disabled": 0, "lat": 38.923774, "fusion_lat": 0.0, "is_reserved": 0, "rental_uris": {"ios": "https://dc.lft.to/lastmile_qr_scan", "android": "https://dc.lft.to/lastmile_qr_scan"}, "fusion_lon": 0.0, "type": "electric_scooter", "bike_id": "8d780813322f0864b5f8e38edc8ae19f", "name": "8d780813322f0864b5f8e38edc8ae19f"}, {"lon": -77.0177805, "is_disabled": 0, "lat": 38.91505383333333, "fusion_lat": 0.0, "is_reserved": 0, "rental_uris": {"ios": "https://dc.lft.to/lastmile_qr_scan", "android": "https://dc.lft.to/lastmile_qr_scan"}, "fusion_lon": 0.0, "type": "electric_scooter", "bike_id": "c2783bd199f16dae38db0053ddd77a3c", "name": "c2783bd199f16dae38db0053ddd77a3c"}, {"lon": -77.02318916666667, "is_disabled": 0, "lat": 38.9091765, "fusion_lat": 0.0, "is_reserved": 0, "rental_uris": {"ios": "https://dc.lft.to/lastmile_qr_scan", "android": "https://dc.lft.to/lastmile_qr_scan"}, "fusion_lon": 0.0, "type": "electric_scooter", "bike_id": "e765c59d1ca0c3864810a6647d03afeb", "name": "e765c59d1ca0c3864810a6647d03afeb"}, {"lon": -77.0206665, "is_disabled": 0, "lat": 38.921366166666665, "fusion_lat": 0.0, "is_reserved": 0, "rental_uris": {"ios": "https://dc.lft.to/lastmile_qr_scan", "android": "https://dc.lft.to/lastmile_qr_scan"}, "fusion_lon": 0.0, "type": "electric_scooter", "bike_id": "b66780ffa0f77d4b404068aa2b27a751", "name": "b66780ffa0f77d4b404068aa2b27a751"}, {"lon": -77.00449433333333, "is_disabled": 0, "lat": 38.87665, "fusion_lat": 0.0, "is_reserved": 0, "rental_uris": {"ios": "https://dc.lft.to/lastmile_qr_scan", "android": "https://dc.lft.to/lastmile_qr_scan"}, "fusion_lon": 0.0, "type": "electric_scooter", "bike_id": "0972787de3b0500f28cb9b0418b47e66", "name": "0972787de3b0500f28cb9b0418b47e66"}, {"lon": -77.02594216666667, "is_disabled": 0, "lat": 38.904307333333335, "fusion_lat": 0.0, "is_reserved": 0, "rental_uris": {"ios": "https://dc.lft.to/lastmile_qr_scan", "android": "https://dc.lft.to/lastmile_qr_scan"}, "fusion_lon": 0.0, "type": "electric_scooter", "bike_id": "a5dfb008421c0a6b69694287cce7330f", "name": "a5dfb008421c0a6b69694287cce7330f"}, {"lon": -77.00114516666666, "is_disabled": 0, "lat": 38.886460666666665, "fusion_lat": 0.0, "is_reserved": 0, "rental_uris": {"ios": "https://dc.lft.to/lastmile_qr_scan", "android": "https://dc.lft.to/lastmile_qr_scan"}, "fusion_lon": 0.0, "type": "electric_scooter", "bike_id": "ffbf257888e5cfef9becbc72d1889925", "name": "ffbf257888e5cfef9becbc72d1889925"}, {"lon": -77.022729, "is_disabled": 0, "lat": 38.895252666666664, "fusion_lat": 0.0, "is_reserved": 0, "rental_uris": {"ios": "https://dc.lft.to/lastmile_qr_scan", "android": "https://dc.lft.to/lastmile_qr_scan"}, "fusion_lon": 0.0, "type": "electric_scooter", "bike_id": "48329a812355d21a25545f2d7fe9f03a", "name": "48329a812355d21a25545f2d7fe9f03a"}, {"lon": -77.02136016666667, "is_disabled": 0, "lat": 38.9018855, "fusion_lat": 0.0, "is_reserved": 0, "rental_uris": {"ios": "https://dc.lft.to/lastmile_qr_scan", "android": "https://dc.lft.to/lastmile_qr_scan"}, "fusion_lon": 0.0, "type": "electric_scooter", "bike_id": "2ac96f893ab10308bef71128dceb4fff", "name": "2ac96f893ab10308bef71128dceb4fff"}, {"lon": -76.93020866666667, "is_disabled": 0, "lat": 38.901697666666664, "fusion_lat": 0.0, "is_reserved": 0, "rental_uris": {"ios": "https://dc.lft.to/lastmile_qr_scan", "android": "https://dc.lft.to/lastmile_qr_scan"}, "fusion_lon": 0.0, "type": "electric_scooter", "bike_id": "20a9135828511722ef12be87ad872c35", "name": "20a9135828511722ef12be87ad872c35"}, {"lon": -77.02111916666667, "is_disabled": 0, "lat": 38.91736133333333, "fusion_lat": 0.0, "is_reserved": 0, "rental_uris": {"ios": "https://dc.lft.to/lastmile_qr_scan", "android": "https://dc.lft.to/lastmile_qr_scan"}, "fusion_lon": 0.0, "type": "electric_scooter", "bike_id": "49991a57b141a54e87bfb96ebfd156ad", "name": "49991a57b141a54e87bfb96ebfd156ad"}, {"lon": -77.01197033333334, "is_disabled": 0, "lat": 38.91694566666666, "fusion_lat": 0.0, "is_reserved": 0, "rental_uris": {"ios": "https://dc.lft.to/lastmile_qr_scan", "android": "https://dc.lft.to/lastmile_qr_scan"}, "fusion_lon": 0.0, "type": "electric_scooter", "bike_id": "bce2a63f76e0b75e4435416ef42779d1", "name": "bce2a63f76e0b75e4435416ef42779d1"}, {"lon": -76.96532466666666, "is_disabled": 0, "lat": 38.874804166666664, "fusion_lat": 0.0, "is_reserved": 0, "rental_uris": {"ios": "https://dc.lft.to/lastmile_qr_scan", "android": "https://dc.lft.to/lastmile_qr_scan"}, "fusion_lon": 0.0, "type": "electric_bike", "bike_id": "8474706643394a5c4de5cc696d8e8f38", "name": "8474706643394a5c4de5cc696d8e8f38"}, {"lon": -77.01151983333334, "is_disabled": 0, "lat": 38.956348, "fusion_lat": 0.0, "is_reserved": 0, "rental_uris": {"ios": "https://dc.lft.to/lastmile_qr_scan", "android": "https://dc.lft.to/lastmile_qr_scan"}, "fusion_lon": 0.0, "type": "electric_scooter", "bike_id": "7c2bc44003e653ed44e0fe9ff6179f30", "name": "7c2bc44003e653ed44e0fe9ff6179f30"}, {"lon": -77.06307916666667, "is_disabled": 0, "lat": 38.798537833333334, "fusion_lat": 0.0, "is_reserved": 0, "rental_uris": {"ios": "https://dc.lft.to/lastmile_qr_scan", "android": "https://dc.lft.to/lastmile_qr_scan"}, "fusion_lon": 0.0, "type": "electric_bike", "bike_id": "a7628f6ea4912c98fa2d28499dadf08d", "name": "a7628f6ea4912c98fa2d28499dadf08d"}, {"lon": -77.010025, "is_disabled": 0, "lat": 38.956536666666665, "fusion_lat": 0.0, "is_reserved": 0, "rental_uris": {"ios": "https://dc.lft.to/lastmile_qr_scan", "android": "https://dc.lft.to/lastmile_qr_scan"}, "fusion_lon": 0.0, "type": "electric_scooter", "bike_id": "8e4ae16d65bf17ebc2effeab4713a6e0", "name": "8e4ae16d65bf17ebc2effeab4713a6e0"}, {"lon": -77.02455883333333, "is_disabled": 0, "lat": 38.943614333333336, "fusion_lat": 0.0, "is_reserved": 0, "rental_uris": {"ios": "https://dc.lft.to/lastmile_qr_scan", "android": "https://dc.lft.to/lastmile_qr_scan"}, "fusion_lon": 0.0, "type": "electric_scooter", "bike_id": "7f55ea3b1ab1bfce2c4798407649d462", "name": "7f55ea3b1ab1bfce2c4798407649d462"}, {"lon": -77.072691, "is_disabled": 0, "lat": 38.9347495, "fusion_lat": 0.0, "is_reserved": 0, "rental_uris": {"ios": "https://dc.lft.to/lastmile_qr_scan", "android": "https://dc.lft.to/lastmile_qr_scan"}, "fusion_lon": 0.0, "type": "electric_scooter", "bike_id": "1618e59c2a42f7b257a15a2f43f0f244", "name": "1618e59c2a42f7b257a15a2f43f0f244"}, {"lon": -77.00588283333333, "is_disabled": 0, "lat": 38.9055395, "fusion_lat": 0.0, "is_reserved": 0, "rental_uris": {"ios": "https://dc.lft.to/lastmile_qr_scan", "android": "https://dc.lft.to/lastmile_qr_scan"}, "fusion_lon": 0.0, "type": "electric_scooter", "bike_id": "34cee2b5f46d869170d56a95c8cd0124", "name": "34cee2b5f46d869170d56a95c8cd0124"}, {"lon": -77.02966833333333, "is_disabled": 0, "lat": 38.904867833333334, "fusion_lat": 0.0, "is_reserved": 0, "rental_uris": {"ios": "https://dc.lft.to/lastmile_qr_scan", "android": "https://dc.lft.to/lastmile_qr_scan"}, "fusion_lon": 0.0, "type": "electric_scooter", "bike_id": "dfc692cab7698b8ca0c59b6861ed8cb5", "name": "dfc692cab7698b8ca0c59b6861ed8cb5"}, {"lon": -76.96526316666667, "is_disabled": 0, "lat": 38.876235, "fusion_lat": 0.0, "is_reserved": 0, "rental_uris": {"ios": "https://dc.lft.to/lastmile_qr_scan", "android": "https://dc.lft.to/lastmile_qr_scan"}, "fusion_lon": 0.0, "type": "electric_scooter", "bike_id": "4799e6b23bfad6681f92080074a77e3e", "name": "4799e6b23bfad6681f92080074a77e3e"}, {"lon": -77.00815016666667, "is_disabled": 0, "lat": 38.8767095, "fusion_lat": 0.0, "is_reserved": 0, "rental_uris": {"ios": "https://dc.lft.to/lastmile_qr_scan", "android": "https://dc.lft.to/lastmile_qr_scan"}, "fusion_lon": 0.0, "type": "electric_scooter", "bike_id": "ec021758df4fe9b2460e390e98d9cfb5", "name": "ec021758df4fe9b2460e390e98d9cfb5"}, {"lon": -77.04157383333333, "is_disabled": 0, "lat": 38.9014495, "fusion_lat": 0.0, "is_reserved": 0, "rental_uris": {"ios": "https://dc.lft.to/lastmile_qr_scan", "android": "https://dc.lft.to/lastmile_qr_scan"}, "fusion_lon": 0.0, "type": "electric_scooter", "bike_id": "4d6c2a2f30c0918f282f3e4d17600c92", "name": "4d6c2a2f30c0918f282f3e4d17600c92"}, {"lon": -77.01026566666667, "is_disabled": 0, "lat": 38.95619083333333, "fusion_lat": 0.0, "is_reserved": 0, "rental_uris": {"ios": "https://dc.lft.to/lastmile_qr_scan", "android": "https://dc.lft.to/lastmile_qr_scan"}, "fusion_lon": 0.0, "type": "electric_scooter", "bike_id": "07e3ba390a48c8db374bfd044869bdc2", "name": "07e3ba390a48c8db374bfd044869bdc2"}, {"lon": -77.05327633333333, "is_disabled": 0, "lat": 38.91054716666667, "fusion_lat": 0.0, "is_reserved": 0, "rental_uris": {"ios": "https://dc.lft.to/lastmile_qr_scan", "android": "https://dc.lft.to/lastmile_qr_scan"}, "fusion_lon": 0.0, "type": "electric_scooter", "bike_id": "8efd05f0a1f5bf6e2c049d4040889600", "name": "8efd05f0a1f5bf6e2c049d4040889600"}, {"lon": -77.01925133333333, "is_disabled": 0, "lat": 38.91728533333333, "fusion_lat": 0.0, "is_reserved": 0, "rental_uris": {"ios": "https://dc.lft.to/lastmile_qr_scan", "android": "https://dc.lft.to/lastmile_qr_scan"}, "fusion_lon": 0.0, "type": "electric_scooter", "bike_id": "19c4fbc0e974a102d8cb25418c984729", "name": "19c4fbc0e974a102d8cb25418c984729"}, {"lon": -77.016792, "is_disabled": 0, "lat": 38.900409, "fusion_lat": 0.0, "is_reserved": 0, "rental_uris": {"ios": "https://dc.lft.to/lastmile_qr_scan", "android": "https://dc.lft.to/lastmile_qr_scan"}, "fusion_lon": 0.0, "type": "electric_scooter", "bike_id": "64dd55c55daaa4c63c43b962a49d296b", "name": "64dd55c55daaa4c63c43b962a49d296b"}, {"lon": -77.035717, "is_disabled": 0, "lat": 38.903776, "fusion_lat": 0.0, "is_reserved": 0, "rental_uris": {"ios": "https://dc.lft.to/lastmile_qr_scan", "android": "https://dc.lft.to/lastmile_qr_scan"}, "fusion_lon": 0.0, "type": "electric_scooter", "bike_id": "33ef3734ff9df91be8c043b7e0a12ade", "name": "33ef3734ff9df91be8c043b7e0a12ade"}, {"lon": -77.02209916666666, "is_disabled": 0, "lat": 38.92069466666667, "fusion_lat": 0.0, "is_reserved": 0, "rental_uris": {"ios": "https://dc.lft.to/lastmile_qr_scan", "android": "https://dc.lft.to/lastmile_qr_scan"}, "fusion_lon": 0.0, "type": "electric_scooter", "bike_id": "5e8a5025564f8b334e35ed66b4744aaf", "name": "5e8a5025564f8b334e35ed66b4744aaf"}, {"lon": -77.0280105, "is_disabled": 0, "lat": 38.899795, "fusion_lat": 0.0, "is_reserved": 0, "rental_uris": {"ios": "https://dc.lft.to/lastmile_qr_scan", "android": "https://dc.lft.to/lastmile_qr_scan"}, "fusion_lon": 0.0, "type": "electric_scooter", "bike_id": "79cc629ebd61d67ce6d92eb3816a491e", "name": "79cc629ebd61d67ce6d92eb3816a491e"}, {"lon": -77.04162116666667, "is_disabled": 0, "lat": 38.91612716666667, "fusion_lat": 0.0, "is_reserved": 0, "rental_uris": {"ios": "https://dc.lft.to/lastmile_qr_scan", "android": "https://dc.lft.to/lastmile_qr_scan"}, "fusion_lon": 0.0, "type": "electric_scooter", "bike_id": "98ecd49fbf6be51beafd4bfa78f69118", "name": "98ecd49fbf6be51beafd4bfa78f69118"}, {"lon": -77.012181, "is_disabled": 0, "lat": 38.874736666666664, "fusion_lat": 0.0, "is_reserved": 0, "rental_uris": {"ios": "https://dc.lft.to/lastmile_qr_scan", "android": "https://dc.lft.to/lastmile_qr_scan"}, "fusion_lon": 0.0, "type": "electric_scooter", "bike_id": "8dc4c94317395cf2856db80cdcdcaa1c", "name": "8dc4c94317395cf2856db80cdcdcaa1c"}, {"lon": -77.02197533333333, "is_disabled": 0, "lat": 38.91128916666667, "fusion_lat": 0.0, "is_reserved": 0, "rental_uris": {"ios": "https://dc.lft.to/lastmile_qr_scan", "android": "https://dc.lft.to/lastmile_qr_scan"}, "fusion_lon": 0.0, "type": "electric_scooter", "bike_id": "43dfaabf3c6afbddc9896216e2500c82", "name": "43dfaabf3c6afbddc9896216e2500c82"}, {"lon": -77.036386, "is_disabled": 0, "lat": 38.92407883333333, "fusion_lat": 0.0, "is_reserved": 0, "rental_uris": {"ios": "https://dc.lft.to/lastmile_qr_scan", "android": "https://dc.lft.to/lastmile_qr_scan"}, "fusion_lon": 0.0, "type": "electric_scooter", "bike_id": "272725682f979d0341c24416f937fe40", "name": "272725682f979d0341c24416f937fe40"}, {"lon": -77.03862966666667, "is_disabled": 0, "lat": 38.90804766666667, "fusion_lat": 0.0, "is_reserved": 0, "rental_uris": {"ios": "https://dc.lft.to/lastmile_qr_scan", "android": "https://dc.lft.to/lastmile_qr_scan"}, "fusion_lon": 0.0, "type": "electric_scooter", "bike_id": "5d12449b7a06c2e899e4002f34a083b5", "name": "5d12449b7a06c2e899e4002f34a083b5"}, {"lon": -77.04264966666666, "is_disabled": 0, "lat": 38.925500666666665, "fusion_lat": 0.0, "is_reserved": 0, "rental_uris": {"ios": "https://dc.lft.to/lastmile_qr_scan", "android": "https://dc.lft.to/lastmile_qr_scan"}, "fusion_lon": 0.0, "type": "electric_scooter", "bike_id": "17200c954fe86f8283c2905b1a8c3cd3", "name": "17200c954fe86f8283c2905b1a8c3cd3"}, {"lon": -77.03730116666667, "is_disabled": 0, "lat": 38.92654683333333, "fusion_lat": 0.0, "is_reserved": 0, "rental_uris": {"ios": "https://dc.lft.to/lastmile_qr_scan", "android": "https://dc.lft.to/lastmile_qr_scan"}, "fusion_lon": 0.0, "type": "electric_scooter", "bike_id": "f3df1e27d2378060cd6e09ddd47d7d6b", "name": "f3df1e27d2378060cd6e09ddd47d7d6b"}, {"lon": -76.99702283333333, "is_disabled": 0, "lat": 38.90800133333333, "fusion_lat": 0.0, "is_reserved": 0, "rental_uris": {"ios": "https://dc.lft.to/lastmile_qr_scan", "android": "https://dc.lft.to/lastmile_qr_scan"}, "fusion_lon": 0.0, "type": "electric_scooter", "bike_id": "84c3e6b034686699d5aa168ffc216659", "name": "84c3e6b034686699d5aa168ffc216659"}, {"lon": -77.0385065, "is_disabled": 0, "lat": 38.9323955, "fusion_lat": 0.0, "is_reserved": 0, "rental_uris": {"ios": "https://dc.lft.to/lastmile_qr_scan", "android": "https://dc.lft.to/lastmile_qr_scan"}, "fusion_lon": 0.0, "type": "electric_scooter", "bike_id": "79c3c412ae697ef49203b797a241394c", "name": "79c3c412ae697ef49203b797a241394c"}, {"lon": -77.02347583333334, "is_disabled": 0, "lat": 38.893925833333334, "fusion_lat": 0.0, "is_reserved": 0, "rental_uris": {"ios": "https://dc.lft.to/lastmile_qr_scan", "android": "https://dc.lft.to/lastmile_qr_scan"}, "fusion_lon": 0.0, "type": "electric_scooter", "bike_id": "0e3a640697078753a9a5ee6fb6c29818", "name": "0e3a640697078753a9a5ee6fb6c29818"}, {"lon": -77.02700516666667, "is_disabled": 0, "lat": 38.906838666666665, "fusion_lat": 0.0, "is_reserved": 0, "rental_uris": {"ios": "https://dc.lft.to/lastmile_qr_scan", "android": "https://dc.lft.to/lastmile_qr_scan"}, "fusion_lon": 0.0, "type": "electric_scooter", "bike_id": "5abb66ec76297317e75df16080f4d192", "name": "5abb66ec76297317e75df16080f4d192"}, {"lon": -77.0327715, "is_disabled": 0, "lat": 38.902482666666664, "fusion_lat": 0.0, "is_reserved": 0, "rental_uris": {"ios": "https://dc.lft.to/lastmile_qr_scan", "android": "https://dc.lft.to/lastmile_qr_scan"}, "fusion_lon": 0.0, "type": "electric_scooter", "bike_id": "499e09a207f4b1a31336f931aac6f6f4", "name": "499e09a207f4b1a31336f931aac6f6f4"}, {"lon": -76.98005866666666, "is_disabled": 0, "lat": 38.904444, "fusion_lat": 0.0, "is_reserved": 0, "rental_uris": {"ios": "https://dc.lft.to/lastmile_qr_scan", "android": "https://dc.lft.to/lastmile_qr_scan"}, "fusion_lon": 0.0, "type": "electric_scooter", "bike_id": "15a058183ca387935f61cf96fb41eb86", "name": "15a058183ca387935f61cf96fb41eb86"}, {"lon": -77.04781233333334, "is_disabled": 0, "lat": 38.9176325, "fusion_lat": 0.0, "is_reserved": 0, "rental_uris": {"ios": "https://dc.lft.to/lastmile_qr_scan", "android": "https://dc.lft.to/lastmile_qr_scan"}, "fusion_lon": 0.0, "type": "electric_scooter", "bike_id": "53860f92808ed8ffaec2f628f3090e3b", "name": "53860f92808ed8ffaec2f628f3090e3b"}, {"lon": -76.9337595, "is_disabled": 0, "lat": 38.89913516666667, "fusion_lat": 0.0, "is_reserved": 0, "rental_uris": {"ios": "https://dc.lft.to/lastmile_qr_scan", "android": "https://dc.lft.to/lastmile_qr_scan"}, "fusion_lon": 0.0, "type": "electric_scooter", "bike_id": "23428dc55d43a0207a5d2a2f5a71938a", "name": "23428dc55d43a0207a5d2a2f5a71938a"}, {"lon": -77.01193716666667, "is_disabled": 0, "lat": 38.900267, "fusion_lat": 0.0, "is_reserved": 0, "rental_uris": {"ios": "https://dc.lft.to/lastmile_qr_scan", "android": "https://dc.lft.to/lastmile_qr_scan"}, "fusion_lon": 0.0, "type": "electric_scooter", "bike_id": "17a1701a765716b6675951bd2446a413", "name": "17a1701a765716b6675951bd2446a413"}, {"lon": -76.98083933333334, "is_disabled": 0, "lat": 38.922438166666666, "fusion_lat": 0.0, "is_reserved": 0, "rental_uris": {"ios": "https://dc.lft.to/lastmile_qr_scan", "android": "https://dc.lft.to/lastmile_qr_scan"}, "fusion_lon": 0.0, "type": "electric_scooter", "bike_id": "c954252322603699ae6690b48bc91319", "name": "c954252322603699ae6690b48bc91319"}, {"lon": -77.04851783333334, "is_disabled": 0, "lat": 38.90427483333333, "fusion_lat": 0.0, "is_reserved": 0, "rental_uris": {"ios": "https://dc.lft.to/lastmile_qr_scan", "android": "https://dc.lft.to/lastmile_qr_scan"}, "fusion_lon": 0.0, "type": "electric_scooter", "bike_id": "a3f1c8576d62cd0d98eeff6adaffa629", "name": "a3f1c8576d62cd0d98eeff6adaffa629"}, {"lon": -77.02394533333333, "is_disabled": 0, "lat": 38.920701, "fusion_lat": 0.0, "is_reserved": 0, "rental_uris": {"ios": "https://dc.lft.to/lastmile_qr_scan", "android": "https://dc.lft.to/lastmile_qr_scan"}, "fusion_lon": 0.0, "type": "electric_scooter", "bike_id": "141e53319e26f9aec9d6f55f7bfdac98", "name": "141e53319e26f9aec9d6f55f7bfdac98"}, {"lon": -77.02179, "is_disabled": 0, "lat": 38.92865166666667, "fusion_lat": 0.0, "is_reserved": 0, "rental_uris": {"ios": "https://dc.lft.to/lastmile_qr_scan", "android": "https://dc.lft.to/lastmile_qr_scan"}, "fusion_lon": 0.0, "type": "electric_scooter", "bike_id": "a2e3e3a5b04dc7ff3217d3126c8ebed1", "name": "a2e3e3a5b04dc7ff3217d3126c8ebed1"}, {"lon": -77.03209783333334, "is_disabled": 0, "lat": 38.916057333333335, "fusion_lat": 0.0, "is_reserved": 0, "rental_uris": {"ios": "https://dc.lft.to/lastmile_qr_scan", "android": "https://dc.lft.to/lastmile_qr_scan"}, "fusion_lon": 0.0, "type": "electric_scooter", "bike_id": "bb4e7869b4298528613b66f65a82c441", "name": "bb4e7869b4298528613b66f65a82c441"}, {"lon": -77.037967, "is_disabled": 0, "lat": 38.92496883333333, "fusion_lat": 0.0, "is_reserved": 0, "rental_uris": {"ios": "https://dc.lft.to/lastmile_qr_scan", "android": "https://dc.lft.to/lastmile_qr_scan"}, "fusion_lon": 0.0, "type": "electric_scooter", "bike_id": "37fa7200244eb0f5c9ccb6765a21efd5", "name": "37fa7200244eb0f5c9ccb6765a21efd5"}, {"lon": -77.03828216666666, "is_disabled": 0, "lat": 38.912637333333336, "fusion_lat": 0.0, "is_reserved": 0, "rental_uris": {"ios": "https://dc.lft.to/lastmile_qr_scan", "android": "https://dc.lft.to/lastmile_qr_scan"}, "fusion_lon": 0.0, "type": "electric_scooter", "bike_id": "0b15eeee2920ed46b2802e23cd4a5fee", "name": "0b15eeee2920ed46b2802e23cd4a5fee"}, {"lon": -76.99709783333333, "is_disabled": 0, "lat": 38.90820033333333, "fusion_lat": 0.0, "is_reserved": 0, "rental_uris": {"ios": "https://dc.lft.to/lastmile_qr_scan", "android": "https://dc.lft.to/lastmile_qr_scan"}, "fusion_lon": 0.0, "type": "electric_scooter", "bike_id": "e1125af7a72c84868c035178dc8bfbcf", "name": "e1125af7a72c84868c035178dc8bfbcf"}, {"lon": -77.0194845, "is_disabled": 0, "lat": 38.904625833333334, "fusion_lat": 0.0, "is_reserved": 0, "rental_uris": {"ios": "https://dc.lft.to/lastmile_qr_scan", "android": "https://dc.lft.to/lastmile_qr_scan"}, "fusion_lon": 0.0, "type": "electric_scooter", "bike_id": "4a78f84afc1368e36ff98a344c427bf0", "name": "4a78f84afc1368e36ff98a344c427bf0"}, {"lon": -77.04908383333333, "is_disabled": 0, "lat": 38.9031465, "fusion_lat": 0.0, "is_reserved": 0, "rental_uris": {"ios": "https://dc.lft.to/lastmile_qr_scan", "android": "https://dc.lft.to/lastmile_qr_scan"}, "fusion_lon": 0.0, "type": "electric_scooter", "bike_id": "1d59c213b13250894219340ea316a9da", "name": "1d59c213b13250894219340ea316a9da"}, {"lon": -77.02376766666667, "is_disabled": 0, "lat": 38.9020795, "fusion_lat": 0.0, "is_reserved": 0, "rental_uris": {"ios": "https://dc.lft.to/lastmile_qr_scan", "android": "https://dc.lft.to/lastmile_qr_scan"}, "fusion_lon": 0.0, "type": "electric_scooter", "bike_id": "088b5bef1d90b9459f3289d6defd72dd", "name": "088b5bef1d90b9459f3289d6defd72dd"}, {"lon": -76.99832549999999, "is_disabled": 0, "lat": 38.90001383333333, "fusion_lat": 0.0, "is_reserved": 0, "rental_uris": {"ios": "https://dc.lft.to/lastmile_qr_scan", "android": "https://dc.lft.to/lastmile_qr_scan"}, "fusion_lon": 0.0, "type": "electric_bike", "bike_id": "df8069c4f1c4af41863eb8f5a91b5001", "name": "df8069c4f1c4af41863eb8f5a91b5001"}, {"lon": -76.9212975, "is_disabled": 0, "lat": 39.0136885, "fusion_lat": 0.0, "is_reserved": 0, "rental_uris": {"ios": "https://dc.lft.to/lastmile_qr_scan", "android": "https://dc.lft.to/lastmile_qr_scan"}, "fusion_lon": 0.0, "type": "electric_bike", "bike_id": "1bde28f71c90a98bfe80e6ee57061bfa", "name": "1bde28f71c90a98bfe80e6ee57061bfa"}, {"lon": -76.990297, "is_disabled": 0, "lat": 38.928691, "fusion_lat": 0.0, "is_reserved": 0, "rental_uris": {"ios": "https://dc.lft.to/lastmile_qr_scan", "android": "https://dc.lft.to/lastmile_qr_scan"}, "fusion_lon": 0.0, "type": "electric_scooter", "bike_id": "7f2c005df0fac78d70d5570dadaff137", "name": "7f2c005df0fac78d70d5570dadaff137"}, {"lon": -77.01207366666667, "is_disabled": 0, "lat": 38.91715116666666, "fusion_lat": 0.0, "is_reserved": 0, "rental_uris": {"ios": "https://dc.lft.to/lastmile_qr_scan", "android": "https://dc.lft.to/lastmile_qr_scan"}, "fusion_lon": 0.0, "type": "electric_scooter", "bike_id": "22fcd64d9d760c7f942954d65f757004", "name": "22fcd64d9d760c7f942954d65f757004"}, {"lon": -77.019824, "is_disabled": 0, "lat": 38.914242333333334, "fusion_lat": 0.0, "is_reserved": 0, "rental_uris": {"ios": "https://dc.lft.to/lastmile_qr_scan", "android": "https://dc.lft.to/lastmile_qr_scan"}, "fusion_lon": 0.0, "type": "electric_scooter", "bike_id": "21d6cd19aada4de5d4b0d2c72acf7a71", "name": "21d6cd19aada4de5d4b0d2c72acf7a71"}, {"lon": -77.02172133333333, "is_disabled": 0, "lat": 38.91108933333334, "fusion_lat": 0.0, "is_reserved": 0, "rental_uris": {"ios": "https://dc.lft.to/lastmile_qr_scan", "android": "https://dc.lft.to/lastmile_qr_scan"}, "fusion_lon": 0.0, "type": "electric_scooter", "bike_id": "b6ae57b41f360347ead43713b85350ed", "name": "b6ae57b41f360347ead43713b85350ed"}, {"lon": -77.03667916666667, "is_disabled": 0, "lat": 38.922617, "fusion_lat": 0.0, "is_reserved": 0, "rental_uris": {"ios": "https://dc.lft.to/lastmile_qr_scan", "android": "https://dc.lft.to/lastmile_qr_scan"}, "fusion_lon": 0.0, "type": "electric_scooter", "bike_id": "3f3ee7712d2203c80bba355b35f0ba12", "name": "3f3ee7712d2203c80bba355b35f0ba12"}, {"lon": -77.02114933333333, "is_disabled": 0, "lat": 38.9141185, "fusion_lat": 0.0, "is_reserved": 0, "rental_uris": {"ios": "https://dc.lft.to/lastmile_qr_scan", "android": "https://dc.lft.to/lastmile_qr_scan"}, "fusion_lon": 0.0, "type": "electric_scooter", "bike_id": "814e9bf931b67848b20e03c9678085dd", "name": "814e9bf931b67848b20e03c9678085dd"}, {"lon": -77.01774966666666, "is_disabled": 0, "lat": 38.887107, "fusion_lat": 0.0, "is_reserved": 0, "rental_uris": {"ios": "https://dc.lft.to/lastmile_qr_scan", "android": "https://dc.lft.to/lastmile_qr_scan"}, "fusion_lon": 0.0, "type": "electric_scooter", "bike_id": "0112eab04a97e05909d869e6fb9a3fbb", "name": "0112eab04a97e05909d869e6fb9a3fbb"}, {"lon": -77.00583866666666, "is_disabled": 0, "lat": 38.885383, "fusion_lat": 0.0, "is_reserved": 0, "rental_uris": {"ios": "https://dc.lft.to/lastmile_qr_scan", "android": "https://dc.lft.to/lastmile_qr_scan"}, "fusion_lon": 0.0, "type": "electric_scooter", "bike_id": "cb21813b700a8f5cce5a237bbae31d42", "name": "cb21813b700a8f5cce5a237bbae31d42"}, {"lon": -77.029593, "is_disabled": 0, "lat": 38.9177245, "fusion_lat": 0.0, "is_reserved": 0, "rental_uris": {"ios": "https://dc.lft.to/lastmile_qr_scan", "android": "https://dc.lft.to/lastmile_qr_scan"}, "fusion_lon": 0.0, "type": "electric_scooter", "bike_id": "fca801b238a3676a489e1728d345cfd8", "name": "fca801b238a3676a489e1728d345cfd8"}, {"lon": -77.01978666666666, "is_disabled": 0, "lat": 38.8802785, "fusion_lat": 0.0, "is_reserved": 0, "rental_uris": {"ios": "https://dc.lft.to/lastmile_qr_scan", "android": "https://dc.lft.to/lastmile_qr_scan"}, "fusion_lon": 0.0, "type": "electric_scooter", "bike_id": "f9580ff81d1a2644aca3080df1e8ef55", "name": "f9580ff81d1a2644aca3080df1e8ef55"}, {"lon": -77.036212, "is_disabled": 0, "lat": 38.937429333333334, "fusion_lat": 0.0, "is_reserved": 0, "rental_uris": {"ios": "https://dc.lft.to/lastmile_qr_scan", "android": "https://dc.lft.to/lastmile_qr_scan"}, "fusion_lon": 0.0, "type": "electric_scooter", "bike_id": "257e7edcf1cce1313a748d692ee4b2fb", "name": "257e7edcf1cce1313a748d692ee4b2fb"}, {"lon": -77.09455383333334, "is_disabled": 0, "lat": 38.8075435, "fusion_lat": 0.0, "is_reserved": 0, "rental_uris": {"ios": "https://dc.lft.to/lastmile_qr_scan", "android": "https://dc.lft.to/lastmile_qr_scan"}, "fusion_lon": 0.0, "type": "electric_bike", "bike_id": "d7f9feca3d76b99ed0d7c66836c93028", "name": "d7f9feca3d76b99ed0d7c66836c93028"}, {"lon": -77.04188416666666, "is_disabled": 0, "lat": 38.920468166666666, "fusion_lat": 0.0, "is_reserved": 0, "rental_uris": {"ios": "https://dc.lft.to/lastmile_qr_scan", "android": "https://dc.lft.to/lastmile_qr_scan"}, "fusion_lon": 0.0, "type": "electric_scooter", "bike_id": "3df5c6d2b032e27a22eba373baf92485", "name": "3df5c6d2b032e27a22eba373baf92485"}, {"lon": -76.98593616666666, "is_disabled": 0, "lat": 38.858726833333336, "fusion_lat": 0.0, "is_reserved": 0, "rental_uris": {"ios": "https://dc.lft.to/lastmile_qr_scan", "android": "https://dc.lft.to/lastmile_qr_scan"}, "fusion_lon": 0.0, "type": "electric_scooter", "bike_id": "5a44455bba68adb19a91afc1e322e5ed", "name": "5a44455bba68adb19a91afc1e322e5ed"}, {"lon": -76.985726, "is_disabled": 0, "lat": 38.866833166666666, "fusion_lat": 0.0, "is_reserved": 0, "rental_uris": {"ios": "https://dc.lft.to/lastmile_qr_scan", "android": "https://dc.lft.to/lastmile_qr_scan"}, "fusion_lon": 0.0, "type": "electric_scooter", "bike_id": "607bde0339a7e45876842fb50993b579", "name": "607bde0339a7e45876842fb50993b579"}, {"lon": -77.03644483333333, "is_disabled": 0, "lat": 38.931715833333335, "fusion_lat": 0.0, "is_reserved": 0, "rental_uris": {"ios": "https://dc.lft.to/lastmile_qr_scan", "android": "https://dc.lft.to/lastmile_qr_scan"}, "fusion_lon": 0.0, "type": "electric_scooter", "bike_id": "3bae10ccafd7bbb2a47533877582d02b", "name": "3bae10ccafd7bbb2a47533877582d02b"}, {"lon": -77.0274965, "is_disabled": 0, "lat": 38.91704133333333, "fusion_lat": 0.0, "is_reserved": 0, "rental_uris": {"ios": "https://dc.lft.to/lastmile_qr_scan", "android": "https://dc.lft.to/lastmile_qr_scan"}, "fusion_lon": 0.0, "type": "electric_scooter", "bike_id": "cf0a60aaac2b686737d2b11e71f15cb6", "name": "cf0a60aaac2b686737d2b11e71f15cb6"}, {"lon": -77.02632433333333, "is_disabled": 0, "lat": 38.929898333333334, "fusion_lat": 0.0, "is_reserved": 0, "rental_uris": {"ios": "https://dc.lft.to/lastmile_qr_scan", "android": "https://dc.lft.to/lastmile_qr_scan"}, "fusion_lon": 0.0, "type": "electric_scooter", "bike_id": "e89ec9781e6e5d04ef48467f6209669d", "name": "e89ec9781e6e5d04ef48467f6209669d"}, {"lon": -77.0238405, "is_disabled": 0, "lat": 38.916735333333335, "fusion_lat": 0.0, "is_reserved": 0, "rental_uris": {"ios": "https://dc.lft.to/lastmile_qr_scan", "android": "https://dc.lft.to/lastmile_qr_scan"}, "fusion_lon": 0.0, "type": "electric_scooter", "bike_id": "c5dfcaad23171997a3346243369228f8", "name": "c5dfcaad23171997a3346243369228f8"}, {"lon": -77.0007335, "is_disabled": 0, "lat": 38.900290166666665, "fusion_lat": 0.0, "is_reserved": 0, "rental_uris": {"ios": "https://dc.lft.to/lastmile_qr_scan", "android": "https://dc.lft.to/lastmile_qr_scan"}, "fusion_lon": 0.0, "type": "electric_scooter", "bike_id": "d6847957da4e0a10bc354df89b2fa370", "name": "d6847957da4e0a10bc354df89b2fa370"}, {"lon": -77.0386765, "is_disabled": 0, "lat": 38.934500166666666, "fusion_lat": 0.0, "is_reserved": 0, "rental_uris": {"ios": "https://dc.lft.to/lastmile_qr_scan", "android": "https://dc.lft.to/lastmile_qr_scan"}, "fusion_lon": 0.0, "type": "electric_scooter", "bike_id": "408e5a853e37bd68d8ae76df25ec6744", "name": "408e5a853e37bd68d8ae76df25ec6744"}, {"lon": -77.0411995, "is_disabled": 0, "lat": 38.9335465, "fusion_lat": 0.0, "is_reserved": 0, "rental_uris": {"ios": "https://dc.lft.to/lastmile_qr_scan", "android": "https://dc.lft.to/lastmile_qr_scan"}, "fusion_lon": 0.0, "type": "electric_scooter", "bike_id": "365a3b5c1e0a49c25f439ea7d4c47374", "name": "365a3b5c1e0a49c25f439ea7d4c47374"}, {"lon": -77.03854833333334, "is_disabled": 0, "lat": 38.913435666666665, "fusion_lat": 0.0, "is_reserved": 0, "rental_uris": {"ios": "https://dc.lft.to/lastmile_qr_scan", "android": "https://dc.lft.to/lastmile_qr_scan"}, "fusion_lon": 0.0, "type": "electric_scooter", "bike_id": "65089c92f20ac597dd1756e2b460c922", "name": "65089c92f20ac597dd1756e2b460c922"}, {"lon": -77.02592166666666, "is_disabled": 0, "lat": 38.8984055, "fusion_lat": 0.0, "is_reserved": 0, "rental_uris": {"ios": "https://dc.lft.to/lastmile_qr_scan", "android": "https://dc.lft.to/lastmile_qr_scan"}, "fusion_lon": 0.0, "type": "electric_scooter", "bike_id": "1656a3ea74ddb09d57668ac2f6feefb0", "name": "1656a3ea74ddb09d57668ac2f6feefb0"}, {"lon": -77.01839083333333, "is_disabled": 0, "lat": 38.928771833333336, "fusion_lat": 0.0, "is_reserved": 0, "rental_uris": {"ios": "https://dc.lft.to/lastmile_qr_scan", "android": "https://dc.lft.to/lastmile_qr_scan"}, "fusion_lon": 0.0, "type": "electric_scooter", "bike_id": "c5b1e2335c8e6b2cd0c7105d4dcc4947", "name": "c5b1e2335c8e6b2cd0c7105d4dcc4947"}, {"lon": -77.03862833333334, "is_disabled": 0, "lat": 38.9080625, "fusion_lat": 0.0, "is_reserved": 0, "rental_uris": {"ios": "https://dc.lft.to/lastmile_qr_scan", "android": "https://dc.lft.to/lastmile_qr_scan"}, "fusion_lon": 0.0, "type": "electric_scooter", "bike_id": "791664d11dd2f60c151524b9b0ff252a", "name": "791664d11dd2f60c151524b9b0ff252a"}, {"lon": -77.03189383333333, "is_disabled": 0, "lat": 38.90884333333333, "fusion_lat": 0.0, "is_reserved": 0, "rental_uris": {"ios": "https://dc.lft.to/lastmile_qr_scan", "android": "https://dc.lft.to/lastmile_qr_scan"}, "fusion_lon": 0.0, "type": "electric_scooter", "bike_id": "ce572dd42f2dd21feeeabfc4a41280f6", "name": "ce572dd42f2dd21feeeabfc4a41280f6"}, {"lon": -77.00196266666667, "is_disabled": 0, "lat": 38.902361666666664, "fusion_lat": 0.0, "is_reserved": 0, "rental_uris": {"ios": "https://dc.lft.to/lastmile_qr_scan", "android": "https://dc.lft.to/lastmile_qr_scan"}, "fusion_lon": 0.0, "type": "electric_scooter", "bike_id": "56de0e9dce0edddd85923e177ce77237", "name": "56de0e9dce0edddd85923e177ce77237"}, {"lon": -77.0342705, "is_disabled": 0, "lat": 38.908015, "fusion_lat": 0.0, "is_reserved": 0, "rental_uris": {"ios": "https://dc.lft.to/lastmile_qr_scan", "android": "https://dc.lft.to/lastmile_qr_scan"}, "fusion_lon": 0.0, "type": "electric_scooter", "bike_id": "c908ab550174bea9af4b947fb397909e", "name": "c908ab550174bea9af4b947fb397909e"}, {"lon": -77.0418785, "is_disabled": 0, "lat": 38.92045533333334, "fusion_lat": 0.0, "is_reserved": 0, "rental_uris": {"ios": "https://dc.lft.to/lastmile_qr_scan", "android": "https://dc.lft.to/lastmile_qr_scan"}, "fusion_lon": 0.0, "type": "electric_scooter", "bike_id": "5f30d66c096dfea6b3a08d3fd0549e6c", "name": "5f30d66c096dfea6b3a08d3fd0549e6c"}, {"lon": -77.04770583333334, "is_disabled": 0, "lat": 38.91757466666667, "fusion_lat": 0.0, "is_reserved": 0, "rental_uris": {"ios": "https://dc.lft.to/lastmile_qr_scan", "android": "https://dc.lft.to/lastmile_qr_scan"}, "fusion_lon": 0.0, "type": "electric_scooter", "bike_id": "be301e9d6a0585f0a8ba4f887bc3e640", "name": "be301e9d6a0585f0a8ba4f887bc3e640"}, {"lon": -77.03829416666666, "is_disabled": 0, "lat": 38.90778516666666, "fusion_lat": 0.0, "is_reserved": 0, "rental_uris": {"ios": "https://dc.lft.to/lastmile_qr_scan", "android": "https://dc.lft.to/lastmile_qr_scan"}, "fusion_lon": 0.0, "type": "electric_scooter", "bike_id": "5824e480b7c641224cc68d545a0bd958", "name": "5824e480b7c641224cc68d545a0bd958"}, {"lon": -76.99867733333333, "is_disabled": 0, "lat": 38.84435216666667, "fusion_lat": 0.0, "is_reserved": 0, "rental_uris": {"ios": "https://dc.lft.to/lastmile_qr_scan", "android": "https://dc.lft.to/lastmile_qr_scan"}, "fusion_lon": 0.0, "type": "electric_scooter", "bike_id": "8735cb53c19aa21546c107d6ebde5b85", "name": "8735cb53c19aa21546c107d6ebde5b85"}, {"lon": -77.03252666666667, "is_disabled": 0, "lat": 38.92158666666667, "fusion_lat": 0.0, "is_reserved": 0, "rental_uris": {"ios": "https://dc.lft.to/lastmile_qr_scan", "android": "https://dc.lft.to/lastmile_qr_scan"}, "fusion_lon": 0.0, "type": "electric_scooter", "bike_id": "c1cfeab714862dc20afe654e9f0335bd", "name": "c1cfeab714862dc20afe654e9f0335bd"}, {"lon": -77.04431266666667, "is_disabled": 0, "lat": 38.909511, "fusion_lat": 0.0, "is_reserved": 0, "rental_uris": {"ios": "https://dc.lft.to/lastmile_qr_scan", "android": "https://dc.lft.to/lastmile_qr_scan"}, "fusion_lon": 0.0, "type": "electric_scooter", "bike_id": "7dcc2fe48dce0061583fb601ff449aea", "name": "7dcc2fe48dce0061583fb601ff449aea"}, {"lon": -77.002014, "is_disabled": 0, "lat": 38.965014833333335, "fusion_lat": 0.0, "is_reserved": 0, "rental_uris": {"ios": "https://dc.lft.to/lastmile_qr_scan", "android": "https://dc.lft.to/lastmile_qr_scan"}, "fusion_lon": 0.0, "type": "electric_scooter", "bike_id": "aa804ee736c049aeda85aea6cc20e579", "name": "aa804ee736c049aeda85aea6cc20e579"}, {"lon": -77.02019766666666, "is_disabled": 0, "lat": 38.8767865, "fusion_lat": 0.0, "is_reserved": 0, "rental_uris": {"ios": "https://dc.lft.to/lastmile_qr_scan", "android": "https://dc.lft.to/lastmile_qr_scan"}, "fusion_lon": 0.0, "type": "electric_scooter", "bike_id": "0f3ef8f5d88b753eceec886c96d904fe", "name": "0f3ef8f5d88b753eceec886c96d904fe"}, {"lon": -77.02980333333333, "is_disabled": 0, "lat": 38.9869755, "fusion_lat": 0.0, "is_reserved": 0, "rental_uris": {"ios": "https://dc.lft.to/lastmile_qr_scan", "android": "https://dc.lft.to/lastmile_qr_scan"}, "fusion_lon": 0.0, "type": "electric_scooter", "bike_id": "ef78a64cccfa82ddb39d76e7ad8b807f", "name": "ef78a64cccfa82ddb39d76e7ad8b807f"}, {"lon": -77.03184933333333, "is_disabled": 0, "lat": 38.913271333333334, "fusion_lat": 0.0, "is_reserved": 0, "rental_uris": {"ios": "https://dc.lft.to/lastmile_qr_scan", "android": "https://dc.lft.to/lastmile_qr_scan"}, "fusion_lon": 0.0, "type": "electric_scooter", "bike_id": "66853bdc6fb503e069b1b4676663eb92", "name": "66853bdc6fb503e069b1b4676663eb92"}, {"lon": -77.051528, "is_disabled": 0, "lat": 38.9237685, "fusion_lat": 0.0, "is_reserved": 0, "rental_uris": {"ios": "https://dc.lft.to/lastmile_qr_scan", "android": "https://dc.lft.to/lastmile_qr_scan"}, "fusion_lon": 0.0, "type": "electric_scooter", "bike_id": "d0e0c183be8d1d83d563a1052aad6c85", "name": "d0e0c183be8d1d83d563a1052aad6c85"}, {"lon": -77.027352, "is_disabled": 0, "lat": 38.932103, "fusion_lat": 0.0, "is_reserved": 0, "rental_uris": {"ios": "https://dc.lft.to/lastmile_qr_scan", "android": "https://dc.lft.to/lastmile_qr_scan"}, "fusion_lon": 0.0, "type": "electric_scooter", "bike_id": "c4bb006ca7229b6ffd5b6bdbda0a6836", "name": "c4bb006ca7229b6ffd5b6bdbda0a6836"}, {"lon": -76.98687816666667, "is_disabled": 0, "lat": 38.8775645, "fusion_lat": 0.0, "is_reserved": 0, "rental_uris": {"ios": "https://dc.lft.to/lastmile_qr_scan", "android": "https://dc.lft.to/lastmile_qr_scan"}, "fusion_lon": 0.0, "type": "electric_scooter", "bike_id": "cec0fd526195e670cd20bca5c6a3a343", "name": "cec0fd526195e670cd20bca5c6a3a343"}, {"lon": -77.0120475, "is_disabled": 0, "lat": 38.9061165, "fusion_lat": 0.0, "is_reserved": 0, "rental_uris": {"ios": "https://dc.lft.to/lastmile_qr_scan", "android": "https://dc.lft.to/lastmile_qr_scan"}, "fusion_lon": 0.0, "type": "electric_scooter", "bike_id": "6f57be420fb2b7115784f158f70e7145", "name": "6f57be420fb2b7115784f158f70e7145"}, {"lon": -77.03404566666667, "is_disabled": 0, "lat": 38.90962833333333, "fusion_lat": 0.0, "is_reserved": 0, "rental_uris": {"ios": "https://dc.lft.to/lastmile_qr_scan", "android": "https://dc.lft.to/lastmile_qr_scan"}, "fusion_lon": 0.0, "type": "electric_scooter", "bike_id": "6dd44c171194dfb51a215ca4e06edc38", "name": "6dd44c171194dfb51a215ca4e06edc38"}, {"lon": -77.0335835, "is_disabled": 0, "lat": 38.921570333333335, "fusion_lat": 0.0, "is_reserved": 0, "rental_uris": {"ios": "https://dc.lft.to/lastmile_qr_scan", "android": "https://dc.lft.to/lastmile_qr_scan"}, "fusion_lon": 0.0, "type": "electric_scooter", "bike_id": "198190261ae9577042196e0b2ccc1b02", "name": "198190261ae9577042196e0b2ccc1b02"}, {"lon": -76.95663633333334, "is_disabled": 0, "lat": 38.88474016666667, "fusion_lat": 0.0, "is_reserved": 0, "rental_uris": {"ios": "https://dc.lft.to/lastmile_qr_scan", "android": "https://dc.lft.to/lastmile_qr_scan"}, "fusion_lon": 0.0, "type": "electric_bike", "bike_id": "e47fe9c55bd79cc18d06ffa0f0794f21", "name": "e47fe9c55bd79cc18d06ffa0f0794f21"}, {"lon": -77.0277175, "is_disabled": 0, "lat": 38.928662, "fusion_lat": 0.0, "is_reserved": 0, "rental_uris": {"ios": "https://dc.lft.to/lastmile_qr_scan", "android": "https://dc.lft.to/lastmile_qr_scan"}, "fusion_lon": 0.0, "type": "electric_scooter", "bike_id": "36306ef88837e6f5d7a60930aa020e95", "name": "36306ef88837e6f5d7a60930aa020e95"}, {"lon": -77.0240845, "is_disabled": 0, "lat": 38.914189, "fusion_lat": 0.0, "is_reserved": 0, "rental_uris": {"ios": "https://dc.lft.to/lastmile_qr_scan", "android": "https://dc.lft.to/lastmile_qr_scan"}, "fusion_lon": 0.0, "type": "electric_scooter", "bike_id": "374d5f86864460dd881cd8a6b474bdc2", "name": "374d5f86864460dd881cd8a6b474bdc2"}, {"lon": -77.02296683333333, "is_disabled": 0, "lat": 38.927393333333335, "fusion_lat": 0.0, "is_reserved": 0, "rental_uris": {"ios": "https://dc.lft.to/lastmile_qr_scan", "android": "https://dc.lft.to/lastmile_qr_scan"}, "fusion_lon": 0.0, "type": "electric_scooter", "bike_id": "78181f978d88c37ab6f53a0f49b624ee", "name": "78181f978d88c37ab6f53a0f49b624ee"}, {"lon": -76.9302695, "is_disabled": 0, "lat": 38.89568, "fusion_lat": 0.0, "is_reserved": 0, "rental_uris": {"ios": "https://dc.lft.to/lastmile_qr_scan", "android": "https://dc.lft.to/lastmile_qr_scan"}, "fusion_lon": 0.0, "type": "electric_scooter", "bike_id": "8372b5ccb259969ac0c0ad2d0e772509", "name": "8372b5ccb259969ac0c0ad2d0e772509"}, {"lon": -76.94629433333333, "is_disabled": 0, "lat": 38.832460833333336, "fusion_lat": 0.0, "is_reserved": 0, "rental_uris": {"ios": "https://dc.lft.to/lastmile_qr_scan", "android": "https://dc.lft.to/lastmile_qr_scan"}, "fusion_lon": 0.0, "type": "electric_bike", "bike_id": "ca52d6ca483ebfea908468c539337a30", "name": "ca52d6ca483ebfea908468c539337a30"}, {"lon": -76.99620733333333, "is_disabled": 0, "lat": 38.88443683333333, "fusion_lat": 0.0, "is_reserved": 0, "rental_uris": {"ios": "https://dc.lft.to/lastmile_qr_scan", "android": "https://dc.lft.to/lastmile_qr_scan"}, "fusion_lon": 0.0, "type": "electric_scooter", "bike_id": "11e3795ed0f63db6935cb3f422ee6c85", "name": "11e3795ed0f63db6935cb3f422ee6c85"}, {"lon": -77.04297733333334, "is_disabled": 0, "lat": 39.034272333333334, "fusion_lat": 0.0, "is_reserved": 0, "rental_uris": {"ios": "https://dc.lft.to/lastmile_qr_scan", "android": "https://dc.lft.to/lastmile_qr_scan"}, "fusion_lon": 0.0, "type": "electric_bike", "bike_id": "e5d68bef3e25b04bc5079d6ff0caa32b", "name": "e5d68bef3e25b04bc5079d6ff0caa32b"}, {"lon": -77.01138833333333, "is_disabled": 0, "lat": 38.906480333333334, "fusion_lat": 0.0, "is_reserved": 0, "rental_uris": {"ios": "https://dc.lft.to/lastmile_qr_scan", "android": "https://dc.lft.to/lastmile_qr_scan"}, "fusion_lon": 0.0, "type": "electric_scooter", "bike_id": "76cca3ec30766e1c46731afafe9186ba", "name": "76cca3ec30766e1c46731afafe9186ba"}, {"lon": -77.04518, "is_disabled": 0, "lat": 38.923140833333335, "fusion_lat": 0.0, "is_reserved": 0, "rental_uris": {"ios": "https://dc.lft.to/lastmile_qr_scan", "android": "https://dc.lft.to/lastmile_qr_scan"}, "fusion_lon": 0.0, "type": "electric_scooter", "bike_id": "96e2f168f78e1f7ebd495ddb00024a5e", "name": "96e2f168f78e1f7ebd495ddb00024a5e"}, {"lon": -77.0435275, "is_disabled": 0, "lat": 38.91474633333333, "fusion_lat": 0.0, "is_reserved": 0, "rental_uris": {"ios": "https://dc.lft.to/lastmile_qr_scan", "android": "https://dc.lft.to/lastmile_qr_scan"}, "fusion_lon": 0.0, "type": "electric_scooter", "bike_id": "6f3b433a1711a828ae00cc8331edcbf9", "name": "6f3b433a1711a828ae00cc8331edcbf9"}, {"lon": -77.0270595, "is_disabled": 0, "lat": 38.9008725, "fusion_lat": 0.0, "is_reserved": 0, "rental_uris": {"ios": "https://dc.lft.to/lastmile_qr_scan", "android": "https://dc.lft.to/lastmile_qr_scan"}, "fusion_lon": 0.0, "type": "electric_scooter", "bike_id": "1d5b0185f07fc99d5b7451c90d6ef3bc", "name": "1d5b0185f07fc99d5b7451c90d6ef3bc"}, {"lon": -77.0415405, "is_disabled": 0, "lat": 38.9073395, "fusion_lat": 0.0, "is_reserved": 0, "rental_uris": {"ios": "https://dc.lft.to/lastmile_qr_scan", "android": "https://dc.lft.to/lastmile_qr_scan"}, "fusion_lon": 0.0, "type": "electric_scooter", "bike_id": "e1e22e01f6eeddf38fb5ebb4c9efe93d", "name": "e1e22e01f6eeddf38fb5ebb4c9efe93d"}, {"lon": -76.97779983333334, "is_disabled": 0, "lat": 38.905682666666664, "fusion_lat": 0.0, "is_reserved": 0, "rental_uris": {"ios": "https://dc.lft.to/lastmile_qr_scan", "android": "https://dc.lft.to/lastmile_qr_scan"}, "fusion_lon": 0.0, "type": "electric_scooter", "bike_id": "96e473a946f4052272df60f357d4e650", "name": "96e473a946f4052272df60f357d4e650"}, {"lon": -77.02493783333334, "is_disabled": 0, "lat": 38.919115166666664, "fusion_lat": 0.0, "is_reserved": 0, "rental_uris": {"ios": "https://dc.lft.to/lastmile_qr_scan", "android": "https://dc.lft.to/lastmile_qr_scan"}, "fusion_lon": 0.0, "type": "electric_scooter", "bike_id": "e75b0f4e45c884cddc4ba9e68e7e11c1", "name": "e75b0f4e45c884cddc4ba9e68e7e11c1"}, {"lon": -77.03777666666667, "is_disabled": 0, "lat": 38.9261975, "fusion_lat": 0.0, "is_reserved": 0, "rental_uris": {"ios": "https://dc.lft.to/lastmile_qr_scan", "android": "https://dc.lft.to/lastmile_qr_scan"}, "fusion_lon": 0.0, "type": "electric_scooter", "bike_id": "d75d22297f99d7666cc94bbe784a78fe", "name": "d75d22297f99d7666cc94bbe784a78fe"}, {"lon": -77.03319766666667, "is_disabled": 0, "lat": 38.898364666666666, "fusion_lat": 0.0, "is_reserved": 0, "rental_uris": {"ios": "https://dc.lft.to/lastmile_qr_scan", "android": "https://dc.lft.to/lastmile_qr_scan"}, "fusion_lon": 0.0, "type": "electric_scooter", "bike_id": "0c33801268c2f11127d477070c1381ba", "name": "0c33801268c2f11127d477070c1381ba"}, {"lon": -77.00725966666667, "is_disabled": 0, "lat": 38.8849645, "fusion_lat": 0.0, "is_reserved": 0, "rental_uris": {"ios": "https://dc.lft.to/lastmile_qr_scan", "android": "https://dc.lft.to/lastmile_qr_scan"}, "fusion_lon": 0.0, "type": "electric_scooter", "bike_id": "ba43d1a3be1d2f482ff8b30576ea3724", "name": "ba43d1a3be1d2f482ff8b30576ea3724"}, {"lon": -77.04501733333333, "is_disabled": 0, "lat": 38.89240266666667, "fusion_lat": 0.0, "is_reserved": 0, "rental_uris": {"ios": "https://dc.lft.to/lastmile_qr_scan", "android": "https://dc.lft.to/lastmile_qr_scan"}, "fusion_lon": 0.0, "type": "electric_scooter", "bike_id": "65397d8e61fc8b971ff5ca2b63853faa", "name": "65397d8e61fc8b971ff5ca2b63853faa"}, {"lon": -77.017486, "is_disabled": 0, "lat": 38.90325333333333, "fusion_lat": 0.0, "is_reserved": 0, "rental_uris": {"ios": "https://dc.lft.to/lastmile_qr_scan", "android": "https://dc.lft.to/lastmile_qr_scan"}, "fusion_lon": 0.0, "type": "electric_scooter", "bike_id": "7c9e1e4e51c05551b6cc842f207000cf", "name": "7c9e1e4e51c05551b6cc842f207000cf"}, {"lon": -76.981741, "is_disabled": 0, "lat": 38.91673, "fusion_lat": 0.0, "is_reserved": 0, "rental_uris": {"ios": "https://dc.lft.to/lastmile_qr_scan", "android": "https://dc.lft.to/lastmile_qr_scan"}, "fusion_lon": 0.0, "type": "electric_scooter", "bike_id": "0814d68159b622ff4d0f951b1e27c7fa", "name": "0814d68159b622ff4d0f951b1e27c7fa"}, {"lon": -76.97171833333333, "is_disabled": 0, "lat": 38.8781735, "fusion_lat": 0.0, "is_reserved": 0, "rental_uris": {"ios": "https://dc.lft.to/lastmile_qr_scan", "android": "https://dc.lft.to/lastmile_qr_scan"}, "fusion_lon": 0.0, "type": "electric_scooter", "bike_id": "260c03262c0f04ade2895853a355bb5a", "name": "260c03262c0f04ade2895853a355bb5a"}, {"lon": -76.99373983333334, "is_disabled": 0, "lat": 38.99094433333333, "fusion_lat": 0.0, "is_reserved": 0, "rental_uris": {"ios": "https://dc.lft.to/lastmile_qr_scan", "android": "https://dc.lft.to/lastmile_qr_scan"}, "fusion_lon": 0.0, "type": "electric_bike", "bike_id": "447b72f0bb0189fd675e0cd33c50022f", "name": "447b72f0bb0189fd675e0cd33c50022f"}, {"lon": -77.03287366666666, "is_disabled": 0, "lat": 38.928563, "fusion_lat": 0.0, "is_reserved": 0, "rental_uris": {"ios": "https://dc.lft.to/lastmile_qr_scan", "android": "https://dc.lft.to/lastmile_qr_scan"}, "fusion_lon": 0.0, "type": "electric_scooter", "bike_id": "c1a810aff9ba2237a041ec414aa99d1b", "name": "c1a810aff9ba2237a041ec414aa99d1b"}, {"lon": -77.03665466666666, "is_disabled": 0, "lat": 38.9171925, "fusion_lat": 0.0, "is_reserved": 0, "rental_uris": {"ios": "https://dc.lft.to/lastmile_qr_scan", "android": "https://dc.lft.to/lastmile_qr_scan"}, "fusion_lon": 0.0, "type": "electric_scooter", "bike_id": "e121eed4b57bfa84d4c2ba53eab9b387", "name": "e121eed4b57bfa84d4c2ba53eab9b387"}, {"lon": -77.02980666666667, "is_disabled": 0, "lat": 38.907324333333335, "fusion_lat": 0.0, "is_reserved": 0, "rental_uris": {"ios": "https://dc.lft.to/lastmile_qr_scan", "android": "https://dc.lft.to/lastmile_qr_scan"}, "fusion_lon": 0.0, "type": "electric_scooter", "bike_id": "a9c1190f92188e73babae8a1c419739c", "name": "a9c1190f92188e73babae8a1c419739c"}, {"lon": -76.98962583333333, "is_disabled": 0, "lat": 38.858731, "fusion_lat": 0.0, "is_reserved": 0, "rental_uris": {"ios": "https://dc.lft.to/lastmile_qr_scan", "android": "https://dc.lft.to/lastmile_qr_scan"}, "fusion_lon": 0.0, "type": "electric_scooter", "bike_id": "3bc3953b6d6f49eecf1f3950e5b84703", "name": "3bc3953b6d6f49eecf1f3950e5b84703"}, {"lon": -77.0205605, "is_disabled": 0, "lat": 38.92846933333333, "fusion_lat": 0.0, "is_reserved": 0, "rental_uris": {"ios": "https://dc.lft.to/lastmile_qr_scan", "android": "https://dc.lft.to/lastmile_qr_scan"}, "fusion_lon": 0.0, "type": "electric_bike", "bike_id": "8200a207acb042fe07b25e9b159c1967", "name": "8200a207acb042fe07b25e9b159c1967"}, {"lon": -77.03109933333333, "is_disabled": 0, "lat": 38.88318483333333, "fusion_lat": 0.0, "is_reserved": 0, "rental_uris": {"ios": "https://dc.lft.to/lastmile_qr_scan", "android": "https://dc.lft.to/lastmile_qr_scan"}, "fusion_lon": 0.0, "type": "electric_scooter", "bike_id": "57d692c538e0f0013b90149d44e87e9c", "name": "57d692c538e0f0013b90149d44e87e9c"}, {"lon": -76.929079, "is_disabled": 0, "lat": 38.8985375, "fusion_lat": 0.0, "is_reserved": 0, "rental_uris": {"ios": "https://dc.lft.to/lastmile_qr_scan", "android": "https://dc.lft.to/lastmile_qr_scan"}, "fusion_lon": 0.0, "type": "electric_scooter", "bike_id": "3c84c573d5385668254f5885fcd09678", "name": "3c84c573d5385668254f5885fcd09678"}, {"lon": -77.04832866666666, "is_disabled": 0, "lat": 38.89840566666667, "fusion_lat": 0.0, "is_reserved": 0, "rental_uris": {"ios": "https://dc.lft.to/lastmile_qr_scan", "android": "https://dc.lft.to/lastmile_qr_scan"}, "fusion_lon": 0.0, "type": "electric_scooter", "bike_id": "e06511ff41b71b57fa76253ba0d2a196", "name": "e06511ff41b71b57fa76253ba0d2a196"}, {"lon": -77.03664433333333, "is_disabled": 0, "lat": 38.917239333333335, "fusion_lat": 0.0, "is_reserved": 0, "rental_uris": {"ios": "https://dc.lft.to/lastmile_qr_scan", "android": "https://dc.lft.to/lastmile_qr_scan"}, "fusion_lon": 0.0, "type": "electric_scooter", "bike_id": "765341ea4ff3c6aebe9562665538e667", "name": "765341ea4ff3c6aebe9562665538e667"}, {"lon": -77.04305816666667, "is_disabled": 0, "lat": 38.93183616666666, "fusion_lat": 0.0, "is_reserved": 0, "rental_uris": {"ios": "https://dc.lft.to/lastmile_qr_scan", "android": "https://dc.lft.to/lastmile_qr_scan"}, "fusion_lon": 0.0, "type": "electric_scooter", "bike_id": "1567b4f73ead3fab4ecd20a10eb5f08d", "name": "1567b4f73ead3fab4ecd20a10eb5f08d"}, {"lon": -77.032255, "is_disabled": 0, "lat": 38.9086845, "fusion_lat": 0.0, "is_reserved": 0, "rental_uris": {"ios": "https://dc.lft.to/lastmile_qr_scan", "android": "https://dc.lft.to/lastmile_qr_scan"}, "fusion_lon": 0.0, "type": "electric_scooter", "bike_id": "751b0221f60d7793d4954a31d777d637", "name": "751b0221f60d7793d4954a31d777d637"}, {"lon": -77.00224733333333, "is_disabled": 0, "lat": 38.92507116666667, "fusion_lat": 0.0, "is_reserved": 0, "rental_uris": {"ios": "https://dc.lft.to/lastmile_qr_scan", "android": "https://dc.lft.to/lastmile_qr_scan"}, "fusion_lon": 0.0, "type": "electric_scooter", "bike_id": "75c80cd55adde806dd3893d7858c78b1", "name": "75c80cd55adde806dd3893d7858c78b1"}, {"lon": -77.04932, "is_disabled": 0, "lat": 38.918229, "fusion_lat": 0.0, "is_reserved": 0, "rental_uris": {"ios": "https://dc.lft.to/lastmile_qr_scan", "android": "https://dc.lft.to/lastmile_qr_scan"}, "fusion_lon": 0.0, "type": "electric_scooter", "bike_id": "bada90ecef9e5050f94b0b2101df47ee", "name": "bada90ecef9e5050f94b0b2101df47ee"}, {"lon": -77.02974483333334, "is_disabled": 0, "lat": 38.91988716666667, "fusion_lat": 0.0, "is_reserved": 0, "rental_uris": {"ios": "https://dc.lft.to/lastmile_qr_scan", "android": "https://dc.lft.to/lastmile_qr_scan"}, "fusion_lon": 0.0, "type": "electric_scooter", "bike_id": "e87e02a3eee640ba586310582454c8c7", "name": "e87e02a3eee640ba586310582454c8c7"}, {"lon": -77.02797083333333, "is_disabled": 0, "lat": 38.91130166666667, "fusion_lat": 0.0, "is_reserved": 0, "rental_uris": {"ios": "https://dc.lft.to/lastmile_qr_scan", "android": "https://dc.lft.to/lastmile_qr_scan"}, "fusion_lon": 0.0, "type": "electric_scooter", "bike_id": "2e402c518db2c0b379d475364910e366", "name": "2e402c518db2c0b379d475364910e366"}, {"lon": -77.05261566666667, "is_disabled": 0, "lat": 38.92772633333333, "fusion_lat": 0.0, "is_reserved": 0, "rental_uris": {"ios": "https://dc.lft.to/lastmile_qr_scan", "android": "https://dc.lft.to/lastmile_qr_scan"}, "fusion_lon": 0.0, "type": "electric_scooter", "bike_id": "b5940289c37d8c3c97d6bba7f8f8cb83", "name": "b5940289c37d8c3c97d6bba7f8f8cb83"}, {"lon": -77.03870633333334, "is_disabled": 0, "lat": 38.921543, "fusion_lat": 0.0, "is_reserved": 0, "rental_uris": {"ios": "https://dc.lft.to/lastmile_qr_scan", "android": "https://dc.lft.to/lastmile_qr_scan"}, "fusion_lon": 0.0, "type": "electric_scooter", "bike_id": "84288aa0a24e97eb8a2e3fc541967deb", "name": "84288aa0a24e97eb8a2e3fc541967deb"}, {"lon": -77.03866733333334, "is_disabled": 0, "lat": 38.92152566666667, "fusion_lat": 0.0, "is_reserved": 0, "rental_uris": {"ios": "https://dc.lft.to/lastmile_qr_scan", "android": "https://dc.lft.to/lastmile_qr_scan"}, "fusion_lon": 0.0, "type": "electric_scooter", "bike_id": "3b261b5f00e5745d8c5e2ed83dd5efa8", "name": "3b261b5f00e5745d8c5e2ed83dd5efa8"}, {"lon": -77.03272666666666, "is_disabled": 0, "lat": 38.93432516666667, "fusion_lat": 0.0, "is_reserved": 0, "rental_uris": {"ios": "https://dc.lft.to/lastmile_qr_scan", "android": "https://dc.lft.to/lastmile_qr_scan"}, "fusion_lon": 0.0, "type": "electric_scooter", "bike_id": "28c743907c2ee05728175638bf2bf841", "name": "28c743907c2ee05728175638bf2bf841"}, {"lon": -77.016538, "is_disabled": 0, "lat": 38.881243833333336, "fusion_lat": 0.0, "is_reserved": 0, "rental_uris": {"ios": "https://dc.lft.to/lastmile_qr_scan", "android": "https://dc.lft.to/lastmile_qr_scan"}, "fusion_lon": 0.0, "type": "electric_scooter", "bike_id": "66c19d1ca5f7c23297126ecb55ecc88c", "name": "66c19d1ca5f7c23297126ecb55ecc88c"}, {"lon": -77.04335416666666, "is_disabled": 0, "lat": 38.922233, "fusion_lat": 0.0, "is_reserved": 0, "rental_uris": {"ios": "https://dc.lft.to/lastmile_qr_scan", "android": "https://dc.lft.to/lastmile_qr_scan"}, "fusion_lon": 0.0, "type": "electric_scooter", "bike_id": "3a8a9ac28ee81ae6c6a47986eed83080", "name": "3a8a9ac28ee81ae6c6a47986eed83080"}, {"lon": -77.04155866666666, "is_disabled": 0, "lat": 38.914205833333334, "fusion_lat": 0.0, "is_reserved": 0, "rental_uris": {"ios": "https://dc.lft.to/lastmile_qr_scan", "android": "https://dc.lft.to/lastmile_qr_scan"}, "fusion_lon": 0.0, "type": "electric_scooter", "bike_id": "b74c214a66cd5e38f59faaf83cb2fb64", "name": "b74c214a66cd5e38f59faaf83cb2fb64"}, {"lon": -77.0379205, "is_disabled": 0, "lat": 38.92587733333333, "fusion_lat": 0.0, "is_reserved": 0, "rental_uris": {"ios": "https://dc.lft.to/lastmile_qr_scan", "android": "https://dc.lft.to/lastmile_qr_scan"}, "fusion_lon": 0.0, "type": "electric_scooter", "bike_id": "9990267ba70533502d8ea77a1b36b5f7", "name": "9990267ba70533502d8ea77a1b36b5f7"}, {"lon": -77.00549916666667, "is_disabled": 0, "lat": 38.880067, "fusion_lat": 0.0, "is_reserved": 0, "rental_uris": {"ios": "https://dc.lft.to/lastmile_qr_scan", "android": "https://dc.lft.to/lastmile_qr_scan"}, "fusion_lon": 0.0, "type": "electric_scooter", "bike_id": "e778434d8ca81ff57a0d9625fabd195d", "name": "e778434d8ca81ff57a0d9625fabd195d"}, {"lon": -77.02043566666667, "is_disabled": 0, "lat": 38.92113233333333, "fusion_lat": 0.0, "is_reserved": 0, "rental_uris": {"ios": "https://dc.lft.to/lastmile_qr_scan", "android": "https://dc.lft.to/lastmile_qr_scan"}, "fusion_lon": 0.0, "type": "electric_scooter", "bike_id": "dbc8624ea645eddd2e49226975170ef1", "name": "dbc8624ea645eddd2e49226975170ef1"}, {"lon": -77.017807, "is_disabled": 0, "lat": 38.877108666666665, "fusion_lat": 0.0, "is_reserved": 0, "rental_uris": {"ios": "https://dc.lft.to/lastmile_qr_scan", "android": "https://dc.lft.to/lastmile_qr_scan"}, "fusion_lon": 0.0, "type": "electric_scooter", "bike_id": "0d552bb72cb1860270c5f86858f3a874", "name": "0d552bb72cb1860270c5f86858f3a874"}, {"lon": -77.04472866666667, "is_disabled": 0, "lat": 38.8991465, "fusion_lat": 0.0, "is_reserved": 0, "rental_uris": {"ios": "https://dc.lft.to/lastmile_qr_scan", "android": "https://dc.lft.to/lastmile_qr_scan"}, "fusion_lon": 0.0, "type": "electric_scooter", "bike_id": "6192d7f514bb9d889fcc1ba80300e61a", "name": "6192d7f514bb9d889fcc1ba80300e61a"}, {"lon": -77.030005, "is_disabled": 0, "lat": 38.9011755, "fusion_lat": 0.0, "is_reserved": 0, "rental_uris": {"ios": "https://dc.lft.to/lastmile_qr_scan", "android": "https://dc.lft.to/lastmile_qr_scan"}, "fusion_lon": 0.0, "type": "electric_scooter", "bike_id": "e5c38b74a9904140fe45ea9b58f30fcc", "name": "e5c38b74a9904140fe45ea9b58f30fcc"}, {"lon": -77.0373175, "is_disabled": 0, "lat": 38.9265775, "fusion_lat": 0.0, "is_reserved": 0, "rental_uris": {"ios": "https://dc.lft.to/lastmile_qr_scan", "android": "https://dc.lft.to/lastmile_qr_scan"}, "fusion_lon": 0.0, "type": "electric_scooter", "bike_id": "d3978e9a9903f13ab4d484ac74d0e37e", "name": "d3978e9a9903f13ab4d484ac74d0e37e"}, {"lon": -77.0501295, "is_disabled": 0, "lat": 38.9008735, "fusion_lat": 0.0, "is_reserved": 0, "rental_uris": {"ios": "https://dc.lft.to/lastmile_qr_scan", "android": "https://dc.lft.to/lastmile_qr_scan"}, "fusion_lon": 0.0, "type": "electric_scooter", "bike_id": "1579677098b265f6821a5f48c64e03a5", "name": "1579677098b265f6821a5f48c64e03a5"}, {"lon": -77.02521166666666, "is_disabled": 0, "lat": 38.919154666666664, "fusion_lat": 0.0, "is_reserved": 0, "rental_uris": {"ios": "https://dc.lft.to/lastmile_qr_scan", "android": "https://dc.lft.to/lastmile_qr_scan"}, "fusion_lon": 0.0, "type": "electric_scooter", "bike_id": "20886224b52065310e7bf813b9063bc2", "name": "20886224b52065310e7bf813b9063bc2"}, {"lon": -76.96058016666667, "is_disabled": 0, "lat": 38.88403066666667, "fusion_lat": 0.0, "is_reserved": 0, "rental_uris": {"ios": "https://dc.lft.to/lastmile_qr_scan", "android": "https://dc.lft.to/lastmile_qr_scan"}, "fusion_lon": 0.0, "type": "electric_bike", "bike_id": "3b53a5bac8f5e2199448ae3939be2637", "name": "3b53a5bac8f5e2199448ae3939be2637"}, {"lon": -77.00666566666666, "is_disabled": 0, "lat": 38.900099833333336, "fusion_lat": 0.0, "is_reserved": 0, "rental_uris": {"ios": "https://dc.lft.to/lastmile_qr_scan", "android": "https://dc.lft.to/lastmile_qr_scan"}, "fusion_lon": 0.0, "type": "electric_scooter", "bike_id": "7ab3da8621a39dff4432148d5411229f", "name": "7ab3da8621a39dff4432148d5411229f"}, {"lon": -77.00251016666667, "is_disabled": 0, "lat": 38.874843, "fusion_lat": 0.0, "is_reserved": 0, "rental_uris": {"ios": "https://dc.lft.to/lastmile_qr_scan", "android": "https://dc.lft.to/lastmile_qr_scan"}, "fusion_lon": 0.0, "type": "electric_scooter", "bike_id": "cb86fed42e7ee9ce4e9d3d32523682ba", "name": "cb86fed42e7ee9ce4e9d3d32523682ba"}, {"lon": -77.011102, "is_disabled": 0, "lat": 38.909698, "fusion_lat": 0.0, "is_reserved": 0, "rental_uris": {"ios": "https://dc.lft.to/lastmile_qr_scan", "android": "https://dc.lft.to/lastmile_qr_scan"}, "fusion_lon": 0.0, "type": "electric_scooter", "bike_id": "dcb724950830e59cbd1d3f3e9bd19516", "name": "dcb724950830e59cbd1d3f3e9bd19516"}, {"lon": -77.024758, "is_disabled": 0, "lat": 38.918835, "fusion_lat": 0.0, "is_reserved": 0, "rental_uris": {"ios": "https://dc.lft.to/lastmile_qr_scan", "android": "https://dc.lft.to/lastmile_qr_scan"}, "fusion_lon": 0.0, "type": "electric_scooter", "bike_id": "b522358cd394e24a0232b1f3cf5a2edb", "name": "b522358cd394e24a0232b1f3cf5a2edb"}, {"lon": -77.00896433333334, "is_disabled": 0, "lat": 38.901152333333336, "fusion_lat": 0.0, "is_reserved": 0, "rental_uris": {"ios": "https://dc.lft.to/lastmile_qr_scan", "android": "https://dc.lft.to/lastmile_qr_scan"}, "fusion_lon": 0.0, "type": "electric_scooter", "bike_id": "8bd4fe55a9adf2834a99ed336bd942c5", "name": "8bd4fe55a9adf2834a99ed336bd942c5"}, {"lon": -77.03710516666666, "is_disabled": 0, "lat": 38.9285895, "fusion_lat": 0.0, "is_reserved": 0, "rental_uris": {"ios": "https://dc.lft.to/lastmile_qr_scan", "android": "https://dc.lft.to/lastmile_qr_scan"}, "fusion_lon": 0.0, "type": "electric_scooter", "bike_id": "c80891891093b84e3c3d2c9058f93cc3", "name": "c80891891093b84e3c3d2c9058f93cc3"}, {"lon": -77.03532, "is_disabled": 0, "lat": 38.9184105, "fusion_lat": 0.0, "is_reserved": 0, "rental_uris": {"ios": "https://dc.lft.to/lastmile_qr_scan", "android": "https://dc.lft.to/lastmile_qr_scan"}, "fusion_lon": 0.0, "type": "electric_scooter", "bike_id": "cdf23876c6223a624efb84a71ee4a04f", "name": "cdf23876c6223a624efb84a71ee4a04f"}, {"lon": -77.02626516666666, "is_disabled": 0, "lat": 38.9282345, "fusion_lat": 0.0, "is_reserved": 0, "rental_uris": {"ios": "https://dc.lft.to/lastmile_qr_scan", "android": "https://dc.lft.to/lastmile_qr_scan"}, "fusion_lon": 0.0, "type": "electric_scooter", "bike_id": "e831eda081d74cccac6c926daf22ef12", "name": "e831eda081d74cccac6c926daf22ef12"}, {"lon": -77.037721, "is_disabled": 0, "lat": 38.92466183333333, "fusion_lat": 0.0, "is_reserved": 0, "rental_uris": {"ios": "https://dc.lft.to/lastmile_qr_scan", "android": "https://dc.lft.to/lastmile_qr_scan"}, "fusion_lon": 0.0, "type": "electric_scooter", "bike_id": "17079c2321ecada68d8c919d617dda03", "name": "17079c2321ecada68d8c919d617dda03"}, {"lon": -77.01217433333333, "is_disabled": 0, "lat": 38.900937, "fusion_lat": 0.0, "is_reserved": 0, "rental_uris": {"ios": "https://dc.lft.to/lastmile_qr_scan", "android": "https://dc.lft.to/lastmile_qr_scan"}, "fusion_lon": 0.0, "type": "electric_scooter", "bike_id": "0243e01b8499bc9d7dc5acc4511cc8a9", "name": "0243e01b8499bc9d7dc5acc4511cc8a9"}, {"lon": -77.00132566666667, "is_disabled": 0, "lat": 38.892744666666665, "fusion_lat": 0.0, "is_reserved": 0, "rental_uris": {"ios": "https://dc.lft.to/lastmile_qr_scan", "android": "https://dc.lft.to/lastmile_qr_scan"}, "fusion_lon": 0.0, "type": "electric_scooter", "bike_id": "c3121b804367dc08e4c026b56b4a96bc", "name": "c3121b804367dc08e4c026b56b4a96bc"}, {"lon": -77.02312383333333, "is_disabled": 0, "lat": 38.917824333333336, "fusion_lat": 0.0, "is_reserved": 0, "rental_uris": {"ios": "https://dc.lft.to/lastmile_qr_scan", "android": "https://dc.lft.to/lastmile_qr_scan"}, "fusion_lon": 0.0, "type": "electric_scooter", "bike_id": "9a73e567510cb4e0635a3771ee8c0bc3", "name": "9a73e567510cb4e0635a3771ee8c0bc3"}, {"lon": -77.021715, "is_disabled": 0, "lat": 38.90183016666667, "fusion_lat": 0.0, "is_reserved": 0, "rental_uris": {"ios": "https://dc.lft.to/lastmile_qr_scan", "android": "https://dc.lft.to/lastmile_qr_scan"}, "fusion_lon": 0.0, "type": "electric_scooter", "bike_id": "20d50d8c533055257700112151e74205", "name": "20d50d8c533055257700112151e74205"}, {"lon": -76.97713083333333, "is_disabled": 0, "lat": 38.892057, "fusion_lat": 0.0, "is_reserved": 0, "rental_uris": {"ios": "https://dc.lft.to/lastmile_qr_scan", "android": "https://dc.lft.to/lastmile_qr_scan"}, "fusion_lon": 0.0, "type": "electric_bike", "bike_id": "4b3835c0a42e01894a39d7ed5e341f75", "name": "4b3835c0a42e01894a39d7ed5e341f75"}, {"lon": -77.02601016666667, "is_disabled": 0, "lat": 38.92385133333333, "fusion_lat": 0.0, "is_reserved": 0, "rental_uris": {"ios": "https://dc.lft.to/lastmile_qr_scan", "android": "https://dc.lft.to/lastmile_qr_scan"}, "fusion_lon": 0.0, "type": "electric_scooter", "bike_id": "4d78268cf4a6a4833de6354a73e9a03c", "name": "4d78268cf4a6a4833de6354a73e9a03c"}, {"lon": -77.03838416666666, "is_disabled": 0, "lat": 38.91561133333333, "fusion_lat": 0.0, "is_reserved": 0, "rental_uris": {"ios": "https://dc.lft.to/lastmile_qr_scan", "android": "https://dc.lft.to/lastmile_qr_scan"}, "fusion_lon": 0.0, "type": "electric_scooter", "bike_id": "747adcb6027ec1b382f40ade87a525f6", "name": "747adcb6027ec1b382f40ade87a525f6"}, {"lon": -77.01895, "is_disabled": 0, "lat": 38.90923766666667, "fusion_lat": 0.0, "is_reserved": 0, "rental_uris": {"ios": "https://dc.lft.to/lastmile_qr_scan", "android": "https://dc.lft.to/lastmile_qr_scan"}, "fusion_lon": 0.0, "type": "electric_scooter", "bike_id": "07a498db623a9fc5d7721b2d431f7e0f", "name": "07a498db623a9fc5d7721b2d431f7e0f"}, {"lon": -77.01985683333334, "is_disabled": 0, "lat": 38.91417883333333, "fusion_lat": 0.0, "is_reserved": 0, "rental_uris": {"ios": "https://dc.lft.to/lastmile_qr_scan", "android": "https://dc.lft.to/lastmile_qr_scan"}, "fusion_lon": 0.0, "type": "electric_scooter", "bike_id": "5b07dd36088c06fe2b1c64303ce839cc", "name": "5b07dd36088c06fe2b1c64303ce839cc"}, {"lon": -77.0385275, "is_disabled": 0, "lat": 38.91217316666667, "fusion_lat": 0.0, "is_reserved": 0, "rental_uris": {"ios": "https://dc.lft.to/lastmile_qr_scan", "android": "https://dc.lft.to/lastmile_qr_scan"}, "fusion_lon": 0.0, "type": "electric_scooter", "bike_id": "5c1a1e50208a91b1b619c5f21372cca6", "name": "5c1a1e50208a91b1b619c5f21372cca6"}, {"lon": -77.029585, "is_disabled": 0, "lat": 38.90495933333333, "fusion_lat": 0.0, "is_reserved": 0, "rental_uris": {"ios": "https://dc.lft.to/lastmile_qr_scan", "android": "https://dc.lft.to/lastmile_qr_scan"}, "fusion_lon": 0.0, "type": "electric_bike", "bike_id": "02be0390fe833cc8e15017deba63a5a8", "name": "02be0390fe833cc8e15017deba63a5a8"}, {"lon": -77.001969, "is_disabled": 0, "lat": 38.90269133333334, "fusion_lat": 0.0, "is_reserved": 0, "rental_uris": {"ios": "https://dc.lft.to/lastmile_qr_scan", "android": "https://dc.lft.to/lastmile_qr_scan"}, "fusion_lon": 0.0, "type": "electric_scooter", "bike_id": "2a1a18ebdc0bd2c33b590562180586c1", "name": "2a1a18ebdc0bd2c33b590562180586c1"}, {"lon": -77.022925, "is_disabled": 0, "lat": 38.91568783333334, "fusion_lat": 0.0, "is_reserved": 0, "rental_uris": {"ios": "https://dc.lft.to/lastmile_qr_scan", "android": "https://dc.lft.to/lastmile_qr_scan"}, "fusion_lon": 0.0, "type": "electric_scooter", "bike_id": "8b2516b7c9ae05d46c9b3c2911a8fc3e", "name": "8b2516b7c9ae05d46c9b3c2911a8fc3e"}, {"lon": -77.03390266666666, "is_disabled": 0, "lat": 38.90969533333333, "fusion_lat": 0.0, "is_reserved": 0, "rental_uris": {"ios": "https://dc.lft.to/lastmile_qr_scan", "android": "https://dc.lft.to/lastmile_qr_scan"}, "fusion_lon": 0.0, "type": "electric_scooter", "bike_id": "5a4d048de6f4192f7974ab18a81e90e0", "name": "5a4d048de6f4192f7974ab18a81e90e0"}, {"lon": -77.02689816666667, "is_disabled": 0, "lat": 38.906698666666664, "fusion_lat": 0.0, "is_reserved": 0, "rental_uris": {"ios": "https://dc.lft.to/lastmile_qr_scan", "android": "https://dc.lft.to/lastmile_qr_scan"}, "fusion_lon": 0.0, "type": "electric_scooter", "bike_id": "ba521436abe367c26dc17d8ea1c3168b", "name": "ba521436abe367c26dc17d8ea1c3168b"}, {"lon": -76.97558916666667, "is_disabled": 0, "lat": 38.924578, "fusion_lat": 0.0, "is_reserved": 0, "rental_uris": {"ios": "https://dc.lft.to/lastmile_qr_scan", "android": "https://dc.lft.to/lastmile_qr_scan"}, "fusion_lon": 0.0, "type": "electric_bike", "bike_id": "514f11ebb8d214539e7f84a419f99f5d", "name": "514f11ebb8d214539e7f84a419f99f5d"}, {"lon": -77.05974633333334, "is_disabled": 0, "lat": 38.90107533333333, "fusion_lat": 0.0, "is_reserved": 0, "rental_uris": {"ios": "https://dc.lft.to/lastmile_qr_scan", "android": "https://dc.lft.to/lastmile_qr_scan"}, "fusion_lon": 0.0, "type": "electric_scooter", "bike_id": "27b6a03a81ae4e4288c604f0bcd7bd2b", "name": "27b6a03a81ae4e4288c604f0bcd7bd2b"}, {"lon": -77.01221583333333, "is_disabled": 0, "lat": 38.91753516666667, "fusion_lat": 0.0, "is_reserved": 0, "rental_uris": {"ios": "https://dc.lft.to/lastmile_qr_scan", "android": "https://dc.lft.to/lastmile_qr_scan"}, "fusion_lon": 0.0, "type": "electric_scooter", "bike_id": "ab269d1fd2efaa6bc80266b9a632b85f", "name": "ab269d1fd2efaa6bc80266b9a632b85f"}, {"lon": -76.98438983333334, "is_disabled": 0, "lat": 38.90579566666667, "fusion_lat": 0.0, "is_reserved": 0, "rental_uris": {"ios": "https://dc.lft.to/lastmile_qr_scan", "android": "https://dc.lft.to/lastmile_qr_scan"}, "fusion_lon": 0.0, "type": "electric_scooter", "bike_id": "9fbeb47ab713450e5b3a35b3f2e2e7f3", "name": "9fbeb47ab713450e5b3a35b3f2e2e7f3"}, {"lon": -77.12736766666667, "is_disabled": 0, "lat": 38.895674, "fusion_lat": 0.0, "is_reserved": 0, "rental_uris": {"ios": "https://dc.lft.to/lastmile_qr_scan", "android": "https://dc.lft.to/lastmile_qr_scan"}, "fusion_lon": 0.0, "type": "electric_bike", "bike_id": "dce6a8771a83734d034e84e5533ee259", "name": "dce6a8771a83734d034e84e5533ee259"}, {"lon": -77.02406683333334, "is_disabled": 0, "lat": 38.913986333333334, "fusion_lat": 0.0, "is_reserved": 0, "rental_uris": {"ios": "https://dc.lft.to/lastmile_qr_scan", "android": "https://dc.lft.to/lastmile_qr_scan"}, "fusion_lon": 0.0, "type": "electric_scooter", "bike_id": "3a010a292dc95a55f450485d3bb56b36", "name": "3a010a292dc95a55f450485d3bb56b36"}, {"lon": -77.02495183333333, "is_disabled": 0, "lat": 38.918073666666665, "fusion_lat": 0.0, "is_reserved": 0, "rental_uris": {"ios": "https://dc.lft.to/lastmile_qr_scan", "android": "https://dc.lft.to/lastmile_qr_scan"}, "fusion_lon": 0.0, "type": "electric_scooter", "bike_id": "d541f9f223ea56c23c6e0505a203eb02", "name": "d541f9f223ea56c23c6e0505a203eb02"}, {"lon": -77.003835, "is_disabled": 0, "lat": 38.83605883333333, "fusion_lat": 0.0, "is_reserved": 0, "rental_uris": {"ios": "https://dc.lft.to/lastmile_qr_scan", "android": "https://dc.lft.to/lastmile_qr_scan"}, "fusion_lon": 0.0, "type": "electric_bike", "bike_id": "ddf1c44304b5b2e009f4ce5c8430cde4", "name": "ddf1c44304b5b2e009f4ce5c8430cde4"}, {"lon": -77.02254833333333, "is_disabled": 0, "lat": 38.893709666666666, "fusion_lat": 0.0, "is_reserved": 0, "rental_uris": {"ios": "https://dc.lft.to/lastmile_qr_scan", "android": "https://dc.lft.to/lastmile_qr_scan"}, "fusion_lon": 0.0, "type": "electric_scooter", "bike_id": "3f0631218010739f9abb83ed113c929f", "name": "3f0631218010739f9abb83ed113c929f"}, {"lon": -77.04212866666667, "is_disabled": 0, "lat": 38.9225595, "fusion_lat": 0.0, "is_reserved": 0, "rental_uris": {"ios": "https://dc.lft.to/lastmile_qr_scan", "android": "https://dc.lft.to/lastmile_qr_scan"}, "fusion_lon": 0.0, "type": "electric_scooter", "bike_id": "e712cf3989a525ac9c1b90b92b3907a5", "name": "e712cf3989a525ac9c1b90b92b3907a5"}, {"lon": -77.01823016666667, "is_disabled": 0, "lat": 38.90140433333333, "fusion_lat": 0.0, "is_reserved": 0, "rental_uris": {"ios": "https://dc.lft.to/lastmile_qr_scan", "android": "https://dc.lft.to/lastmile_qr_scan"}, "fusion_lon": 0.0, "type": "electric_scooter", "bike_id": "95a15554f308e79d315c4618034876c5", "name": "95a15554f308e79d315c4618034876c5"}, {"lon": -77.0338115, "is_disabled": 0, "lat": 38.9384515, "fusion_lat": 0.0, "is_reserved": 0, "rental_uris": {"ios": "https://dc.lft.to/lastmile_qr_scan", "android": "https://dc.lft.to/lastmile_qr_scan"}, "fusion_lon": 0.0, "type": "electric_scooter", "bike_id": "959fd913c56886108106bfe4bc100b45", "name": "959fd913c56886108106bfe4bc100b45"}, {"lon": -76.94637666666667, "is_disabled": 0, "lat": 38.898352833333334, "fusion_lat": 0.0, "is_reserved": 0, "rental_uris": {"ios": "https://dc.lft.to/lastmile_qr_scan", "android": "https://dc.lft.to/lastmile_qr_scan"}, "fusion_lon": 0.0, "type": "electric_scooter", "bike_id": "449fffdb3ef39aba470f33d8e8313f8d", "name": "449fffdb3ef39aba470f33d8e8313f8d"}, {"lon": -76.9825645, "is_disabled": 0, "lat": 38.953284833333335, "fusion_lat": 0.0, "is_reserved": 0, "rental_uris": {"ios": "https://dc.lft.to/lastmile_qr_scan", "android": "https://dc.lft.to/lastmile_qr_scan"}, "fusion_lon": 0.0, "type": "electric_bike", "bike_id": "150d0ecdd34afa4c01415a903e3dc0ab", "name": "150d0ecdd34afa4c01415a903e3dc0ab"}, {"lon": -77.04198016666666, "is_disabled": 0, "lat": 38.90379733333333, "fusion_lat": 0.0, "is_reserved": 0, "rental_uris": {"ios": "https://dc.lft.to/lastmile_qr_scan", "android": "https://dc.lft.to/lastmile_qr_scan"}, "fusion_lon": 0.0, "type": "electric_scooter", "bike_id": "bda4e626d63596875076093bfe3186c2", "name": "bda4e626d63596875076093bfe3186c2"}, {"lon": -77.04542783333333, "is_disabled": 0, "lat": 38.93454216666667, "fusion_lat": 0.0, "is_reserved": 0, "rental_uris": {"ios": "https://dc.lft.to/lastmile_qr_scan", "android": "https://dc.lft.to/lastmile_qr_scan"}, "fusion_lon": 0.0, "type": "electric_scooter", "bike_id": "3cd450fea19b4334dedea4e604e1cf26", "name": "3cd450fea19b4334dedea4e604e1cf26"}, {"lon": -77.03158533333334, "is_disabled": 0, "lat": 38.91818383333333, "fusion_lat": 0.0, "is_reserved": 0, "rental_uris": {"ios": "https://dc.lft.to/lastmile_qr_scan", "android": "https://dc.lft.to/lastmile_qr_scan"}, "fusion_lon": 0.0, "type": "electric_scooter", "bike_id": "ef0e21b8deeb9ceba39e4ad31913ecf6", "name": "ef0e21b8deeb9ceba39e4ad31913ecf6"}, {"lon": -76.98058433333334, "is_disabled": 0, "lat": 38.88531416666667, "fusion_lat": 0.0, "is_reserved": 0, "rental_uris": {"ios": "https://dc.lft.to/lastmile_qr_scan", "android": "https://dc.lft.to/lastmile_qr_scan"}, "fusion_lon": 0.0, "type": "electric_scooter", "bike_id": "b1d98e1789df6c75f2d9c9e16c7f1b6a", "name": "b1d98e1789df6c75f2d9c9e16c7f1b6a"}, {"lon": -77.02233483333333, "is_disabled": 0, "lat": 38.956835166666664, "fusion_lat": 0.0, "is_reserved": 0, "rental_uris": {"ios": "https://dc.lft.to/lastmile_qr_scan", "android": "https://dc.lft.to/lastmile_qr_scan"}, "fusion_lon": 0.0, "type": "electric_bike", "bike_id": "c9f61aaf9c6a39ebe039f51b85e26e43", "name": "c9f61aaf9c6a39ebe039f51b85e26e43"}, {"lon": -77.025952, "is_disabled": 0, "lat": 38.915639, "fusion_lat": 0.0, "is_reserved": 0, "rental_uris": {"ios": "https://dc.lft.to/lastmile_qr_scan", "android": "https://dc.lft.to/lastmile_qr_scan"}, "fusion_lon": 0.0, "type": "electric_scooter", "bike_id": "d252802c711222248102a779ef87f38d", "name": "d252802c711222248102a779ef87f38d"}, {"lon": -77.03829766666667, "is_disabled": 0, "lat": 38.919686666666664, "fusion_lat": 0.0, "is_reserved": 0, "rental_uris": {"ios": "https://dc.lft.to/lastmile_qr_scan", "android": "https://dc.lft.to/lastmile_qr_scan"}, "fusion_lon": 0.0, "type": "electric_scooter", "bike_id": "56f7c9f97c82838e14155e822edc6c03", "name": "56f7c9f97c82838e14155e822edc6c03"}, {"lon": -77.00077566666667, "is_disabled": 0, "lat": 38.9150905, "fusion_lat": 0.0, "is_reserved": 0, "rental_uris": {"ios": "https://dc.lft.to/lastmile_qr_scan", "android": "https://dc.lft.to/lastmile_qr_scan"}, "fusion_lon": 0.0, "type": "electric_scooter", "bike_id": "fe93bd1762329e0e3aaca94b8fa544b1", "name": "fe93bd1762329e0e3aaca94b8fa544b1"}, {"lon": -77.02724066666667, "is_disabled": 0, "lat": 38.927693166666664, "fusion_lat": 0.0, "is_reserved": 0, "rental_uris": {"ios": "https://dc.lft.to/lastmile_qr_scan", "android": "https://dc.lft.to/lastmile_qr_scan"}, "fusion_lon": 0.0, "type": "electric_scooter", "bike_id": "af2ce8266c7bba06ce67bcc5922c4b8e", "name": "af2ce8266c7bba06ce67bcc5922c4b8e"}, {"lon": -77.0226365, "is_disabled": 0, "lat": 38.927422, "fusion_lat": 0.0, "is_reserved": 0, "rental_uris": {"ios": "https://dc.lft.to/lastmile_qr_scan", "android": "https://dc.lft.to/lastmile_qr_scan"}, "fusion_lon": 0.0, "type": "electric_scooter", "bike_id": "383133162d2c78963069c14a331647c5", "name": "383133162d2c78963069c14a331647c5"}, {"lon": -77.0163335, "is_disabled": 0, "lat": 38.90645283333333, "fusion_lat": 0.0, "is_reserved": 0, "rental_uris": {"ios": "https://dc.lft.to/lastmile_qr_scan", "android": "https://dc.lft.to/lastmile_qr_scan"}, "fusion_lon": 0.0, "type": "electric_scooter", "bike_id": "ea34a911b96fd9e2446b009f6efb2685", "name": "ea34a911b96fd9e2446b009f6efb2685"}, {"lon": -77.048749, "is_disabled": 0, "lat": 38.906522, "fusion_lat": 0.0, "is_reserved": 0, "rental_uris": {"ios": "https://dc.lft.to/lastmile_qr_scan", "android": "https://dc.lft.to/lastmile_qr_scan"}, "fusion_lon": 0.0, "type": "electric_scooter", "bike_id": "6633f16d3fa908bfdb5642f0553d91a8", "name": "6633f16d3fa908bfdb5642f0553d91a8"}, {"lon": -77.00071083333333, "is_disabled": 0, "lat": 38.873674333333334, "fusion_lat": 0.0, "is_reserved": 0, "rental_uris": {"ios": "https://dc.lft.to/lastmile_qr_scan", "android": "https://dc.lft.to/lastmile_qr_scan"}, "fusion_lon": 0.0, "type": "electric_scooter", "bike_id": "57f431d2b2035019e4e8b887bf142066", "name": "57f431d2b2035019e4e8b887bf142066"}, {"lon": -77.01668166666667, "is_disabled": 0, "lat": 38.881224833333334, "fusion_lat": 0.0, "is_reserved": 0, "rental_uris": {"ios": "https://dc.lft.to/lastmile_qr_scan", "android": "https://dc.lft.to/lastmile_qr_scan"}, "fusion_lon": 0.0, "type": "electric_scooter", "bike_id": "75cdac041476b79d4159d5f7ebd53ef2", "name": "75cdac041476b79d4159d5f7ebd53ef2"}, {"lon": -77.04498683333334, "is_disabled": 0, "lat": 38.90861233333333, "fusion_lat": 0.0, "is_reserved": 0, "rental_uris": {"ios": "https://dc.lft.to/lastmile_qr_scan", "android": "https://dc.lft.to/lastmile_qr_scan"}, "fusion_lon": 0.0, "type": "electric_scooter", "bike_id": "6f2af98564e6a974659b80679e5ab9c7", "name": "6f2af98564e6a974659b80679e5ab9c7"}, {"lon": -77.03043016666666, "is_disabled": 0, "lat": 38.91642783333333, "fusion_lat": 0.0, "is_reserved": 0, "rental_uris": {"ios": "https://dc.lft.to/lastmile_qr_scan", "android": "https://dc.lft.to/lastmile_qr_scan"}, "fusion_lon": 0.0, "type": "electric_scooter", "bike_id": "e2318496cc3904688a4509e966dbb9f5", "name": "e2318496cc3904688a4509e966dbb9f5"}, {"lon": -77.0543105, "is_disabled": 0, "lat": 38.9285065, "fusion_lat": 0.0, "is_reserved": 0, "rental_uris": {"ios": "https://dc.lft.to/lastmile_qr_scan", "android": "https://dc.lft.to/lastmile_qr_scan"}, "fusion_lon": 0.0, "type": "electric_scooter", "bike_id": "f1188135c070b08f8085dcad8806e00a", "name": "f1188135c070b08f8085dcad8806e00a"}, {"lon": -77.03205933333334, "is_disabled": 0, "lat": 38.9173075, "fusion_lat": 0.0, "is_reserved": 0, "rental_uris": {"ios": "https://dc.lft.to/lastmile_qr_scan", "android": "https://dc.lft.to/lastmile_qr_scan"}, "fusion_lon": 0.0, "type": "electric_scooter", "bike_id": "7bcbce1bf295091d1eccc6b8955318f1", "name": "7bcbce1bf295091d1eccc6b8955318f1"}, {"lon": -77.04661633333333, "is_disabled": 0, "lat": 38.90545516666667, "fusion_lat": 0.0, "is_reserved": 0, "rental_uris": {"ios": "https://dc.lft.to/lastmile_qr_scan", "android": "https://dc.lft.to/lastmile_qr_scan"}, "fusion_lon": 0.0, "type": "electric_scooter", "bike_id": "1a2a09c1c9e67849ca04c8a09eadcdfe", "name": "1a2a09c1c9e67849ca04c8a09eadcdfe"}, {"lon": -77.03403866666666, "is_disabled": 0, "lat": 38.92205916666666, "fusion_lat": 0.0, "is_reserved": 0, "rental_uris": {"ios": "https://dc.lft.to/lastmile_qr_scan", "android": "https://dc.lft.to/lastmile_qr_scan"}, "fusion_lon": 0.0, "type": "electric_scooter", "bike_id": "a63f69cbc49dd95bf26dabe7fdf6d158", "name": "a63f69cbc49dd95bf26dabe7fdf6d158"}, {"lon": -77.02637883333334, "is_disabled": 0, "lat": 38.910673333333335, "fusion_lat": 0.0, "is_reserved": 0, "rental_uris": {"ios": "https://dc.lft.to/lastmile_qr_scan", "android": "https://dc.lft.to/lastmile_qr_scan"}, "fusion_lon": 0.0, "type": "electric_scooter", "bike_id": "e076d5d3e315d03e458bbebc88c5a0c4", "name": "e076d5d3e315d03e458bbebc88c5a0c4"}, {"lon": -77.00120816666667, "is_disabled": 0, "lat": 38.9253615, "fusion_lat": 0.0, "is_reserved": 0, "rental_uris": {"ios": "https://dc.lft.to/lastmile_qr_scan", "android": "https://dc.lft.to/lastmile_qr_scan"}, "fusion_lon": 0.0, "type": "electric_bike", "bike_id": "eb658606a9022286e628e4efe9dc5451", "name": "eb658606a9022286e628e4efe9dc5451"}, {"lon": -77.05568816666667, "is_disabled": 0, "lat": 38.803969, "fusion_lat": 0.0, "is_reserved": 0, "rental_uris": {"ios": "https://dc.lft.to/lastmile_qr_scan", "android": "https://dc.lft.to/lastmile_qr_scan"}, "fusion_lon": 0.0, "type": "electric_bike", "bike_id": "2abcf537e8e1d552d0fa14ecbf083713", "name": "2abcf537e8e1d552d0fa14ecbf083713"}, {"lon": -77.02272516666666, "is_disabled": 0, "lat": 38.895162666666664, "fusion_lat": 0.0, "is_reserved": 0, "rental_uris": {"ios": "https://dc.lft.to/lastmile_qr_scan", "android": "https://dc.lft.to/lastmile_qr_scan"}, "fusion_lon": 0.0, "type": "electric_scooter", "bike_id": "fe18060f62fc0c308de48368c3cbf7c3", "name": "fe18060f62fc0c308de48368c3cbf7c3"}, {"lon": -77.03653, "is_disabled": 0, "lat": 38.9238605, "fusion_lat": 0.0, "is_reserved": 0, "rental_uris": {"ios": "https://dc.lft.to/lastmile_qr_scan", "android": "https://dc.lft.to/lastmile_qr_scan"}, "fusion_lon": 0.0, "type": "electric_scooter", "bike_id": "1fadb2b8c2e840ab9fbbfd21cefd13fc", "name": "1fadb2b8c2e840ab9fbbfd21cefd13fc"}, {"lon": -77.0453695, "is_disabled": 0, "lat": 38.93158916666667, "fusion_lat": 0.0, "is_reserved": 0, "rental_uris": {"ios": "https://dc.lft.to/lastmile_qr_scan", "android": "https://dc.lft.to/lastmile_qr_scan"}, "fusion_lon": 0.0, "type": "electric_scooter", "bike_id": "681e94cd3d35e1c3ff49ac1f3222f979", "name": "681e94cd3d35e1c3ff49ac1f3222f979"}, {"lon": -77.0313295, "is_disabled": 0, "lat": 38.91630116666666, "fusion_lat": 0.0, "is_reserved": 0, "rental_uris": {"ios": "https://dc.lft.to/lastmile_qr_scan", "android": "https://dc.lft.to/lastmile_qr_scan"}, "fusion_lon": 0.0, "type": "electric_scooter", "bike_id": "a94251b39ded7df0c5a05d521c387e2f", "name": "a94251b39ded7df0c5a05d521c387e2f"}, {"lon": -76.98636883333333, "is_disabled": 0, "lat": 38.91011533333333, "fusion_lat": 0.0, "is_reserved": 0, "rental_uris": {"ios": "https://dc.lft.to/lastmile_qr_scan", "android": "https://dc.lft.to/lastmile_qr_scan"}, "fusion_lon": 0.0, "type": "electric_scooter", "bike_id": "88758519529f252a4fbd14926cf1b7a3", "name": "88758519529f252a4fbd14926cf1b7a3"}, {"lon": -77.12937933333333, "is_disabled": 0, "lat": 38.86515433333334, "fusion_lat": 0.0, "is_reserved": 0, "rental_uris": {"ios": "https://dc.lft.to/lastmile_qr_scan", "android": "https://dc.lft.to/lastmile_qr_scan"}, "fusion_lon": 0.0, "type": "electric_bike", "bike_id": "0602b7936341552a193f2317e78c6e97", "name": "0602b7936341552a193f2317e78c6e97"}, {"lon": -77.02173866666666, "is_disabled": 0, "lat": 38.887173833333335, "fusion_lat": 0.0, "is_reserved": 0, "rental_uris": {"ios": "https://dc.lft.to/lastmile_qr_scan", "android": "https://dc.lft.to/lastmile_qr_scan"}, "fusion_lon": 0.0, "type": "electric_scooter", "bike_id": "735b1b03a5d4150aee08d6280aae4054", "name": "735b1b03a5d4150aee08d6280aae4054"}, {"lon": -77.0449965, "is_disabled": 0, "lat": 38.89947516666667, "fusion_lat": 0.0, "is_reserved": 0, "rental_uris": {"ios": "https://dc.lft.to/lastmile_qr_scan", "android": "https://dc.lft.to/lastmile_qr_scan"}, "fusion_lon": 0.0, "type": "electric_scooter", "bike_id": "c5d9fc444ed1ad839b1bd24aa4eebb85", "name": "c5d9fc444ed1ad839b1bd24aa4eebb85"}, {"lon": -77.00801433333334, "is_disabled": 0, "lat": 38.94922433333333, "fusion_lat": 0.0, "is_reserved": 0, "rental_uris": {"ios": "https://dc.lft.to/lastmile_qr_scan", "android": "https://dc.lft.to/lastmile_qr_scan"}, "fusion_lon": 0.0, "type": "electric_scooter", "bike_id": "354b786352939f83b3b107c2cded80c5", "name": "354b786352939f83b3b107c2cded80c5"}, {"lon": -77.00346433333333, "is_disabled": 0, "lat": 38.89528983333334, "fusion_lat": 0.0, "is_reserved": 0, "rental_uris": {"ios": "https://dc.lft.to/lastmile_qr_scan", "android": "https://dc.lft.to/lastmile_qr_scan"}, "fusion_lon": 0.0, "type": "electric_scooter", "bike_id": "10c4754688843db0faad21b72d630eab", "name": "10c4754688843db0faad21b72d630eab"}, {"lon": -77.0199535, "is_disabled": 0, "lat": 38.939944833333335, "fusion_lat": 0.0, "is_reserved": 0, "rental_uris": {"ios": "https://dc.lft.to/lastmile_qr_scan", "android": "https://dc.lft.to/lastmile_qr_scan"}, "fusion_lon": 0.0, "type": "electric_scooter", "bike_id": "28b4fb09fb3c4fc7e558206e07c9dc71", "name": "28b4fb09fb3c4fc7e558206e07c9dc71"}, {"lon": -76.98905516666667, "is_disabled": 0, "lat": 38.86633116666667, "fusion_lat": 0.0, "is_reserved": 0, "rental_uris": {"ios": "https://dc.lft.to/lastmile_qr_scan", "android": "https://dc.lft.to/lastmile_qr_scan"}, "fusion_lon": 0.0, "type": "electric_scooter", "bike_id": "5426d1e3390b99af12e0025d1f3eac7d", "name": "5426d1e3390b99af12e0025d1f3eac7d"}, {"lon": -77.00130666666666, "is_disabled": 0, "lat": 38.8749165, "fusion_lat": 0.0, "is_reserved": 0, "rental_uris": {"ios": "https://dc.lft.to/lastmile_qr_scan", "android": "https://dc.lft.to/lastmile_qr_scan"}, "fusion_lon": 0.0, "type": "electric_scooter", "bike_id": "f689e1e40ea0f3654d70214952c5e61b", "name": "f689e1e40ea0f3654d70214952c5e61b"}, {"lon": -77.0442905, "is_disabled": 0, "lat": 38.89826016666667, "fusion_lat": 0.0, "is_reserved": 0, "rental_uris": {"ios": "https://dc.lft.to/lastmile_qr_scan", "android": "https://dc.lft.to/lastmile_qr_scan"}, "fusion_lon": 0.0, "type": "electric_scooter", "bike_id": "6d79f88e8a1230eaf8251fe31deb31a1", "name": "6d79f88e8a1230eaf8251fe31deb31a1"}, {"lon": -77.02632483333333, "is_disabled": 0, "lat": 38.89617616666666, "fusion_lat": 0.0, "is_reserved": 0, "rental_uris": {"ios": "https://dc.lft.to/lastmile_qr_scan", "android": "https://dc.lft.to/lastmile_qr_scan"}, "fusion_lon": 0.0, "type": "electric_scooter", "bike_id": "f504220701dfcbb9ca065832b42f24fb", "name": "f504220701dfcbb9ca065832b42f24fb"}, {"lon": -77.003469, "is_disabled": 0, "lat": 38.8952325, "fusion_lat": 0.0, "is_reserved": 0, "rental_uris": {"ios": "https://dc.lft.to/lastmile_qr_scan", "android": "https://dc.lft.to/lastmile_qr_scan"}, "fusion_lon": 0.0, "type": "electric_scooter", "bike_id": "e5f4a5e947b988e59d9ea0b9b0418a48", "name": "e5f4a5e947b988e59d9ea0b9b0418a48"}, {"lon": -76.98839516666666, "is_disabled": 0, "lat": 38.89664833333333, "fusion_lat": 0.0, "is_reserved": 0, "rental_uris": {"ios": "https://dc.lft.to/lastmile_qr_scan", "android": "https://dc.lft.to/lastmile_qr_scan"}, "fusion_lon": 0.0, "type": "electric_scooter", "bike_id": "5a5b41b09d4fa01d616357bd5ea7816c", "name": "5a5b41b09d4fa01d616357bd5ea7816c"}, {"lon": -77.0366635, "is_disabled": 0, "lat": 38.912474833333334, "fusion_lat": 0.0, "is_reserved": 0, "rental_uris": {"ios": "https://dc.lft.to/lastmile_qr_scan", "android": "https://dc.lft.to/lastmile_qr_scan"}, "fusion_lon": 0.0, "type": "electric_scooter", "bike_id": "2d304991a7af7307ba7f75ceca97bcef", "name": "2d304991a7af7307ba7f75ceca97bcef"}, {"lon": -76.996294, "is_disabled": 0, "lat": 38.8871835, "fusion_lat": 0.0, "is_reserved": 0, "rental_uris": {"ios": "https://dc.lft.to/lastmile_qr_scan", "android": "https://dc.lft.to/lastmile_qr_scan"}, "fusion_lon": 0.0, "type": "electric_scooter", "bike_id": "bb4eddeac58f912c06e6a188b6667dbc", "name": "bb4eddeac58f912c06e6a188b6667dbc"}, {"lon": -77.04465516666667, "is_disabled": 0, "lat": 38.923011833333334, "fusion_lat": 0.0, "is_reserved": 0, "rental_uris": {"ios": "https://dc.lft.to/lastmile_qr_scan", "android": "https://dc.lft.to/lastmile_qr_scan"}, "fusion_lon": 0.0, "type": "electric_scooter", "bike_id": "218ead2d2927896b1b64f6a8a0f5c6f3", "name": "218ead2d2927896b1b64f6a8a0f5c6f3"}, {"lon": -77.0254385, "is_disabled": 0, "lat": 38.924020166666665, "fusion_lat": 0.0, "is_reserved": 0, "rental_uris": {"ios": "https://dc.lft.to/lastmile_qr_scan", "android": "https://dc.lft.to/lastmile_qr_scan"}, "fusion_lon": 0.0, "type": "electric_scooter", "bike_id": "5022fe95a70e87bc9dd428e4ce1fbcc1", "name": "5022fe95a70e87bc9dd428e4ce1fbcc1"}, {"lon": -77.02169366666666, "is_disabled": 0, "lat": 38.942918, "fusion_lat": 0.0, "is_reserved": 0, "rental_uris": {"ios": "https://dc.lft.to/lastmile_qr_scan", "android": "https://dc.lft.to/lastmile_qr_scan"}, "fusion_lon": 0.0, "type": "electric_scooter", "bike_id": "1bc4fe4c1ce47217db558311435c024e", "name": "1bc4fe4c1ce47217db558311435c024e"}, {"lon": -77.04224, "is_disabled": 0, "lat": 38.92627133333333, "fusion_lat": 0.0, "is_reserved": 0, "rental_uris": {"ios": "https://dc.lft.to/lastmile_qr_scan", "android": "https://dc.lft.to/lastmile_qr_scan"}, "fusion_lon": 0.0, "type": "electric_scooter", "bike_id": "13e80391f565eced9ab4bc8182dd2b48", "name": "13e80391f565eced9ab4bc8182dd2b48"}, {"lon": -77.05229516666667, "is_disabled": 0, "lat": 38.92502266666666, "fusion_lat": 0.0, "is_reserved": 0, "rental_uris": {"ios": "https://dc.lft.to/lastmile_qr_scan", "android": "https://dc.lft.to/lastmile_qr_scan"}, "fusion_lon": 0.0, "type": "electric_scooter", "bike_id": "3ae2e49a7944b7d79f48dc719b3016f6", "name": "3ae2e49a7944b7d79f48dc719b3016f6"}, {"lon": -77.00019966666666, "is_disabled": 0, "lat": 38.87418616666667, "fusion_lat": 0.0, "is_reserved": 0, "rental_uris": {"ios": "https://dc.lft.to/lastmile_qr_scan", "android": "https://dc.lft.to/lastmile_qr_scan"}, "fusion_lon": 0.0, "type": "electric_scooter", "bike_id": "313aecd74bd177b4e92d7579f000813e", "name": "313aecd74bd177b4e92d7579f000813e"}, {"lon": -76.992165, "is_disabled": 0, "lat": 38.940227666666665, "fusion_lat": 0.0, "is_reserved": 0, "rental_uris": {"ios": "https://dc.lft.to/lastmile_qr_scan", "android": "https://dc.lft.to/lastmile_qr_scan"}, "fusion_lon": 0.0, "type": "electric_bike", "bike_id": "de4c7c3627c7c59895c35754dc46e261", "name": "de4c7c3627c7c59895c35754dc46e261"}, {"lon": -77.023786, "is_disabled": 0, "lat": 38.91409816666667, "fusion_lat": 0.0, "is_reserved": 0, "rental_uris": {"ios": "https://dc.lft.to/lastmile_qr_scan", "android": "https://dc.lft.to/lastmile_qr_scan"}, "fusion_lon": 0.0, "type": "electric_scooter", "bike_id": "fb5e1d2ab7e8a1a33ebf37adfc2e22c9", "name": "fb5e1d2ab7e8a1a33ebf37adfc2e22c9"}, {"lon": -77.03844433333333, "is_disabled": 0, "lat": 38.90793683333333, "fusion_lat": 0.0, "is_reserved": 0, "rental_uris": {"ios": "https://dc.lft.to/lastmile_qr_scan", "android": "https://dc.lft.to/lastmile_qr_scan"}, "fusion_lon": 0.0, "type": "electric_scooter", "bike_id": "90cc8f709a1ee3f4c18c173d1ad8d545", "name": "90cc8f709a1ee3f4c18c173d1ad8d545"}, {"lon": -77.08575816666666, "is_disabled": 0, "lat": 38.874203666666666, "fusion_lat": 0.0, "is_reserved": 0, "rental_uris": {"ios": "https://dc.lft.to/lastmile_qr_scan", "android": "https://dc.lft.to/lastmile_qr_scan"}, "fusion_lon": 0.0, "type": "electric_bike", "bike_id": "733d3e6fd88842148e45ff987e509ddd", "name": "733d3e6fd88842148e45ff987e509ddd"}, {"lon": -77.05437716666667, "is_disabled": 0, "lat": 38.92851666666667, "fusion_lat": 0.0, "is_reserved": 0, "rental_uris": {"ios": "https://dc.lft.to/lastmile_qr_scan", "android": "https://dc.lft.to/lastmile_qr_scan"}, "fusion_lon": 0.0, "type": "electric_scooter", "bike_id": "f9de06aab13650dc5a36df98a79c799a", "name": "f9de06aab13650dc5a36df98a79c799a"}, {"lon": -77.02797816666667, "is_disabled": 0, "lat": 38.912284166666666, "fusion_lat": 0.0, "is_reserved": 0, "rental_uris": {"ios": "https://dc.lft.to/lastmile_qr_scan", "android": "https://dc.lft.to/lastmile_qr_scan"}, "fusion_lon": 0.0, "type": "electric_scooter", "bike_id": "0695d08cfc9089b8420ee712e890cdc3", "name": "0695d08cfc9089b8420ee712e890cdc3"}, {"lon": -77.04373533333333, "is_disabled": 0, "lat": 38.92232416666667, "fusion_lat": 0.0, "is_reserved": 0, "rental_uris": {"ios": "https://dc.lft.to/lastmile_qr_scan", "android": "https://dc.lft.to/lastmile_qr_scan"}, "fusion_lon": 0.0, "type": "electric_scooter", "bike_id": "189edcb9eb9b752b04986a5a5af1e986", "name": "189edcb9eb9b752b04986a5a5af1e986"}, {"lon": -77.04139033333334, "is_disabled": 0, "lat": 38.92646933333333, "fusion_lat": 0.0, "is_reserved": 0, "rental_uris": {"ios": "https://dc.lft.to/lastmile_qr_scan", "android": "https://dc.lft.to/lastmile_qr_scan"}, "fusion_lon": 0.0, "type": "electric_scooter", "bike_id": "142c4168d491e9903da83693c075ef2d", "name": "142c4168d491e9903da83693c075ef2d"},