{"data": {"bikes": [{"lat": 38.87094916666667, "fusion_lat": 0.0, "type": "electric_scooter", "bike_id": "65690ef9290ae45c7645cd1fce0782d6", "rental_uris": {"ios": "https://dc.lft.to/lastmile_qr_scan", "android": "https://dc.lft.to/lastmile_qr_scan"}, "fusion_lon": 0.0, "lon": -76.94206933333334, "name": "65690ef9290ae45c7645cd1fce0782d6", "is_reserved": 0, "is_disabled": 0}, {"lat": 38.9168255, "fusion_lat": 0.0, "type": "electric_scooter", "bike_id": "cd078bcf4be77e3edafc2a3f2ce69f98", "rental_uris": {"ios": "https://dc.lft.to/lastmile_qr_scan", "android": "https://dc.lft.to/lastmile_qr_scan"}, "fusion_lon": 0.0, "lon": -77.0297315, "name": "cd078bcf4be77e3edafc2a3f2ce69f98", "is_reserved": 0, "is_disabled": 0}, {"lat": 38.906849666666666, "fusion_lat": 0.0, "type": "electric_scooter", "bike_id": "fd062833036779d0a83b2e26d91672f3", "rental_uris": {"ios": "https://dc.lft.to/lastmile_qr_scan", "android": "https://dc.lft.to/lastmile_qr_scan"}, "fusion_lon": 0.0, "lon": -77.038073, "name": "fd062833036779d0a83b2e26d91672f3", "is_reserved": 0, "is_disabled": 0}, {"lat": 38.8396845, "fusion_lat": 0.0, "type": "electric_bike", "bike_id": "46e5c0f52f41bbef523bf8a39ae6a43e", "rental_uris": {"ios": "https://dc.lft.to/lastmile_qr_scan", "android": "https://dc.lft.to/lastmile_qr_scan"}, "fusion_lon": 0.0, "lon": -76.977339, "name": "46e5c0f52f41bbef523bf8a39ae6a43e", "is_reserved": 0, "is_disabled": 0}, {"lat": 38.917972, "fusion_lat": 0.0, "type": "electric_scooter", "bike_id": "3e4ed4c70cf26a26ebee90af8030fed1", "rental_uris": {"ios": "https://dc.lft.to/lastmile_qr_scan", "android": "https://dc.lft.to/lastmile_qr_scan"}, "fusion_lon": 0.0, "lon": -77.04015, "name": "3e4ed4c70cf26a26ebee90af8030fed1", "is_reserved": 0, "is_disabled": 0}, {"lat": 38.8953235, "fusion_lat": 0.0, "type": "electric_scooter", "bike_id": "92f00176d5af794a53b23747b63a0045", "rental_uris": {"ios": "https://dc.lft.to/lastmile_qr_scan", "android": "https://dc.lft.to/lastmile_qr_scan"}, "fusion_lon": 0.0, "lon": -77.04649966666666, "name": "92f00176d5af794a53b23747b63a0045", "is_reserved": 0, "is_disabled": 0}, {"lat": 38.92735866666666, "fusion_lat": 0.0, "type": "electric_scooter", "bike_id": "08622fa63abbbabd7aaf9c65c09b8fba", "rental_uris": {"ios": "https://dc.lft.to/lastmile_qr_scan", "android": "https://dc.lft.to/lastmile_qr_scan"}, "fusion_lon": 0.0, "lon": -76.9955915, "name": "08622fa63abbbabd7aaf9c65c09b8fba", "is_reserved": 0, "is_disabled": 0}, {"lat": 39.004804, "fusion_lat": 0.0, "type": "electric_bike", "bike_id": "1705af20d0d1278094ed726539bc05ac", "rental_uris": {"ios": "https://dc.lft.to/lastmile_qr_scan", "android": "https://dc.lft.to/lastmile_qr_scan"}, "fusion_lon": 0.0, "lon": -77.021876, "name": "1705af20d0d1278094ed726539bc05ac", "is_reserved": 0, "is_disabled": 0}, {"lat": 38.91020783333333, "fusion_lat": 0.0, "type": "electric_scooter", "bike_id": "bd21d749211c404a93c49ae4cbb43160", "rental_uris": {"ios": "https://dc.lft.to/lastmile_qr_scan", "android": "https://dc.lft.to/lastmile_qr_scan"}, "fusion_lon": 0.0, "lon": -77.0293495, "name": "bd21d749211c404a93c49ae4cbb43160", "is_reserved": 0, "is_disabled": 0}, {"lat": 38.901731166666664, "fusion_lat": 0.0, "type": "electric_scooter", "bike_id": "f2cba0d6e4750cb21d6691b874ecfa62", "rental_uris": {"ios": "https://dc.lft.to/lastmile_qr_scan", "android": "https://dc.lft.to/lastmile_qr_scan"}, "fusion_lon": 0.0, "lon": -77.01613166666667, "name": "f2cba0d6e4750cb21d6691b874ecfa62", "is_reserved": 0, "is_disabled": 0}, {"lat": 38.910847, "fusion_lat": 0.0, "type": "electric_scooter", "bike_id": "6fc3b84672ab26adef4ed64112bf48aa", "rental_uris": {"ios": "https://dc.lft.to/lastmile_qr_scan", "android": "https://dc.lft.to/lastmile_qr_scan"}, "fusion_lon": 0.0, "lon": -77.044766, "name": "6fc3b84672ab26adef4ed64112bf48aa", "is_reserved": 0, "is_disabled": 0}, {"lat": 38.892511666666664, "fusion_lat": 0.0, "type": "electric_scooter", "bike_id": "92518b55cb37127298fbaa38668a4f23", "rental_uris": {"ios": "https://dc.lft.to/lastmile_qr_scan", "android": "https://dc.lft.to/lastmile_qr_scan"}, "fusion_lon": 0.0, "lon": -76.9884445, "name": "92518b55cb37127298fbaa38668a4f23", "is_reserved": 0, "is_disabled": 0}, {"lat": 38.903658666666665, "fusion_lat": 0.0, "type": "electric_scooter", "bike_id": "31edad7100867104b65acb915c2fd464", "rental_uris": {"ios": "https://dc.lft.to/lastmile_qr_scan", "android": "https://dc.lft.to/lastmile_qr_scan"}, "fusion_lon": 0.0, "lon": -77.03879666666667, "name": "31edad7100867104b65acb915c2fd464", "is_reserved": 0, "is_disabled": 0}, {"lat": 38.90233466666667, "fusion_lat": 0.0, "type": "electric_scooter", "bike_id": "77ff96a8dc4b51101bc1521d7b876a63", "rental_uris": {"ios": "https://dc.lft.to/lastmile_qr_scan", "android": "https://dc.lft.to/lastmile_qr_scan"}, "fusion_lon": 0.0, "lon": -77.01638366666667, "name": "77ff96a8dc4b51101bc1521d7b876a63", "is_reserved": 0, "is_disabled": 0}, {"lat": 38.87109433333333, "fusion_lat": 0.0, "type": "electric_scooter", "bike_id": "34a72ae1dba1eb21e557cdbe8216554b", "rental_uris": {"ios": "https://dc.lft.to/lastmile_qr_scan", "android": "https://dc.lft.to/lastmile_qr_scan"}, "fusion_lon": 0.0, "lon": -76.96572933333333, "name": "34a72ae1dba1eb21e557cdbe8216554b", "is_reserved": 0, "is_disabled": 0}, {"lat": 38.922538, "fusion_lat": 0.0, "type": "electric_scooter", "bike_id": "4cf929f341d25275942efa88563eb57b", "rental_uris": {"ios": "https://dc.lft.to/lastmile_qr_scan", "android": "https://dc.lft.to/lastmile_qr_scan"}, "fusion_lon": 0.0, "lon": -77.035236, "name": "4cf929f341d25275942efa88563eb57b", "is_reserved": 0, "is_disabled": 0}, {"lat": 38.92164483333333, "fusion_lat": 0.0, "type": "electric_scooter", "bike_id": "cab5d869409b0a03ade34d15328892d6", "rental_uris": {"ios": "https://dc.lft.to/lastmile_qr_scan", "android": "https://dc.lft.to/lastmile_qr_scan"}, "fusion_lon": 0.0, "lon": -77.02022983333333, "name": "cab5d869409b0a03ade34d15328892d6", "is_reserved": 0, "is_disabled": 0}, {"lat": 38.905223666666664, "fusion_lat": 0.0, "type": "electric_scooter", "bike_id": "680da44cb88dae271e01e624eab2089c", "rental_uris": {"ios": "https://dc.lft.to/lastmile_qr_scan", "android": "https://dc.lft.to/lastmile_qr_scan"}, "fusion_lon": 0.0, "lon": -77.05027216666667, "name": "680da44cb88dae271e01e624eab2089c", "is_reserved": 0, "is_disabled": 0}, {"lat": 38.883127, "fusion_lat": 0.0, "type": "electric_bike", "bike_id": "e8d52b7f6da5eb855d0e50279deeecc4", "rental_uris": {"ios": "https://dc.lft.to/lastmile_qr_scan", "android": "https://dc.lft.to/lastmile_qr_scan"}, "fusion_lon": 0.0, "lon": -77.1066475, "name": "e8d52b7f6da5eb855d0e50279deeecc4", "is_reserved": 0, "is_disabled": 0}, {"lat": 38.918184333333336, "fusion_lat": 0.0, "type": "electric_scooter", "bike_id": "c241b431dfbe58e18113cb7a5d8b1aac", "rental_uris": {"ios": "https://dc.lft.to/lastmile_qr_scan", "android": "https://dc.lft.to/lastmile_qr_scan"}, "fusion_lon": 0.0, "lon": -77.024247, "name": "c241b431dfbe58e18113cb7a5d8b1aac", "is_reserved": 0, "is_disabled": 0}, {"lat": 38.9054385, "fusion_lat": 0.0, "type": "electric_scooter", "bike_id": "dd7ea5dda6305362d5493d44fba14a2d", "rental_uris": {"ios": "https://dc.lft.to/lastmile_qr_scan", "android": "https://dc.lft.to/lastmile_qr_scan"}, "fusion_lon": 0.0, "lon": -77.0221695, "name": "dd7ea5dda6305362d5493d44fba14a2d", "is_reserved": 0, "is_disabled": 0}, {"lat": 38.92411366666666, "fusion_lat": 0.0, "type": "electric_scooter", "bike_id": "f2119189b1a073a045dfdf60d7c511d2", "rental_uris": {"ios": "https://dc.lft.to/lastmile_qr_scan", "android": "https://dc.lft.to/lastmile_qr_scan"}, "fusion_lon": 0.0, "lon": -77.04025066666667, "name": "f2119189b1a073a045dfdf60d7c511d2", "is_reserved": 0, "is_disabled": 0}, {"lat": 38.90271283333333, "fusion_lat": 0.0, "type": "electric_scooter", "bike_id": "3ad41f2f1a19a21c9ff5693f34a71d16", "rental_uris": {"ios": "https://dc.lft.to/lastmile_qr_scan", "android": "https://dc.lft.to/lastmile_qr_scan"}, "fusion_lon": 0.0, "lon": -76.9288965, "name": "3ad41f2f1a19a21c9ff5693f34a71d16", "is_reserved": 0, "is_disabled": 0}, {"lat": 38.92627266666667, "fusion_lat": 0.0, "type": "electric_scooter", "bike_id": "77891ba88ca12ee48d7d72a4091f3669", "rental_uris": {"ios": "https://dc.lft.to/lastmile_qr_scan", "android": "https://dc.lft.to/lastmile_qr_scan"}, "fusion_lon": 0.0, "lon": -77.0352575, "name": "77891ba88ca12ee48d7d72a4091f3669", "is_reserved": 0, "is_disabled": 0}, {"lat": 38.91113716666667, "fusion_lat": 0.0, "type": "electric_scooter", "bike_id": "05c8f98994a99fd27e110362371538c5", "rental_uris": {"ios": "https://dc.lft.to/lastmile_qr_scan", "android": "https://dc.lft.to/lastmile_qr_scan"}, "fusion_lon": 0.0, "lon": -77.0449355, "name": "05c8f98994a99fd27e110362371538c5", "is_reserved": 0, "is_disabled": 0}, {"lat": 38.8872325, "fusion_lat": 0.0, "type": "electric_scooter", "bike_id": "e5d8583dbd38ea0110f1742852c64240", "rental_uris": {"ios": "https://dc.lft.to/lastmile_qr_scan", "android": "https://dc.lft.to/lastmile_qr_scan"}, "fusion_lon": 0.0, "lon": -77.02836633333334, "name": "e5d8583dbd38ea0110f1742852c64240", "is_reserved": 0, "is_disabled": 0}, {"lat": 38.9226815, "fusion_lat": 0.0, "type": "electric_scooter", "bike_id": "fd5fefff81989c3eef83490d2200f040", "rental_uris": {"ios": "https://dc.lft.to/lastmile_qr_scan", "android": "https://dc.lft.to/lastmile_qr_scan"}, "fusion_lon": 0.0, "lon": -77.0818925, "name": "fd5fefff81989c3eef83490d2200f040", "is_reserved": 0, "is_disabled": 0}, {"lat": 38.90229466666667, "fusion_lat": 0.0, "type": "electric_scooter", "bike_id": "9a35406e9f138f2f2e360ce25f55630f", "rental_uris": {"ios": "https://dc.lft.to/lastmile_qr_scan", "android": "https://dc.lft.to/lastmile_qr_scan"}, "fusion_lon": 0.0, "lon": -77.02347666666667, "name": "9a35406e9f138f2f2e360ce25f55630f", "is_reserved": 0, "is_disabled": 0}, {"lat": 38.87711433333333, "fusion_lat": 0.0, "type": "electric_scooter", "bike_id": "f5573c568de6c7df6bd03f03f21626ac", "rental_uris": {"ios": "https://dc.lft.to/lastmile_qr_scan", "android": "https://dc.lft.to/lastmile_qr_scan"}, "fusion_lon": 0.0, "lon": -77.0184235, "name": "f5573c568de6c7df6bd03f03f21626ac", "is_reserved": 0, "is_disabled": 0}, {"lat": 38.91714483333333, "fusion_lat": 0.0, "type": "electric_scooter", "bike_id": "3b22401b6b715c642f4f1d6d607ff9c1", "rental_uris": {"ios": "https://dc.lft.to/lastmile_qr_scan", "android": "https://dc.lft.to/lastmile_qr_scan"}, "fusion_lon": 0.0, "lon": -76.97646483333334, "name": "3b22401b6b715c642f4f1d6d607ff9c1", "is_reserved": 0, "is_disabled": 0}, {"lat": 38.934719333333334, "fusion_lat": 0.0, "type": "electric_scooter", "bike_id": "ad17c5cc8b3667b6b2fe464678ce2ef8", "rental_uris": {"ios": "https://dc.lft.to/lastmile_qr_scan", "android": "https://dc.lft.to/lastmile_qr_scan"}, "fusion_lon": 0.0, "lon": -77.07353633333334, "name": "ad17c5cc8b3667b6b2fe464678ce2ef8", "is_reserved": 0, "is_disabled": 0}, {"lat": 38.88678066666667, "fusion_lat": 0.0, "type": "electric_scooter", "bike_id": "09a42c7a1b550fd0cb1dbc7436d55fbd", "rental_uris": {"ios": "https://dc.lft.to/lastmile_qr_scan", "android": "https://dc.lft.to/lastmile_qr_scan"}, "fusion_lon": 0.0, "lon": -77.0019705, "name": "09a42c7a1b550fd0cb1dbc7436d55fbd", "is_reserved": 0, "is_disabled": 0}, {"lat": 38.90034266666667, "fusion_lat": 0.0, "type": "electric_scooter", "bike_id": "32952d6b738b03e5ef53bd2af74cf3f0", "rental_uris": {"ios": "https://dc.lft.to/lastmile_qr_scan", "android": "https://dc.lft.to/lastmile_qr_scan"}, "fusion_lon": 0.0, "lon": -77.0020315, "name": "32952d6b738b03e5ef53bd2af74cf3f0", "is_reserved": 0, "is_disabled": 0}, {"lat": 38.943242, "fusion_lat": 0.0, "type": "electric_scooter", "bike_id": "41d0a0a0424197322b63c0a2a1302591", "rental_uris": {"ios": "https://dc.lft.to/lastmile_qr_scan", "android": "https://dc.lft.to/lastmile_qr_scan"}, "fusion_lon": 0.0, "lon": -77.07635433333333, "name": "41d0a0a0424197322b63c0a2a1302591", "is_reserved": 0, "is_disabled": 0}, {"lat": 38.904160166666664, "fusion_lat": 0.0, "type": "electric_scooter", "bike_id": "26bea1a1e66b9497748c13f8155818e3", "rental_uris": {"ios": "https://dc.lft.to/lastmile_qr_scan", "android": "https://dc.lft.to/lastmile_qr_scan"}, "fusion_lon": 0.0, "lon": -77.04658216666667, "name": "26bea1a1e66b9497748c13f8155818e3", "is_reserved": 0, "is_disabled": 0}, {"lat": 38.92459083333333, "fusion_lat": 0.0, "type": "electric_scooter", "bike_id": "0e4645fca6825ccc09876ba7a548fed9", "rental_uris": {"ios": "https://dc.lft.to/lastmile_qr_scan", "android": "https://dc.lft.to/lastmile_qr_scan"}, "fusion_lon": 0.0, "lon": -77.02155766666667, "name": "0e4645fca6825ccc09876ba7a548fed9", "is_reserved": 0, "is_disabled": 0}, {"lat": 38.901985833333335, "fusion_lat": 0.0, "type": "electric_scooter", "bike_id": "4b6deaf0282b08be621c645d0fa31426", "rental_uris": {"ios": "https://dc.lft.to/lastmile_qr_scan", "android": "https://dc.lft.to/lastmile_qr_scan"}, "fusion_lon": 0.0, "lon": -77.02370016666667, "name": "4b6deaf0282b08be621c645d0fa31426", "is_reserved": 0, "is_disabled": 0}, {"lat": 38.906417833333336, "fusion_lat": 0.0, "type": "electric_scooter", "bike_id": "2cff809eb82f98b63b3580805e8756e4", "rental_uris": {"ios": "https://dc.lft.to/lastmile_qr_scan", "android": "https://dc.lft.to/lastmile_qr_scan"}, "fusion_lon": 0.0, "lon": -77.00604416666667, "name": "2cff809eb82f98b63b3580805e8756e4", "is_reserved": 0, "is_disabled": 0}, {"lat": 38.918139, "fusion_lat": 0.0, "type": "electric_scooter", "bike_id": "0bf3e77a8fdaee179510322e431bfbff", "rental_uris": {"ios": "https://dc.lft.to/lastmile_qr_scan", "android": "https://dc.lft.to/lastmile_qr_scan"}, "fusion_lon": 0.0, "lon": -77.03456133333333, "name": "0bf3e77a8fdaee179510322e431bfbff", "is_reserved": 0, "is_disabled": 0}, {"lat": 38.901174166666664, "fusion_lat": 0.0, "type": "electric_scooter", "bike_id": "6502207f38d0fbad5f3fb42afb1af293", "rental_uris": {"ios": "https://dc.lft.to/lastmile_qr_scan", "android": "https://dc.lft.to/lastmile_qr_scan"}, "fusion_lon": 0.0, "lon": -77.02734116666667, "name": "6502207f38d0fbad5f3fb42afb1af293", "is_reserved": 0, "is_disabled": 0}, {"lat": 38.917857166666664, "fusion_lat": 0.0, "type": "electric_scooter", "bike_id": "831d18d70809bc0f92a57d0a16608967", "rental_uris": {"ios": "https://dc.lft.to/lastmile_qr_scan", "android": "https://dc.lft.to/lastmile_qr_scan"}, "fusion_lon": 0.0, "lon": -77.0322145, "name": "831d18d70809bc0f92a57d0a16608967", "is_reserved": 0, "is_disabled": 0}, {"lat": 38.89713066666667, "fusion_lat": 0.0, "type": "electric_scooter", "bike_id": "8ecbfbfe34f074e9a26cde2503e32c38", "rental_uris": {"ios": "https://dc.lft.to/lastmile_qr_scan", "android": "https://dc.lft.to/lastmile_qr_scan"}, "fusion_lon": 0.0, "lon": -77.00794366666666, "name": "8ecbfbfe34f074e9a26cde2503e32c38", "is_reserved": 0, "is_disabled": 0}, {"lat": 38.945005, "fusion_lat": 0.0, "type": "electric_scooter", "bike_id": "1b65da6053b831e1021c7a76a54319bf", "rental_uris": {"ios": "https://dc.lft.to/lastmile_qr_scan", "android": "https://dc.lft.to/lastmile_qr_scan"}, "fusion_lon": 0.0, "lon": -77.03835633333334, "name": "1b65da6053b831e1021c7a76a54319bf", "is_reserved": 0, "is_disabled": 0}, {"lat": 38.973494333333335, "fusion_lat": 0.0, "type": "electric_scooter", "bike_id": "bb3e6c65cff43bcf10da537e916eb9a8", "rental_uris": {"ios": "https://dc.lft.to/lastmile_qr_scan", "android": "https://dc.lft.to/lastmile_qr_scan"}, "fusion_lon": 0.0, "lon": -77.02788916666667, "name": "bb3e6c65cff43bcf10da537e916eb9a8", "is_reserved": 0, "is_disabled": 0}, {"lat": 38.91174633333333, "fusion_lat": 0.0, "type": "electric_scooter", "bike_id": "88ea3b138b2405c53e20830530b8bddc", "rental_uris": {"ios": "https://dc.lft.to/lastmile_qr_scan", "android": "https://dc.lft.to/lastmile_qr_scan"}, "fusion_lon": 0.0, "lon": -77.031921, "name": "88ea3b138b2405c53e20830530b8bddc", "is_reserved": 0, "is_disabled": 0}, {"lat": 38.90833633333333, "fusion_lat": 0.0, "type": "electric_scooter", "bike_id": "a46384873a83e96047bbe9109a764cfe", "rental_uris": {"ios": "https://dc.lft.to/lastmile_qr_scan", "android": "https://dc.lft.to/lastmile_qr_scan"}, "fusion_lon": 0.0, "lon": -77.06393066666666, "name": "a46384873a83e96047bbe9109a764cfe", "is_reserved": 0, "is_disabled": 0}, {"lat": 38.907277, "fusion_lat": 0.0, "type": "electric_scooter", "bike_id": "904f2dc537fb1ae24b8dcd6d670f8eaf", "rental_uris": {"ios": "https://dc.lft.to/lastmile_qr_scan", "android": "https://dc.lft.to/lastmile_qr_scan"}, "fusion_lon": 0.0, "lon": -77.042959, "name": "904f2dc537fb1ae24b8dcd6d670f8eaf", "is_reserved": 0, "is_disabled": 0}, {"lat": 38.89837083333333, "fusion_lat": 0.0, "type": "electric_scooter", "bike_id": "926db85c4596e7bbf05fd2bc8e686b9b", "rental_uris": {"ios": "https://dc.lft.to/lastmile_qr_scan", "android": "https://dc.lft.to/lastmile_qr_scan"}, "fusion_lon": 0.0, "lon": -77.00748416666667, "name": "926db85c4596e7bbf05fd2bc8e686b9b", "is_reserved": 0, "is_disabled": 0}, {"lat": 38.9103975, "fusion_lat": 0.0, "type": "electric_scooter", "bike_id": "37a388f0876aa7857409bd7702838edd", "rental_uris": {"ios": "https://dc.lft.to/lastmile_qr_scan", "android": "https://dc.lft.to/lastmile_qr_scan"}, "fusion_lon": 0.0, "lon": -77.02820083333333, "name": "37a388f0876aa7857409bd7702838edd", "is_reserved": 0, "is_disabled": 0}, {"lat": 38.9345175, "fusion_lat": 0.0, "type": "electric_scooter", "bike_id": "28c75006010a985386ae70e7256266bc", "rental_uris": {"ios": "https://dc.lft.to/lastmile_qr_scan", "android": "https://dc.lft.to/lastmile_qr_scan"}, "fusion_lon": 0.0, "lon": -77.02916416666666, "name": "28c75006010a985386ae70e7256266bc", "is_reserved": 0, "is_disabled": 0}, {"lat": 38.897051833333336, "fusion_lat": 0.0, "type": "electric_scooter", "bike_id": "d0b64ae9292c22f822f48f234eeba448", "rental_uris": {"ios": "https://dc.lft.to/lastmile_qr_scan", "android": "https://dc.lft.to/lastmile_qr_scan"}, "fusion_lon": 0.0, "lon": -76.93577016666667, "name": "d0b64ae9292c22f822f48f234eeba448", "is_reserved": 0, "is_disabled": 0}, {"lat": 38.98042933333333, "fusion_lat": 0.0, "type": "electric_bike", "bike_id": "da33d1741eb206f334e7dfd67151dee3", "rental_uris": {"ios": "https://dc.lft.to/lastmile_qr_scan", "android": "https://dc.lft.to/lastmile_qr_scan"}, "fusion_lon": 0.0, "lon": -76.9579255, "name": "da33d1741eb206f334e7dfd67151dee3", "is_reserved": 0, "is_disabled": 0}, {"lat": 38.916053833333336, "fusion_lat": 0.0, "type": "electric_scooter", "bike_id": "c746d3613bff8dd62dce1098b64c4c78", "rental_uris": {"ios": "https://dc.lft.to/lastmile_qr_scan", "android": "https://dc.lft.to/lastmile_qr_scan"}, "fusion_lon": 0.0, "lon": -77.03210633333333, "name": "c746d3613bff8dd62dce1098b64c4c78", "is_reserved": 0, "is_disabled": 0}, {"lat": 38.91888566666667, "fusion_lat": 0.0, "type": "electric_scooter", "bike_id": "764107f2181929db1706d5251d9b8759", "rental_uris": {"ios": "https://dc.lft.to/lastmile_qr_scan", "android": "https://dc.lft.to/lastmile_qr_scan"}, "fusion_lon": 0.0, "lon": -77.012257, "name": "764107f2181929db1706d5251d9b8759", "is_reserved": 0, "is_disabled": 0}, {"lat": 38.90492033333334, "fusion_lat": 0.0, "type": "electric_scooter", "bike_id": "8d606feb12f1316b10647914b5b2c071", "rental_uris": {"ios": "https://dc.lft.to/lastmile_qr_scan", "android": "https://dc.lft.to/lastmile_qr_scan"}, "fusion_lon": 0.0, "lon": -77.02959883333334, "name": "8d606feb12f1316b10647914b5b2c071", "is_reserved": 0, "is_disabled": 0}, {"lat": 38.963921, "fusion_lat": 0.0, "type": "electric_scooter", "bike_id": "d887e6fa08792cd59653f990ff1036e9", "rental_uris": {"ios": "https://dc.lft.to/lastmile_qr_scan", "android": "https://dc.lft.to/lastmile_qr_scan"}, "fusion_lon": 0.0, "lon": -77.0259455, "name": "d887e6fa08792cd59653f990ff1036e9", "is_reserved": 0, "is_disabled": 0}, {"lat": 38.9173895, "fusion_lat": 0.0, "type": "electric_scooter", "bike_id": "0f4d5ac67fa97d8130533ecfa2d17503", "rental_uris": {"ios": "https://dc.lft.to/lastmile_qr_scan", "android": "https://dc.lft.to/lastmile_qr_scan"}, "fusion_lon": 0.0, "lon": -77.03209666666666, "name": "0f4d5ac67fa97d8130533ecfa2d17503", "is_reserved": 0, "is_disabled": 0}, {"lat": 38.928363833333336, "fusion_lat": 0.0, "type": "electric_scooter", "bike_id": "223aee081be9a08c100a82695697ab69", "rental_uris": {"ios": "https://dc.lft.to/lastmile_qr_scan", "android": "https://dc.lft.to/lastmile_qr_scan"}, "fusion_lon": 0.0, "lon": -77.037071, "name": "223aee081be9a08c100a82695697ab69", "is_reserved": 0, "is_disabled": 0}, {"lat": 38.90047533333333, "fusion_lat": 0.0, "type": "electric_scooter", "bike_id": "4133404aa00a04f42caeae851f588cd2", "rental_uris": {"ios": "https://dc.lft.to/lastmile_qr_scan", "android": "https://dc.lft.to/lastmile_qr_scan"}, "fusion_lon": 0.0, "lon": -77.02629916666666, "name": "4133404aa00a04f42caeae851f588cd2", "is_reserved": 0, "is_disabled": 0}, {"lat": 38.87654, "fusion_lat": 0.0, "type": "electric_scooter", "bike_id": "9bf8b397d21c4617f80beed1e372c8c5", "rental_uris": {"ios": "https://dc.lft.to/lastmile_qr_scan", "android": "https://dc.lft.to/lastmile_qr_scan"}, "fusion_lon": 0.0, "lon": -77.00074516666666, "name": "9bf8b397d21c4617f80beed1e372c8c5", "is_reserved": 0, "is_disabled": 0}, {"lat": 38.91781833333334, "fusion_lat": 0.0, "type": "electric_scooter", "bike_id": "a0fd5cdb4839ca34e6e67bf9af1f11f8", "rental_uris": {"ios": "https://dc.lft.to/lastmile_qr_scan", "android": "https://dc.lft.to/lastmile_qr_scan"}, "fusion_lon": 0.0, "lon": -77.03646433333333, "name": "a0fd5cdb4839ca34e6e67bf9af1f11f8", "is_reserved": 0, "is_disabled": 0}, {"lat": 38.96140283333333, "fusion_lat": 0.0, "type": "electric_scooter", "bike_id": "ed6665fb2d0cca62ee038092d87034ed", "rental_uris": {"ios": "https://dc.lft.to/lastmile_qr_scan", "android": "https://dc.lft.to/lastmile_qr_scan"}, "fusion_lon": 0.0, "lon": -77.027985, "name": "ed6665fb2d0cca62ee038092d87034ed", "is_reserved": 0, "is_disabled": 0}, {"lat": 38.896208333333334, "fusion_lat": 0.0, "type": "electric_scooter", "bike_id": "819a6c3f454a5f62d17601a4c0bb74f6", "rental_uris": {"ios": "https://dc.lft.to/lastmile_qr_scan", "android": "https://dc.lft.to/lastmile_qr_scan"}, "fusion_lon": 0.0, "lon": -77.02964833333333, "name": "819a6c3f454a5f62d17601a4c0bb74f6", "is_reserved": 0, "is_disabled": 0}, {"lat": 38.89930283333333, "fusion_lat": 0.0, "type": "electric_scooter", "bike_id": "de76562fc40432afdc4e273c83aeb7a5", "rental_uris": {"ios": "https://dc.lft.to/lastmile_qr_scan", "android": "https://dc.lft.to/lastmile_qr_scan"}, "fusion_lon": 0.0, "lon": -77.01270216666667, "name": "de76562fc40432afdc4e273c83aeb7a5", "is_reserved": 0, "is_disabled": 0}, {"lat": 38.907664833333335, "fusion_lat": 0.0, "type": "electric_scooter", "bike_id": "fa913e87767ec984449dbbca4d51f05c", "rental_uris": {"ios": "https://dc.lft.to/lastmile_qr_scan", "android": "https://dc.lft.to/lastmile_qr_scan"}, "fusion_lon": 0.0, "lon": -77.04245883333333, "name": "fa913e87767ec984449dbbca4d51f05c", "is_reserved": 0, "is_disabled": 0}, {"lat": 38.9275435, "fusion_lat": 0.0, "type": "electric_scooter", "bike_id": "71dc89b6f78f2b2f8d669bc2fa9a0d3d", "rental_uris": {"ios": "https://dc.lft.to/lastmile_qr_scan", "android": "https://dc.lft.to/lastmile_qr_scan"}, "fusion_lon": 0.0, "lon": -77.03274033333334, "name": "71dc89b6f78f2b2f8d669bc2fa9a0d3d", "is_reserved": 0, "is_disabled": 0}, {"lat": 38.96609866666667, "fusion_lat": 0.0, "type": "electric_scooter", "bike_id": "82483f2807d1c7c434bac26f42739b4b", "rental_uris": {"ios": "https://dc.lft.to/lastmile_qr_scan", "android": "https://dc.lft.to/lastmile_qr_scan"}, "fusion_lon": 0.0, "lon": -77.0274345, "name": "82483f2807d1c7c434bac26f42739b4b", "is_reserved": 0, "is_disabled": 0}, {"lat": 38.8930065, "fusion_lat": 0.0, "type": "electric_scooter", "bike_id": "497f1bd40ef654e7bf96e85f21713d59", "rental_uris": {"ios": "https://dc.lft.to/lastmile_qr_scan", "android": "https://dc.lft.to/lastmile_qr_scan"}, "fusion_lon": 0.0, "lon": -77.01240016666667, "name": "497f1bd40ef654e7bf96e85f21713d59", "is_reserved": 0, "is_disabled": 0}, {"lat": 38.90566833333333, "fusion_lat": 0.0, "type": "electric_scooter", "bike_id": "cf86d0340c551cc5ca0c945822c34f3e", "rental_uris": {"ios": "https://dc.lft.to/lastmile_qr_scan", "android": "https://dc.lft.to/lastmile_qr_scan"}, "fusion_lon": 0.0, "lon": -77.00702216666667, "name": "cf86d0340c551cc5ca0c945822c34f3e", "is_reserved": 0, "is_disabled": 0}, {"lat": 38.906631833333336, "fusion_lat": 0.0, "type": "electric_scooter", "bike_id": "0423c4f3c0cfae4edb9746d19cc9b96c", "rental_uris": {"ios": "https://dc.lft.to/lastmile_qr_scan", "android": "https://dc.lft.to/lastmile_qr_scan"}, "fusion_lon": 0.0, "lon": -76.98948033333333, "name": "0423c4f3c0cfae4edb9746d19cc9b96c", "is_reserved": 0, "is_disabled": 0}, {"lat": 38.91115466666667, "fusion_lat": 0.0, "type": "electric_scooter", "bike_id": "d09b86b83248251d9a60cbea3b8cf05a", "rental_uris": {"ios": "https://dc.lft.to/lastmile_qr_scan", "android": "https://dc.lft.to/lastmile_qr_scan"}, "fusion_lon": 0.0, "lon": -77.0298265, "name": "d09b86b83248251d9a60cbea3b8cf05a", "is_reserved": 0, "is_disabled": 0}, {"lat": 38.938471166666666, "fusion_lat": 0.0, "type": "electric_scooter", "bike_id": "3e8588dfadae9a1cccacbe1eb830cefa", "rental_uris": {"ios": "https://dc.lft.to/lastmile_qr_scan", "android": "https://dc.lft.to/lastmile_qr_scan"}, "fusion_lon": 0.0, "lon": -77.07231433333334, "name": "3e8588dfadae9a1cccacbe1eb830cefa", "is_reserved": 0, "is_disabled": 0}, {"lat": 38.93537633333333, "fusion_lat": 0.0, "type": "electric_scooter", "bike_id": "35eb60275c39c686d272bc0bd753cb2f", "rental_uris": {"ios": "https://dc.lft.to/lastmile_qr_scan", "android": "https://dc.lft.to/lastmile_qr_scan"}, "fusion_lon": 0.0, "lon": -77.0574385, "name": "35eb60275c39c686d272bc0bd753cb2f", "is_reserved": 0, "is_disabled": 0}, {"lat": 38.837908, "fusion_lat": 0.0, "type": "electric_scooter", "bike_id": "fa98fd039591e8e460fab83a18e2d4d4", "rental_uris": {"ios": "https://dc.lft.to/lastmile_qr_scan", "android": "https://dc.lft.to/lastmile_qr_scan"}, "fusion_lon": 0.0, "lon": -77.00446383333333, "name": "fa98fd039591e8e460fab83a18e2d4d4", "is_reserved": 0, "is_disabled": 0}, {"lat": 38.91885383333333, "fusion_lat": 0.0, "type": "electric_scooter", "bike_id": "e6c1388778f1a53688bacb66fdd78517", "rental_uris": {"ios": "https://dc.lft.to/lastmile_qr_scan", "android": "https://dc.lft.to/lastmile_qr_scan"}, "fusion_lon": 0.0, "lon": -77.02184283333334, "name": "e6c1388778f1a53688bacb66fdd78517", "is_reserved": 0, "is_disabled": 0}, {"lat": 38.922388166666664, "fusion_lat": 0.0, "type": "electric_scooter", "bike_id": "6e75599914842c7409daf0463b75830d", "rental_uris": {"ios": "https://dc.lft.to/lastmile_qr_scan", "android": "https://dc.lft.to/lastmile_qr_scan"}, "fusion_lon": 0.0, "lon": -77.02198733333333, "name": "6e75599914842c7409daf0463b75830d", "is_reserved": 0, "is_disabled": 0}, {"lat": 38.99660333333333, "fusion_lat": 0.0, "type": "electric_bike", "bike_id": "b3566ad843634e95582277a9854b72e7", "rental_uris": {"ios": "https://dc.lft.to/lastmile_qr_scan", "android": "https://dc.lft.to/lastmile_qr_scan"}, "fusion_lon": 0.0, "lon": -77.04282066666667, "name": "b3566ad843634e95582277a9854b72e7", "is_reserved": 0, "is_disabled": 0}, {"lat": 38.97371666666667, "fusion_lat": 0.0, "type": "electric_scooter", "bike_id": "652079c3338915e1472399ed92090dc9", "rental_uris": {"ios": "https://dc.lft.to/lastmile_qr_scan", "android": "https://dc.lft.to/lastmile_qr_scan"}, "fusion_lon": 0.0, "lon": -77.01271983333334, "name": "652079c3338915e1472399ed92090dc9", "is_reserved": 0, "is_disabled": 0}, {"lat": 38.88013466666666, "fusion_lat": 0.0, "type": "electric_scooter", "bike_id": "e96c4d2599c3dc6cbf707e3ea9a64bf2", "rental_uris": {"ios": "https://dc.lft.to/lastmile_qr_scan", "android": "https://dc.lft.to/lastmile_qr_scan"}, "fusion_lon": 0.0, "lon": -77.02478066666667, "name": "e96c4d2599c3dc6cbf707e3ea9a64bf2", "is_reserved": 0, "is_disabled": 0}, {"lat": 38.9163195, "fusion_lat": 0.0, "type": "electric_scooter", "bike_id": "bfa2e9d6d6a79dc28b635f69982d31dd", "rental_uris": {"ios": "https://dc.lft.to/lastmile_qr_scan", "android": "https://dc.lft.to/lastmile_qr_scan"}, "fusion_lon": 0.0, "lon": -77.03179866666666, "name": "bfa2e9d6d6a79dc28b635f69982d31dd", "is_reserved": 0, "is_disabled": 0}, {"lat": 38.924196, "fusion_lat": 0.0, "type": "electric_scooter", "bike_id": "899c50539924f80ee2323862d00e35e9", "rental_uris": {"ios": "https://dc.lft.to/lastmile_qr_scan", "android": "https://dc.lft.to/lastmile_qr_scan"}, "fusion_lon": 0.0, "lon": -77.01947716666666, "name": "899c50539924f80ee2323862d00e35e9", "is_reserved": 0, "is_disabled": 0}, {"lat": 38.91704933333333, "fusion_lat": 0.0, "type": "electric_scooter", "bike_id": "76860b920a39a3b7dbb18396be6cc700", "rental_uris": {"ios": "https://dc.lft.to/lastmile_qr_scan", "android": "https://dc.lft.to/lastmile_qr_scan"}, "fusion_lon": 0.0, "lon": -77.02778783333333, "name": "76860b920a39a3b7dbb18396be6cc700", "is_reserved": 0, "is_disabled": 0}, {"lat": 38.909872166666666, "fusion_lat": 0.0, "type": "electric_scooter", "bike_id": "a8c086598ed32d11553741354cabd423", "rental_uris": {"ios": "https://dc.lft.to/lastmile_qr_scan", "android": "https://dc.lft.to/lastmile_qr_scan"}, "fusion_lon": 0.0, "lon": -77.032097, "name": "a8c086598ed32d11553741354cabd423", "is_reserved": 0, "is_disabled": 0}, {"lat": 38.90278033333333, "fusion_lat": 0.0, "type": "electric_scooter", "bike_id": "9d765ac63967082b21b64de35e621eec", "rental_uris": {"ios": "https://dc.lft.to/lastmile_qr_scan", "android": "https://dc.lft.to/lastmile_qr_scan"}, "fusion_lon": 0.0, "lon": -77.02277483333333, "name": "9d765ac63967082b21b64de35e621eec", "is_reserved": 0, "is_disabled": 0}, {"lat": 38.9169665, "fusion_lat": 0.0, "type": "electric_scooter", "bike_id": "1251445e8c6239cb981731c12ceda60e", "rental_uris": {"ios": "https://dc.lft.to/lastmile_qr_scan", "android": "https://dc.lft.to/lastmile_qr_scan"}, "fusion_lon": 0.0, "lon": -77.0418815, "name": "1251445e8c6239cb981731c12ceda60e", "is_reserved": 0, "is_disabled": 0}, {"lat": 38.900032833333334, "fusion_lat": 0.0, "type": "electric_scooter", "bike_id": "a0f64fb3f558c22307ed5efe0534b878", "rental_uris": {"ios": "https://dc.lft.to/lastmile_qr_scan", "android": "https://dc.lft.to/lastmile_qr_scan"}, "fusion_lon": 0.0, "lon": -77.04127033333333, "name": "a0f64fb3f558c22307ed5efe0534b878", "is_reserved": 0, "is_disabled": 0}, {"lat": 38.92796216666667, "fusion_lat": 0.0, "type": "electric_scooter", "bike_id": "855a7871e3ca68ec6845ba661cd8fc82", "rental_uris": {"ios": "https://dc.lft.to/lastmile_qr_scan", "android": "https://dc.lft.to/lastmile_qr_scan"}, "fusion_lon": 0.0, "lon": -77.02211416666667, "name": "855a7871e3ca68ec6845ba661cd8fc82", "is_reserved": 0, "is_disabled": 0}, {"lat": 38.923312333333335, "fusion_lat": 0.0, "type": "electric_bike", "bike_id": "58086a83ca45f88b1924b58394e54314", "rental_uris": {"ios": "https://dc.lft.to/lastmile_qr_scan", "android": "https://dc.lft.to/lastmile_qr_scan"}, "fusion_lon": 0.0, "lon": -77.02434516666666, "name": "58086a83ca45f88b1924b58394e54314", "is_reserved": 0, "is_disabled": 0}, {"lat": 38.894345333333334, "fusion_lat": 0.0, "type": "electric_scooter", "bike_id": "371eae84c319f5dedfc284e5d7f91d57", "rental_uris": {"ios": "https://dc.lft.to/lastmile_qr_scan", "android": "https://dc.lft.to/lastmile_qr_scan"}, "fusion_lon": 0.0, "lon": -76.94986733333333, "name": "371eae84c319f5dedfc284e5d7f91d57", "is_reserved": 0, "is_disabled": 0}, {"lat": 38.91804066666667, "fusion_lat": 0.0, "type": "electric_scooter", "bike_id": "08256bda70c3dfc08a78a2f1d8faff2f", "rental_uris": {"ios": "https://dc.lft.to/lastmile_qr_scan", "android": "https://dc.lft.to/lastmile_qr_scan"}, "fusion_lon": 0.0, "lon": -77.02979283333333, "name": "08256bda70c3dfc08a78a2f1d8faff2f", "is_reserved": 0, "is_disabled": 0}, {"lat": 38.90816266666667, "fusion_lat": 0.0, "type": "electric_scooter", "bike_id": "e8bf368c343e47d000e982f57bb1ed7d", "rental_uris": {"ios": "https://dc.lft.to/lastmile_qr_scan", "android": "https://dc.lft.to/lastmile_qr_scan"}, "fusion_lon": 0.0, "lon": -77.03466283333333, "name": "e8bf368c343e47d000e982f57bb1ed7d", "is_reserved": 0, "is_disabled": 0}, {"lat": 38.92236483333333, "fusion_lat": 0.0, "type": "electric_scooter", "bike_id": "65408f422b7c4ca3ce67dfa9214fbae1", "rental_uris": {"ios": "https://dc.lft.to/lastmile_qr_scan", "android": "https://dc.lft.to/lastmile_qr_scan"}, "fusion_lon": 0.0, "lon": -77.03523916666667, "name": "65408f422b7c4ca3ce67dfa9214fbae1", "is_reserved": 0, "is_disabled": 0}, {"lat": 38.8324515, "fusion_lat": 0.0, "type": "electric_bike", "bike_id": "6bec827f4a52fb4a6acb9ff8d38857aa", "rental_uris": {"ios": "https://dc.lft.to/lastmile_qr_scan", "android": "https://dc.lft.to/lastmile_qr_scan"}, "fusion_lon": 0.0, "lon": -77.00726533333334, "name": "6bec827f4a52fb4a6acb9ff8d38857aa", "is_reserved": 0, "is_disabled": 0}, {"lat": 38.9067445, "fusion_lat": 0.0, "type": "electric_scooter", "bike_id": "368ad983e47d6d4dcd5be543987a0d37", "rental_uris": {"ios": "https://dc.lft.to/lastmile_qr_scan", "android": "https://dc.lft.to/lastmile_qr_scan"}, "fusion_lon": 0.0, "lon": -77.03824483333334, "name": "368ad983e47d6d4dcd5be543987a0d37", "is_reserved": 0, "is_disabled": 0}, {"lat": 38.947343333333336, "fusion_lat": 0.0, "type": "electric_scooter", "bike_id": "901c4859c08521f2efa6b740b5397a44", "rental_uris": {"ios": "https://dc.lft.to/lastmile_qr_scan", "android": "https://dc.lft.to/lastmile_qr_scan"}, "fusion_lon": 0.0, "lon": -77.01618716666667, "name": "901c4859c08521f2efa6b740b5397a44", "is_reserved": 0, "is_disabled": 0}, {"lat": 38.91340833333334, "fusion_lat": 0.0, "type": "electric_scooter", "bike_id": "21eaf7b46809964f80004c9f3811ba19", "rental_uris": {"ios": "https://dc.lft.to/lastmile_qr_scan", "android": "https://dc.lft.to/lastmile_qr_scan"}, "fusion_lon": 0.0, "lon": -77.02387716666667, "name": "21eaf7b46809964f80004c9f3811ba19", "is_reserved": 0, "is_disabled": 0}, {"lat": 38.91152016666667, "fusion_lat": 0.0, "type": "electric_scooter", "bike_id": "78b5038cc75a1c9a620866512ae3bf7b", "rental_uris": {"ios": "https://dc.lft.to/lastmile_qr_scan", "android": "https://dc.lft.to/lastmile_qr_scan"}, "fusion_lon": 0.0, "lon": -77.034639, "name": "78b5038cc75a1c9a620866512ae3bf7b", "is_reserved": 0, "is_disabled": 0}, {"lat": 38.92281766666667, "fusion_lat": 0.0, "type": "electric_scooter", "bike_id": "9f6f36475b92f0cb1f6fd39d1d2205f6", "rental_uris": {"ios": "https://dc.lft.to/lastmile_qr_scan", "android": "https://dc.lft.to/lastmile_qr_scan"}, "fusion_lon": 0.0, "lon": -77.03665433333333, "name": "9f6f36475b92f0cb1f6fd39d1d2205f6", "is_reserved": 0, "is_disabled": 0}, {"lat": 38.90732766666667, "fusion_lat": 0.0, "type": "electric_scooter", "bike_id": "d03cf8a7d83fb86780cc1fcc23b35ad8", "rental_uris": {"ios": "https://dc.lft.to/lastmile_qr_scan", "android": "https://dc.lft.to/lastmile_qr_scan"}, "fusion_lon": 0.0, "lon": -77.03361333333334, "name": "d03cf8a7d83fb86780cc1fcc23b35ad8", "is_reserved": 0, "is_disabled": 0}, {"lat": 38.90254266666667, "fusion_lat": 0.0, "type": "electric_scooter", "bike_id": "6c3003d9b36a3c891e49cfd470c2b76a", "rental_uris": {"ios": "https://dc.lft.to/lastmile_qr_scan", "android": "https://dc.lft.to/lastmile_qr_scan"}, "fusion_lon": 0.0, "lon": -77.0266205, "name": "6c3003d9b36a3c891e49cfd470c2b76a", "is_reserved": 0, "is_disabled": 0}, {"lat": 38.9162715, "fusion_lat": 0.0, "type": "electric_scooter", "bike_id": "0885cdec554d5649ec11cfe98e31a11d", "rental_uris": {"ios": "https://dc.lft.to/lastmile_qr_scan", "android": "https://dc.lft.to/lastmile_qr_scan"}, "fusion_lon": 0.0, "lon": -77.04807533333333, "name": "0885cdec554d5649ec11cfe98e31a11d", "is_reserved": 0, "is_disabled": 0}, {"lat": 38.89914016666667, "fusion_lat": 0.0, "type": "electric_scooter", "bike_id": "6f996b0f55de4d22e71f7b8f4cfe6612", "rental_uris": {"ios": "https://dc.lft.to/lastmile_qr_scan", "android": "https://dc.lft.to/lastmile_qr_scan"}, "fusion_lon": 0.0, "lon": -76.94547966666667, "name": "6f996b0f55de4d22e71f7b8f4cfe6612", "is_reserved": 0, "is_disabled": 0}, {"lat": 38.9521625, "fusion_lat": 0.0, "type": "electric_scooter", "bike_id": "ab66f8112beb0a3b41da24d6ee5e6d15", "rental_uris": {"ios": "https://dc.lft.to/lastmile_qr_scan", "android": "https://dc.lft.to/lastmile_qr_scan"}, "fusion_lon": 0.0, "lon": -77.0175335, "name": "ab66f8112beb0a3b41da24d6ee5e6d15", "is_reserved": 0, "is_disabled": 0}, {"lat": 38.9082535, "fusion_lat": 0.0, "type": "electric_scooter", "bike_id": "9c546fbc677f0634d0b575836e655f7d", "rental_uris": {"ios": "https://dc.lft.to/lastmile_qr_scan", "android": "https://dc.lft.to/lastmile_qr_scan"}, "fusion_lon": 0.0, "lon": -77.03913566666667, "name": "9c546fbc677f0634d0b575836e655f7d", "is_reserved": 0, "is_disabled": 0}, {"lat": 38.923787833333336, "fusion_lat": 0.0, "type": "electric_scooter", "bike_id": "6efb42de47bcc1c329c2410385fe5a73", "rental_uris": {"ios": "https://dc.lft.to/lastmile_qr_scan", "android": "https://dc.lft.to/lastmile_qr_scan"}, "fusion_lon": 0.0, "lon": -77.0356925, "name": "6efb42de47bcc1c329c2410385fe5a73", "is_reserved": 0, "is_disabled": 0}, {"lat": 38.907669, "fusion_lat": 0.0, "type": "electric_scooter", "bike_id": "dfe0d673f2515fc364bf6cf0dcdeb35a", "rental_uris": {"ios": "https://dc.lft.to/lastmile_qr_scan", "android": "https://dc.lft.to/lastmile_qr_scan"}, "fusion_lon": 0.0, "lon": -77.04348216666666, "name": "dfe0d673f2515fc364bf6cf0dcdeb35a", "is_reserved": 0, "is_disabled": 0}, {"lat": 38.908079, "fusion_lat": 0.0, "type": "electric_scooter", "bike_id": "1101ff9b7a4122348c44f3a7621c3170", "rental_uris": {"ios": "https://dc.lft.to/lastmile_qr_scan", "android": "https://dc.lft.to/lastmile_qr_scan"}, "fusion_lon": 0.0, "lon": -77.03464616666666, "name": "1101ff9b7a4122348c44f3a7621c3170", "is_reserved": 0, "is_disabled": 0}, {"lat": 38.87341166666667, "fusion_lat": 0.0, "type": "electric_scooter", "bike_id": "8e78c0bc227600dd254c602304f9a0f0", "rental_uris": {"ios": "https://dc.lft.to/lastmile_qr_scan", "android": "https://dc.lft.to/lastmile_qr_scan"}, "fusion_lon": 0.0, "lon": -76.991649, "name": "8e78c0bc227600dd254c602304f9a0f0", "is_reserved": 0, "is_disabled": 0}, {"lat": 38.84275016666667, "fusion_lat": 0.0, "type": "electric_bike", "bike_id": "1af5f385a593b27d1c9e32f6d059838b", "rental_uris": {"ios": "https://dc.lft.to/lastmile_qr_scan", "android": "https://dc.lft.to/lastmile_qr_scan"}, "fusion_lon": 0.0, "lon": -76.98840966666667, "name": "1af5f385a593b27d1c9e32f6d059838b", "is_reserved": 0, "is_disabled": 0}, {"lat": 38.91920483333333, "fusion_lat": 0.0, "type": "electric_scooter", "bike_id": "2cfdee024e049b6fa81d4973770362da", "rental_uris": {"ios": "https://dc.lft.to/lastmile_qr_scan", "android": "https://dc.lft.to/lastmile_qr_scan"}, "fusion_lon": 0.0, "lon": -77.02491716666667, "name": "2cfdee024e049b6fa81d4973770362da", "is_reserved": 0, "is_disabled": 0}, {"lat": 38.923172666666666, "fusion_lat": 0.0, "type": "electric_scooter", "bike_id": "02588bea7ebdf68f260e585d9622412f", "rental_uris": {"ios": "https://dc.lft.to/lastmile_qr_scan", "android": "https://dc.lft.to/lastmile_qr_scan"}, "fusion_lon": 0.0, "lon": -77.029037, "name": "02588bea7ebdf68f260e585d9622412f", "is_reserved": 0, "is_disabled": 0}, {"lat": 38.95744, "fusion_lat": 0.0, "type": "electric_scooter", "bike_id": "bfe5192627a9761bcfa796527302e848", "rental_uris": {"ios": "https://dc.lft.to/lastmile_qr_scan", "android": "https://dc.lft.to/lastmile_qr_scan"}, "fusion_lon": 0.0, "lon": -77.00227283333334, "name": "bfe5192627a9761bcfa796527302e848", "is_reserved": 0, "is_disabled": 0}, {"lat": 38.914684666666666, "fusion_lat": 0.0, "type": "electric_scooter", "bike_id": "850a53f41b4633716f0f5077eb3b8ade", "rental_uris": {"ios": "https://dc.lft.to/lastmile_qr_scan", "android": "https://dc.lft.to/lastmile_qr_scan"}, "fusion_lon": 0.0, "lon": -77.015544, "name": "850a53f41b4633716f0f5077eb3b8ade", "is_reserved": 0, "is_disabled": 0}, {"lat": 38.918166166666666, "fusion_lat": 0.0, "type": "electric_scooter", "bike_id": "95c9cfb11e2b6a4d7671e8c4b04e550d", "rental_uris": {"ios": "https://dc.lft.to/lastmile_qr_scan", "android": "https://dc.lft.to/lastmile_qr_scan"}, "fusion_lon": 0.0, "lon": -77.041822, "name": "95c9cfb11e2b6a4d7671e8c4b04e550d", "is_reserved": 0, "is_disabled": 0}, {"lat": 38.873686666666664, "fusion_lat": 0.0, "type": "electric_scooter", "bike_id": "eca74d17c35097db34ae1c58f2fb32ed", "rental_uris": {"ios": "https://dc.lft.to/lastmile_qr_scan", "android": "https://dc.lft.to/lastmile_qr_scan"}, "fusion_lon": 0.0, "lon": -77.00170233333333, "name": "eca74d17c35097db34ae1c58f2fb32ed", "is_reserved": 0, "is_disabled": 0}, {"lat": 38.92097016666666, "fusion_lat": 0.0, "type": "electric_scooter", "bike_id": "92eab8f9c2877a2540073ccc7ddea5de", "rental_uris": {"ios": "https://dc.lft.to/lastmile_qr_scan", "android": "https://dc.lft.to/lastmile_qr_scan"}, "fusion_lon": 0.0, "lon": -77.02214033333334, "name": "92eab8f9c2877a2540073ccc7ddea5de", "is_reserved": 0, "is_disabled": 0}, {"lat": 38.850812833333336, "fusion_lat": 0.0, "type": "electric_bike", "bike_id": "14ab24476e42ba31e7fa7a2ac96166a6", "rental_uris": {"ios": "https://dc.lft.to/lastmile_qr_scan", "android": "https://dc.lft.to/lastmile_qr_scan"}, "fusion_lon": 0.0, "lon": -76.95709266666667, "name": "14ab24476e42ba31e7fa7a2ac96166a6", "is_reserved": 0, "is_disabled": 0}, {"lat": 38.88733283333333, "fusion_lat": 0.0, "type": "electric_scooter", "bike_id": "5dc53da60726be83bd837988862c4ae4", "rental_uris": {"ios": "https://dc.lft.to/lastmile_qr_scan", "android": "https://dc.lft.to/lastmile_qr_scan"}, "fusion_lon": 0.0, "lon": -77.01532316666666, "name": "5dc53da60726be83bd837988862c4ae4", "is_reserved": 0, "is_disabled": 0}, {"lat": 38.91708583333333, "fusion_lat": 0.0, "type": "electric_scooter", "bike_id": "baca9fc502b3f5c95f27aeaaa4572601", "rental_uris": {"ios": "https://dc.lft.to/lastmile_qr_scan", "android": "https://dc.lft.to/lastmile_qr_scan"}, "fusion_lon": 0.0, "lon": -77.025013, "name": "baca9fc502b3f5c95f27aeaaa4572601", "is_reserved": 0, "is_disabled": 0}, {"lat": 38.92617583333333, "fusion_lat": 0.0, "type": "electric_scooter", "bike_id": "c34e9a40846dba9c92c36c4e887cc2f3", "rental_uris": {"ios": "https://dc.lft.to/lastmile_qr_scan", "android": "https://dc.lft.to/lastmile_qr_scan"}, "fusion_lon": 0.0, "lon": -77.041996, "name": "c34e9a40846dba9c92c36c4e887cc2f3", "is_reserved": 0, "is_disabled": 0}, {"lat": 38.8988775, "fusion_lat": 0.0, "type": "electric_scooter", "bike_id": "7cd52f753755498ee8429271c8155899", "rental_uris": {"ios": "https://dc.lft.to/lastmile_qr_scan", "android": "https://dc.lft.to/lastmile_qr_scan"}, "fusion_lon": 0.0, "lon": -77.04344066666667, "name": "7cd52f753755498ee8429271c8155899", "is_reserved": 0, "is_disabled": 0}, {"lat": 38.89805783333333, "fusion_lat": 0.0, "type": "electric_scooter", "bike_id": "c84eab52694ba7b791208fad9ed5a9f7", "rental_uris": {"ios": "https://dc.lft.to/lastmile_qr_scan", "android": "https://dc.lft.to/lastmile_qr_scan"}, "fusion_lon": 0.0, "lon": -77.0315245, "name": "c84eab52694ba7b791208fad9ed5a9f7", "is_reserved": 0, "is_disabled": 0}, {"lat": 38.9644065, "fusion_lat": 0.0, "type": "electric_scooter", "bike_id": "615c4c23bb55ce0c043073d276da54a1", "rental_uris": {"ios": "https://dc.lft.to/lastmile_qr_scan", "android": "https://dc.lft.to/lastmile_qr_scan"}, "fusion_lon": 0.0, "lon": -77.019968, "name": "615c4c23bb55ce0c043073d276da54a1", "is_reserved": 0, "is_disabled": 0}, {"lat": 38.921493166666664, "fusion_lat": 0.0, "type": "electric_scooter", "bike_id": "b1745e3a12610bc7023d073012ecb236", "rental_uris": {"ios": "https://dc.lft.to/lastmile_qr_scan", "android": "https://dc.lft.to/lastmile_qr_scan"}, "fusion_lon": 0.0, "lon": -77.0346175, "name": "b1745e3a12610bc7023d073012ecb236", "is_reserved": 0, "is_disabled": 0}, {"lat": 38.901464833333335, "fusion_lat": 0.0, "type": "electric_scooter", "bike_id": "e41aa6f7e9c71feb26fb0f2dd00deda8", "rental_uris": {"ios": "https://dc.lft.to/lastmile_qr_scan", "android": "https://dc.lft.to/lastmile_qr_scan"}, "fusion_lon": 0.0, "lon": -76.97427716666667, "name": "e41aa6f7e9c71feb26fb0f2dd00deda8", "is_reserved": 0, "is_disabled": 0}, {"lat": 38.89627866666667, "fusion_lat": 0.0, "type": "electric_scooter", "bike_id": "bee463d9871b727aa1bcc81940c40d43", "rental_uris": {"ios": "https://dc.lft.to/lastmile_qr_scan", "android": "https://dc.lft.to/lastmile_qr_scan"}, "fusion_lon": 0.0, "lon": -77.02692683333333, "name": "bee463d9871b727aa1bcc81940c40d43", "is_reserved": 0, "is_disabled": 0}, {"lat": 38.91987566666667, "fusion_lat": 0.0, "type": "electric_scooter", "bike_id": "9cb37c0121b9b481e49b9117c251c080", "rental_uris": {"ios": "https://dc.lft.to/lastmile_qr_scan", "android": "https://dc.lft.to/lastmile_qr_scan"}, "fusion_lon": 0.0, "lon": -76.97305733333333, "name": "9cb37c0121b9b481e49b9117c251c080", "is_reserved": 0, "is_disabled": 0}, {"lat": 38.897973666666665, "fusion_lat": 0.0, "type": "electric_scooter", "bike_id": "a615cf210ea2b6c5933e7ce63c00e094", "rental_uris": {"ios": "https://dc.lft.to/lastmile_qr_scan", "android": "https://dc.lft.to/lastmile_qr_scan"}, "fusion_lon": 0.0, "lon": -77.04181983333334, "name": "a615cf210ea2b6c5933e7ce63c00e094", "is_reserved": 0, "is_disabled": 0}, {"lat": 38.9079615, "fusion_lat": 0.0, "type": "electric_scooter", "bike_id": "c024ffd74237849f8edcd9ed72b51435", "rental_uris": {"ios": "https://dc.lft.to/lastmile_qr_scan", "android": "https://dc.lft.to/lastmile_qr_scan"}, "fusion_lon": 0.0, "lon": -77.04227516666667, "name": "c024ffd74237849f8edcd9ed72b51435", "is_reserved": 0, "is_disabled": 0}, {"lat": 38.904847, "fusion_lat": 0.0, "type": "electric_scooter", "bike_id": "0c58d037589ba9903a1de1568d34009e", "rental_uris": {"ios": "https://dc.lft.to/lastmile_qr_scan", "android": "https://dc.lft.to/lastmile_qr_scan"}, "fusion_lon": 0.0, "lon": -77.0280575, "name": "0c58d037589ba9903a1de1568d34009e", "is_reserved": 0, "is_disabled": 0}, {"lat": 38.92033466666667, "fusion_lat": 0.0, "type": "electric_scooter", "bike_id": "92e681c48a8e77f8e5a916f6a7593a57", "rental_uris": {"ios": "https://dc.lft.to/lastmile_qr_scan", "android": "https://dc.lft.to/lastmile_qr_scan"}, "fusion_lon": 0.0, "lon": -77.01223483333334, "name": "92e681c48a8e77f8e5a916f6a7593a57", "is_reserved": 0, "is_disabled": 0}, {"lat": 38.88767033333333, "fusion_lat": 0.0, "type": "electric_scooter", "bike_id": "d22a066596fba056873fe49cd3154172", "rental_uris": {"ios": "https://dc.lft.to/lastmile_qr_scan", "android": "https://dc.lft.to/lastmile_qr_scan"}, "fusion_lon": 0.0, "lon": -76.9829515, "name": "d22a066596fba056873fe49cd3154172", "is_reserved": 0, "is_disabled": 0}, {"lat": 38.9159315, "fusion_lat": 0.0, "type": "electric_scooter", "bike_id": "85b7e4b4df549173b73b493ee0a63151", "rental_uris": {"ios": "https://dc.lft.to/lastmile_qr_scan", "android": "https://dc.lft.to/lastmile_qr_scan"}, "fusion_lon": 0.0, "lon": -77.014833, "name": "85b7e4b4df549173b73b493ee0a63151", "is_reserved": 0, "is_disabled": 0}, {"lat": 38.907604, "fusion_lat": 0.0, "type": "electric_scooter", "bike_id": "53c53d391682ede614d80cdeb57a6d80", "rental_uris": {"ios": "https://dc.lft.to/lastmile_qr_scan", "android": "https://dc.lft.to/lastmile_qr_scan"}, "fusion_lon": 0.0, "lon": -77.03586633333333, "name": "53c53d391682ede614d80cdeb57a6d80", "is_reserved": 0, "is_disabled": 0}, {"lat": 38.932177, "fusion_lat": 0.0, "type": "electric_scooter", "bike_id": "a8b2a16b804079e9a8c1a91661026090", "rental_uris": {"ios": "https://dc.lft.to/lastmile_qr_scan", "android": "https://dc.lft.to/lastmile_qr_scan"}, "fusion_lon": 0.0, "lon": -77.03514933333334, "name": "a8b2a16b804079e9a8c1a91661026090", "is_reserved": 0, "is_disabled": 0}, {"lat": 38.87654416666667, "fusion_lat": 0.0, "type": "electric_scooter", "bike_id": "1874be4d8cb3066b1c5bcb5284cffc3f", "rental_uris": {"ios": "https://dc.lft.to/lastmile_qr_scan", "android": "https://dc.lft.to/lastmile_qr_scan"}, "fusion_lon": 0.0, "lon": -77.00289566666666, "name": "1874be4d8cb3066b1c5bcb5284cffc3f", "is_reserved": 0, "is_disabled": 0}, {"lat": 38.8475485, "fusion_lat": 0.0, "type": "electric_scooter", "bike_id": "41c1e4cc0ffd5851d39b175c4405be78", "rental_uris": {"ios": "https://dc.lft.to/lastmile_qr_scan", "android": "https://dc.lft.to/lastmile_qr_scan"}, "fusion_lon": 0.0, "lon": -76.99501583333333, "name": "41c1e4cc0ffd5851d39b175c4405be78", "is_reserved": 0, "is_disabled": 0}, {"lat": 38.898037333333335, "fusion_lat": 0.0, "type": "electric_scooter", "bike_id": "d4bf20327da07c324f6b8971128eaf02", "rental_uris": {"ios": "https://dc.lft.to/lastmile_qr_scan", "android": "https://dc.lft.to/lastmile_qr_scan"}, "fusion_lon": 0.0, "lon": -77.03353066666666, "name": "d4bf20327da07c324f6b8971128eaf02", "is_reserved": 0, "is_disabled": 0}, {"lat": 38.917613, "fusion_lat": 0.0, "type": "electric_scooter", "bike_id": "ebb8e6afedba7339771132bb5b67c0c0", "rental_uris": {"ios": "https://dc.lft.to/lastmile_qr_scan", "android": "https://dc.lft.to/lastmile_qr_scan"}, "fusion_lon": 0.0, "lon": -77.047787, "name": "ebb8e6afedba7339771132bb5b67c0c0", "is_reserved": 0, "is_disabled": 0}, {"lat": 38.893201, "fusion_lat": 0.0, "type": "electric_scooter", "bike_id": "d4e0508cc663cbd96bbdb21387ab59a0", "rental_uris": {"ios": "https://dc.lft.to/lastmile_qr_scan", "android": "https://dc.lft.to/lastmile_qr_scan"}, "fusion_lon": 0.0, "lon": -77.03190483333333, "name": "d4e0508cc663cbd96bbdb21387ab59a0", "is_reserved": 0, "is_disabled": 0}, {"lat": 38.95743916666667, "fusion_lat": 0.0, "type": "electric_scooter", "bike_id": "b3872a8c6a19a00d8a9cbfea65101f1c", "rental_uris": {"ios": "https://dc.lft.to/lastmile_qr_scan", "android": "https://dc.lft.to/lastmile_qr_scan"}, "fusion_lon": 0.0, "lon": -77.00233483333334, "name": "b3872a8c6a19a00d8a9cbfea65101f1c", "is_reserved": 0, "is_disabled": 0}, {"lat": 38.93375533333333, "fusion_lat": 0.0, "type": "electric_scooter", "bike_id": "11dd73240ebc536d3659947ba455ca4e", "rental_uris": {"ios": "https://dc.lft.to/lastmile_qr_scan", "android": "https://dc.lft.to/lastmile_qr_scan"}, "fusion_lon": 0.0, "lon": -77.057612, "name": "11dd73240ebc536d3659947ba455ca4e", "is_reserved": 0, "is_disabled": 0}, {"lat": 38.9187475, "fusion_lat": 0.0, "type": "electric_scooter", "bike_id": "10709bacb4ef2dbdd6a248b8a88c91c3", "rental_uris": {"ios": "https://dc.lft.to/lastmile_qr_scan", "android": "https://dc.lft.to/lastmile_qr_scan"}, "fusion_lon": 0.0, "lon": -77.0219175, "name": "10709bacb4ef2dbdd6a248b8a88c91c3", "is_reserved": 0, "is_disabled": 0}, {"lat": 38.916593666666664, "fusion_lat": 0.0, "type": "electric_scooter", "bike_id": "dbe146e1e313af15059cf2061ad1b268", "rental_uris": {"ios": "https://dc.lft.to/lastmile_qr_scan", "android": "https://dc.lft.to/lastmile_qr_scan"}, "fusion_lon": 0.0, "lon": -77.03004633333333, "name": "dbe146e1e313af15059cf2061ad1b268", "is_reserved": 0, "is_disabled": 0}, {"lat": 38.8598315, "fusion_lat": 0.0, "type": "electric_scooter", "bike_id": "f09a863cd57593597d5f034061276046", "rental_uris": {"ios": "https://dc.lft.to/lastmile_qr_scan", "android": "https://dc.lft.to/lastmile_qr_scan"}, "fusion_lon": 0.0, "lon": -76.99653683333334, "name": "f09a863cd57593597d5f034061276046", "is_reserved": 0, "is_disabled": 0}, {"lat": 38.92650716666667, "fusion_lat": 0.0, "type": "electric_scooter", "bike_id": "2b42284ba789d98c6b83fdd017f4dec3", "rental_uris": {"ios": "https://dc.lft.to/lastmile_qr_scan", "android": "https://dc.lft.to/lastmile_qr_scan"}, "fusion_lon": 0.0, "lon": -77.04318583333334, "name": "2b42284ba789d98c6b83fdd017f4dec3", "is_reserved": 0, "is_disabled": 0}, {"lat": 38.92067266666667, "fusion_lat": 0.0, "type": "electric_scooter", "bike_id": "d82bda90d03f527800578f1ae85c2ef7", "rental_uris": {"ios": "https://dc.lft.to/lastmile_qr_scan", "android": "https://dc.lft.to/lastmile_qr_scan"}, "fusion_lon": 0.0, "lon": -77.03992083333333, "name": "d82bda90d03f527800578f1ae85c2ef7", "is_reserved": 0, "is_disabled": 0}, {"lat": 38.897308833333334, "fusion_lat": 0.0, "type": "electric_scooter", "bike_id": "48fe598e174cd0b20202c1660cc360ee", "rental_uris": {"ios": "https://dc.lft.to/lastmile_qr_scan", "android": "https://dc.lft.to/lastmile_qr_scan"}, "fusion_lon": 0.0, "lon": -77.055217, "name": "48fe598e174cd0b20202c1660cc360ee", "is_reserved": 0, "is_disabled": 0}, {"lat": 38.9228155, "fusion_lat": 0.0, "type": "electric_scooter", "bike_id": "1294b020cb2a4f8e17daf1e3cb9be0a3", "rental_uris": {"ios": "https://dc.lft.to/lastmile_qr_scan", "android": "https://dc.lft.to/lastmile_qr_scan"}, "fusion_lon": 0.0, "lon": -77.03662283333334, "name": "1294b020cb2a4f8e17daf1e3cb9be0a3", "is_reserved": 0, "is_disabled": 0}, {"lat": 38.89613133333334, "fusion_lat": 0.0, "type": "electric_scooter", "bike_id": "218bd9c3690f24497c09a2800d52a8b9", "rental_uris": {"ios": "https://dc.lft.to/lastmile_qr_scan", "android": "https://dc.lft.to/lastmile_qr_scan"}, "fusion_lon": 0.0, "lon": -77.00924383333333, "name": "218bd9c3690f24497c09a2800d52a8b9", "is_reserved": 0, "is_disabled": 0}, {"lat": 38.92242383333333, "fusion_lat": 0.0, "type": "electric_scooter", "bike_id": "e059a47b38ce38f803ed3ceccca9e7e9", "rental_uris": {"ios": "https://dc.lft.to/lastmile_qr_scan", "android": "https://dc.lft.to/lastmile_qr_scan"}, "fusion_lon": 0.0, "lon": -77.07313433333333, "name": "e059a47b38ce38f803ed3ceccca9e7e9", "is_reserved": 0, "is_disabled": 0}, {"lat": 38.927686, "fusion_lat": 0.0, "type": "electric_scooter", "bike_id": "0fbe78eed05b8bb4cfee5d6d7b0fc000", "rental_uris": {"ios": "https://dc.lft.to/lastmile_qr_scan", "android": "https://dc.lft.to/lastmile_qr_scan"}, "fusion_lon": 0.0, "lon": -77.0325305, "name": "0fbe78eed05b8bb4cfee5d6d7b0fc000", "is_reserved": 0, "is_disabled": 0}, {"lat": 38.89222016666667, "fusion_lat": 0.0, "type": "electric_scooter", "bike_id": "71cd4ebcbded26e8b614026d2bebf876", "rental_uris": {"ios": "https://dc.lft.to/lastmile_qr_scan", "android": "https://dc.lft.to/lastmile_qr_scan"}, "fusion_lon": 0.0, "lon": -77.0278175, "name": "71cd4ebcbded26e8b614026d2bebf876", "is_reserved": 0, "is_disabled": 0}, {"lat": 38.902175, "fusion_lat": 0.0, "type": "electric_scooter", "bike_id": "ce5576930876ff6192997ea0fc04fde8", "rental_uris": {"ios": "https://dc.lft.to/lastmile_qr_scan", "android": "https://dc.lft.to/lastmile_qr_scan"}, "fusion_lon": 0.0, "lon": -77.0237325, "name": "ce5576930876ff6192997ea0fc04fde8", "is_reserved": 0, "is_disabled": 0}, {"lat": 38.9288855, "fusion_lat": 0.0, "type": "electric_scooter", "bike_id": "f5a4334afb28e1997b29f6201c3ad74f", "rental_uris": {"ios": "https://dc.lft.to/lastmile_qr_scan", "android": "https://dc.lft.to/lastmile_qr_scan"}, "fusion_lon": 0.0, "lon": -77.03282816666666, "name": "f5a4334afb28e1997b29f6201c3ad74f", "is_reserved": 0, "is_disabled": 0}, {"lat": 38.956744, "fusion_lat": 0.0, "type": "electric_scooter", "bike_id": "5e1538a7bc350e712159069d3ff5ab28", "rental_uris": {"ios": "https://dc.lft.to/lastmile_qr_scan", "android": "https://dc.lft.to/lastmile_qr_scan"}, "fusion_lon": 0.0, "lon": -77.0135775, "name": "5e1538a7bc350e712159069d3ff5ab28", "is_reserved": 0, "is_disabled": 0}, {"lat": 38.900430666666665, "fusion_lat": 0.0, "type": "electric_scooter", "bike_id": "76c3bda886634b1b8ce9cca9368cefa3", "rental_uris": {"ios": "https://dc.lft.to/lastmile_qr_scan", "android": "https://dc.lft.to/lastmile_qr_scan"}, "fusion_lon": 0.0, "lon": -77.02211983333333, "name": "76c3bda886634b1b8ce9cca9368cefa3", "is_reserved": 0, "is_disabled": 0}, {"lat": 38.887291, "fusion_lat": 0.0, "type": "electric_scooter", "bike_id": "9a22be3b040d796016ee5c1be1a012fe", "rental_uris": {"ios": "https://dc.lft.to/lastmile_qr_scan", "android": "https://dc.lft.to/lastmile_qr_scan"}, "fusion_lon": 0.0, "lon": -77.02379166666667, "name": "9a22be3b040d796016ee5c1be1a012fe", "is_reserved": 0, "is_disabled": 0}, {"lat": 38.917979833333334, "fusion_lat": 0.0, "type": "electric_scooter", "bike_id": "fee3d2bd92ca03ad813b21d2d6999c49", "rental_uris": {"ios": "https://dc.lft.to/lastmile_qr_scan", "android": "https://dc.lft.to/lastmile_qr_scan"}, "fusion_lon": 0.0, "lon": -77.0270805, "name": "fee3d2bd92ca03ad813b21d2d6999c49", "is_reserved": 0, "is_disabled": 0}, {"lat": 38.956515333333336, "fusion_lat": 0.0, "type": "electric_scooter", "bike_id": "fd908b84bc6dcf9d96f858970fbce6c4", "rental_uris": {"ios": "https://dc.lft.to/lastmile_qr_scan", "android": "https://dc.lft.to/lastmile_qr_scan"}, "fusion_lon": 0.0, "lon": -77.019668, "name": "fd908b84bc6dcf9d96f858970fbce6c4", "is_reserved": 0, "is_disabled": 0}, {"lat": 38.924064666666666, "fusion_lat": 0.0, "type": "electric_scooter", "bike_id": "9e391dd8b703cea329c27962eb3ff444", "rental_uris": {"ios": "https://dc.lft.to/lastmile_qr_scan", "android": "https://dc.lft.to/lastmile_qr_scan"}, "fusion_lon": 0.0, "lon": -77.02982, "name": "9e391dd8b703cea329c27962eb3ff444", "is_reserved": 0, "is_disabled": 0}, {"lat": 38.91703283333333, "fusion_lat": 0.0, "type": "electric_scooter", "bike_id": "610dc7f2593952e8f76f996ee248f103", "rental_uris": {"ios": "https://dc.lft.to/lastmile_qr_scan", "android": "https://dc.lft.to/lastmile_qr_scan"}, "fusion_lon": 0.0, "lon": -77.0299005, "name": "610dc7f2593952e8f76f996ee248f103", "is_reserved": 0, "is_disabled": 0}, {"lat": 38.897820833333334, "fusion_lat": 0.0, "type": "electric_scooter", "bike_id": "8de576e326ca8ba87a24da7a2aecdf71", "rental_uris": {"ios": "https://dc.lft.to/lastmile_qr_scan", "android": "https://dc.lft.to/lastmile_qr_scan"}, "fusion_lon": 0.0, "lon": -77.05476833333333, "name": "8de576e326ca8ba87a24da7a2aecdf71", "is_reserved": 0, "is_disabled": 0}, {"lat": 38.915464, "fusion_lat": 0.0, "type": "electric_scooter", "bike_id": "088d9d191247f856461674caf578cc6b", "rental_uris": {"ios": "https://dc.lft.to/lastmile_qr_scan", "android": "https://dc.lft.to/lastmile_qr_scan"}, "fusion_lon": 0.0, "lon": -76.98378783333334, "name": "088d9d191247f856461674caf578cc6b", "is_reserved": 0, "is_disabled": 0}, {"lat": 38.926052, "fusion_lat": 0.0, "type": "electric_scooter", "bike_id": "2ef66f0af7fc784336cc79711f7164bf", "rental_uris": {"ios": "https://dc.lft.to/lastmile_qr_scan", "android": "https://dc.lft.to/lastmile_qr_scan"}, "fusion_lon": 0.0, "lon": -77.0215585, "name": "2ef66f0af7fc784336cc79711f7164bf", "is_reserved": 0, "is_disabled": 0}, {"lat": 38.925006333333336, "fusion_lat": 0.0, "type": "electric_scooter", "bike_id": "e696abb1c52a45843b3cfa80b3a8c486", "rental_uris": {"ios": "https://dc.lft.to/lastmile_qr_scan", "android": "https://dc.lft.to/lastmile_qr_scan"}, "fusion_lon": 0.0, "lon": -77.03921916666667, "name": "e696abb1c52a45843b3cfa80b3a8c486", "is_reserved": 0, "is_disabled": 0}, {"lat": 38.95198466666667, "fusion_lat": 0.0, "type": "electric_scooter", "bike_id": "2c84dfdf61365505643d0c6cd1defa71", "rental_uris": {"ios": "https://dc.lft.to/lastmile_qr_scan", "android": "https://dc.lft.to/lastmile_qr_scan"}, "fusion_lon": 0.0, "lon": -77.027382, "name": "2c84dfdf61365505643d0c6cd1defa71", "is_reserved": 0, "is_disabled": 0}, {"lat": 38.961240833333335, "fusion_lat": 0.0, "type": "electric_bike", "bike_id": "a89f611c6dfe1f41635988e80098bdf7", "rental_uris": {"ios": "https://dc.lft.to/lastmile_qr_scan", "android": "https://dc.lft.to/lastmile_qr_scan"}, "fusion_lon": 0.0, "lon": -77.03276516666666, "name": "a89f611c6dfe1f41635988e80098bdf7", "is_reserved": 0, "is_disabled": 0}, {"lat": 38.895724666666666, "fusion_lat": 0.0, "type": "electric_scooter", "bike_id": "1f18c0109779a98076bd37818be56ede", "rental_uris": {"ios": "https://dc.lft.to/lastmile_qr_scan", "android": "https://dc.lft.to/lastmile_qr_scan"}, "fusion_lon": 0.0, "lon": -77.02185533333333, "name": "1f18c0109779a98076bd37818be56ede", "is_reserved": 0, "is_disabled": 0}, {"lat": 38.918132666666665, "fusion_lat": 0.0, "type": "electric_scooter", "bike_id": "138072136e15c75c8e70522d83c6009d", "rental_uris": {"ios": "https://dc.lft.to/lastmile_qr_scan", "android": "https://dc.lft.to/lastmile_qr_scan"}, "fusion_lon": 0.0, "lon": -77.02555383333333, "name": "138072136e15c75c8e70522d83c6009d", "is_reserved": 0, "is_disabled": 0}, {"lat": 38.923271166666666, "fusion_lat": 0.0, "type": "electric_scooter", "bike_id": "7686322adf99c96911b3d6631676f004", "rental_uris": {"ios": "https://dc.lft.to/lastmile_qr_scan", "android": "https://dc.lft.to/lastmile_qr_scan"}, "fusion_lon": 0.0, "lon": -77.02972583333333, "name": "7686322adf99c96911b3d6631676f004", "is_reserved": 0, "is_disabled": 0}, {"lat": 38.933295, "fusion_lat": 0.0, "type": "electric_scooter", "bike_id": "bbb374d8d65253ec53ae3ffe3fa2d10d", "rental_uris": {"ios": "https://dc.lft.to/lastmile_qr_scan", "android": "https://dc.lft.to/lastmile_qr_scan"}, "fusion_lon": 0.0, "lon": -77.02917933333333, "name": "bbb374d8d65253ec53ae3ffe3fa2d10d", "is_reserved": 0, "is_disabled": 0}, {"lat": 38.919837666666666, "fusion_lat": 0.0, "type": "electric_scooter", "bike_id": "dd714caa3396afdaea0138848b690a5e", "rental_uris": {"ios": "https://dc.lft.to/lastmile_qr_scan", "android": "https://dc.lft.to/lastmile_qr_scan"}, "fusion_lon": 0.0, "lon": -77.01813533333333, "name": "dd714caa3396afdaea0138848b690a5e", "is_reserved": 0, "is_disabled": 0}, {"lat": 38.87429866666667, "fusion_lat": 0.0, "type": "electric_scooter", "bike_id": "9c69523b0495c0a66aa27f85b66eb288", "rental_uris": {"ios": "https://dc.lft.to/lastmile_qr_scan", "android": "https://dc.lft.to/lastmile_qr_scan"}, "fusion_lon": 0.0, "lon": -77.00067016666667, "name": "9c69523b0495c0a66aa27f85b66eb288", "is_reserved": 0, "is_disabled": 0}, {"lat": 38.91364183333334, "fusion_lat": 0.0, "type": "electric_scooter", "bike_id": "0886a147f80b56ffe1fd8596cfdec0e8", "rental_uris": {"ios": "https://dc.lft.to/lastmile_qr_scan", "android": "https://dc.lft.to/lastmile_qr_scan"}, "fusion_lon": 0.0, "lon": -77.01995133333334, "name": "0886a147f80b56ffe1fd8596cfdec0e8", "is_reserved": 0, "is_disabled": 0}, {"lat": 38.91701533333333, "fusion_lat": 0.0, "type": "electric_scooter", "bike_id": "feea649bce0ea57942dafd4a6bfd2b41", "rental_uris": {"ios": "https://dc.lft.to/lastmile_qr_scan", "android": "https://dc.lft.to/lastmile_qr_scan"}, "fusion_lon": 0.0, "lon": -77.0248455, "name": "feea649bce0ea57942dafd4a6bfd2b41", "is_reserved": 0, "is_disabled": 0}, {"lat": 38.916985, "fusion_lat": 0.0, "type": "electric_scooter", "bike_id": "56a18149ccbe8e0f08aac9269b312b74", "rental_uris": {"ios": "https://dc.lft.to/lastmile_qr_scan", "android": "https://dc.lft.to/lastmile_qr_scan"}, "fusion_lon": 0.0, "lon": -77.037723, "name": "56a18149ccbe8e0f08aac9269b312b74", "is_reserved": 0, "is_disabled": 0}, {"lat": 38.89520066666667, "fusion_lat": 0.0, "type": "electric_scooter", "bike_id": "0455783c3344d44af8365db737d8ad6a", "rental_uris": {"ios": "https://dc.lft.to/lastmile_qr_scan", "android": "https://dc.lft.to/lastmile_qr_scan"}, "fusion_lon": 0.0, "lon": -77.02811816666667, "name": "0455783c3344d44af8365db737d8ad6a", "is_reserved": 0, "is_disabled": 0}, {"lat": 38.904669166666665, "fusion_lat": 0.0, "type": "electric_scooter", "bike_id": "3bc4b905c96805da6e63b079ea3b25a5", "rental_uris": {"ios": "https://dc.lft.to/lastmile_qr_scan", "android": "https://dc.lft.to/lastmile_qr_scan"}, "fusion_lon": 0.0, "lon": -77.02699683333333, "name": "3bc4b905c96805da6e63b079ea3b25a5", "is_reserved": 0, "is_disabled": 0}, {"lat": 38.87472566666667, "fusion_lat": 0.0, "type": "electric_scooter", "bike_id": "c4c5e232b656c7f1f869c5bbd2dd6421", "rental_uris": {"ios": "https://dc.lft.to/lastmile_qr_scan", "android": "https://dc.lft.to/lastmile_qr_scan"}, "fusion_lon": 0.0, "lon": -77.00470066666666, "name": "c4c5e232b656c7f1f869c5bbd2dd6421", "is_reserved": 0, "is_disabled": 0}, {"lat": 38.9094675, "fusion_lat": 0.0, "type": "electric_scooter", "bike_id": "f027a3e860f9da3ee44b20e21fad6e5b", "rental_uris": {"ios": "https://dc.lft.to/lastmile_qr_scan", "android": "https://dc.lft.to/lastmile_qr_scan"}, "fusion_lon": 0.0, "lon": -77.026906, "name": "f027a3e860f9da3ee44b20e21fad6e5b", "is_reserved": 0, "is_disabled": 0}, {"lat": 38.873962166666665, "fusion_lat": 0.0, "type": "electric_scooter", "bike_id": "a3f31b6bc52363add60216ffe8d6942a", "rental_uris": {"ios": "https://dc.lft.to/lastmile_qr_scan", "android": "https://dc.lft.to/lastmile_qr_scan"}, "fusion_lon": 0.0, "lon": -77.014484, "name": "a3f31b6bc52363add60216ffe8d6942a", "is_reserved": 0, "is_disabled": 0}, {"lat": 38.926654, "fusion_lat": 0.0, "type": "electric_scooter", "bike_id": "1c9e6ba11259b49ddf26a4325dbb3852", "rental_uris": {"ios": "https://dc.lft.to/lastmile_qr_scan", "android": "https://dc.lft.to/lastmile_qr_scan"}, "fusion_lon": 0.0, "lon": -77.02585016666667, "name": "1c9e6ba11259b49ddf26a4325dbb3852", "is_reserved": 0, "is_disabled": 0}, {"lat": 38.83606116666667, "fusion_lat": 0.0, "type": "electric_bike", "bike_id": "f4a9e219633bbeafdc1a43c6e1b8c7bd", "rental_uris": {"ios": "https://dc.lft.to/lastmile_qr_scan", "android": "https://dc.lft.to/lastmile_qr_scan"}, "fusion_lon": 0.0, "lon": -77.00388916666667, "name": "f4a9e219633bbeafdc1a43c6e1b8c7bd", "is_reserved": 0, "is_disabled": 0}, {"lat": 38.92127816666667, "fusion_lat": 0.0, "type": "electric_scooter", "bike_id": "040ba24be0537cc71a9c4017faaad56a", "rental_uris": {"ios": "https://dc.lft.to/lastmile_qr_scan", "android": "https://dc.lft.to/lastmile_qr_scan"}, "fusion_lon": 0.0, "lon": -77.02975166666667, "name": "040ba24be0537cc71a9c4017faaad56a", "is_reserved": 0, "is_disabled": 0}, {"lat": 38.91310283333333, "fusion_lat": 0.0, "type": "electric_scooter", "bike_id": "950c7419927a125c994dce3bdea0640a", "rental_uris": {"ios": "https://dc.lft.to/lastmile_qr_scan", "android": "https://dc.lft.to/lastmile_qr_scan"}, "fusion_lon": 0.0, "lon": -77.04568583333334, "name": "950c7419927a125c994dce3bdea0640a", "is_reserved": 0, "is_disabled": 0}, {"lat": 38.89835083333333, "fusion_lat": 0.0, "type": "electric_scooter", "bike_id": "16513be6ad91af6d041ce5d8fe096213", "rental_uris": {"ios": "https://dc.lft.to/lastmile_qr_scan", "android": "https://dc.lft.to/lastmile_qr_scan"}, "fusion_lon": 0.0, "lon": -76.94613583333333, "name": "16513be6ad91af6d041ce5d8fe096213", "is_reserved": 0, "is_disabled": 0}, {"lat": 38.9265145, "fusion_lat": 0.0, "type": "electric_scooter", "bike_id": "a9a1edc3f269915bd3d841d162b3de80", "rental_uris": {"ios": "https://dc.lft.to/lastmile_qr_scan", "android": "https://dc.lft.to/lastmile_qr_scan"}, "fusion_lon": 0.0, "lon": -77.0241965, "name": "a9a1edc3f269915bd3d841d162b3de80", "is_reserved": 0, "is_disabled": 0}, {"lat": 38.90029083333334, "fusion_lat": 0.0, "type": "electric_scooter", "bike_id": "e9f5c243d568784a20db545b343b0f7b", "rental_uris": {"ios": "https://dc.lft.to/lastmile_qr_scan", "android": "https://dc.lft.to/lastmile_qr_scan"}, "fusion_lon": 0.0, "lon": -77.01183316666666, "name": "e9f5c243d568784a20db545b343b0f7b", "is_reserved": 0, "is_disabled": 0}, {"lat": 38.917333166666666, "fusion_lat": 0.0, "type": "electric_scooter", "bike_id": "aa4ba0a44e2761fda929fa6c9c2762f0", "rental_uris": {"ios": "https://dc.lft.to/lastmile_qr_scan", "android": "https://dc.lft.to/lastmile_qr_scan"}, "fusion_lon": 0.0, "lon": -77.06898433333333, "name": "aa4ba0a44e2761fda929fa6c9c2762f0", "is_reserved": 0, "is_disabled": 0}, {"lat": 38.891721833333335, "fusion_lat": 0.0, "type": "electric_scooter", "bike_id": "b7b2a6f7aaaf2c3eda3a51cd5fd82d44", "rental_uris": {"ios": "https://dc.lft.to/lastmile_qr_scan", "android": "https://dc.lft.to/lastmile_qr_scan"}, "fusion_lon": 0.0, "lon": -77.015545, "name": "b7b2a6f7aaaf2c3eda3a51cd5fd82d44", "is_reserved": 0, "is_disabled": 0}, {"lat": 38.889990833333336, "fusion_lat": 0.0, "type": "electric_scooter", "bike_id": "321fd9ce0d646f0a7ad7a6ae6b1e76dc", "rental_uris": {"ios": "https://dc.lft.to/lastmile_qr_scan", "android": "https://dc.lft.to/lastmile_qr_scan"}, "fusion_lon": 0.0, "lon": -76.98377083333334, "name": "321fd9ce0d646f0a7ad7a6ae6b1e76dc", "is_reserved": 0, "is_disabled": 0}, {"lat": 38.922095666666664, "fusion_lat": 0.0, "type": "electric_scooter", "bike_id": "0752b3add966569f5be870609d07ee09", "rental_uris": {"ios": "https://dc.lft.to/lastmile_qr_scan", "android": "https://dc.lft.to/lastmile_qr_scan"}, "fusion_lon": 0.0, "lon": -77.03655916666666, "name": "0752b3add966569f5be870609d07ee09", "is_reserved": 0, "is_disabled": 0}, {"lat": 38.911269833333336, "fusion_lat": 0.0, "type": "electric_scooter", "bike_id": "62435087608e2d8176e42c6530eb95b6", "rental_uris": {"ios": "https://dc.lft.to/lastmile_qr_scan", "android": "https://dc.lft.to/lastmile_qr_scan"}, "fusion_lon": 0.0, "lon": -77.021939, "name": "62435087608e2d8176e42c6530eb95b6", "is_reserved": 0, "is_disabled": 0}, {"lat": 38.901353666666665, "fusion_lat": 0.0, "type": "electric_scooter", "bike_id": "2ba5570d0296633e9f90b1d0ad05c346", "rental_uris": {"ios": "https://dc.lft.to/lastmile_qr_scan", "android": "https://dc.lft.to/lastmile_qr_scan"}, "fusion_lon": 0.0, "lon": -77.016645, "name": "2ba5570d0296633e9f90b1d0ad05c346", "is_reserved": 0, "is_disabled": 0}, {"lat": 38.905591, "fusion_lat": 0.0, "type": "electric_scooter", "bike_id": "5cd81027037381130342d883fea016b0", "rental_uris": {"ios": "https://dc.lft.to/lastmile_qr_scan", "android": "https://dc.lft.to/lastmile_qr_scan"}, "fusion_lon": 0.0, "lon": -77.05004766666667, "name": "5cd81027037381130342d883fea016b0", "is_reserved": 0, "is_disabled": 0}, {"lat": 38.903933, "fusion_lat": 0.0, "type": "electric_scooter", "bike_id": "d847ec1cf51d756d442227c92a6a486b", "rental_uris": {"ios": "https://dc.lft.to/lastmile_qr_scan", "android": "https://dc.lft.to/lastmile_qr_scan"}, "fusion_lon": 0.0, "lon": -77.06301283333333, "name": "d847ec1cf51d756d442227c92a6a486b", "is_reserved": 0, "is_disabled": 0}, {"lat": 38.921375833333336, "fusion_lat": 0.0, "type": "electric_scooter", "bike_id": "175aff84bea4c295f110c4d3cb46798c", "rental_uris": {"ios": "https://dc.lft.to/lastmile_qr_scan", "android": "https://dc.lft.to/lastmile_qr_scan"}, "fusion_lon": 0.0, "lon": -77.04128216666666, "name": "175aff84bea4c295f110c4d3cb46798c", "is_reserved": 0, "is_disabled": 0}, {"lat": 38.90230716666667, "fusion_lat": 0.0, "type": "electric_scooter", "bike_id": "46e748316b87a89003c15f267bb6fc70", "rental_uris": {"ios": "https://dc.lft.to/lastmile_qr_scan", "android": "https://dc.lft.to/lastmile_qr_scan"}, "fusion_lon": 0.0, "lon": -77.0467445, "name": "46e748316b87a89003c15f267bb6fc70", "is_reserved": 0, "is_disabled": 0}, {"lat": 38.90029633333333, "fusion_lat": 0.0, "type": "electric_scooter", "bike_id": "50c09d8fed24a5b78413dc7e1d88817f", "rental_uris": {"ios": "https://dc.lft.to/lastmile_qr_scan", "android": "https://dc.lft.to/lastmile_qr_scan"}, "fusion_lon": 0.0, "lon": -77.0020155, "name": "50c09d8fed24a5b78413dc7e1d88817f", "is_reserved": 0, "is_disabled": 0}, {"lat": 38.89002383333333, "fusion_lat": 0.0, "type": "electric_scooter", "bike_id": "3e4edbbfb8833e6a721a74e0e8cd336d", "rental_uris": {"ios": "https://dc.lft.to/lastmile_qr_scan", "android": "https://dc.lft.to/lastmile_qr_scan"}, "fusion_lon": 0.0, "lon": -76.97729916666667, "name": "3e4edbbfb8833e6a721a74e0e8cd336d", "is_reserved": 0, "is_disabled": 0}, {"lat": 38.920095833333335, "fusion_lat": 0.0, "type": "electric_scooter", "bike_id": "022c3fd8ad08a694dd54e9d6186b4359", "rental_uris": {"ios": "https://dc.lft.to/lastmile_qr_scan", "android": "https://dc.lft.to/lastmile_qr_scan"}, "fusion_lon": 0.0, "lon": -77.02194716666666, "name": "022c3fd8ad08a694dd54e9d6186b4359", "is_reserved": 0, "is_disabled": 0}, {"lat": 38.89956266666667, "fusion_lat": 0.0, "type": "electric_scooter", "bike_id": "9b0def6ec853e6e98cbb6a0c9d3075ab", "rental_uris": {"ios": "https://dc.lft.to/lastmile_qr_scan", "android": "https://dc.lft.to/lastmile_qr_scan"}, "fusion_lon": 0.0, "lon": -77.0464665, "name": "9b0def6ec853e6e98cbb6a0c9d3075ab", "is_reserved": 0, "is_disabled": 0}, {"lat": 38.8917525, "fusion_lat": 0.0, "type": "electric_scooter", "bike_id": "e60cf8a975f3c5552651a1824f5f6cfd", "rental_uris": {"ios": "https://dc.lft.to/lastmile_qr_scan", "android": "https://dc.lft.to/lastmile_qr_scan"}, "fusion_lon": 0.0, "lon": -77.01562833333334, "name": "e60cf8a975f3c5552651a1824f5f6cfd", "is_reserved": 0, "is_disabled": 0}, {"lat": 38.9355825, "fusion_lat": 0.0, "type": "electric_scooter", "bike_id": "9cb2d534d1590937168aaca0b35c7c86", "rental_uris": {"ios": "https://dc.lft.to/lastmile_qr_scan", "android": "https://dc.lft.to/lastmile_qr_scan"}, "fusion_lon": 0.0, "lon": -77.07460383333333, "name": "9cb2d534d1590937168aaca0b35c7c86", "is_reserved": 0, "is_disabled": 0}, {"lat": 38.9258705, "fusion_lat": 0.0, "type": "electric_scooter", "bike_id": "97f6ff5292e9a83de401ad20ba962158", "rental_uris": {"ios": "https://dc.lft.to/lastmile_qr_scan", "android": "https://dc.lft.to/lastmile_qr_scan"}, "fusion_lon": 0.0, "lon": -77.0319465, "name": "97f6ff5292e9a83de401ad20ba962158", "is_reserved": 0, "is_disabled": 0}, {"lat": 38.90572066666667, "fusion_lat": 0.0, "type": "electric_scooter", "bike_id": "0ee4287158142bb840c533de496b5bc5", "rental_uris": {"ios": "https://dc.lft.to/lastmile_qr_scan", "android": "https://dc.lft.to/lastmile_qr_scan"}, "fusion_lon": 0.0, "lon": -77.00307633333334, "name": "0ee4287158142bb840c533de496b5bc5", "is_reserved": 0, "is_disabled": 0}, {"lat": 38.91656016666666, "fusion_lat": 0.0, "type": "electric_scooter", "bike_id": "994fdca2d9602416baee4f8a664dbdb7", "rental_uris": {"ios": "https://dc.lft.to/lastmile_qr_scan", "android": "https://dc.lft.to/lastmile_qr_scan"}, "fusion_lon": 0.0, "lon": -77.04176183333334, "name": "994fdca2d9602416baee4f8a664dbdb7", "is_reserved": 0, "is_disabled": 0}, {"lat": 38.89221166666667, "fusion_lat": 0.0, "type": "electric_scooter", "bike_id": "30b0bbfdee06618739e4ab8ebee72514", "rental_uris": {"ios": "https://dc.lft.to/lastmile_qr_scan", "android": "https://dc.lft.to/lastmile_qr_scan"}, "fusion_lon": 0.0, "lon": -77.02630366666666, "name": "30b0bbfdee06618739e4ab8ebee72514", "is_reserved": 0, "is_disabled": 0}, {"lat": 38.92259833333333, "fusion_lat": 0.0, "type": "electric_scooter", "bike_id": "4a698ee3e13453e7700c26af01d2653e", "rental_uris": {"ios": "https://dc.lft.to/lastmile_qr_scan", "android": "https://dc.lft.to/lastmile_qr_scan"}, "fusion_lon": 0.0, "lon": -77.02106533333334, "name": "4a698ee3e13453e7700c26af01d2653e", "is_reserved": 0, "is_disabled": 0}, {"lat": 38.88771416666667, "fusion_lat": 0.0, "type": "electric_scooter", "bike_id": "6fc7b3de0792d749e2bb7f6b630f69f7", "rental_uris": {"ios": "https://dc.lft.to/lastmile_qr_scan", "android": "https://dc.lft.to/lastmile_qr_scan"}, "fusion_lon": 0.0, "lon": -77.02239283333333, "name": "6fc7b3de0792d749e2bb7f6b630f69f7", "is_reserved": 0, "is_disabled": 0}, {"lat": 38.903065166666664, "fusion_lat": 0.0, "type": "electric_scooter", "bike_id": "a6dd180bd63b63d33154e45ee6f7ceff", "rental_uris": {"ios": "https://dc.lft.to/lastmile_qr_scan", "android": "https://dc.lft.to/lastmile_qr_scan"}, "fusion_lon": 0.0, "lon": -76.97810216666667, "name": "a6dd180bd63b63d33154e45ee6f7ceff", "is_reserved": 0, "is_disabled": 0}, {"lat": 38.896080833333336, "fusion_lat": 0.0, "type": "electric_scooter", "bike_id": "cd182da2512c8448542b485588178c46", "rental_uris": {"ios": "https://dc.lft.to/lastmile_qr_scan", "android": "https://dc.lft.to/lastmile_qr_scan"}, "fusion_lon": 0.0, "lon": -77.00218083333333, "name": "cd182da2512c8448542b485588178c46", "is_reserved": 0, "is_disabled": 0}, {"lat": 38.872236666666666, "fusion_lat": 0.0, "type": "electric_scooter", "bike_id": "4658043413b7bdc0c2ba8dc8bf732698", "rental_uris": {"ios": "https://dc.lft.to/lastmile_qr_scan", "android": "https://dc.lft.to/lastmile_qr_scan"}, "fusion_lon": 0.0, "lon": -77.0122175, "name": "4658043413b7bdc0c2ba8dc8bf732698", "is_reserved": 0, "is_disabled": 0}, {"lat": 38.924960166666665, "fusion_lat": 0.0, "type": "electric_scooter", "bike_id": "c33f71a5c981ebdb80a70895de7280af", "rental_uris": {"ios": "https://dc.lft.to/lastmile_qr_scan", "android": "https://dc.lft.to/lastmile_qr_scan"}, "fusion_lon": 0.0, "lon": -77.024037, "name": "c33f71a5c981ebdb80a70895de7280af", "is_reserved": 0, "is_disabled": 0}, {"lat": 38.95086033333333, "fusion_lat": 0.0, "type": "electric_scooter", "bike_id": "d718e5a24545ec73197e3370cb06b307", "rental_uris": {"ios": "https://dc.lft.to/lastmile_qr_scan", "android": "https://dc.lft.to/lastmile_qr_scan"}, "fusion_lon": 0.0, "lon": -77.031569, "name": "d718e5a24545ec73197e3370cb06b307", "is_reserved": 0, "is_disabled": 0}, {"lat": 38.9041005, "fusion_lat": 0.0, "type": "electric_scooter", "bike_id": "337d49cd997d3d2828d7b83d9daba753", "rental_uris": {"ios": "https://dc.lft.to/lastmile_qr_scan", "android": "https://dc.lft.to/lastmile_qr_scan"}, "fusion_lon": 0.0, "lon": -77.067984, "name": "337d49cd997d3d2828d7b83d9daba753", "is_reserved": 0, "is_disabled": 0}, {"lat": 38.922516333333334, "fusion_lat": 0.0, "type": "electric_scooter", "bike_id": "2ba50e899bf5f2a2370094856e182068", "rental_uris": {"ios": "https://dc.lft.to/lastmile_qr_scan", "android": "https://dc.lft.to/lastmile_qr_scan"}, "fusion_lon": 0.0, "lon": -77.01913133333333, "name": "2ba50e899bf5f2a2370094856e182068", "is_reserved": 0, "is_disabled": 0}, {"lat": 38.9244555, "fusion_lat": 0.0, "type": "electric_scooter", "bike_id": "bc2994b23f3d84bbc19b2bbe00872cd4", "rental_uris": {"ios": "https://dc.lft.to/lastmile_qr_scan", "android": "https://dc.lft.to/lastmile_qr_scan"}, "fusion_lon": 0.0, "lon": -77.02151033333334, "name": "bc2994b23f3d84bbc19b2bbe00872cd4", "is_reserved": 0, "is_disabled": 0}, {"lat": 38.90437416666666, "fusion_lat": 0.0, "type": "electric_scooter", "bike_id": "503ddaa91b0e04b9a318c743705e4885", "rental_uris": {"ios": "https://dc.lft.to/lastmile_qr_scan", "android": "https://dc.lft.to/lastmile_qr_scan"}, "fusion_lon": 0.0, "lon": -77.0587515, "name": "503ddaa91b0e04b9a318c743705e4885", "is_reserved": 0, "is_disabled": 0}, {"lat": 38.87708583333333, "fusion_lat": 0.0, "type": "electric_scooter", "bike_id": "8b4bacab88978fc132fae9dd49f99873", "rental_uris": {"ios": "https://dc.lft.to/lastmile_qr_scan", "android": "https://dc.lft.to/lastmile_qr_scan"}, "fusion_lon": 0.0, "lon": -76.996925, "name": "8b4bacab88978fc132fae9dd49f99873", "is_reserved": 0, "is_disabled": 0}, {"lat": 38.91572933333333, "fusion_lat": 0.0, "type": "electric_scooter", "bike_id": "8be9170380226efbe32eb154227bfb66", "rental_uris": {"ios": "https://dc.lft.to/lastmile_qr_scan", "android": "https://dc.lft.to/lastmile_qr_scan"}, "fusion_lon": 0.0, "lon": -77.03198066666667, "name": "8be9170380226efbe32eb154227bfb66", "is_reserved": 0, "is_disabled": 0}, {"lat": 38.91928766666667, "fusion_lat": 0.0, "type": "electric_scooter", "bike_id": "d8956b26a8fecedc615d51039421cd86", "rental_uris": {"ios": "https://dc.lft.to/lastmile_qr_scan", "android": "https://dc.lft.to/lastmile_qr_scan"}, "fusion_lon": 0.0, "lon": -77.03420183333333, "name": "d8956b26a8fecedc615d51039421cd86", "is_reserved": 0, "is_disabled": 0}, {"lat": 38.92029316666667, "fusion_lat": 0.0, "type": "electric_scooter", "bike_id": "9766c35f0eab1dff9d99f66043247339", "rental_uris": {"ios": "https://dc.lft.to/lastmile_qr_scan", "android": "https://dc.lft.to/lastmile_qr_scan"}, "fusion_lon": 0.0, "lon": -77.07151616666667, "name": "9766c35f0eab1dff9d99f66043247339", "is_reserved": 0, "is_disabled": 0}, {"lat": 38.8721955, "fusion_lat": 0.0, "type": "electric_scooter", "bike_id": "1ff991ff93b260763eb5f6b8d1452f63", "rental_uris": {"ios": "https://dc.lft.to/lastmile_qr_scan", "android": "https://dc.lft.to/lastmile_qr_scan"}, "fusion_lon": 0.0, "lon": -77.00572866666667, "name": "1ff991ff93b260763eb5f6b8d1452f63", "is_reserved": 0, "is_disabled": 0}, {"lat": 38.924110666666664, "fusion_lat": 0.0, "type": "electric_scooter", "bike_id": "343ba1c06989bd1f34605823ccca246a", "rental_uris": {"ios": "https://dc.lft.to/lastmile_qr_scan", "android": "https://dc.lft.to/lastmile_qr_scan"}, "fusion_lon": 0.0, "lon": -77.0200795, "name": "343ba1c06989bd1f34605823ccca246a", "is_reserved": 0, "is_disabled": 0}, {"lat": 38.898548, "fusion_lat": 0.0, "type": "electric_scooter", "bike_id": "780c63b12207480f1ced2827fdb737db", "rental_uris": {"ios": "https://dc.lft.to/lastmile_qr_scan", "android": "https://dc.lft.to/lastmile_qr_scan"}, "fusion_lon": 0.0, "lon": -77.04100733333334, "name": "780c63b12207480f1ced2827fdb737db", "is_reserved": 0, "is_disabled": 0}, {"lat": 38.95428183333333, "fusion_lat": 0.0, "type": "electric_scooter", "bike_id": "2b349d0b88410e59425ebfd50093038f", "rental_uris": {"ios": "https://dc.lft.to/lastmile_qr_scan", "android": "https://dc.lft.to/lastmile_qr_scan"}, "fusion_lon": 0.0, "lon": -77.01844466666667, "name": "2b349d0b88410e59425ebfd50093038f", "is_reserved": 0, "is_disabled": 0}, {"lat": 38.903148, "fusion_lat": 0.0, "type": "electric_scooter", "bike_id": "e00c42ac80c00f7529b78c885ba362fe", "rental_uris": {"ios": "https://dc.lft.to/lastmile_qr_scan", "android": "https://dc.lft.to/lastmile_qr_scan"}, "fusion_lon": 0.0, "lon": -77.05023016666667, "name": "e00c42ac80c00f7529b78c885ba362fe", "is_reserved": 0, "is_disabled": 0}, {"lat": 38.8991375, "fusion_lat": 0.0, "type": "electric_scooter", "bike_id": "136bec11a09cf6a93f2310cfa4ea9c15", "rental_uris": {"ios": "https://dc.lft.to/lastmile_qr_scan", "android": "https://dc.lft.to/lastmile_qr_scan"}, "fusion_lon": 0.0, "lon": -77.01378666666666, "name": "136bec11a09cf6a93f2310cfa4ea9c15", "is_reserved": 0, "is_disabled": 0}, {"lat": 38.89476783333333, "fusion_lat": 0.0, "type": "electric_scooter", "bike_id": "86aae5b00a06dd2fe4c5934fb45c5d6a", "rental_uris": {"ios": "https://dc.lft.to/lastmile_qr_scan", "android": "https://dc.lft.to/lastmile_qr_scan"}, "fusion_lon": 0.0, "lon": -76.9859005, "name": "86aae5b00a06dd2fe4c5934fb45c5d6a", "is_reserved": 0, "is_disabled": 0}, {"lat": 38.9274075, "fusion_lat": 0.0, "type": "electric_scooter", "bike_id": "093c65a8a75ad72153f6c3dc36a3e204", "rental_uris": {"ios": "https://dc.lft.to/lastmile_qr_scan", "android": "https://dc.lft.to/lastmile_qr_scan"}, "fusion_lon": 0.0, "lon": -77.022533, "name": "093c65a8a75ad72153f6c3dc36a3e204", "is_reserved": 0, "is_disabled": 0}, {"lat": 38.908797666666665, "fusion_lat": 0.0, "type": "electric_scooter", "bike_id": "358b6513c222412eaa8129a233f9185e", "rental_uris": {"ios": "https://dc.lft.to/lastmile_qr_scan", "android": "https://dc.lft.to/lastmile_qr_scan"}, "fusion_lon": 0.0, "lon": -77.0326045, "name": "358b6513c222412eaa8129a233f9185e", "is_reserved": 0, "is_disabled": 0}, {"lat": 38.94101716666667, "fusion_lat": 0.0, "type": "electric_scooter", "bike_id": "5d54645a66ea263bde0d2c3f4d7b4c76", "rental_uris": {"ios": "https://dc.lft.to/lastmile_qr_scan", "android": "https://dc.lft.to/lastmile_qr_scan"}, "fusion_lon": 0.0, "lon": -77.02644266666667, "name": "5d54645a66ea263bde0d2c3f4d7b4c76", "is_reserved": 0, "is_disabled": 0}, {"lat": 38.892202833333336, "fusion_lat": 0.0, "type": "electric_scooter", "bike_id": "0da6924f0e94ab69e2e607e3a6bebcde", "rental_uris": {"ios": "https://dc.lft.to/lastmile_qr_scan", "android": "https://dc.lft.to/lastmile_qr_scan"}, "fusion_lon": 0.0, "lon": -77.04325066666667, "name": "0da6924f0e94ab69e2e607e3a6bebcde", "is_reserved": 0, "is_disabled": 0}, {"lat": 38.99495733333333, "fusion_lat": 0.0, "type": "electric_bike", "bike_id": "ab64b148db49634494914cbd8f5c4eac", "rental_uris": {"ios": "https://dc.lft.to/lastmile_qr_scan", "android": "https://dc.lft.to/lastmile_qr_scan"}, "fusion_lon": 0.0, "lon": -77.0779325, "name": "ab64b148db49634494914cbd8f5c4eac", "is_reserved": 0, "is_disabled": 0}, {"lat": 38.892292166666664, "fusion_lat": 0.0, "type": "electric_scooter", "bike_id": "6c73b73a180f684b28a04da19ed78dc8", "rental_uris": {"ios": "https://dc.lft.to/lastmile_qr_scan", "android": "https://dc.lft.to/lastmile_qr_scan"}, "fusion_lon": 0.0, "lon": -77.04999766666667, "name": "6c73b73a180f684b28a04da19ed78dc8", "is_reserved": 0, "is_disabled": 0}, {"lat": 38.9095025, "fusion_lat": 0.0, "type": "electric_scooter", "bike_id": "ce4fd50a4c138fe7e7b751818748af0c", "rental_uris": {"ios": "https://dc.lft.to/lastmile_qr_scan", "android": "https://dc.lft.to/lastmile_qr_scan"}, "fusion_lon": 0.0, "lon": -77.02717683333333, "name": "ce4fd50a4c138fe7e7b751818748af0c", "is_reserved": 0, "is_disabled": 0}, {"lat": 38.846127, "fusion_lat": 0.0, "type": "electric_bike", "bike_id": "da71317144bbf52ffb72a71a14f79950", "rental_uris": {"ios": "https://dc.lft.to/lastmile_qr_scan", "android": "https://dc.lft.to/lastmile_qr_scan"}, "fusion_lon": 0.0, "lon": -76.96915483333333, "name": "da71317144bbf52ffb72a71a14f79950", "is_reserved": 0, "is_disabled": 0}, {"lat": 38.9026155, "fusion_lat": 0.0, "type": "electric_scooter", "bike_id": "66979bcdf722e239e9c1bd66ab989d15", "rental_uris": {"ios": "https://dc.lft.to/lastmile_qr_scan", "android": "https://dc.lft.to/lastmile_qr_scan"}, "fusion_lon": 0.0, "lon": -77.01701983333334, "name": "66979bcdf722e239e9c1bd66ab989d15", "is_reserved": 0, "is_disabled": 0}, {"lat": 38.92213433333333, "fusion_lat": 0.0, "type": "electric_scooter", "bike_id": "15478a09921201524f58868a622defe7", "rental_uris": {"ios": "https://dc.lft.to/lastmile_qr_scan", "android": "https://dc.lft.to/lastmile_qr_scan"}, "fusion_lon": 0.0, "lon": -77.036621, "name": "15478a09921201524f58868a622defe7", "is_reserved": 0, "is_disabled": 0}, {"lat": 38.910328, "fusion_lat": 0.0, "type": "electric_scooter", "bike_id": "a4564dcf0b1bbde27049ceacd0852221", "rental_uris": {"ios": "https://dc.lft.to/lastmile_qr_scan", "android": "https://dc.lft.to/lastmile_qr_scan"}, "fusion_lon": 0.0, "lon": -77.04362233333333, "name": "a4564dcf0b1bbde27049ceacd0852221", "is_reserved": 0, "is_disabled": 0}, {"lat": 38.8922575, "fusion_lat": 0.0, "type": "electric_scooter", "bike_id": "0d4284836e159eda729e8c437aa4aaef", "rental_uris": {"ios": "https://dc.lft.to/lastmile_qr_scan", "android": "https://dc.lft.to/lastmile_qr_scan"}, "fusion_lon": 0.0, "lon": -77.02205883333333, "name": "0d4284836e159eda729e8c437aa4aaef", "is_reserved": 0, "is_disabled": 0}, {"lat": 38.905085666666665, "fusion_lat": 0.0, "type": "electric_scooter", "bike_id": "9711ec383f3ee040b5663561dc90034f", "rental_uris": {"ios": "https://dc.lft.to/lastmile_qr_scan", "android": "https://dc.lft.to/lastmile_qr_scan"}, "fusion_lon": 0.0, "lon": -77.0658405, "name": "9711ec383f3ee040b5663561dc90034f", "is_reserved": 0, "is_disabled": 0}, {"lat": 38.89837516666667, "fusion_lat": 0.0, "type": "electric_scooter", "bike_id": "bbdc2b3280255108bcfa7f7c8e68c570", "rental_uris": {"ios": "https://dc.lft.to/lastmile_qr_scan", "android": "https://dc.lft.to/lastmile_qr_scan"}, "fusion_lon": 0.0, "lon": -77.0394645, "name": "bbdc2b3280255108bcfa7f7c8e68c570", "is_reserved": 0, "is_disabled": 0}, {"lat": 38.919561333333334, "fusion_lat": 0.0, "type": "electric_scooter", "bike_id": "39852b02e372aa6dd3c4823381948f06", "rental_uris": {"ios": "https://dc.lft.to/lastmile_qr_scan", "android": "https://dc.lft.to/lastmile_qr_scan"}, "fusion_lon": 0.0, "lon": -77.0322215, "name": "39852b02e372aa6dd3c4823381948f06", "is_reserved": 0, "is_disabled": 0}, {"lat": 38.89944233333333, "fusion_lat": 0.0, "type": "electric_scooter", "bike_id": "65e218ac47a3eaf924e750f2bea2bf33", "rental_uris": {"ios": "https://dc.lft.to/lastmile_qr_scan", "android": "https://dc.lft.to/lastmile_qr_scan"}, "fusion_lon": 0.0, "lon": -77.05105116666667, "name": "65e218ac47a3eaf924e750f2bea2bf33", "is_reserved": 0, "is_disabled": 0}, {"lat": 38.844223166666666, "fusion_lat": 0.0, "type": "electric_scooter", "bike_id": "46f68cfe863ea3bb931b116967580373", "rental_uris": {"ios": "https://dc.lft.to/lastmile_qr_scan", "android": "https://dc.lft.to/lastmile_qr_scan"}, "fusion_lon": 0.0, "lon": -76.997806, "name": "46f68cfe863ea3bb931b116967580373", "is_reserved": 0, "is_disabled": 0}, {"lat": 38.884870666666664, "fusion_lat": 0.0, "type": "electric_scooter", "bike_id": "ec6b5753099cfe0f7e6628b121a324a7", "rental_uris": {"ios": "https://dc.lft.to/lastmile_qr_scan", "android": "https://dc.lft.to/lastmile_qr_scan"}, "fusion_lon": 0.0, "lon": -77.00709683333334, "name": "ec6b5753099cfe0f7e6628b121a324a7", "is_reserved": 0, "is_disabled": 0}, {"lat": 38.909315666666664, "fusion_lat": 0.0, "type": "electric_scooter", "bike_id": "b859062f4a4b624136e0bacb9bf93f92", "rental_uris": {"ios": "https://dc.lft.to/lastmile_qr_scan", "android": "https://dc.lft.to/lastmile_qr_scan"}, "fusion_lon": 0.0, "lon": -76.999694, "name": "b859062f4a4b624136e0bacb9bf93f92", "is_reserved": 0, "is_disabled": 0}, {"lat": 38.92250083333333, "fusion_lat": 0.0, "type": "electric_scooter", "bike_id": "9d967af14047285d126b3f3a99f90d54", "rental_uris": {"ios": "https://dc.lft.to/lastmile_qr_scan", "android": "https://dc.lft.to/lastmile_qr_scan"}, "fusion_lon": 0.0, "lon": -77.0308305, "name": "9d967af14047285d126b3f3a99f90d54", "is_reserved": 0, "is_disabled": 0}, {"lat": 38.899086, "fusion_lat": 0.0, "type": "electric_scooter", "bike_id": "0991e4f23422593a58f88cd121444ef2", "rental_uris": {"ios": "https://dc.lft.to/lastmile_qr_scan", "android": "https://dc.lft.to/lastmile_qr_scan"}, "fusion_lon": 0.0, "lon": -77.02406816666667, "name": "0991e4f23422593a58f88cd121444ef2", "is_reserved": 0, "is_disabled": 0}, {"lat": 38.8848415, "fusion_lat": 0.0, "type": "electric_scooter", "bike_id": "561683ab454cca2eb0072556b7ad9b50", "rental_uris": {"ios": "https://dc.lft.to/lastmile_qr_scan", "android": "https://dc.lft.to/lastmile_qr_scan"}, "fusion_lon": 0.0, "lon": -77.03476, "name": "561683ab454cca2eb0072556b7ad9b50", "is_reserved": 0, "is_disabled": 0}, {"lat": 38.900327, "fusion_lat": 0.0, "type": "electric_scooter", "bike_id": "05386416f857eb10411fac71195d3159", "rental_uris": {"ios": "https://dc.lft.to/lastmile_qr_scan", "android": "https://dc.lft.to/lastmile_qr_scan"}, "fusion_lon": 0.0, "lon": -77.00208716666667, "name": "05386416f857eb10411fac71195d3159", "is_reserved": 0, "is_disabled": 0}, {"lat": 38.8561805, "fusion_lat": 0.0, "type": "electric_bike", "bike_id": "b62a1743f5f351f769b494924117ed96", "rental_uris": {"ios": "https://dc.lft.to/lastmile_qr_scan", "android": "https://dc.lft.to/lastmile_qr_scan"}, "fusion_lon": 0.0, "lon": -76.9615435, "name": "b62a1743f5f351f769b494924117ed96", "is_reserved": 0, "is_disabled": 0}, {"lat": 38.902606666666664, "fusion_lat": 0.0, "type": "electric_scooter", "bike_id": "3f8f89783016dc691bac551bf6d9ca28", "rental_uris": {"ios": "https://dc.lft.to/lastmile_qr_scan", "android": "https://dc.lft.to/lastmile_qr_scan"}, "fusion_lon": 0.0, "lon": -77.01999133333334, "name": "3f8f89783016dc691bac551bf6d9ca28", "is_reserved": 0, "is_disabled": 0}, {"lat": 38.898323, "fusion_lat": 0.0, "type": "electric_scooter", "bike_id": "50b3e39455612539476bba28b3f9f991", "rental_uris": {"ios": "https://dc.lft.to/lastmile_qr_scan", "android": "https://dc.lft.to/lastmile_qr_scan"}, "fusion_lon": 0.0, "lon": -77.0278555, "name": "50b3e39455612539476bba28b3f9f991", "is_reserved": 0, "is_disabled": 0}, {"lat": 38.936044333333335, "fusion_lat": 0.0, "type": "electric_scooter", "bike_id": "2d2eb7c31a70f631a047ffd893536d69", "rental_uris": {"ios": "https://dc.lft.to/lastmile_qr_scan", "android": "https://dc.lft.to/lastmile_qr_scan"}, "fusion_lon": 0.0, "lon": -77.031856, "name": "2d2eb7c31a70f631a047ffd893536d69", "is_reserved": 0, "is_disabled": 0}, {"lat": 38.9166305, "fusion_lat": 0.0, "type": "electric_scooter", "bike_id": "774ae57d5274180f3b47e30e94ad75df", "rental_uris": {"ios": "https://dc.lft.to/lastmile_qr_scan", "android": "https://dc.lft.to/lastmile_qr_scan"}, "fusion_lon": 0.0, "lon": -77.024742, "name": "774ae57d5274180f3b47e30e94ad75df", "is_reserved": 0, "is_disabled": 0}, {"lat": 38.930600166666665, "fusion_lat": 0.0, "type": "electric_scooter", "bike_id": "6347b81e94689eeb123c0b774aa6135e", "rental_uris": {"ios": "https://dc.lft.to/lastmile_qr_scan", "android": "https://dc.lft.to/lastmile_qr_scan"}, "fusion_lon": 0.0, "lon": -77.038205, "name": "6347b81e94689eeb123c0b774aa6135e", "is_reserved": 0, "is_disabled": 0}, {"lat": 38.9270415, "fusion_lat": 0.0, "type": "electric_scooter", "bike_id": "10db72869b1c19d5b384fe3fabe3c5d8", "rental_uris": {"ios": "https://dc.lft.to/lastmile_qr_scan", "android": "https://dc.lft.to/lastmile_qr_scan"}, "fusion_lon": 0.0, "lon": -77.0207595, "name": "10db72869b1c19d5b384fe3fabe3c5d8", "is_reserved": 0, "is_disabled": 0}, {"lat": 38.89227266666666, "fusion_lat": 0.0, "type": "electric_scooter", "bike_id": "ddd4acc4325477c4837e72c08caf15e5", "rental_uris": {"ios": "https://dc.lft.to/lastmile_qr_scan", "android": "https://dc.lft.to/lastmile_qr_scan"}, "fusion_lon": 0.0, "lon": -77.0220525, "name": "ddd4acc4325477c4837e72c08caf15e5", "is_reserved": 0, "is_disabled": 0}, {"lat": 38.8097695, "fusion_lat": 0.0, "type": "electric_bike", "bike_id": "7c9c4cf162cc8b57c88c949df8ca8f41", "rental_uris": {"ios": "https://dc.lft.to/lastmile_qr_scan", "android": "https://dc.lft.to/lastmile_qr_scan"}, "fusion_lon": 0.0, "lon": -77.07659966666667, "name": "7c9c4cf162cc8b57c88c949df8ca8f41", "is_reserved": 0, "is_disabled": 0}, {"lat": 38.94959, "fusion_lat": 0.0, "type": "electric_scooter", "bike_id": "246484de53ee83a8ad62e371a33b9ce7", "rental_uris": {"ios": "https://dc.lft.to/lastmile_qr_scan", "android": "https://dc.lft.to/lastmile_qr_scan"}, "fusion_lon": 0.0, "lon": -77.066743, "name": "246484de53ee83a8ad62e371a33b9ce7", "is_reserved": 0, "is_disabled": 0}, {"lat": 38.906711333333334, "fusion_lat": 0.0, "type": "electric_scooter", "bike_id": "0ce82036ca05a5e854e9fd434a7f38a8", "rental_uris": {"ios": "https://dc.lft.to/lastmile_qr_scan", "android": "https://dc.lft.to/lastmile_qr_scan"}, "fusion_lon": 0.0, "lon": -77.02713816666666, "name": "0ce82036ca05a5e854e9fd434a7f38a8", "is_reserved": 0, "is_disabled": 0}, {"lat": 38.876504833333335, "fusion_lat": 0.0, "type": "electric_scooter", "bike_id": "a839f16e0f8f03f13e553ec6dc10c1f6", "rental_uris": {"ios": "https://dc.lft.to/lastmile_qr_scan", "android": "https://dc.lft.to/lastmile_qr_scan"}, "fusion_lon": 0.0, "lon": -77.00295933333334, "name": "a839f16e0f8f03f13e553ec6dc10c1f6", "is_reserved": 0, "is_disabled": 0}, {"lat": 38.89554966666667, "fusion_lat": 0.0, "type": "electric_scooter", "bike_id": "33b65fadc55d25fa3c95b90178a2c41a", "rental_uris": {"ios": "https://dc.lft.to/lastmile_qr_scan", "android": "https://dc.lft.to/lastmile_qr_scan"}, "fusion_lon": 0.0, "lon": -76.98231816666667, "name": "33b65fadc55d25fa3c95b90178a2c41a", "is_reserved": 0, "is_disabled": 0}, {"lat": 38.885247666666665, "fusion_lat": 0.0, "type": "electric_scooter", "bike_id": "cdfd2a56a1f321190bc793b02cd4c16d", "rental_uris": {"ios": "https://dc.lft.to/lastmile_qr_scan", "android": "https://dc.lft.to/lastmile_qr_scan"}, "fusion_lon": 0.0, "lon": -76.99608783333333, "name": "cdfd2a56a1f321190bc793b02cd4c16d", "is_reserved": 0, "is_disabled": 0}, {"lat": 38.902816333333334, "fusion_lat": 0.0, "type": "electric_scooter", "bike_id": "9be054c05c46a9626b771713b7b90297", "rental_uris": {"ios": "https://dc.lft.to/lastmile_qr_scan", "android": "https://dc.lft.to/lastmile_qr_scan"}, "fusion_lon": 0.0, "lon": -77.04072033333334, "name": "9be054c05c46a9626b771713b7b90297", "is_reserved": 0, "is_disabled": 0}, {"lat": 38.9239085, "fusion_lat": 0.0, "type": "electric_scooter", "bike_id": "19673b5283020b7c5afff9a478deecd4", "rental_uris": {"ios": "https://dc.lft.to/lastmile_qr_scan", "android": "https://dc.lft.to/lastmile_qr_scan"}, "fusion_lon": 0.0, "lon": -77.02978633333333, "name": "19673b5283020b7c5afff9a478deecd4", "is_reserved": 0, "is_disabled": 0}, {"lat": 38.91022516666666, "fusion_lat": 0.0, "type": "electric_scooter", "bike_id": "73aa7d020268a6f7be9235cf65171169", "rental_uris": {"ios": "https://dc.lft.to/lastmile_qr_scan", "android": "https://dc.lft.to/lastmile_qr_scan"}, "fusion_lon": 0.0, "lon": -77.02930666666667, "name": "73aa7d020268a6f7be9235cf65171169", "is_reserved": 0, "is_disabled": 0}, {"lat": 38.96180583333334, "fusion_lat": 0.0, "type": "electric_scooter", "bike_id": "a943cb8081a479557860de3e2093d2d3", "rental_uris": {"ios": "https://dc.lft.to/lastmile_qr_scan", "android": "https://dc.lft.to/lastmile_qr_scan"}, "fusion_lon": 0.0, "lon": -77.0143505, "name": "a943cb8081a479557860de3e2093d2d3", "is_reserved": 0, "is_disabled": 0}, {"lat": 38.91380483333333, "fusion_lat": 0.0, "type": "electric_scooter", "bike_id": "8c79d23c8c2b61a3397cb5da98ee3eb3", "rental_uris": {"ios": "https://dc.lft.to/lastmile_qr_scan", "android": "https://dc.lft.to/lastmile_qr_scan"}, "fusion_lon": 0.0, "lon": -77.02208616666667, "name": "8c79d23c8c2b61a3397cb5da98ee3eb3", "is_reserved": 0, "is_disabled": 0}, {"lat": 38.89263583333333, "fusion_lat": 0.0, "type": "electric_scooter", "bike_id": "ccdd26927db0de26c07599bf8c486670", "rental_uris": {"ios": "https://dc.lft.to/lastmile_qr_scan", "android": "https://dc.lft.to/lastmile_qr_scan"}, "fusion_lon": 0.0, "lon": -77.00377233333333, "name": "ccdd26927db0de26c07599bf8c486670", "is_reserved": 0, "is_disabled": 0}, {"lat": 38.8605575, "fusion_lat": 0.0, "type": "electric_scooter", "bike_id": "5fc64ee618503459c74d035b09062f0d", "rental_uris": {"ios": "https://dc.lft.to/lastmile_qr_scan", "android": "https://dc.lft.to/lastmile_qr_scan"}, "fusion_lon": 0.0, "lon": -76.9671875, "name": "5fc64ee618503459c74d035b09062f0d", "is_reserved": 0, "is_disabled": 0}, {"lat": 38.8840645, "fusion_lat": 0.0, "type": "electric_scooter", "bike_id": "8339672b5b8ac8ac8d76965dca288b22", "rental_uris": {"ios": "https://dc.lft.to/lastmile_qr_scan", "android": "https://dc.lft.to/lastmile_qr_scan"}, "fusion_lon": 0.0, "lon": -77.017718, "name": "8339672b5b8ac8ac8d76965dca288b22", "is_reserved": 0, "is_disabled": 0}, {"lat": 38.87762016666667, "fusion_lat": 0.0, "type": "electric_scooter", "bike_id": "ae0e46682a1026c09eb89cd8ad7dc9c5", "rental_uris": {"ios": "https://dc.lft.to/lastmile_qr_scan", "android": "https://dc.lft.to/lastmile_qr_scan"}, "fusion_lon": 0.0, "lon": -77.0176315, "name": "ae0e46682a1026c09eb89cd8ad7dc9c5", "is_reserved": 0, "is_disabled": 0}, {"lat": 38.91788916666667, "fusion_lat": 0.0, "type": "electric_scooter", "bike_id": "e96c942f5f08b4b81c43aa49c4ccd3ce", "rental_uris": {"ios": "https://dc.lft.to/lastmile_qr_scan", "android": "https://dc.lft.to/lastmile_qr_scan"}, "fusion_lon": 0.0, "lon": -77.02289983333333, "name": "e96c942f5f08b4b81c43aa49c4ccd3ce", "is_reserved": 0, "is_disabled": 0}, {"lat": 39.039065, "fusion_lat": 0.0, "type": "electric_bike", "bike_id": "e057471beb2a6f3fa1db66b3f0caae39", "rental_uris": {"ios": "https://dc.lft.to/lastmile_qr_scan", "android": "https://dc.lft.to/lastmile_qr_scan"}, "fusion_lon": 0.0, "lon": -77.05030116666667, "name": "e057471beb2a6f3fa1db66b3f0caae39", "is_reserved": 0, "is_disabled": 0}, {"lat": 38.910633, "fusion_lat": 0.0, "type": "electric_scooter", "bike_id": "dca601436b71dacbf8abe0b318bb5b0f", "rental_uris": {"ios": "https://dc.lft.to/lastmile_qr_scan", "android": "https://dc.lft.to/lastmile_qr_scan"}, "fusion_lon": 0.0, "lon": -77.044835, "name": "dca601436b71dacbf8abe0b318bb5b0f", "is_reserved": 0, "is_disabled": 0}, {"lat": 38.859198166666665, "fusion_lat": 0.0, "type": "electric_scooter", "bike_id": "71aedb3df3fe4ebd49310050a9bc33a9", "rental_uris": {"ios": "https://dc.lft.to/lastmile_qr_scan", "android": "https://dc.lft.to/lastmile_qr_scan"}, "fusion_lon": 0.0, "lon": -76.98977533333333, "name": "71aedb3df3fe4ebd49310050a9bc33a9", "is_reserved": 0, "is_disabled": 0}, {"lat": 38.921569833333336, "fusion_lat": 0.0, "type": "electric_scooter", "bike_id": "91de8df36a55944c89a44af0c53c7e86", "rental_uris": {"ios": "https://dc.lft.to/lastmile_qr_scan", "android": "https://dc.lft.to/lastmile_qr_scan"}, "fusion_lon": 0.0, "lon": -77.03339, "name": "91de8df36a55944c89a44af0c53c7e86", "is_reserved": 0, "is_disabled": 0},