{"data": {"bikes": [{"is_disabled": 0, "rental_uris": {"android": "https://dc.lft.to/lastmile_qr_scan", "ios": "https://dc.lft.to/lastmile_qr_scan"}, "is_reserved": 0, "name": "36d03d40b7d20f4b2fdf867237ef2756", "lon": -77.182916, "type": "electric_bike", "bike_id": "36d03d40b7d20f4b2fdf867237ef2756", "fusion_lon": 0.0, "lat": 38.883446666666664, "fusion_lat": 0.0}, {"is_disabled": 0, "rental_uris": {"android": "https://dc.lft.to/lastmile_qr_scan", "ios": "https://dc.lft.to/lastmile_qr_scan"}, "is_reserved": 0, "name": "93c9a4e1a0b1afc6c3003415061254be", "lon": -76.980972, "type": "electric_scooter", "bike_id": "93c9a4e1a0b1afc6c3003415061254be", "fusion_lon": 0.0, "lat": 38.857257, "fusion_lat": 0.0}, {"is_disabled": 0, "rental_uris": {"android": "https://dc.lft.to/lastmile_qr_scan", "ios": "https://dc.lft.to/lastmile_qr_scan"}, "is_reserved": 0, "name": "f4023567607bd9dfa5a12b3d2f7162d9", "lon": -77.01695116666667, "type": "electric_scooter", "bike_id": "f4023567607bd9dfa5a12b3d2f7162d9", "fusion_lon": 0.0, "lat": 38.974907333333334, "fusion_lat": 0.0}, {"is_disabled": 0, "rental_uris": {"android": "https://dc.lft.to/lastmile_qr_scan", "ios": "https://dc.lft.to/lastmile_qr_scan"}, "is_reserved": 0, "name": "57310a355a6cab9103404a8b95fc1690", "lon": -77.0432925, "type": "electric_scooter", "bike_id": "57310a355a6cab9103404a8b95fc1690", "fusion_lon": 0.0, "lat": 38.89660816666667, "fusion_lat": 0.0}, {"is_disabled": 0, "rental_uris": {"android": "https://dc.lft.to/lastmile_qr_scan", "ios": "https://dc.lft.to/lastmile_qr_scan"}, "is_reserved": 0, "name": "9fe62334ea1e1aa279062757c0a0918e", "lon": -77.02466316666667, "type": "electric_scooter", "bike_id": "9fe62334ea1e1aa279062757c0a0918e", "fusion_lon": 0.0, "lat": 38.939034, "fusion_lat": 0.0}, {"is_disabled": 0, "rental_uris": {"android": "https://dc.lft.to/lastmile_qr_scan", "ios": "https://dc.lft.to/lastmile_qr_scan"}, "is_reserved": 0, "name": "2146f8b4415f99124bcda3c7f8afd622", "lon": -76.98514783333333, "type": "electric_scooter", "bike_id": "2146f8b4415f99124bcda3c7f8afd622", "fusion_lon": 0.0, "lat": 38.86004283333333, "fusion_lat": 0.0}, {"is_disabled": 0, "rental_uris": {"android": "https://dc.lft.to/lastmile_qr_scan", "ios": "https://dc.lft.to/lastmile_qr_scan"}, "is_reserved": 0, "name": "516de629e43b306ff407001a21a30f8d", "lon": -76.98755833333334, "type": "electric_bike", "bike_id": "516de629e43b306ff407001a21a30f8d", "fusion_lon": 0.0, "lat": 38.988302166666664, "fusion_lat": 0.0}, {"is_disabled": 0, "rental_uris": {"android": "https://dc.lft.to/lastmile_qr_scan", "ios": "https://dc.lft.to/lastmile_qr_scan"}, "is_reserved": 0, "name": "1387b85f28d65d61d6c5f29ddcd5605a", "lon": -76.96914216666667, "type": "electric_scooter", "bike_id": "1387b85f28d65d61d6c5f29ddcd5605a", "fusion_lon": 0.0, "lat": 38.855308666666666, "fusion_lat": 0.0}, {"is_disabled": 0, "rental_uris": {"android": "https://dc.lft.to/lastmile_qr_scan", "ios": "https://dc.lft.to/lastmile_qr_scan"}, "is_reserved": 0, "name": "8a5f3f065de1cd505b422144d2f8e55b", "lon": -77.03549433333333, "type": "electric_scooter", "bike_id": "8a5f3f065de1cd505b422144d2f8e55b", "fusion_lon": 0.0, "lat": 38.90665166666667, "fusion_lat": 0.0}, {"is_disabled": 0, "rental_uris": {"android": "https://dc.lft.to/lastmile_qr_scan", "ios": "https://dc.lft.to/lastmile_qr_scan"}, "is_reserved": 0, "name": "53d8c93d99b8a797ce3579595f9e8ec7", "lon": -76.931151, "type": "electric_scooter", "bike_id": "53d8c93d99b8a797ce3579595f9e8ec7", "fusion_lon": 0.0, "lat": 38.880168166666664, "fusion_lat": 0.0}, {"is_disabled": 0, "rental_uris": {"android": "https://dc.lft.to/lastmile_qr_scan", "ios": "https://dc.lft.to/lastmile_qr_scan"}, "is_reserved": 0, "name": "fc63376c6c8626789159166313d0d0b7", "lon": -77.02833566666666, "type": "electric_scooter", "bike_id": "fc63376c6c8626789159166313d0d0b7", "fusion_lon": 0.0, "lat": 38.895177, "fusion_lat": 0.0}, {"is_disabled": 0, "rental_uris": {"android": "https://dc.lft.to/lastmile_qr_scan", "ios": "https://dc.lft.to/lastmile_qr_scan"}, "is_reserved": 0, "name": "bb6a498d64bef2a2af9ddb2d9a03ec32", "lon": -77.01212716666667, "type": "electric_scooter", "bike_id": "bb6a498d64bef2a2af9ddb2d9a03ec32", "fusion_lon": 0.0, "lat": 38.918263, "fusion_lat": 0.0}, {"is_disabled": 0, "rental_uris": {"android": "https://dc.lft.to/lastmile_qr_scan", "ios": "https://dc.lft.to/lastmile_qr_scan"}, "is_reserved": 0, "name": "c27cda408d78b7a233708330d7cfe6f6", "lon": -76.983712, "type": "electric_scooter", "bike_id": "c27cda408d78b7a233708330d7cfe6f6", "fusion_lon": 0.0, "lat": 38.915005, "fusion_lat": 0.0}, {"is_disabled": 0, "rental_uris": {"android": "https://dc.lft.to/lastmile_qr_scan", "ios": "https://dc.lft.to/lastmile_qr_scan"}, "is_reserved": 0, "name": "b6ea80ee655b9ad2b9ca8cca57e18e57", "lon": -77.04642733333333, "type": "electric_scooter", "bike_id": "b6ea80ee655b9ad2b9ca8cca57e18e57", "fusion_lon": 0.0, "lat": 38.905025333333334, "fusion_lat": 0.0}, {"is_disabled": 0, "rental_uris": {"android": "https://dc.lft.to/lastmile_qr_scan", "ios": "https://dc.lft.to/lastmile_qr_scan"}, "is_reserved": 0, "name": "ed06cee66c4a08076628ad1d3f91f23a", "lon": -77.0790125, "type": "electric_bike", "bike_id": "ed06cee66c4a08076628ad1d3f91f23a", "fusion_lon": 0.0, "lat": 38.839486, "fusion_lat": 0.0}, {"is_disabled": 0, "rental_uris": {"android": "https://dc.lft.to/lastmile_qr_scan", "ios": "https://dc.lft.to/lastmile_qr_scan"}, "is_reserved": 0, "name": "d487c71f04e3985426b882f85b0126aa", "lon": -77.04015316666667, "type": "electric_scooter", "bike_id": "d487c71f04e3985426b882f85b0126aa", "fusion_lon": 0.0, "lat": 38.92092133333333, "fusion_lat": 0.0}, {"is_disabled": 0, "rental_uris": {"android": "https://dc.lft.to/lastmile_qr_scan", "ios": "https://dc.lft.to/lastmile_qr_scan"}, "is_reserved": 0, "name": "7117506c54a2473e1dcf752c9e762908", "lon": -77.0034985, "type": "electric_scooter", "bike_id": "7117506c54a2473e1dcf752c9e762908", "fusion_lon": 0.0, "lat": 38.9046735, "fusion_lat": 0.0}, {"is_disabled": 0, "rental_uris": {"android": "https://dc.lft.to/lastmile_qr_scan", "ios": "https://dc.lft.to/lastmile_qr_scan"}, "is_reserved": 0, "name": "00517c5d243b830af5f4dfd81ed02f3f", "lon": -77.0365715, "type": "electric_scooter", "bike_id": "00517c5d243b830af5f4dfd81ed02f3f", "fusion_lon": 0.0, "lat": 38.922619833333336, "fusion_lat": 0.0}, {"is_disabled": 0, "rental_uris": {"android": "https://dc.lft.to/lastmile_qr_scan", "ios": "https://dc.lft.to/lastmile_qr_scan"}, "is_reserved": 0, "name": "e7963a67246cba52926011f9126e6724", "lon": -77.0705815, "type": "electric_scooter", "bike_id": "e7963a67246cba52926011f9126e6724", "fusion_lon": 0.0, "lat": 38.91955083333333, "fusion_lat": 0.0}, {"is_disabled": 0, "rental_uris": {"android": "https://dc.lft.to/lastmile_qr_scan", "ios": "https://dc.lft.to/lastmile_qr_scan"}, "is_reserved": 0, "name": "517359785f778ff47505082099eb753a", "lon": -77.05120166666667, "type": "electric_scooter", "bike_id": "517359785f778ff47505082099eb753a", "fusion_lon": 0.0, "lat": 38.905936, "fusion_lat": 0.0}, {"is_disabled": 0, "rental_uris": {"android": "https://dc.lft.to/lastmile_qr_scan", "ios": "https://dc.lft.to/lastmile_qr_scan"}, "is_reserved": 0, "name": "c79ca632eef3bc997e592a75f2905b07", "lon": -76.95215833333333, "type": "electric_scooter", "bike_id": "c79ca632eef3bc997e592a75f2905b07", "fusion_lon": 0.0, "lat": 38.892567, "fusion_lat": 0.0}, {"is_disabled": 0, "rental_uris": {"android": "https://dc.lft.to/lastmile_qr_scan", "ios": "https://dc.lft.to/lastmile_qr_scan"}, "is_reserved": 0, "name": "aa5b003b806c0248f877d11770927702", "lon": -77.03478916666667, "type": "electric_scooter", "bike_id": "aa5b003b806c0248f877d11770927702", "fusion_lon": 0.0, "lat": 38.92161266666667, "fusion_lat": 0.0}, {"is_disabled": 0, "rental_uris": {"android": "https://dc.lft.to/lastmile_qr_scan", "ios": "https://dc.lft.to/lastmile_qr_scan"}, "is_reserved": 0, "name": "b5b787a22afe8eafc4007f98560a0edd", "lon": -76.99911816666666, "type": "electric_scooter", "bike_id": "b5b787a22afe8eafc4007f98560a0edd", "fusion_lon": 0.0, "lat": 38.900412833333334, "fusion_lat": 0.0}, {"is_disabled": 0, "rental_uris": {"android": "https://dc.lft.to/lastmile_qr_scan", "ios": "https://dc.lft.to/lastmile_qr_scan"}, "is_reserved": 0, "name": "20ba86c4130ff4471ffcabfd66162cab", "lon": -77.043454, "type": "electric_scooter", "bike_id": "20ba86c4130ff4471ffcabfd66162cab", "fusion_lon": 0.0, "lat": 38.898324, "fusion_lat": 0.0}, {"is_disabled": 0, "rental_uris": {"android": "https://dc.lft.to/lastmile_qr_scan", "ios": "https://dc.lft.to/lastmile_qr_scan"}, "is_reserved": 0, "name": "e58f768110ad6c1b3cf72d5151970ade", "lon": -77.02393983333333, "type": "electric_scooter", "bike_id": "e58f768110ad6c1b3cf72d5151970ade", "fusion_lon": 0.0, "lat": 38.920211333333334, "fusion_lat": 0.0}, {"is_disabled": 0, "rental_uris": {"android": "https://dc.lft.to/lastmile_qr_scan", "ios": "https://dc.lft.to/lastmile_qr_scan"}, "is_reserved": 0, "name": "9d03d3a20c43da20a7ebae858d5c6f07", "lon": -77.02710083333334, "type": "electric_scooter", "bike_id": "9d03d3a20c43da20a7ebae858d5c6f07", "fusion_lon": 0.0, "lat": 38.91971683333333, "fusion_lat": 0.0}, {"is_disabled": 0, "rental_uris": {"android": "https://dc.lft.to/lastmile_qr_scan", "ios": "https://dc.lft.to/lastmile_qr_scan"}, "is_reserved": 0, "name": "a707aadf27111a92682bb040fadddf66", "lon": -77.02792716666667, "type": "electric_scooter", "bike_id": "a707aadf27111a92682bb040fadddf66", "fusion_lon": 0.0, "lat": 38.90394416666667, "fusion_lat": 0.0}, {"is_disabled": 0, "rental_uris": {"android": "https://dc.lft.to/lastmile_qr_scan", "ios": "https://dc.lft.to/lastmile_qr_scan"}, "is_reserved": 0, "name": "0e33caadd8703e96b0fa8ceae47563c7", "lon": -77.034504, "type": "electric_scooter", "bike_id": "0e33caadd8703e96b0fa8ceae47563c7", "fusion_lon": 0.0, "lat": 38.93143833333333, "fusion_lat": 0.0}, {"is_disabled": 0, "rental_uris": {"android": "https://dc.lft.to/lastmile_qr_scan", "ios": "https://dc.lft.to/lastmile_qr_scan"}, "is_reserved": 0, "name": "91f3daa351ab0cc031840cc5028c1032", "lon": -76.94635483333333, "type": "electric_scooter", "bike_id": "91f3daa351ab0cc031840cc5028c1032", "fusion_lon": 0.0, "lat": 38.89846816666667, "fusion_lat": 0.0}, {"is_disabled": 0, "rental_uris": {"android": "https://dc.lft.to/lastmile_qr_scan", "ios": "https://dc.lft.to/lastmile_qr_scan"}, "is_reserved": 0, "name": "6b8b97e3e9ca992143eb61d12de00fd0", "lon": -76.99539516666667, "type": "electric_scooter", "bike_id": "6b8b97e3e9ca992143eb61d12de00fd0", "fusion_lon": 0.0, "lat": 38.8625385, "fusion_lat": 0.0}, {"is_disabled": 0, "rental_uris": {"android": "https://dc.lft.to/lastmile_qr_scan", "ios": "https://dc.lft.to/lastmile_qr_scan"}, "is_reserved": 0, "name": "f63fbdb2a397a375bbe24bca95374f97", "lon": -77.0487225, "type": "electric_scooter", "bike_id": "f63fbdb2a397a375bbe24bca95374f97", "fusion_lon": 0.0, "lat": 38.9095535, "fusion_lat": 0.0}, {"is_disabled": 0, "rental_uris": {"android": "https://dc.lft.to/lastmile_qr_scan", "ios": "https://dc.lft.to/lastmile_qr_scan"}, "is_reserved": 0, "name": "03c05a8288caba3209d9df18e0f3b28b", "lon": -77.04616116666666, "type": "electric_scooter", "bike_id": "03c05a8288caba3209d9df18e0f3b28b", "fusion_lon": 0.0, "lat": 38.89973766666667, "fusion_lat": 0.0}, {"is_disabled": 0, "rental_uris": {"android": "https://dc.lft.to/lastmile_qr_scan", "ios": "https://dc.lft.to/lastmile_qr_scan"}, "is_reserved": 0, "name": "74b3b3ffb0fa715d189f4533743fd6a9", "lon": -77.12405583333333, "type": "electric_bike", "bike_id": "74b3b3ffb0fa715d189f4533743fd6a9", "fusion_lon": 0.0, "lat": 38.8933835, "fusion_lat": 0.0}, {"is_disabled": 0, "rental_uris": {"android": "https://dc.lft.to/lastmile_qr_scan", "ios": "https://dc.lft.to/lastmile_qr_scan"}, "is_reserved": 0, "name": "87130af3522f915be625f33475df43b2", "lon": -77.0418055, "type": "electric_scooter", "bike_id": "87130af3522f915be625f33475df43b2", "fusion_lon": 0.0, "lat": 38.9080185, "fusion_lat": 0.0}, {"is_disabled": 0, "rental_uris": {"android": "https://dc.lft.to/lastmile_qr_scan", "ios": "https://dc.lft.to/lastmile_qr_scan"}, "is_reserved": 0, "name": "3ed3e0085fb94dbd07575c0813ab0b51", "lon": -77.02216716666666, "type": "electric_scooter", "bike_id": "3ed3e0085fb94dbd07575c0813ab0b51", "fusion_lon": 0.0, "lat": 38.91553833333333, "fusion_lat": 0.0}, {"is_disabled": 0, "rental_uris": {"android": "https://dc.lft.to/lastmile_qr_scan", "ios": "https://dc.lft.to/lastmile_qr_scan"}, "is_reserved": 0, "name": "4fb2841ccb36caf9ca6685fcc6ee1f44", "lon": -77.02094233333334, "type": "electric_scooter", "bike_id": "4fb2841ccb36caf9ca6685fcc6ee1f44", "fusion_lon": 0.0, "lat": 38.934755833333334, "fusion_lat": 0.0}, {"is_disabled": 0, "rental_uris": {"android": "https://dc.lft.to/lastmile_qr_scan", "ios": "https://dc.lft.to/lastmile_qr_scan"}, "is_reserved": 0, "name": "f64281ea59afe520d86ba0d7b32ac049", "lon": -77.01373083333333, "type": "electric_scooter", "bike_id": "f64281ea59afe520d86ba0d7b32ac049", "fusion_lon": 0.0, "lat": 38.9104195, "fusion_lat": 0.0}, {"is_disabled": 0, "rental_uris": {"android": "https://dc.lft.to/lastmile_qr_scan", "ios": "https://dc.lft.to/lastmile_qr_scan"}, "is_reserved": 0, "name": "8949c5f266b03a1d520fd61a766dc55d", "lon": -77.0269685, "type": "electric_scooter", "bike_id": "8949c5f266b03a1d520fd61a766dc55d", "fusion_lon": 0.0, "lat": 38.91842116666667, "fusion_lat": 0.0}, {"is_disabled": 0, "rental_uris": {"android": "https://dc.lft.to/lastmile_qr_scan", "ios": "https://dc.lft.to/lastmile_qr_scan"}, "is_reserved": 0, "name": "c99464b834ef98a15aac23935e5227f0", "lon": -77.012379, "type": "electric_scooter", "bike_id": "c99464b834ef98a15aac23935e5227f0", "fusion_lon": 0.0, "lat": 38.874729333333335, "fusion_lat": 0.0}, {"is_disabled": 0, "rental_uris": {"android": "https://dc.lft.to/lastmile_qr_scan", "ios": "https://dc.lft.to/lastmile_qr_scan"}, "is_reserved": 0, "name": "fe685966e473b2b1f8bd289e6b8d4a9d", "lon": -77.0246385, "type": "electric_scooter", "bike_id": "fe685966e473b2b1f8bd289e6b8d4a9d", "fusion_lon": 0.0, "lat": 38.93776833333333, "fusion_lat": 0.0}, {"is_disabled": 0, "rental_uris": {"android": "https://dc.lft.to/lastmile_qr_scan", "ios": "https://dc.lft.to/lastmile_qr_scan"}, "is_reserved": 0, "name": "fa2fb6066113ee3a487142fba8ca3137", "lon": -77.02953483333333, "type": "electric_scooter", "bike_id": "fa2fb6066113ee3a487142fba8ca3137", "fusion_lon": 0.0, "lat": 38.911906, "fusion_lat": 0.0}, {"is_disabled": 0, "rental_uris": {"android": "https://dc.lft.to/lastmile_qr_scan", "ios": "https://dc.lft.to/lastmile_qr_scan"}, "is_reserved": 0, "name": "aef12c5b92ee742c45922a82c284fd63", "lon": -77.06534033333334, "type": "electric_scooter", "bike_id": "aef12c5b92ee742c45922a82c284fd63", "fusion_lon": 0.0, "lat": 38.905196833333335, "fusion_lat": 0.0}, {"is_disabled": 0, "rental_uris": {"android": "https://dc.lft.to/lastmile_qr_scan", "ios": "https://dc.lft.to/lastmile_qr_scan"}, "is_reserved": 0, "name": "ed8e242a33e0de6e73bbe8232f675a1f", "lon": -77.03518316666667, "type": "electric_scooter", "bike_id": "ed8e242a33e0de6e73bbe8232f675a1f", "fusion_lon": 0.0, "lat": 38.9224395, "fusion_lat": 0.0}, {"is_disabled": 0, "rental_uris": {"android": "https://dc.lft.to/lastmile_qr_scan", "ios": "https://dc.lft.to/lastmile_qr_scan"}, "is_reserved": 0, "name": "1b2693efb1083b8c8fa7167e0608e058", "lon": -77.05413616666667, "type": "electric_scooter", "bike_id": "1b2693efb1083b8c8fa7167e0608e058", "fusion_lon": 0.0, "lat": 38.927736833333334, "fusion_lat": 0.0}, {"is_disabled": 0, "rental_uris": {"android": "https://dc.lft.to/lastmile_qr_scan", "ios": "https://dc.lft.to/lastmile_qr_scan"}, "is_reserved": 0, "name": "4ba971dcb93cda6aa64231de463e42ff", "lon": -77.02801, "type": "electric_scooter", "bike_id": "4ba971dcb93cda6aa64231de463e42ff", "fusion_lon": 0.0, "lat": 38.8843725, "fusion_lat": 0.0}, {"is_disabled": 0, "rental_uris": {"android": "https://dc.lft.to/lastmile_qr_scan", "ios": "https://dc.lft.to/lastmile_qr_scan"}, "is_reserved": 0, "name": "00c4923894ea081ecc6da42a9dd11823", "lon": -77.0420845, "type": "electric_scooter", "bike_id": "00c4923894ea081ecc6da42a9dd11823", "fusion_lon": 0.0, "lat": 38.91685716666667, "fusion_lat": 0.0}, {"is_disabled": 0, "rental_uris": {"android": "https://dc.lft.to/lastmile_qr_scan", "ios": "https://dc.lft.to/lastmile_qr_scan"}, "is_reserved": 0, "name": "d65c8ab50a29e17b6693c73af3ac022f", "lon": -77.11519366666667, "type": "electric_bike", "bike_id": "d65c8ab50a29e17b6693c73af3ac022f", "fusion_lon": 0.0, "lat": 38.88221883333333, "fusion_lat": 0.0}, {"is_disabled": 0, "rental_uris": {"android": "https://dc.lft.to/lastmile_qr_scan", "ios": "https://dc.lft.to/lastmile_qr_scan"}, "is_reserved": 0, "name": "01a1061d26aaeb794c989fac5f3714d9", "lon": -77.03084533333333, "type": "electric_scooter", "bike_id": "01a1061d26aaeb794c989fac5f3714d9", "fusion_lon": 0.0, "lat": 38.922433166666664, "fusion_lat": 0.0}, {"is_disabled": 0, "rental_uris": {"android": "https://dc.lft.to/lastmile_qr_scan", "ios": "https://dc.lft.to/lastmile_qr_scan"}, "is_reserved": 0, "name": "a2c65e6e25be04ed30ba257842270013", "lon": -77.02195983333333, "type": "electric_scooter", "bike_id": "a2c65e6e25be04ed30ba257842270013", "fusion_lon": 0.0, "lat": 38.9098155, "fusion_lat": 0.0}, {"is_disabled": 0, "rental_uris": {"android": "https://dc.lft.to/lastmile_qr_scan", "ios": "https://dc.lft.to/lastmile_qr_scan"}, "is_reserved": 0, "name": "ec8cf826ec2c392fb1c3f0374ca959c6", "lon": -76.97997983333333, "type": "electric_scooter", "bike_id": "ec8cf826ec2c392fb1c3f0374ca959c6", "fusion_lon": 0.0, "lat": 38.88878016666666, "fusion_lat": 0.0}, {"is_disabled": 0, "rental_uris": {"android": "https://dc.lft.to/lastmile_qr_scan", "ios": "https://dc.lft.to/lastmile_qr_scan"}, "is_reserved": 0, "name": "d2ded1f53b906a6e9809ec23a6484cb5", "lon": -77.02200133333334, "type": "electric_scooter", "bike_id": "d2ded1f53b906a6e9809ec23a6484cb5", "fusion_lon": 0.0, "lat": 38.901658166666664, "fusion_lat": 0.0}, {"is_disabled": 0, "rental_uris": {"android": "https://dc.lft.to/lastmile_qr_scan", "ios": "https://dc.lft.to/lastmile_qr_scan"}, "is_reserved": 0, "name": "5ebb8d2441255219845dfec4c157e99b", "lon": -76.98469166666666, "type": "electric_scooter", "bike_id": "5ebb8d2441255219845dfec4c157e99b", "fusion_lon": 0.0, "lat": 38.8936275, "fusion_lat": 0.0}, {"is_disabled": 0, "rental_uris": {"android": "https://dc.lft.to/lastmile_qr_scan", "ios": "https://dc.lft.to/lastmile_qr_scan"}, "is_reserved": 0, "name": "dc95be115ee939d40a7509bba00f8bca", "lon": -76.977294, "type": "electric_scooter", "bike_id": "dc95be115ee939d40a7509bba00f8bca", "fusion_lon": 0.0, "lat": 38.8949355, "fusion_lat": 0.0}, {"is_disabled": 0, "rental_uris": {"android": "https://dc.lft.to/lastmile_qr_scan", "ios": "https://dc.lft.to/lastmile_qr_scan"}, "is_reserved": 0, "name": "5fe4ae365a90a7b14fbeafbe549519fc", "lon": -77.03231433333333, "type": "electric_scooter", "bike_id": "5fe4ae365a90a7b14fbeafbe549519fc", "fusion_lon": 0.0, "lat": 38.90973816666666, "fusion_lat": 0.0}, {"is_disabled": 0, "rental_uris": {"android": "https://dc.lft.to/lastmile_qr_scan", "ios": "https://dc.lft.to/lastmile_qr_scan"}, "is_reserved": 0, "name": "45a954fde15cf3d1ce97dfb446b89c7e", "lon": -77.03868733333333, "type": "electric_scooter", "bike_id": "45a954fde15cf3d1ce97dfb446b89c7e", "fusion_lon": 0.0, "lat": 38.903824, "fusion_lat": 0.0}, {"is_disabled": 0, "rental_uris": {"android": "https://dc.lft.to/lastmile_qr_scan", "ios": "https://dc.lft.to/lastmile_qr_scan"}, "is_reserved": 0, "name": "38401e457a3b05561eaaeda5dfd3df3b", "lon": -76.9970625, "type": "electric_scooter", "bike_id": "38401e457a3b05561eaaeda5dfd3df3b", "fusion_lon": 0.0, "lat": 38.838729, "fusion_lat": 0.0}, {"is_disabled": 0, "rental_uris": {"android": "https://dc.lft.to/lastmile_qr_scan", "ios": "https://dc.lft.to/lastmile_qr_scan"}, "is_reserved": 0, "name": "328f05bbf2cfd1cef644714c16174249", "lon": -76.98679966666667, "type": "electric_scooter", "bike_id": "328f05bbf2cfd1cef644714c16174249", "fusion_lon": 0.0, "lat": 38.8581315, "fusion_lat": 0.0}, {"is_disabled": 0, "rental_uris": {"android": "https://dc.lft.to/lastmile_qr_scan", "ios": "https://dc.lft.to/lastmile_qr_scan"}, "is_reserved": 0, "name": "ee1e3dbf8daf642e9950be31a0703766", "lon": -76.946238, "type": "electric_bike", "bike_id": "ee1e3dbf8daf642e9950be31a0703766", "fusion_lon": 0.0, "lat": 38.83236433333333, "fusion_lat": 0.0}, {"is_disabled": 0, "rental_uris": {"android": "https://dc.lft.to/lastmile_qr_scan", "ios": "https://dc.lft.to/lastmile_qr_scan"}, "is_reserved": 0, "name": "5a55ecb2c3f8efb50ac0e99b34436414", "lon": -77.03486383333333, "type": "electric_scooter", "bike_id": "5a55ecb2c3f8efb50ac0e99b34436414", "fusion_lon": 0.0, "lat": 38.93281983333333, "fusion_lat": 0.0}, {"is_disabled": 0, "rental_uris": {"android": "https://dc.lft.to/lastmile_qr_scan", "ios": "https://dc.lft.to/lastmile_qr_scan"}, "is_reserved": 0, "name": "496592716d652f992ac078e002361931", "lon": -77.0465475, "type": "electric_scooter", "bike_id": "496592716d652f992ac078e002361931", "fusion_lon": 0.0, "lat": 38.893022333333334, "fusion_lat": 0.0}, {"is_disabled": 0, "rental_uris": {"android": "https://dc.lft.to/lastmile_qr_scan", "ios": "https://dc.lft.to/lastmile_qr_scan"}, "is_reserved": 0, "name": "800db4287b4dcb04f3b4daed361016a2", "lon": -77.03228483333334, "type": "electric_scooter", "bike_id": "800db4287b4dcb04f3b4daed361016a2", "fusion_lon": 0.0, "lat": 38.90980783333333, "fusion_lat": 0.0}, {"is_disabled": 0, "rental_uris": {"android": "https://dc.lft.to/lastmile_qr_scan", "ios": "https://dc.lft.to/lastmile_qr_scan"}, "is_reserved": 0, "name": "90108873c497d8a58aefc482f9a0e5a3", "lon": -77.03187483333333, "type": "electric_scooter", "bike_id": "90108873c497d8a58aefc482f9a0e5a3", "fusion_lon": 0.0, "lat": 38.91577233333334, "fusion_lat": 0.0}, {"is_disabled": 0, "rental_uris": {"android": "https://dc.lft.to/lastmile_qr_scan", "ios": "https://dc.lft.to/lastmile_qr_scan"}, "is_reserved": 0, "name": "d4b60e86ceb2755228091d03ceff5555", "lon": -77.04172716666666, "type": "electric_scooter", "bike_id": "d4b60e86ceb2755228091d03ceff5555", "fusion_lon": 0.0, "lat": 38.91551233333333, "fusion_lat": 0.0}, {"is_disabled": 0, "rental_uris": {"android": "https://dc.lft.to/lastmile_qr_scan", "ios": "https://dc.lft.to/lastmile_qr_scan"}, "is_reserved": 0, "name": "a0fefcfc106d8afd1ce11d3e8260faf0", "lon": -77.02734583333333, "type": "electric_scooter", "bike_id": "a0fefcfc106d8afd1ce11d3e8260faf0", "fusion_lon": 0.0, "lat": 38.9408775, "fusion_lat": 0.0}, {"is_disabled": 0, "rental_uris": {"android": "https://dc.lft.to/lastmile_qr_scan", "ios": "https://dc.lft.to/lastmile_qr_scan"}, "is_reserved": 0, "name": "63b799162e69949599f51f66059d75c8", "lon": -77.04100866666667, "type": "electric_scooter", "bike_id": "63b799162e69949599f51f66059d75c8", "fusion_lon": 0.0, "lat": 38.911202833333334, "fusion_lat": 0.0}, {"is_disabled": 0, "rental_uris": {"android": "https://dc.lft.to/lastmile_qr_scan", "ios": "https://dc.lft.to/lastmile_qr_scan"}, "is_reserved": 0, "name": "bfdfc2ae63aad1ee5bf2055b5a63b315", "lon": -76.9951315, "type": "electric_scooter", "bike_id": "bfdfc2ae63aad1ee5bf2055b5a63b315", "fusion_lon": 0.0, "lat": 38.89493133333333, "fusion_lat": 0.0}, {"is_disabled": 0, "rental_uris": {"android": "https://dc.lft.to/lastmile_qr_scan", "ios": "https://dc.lft.to/lastmile_qr_scan"}, "is_reserved": 0, "name": "844f3135dd88c8cad66e79fcb25a4329", "lon": -77.09158383333333, "type": "electric_bike", "bike_id": "844f3135dd88c8cad66e79fcb25a4329", "fusion_lon": 0.0, "lat": 38.967614, "fusion_lat": 0.0}, {"is_disabled": 0, "rental_uris": {"android": "https://dc.lft.to/lastmile_qr_scan", "ios": "https://dc.lft.to/lastmile_qr_scan"}, "is_reserved": 0, "name": "53214986cc7f4233c51a870cd7de0623", "lon": -76.987995, "type": "electric_scooter", "bike_id": "53214986cc7f4233c51a870cd7de0623", "fusion_lon": 0.0, "lat": 38.89217766666667, "fusion_lat": 0.0}, {"is_disabled": 0, "rental_uris": {"android": "https://dc.lft.to/lastmile_qr_scan", "ios": "https://dc.lft.to/lastmile_qr_scan"}, "is_reserved": 0, "name": "3463bb5cdd39309113536647193e9749", "lon": -76.92926983333334, "type": "electric_bike", "bike_id": "3463bb5cdd39309113536647193e9749", "fusion_lon": 0.0, "lat": 38.902975, "fusion_lat": 0.0}, {"is_disabled": 0, "rental_uris": {"android": "https://dc.lft.to/lastmile_qr_scan", "ios": "https://dc.lft.to/lastmile_qr_scan"}, "is_reserved": 0, "name": "f864435e865c13d5147d08330a87cba6", "lon": -77.024814, "type": "electric_scooter", "bike_id": "f864435e865c13d5147d08330a87cba6", "fusion_lon": 0.0, "lat": 38.90250733333333, "fusion_lat": 0.0}, {"is_disabled": 0, "rental_uris": {"android": "https://dc.lft.to/lastmile_qr_scan", "ios": "https://dc.lft.to/lastmile_qr_scan"}, "is_reserved": 0, "name": "ca0afd960d480cdab3c4a8557e12f6eb", "lon": -76.96174983333333, "type": "electric_bike", "bike_id": "ca0afd960d480cdab3c4a8557e12f6eb", "fusion_lon": 0.0, "lat": 38.918673166666665, "fusion_lat": 0.0}, {"is_disabled": 0, "rental_uris": {"android": "https://dc.lft.to/lastmile_qr_scan", "ios": "https://dc.lft.to/lastmile_qr_scan"}, "is_reserved": 0, "name": "dd1f60d89999a4712f278c68f6a3edb8", "lon": -77.03266033333334, "type": "electric_scooter", "bike_id": "dd1f60d89999a4712f278c68f6a3edb8", "fusion_lon": 0.0, "lat": 38.9373905, "fusion_lat": 0.0}, {"is_disabled": 0, "rental_uris": {"android": "https://dc.lft.to/lastmile_qr_scan", "ios": "https://dc.lft.to/lastmile_qr_scan"}, "is_reserved": 0, "name": "3ee41bf2fdd8e1054924dd5a455ff07a", "lon": -77.040066, "type": "electric_scooter", "bike_id": "3ee41bf2fdd8e1054924dd5a455ff07a", "fusion_lon": 0.0, "lat": 38.90998583333333, "fusion_lat": 0.0}, {"is_disabled": 0, "rental_uris": {"android": "https://dc.lft.to/lastmile_qr_scan", "ios": "https://dc.lft.to/lastmile_qr_scan"}, "is_reserved": 0, "name": "a38f1e52de66f4be7f01ff56d483dee7", "lon": -77.03094283333333, "type": "electric_scooter", "bike_id": "a38f1e52de66f4be7f01ff56d483dee7", "fusion_lon": 0.0, "lat": 38.935457, "fusion_lat": 0.0}, {"is_disabled": 0, "rental_uris": {"android": "https://dc.lft.to/lastmile_qr_scan", "ios": "https://dc.lft.to/lastmile_qr_scan"}, "is_reserved": 0, "name": "a0593418068446681800deb1b8b3702a", "lon": -77.0058385, "type": "electric_bike", "bike_id": "a0593418068446681800deb1b8b3702a", "fusion_lon": 0.0, "lat": 38.836901, "fusion_lat": 0.0}, {"is_disabled": 0, "rental_uris": {"android": "https://dc.lft.to/lastmile_qr_scan", "ios": "https://dc.lft.to/lastmile_qr_scan"}, "is_reserved": 0, "name": "7c982db95374229fe1d284c43e0a9e19", "lon": -76.93383483333334, "type": "electric_scooter", "bike_id": "7c982db95374229fe1d284c43e0a9e19", "fusion_lon": 0.0, "lat": 38.89918316666667, "fusion_lat": 0.0}, {"is_disabled": 0, "rental_uris": {"android": "https://dc.lft.to/lastmile_qr_scan", "ios": "https://dc.lft.to/lastmile_qr_scan"}, "is_reserved": 0, "name": "9a4baf45ce65f36e8614982f4ffdca62", "lon": -77.03128383333333, "type": "electric_scooter", "bike_id": "9a4baf45ce65f36e8614982f4ffdca62", "fusion_lon": 0.0, "lat": 38.92372533333333, "fusion_lat": 0.0}, {"is_disabled": 0, "rental_uris": {"android": "https://dc.lft.to/lastmile_qr_scan", "ios": "https://dc.lft.to/lastmile_qr_scan"}, "is_reserved": 0, "name": "2d1f75d01ee8ed1221d3c41d4193ef03", "lon": -77.02225733333333, "type": "electric_scooter", "bike_id": "2d1f75d01ee8ed1221d3c41d4193ef03", "fusion_lon": 0.0, "lat": 38.912695, "fusion_lat": 0.0}, {"is_disabled": 0, "rental_uris": {"android": "https://dc.lft.to/lastmile_qr_scan", "ios": "https://dc.lft.to/lastmile_qr_scan"}, "is_reserved": 0, "name": "904ffb73ef47892e3aaf4b830c347550", "lon": -77.0321805, "type": "electric_scooter", "bike_id": "904ffb73ef47892e3aaf4b830c347550", "fusion_lon": 0.0, "lat": 38.9156695, "fusion_lat": 0.0}, {"is_disabled": 0, "rental_uris": {"android": "https://dc.lft.to/lastmile_qr_scan", "ios": "https://dc.lft.to/lastmile_qr_scan"}, "is_reserved": 0, "name": "e05577b9dad8730e75b6aa135843e755", "lon": -77.03152216666666, "type": "electric_scooter", "bike_id": "e05577b9dad8730e75b6aa135843e755", "fusion_lon": 0.0, "lat": 38.90981883333333, "fusion_lat": 0.0}, {"is_disabled": 0, "rental_uris": {"android": "https://dc.lft.to/lastmile_qr_scan", "ios": "https://dc.lft.to/lastmile_qr_scan"}, "is_reserved": 0, "name": "2b8a99094bb5ee902dd8b88c2bb28148", "lon": -77.00197383333334, "type": "electric_scooter", "bike_id": "2b8a99094bb5ee902dd8b88c2bb28148", "fusion_lon": 0.0, "lat": 38.9164025, "fusion_lat": 0.0}, {"is_disabled": 0, "rental_uris": {"android": "https://dc.lft.to/lastmile_qr_scan", "ios": "https://dc.lft.to/lastmile_qr_scan"}, "is_reserved": 0, "name": "eff72733da29af6ede9dbe0cccce2f2f", "lon": -77.02511916666667, "type": "electric_bike", "bike_id": "eff72733da29af6ede9dbe0cccce2f2f", "fusion_lon": 0.0, "lat": 38.934166833333336, "fusion_lat": 0.0}, {"is_disabled": 0, "rental_uris": {"android": "https://dc.lft.to/lastmile_qr_scan", "ios": "https://dc.lft.to/lastmile_qr_scan"}, "is_reserved": 0, "name": "067b3cbb6a021374f5f5c7d1c4b25aa1", "lon": -77.033924, "type": "electric_scooter", "bike_id": "067b3cbb6a021374f5f5c7d1c4b25aa1", "fusion_lon": 0.0, "lat": 38.898545666666664, "fusion_lat": 0.0}, {"is_disabled": 0, "rental_uris": {"android": "https://dc.lft.to/lastmile_qr_scan", "ios": "https://dc.lft.to/lastmile_qr_scan"}, "is_reserved": 0, "name": "756150874d98adc66e572ca552f7c444", "lon": -77.01181016666666, "type": "electric_scooter", "bike_id": "756150874d98adc66e572ca552f7c444", "fusion_lon": 0.0, "lat": 38.8708695, "fusion_lat": 0.0}, {"is_disabled": 0, "rental_uris": {"android": "https://dc.lft.to/lastmile_qr_scan", "ios": "https://dc.lft.to/lastmile_qr_scan"}, "is_reserved": 0, "name": "506cf78dda3863bb7407d986830a15ed", "lon": -77.03198883333333, "type": "electric_scooter", "bike_id": "506cf78dda3863bb7407d986830a15ed", "fusion_lon": 0.0, "lat": 38.91799266666666, "fusion_lat": 0.0}, {"is_disabled": 0, "rental_uris": {"android": "https://dc.lft.to/lastmile_qr_scan", "ios": "https://dc.lft.to/lastmile_qr_scan"}, "is_reserved": 0, "name": "310c9008f333c801318fe1a41ffb6976", "lon": -77.02649316666667, "type": "electric_scooter", "bike_id": "310c9008f333c801318fe1a41ffb6976", "fusion_lon": 0.0, "lat": 38.976052833333334, "fusion_lat": 0.0}, {"is_disabled": 0, "rental_uris": {"android": "https://dc.lft.to/lastmile_qr_scan", "ios": "https://dc.lft.to/lastmile_qr_scan"}, "is_reserved": 0, "name": "2925a15fad31eb5114dbf4e5dc06989a", "lon": -77.01493433333333, "type": "electric_scooter", "bike_id": "2925a15fad31eb5114dbf4e5dc06989a", "fusion_lon": 0.0, "lat": 38.9024345, "fusion_lat": 0.0}, {"is_disabled": 0, "rental_uris": {"android": "https://dc.lft.to/lastmile_qr_scan", "ios": "https://dc.lft.to/lastmile_qr_scan"}, "is_reserved": 0, "name": "b5d40d186502efc83fec8795d3473edf", "lon": -77.0578445, "type": "electric_scooter", "bike_id": "b5d40d186502efc83fec8795d3473edf", "fusion_lon": 0.0, "lat": 38.9051875, "fusion_lat": 0.0}, {"is_disabled": 0, "rental_uris": {"android": "https://dc.lft.to/lastmile_qr_scan", "ios": "https://dc.lft.to/lastmile_qr_scan"}, "is_reserved": 0, "name": "a0ab88dfca43f0e5512fbf87223b17b3", "lon": -76.93556616666666, "type": "electric_scooter", "bike_id": "a0ab88dfca43f0e5512fbf87223b17b3", "fusion_lon": 0.0, "lat": 38.90160433333333, "fusion_lat": 0.0}, {"is_disabled": 0, "rental_uris": {"android": "https://dc.lft.to/lastmile_qr_scan", "ios": "https://dc.lft.to/lastmile_qr_scan"}, "is_reserved": 0, "name": "f52d4f7412db74f8f73c92d515f32430", "lon": -76.985533, "type": "electric_scooter", "bike_id": "f52d4f7412db74f8f73c92d515f32430", "fusion_lon": 0.0, "lat": 38.9042675, "fusion_lat": 0.0}, {"is_disabled": 0, "rental_uris": {"android": "https://dc.lft.to/lastmile_qr_scan", "ios": "https://dc.lft.to/lastmile_qr_scan"}, "is_reserved": 0, "name": "b9288898382edd08c9391d97e1f35bcb", "lon": -76.95196566666667, "type": "electric_bike", "bike_id": "b9288898382edd08c9391d97e1f35bcb", "fusion_lon": 0.0, "lat": 38.906862833333335, "fusion_lat": 0.0}, {"is_disabled": 0, "rental_uris": {"android": "https://dc.lft.to/lastmile_qr_scan", "ios": "https://dc.lft.to/lastmile_qr_scan"}, "is_reserved": 0, "name": "d33b9374073263f8b0e6b4c775d2cb7a", "lon": -77.05459716666667, "type": "electric_scooter", "bike_id": "d33b9374073263f8b0e6b4c775d2cb7a", "fusion_lon": 0.0, "lat": 38.929027, "fusion_lat": 0.0}, {"is_disabled": 0, "rental_uris": {"android": "https://dc.lft.to/lastmile_qr_scan", "ios": "https://dc.lft.to/lastmile_qr_scan"}, "is_reserved": 0, "name": "74245b24f9d4a8e8b13a0c9610e625d6", "lon": -77.03789583333334, "type": "electric_scooter", "bike_id": "74245b24f9d4a8e8b13a0c9610e625d6", "fusion_lon": 0.0, "lat": 38.930299, "fusion_lat": 0.0}, {"is_disabled": 0, "rental_uris": {"android": "https://dc.lft.to/lastmile_qr_scan", "ios": "https://dc.lft.to/lastmile_qr_scan"}, "is_reserved": 0, "name": "877eacab1d94d7074a275cebe1780266", "lon": -77.03216266666666, "type": "electric_scooter", "bike_id": "877eacab1d94d7074a275cebe1780266", "fusion_lon": 0.0, "lat": 38.92582816666667, "fusion_lat": 0.0}, {"is_disabled": 0, "rental_uris": {"android": "https://dc.lft.to/lastmile_qr_scan", "ios": "https://dc.lft.to/lastmile_qr_scan"}, "is_reserved": 0, "name": "15009caaa1c371d9b909b5b59c236cd5", "lon": -77.02916916666666, "type": "electric_scooter", "bike_id": "15009caaa1c371d9b909b5b59c236cd5", "fusion_lon": 0.0, "lat": 38.9248735, "fusion_lat": 0.0}, {"is_disabled": 0, "rental_uris": {"android": "https://dc.lft.to/lastmile_qr_scan", "ios": "https://dc.lft.to/lastmile_qr_scan"}, "is_reserved": 0, "name": "19cad2f410398e33816f8b893f74dad8", "lon": -76.9877265, "type": "electric_scooter", "bike_id": "19cad2f410398e33816f8b893f74dad8", "fusion_lon": 0.0, "lat": 38.84458, "fusion_lat": 0.0}, {"is_disabled": 0, "rental_uris": {"android": "https://dc.lft.to/lastmile_qr_scan", "ios": "https://dc.lft.to/lastmile_qr_scan"}, "is_reserved": 0, "name": "f4fd27a3b4a5f6cbd192e6c71680d0da", "lon": -77.04190483333333, "type": "electric_scooter", "bike_id": "f4fd27a3b4a5f6cbd192e6c71680d0da", "fusion_lon": 0.0, "lat": 38.91666983333333, "fusion_lat": 0.0}, {"is_disabled": 0, "rental_uris": {"android": "https://dc.lft.to/lastmile_qr_scan", "ios": "https://dc.lft.to/lastmile_qr_scan"}, "is_reserved": 0, "name": "9313eeeca8cbc658f425a2457bbbeb2d", "lon": -77.02928733333333, "type": "electric_scooter", "bike_id": "9313eeeca8cbc658f425a2457bbbeb2d", "fusion_lon": 0.0, "lat": 38.89998466666667, "fusion_lat": 0.0}, {"is_disabled": 0, "rental_uris": {"android": "https://dc.lft.to/lastmile_qr_scan", "ios": "https://dc.lft.to/lastmile_qr_scan"}, "is_reserved": 0, "name": "c5f4a45f169571d55a10c84c5a12d607", "lon": -77.034613, "type": "electric_scooter", "bike_id": "c5f4a45f169571d55a10c84c5a12d607", "fusion_lon": 0.0, "lat": 38.9111295, "fusion_lat": 0.0}, {"is_disabled": 0, "rental_uris": {"android": "https://dc.lft.to/lastmile_qr_scan", "ios": "https://dc.lft.to/lastmile_qr_scan"}, "is_reserved": 0, "name": "88639a9fed27469731392363977840b7", "lon": -76.9846305, "type": "electric_scooter", "bike_id": "88639a9fed27469731392363977840b7", "fusion_lon": 0.0, "lat": 38.89368833333333, "fusion_lat": 0.0}, {"is_disabled": 0, "rental_uris": {"android": "https://dc.lft.to/lastmile_qr_scan", "ios": "https://dc.lft.to/lastmile_qr_scan"}, "is_reserved": 0, "name": "368fa17b46b27428589330e29641d557", "lon": -77.032592, "type": "electric_scooter", "bike_id": "368fa17b46b27428589330e29641d557", "fusion_lon": 0.0, "lat": 38.909724833333335, "fusion_lat": 0.0}, {"is_disabled": 0, "rental_uris": {"android": "https://dc.lft.to/lastmile_qr_scan", "ios": "https://dc.lft.to/lastmile_qr_scan"}, "is_reserved": 0, "name": "14e2681bcdbf4faaf34a8ff670e32045", "lon": -77.036992, "type": "electric_scooter", "bike_id": "14e2681bcdbf4faaf34a8ff670e32045", "fusion_lon": 0.0, "lat": 38.936605166666666, "fusion_lat": 0.0}, {"is_disabled": 0, "rental_uris": {"android": "https://dc.lft.to/lastmile_qr_scan", "ios": "https://dc.lft.to/lastmile_qr_scan"}, "is_reserved": 0, "name": "5320bfbdace7718eda365ecdf105d7ba", "lon": -77.01203283333334, "type": "electric_scooter", "bike_id": "5320bfbdace7718eda365ecdf105d7ba", "fusion_lon": 0.0, "lat": 38.9274495, "fusion_lat": 0.0}, {"is_disabled": 0, "rental_uris": {"android": "https://dc.lft.to/lastmile_qr_scan", "ios": "https://dc.lft.to/lastmile_qr_scan"}, "is_reserved": 0, "name": "c6bfcc90dd2ed744b702344014c02ebb", "lon": -77.029061, "type": "electric_scooter", "bike_id": "c6bfcc90dd2ed744b702344014c02ebb", "fusion_lon": 0.0, "lat": 38.939723, "fusion_lat": 0.0}, {"is_disabled": 0, "rental_uris": {"android": "https://dc.lft.to/lastmile_qr_scan", "ios": "https://dc.lft.to/lastmile_qr_scan"}, "is_reserved": 0, "name": "25f0c52c73021a8d67545983c72284ec", "lon": -77.031288, "type": "electric_bike", "bike_id": "25f0c52c73021a8d67545983c72284ec", "fusion_lon": 0.0, "lat": 38.9628635, "fusion_lat": 0.0}, {"is_disabled": 0, "rental_uris": {"android": "https://dc.lft.to/lastmile_qr_scan", "ios": "https://dc.lft.to/lastmile_qr_scan"}, "is_reserved": 0, "name": "96c637d02487935df2f26b01aba9d648", "lon": -77.04171183333334, "type": "electric_scooter", "bike_id": "96c637d02487935df2f26b01aba9d648", "fusion_lon": 0.0, "lat": 38.918414, "fusion_lat": 0.0}, {"is_disabled": 0, "rental_uris": {"android": "https://dc.lft.to/lastmile_qr_scan", "ios": "https://dc.lft.to/lastmile_qr_scan"}, "is_reserved": 0, "name": "294736aa2a2662f099b6cc4c828c1784", "lon": -77.02197, "type": "electric_scooter", "bike_id": "294736aa2a2662f099b6cc4c828c1784", "fusion_lon": 0.0, "lat": 38.91132566666667, "fusion_lat": 0.0}, {"is_disabled": 0, "rental_uris": {"android": "https://dc.lft.to/lastmile_qr_scan", "ios": "https://dc.lft.to/lastmile_qr_scan"}, "is_reserved": 0, "name": "d16f12e97a44a77954782a11b98f839f", "lon": -76.94156733333334, "type": "electric_scooter", "bike_id": "d16f12e97a44a77954782a11b98f839f", "fusion_lon": 0.0, "lat": 38.883664, "fusion_lat": 0.0}, {"is_disabled": 0, "rental_uris": {"android": "https://dc.lft.to/lastmile_qr_scan", "ios": "https://dc.lft.to/lastmile_qr_scan"}, "is_reserved": 0, "name": "336e718181d3237eff2b5d5e41fbd60d", "lon": -76.9373805, "type": "electric_scooter", "bike_id": "336e718181d3237eff2b5d5e41fbd60d", "fusion_lon": 0.0, "lat": 38.890072, "fusion_lat": 0.0}, {"is_disabled": 0, "rental_uris": {"android": "https://dc.lft.to/lastmile_qr_scan", "ios": "https://dc.lft.to/lastmile_qr_scan"}, "is_reserved": 0, "name": "3674e0ea10b8548617e5baae9cf7e48e", "lon": -77.0533125, "type": "electric_scooter", "bike_id": "3674e0ea10b8548617e5baae9cf7e48e", "fusion_lon": 0.0, "lat": 38.90318216666667, "fusion_lat": 0.0}, {"is_disabled": 0, "rental_uris": {"android": "https://dc.lft.to/lastmile_qr_scan", "ios": "https://dc.lft.to/lastmile_qr_scan"}, "is_reserved": 0, "name": "1a64eaac8b239e3f411f46ab4e7060d1", "lon": -77.03236316666667, "type": "electric_scooter", "bike_id": "1a64eaac8b239e3f411f46ab4e7060d1", "fusion_lon": 0.0, "lat": 38.92492683333333, "fusion_lat": 0.0}, {"is_disabled": 0, "rental_uris": {"android": "https://dc.lft.to/lastmile_qr_scan", "ios": "https://dc.lft.to/lastmile_qr_scan"}, "is_reserved": 0, "name": "cfacdbc61681cfe5d52bf057d2fce27f", "lon": -77.05291716666666, "type": "electric_scooter", "bike_id": "cfacdbc61681cfe5d52bf057d2fce27f", "fusion_lon": 0.0, "lat": 38.903457333333336, "fusion_lat": 0.0}, {"is_disabled": 0, "rental_uris": {"android": "https://dc.lft.to/lastmile_qr_scan", "ios": "https://dc.lft.to/lastmile_qr_scan"}, "is_reserved": 0, "name": "abb6990afdfeea9e9009ee4be20c778e", "lon": -77.0222865, "type": "electric_scooter", "bike_id": "abb6990afdfeea9e9009ee4be20c778e", "fusion_lon": 0.0, "lat": 38.914226, "fusion_lat": 0.0}, {"is_disabled": 0, "rental_uris": {"android": "https://dc.lft.to/lastmile_qr_scan", "ios": "https://dc.lft.to/lastmile_qr_scan"}, "is_reserved": 0, "name": "32e9f5a6aee6211e409492aab9c8a340", "lon": -77.022599, "type": "electric_scooter", "bike_id": "32e9f5a6aee6211e409492aab9c8a340", "fusion_lon": 0.0, "lat": 38.928304833333335, "fusion_lat": 0.0}, {"is_disabled": 0, "rental_uris": {"android": "https://dc.lft.to/lastmile_qr_scan", "ios": "https://dc.lft.to/lastmile_qr_scan"}, "is_reserved": 0, "name": "d43dda1bcfc3eeb805a464d4b76201f6", "lon": -77.0377535, "type": "electric_scooter", "bike_id": "d43dda1bcfc3eeb805a464d4b76201f6", "fusion_lon": 0.0, "lat": 38.936172, "fusion_lat": 0.0}, {"is_disabled": 0, "rental_uris": {"android": "https://dc.lft.to/lastmile_qr_scan", "ios": "https://dc.lft.to/lastmile_qr_scan"}, "is_reserved": 0, "name": "261eb3fc1cdbc6c6101a364e0a037b74", "lon": -77.01022833333333, "type": "electric_scooter", "bike_id": "261eb3fc1cdbc6c6101a364e0a037b74", "fusion_lon": 0.0, "lat": 38.867299833333334, "fusion_lat": 0.0}, {"is_disabled": 0, "rental_uris": {"android": "https://dc.lft.to/lastmile_qr_scan", "ios": "https://dc.lft.to/lastmile_qr_scan"}, "is_reserved": 0, "name": "a264c0a802d42a6ec5d650ebba65c795", "lon": -77.0305415, "type": "electric_scooter", "bike_id": "a264c0a802d42a6ec5d650ebba65c795", "fusion_lon": 0.0, "lat": 38.901351, "fusion_lat": 0.0}, {"is_disabled": 0, "rental_uris": {"android": "https://dc.lft.to/lastmile_qr_scan", "ios": "https://dc.lft.to/lastmile_qr_scan"}, "is_reserved": 0, "name": "1a6bb000f6faaa3787d1e3d2ef89e5cd", "lon": -77.05137966666666, "type": "electric_scooter", "bike_id": "1a6bb000f6faaa3787d1e3d2ef89e5cd", "fusion_lon": 0.0, "lat": 38.90717183333334, "fusion_lat": 0.0}, {"is_disabled": 0, "rental_uris": {"android": "https://dc.lft.to/lastmile_qr_scan", "ios": "https://dc.lft.to/lastmile_qr_scan"}, "is_reserved": 0, "name": "89e3346d6639bffb5511a47ef699f5a4", "lon": -76.90963783333333, "type": "electric_bike", "bike_id": "89e3346d6639bffb5511a47ef699f5a4", "fusion_lon": 0.0, "lat": 38.85430616666667, "fusion_lat": 0.0}, {"is_disabled": 0, "rental_uris": {"android": "https://dc.lft.to/lastmile_qr_scan", "ios": "https://dc.lft.to/lastmile_qr_scan"}, "is_reserved": 0, "name": "d87825081fefc40423a19dbe6d2e5690", "lon": -77.05742333333333, "type": "electric_scooter", "bike_id": "d87825081fefc40423a19dbe6d2e5690", "fusion_lon": 0.0, "lat": 38.93353333333334, "fusion_lat": 0.0}, {"is_disabled": 0, "rental_uris": {"android": "https://dc.lft.to/lastmile_qr_scan", "ios": "https://dc.lft.to/lastmile_qr_scan"}, "is_reserved": 0, "name": "6644efb2869d0788978e7d9c31c91319", "lon": -77.01399633333334, "type": "electric_scooter", "bike_id": "6644efb2869d0788978e7d9c31c91319", "fusion_lon": 0.0, "lat": 38.928210166666666, "fusion_lat": 0.0}, {"is_disabled": 0, "rental_uris": {"android": "https://dc.lft.to/lastmile_qr_scan", "ios": "https://dc.lft.to/lastmile_qr_scan"}, "is_reserved": 0, "name": "5315146f68d866b528cef7222dc7e485", "lon": -76.96553383333334, "type": "electric_scooter", "bike_id": "5315146f68d866b528cef7222dc7e485", "fusion_lon": 0.0, "lat": 38.91843566666667, "fusion_lat": 0.0}, {"is_disabled": 0, "rental_uris": {"android": "https://dc.lft.to/lastmile_qr_scan", "ios": "https://dc.lft.to/lastmile_qr_scan"}, "is_reserved": 0, "name": "54846a4efc2deefdbf2ca7fa5facea1d", "lon": -77.03661516666666, "type": "electric_scooter", "bike_id": "54846a4efc2deefdbf2ca7fa5facea1d", "fusion_lon": 0.0, "lat": 38.922897166666665, "fusion_lat": 0.0}, {"is_disabled": 0, "rental_uris": {"android": "https://dc.lft.to/lastmile_qr_scan", "ios": "https://dc.lft.to/lastmile_qr_scan"}, "is_reserved": 0, "name": "7b7fe0f1681e07e9f0a1f497221b8dbd", "lon": -77.04566516666667, "type": "electric_bike", "bike_id": "7b7fe0f1681e07e9f0a1f497221b8dbd", "fusion_lon": 0.0, "lat": 38.919476, "fusion_lat": 0.0}, {"is_disabled": 0, "rental_uris": {"android": "https://dc.lft.to/lastmile_qr_scan", "ios": "https://dc.lft.to/lastmile_qr_scan"}, "is_reserved": 0, "name": "777a819fe4c7179c2d985d2a1a86f1f0", "lon": -76.98729533333334, "type": "electric_scooter", "bike_id": "777a819fe4c7179c2d985d2a1a86f1f0", "fusion_lon": 0.0, "lat": 38.867194166666664, "fusion_lat": 0.0}, {"is_disabled": 0, "rental_uris": {"android": "https://dc.lft.to/lastmile_qr_scan", "ios": "https://dc.lft.to/lastmile_qr_scan"}, "is_reserved": 0, "name": "af5b725d2787cc1b521dc8aa688e373a", "lon": -77.05516633333333, "type": "electric_bike", "bike_id": "af5b725d2787cc1b521dc8aa688e373a", "fusion_lon": 0.0, "lat": 38.910681, "fusion_lat": 0.0}, {"is_disabled": 0, "rental_uris": {"android": "https://dc.lft.to/lastmile_qr_scan", "ios": "https://dc.lft.to/lastmile_qr_scan"}, "is_reserved": 0, "name": "3cbdad62e77d2fdf3a0ee8ab02372805", "lon": -77.04159183333333, "type": "electric_scooter", "bike_id": "3cbdad62e77d2fdf3a0ee8ab02372805", "fusion_lon": 0.0, "lat": 38.898806666666665, "fusion_lat": 0.0}, {"is_disabled": 0, "rental_uris": {"android": "https://dc.lft.to/lastmile_qr_scan", "ios": "https://dc.lft.to/lastmile_qr_scan"}, "is_reserved": 0, "name": "5749ec8c6762af568622cbe5f3fadc7a", "lon": -77.04028333333333, "type": "electric_scooter", "bike_id": "5749ec8c6762af568622cbe5f3fadc7a", "fusion_lon": 0.0, "lat": 38.92400716666667, "fusion_lat": 0.0}, {"is_disabled": 0, "rental_uris": {"android": "https://dc.lft.to/lastmile_qr_scan", "ios": "https://dc.lft.to/lastmile_qr_scan"}, "is_reserved": 0, "name": "910f418f0ef4af955dc23a29587c586c", "lon": -77.00187516666666, "type": "electric_scooter", "bike_id": "910f418f0ef4af955dc23a29587c586c", "fusion_lon": 0.0, "lat": 38.91170116666667, "fusion_lat": 0.0}, {"is_disabled": 0, "rental_uris": {"android": "https://dc.lft.to/lastmile_qr_scan", "ios": "https://dc.lft.to/lastmile_qr_scan"}, "is_reserved": 0, "name": "59fd24a5892beeb233c9f8fd34119db9", "lon": -76.93749483333333, "type": "electric_scooter", "bike_id": "59fd24a5892beeb233c9f8fd34119db9", "fusion_lon": 0.0, "lat": 38.890182833333334, "fusion_lat": 0.0}, {"is_disabled": 0, "rental_uris": {"android": "https://dc.lft.to/lastmile_qr_scan", "ios": "https://dc.lft.to/lastmile_qr_scan"}, "is_reserved": 0, "name": "5fbb3da3c6eb98864f2aa6aceaba2ccf", "lon": -77.0542885, "type": "electric_scooter", "bike_id": "5fbb3da3c6eb98864f2aa6aceaba2ccf", "fusion_lon": 0.0, "lat": 38.92833916666667, "fusion_lat": 0.0}, {"is_disabled": 0, "rental_uris": {"android": "https://dc.lft.to/lastmile_qr_scan", "ios": "https://dc.lft.to/lastmile_qr_scan"}, "is_reserved": 0, "name": "eadf3c9f392a3b8547324ff03d265378", "lon": -77.0420255, "type": "electric_scooter", "bike_id": "eadf3c9f392a3b8547324ff03d265378", "fusion_lon": 0.0, "lat": 38.911359, "fusion_lat": 0.0}, {"is_disabled": 0, "rental_uris": {"android": "https://dc.lft.to/lastmile_qr_scan", "ios": "https://dc.lft.to/lastmile_qr_scan"}, "is_reserved": 0, "name": "7c4989b01dfa35581f7b1672f1593079", "lon": -76.9737105, "type": "electric_bike", "bike_id": "7c4989b01dfa35581f7b1672f1593079", "fusion_lon": 0.0, "lat": 38.865579333333336, "fusion_lat": 0.0}, {"is_disabled": 0, "rental_uris": {"android": "https://dc.lft.to/lastmile_qr_scan", "ios": "https://dc.lft.to/lastmile_qr_scan"}, "is_reserved": 0, "name": "83b5ae4a0243de19593905a248eb4ac5", "lon": -77.04196016666667, "type": "electric_scooter", "bike_id": "83b5ae4a0243de19593905a248eb4ac5", "fusion_lon": 0.0, "lat": 38.903821666666666, "fusion_lat": 0.0}, {"is_disabled": 0, "rental_uris": {"android": "https://dc.lft.to/lastmile_qr_scan", "ios": "https://dc.lft.to/lastmile_qr_scan"}, "is_reserved": 0, "name": "983a51faff3deda314fbd028b836c18e", "lon": -76.9939905, "type": "electric_scooter", "bike_id": "983a51faff3deda314fbd028b836c18e", "fusion_lon": 0.0, "lat": 38.9216835, "fusion_lat": 0.0}, {"is_disabled": 0, "rental_uris": {"android": "https://dc.lft.to/lastmile_qr_scan", "ios": "https://dc.lft.to/lastmile_qr_scan"}, "is_reserved": 0, "name": "db60632f355799642ad4614200434404", "lon": -77.03449783333333, "type": "electric_scooter", "bike_id": "db60632f355799642ad4614200434404", "fusion_lon": 0.0, "lat": 38.93368183333333, "fusion_lat": 0.0}, {"is_disabled": 0, "rental_uris": {"android": "https://dc.lft.to/lastmile_qr_scan", "ios": "https://dc.lft.to/lastmile_qr_scan"}, "is_reserved": 0, "name": "8d6b34e2b6bea3f06a47365b53c4a183", "lon": -77.02749283333333, "type": "electric_scooter", "bike_id": "8d6b34e2b6bea3f06a47365b53c4a183", "fusion_lon": 0.0, "lat": 38.9359465, "fusion_lat": 0.0}, {"is_disabled": 0, "rental_uris": {"android": "https://dc.lft.to/lastmile_qr_scan", "ios": "https://dc.lft.to/lastmile_qr_scan"}, "is_reserved": 0, "name": "1cf996992bd8b98c073d3153d68a2395", "lon": -77.02203283333333, "type": "electric_scooter", "bike_id": "1cf996992bd8b98c073d3153d68a2395", "fusion_lon": 0.0, "lat": 38.9110715, "fusion_lat": 0.0}, {"is_disabled": 0, "rental_uris": {"android": "https://dc.lft.to/lastmile_qr_scan", "ios": "https://dc.lft.to/lastmile_qr_scan"}, "is_reserved": 0, "name": "5b8280fbef2b2ddeda4867550301d6f2", "lon": -76.99002366666667, "type": "electric_scooter", "bike_id": "5b8280fbef2b2ddeda4867550301d6f2", "fusion_lon": 0.0, "lat": 38.86506466666667, "fusion_lat": 0.0}, {"is_disabled": 0, "rental_uris": {"android": "https://dc.lft.to/lastmile_qr_scan", "ios": "https://dc.lft.to/lastmile_qr_scan"}, "is_reserved": 0, "name": "c3ff5f73326849826bf110de12bae649", "lon": -77.03665366666667, "type": "electric_scooter", "bike_id": "c3ff5f73326849826bf110de12bae649", "fusion_lon": 0.0, "lat": 38.91720483333334, "fusion_lat": 0.0}, {"is_disabled": 0, "rental_uris": {"android": "https://dc.lft.to/lastmile_qr_scan", "ios": "https://dc.lft.to/lastmile_qr_scan"}, "is_reserved": 0, "name": "9ede2ae2536385a754084b19650376a1", "lon": -77.02261266666666, "type": "electric_scooter", "bike_id": "9ede2ae2536385a754084b19650376a1", "fusion_lon": 0.0, "lat": 38.928315833333336, "fusion_lat": 0.0}, {"is_disabled": 0, "rental_uris": {"android": "https://dc.lft.to/lastmile_qr_scan", "ios": "https://dc.lft.to/lastmile_qr_scan"}, "is_reserved": 0, "name": "2b64fabcef41f32995a7e24ada400e09", "lon": -77.02962233333334, "type": "electric_bike", "bike_id": "2b64fabcef41f32995a7e24ada400e09", "fusion_lon": 0.0, "lat": 38.937074333333335, "fusion_lat": 0.0}, {"is_disabled": 0, "rental_uris": {"android": "https://dc.lft.to/lastmile_qr_scan", "ios": "https://dc.lft.to/lastmile_qr_scan"}, "is_reserved": 0, "name": "a232430ef5141d309bbdcb1e2f43facd", "lon": -76.96368233333334, "type": "electric_bike", "bike_id": "a232430ef5141d309bbdcb1e2f43facd", "fusion_lon": 0.0, "lat": 38.9490075, "fusion_lat": 0.0}, {"is_disabled": 0, "rental_uris": {"android": "https://dc.lft.to/lastmile_qr_scan", "ios": "https://dc.lft.to/lastmile_qr_scan"}, "is_reserved": 0, "name": "1706baf8fe7e61f7554c5afc233dad50", "lon": -77.04385716666667, "type": "electric_bike", "bike_id": "1706baf8fe7e61f7554c5afc233dad50", "fusion_lon": 0.0, "lat": 39.052762333333334, "fusion_lat": 0.0}, {"is_disabled": 0, "rental_uris": {"android": "https://dc.lft.to/lastmile_qr_scan", "ios": "https://dc.lft.to/lastmile_qr_scan"}, "is_reserved": 0, "name": "4c54b8baeff002b06b1d3bd47de3e5b6", "lon": -77.00918833333333, "type": "electric_scooter", "bike_id": "4c54b8baeff002b06b1d3bd47de3e5b6", "fusion_lon": 0.0, "lat": 38.8978825, "fusion_lat": 0.0}, {"is_disabled": 0, "rental_uris": {"android": "https://dc.lft.to/lastmile_qr_scan", "ios": "https://dc.lft.to/lastmile_qr_scan"}, "is_reserved": 0, "name": "67730b55465c38652e4af66338cbd343", "lon": -77.04160783333333, "type": "electric_scooter", "bike_id": "67730b55465c38652e4af66338cbd343", "fusion_lon": 0.0, "lat": 38.91033183333333, "fusion_lat": 0.0}, {"is_disabled": 0, "rental_uris": {"android": "https://dc.lft.to/lastmile_qr_scan", "ios": "https://dc.lft.to/lastmile_qr_scan"}, "is_reserved": 0, "name": "78e6367cdbeda3f0dd0596d8c129c101", "lon": -77.042086, "type": "electric_scooter", "bike_id": "78e6367cdbeda3f0dd0596d8c129c101", "fusion_lon": 0.0, "lat": 38.9297935, "fusion_lat": 0.0}, {"is_disabled": 0, "rental_uris": {"android": "https://dc.lft.to/lastmile_qr_scan", "ios": "https://dc.lft.to/lastmile_qr_scan"}, "is_reserved": 0, "name": "abd7aa8e07cb2ace06a3061b728eb261", "lon": -77.05249883333333, "type": "electric_scooter", "bike_id": "abd7aa8e07cb2ace06a3061b728eb261", "fusion_lon": 0.0, "lat": 38.92741316666667, "fusion_lat": 0.0}, {"is_disabled": 0, "rental_uris": {"android": "https://dc.lft.to/lastmile_qr_scan", "ios": "https://dc.lft.to/lastmile_qr_scan"}, "is_reserved": 0, "name": "16ed83174c8b17fc0b1a3826fa231ad8", "lon": -77.052919, "type": "electric_scooter", "bike_id": "16ed83174c8b17fc0b1a3826fa231ad8", "fusion_lon": 0.0, "lat": 38.903438, "fusion_lat": 0.0}, {"is_disabled": 0, "rental_uris": {"android": "https://dc.lft.to/lastmile_qr_scan", "ios": "https://dc.lft.to/lastmile_qr_scan"}, "is_reserved": 0, "name": "af23411f17a51266c4cc26c15088b834", "lon": -77.01659366666667, "type": "electric_bike", "bike_id": "af23411f17a51266c4cc26c15088b834", "fusion_lon": 0.0, "lat": 38.954425, "fusion_lat": 0.0}, {"is_disabled": 0, "rental_uris": {"android": "https://dc.lft.to/lastmile_qr_scan", "ios": "https://dc.lft.to/lastmile_qr_scan"}, "is_reserved": 0, "name": "e17fc1701cb6c1d2215bbb6cd71881f5", "lon": -77.02267116666667, "type": "electric_scooter", "bike_id": "e17fc1701cb6c1d2215bbb6cd71881f5", "fusion_lon": 0.0, "lat": 38.9274215, "fusion_lat": 0.0}, {"is_disabled": 0, "rental_uris": {"android": "https://dc.lft.to/lastmile_qr_scan", "ios": "https://dc.lft.to/lastmile_qr_scan"}, "is_reserved": 0, "name": "830985b4debbc8c88506c48953e19831", "lon": -76.98715433333334, "type": "electric_scooter", "bike_id": "830985b4debbc8c88506c48953e19831", "fusion_lon": 0.0, "lat": 38.86699133333333, "fusion_lat": 0.0}, {"is_disabled": 0, "rental_uris": {"android": "https://dc.lft.to/lastmile_qr_scan", "ios": "https://dc.lft.to/lastmile_qr_scan"}, "is_reserved": 0, "name": "6aa9c903f1bf854037df674be2b25afe", "lon": -77.03267033333333, "type": "electric_scooter", "bike_id": "6aa9c903f1bf854037df674be2b25afe", "fusion_lon": 0.0, "lat": 38.93336166666667, "fusion_lat": 0.0}, {"is_disabled": 0, "rental_uris": {"android": "https://dc.lft.to/lastmile_qr_scan", "ios": "https://dc.lft.to/lastmile_qr_scan"}, "is_reserved": 0, "name": "222a161c338ac97149cafcfbe9e9b96a", "lon": -77.077995, "type": "electric_bike", "bike_id": "222a161c338ac97149cafcfbe9e9b96a", "fusion_lon": 0.0, "lat": 38.845186166666664, "fusion_lat": 0.0}, {"is_disabled": 0, "rental_uris": {"android": "https://dc.lft.to/lastmile_qr_scan", "ios": "https://dc.lft.to/lastmile_qr_scan"}, "is_reserved": 0, "name": "e3bf04c873d7c8e3dbf96cfe836a07f8", "lon": -77.0282045, "type": "electric_scooter", "bike_id": "e3bf04c873d7c8e3dbf96cfe836a07f8", "fusion_lon": 0.0, "lat": 38.896365333333335, "fusion_lat": 0.0}, {"is_disabled": 0, "rental_uris": {"android": "https://dc.lft.to/lastmile_qr_scan", "ios": "https://dc.lft.to/lastmile_qr_scan"}, "is_reserved": 0, "name": "f9b4f6acd95faea55d47da3d9c2e1936", "lon": -77.03528666666666, "type": "electric_scooter", "bike_id": "f9b4f6acd95faea55d47da3d9c2e1936", "fusion_lon": 0.0, "lat": 38.90989616666667, "fusion_lat": 0.0}, {"is_disabled": 0, "rental_uris": {"android": "https://dc.lft.to/lastmile_qr_scan", "ios": "https://dc.lft.to/lastmile_qr_scan"}, "is_reserved": 0, "name": "5fc08460acf0c6452b8cdd004ac93bf5", "lon": -77.0267195, "type": "electric_scooter", "bike_id": "5fc08460acf0c6452b8cdd004ac93bf5", "fusion_lon": 0.0, "lat": 38.91274583333333, "fusion_lat": 0.0}, {"is_disabled": 0, "rental_uris": {"android": "https://dc.lft.to/lastmile_qr_scan", "ios": "https://dc.lft.to/lastmile_qr_scan"}, "is_reserved": 0, "name": "e10429c6d5abf0eed09f8497ec4d6114", "lon": -77.02995733333333, "type": "electric_scooter", "bike_id": "e10429c6d5abf0eed09f8497ec4d6114", "fusion_lon": 0.0, "lat": 38.924802, "fusion_lat": 0.0}, {"is_disabled": 0, "rental_uris": {"android": "https://dc.lft.to/lastmile_qr_scan", "ios": "https://dc.lft.to/lastmile_qr_scan"}, "is_reserved": 0, "name": "92044a6beceb10064aa3c4c908edef96", "lon": -77.029563, "type": "electric_scooter", "bike_id": "92044a6beceb10064aa3c4c908edef96", "fusion_lon": 0.0, "lat": 38.92153616666667, "fusion_lat": 0.0}, {"is_disabled": 0, "rental_uris": {"android": "https://dc.lft.to/lastmile_qr_scan", "ios": "https://dc.lft.to/lastmile_qr_scan"}, "is_reserved": 0, "name": "905f5fb7f2f4567ef312c89b8f8762e1", "lon": -77.029865, "type": "electric_scooter", "bike_id": "905f5fb7f2f4567ef312c89b8f8762e1", "fusion_lon": 0.0, "lat": 38.92472083333333, "fusion_lat": 0.0}, {"is_disabled": 0, "rental_uris": {"android": "https://dc.lft.to/lastmile_qr_scan", "ios": "https://dc.lft.to/lastmile_qr_scan"}, "is_reserved": 0, "name": "34b19a3d6dc7949960c977a55eebbfa7", "lon": -77.02670633333334, "type": "electric_scooter", "bike_id": "34b19a3d6dc7949960c977a55eebbfa7", "fusion_lon": 0.0, "lat": 38.9239785, "fusion_lat": 0.0}, {"is_disabled": 0, "rental_uris": {"android": "https://dc.lft.to/lastmile_qr_scan", "ios": "https://dc.lft.to/lastmile_qr_scan"}, "is_reserved": 0, "name": "3bdd6d6f48336bc5e02b55b8b00e16af", "lon": -77.06037766666667, "type": "electric_scooter", "bike_id": "3bdd6d6f48336bc5e02b55b8b00e16af", "fusion_lon": 0.0, "lat": 38.939081, "fusion_lat": 0.0}, {"is_disabled": 0, "rental_uris": {"android": "https://dc.lft.to/lastmile_qr_scan", "ios": "https://dc.lft.to/lastmile_qr_scan"}, "is_reserved": 0, "name": "1c271402b3c95478a04fa7b91f241916", "lon": -76.98014966666666, "type": "electric_scooter", "bike_id": "1c271402b3c95478a04fa7b91f241916", "fusion_lon": 0.0, "lat": 38.86406566666667, "fusion_lat": 0.0}, {"is_disabled": 0, "rental_uris": {"android": "https://dc.lft.to/lastmile_qr_scan", "ios": "https://dc.lft.to/lastmile_qr_scan"}, "is_reserved": 0, "name": "5045554518aa0cbcb5392c8ca660904d", "lon": -77.02495366666666, "type": "electric_scooter", "bike_id": "5045554518aa0cbcb5392c8ca660904d", "fusion_lon": 0.0, "lat": 38.94192916666667, "fusion_lat": 0.0}, {"is_disabled": 0, "rental_uris": {"android": "https://dc.lft.to/lastmile_qr_scan", "ios": "https://dc.lft.to/lastmile_qr_scan"}, "is_reserved": 0, "name": "511e30323b63ca8befbdd34ff2533baa", "lon": -77.04148216666667, "type": "electric_scooter", "bike_id": "511e30323b63ca8befbdd34ff2533baa", "fusion_lon": 0.0, "lat": 38.916200833333335, "fusion_lat": 0.0}, {"is_disabled": 0, "rental_uris": {"android": "https://dc.lft.to/lastmile_qr_scan", "ios": "https://dc.lft.to/lastmile_qr_scan"}, "is_reserved": 0, "name": "7721b06133468492fc8be30df2a865a4", "lon": -77.02410233333333, "type": "electric_scooter", "bike_id": "7721b06133468492fc8be30df2a865a4", "fusion_lon": 0.0, "lat": 38.91569033333333, "fusion_lat": 0.0}, {"is_disabled": 0, "rental_uris": {"android": "https://dc.lft.to/lastmile_qr_scan", "ios": "https://dc.lft.to/lastmile_qr_scan"}, "is_reserved": 0, "name": "e9004f76fa554197aadb7fc5b4e61248", "lon": -77.000635, "type": "electric_scooter", "bike_id": "e9004f76fa554197aadb7fc5b4e61248", "fusion_lon": 0.0, "lat": 38.92395366666667, "fusion_lat": 0.0}, {"is_disabled": 0, "rental_uris": {"android": "https://dc.lft.to/lastmile_qr_scan", "ios": "https://dc.lft.to/lastmile_qr_scan"}, "is_reserved": 0, "name": "b41d947d211761909ca7a9c050e96f56", "lon": -77.01109266666667, "type": "electric_scooter", "bike_id": "b41d947d211761909ca7a9c050e96f56", "fusion_lon": 0.0, "lat": 38.907891666666664, "fusion_lat": 0.0}, {"is_disabled": 0, "rental_uris": {"android": "https://dc.lft.to/lastmile_qr_scan", "ios": "https://dc.lft.to/lastmile_qr_scan"}, "is_reserved": 0, "name": "647178143f226623d8a9c85618b7f17f", "lon": -77.05256233333333, "type": "electric_scooter", "bike_id": "647178143f226623d8a9c85618b7f17f", "fusion_lon": 0.0, "lat": 38.92392666666667, "fusion_lat": 0.0}, {"is_disabled": 0, "rental_uris": {"android": "https://dc.lft.to/lastmile_qr_scan", "ios": "https://dc.lft.to/lastmile_qr_scan"}, "is_reserved": 0, "name": "2c11a9a5b74fd93aaab1304d2b78f09f", "lon": -77.04656116666666, "type": "electric_scooter", "bike_id": "2c11a9a5b74fd93aaab1304d2b78f09f", "fusion_lon": 0.0, "lat": 38.90571683333334, "fusion_lat": 0.0}, {"is_disabled": 0, "rental_uris": {"android": "https://dc.lft.to/lastmile_qr_scan", "ios": "https://dc.lft.to/lastmile_qr_scan"}, "is_reserved": 0, "name": "30319d514beb46f67638bf9ec8861561", "lon": -76.987461, "type": "electric_scooter", "bike_id": "30319d514beb46f67638bf9ec8861561", "fusion_lon": 0.0, "lat": 38.87972766666667, "fusion_lat": 0.0}, {"is_disabled": 0, "rental_uris": {"android": "https://dc.lft.to/lastmile_qr_scan", "ios": "https://dc.lft.to/lastmile_qr_scan"}, "is_reserved": 0, "name": "e3ab273277c093f7420a7e8c20bc3c7b", "lon": -77.02941716666666, "type": "electric_scooter", "bike_id": "e3ab273277c093f7420a7e8c20bc3c7b", "fusion_lon": 0.0, "lat": 38.90447016666667, "fusion_lat": 0.0}, {"is_disabled": 0, "rental_uris": {"android": "https://dc.lft.to/lastmile_qr_scan", "ios": "https://dc.lft.to/lastmile_qr_scan"}, "is_reserved": 0, "name": "355e8ace45b9730b910bb26002307438", "lon": -77.027248, "type": "electric_scooter", "bike_id": "355e8ace45b9730b910bb26002307438", "fusion_lon": 0.0, "lat": 38.909635, "fusion_lat": 0.0}, {"is_disabled": 0, "rental_uris": {"android": "https://dc.lft.to/lastmile_qr_scan", "ios": "https://dc.lft.to/lastmile_qr_scan"}, "is_reserved": 0, "name": "5e912a995090feada400b858caa00fff", "lon": -77.0465775, "type": "electric_scooter", "bike_id": "5e912a995090feada400b858caa00fff", "fusion_lon": 0.0, "lat": 38.91186966666667, "fusion_lat": 0.0}, {"is_disabled": 0, "rental_uris": {"android": "https://dc.lft.to/lastmile_qr_scan", "ios": "https://dc.lft.to/lastmile_qr_scan"}, "is_reserved": 0, "name": "80b496a5830946d59e7d13631c11d8ca", "lon": -77.04229516666666, "type": "electric_scooter", "bike_id": "80b496a5830946d59e7d13631c11d8ca", "fusion_lon": 0.0, "lat": 38.921152166666666, "fusion_lat": 0.0}, {"is_disabled": 0, "rental_uris": {"android": "https://dc.lft.to/lastmile_qr_scan", "ios": "https://dc.lft.to/lastmile_qr_scan"}, "is_reserved": 0, "name": "a0f8eace7f5815ad824b54aa1499eae8", "lon": -76.99152933333333, "type": "electric_scooter", "bike_id": "a0f8eace7f5815ad824b54aa1499eae8", "fusion_lon": 0.0, "lat": 38.881422, "fusion_lat": 0.0}, {"is_disabled": 0, "rental_uris": {"android": "https://dc.lft.to/lastmile_qr_scan", "ios": "https://dc.lft.to/lastmile_qr_scan"}, "is_reserved": 0, "name": "200649289e7ef36ef989a390d2be307c", "lon": -77.01547533333333, "type": "electric_scooter", "bike_id": "200649289e7ef36ef989a390d2be307c", "fusion_lon": 0.0, "lat": 38.887710166666665, "fusion_lat": 0.0}, {"is_disabled": 0, "rental_uris": {"android": "https://dc.lft.to/lastmile_qr_scan", "ios": "https://dc.lft.to/lastmile_qr_scan"}, "is_reserved": 0, "name": "057eb2c538b775c3d306f71ef998873b", "lon": -77.0068475, "type": "electric_scooter", "bike_id": "057eb2c538b775c3d306f71ef998873b", "fusion_lon": 0.0, "lat": 38.900152, "fusion_lat": 0.0}, {"is_disabled": 0, "rental_uris": {"android": "https://dc.lft.to/lastmile_qr_scan", "ios": "https://dc.lft.to/lastmile_qr_scan"}, "is_reserved": 0, "name": "271d78c20f4a46c8e4c89c941a4a8454", "lon": -76.9489515, "type": "electric_scooter", "bike_id": "271d78c20f4a46c8e4c89c941a4a8454", "fusion_lon": 0.0, "lat": 38.8952555, "fusion_lat": 0.0}, {"is_disabled": 0, "rental_uris": {"android": "https://dc.lft.to/lastmile_qr_scan", "ios": "https://dc.lft.to/lastmile_qr_scan"}, "is_reserved": 0, "name": "3b8f08266f5525e1d0ec0c583f25487d", "lon": -76.9995325, "type": "electric_scooter", "bike_id": "3b8f08266f5525e1d0ec0c583f25487d", "fusion_lon": 0.0, "lat": 38.842938333333336, "fusion_lat": 0.0}, {"is_disabled": 0, "rental_uris": {"android": "https://dc.lft.to/lastmile_qr_scan", "ios": "https://dc.lft.to/lastmile_qr_scan"}, "is_reserved": 0, "name": "90f6669753f636c743b6dcd8946ee18c", "lon": -77.043949, "type": "electric_scooter", "bike_id": "90f6669753f636c743b6dcd8946ee18c", "fusion_lon": 0.0, "lat": 38.905738166666666, "fusion_lat": 0.0}, {"is_disabled": 0, "rental_uris": {"android": "https://dc.lft.to/lastmile_qr_scan", "ios": "https://dc.lft.to/lastmile_qr_scan"}, "is_reserved": 0, "name": "ffdb87902255bc217e39047db2bc1eba", "lon": -77.02299216666667, "type": "electric_scooter", "bike_id": "ffdb87902255bc217e39047db2bc1eba", "fusion_lon": 0.0, "lat": 38.918368, "fusion_lat": 0.0}, {"is_disabled": 0, "rental_uris": {"android": "https://dc.lft.to/lastmile_qr_scan", "ios": "https://dc.lft.to/lastmile_qr_scan"}, "is_reserved": 0, "name": "121d4c11d8b427102e564c11978c02c1", "lon": -77.02600166666667, "type": "electric_scooter", "bike_id": "121d4c11d8b427102e564c11978c02c1", "fusion_lon": 0.0, "lat": 38.90433683333333, "fusion_lat": 0.0}, {"is_disabled": 0, "rental_uris": {"android": "https://dc.lft.to/lastmile_qr_scan", "ios": "https://dc.lft.to/lastmile_qr_scan"}, "is_reserved": 0, "name": "c402d0b0aa2f45292c45bcca0e54e509", "lon": -76.94783466666667, "type": "electric_scooter", "bike_id": "c402d0b0aa2f45292c45bcca0e54e509", "fusion_lon": 0.0, "lat": 38.884678666666666, "fusion_lat": 0.0}, {"is_disabled": 0, "rental_uris": {"android": "https://dc.lft.to/lastmile_qr_scan", "ios": "https://dc.lft.to/lastmile_qr_scan"}, "is_reserved": 0, "name": "f75233ca2b9141f0e44d45ad9678fac9", "lon": -76.98246133333333, "type": "electric_scooter", "bike_id": "f75233ca2b9141f0e44d45ad9678fac9", "fusion_lon": 0.0, "lat": 38.864773666666665, "fusion_lat": 0.0}, {"is_disabled": 0, "rental_uris": {"android": "https://dc.lft.to/lastmile_qr_scan", "ios": "https://dc.lft.to/lastmile_qr_scan"}, "is_reserved": 0, "name": "2d362cf14cf7458112fc711d1d4a80e7", "lon": -77.01140616666666, "type": "electric_scooter", "bike_id": "2d362cf14cf7458112fc711d1d4a80e7", "fusion_lon": 0.0, "lat": 38.920413, "fusion_lat": 0.0}, {"is_disabled": 0, "rental_uris": {"android": "https://dc.lft.to/lastmile_qr_scan", "ios": "https://dc.lft.to/lastmile_qr_scan"}, "is_reserved": 0, "name": "bc560be01fb6a927e61e9a16a3b70c3d", "lon": -76.99557, "type": "electric_scooter", "bike_id": "bc560be01fb6a927e61e9a16a3b70c3d", "fusion_lon": 0.0, "lat": 38.88385783333333, "fusion_lat": 0.0}, {"is_disabled": 0, "rental_uris": {"android": "https://dc.lft.to/lastmile_qr_scan", "ios": "https://dc.lft.to/lastmile_qr_scan"}, "is_reserved": 0, "name": "f05b74849037d0eb82e3d51ac8b82d82", "lon": -76.99070816666666, "type": "electric_scooter", "bike_id": "f05b74849037d0eb82e3d51ac8b82d82", "fusion_lon": 0.0, "lat": 38.8636465, "fusion_lat": 0.0}, {"is_disabled": 0, "rental_uris": {"android": "https://dc.lft.to/lastmile_qr_scan", "ios": "https://dc.lft.to/lastmile_qr_scan"}, "is_reserved": 0, "name": "7a3f5be933bec4045bf25b379f00b3b6", "lon": -76.94547116666666, "type": "electric_bike", "bike_id": "7a3f5be933bec4045bf25b379f00b3b6", "fusion_lon": 0.0, "lat": 38.867653833333335, "fusion_lat": 0.0}, {"is_disabled": 0, "rental_uris": {"android": "https://dc.lft.to/lastmile_qr_scan", "ios": "https://dc.lft.to/lastmile_qr_scan"}, "is_reserved": 0, "name": "145f87cde9a447913853c467a1a9cded", "lon": -77.02003816666667, "type": "electric_scooter", "bike_id": "145f87cde9a447913853c467a1a9cded", "fusion_lon": 0.0, "lat": 38.89882566666667, "fusion_lat": 0.0}, {"is_disabled": 0, "rental_uris": {"android": "https://dc.lft.to/lastmile_qr_scan", "ios": "https://dc.lft.to/lastmile_qr_scan"}, "is_reserved": 0, "name": "e778f32988638024b2a94a6df3862592", "lon": -77.0271035, "type": "electric_scooter", "bike_id": "e778f32988638024b2a94a6df3862592", "fusion_lon": 0.0, "lat": 38.9096865, "fusion_lat": 0.0}, {"is_disabled": 0, "rental_uris": {"android": "https://dc.lft.to/lastmile_qr_scan", "ios": "https://dc.lft.to/lastmile_qr_scan"}, "is_reserved": 0, "name": "2dab165a451f04f6353fdb146c7e5f50", "lon": -77.05963933333334, "type": "electric_scooter", "bike_id": "2dab165a451f04f6353fdb146c7e5f50", "fusion_lon": 0.0, "lat": 38.9408525, "fusion_lat": 0.0}, {"is_disabled": 0, "rental_uris": {"android": "https://dc.lft.to/lastmile_qr_scan", "ios": "https://dc.lft.to/lastmile_qr_scan"}, "is_reserved": 0, "name": "7349c44d243179c29301a2b951d0a160", "lon": -77.03659233333333, "type": "electric_scooter", "bike_id": "7349c44d243179c29301a2b951d0a160", "fusion_lon": 0.0, "lat": 38.91593983333333, "fusion_lat": 0.0}, {"is_disabled": 0, "rental_uris": {"android": "https://dc.lft.to/lastmile_qr_scan", "ios": "https://dc.lft.to/lastmile_qr_scan"}, "is_reserved": 0, "name": "ad13e76e3fd88a9dc683a8c147f471cd", "lon": -76.980772, "type": "electric_scooter", "bike_id": "ad13e76e3fd88a9dc683a8c147f471cd", "fusion_lon": 0.0, "lat": 38.9364675, "fusion_lat": 0.0}, {"is_disabled": 0, "rental_uris": {"android": "https://dc.lft.to/lastmile_qr_scan", "ios": "https://dc.lft.to/lastmile_qr_scan"}, "is_reserved": 0, "name": "99e1a82b8814513b8a150c3f9c97ec58", "lon": -77.01738733333333, "type": "electric_scooter", "bike_id": "99e1a82b8814513b8a150c3f9c97ec58", "fusion_lon": 0.0, "lat": 38.91449883333333, "fusion_lat": 0.0}, {"is_disabled": 0, "rental_uris": {"android": "https://dc.lft.to/lastmile_qr_scan", "ios": "https://dc.lft.to/lastmile_qr_scan"}, "is_reserved": 0, "name": "cd644d1d06bbc108d904fa163a8aa7b8", "lon": -76.96560366666667, "type": "electric_scooter", "bike_id": "cd644d1d06bbc108d904fa163a8aa7b8", "fusion_lon": 0.0, "lat": 38.91838633333333, "fusion_lat": 0.0}, {"is_disabled": 0, "rental_uris": {"android": "https://dc.lft.to/lastmile_qr_scan", "ios": "https://dc.lft.to/lastmile_qr_scan"}, "is_reserved": 0, "name": "a722280a9a3439ece231d9973edcfe78", "lon": -77.03292966666666, "type": "electric_scooter", "bike_id": "a722280a9a3439ece231d9973edcfe78", "fusion_lon": 0.0, "lat": 38.933879, "fusion_lat": 0.0}, {"is_disabled": 0, "rental_uris": {"android": "https://dc.lft.to/lastmile_qr_scan", "ios": "https://dc.lft.to/lastmile_qr_scan"}, "is_reserved": 0, "name": "d0bc944ced70043bcaf352a6ff374d68", "lon": -77.03055916666666, "type": "electric_scooter", "bike_id": "d0bc944ced70043bcaf352a6ff374d68", "fusion_lon": 0.0, "lat": 38.899721666666665, "fusion_lat": 0.0}, {"is_disabled": 0, "rental_uris": {"android": "https://dc.lft.to/lastmile_qr_scan", "ios": "https://dc.lft.to/lastmile_qr_scan"}, "is_reserved": 0, "name": "4a4c78ee2b69d0ac8703506bb58722db", "lon": -77.03446883333334, "type": "electric_scooter", "bike_id": "4a4c78ee2b69d0ac8703506bb58722db", "fusion_lon": 0.0, "lat": 38.910210166666666, "fusion_lat": 0.0}, {"is_disabled": 0, "rental_uris": {"android": "https://dc.lft.to/lastmile_qr_scan", "ios": "https://dc.lft.to/lastmile_qr_scan"}, "is_reserved": 0, "name": "75568872e80f7a1b1d9d919be2902cf3", "lon": -77.01445083333333, "type": "electric_scooter", "bike_id": "75568872e80f7a1b1d9d919be2902cf3", "fusion_lon": 0.0, "lat": 38.92992566666667, "fusion_lat": 0.0}, {"is_disabled": 0, "rental_uris": {"android": "https://dc.lft.to/lastmile_qr_scan", "ios": "https://dc.lft.to/lastmile_qr_scan"}, "is_reserved": 0, "name": "b64819debce078561461e624d69333d9", "lon": -77.11435283333333, "type": "electric_bike", "bike_id": "b64819debce078561461e624d69333d9", "fusion_lon": 0.0, "lat": 38.879517666666665, "fusion_lat": 0.0}, {"is_disabled": 0, "rental_uris": {"android": "https://dc.lft.to/lastmile_qr_scan", "ios": "https://dc.lft.to/lastmile_qr_scan"}, "is_reserved": 0, "name": "7255214f0faec28336095d07133999ec", "lon": -76.9895615, "type": "electric_scooter", "bike_id": "7255214f0faec28336095d07133999ec", "fusion_lon": 0.0, "lat": 38.84408483333333, "fusion_lat": 0.0}, {"is_disabled": 0, "rental_uris": {"android": "https://dc.lft.to/lastmile_qr_scan", "ios": "https://dc.lft.to/lastmile_qr_scan"}, "is_reserved": 0, "name": "a1ee1c2cc04dd9929b6e76061b46a536", "lon": -77.02374483333334, "type": "electric_scooter", "bike_id": "a1ee1c2cc04dd9929b6e76061b46a536", "fusion_lon": 0.0, "lat": 38.902080833333336, "fusion_lat": 0.0}, {"is_disabled": 0, "rental_uris": {"android": "https://dc.lft.to/lastmile_qr_scan", "ios": "https://dc.lft.to/lastmile_qr_scan"}, "is_reserved": 0, "name": "17b4bd19b8c747ae413f77538d148c00", "lon": -77.01751866666666, "type": "electric_scooter", "bike_id": "17b4bd19b8c747ae413f77538d148c00", "fusion_lon": 0.0, "lat": 38.8772055, "fusion_lat": 0.0}, {"is_disabled": 0, "rental_uris": {"android": "https://dc.lft.to/lastmile_qr_scan", "ios": "https://dc.lft.to/lastmile_qr_scan"}, "is_reserved": 0, "name": "7cbb2e83715da8944c136b25f3d21cda", "lon": -77.03264516666667, "type": "electric_scooter", "bike_id": "7cbb2e83715da8944c136b25f3d21cda", "fusion_lon": 0.0, "lat": 38.935269, "fusion_lat": 0.0}, {"is_disabled": 0, "rental_uris": {"android": "https://dc.lft.to/lastmile_qr_scan", "ios": "https://dc.lft.to/lastmile_qr_scan"}, "is_reserved": 0, "name": "4955aff8b54d14706c4d79d2c80366ab", "lon": -77.0415555, "type": "electric_scooter", "bike_id": "4955aff8b54d14706c4d79d2c80366ab", "fusion_lon": 0.0, "lat": 38.91202166666667, "fusion_lat": 0.0}, {"is_disabled": 0, "rental_uris": {"android": "https://dc.lft.to/lastmile_qr_scan", "ios": "https://dc.lft.to/lastmile_qr_scan"}, "is_reserved": 0, "name": "7fdc4add654eeefb73a9e199522fa5eb", "lon": -77.091076, "type": "electric_scooter", "bike_id": "7fdc4add654eeefb73a9e199522fa5eb", "fusion_lon": 0.0, "lat": 38.95644216666667, "fusion_lat": 0.0}, {"is_disabled": 0, "rental_uris": {"android": "https://dc.lft.to/lastmile_qr_scan", "ios": "https://dc.lft.to/lastmile_qr_scan"}, "is_reserved": 0, "name": "0510f5a03a92bcf938cfc125350f72b0", "lon": -77.02212366666667, "type": "electric_scooter", "bike_id": "0510f5a03a92bcf938cfc125350f72b0", "fusion_lon": 0.0, "lat": 38.921056666666665, "fusion_lat": 0.0}, {"is_disabled": 0, "rental_uris": {"android": "https://dc.lft.to/lastmile_qr_scan", "ios": "https://dc.lft.to/lastmile_qr_scan"}, "is_reserved": 0, "name": "ff7de96f83abdf8c6043d63cca67c1cc", "lon": -77.0416795, "type": "electric_scooter", "bike_id": "ff7de96f83abdf8c6043d63cca67c1cc", "fusion_lon": 0.0, "lat": 38.91556833333333, "fusion_lat": 0.0}, {"is_disabled": 0, "rental_uris": {"android": "https://dc.lft.to/lastmile_qr_scan", "ios": "https://dc.lft.to/lastmile_qr_scan"}, "is_reserved": 0, "name": "6b618ec7d72d92c8a341a83d4e5904c2", "lon": -76.97224216666666, "type": "electric_scooter", "bike_id": "6b618ec7d72d92c8a341a83d4e5904c2", "fusion_lon": 0.0, "lat": 38.854543666666665, "fusion_lat": 0.0}, {"is_disabled": 0, "rental_uris": {"android": "https://dc.lft.to/lastmile_qr_scan", "ios": "https://dc.lft.to/lastmile_qr_scan"}, "is_reserved": 0, "name": "7b13b77a8c8f17d82ba17129cbd87cec", "lon": -77.03210116666666, "type": "electric_scooter", "bike_id": "7b13b77a8c8f17d82ba17129cbd87cec", "fusion_lon": 0.0, "lat": 38.92587783333333, "fusion_lat": 0.0}, {"is_disabled": 0, "rental_uris": {"android": "https://dc.lft.to/lastmile_qr_scan", "ios": "https://dc.lft.to/lastmile_qr_scan"}, "is_reserved": 0, "name": "eda8b8736228a5866a9073f33e3a025d", "lon": -77.00926583333333, "type": "electric_scooter", "bike_id": "eda8b8736228a5866a9073f33e3a025d", "fusion_lon": 0.0, "lat": 38.87120783333334, "fusion_lat": 0.0}, {"is_disabled": 0, "rental_uris": {"android": "https://dc.lft.to/lastmile_qr_scan", "ios": "https://dc.lft.to/lastmile_qr_scan"}, "is_reserved": 0, "name": "48215343b1e65b3aca77221d04ae1c67", "lon": -77.00917316666667, "type": "electric_scooter", "bike_id": "48215343b1e65b3aca77221d04ae1c67", "fusion_lon": 0.0, "lat": 38.89837, "fusion_lat": 0.0}, {"is_disabled": 0, "rental_uris": {"android": "https://dc.lft.to/lastmile_qr_scan", "ios": "https://dc.lft.to/lastmile_qr_scan"}, "is_reserved": 0, "name": "5387ed40aa776e3af24e797f4eb46db9", "lon": -77.011361, "type": "electric_scooter", "bike_id": "5387ed40aa776e3af24e797f4eb46db9", "fusion_lon": 0.0, "lat": 38.909656, "fusion_lat": 0.0}, {"is_disabled": 0, "rental_uris": {"android": "https://dc.lft.to/lastmile_qr_scan", "ios": "https://dc.lft.to/lastmile_qr_scan"}, "is_reserved": 0, "name": "b823b8addbf461d2cc8bacdbae122743", "lon": -76.98076483333334, "type": "electric_scooter", "bike_id": "b823b8addbf461d2cc8bacdbae122743", "fusion_lon": 0.0, "lat": 38.901703, "fusion_lat": 0.0}, {"is_disabled": 0, "rental_uris": {"android": "https://dc.lft.to/lastmile_qr_scan", "ios": "https://dc.lft.to/lastmile_qr_scan"}, "is_reserved": 0, "name": "b0cfc6aad3f47d5db3fa45ed7a4c3ad5", "lon": -77.04371033333334, "type": "electric_scooter", "bike_id": "b0cfc6aad3f47d5db3fa45ed7a4c3ad5", "fusion_lon": 0.0, "lat": 38.92572, "fusion_lat": 0.0}, {"is_disabled": 0, "rental_uris": {"android": "https://dc.lft.to/lastmile_qr_scan", "ios": "https://dc.lft.to/lastmile_qr_scan"}, "is_reserved": 0, "name": "fdd89893d0e49987b4fd56e62a8b272b", "lon": -77.03269233333333, "type": "electric_scooter", "bike_id": "fdd89893d0e49987b4fd56e62a8b272b", "fusion_lon": 0.0, "lat": 38.93334216666667, "fusion_lat": 0.0}, {"is_disabled": 0, "rental_uris": {"android": "https://dc.lft.to/lastmile_qr_scan", "ios": "https://dc.lft.to/lastmile_qr_scan"}, "is_reserved": 0, "name": "8a182e2b95a6e2dc9c80b38613f326f7", "lon": -76.9920165, "type": "electric_scooter", "bike_id": "8a182e2b95a6e2dc9c80b38613f326f7", "fusion_lon": 0.0, "lat": 38.8897555, "fusion_lat": 0.0}, {"is_disabled": 0, "rental_uris": {"android": "https://dc.lft.to/lastmile_qr_scan", "ios": "https://dc.lft.to/lastmile_qr_scan"}, "is_reserved": 0, "name": "ae21bde3580738873e4849d4279d2d66", "lon": -77.02784916666667, "type": "electric_scooter", "bike_id": "ae21bde3580738873e4849d4279d2d66", "fusion_lon": 0.0, "lat": 38.927747, "fusion_lat": 0.0}, {"is_disabled": 0, "rental_uris": {"android": "https://dc.lft.to/lastmile_qr_scan", "ios": "https://dc.lft.to/lastmile_qr_scan"}, "is_reserved": 0, "name": "05513253ea932e9f5a91f442d3216af0", "lon": -77.03088716666667, "type": "electric_scooter", "bike_id": "05513253ea932e9f5a91f442d3216af0", "fusion_lon": 0.0, "lat": 38.958374, "fusion_lat": 0.0}, {"is_disabled": 0, "rental_uris": {"android": "https://dc.lft.to/lastmile_qr_scan", "ios": "https://dc.lft.to/lastmile_qr_scan"}, "is_reserved": 0, "name": "bee17e3f5f3e155ab2f92ebe2be8f57c", "lon": -77.01646983333333, "type": "electric_scooter", "bike_id": "bee17e3f5f3e155ab2f92ebe2be8f57c", "fusion_lon": 0.0, "lat": 38.876366166666664, "fusion_lat": 0.0}, {"is_disabled": 0, "rental_uris": {"android": "https://dc.lft.to/lastmile_qr_scan", "ios": "https://dc.lft.to/lastmile_qr_scan"}, "is_reserved": 0, "name": "75fc4e36eb8fd43eeb473657cb710c6c", "lon": -77.00567666666667, "type": "electric_scooter", "bike_id": "75fc4e36eb8fd43eeb473657cb710c6c", "fusion_lon": 0.0, "lat": 38.88512216666667, "fusion_lat": 0.0}, {"is_disabled": 0, "rental_uris": {"android": "https://dc.lft.to/lastmile_qr_scan", "ios": "https://dc.lft.to/lastmile_qr_scan"}, "is_reserved": 0, "name": "fe5297a567f17f645fc66b4be463250f", "lon": -77.06012666666666, "type": "electric_scooter", "bike_id": "fe5297a567f17f645fc66b4be463250f", "fusion_lon": 0.0, "lat": 38.905348333333336, "fusion_lat": 0.0}, {"is_disabled": 0, "rental_uris": {"android": "https://dc.lft.to/lastmile_qr_scan", "ios": "https://dc.lft.to/lastmile_qr_scan"}, "is_reserved": 0, "name": "afa4c78875467c2a75cdcd3f737278ba", "lon": -77.0338855, "type": "electric_scooter", "bike_id": "afa4c78875467c2a75cdcd3f737278ba", "fusion_lon": 0.0, "lat": 38.91910383333333, "fusion_lat": 0.0}, {"is_disabled": 0, "rental_uris": {"android": "https://dc.lft.to/lastmile_qr_scan", "ios": "https://dc.lft.to/lastmile_qr_scan"}, "is_reserved": 0, "name": "f4d396f8f74482bea7442a9326afef80", "lon": -76.94726633333333, "type": "electric_scooter", "bike_id": "f4d396f8f74482bea7442a9326afef80", "fusion_lon": 0.0, "lat": 38.8971375, "fusion_lat": 0.0}, {"is_disabled": 0, "rental_uris": {"android": "https://dc.lft.to/lastmile_qr_scan", "ios": "https://dc.lft.to/lastmile_qr_scan"}, "is_reserved": 0, "name": "9fc418a3c63e2f5c01e22aa0dfc5f260", "lon": -77.0345205, "type": "electric_scooter", "bike_id": "9fc418a3c63e2f5c01e22aa0dfc5f260", "fusion_lon": 0.0, "lat": 38.9216305, "fusion_lat": 0.0}, {"is_disabled": 0, "rental_uris": {"android": "https://dc.lft.to/lastmile_qr_scan", "ios": "https://dc.lft.to/lastmile_qr_scan"}, "is_reserved": 0, "name": "5875c58021aec8f63e7f75da03a424ef", "lon": -77.04376, "type": "electric_scooter", "bike_id": "5875c58021aec8f63e7f75da03a424ef", "fusion_lon": 0.0, "lat": 38.910549833333334, "fusion_lat": 0.0}, {"is_disabled": 0, "rental_uris": {"android": "https://dc.lft.to/lastmile_qr_scan", "ios": "https://dc.lft.to/lastmile_qr_scan"}, "is_reserved": 0, "name": "ee5fceedde2eee0806e9ca16dfa2a06c", "lon": -77.02916533333334, "type": "electric_scooter", "bike_id": "ee5fceedde2eee0806e9ca16dfa2a06c", "fusion_lon": 0.0, "lat": 38.904232666666665, "fusion_lat": 0.0}, {"is_disabled": 0, "rental_uris": {"android": "https://dc.lft.to/lastmile_qr_scan", "ios": "https://dc.lft.to/lastmile_qr_scan"}, "is_reserved": 0, "name": "f2546134e5a8bb718b781d7e072ca5a2", "lon": -77.03787183333333, "type": "electric_scooter", "bike_id": "f2546134e5a8bb718b781d7e072ca5a2", "fusion_lon": 0.0, "lat": 38.930278666666666, "fusion_lat": 0.0}, {"is_disabled": 0, "rental_uris": {"android": "https://dc.lft.to/lastmile_qr_scan", "ios": "https://dc.lft.to/lastmile_qr_scan"}, "is_reserved": 0, "name": "584e20d01c73730a0b64e9e7b377ef9c", "lon": -77.03520816666666, "type": "electric_scooter", "bike_id": "584e20d01c73730a0b64e9e7b377ef9c", "fusion_lon": 0.0, "lat": 38.92265283333333, "fusion_lat": 0.0}, {"is_disabled": 0, "rental_uris": {"android": "https://dc.lft.to/lastmile_qr_scan", "ios": "https://dc.lft.to/lastmile_qr_scan"}, "is_reserved": 0, "name": "2606d72bfb4231c0601c812ecee23433", "lon": -77.04363933333333, "type": "electric_scooter", "bike_id": "2606d72bfb4231c0601c812ecee23433", "fusion_lon": 0.0, "lat": 38.905179833333335, "fusion_lat": 0.0}, {"is_disabled": 0, "rental_uris": {"android": "https://dc.lft.to/lastmile_qr_scan", "ios": "https://dc.lft.to/lastmile_qr_scan"}, "is_reserved": 0, "name": "0ab20018c0d5dd4cf24524dff120f2f7", "lon": -77.0391535, "type": "electric_scooter", "bike_id": "0ab20018c0d5dd4cf24524dff120f2f7", "fusion_lon": 0.0, "lat": 38.89959783333333, "fusion_lat": 0.0}, {"is_disabled": 0, "rental_uris": {"android": "https://dc.lft.to/lastmile_qr_scan", "ios": "https://dc.lft.to/lastmile_qr_scan"}, "is_reserved": 0, "name": "507e164602973f55df5433bcc9303cc7", "lon": -76.97330916666667, "type": "electric_bike", "bike_id": "507e164602973f55df5433bcc9303cc7", "fusion_lon": 0.0, "lat": 38.85073333333333, "fusion_lat": 0.0}, {"is_disabled": 0, "rental_uris": {"android": "https://dc.lft.to/lastmile_qr_scan", "ios": "https://dc.lft.to/lastmile_qr_scan"}, "is_reserved": 0, "name": "c8b318c450c6a22bd3063e32dd1be89d", "lon": -77.0008205, "type": "electric_scooter", "bike_id": "c8b318c450c6a22bd3063e32dd1be89d", "fusion_lon": 0.0, "lat": 38.925609333333334, "fusion_lat": 0.0}, {"is_disabled": 0, "rental_uris": {"android": "https://dc.lft.to/lastmile_qr_scan", "ios": "https://dc.lft.to/lastmile_qr_scan"}, "is_reserved": 0, "name": "9f79df2dd17125a1c45f07ee64469668", "lon": -77.038642, "type": "electric_scooter", "bike_id": "9f79df2dd17125a1c45f07ee64469668", "fusion_lon": 0.0, "lat": 38.909290666666664, "fusion_lat": 0.0}, {"is_disabled": 0, "rental_uris": {"android": "https://dc.lft.to/lastmile_qr_scan", "ios": "https://dc.lft.to/lastmile_qr_scan"}, "is_reserved": 0, "name": "56562adfb6053f5af13606bd3fbc3ef3", "lon": -77.02930633333334, "type": "electric_scooter", "bike_id": "56562adfb6053f5af13606bd3fbc3ef3", "fusion_lon": 0.0, "lat": 38.910387166666666, "fusion_lat": 0.0}, {"is_disabled": 0, "rental_uris": {"android": "https://dc.lft.to/lastmile_qr_scan", "ios": "https://dc.lft.to/lastmile_qr_scan"}, "is_reserved": 0, "name": "6a57bfad32886625ae27204ff8645a12", "lon": -77.01289083333333, "type": "electric_scooter", "bike_id": "6a57bfad32886625ae27204ff8645a12", "fusion_lon": 0.0, "lat": 38.920240666666665, "fusion_lat": 0.0}, {"is_disabled": 0, "rental_uris": {"android": "https://dc.lft.to/lastmile_qr_scan", "ios": "https://dc.lft.to/lastmile_qr_scan"}, "is_reserved": 0, "name": "8236f2c08d5b193b3c8fb1d96988d60d", "lon": -77.0248605, "type": "electric_scooter", "bike_id": "8236f2c08d5b193b3c8fb1d96988d60d", "fusion_lon": 0.0, "lat": 38.91617183333334, "fusion_lat": 0.0}, {"is_disabled": 0, "rental_uris": {"android": "https://dc.lft.to/lastmile_qr_scan", "ios": "https://dc.lft.to/lastmile_qr_scan"}, "is_reserved": 0, "name": "8c45e0f11682e9293f0119653e7e5647", "lon": -77.023649, "type": "electric_scooter", "bike_id": "8c45e0f11682e9293f0119653e7e5647", "fusion_lon": 0.0, "lat": 38.93140066666667, "fusion_lat": 0.0}, {"is_disabled": 0, "rental_uris": {"android": "https://dc.lft.to/lastmile_qr_scan", "ios": "https://dc.lft.to/lastmile_qr_scan"}, "is_reserved": 0, "name": "8c580a8dd709522605dfe27af29f671c", "lon": -77.03613416666667, "type": "electric_scooter", "bike_id": "8c580a8dd709522605dfe27af29f671c", "fusion_lon": 0.0, "lat": 38.931524333333336, "fusion_lat": 0.0}, {"is_disabled": 0, "rental_uris": {"android": "https://dc.lft.to/lastmile_qr_scan", "ios": "https://dc.lft.to/lastmile_qr_scan"}, "is_reserved": 0, "name": "3cdb7dcc1ed11851fe8f95a8b33945fa", "lon": -77.0352905, "type": "electric_scooter", "bike_id": "3cdb7dcc1ed11851fe8f95a8b33945fa", "fusion_lon": 0.0, "lat": 38.906623, "fusion_lat": 0.0}, {"is_disabled": 0, "rental_uris": {"android": "https://dc.lft.to/lastmile_qr_scan", "ios": "https://dc.lft.to/lastmile_qr_scan"}, "is_reserved": 0, "name": "e8cab798783dc32d515942fdd44fc37e", "lon": -77.04015933333334, "type": "electric_scooter", "bike_id": "e8cab798783dc32d515942fdd44fc37e", "fusion_lon": 0.0, "lat": 38.922071, "fusion_lat": 0.0}, {"is_disabled": 0, "rental_uris": {"android": "https://dc.lft.to/lastmile_qr_scan", "ios": "https://dc.lft.to/lastmile_qr_scan"}, "is_reserved": 0, "name": "6879fa6d7d0e3082fa80078a302101eb", "lon": -76.96558633333333, "type": "electric_scooter", "bike_id": "6879fa6d7d0e3082fa80078a302101eb", "fusion_lon": 0.0, "lat": 38.91841433333333, "fusion_lat": 0.0}, {"is_disabled": 0, "rental_uris": {"android": "https://dc.lft.to/lastmile_qr_scan", "ios": "https://dc.lft.to/lastmile_qr_scan"}, "is_reserved": 0, "name": "27093c1506a552173b91f62a9408b5bf", "lon": -77.04186333333334, "type": "electric_scooter", "bike_id": "27093c1506a552173b91f62a9408b5bf", "fusion_lon": 0.0, "lat": 38.908060166666665, "fusion_lat": 0.0}, {"is_disabled": 0, "rental_uris": {"android": "https://dc.lft.to/lastmile_qr_scan", "ios": "https://dc.lft.to/lastmile_qr_scan"}, "is_reserved": 0, "name": "1f40b90d13de4ccfe945b5652a78c6a9", "lon": -77.0539635, "type": "electric_scooter", "bike_id": "1f40b90d13de4ccfe945b5652a78c6a9", "fusion_lon": 0.0, "lat": 38.905229, "fusion_lat": 0.0}, {"is_disabled": 0, "rental_uris": {"android": "https://dc.lft.to/lastmile_qr_scan", "ios": "https://dc.lft.to/lastmile_qr_scan"}, "is_reserved": 0, "name": "e117ff28e6ebec5188d357229de1b657", "lon": -77.03662816666667, "type": "electric_scooter", "bike_id": "e117ff28e6ebec5188d357229de1b657", "fusion_lon": 0.0, "lat": 38.91722433333333, "fusion_lat": 0.0}, {"is_disabled": 0, "rental_uris": {"android": "https://dc.lft.to/lastmile_qr_scan", "ios": "https://dc.lft.to/lastmile_qr_scan"}, "is_reserved": 0, "name": "9ceedf5167d4a1f5a8c5b2056642708a", "lon": -76.99390816666667, "type": "electric_scooter", "bike_id": "9ceedf5167d4a1f5a8c5b2056642708a", "fusion_lon": 0.0, "lat": 38.92121933333333, "fusion_lat": 0.0}, {"is_disabled": 0, "rental_uris": {"android": "https://dc.lft.to/lastmile_qr_scan", "ios": "https://dc.lft.to/lastmile_qr_scan"}, "is_reserved": 0, "name": "b3175f92b96b171963805a495aca0dd3", "lon": -77.0121845, "type": "electric_scooter", "bike_id": "b3175f92b96b171963805a495aca0dd3", "fusion_lon": 0.0, "lat": 38.915049833333335, "fusion_lat": 0.0}, {"is_disabled": 0, "rental_uris": {"android": "https://dc.lft.to/lastmile_qr_scan", "ios": "https://dc.lft.to/lastmile_qr_scan"}, "is_reserved": 0, "name": "449f888cf0847e2ea590b6b082a8dd28", "lon": -76.99007733333333, "type": "electric_scooter", "bike_id": "449f888cf0847e2ea590b6b082a8dd28", "fusion_lon": 0.0, "lat": 38.86511016666667, "fusion_lat": 0.0}, {"is_disabled": 0, "rental_uris": {"android": "https://dc.lft.to/lastmile_qr_scan", "ios": "https://dc.lft.to/lastmile_qr_scan"}, "is_reserved": 0, "name": "eea8e3316ae4ffb286f676c4c8408b81", "lon": -77.0352735, "type": "electric_scooter", "bike_id": "eea8e3316ae4ffb286f676c4c8408b81", "fusion_lon": 0.0, "lat": 38.92247366666667, "fusion_lat": 0.0}, {"is_disabled": 0, "rental_uris": {"android": "https://dc.lft.to/lastmile_qr_scan", "ios": "https://dc.lft.to/lastmile_qr_scan"}, "is_reserved": 0, "name": "d90a2a3ef1886735f37c3076b7938a9e", "lon": -76.9499595, "type": "electric_scooter", "bike_id": "d90a2a3ef1886735f37c3076b7938a9e", "fusion_lon": 0.0, "lat": 38.894015, "fusion_lat": 0.0}, {"is_disabled": 0, "rental_uris": {"android": "https://dc.lft.to/lastmile_qr_scan", "ios": "https://dc.lft.to/lastmile_qr_scan"}, "is_reserved": 0, "name": "555c3dffa2d63a0c8a48f6e967affd80", "lon": -77.03629716666667, "type": "electric_scooter", "bike_id": "555c3dffa2d63a0c8a48f6e967affd80", "fusion_lon": 0.0, "lat": 38.91625283333333, "fusion_lat": 0.0}, {"is_disabled": 0, "rental_uris": {"android": "https://dc.lft.to/lastmile_qr_scan", "ios": "https://dc.lft.to/lastmile_qr_scan"}, "is_reserved": 0, "name": "aeae978200849a2ac3d8591cd9eeaa85", "lon": -76.99078816666666, "type": "electric_scooter", "bike_id": "aeae978200849a2ac3d8591cd9eeaa85", "fusion_lon": 0.0, "lat": 38.86055483333333, "fusion_lat": 0.0}, {"is_disabled": 0, "rental_uris": {"android": "https://dc.lft.to/lastmile_qr_scan", "ios": "https://dc.lft.to/lastmile_qr_scan"}, "is_reserved": 0, "name": "d19ffe2542d5e7cf8010fc764897680f", "lon": -76.94951166666667, "type": "electric_bike", "bike_id": "d19ffe2542d5e7cf8010fc764897680f", "fusion_lon": 0.0, "lat": 38.9350795, "fusion_lat": 0.0}, {"is_disabled": 0, "rental_uris": {"android": "https://dc.lft.to/lastmile_qr_scan", "ios": "https://dc.lft.to/lastmile_qr_scan"}, "is_reserved": 0, "name": "c031d567c88b7094a081fd88a3518754", "lon": -77.03954066666667, "type": "electric_scooter", "bike_id": "c031d567c88b7094a081fd88a3518754", "fusion_lon": 0.0, "lat": 38.90239316666667, "fusion_lat": 0.0}, {"is_disabled": 0, "rental_uris": {"android": "https://dc.lft.to/lastmile_qr_scan", "ios": "https://dc.lft.to/lastmile_qr_scan"}, "is_reserved": 0, "name": "6fd26dbe1ddf88bf7b732c917751429b", "lon": -77.0500565, "type": "electric_scooter", "bike_id": "6fd26dbe1ddf88bf7b732c917751429b", "fusion_lon": 0.0, "lat": 38.89230716666667, "fusion_lat": 0.0}, {"is_disabled": 0, "rental_uris": {"android": "https://dc.lft.to/lastmile_qr_scan", "ios": "https://dc.lft.to/lastmile_qr_scan"}, "is_reserved": 0, "name": "195e9d3c1f4bbaed30d6abd8a3f7c9d9", "lon": -76.98974366666667, "type": "electric_scooter", "bike_id": "195e9d3c1f4bbaed30d6abd8a3f7c9d9", "fusion_lon": 0.0, "lat": 38.902561166666665, "fusion_lat": 0.0}, {"is_disabled": 0, "rental_uris": {"android": "https://dc.lft.to/lastmile_qr_scan", "ios": "https://dc.lft.to/lastmile_qr_scan"}, "is_reserved": 0, "name": "f8b509553a546bbfedb38576ce42aa1e", "lon": -77.0041235, "type": "electric_scooter", "bike_id": "f8b509553a546bbfedb38576ce42aa1e", "fusion_lon": 0.0, "lat": 38.876648, "fusion_lat": 0.0}, {"is_disabled": 0, "rental_uris": {"android": "https://dc.lft.to/lastmile_qr_scan", "ios": "https://dc.lft.to/lastmile_qr_scan"}, "is_reserved": 0, "name": "20d3dd3f5edb1598fc9f9ea0965d9c52", "lon": -77.03904916666667, "type": "electric_scooter", "bike_id": "20d3dd3f5edb1598fc9f9ea0965d9c52", "fusion_lon": 0.0, "lat": 38.902555666666665, "fusion_lat": 0.0}, {"is_disabled": 0, "rental_uris": {"android": "https://dc.lft.to/lastmile_qr_scan", "ios": "https://dc.lft.to/lastmile_qr_scan"}, "is_reserved": 0, "name": "50023e06cbc5ae0cb36e155f76636353", "lon": -77.00435216666666, "type": "electric_scooter", "bike_id": "50023e06cbc5ae0cb36e155f76636353", "fusion_lon": 0.0, "lat": 38.83815366666666, "fusion_lat": 0.0}, {"is_disabled": 0, "rental_uris": {"android": "https://dc.lft.to/lastmile_qr_scan", "ios": "https://dc.lft.to/lastmile_qr_scan"}, "is_reserved": 0, "name": "d990dcf834fb3a48da082e2b22bb2a43", "lon": -76.99964283333334, "type": "electric_scooter", "bike_id": "d990dcf834fb3a48da082e2b22bb2a43", "fusion_lon": 0.0, "lat": 38.842946166666664, "fusion_lat": 0.0}, {"is_disabled": 0, "rental_uris": {"android": "https://dc.lft.to/lastmile_qr_scan", "ios": "https://dc.lft.to/lastmile_qr_scan"}, "is_reserved": 0, "name": "2a27c8012a22848a8bd0327b2025008a", "lon": -77.03157016666667, "type": "electric_scooter", "bike_id": "2a27c8012a22848a8bd0327b2025008a", "fusion_lon": 0.0, "lat": 38.91632083333333, "fusion_lat": 0.0}, {"is_disabled": 0, "rental_uris": {"android": "https://dc.lft.to/lastmile_qr_scan", "ios": "https://dc.lft.to/lastmile_qr_scan"}, "is_reserved": 0, "name": "56d76302a3fa93703cc8fdc5b1bc49f2", "lon": -77.01629883333334, "type": "electric_scooter", "bike_id": "56d76302a3fa93703cc8fdc5b1bc49f2", "fusion_lon": 0.0, "lat": 38.872368, "fusion_lat": 0.0}, {"is_disabled": 0, "rental_uris": {"android": "https://dc.lft.to/lastmile_qr_scan", "ios": "https://dc.lft.to/lastmile_qr_scan"}, "is_reserved": 0, "name": "e45fc06b410c08cf6e038e27c29aeb25", "lon": -77.0467235, "type": "electric_scooter", "bike_id": "e45fc06b410c08cf6e038e27c29aeb25", "fusion_lon": 0.0, "lat": 38.905758166666665, "fusion_lat": 0.0}, {"is_disabled": 0, "rental_uris": {"android": "https://dc.lft.to/lastmile_qr_scan", "ios": "https://dc.lft.to/lastmile_qr_scan"}, "is_reserved": 0, "name": "ead2a15c75c41bfedf231316c9470486", "lon": -77.040611, "type": "electric_scooter", "bike_id": "ead2a15c75c41bfedf231316c9470486", "fusion_lon": 0.0, "lat": 38.91044133333333, "fusion_lat": 0.0}, {"is_disabled": 0, "rental_uris": {"android": "https://dc.lft.to/lastmile_qr_scan", "ios": "https://dc.lft.to/lastmile_qr_scan"}, "is_reserved": 0, "name": "2f5e90a9c6ecec569099816b25c78702", "lon": -77.02471266666667, "type": "electric_bike", "bike_id": "2f5e90a9c6ecec569099816b25c78702", "fusion_lon": 0.0, "lat": 38.9557935, "fusion_lat": 0.0}, {"is_disabled": 0, "rental_uris": {"android": "https://dc.lft.to/lastmile_qr_scan", "ios": "https://dc.lft.to/lastmile_qr_scan"}, "is_reserved": 0, "name": "9aedc5900ad9259c8e316d1ec5f49d8b", "lon": -76.98162466666666, "type": "electric_bike", "bike_id": "9aedc5900ad9259c8e316d1ec5f49d8b", "fusion_lon": 0.0, "lat": 38.95962933333333, "fusion_lat": 0.0}, {"is_disabled": 0, "rental_uris": {"android": "https://dc.lft.to/lastmile_qr_scan", "ios": "https://dc.lft.to/lastmile_qr_scan"}, "is_reserved": 0, "name": "42637db7891b0d7b6d529416e9a33803", "lon": -76.9318765, "type": "electric_scooter", "bike_id": "42637db7891b0d7b6d529416e9a33803", "fusion_lon": 0.0, "lat": 38.898827, "fusion_lat": 0.0}, {"is_disabled": 0, "rental_uris": {"android": "https://dc.lft.to/lastmile_qr_scan", "ios": "https://dc.lft.to/lastmile_qr_scan"}, "is_reserved": 0, "name": "612687fa8715776a5a4b0613c1f39f26", "lon": -77.02788683333333, "type": "electric_scooter", "bike_id": "612687fa8715776a5a4b0613c1f39f26", "fusion_lon": 0.0, "lat": 38.96135366666667, "fusion_lat": 0.0}, {"is_disabled": 0, "rental_uris": {"android": "https://dc.lft.to/lastmile_qr_scan", "ios": "https://dc.lft.to/lastmile_qr_scan"}, "is_reserved": 0, "name": "31d1c9978061c3b6c374686e825b983b", "lon": -77.05706216666667, "type": "electric_scooter", "bike_id": "31d1c9978061c3b6c374686e825b983b", "fusion_lon": 0.0, "lat": 38.9262495, "fusion_lat": 0.0}, {"is_disabled": 0, "rental_uris": {"android": "https://dc.lft.to/lastmile_qr_scan", "ios": "https://dc.lft.to/lastmile_qr_scan"}, "is_reserved": 0, "name": "b4c69d0124fe48674f730a58e115acba", "lon": -77.0198085, "type": "electric_scooter", "bike_id": "b4c69d0124fe48674f730a58e115acba", "fusion_lon": 0.0, "lat": 38.91194633333333, "fusion_lat": 0.0}, {"is_disabled": 0, "rental_uris": {"android": "https://dc.lft.to/lastmile_qr_scan", "ios": "https://dc.lft.to/lastmile_qr_scan"}, "is_reserved": 0, "name": "4007d807b26a9325bab0aa4f9a472fb0", "lon": -77.02389383333333, "type": "electric_scooter", "bike_id": "4007d807b26a9325bab0aa4f9a472fb0", "fusion_lon": 0.0, "lat": 38.905884666666665, "fusion_lat": 0.0}, {"is_disabled": 0, "rental_uris": {"android": "https://dc.lft.to/lastmile_qr_scan", "ios": "https://dc.lft.to/lastmile_qr_scan"}, "is_reserved": 0, "name": "909f0927a838cf16e9ba8220ceb43732", "lon": -76.95675983333334, "type": "electric_scooter", "bike_id": "909f0927a838cf16e9ba8220ceb43732", "fusion_lon": 0.0, "lat": 38.887725833333334, "fusion_lat": 0.0}, {"is_disabled": 0, "rental_uris": {"android": "https://dc.lft.to/lastmile_qr_scan", "ios": "https://dc.lft.to/lastmile_qr_scan"}, "is_reserved": 0, "name": "f9423a15a12e8b6ff0234ef48c348101", "lon": -77.04149266666667, "type": "electric_scooter", "bike_id": "f9423a15a12e8b6ff0234ef48c348101", "fusion_lon": 0.0, "lat": 38.91276833333333, "fusion_lat": 0.0}, {"is_disabled": 0, "rental_uris": {"android": "https://dc.lft.to/lastmile_qr_scan", "ios": "https://dc.lft.to/lastmile_qr_scan"}, "is_reserved": 0, "name": "40faea576fd39853717449cb79f4e405", "lon": -77.03859633333333, "type": "electric_scooter", "bike_id": "40faea576fd39853717449cb79f4e405", "fusion_lon": 0.0, "lat": 38.912265166666664, "fusion_lat": 0.0}, {"is_disabled": 0, "rental_uris": {"android": "https://dc.lft.to/lastmile_qr_scan", "ios": "https://dc.lft.to/lastmile_qr_scan"}, "is_reserved": 0, "name": "7e268b7860dd8a30e6c1282289bf6181", "lon": -76.997333, "type": "electric_scooter", "bike_id": "7e268b7860dd8a30e6c1282289bf6181", "fusion_lon": 0.0, "lat": 38.924627666666666, "fusion_lat": 0.0}, {"is_disabled": 0, "rental_uris": {"android": "https://dc.lft.to/lastmile_qr_scan", "ios": "https://dc.lft.to/lastmile_qr_scan"}, "is_reserved": 0, "name": "c53bbfce2cb19d77001cdb3b42b30ca4", "lon": -77.0162635, "type": "electric_scooter", "bike_id": "c53bbfce2cb19d77001cdb3b42b30ca4", "fusion_lon": 0.0, "lat": 38.89866716666667, "fusion_lat": 0.0}, {"is_disabled": 0, "rental_uris": {"android": "https://dc.lft.to/lastmile_qr_scan", "ios": "https://dc.lft.to/lastmile_qr_scan"}, "is_reserved": 0, "name": "61752ad7ae2bda20293d63daaa4b66db", "lon": -77.03467533333334, "type": "electric_scooter", "bike_id": "61752ad7ae2bda20293d63daaa4b66db", "fusion_lon": 0.0, "lat": 38.91393133333333, "fusion_lat": 0.0}, {"is_disabled": 0, "rental_uris": {"android": "https://dc.lft.to/lastmile_qr_scan", "ios": "https://dc.lft.to/lastmile_qr_scan"}, "is_reserved": 0, "name": "51d164bae8581507746a0b5879ef7f77", "lon": -77.04678233333334, "type": "electric_scooter", "bike_id": "51d164bae8581507746a0b5879ef7f77", "fusion_lon": 0.0, "lat": 38.91590683333333, "fusion_lat": 0.0}, {"is_disabled": 0, "rental_uris": {"android": "https://dc.lft.to/lastmile_qr_scan", "ios": "https://dc.lft.to/lastmile_qr_scan"}, "is_reserved": 0, "name": "1e670237c7c2cda11d7456503dddb2de", "lon": -77.3531485, "type": "electric_bike", "bike_id": "1e670237c7c2cda11d7456503dddb2de", "fusion_lon": 0.0, "lat": 38.95012283333333, "fusion_lat": 0.0}, {"is_disabled": 0, "rental_uris": {"android": "https://dc.lft.to/lastmile_qr_scan", "ios": "https://dc.lft.to/lastmile_qr_scan"}, "is_reserved": 0, "name": "9adb878ff40f09881f7c5ccebd393811", "lon": -77.02455433333333, "type": "electric_scooter", "bike_id": "9adb878ff40f09881f7c5ccebd393811", "fusion_lon": 0.0, "lat": 38.938998166666664, "fusion_lat": 0.0}, {"is_disabled": 0, "rental_uris": {"android": "https://dc.lft.to/lastmile_qr_scan", "ios": "https://dc.lft.to/lastmile_qr_scan"}, "is_reserved": 0, "name": "3f4a7bd6268c5bd3bcd46a1e24784c9e", "lon": -77.04482283333333, "type": "electric_scooter", "bike_id": "3f4a7bd6268c5bd3bcd46a1e24784c9e", "fusion_lon": 0.0, "lat": 38.9065995, "fusion_lat": 0.0}, {"is_disabled": 0, "rental_uris": {"android": "https://dc.lft.to/lastmile_qr_scan", "ios": "https://dc.lft.to/lastmile_qr_scan"},