{"data": {"bikes": [{"rental_uris": {"ios": "https://dc.lft.to/lastmile_qr_scan", "android": "https://dc.lft.to/lastmile_qr_scan"}, "lon": -77.04142766666666, "type": "electric_scooter", "fusion_lat": 0.0, "lat": 38.92297933333333, "name": "0253beec32c6ad3f749ee83d9f824b09", "fusion_lon": 0.0, "bike_id": "0253beec32c6ad3f749ee83d9f824b09", "is_disabled": 0, "is_reserved": 0}, {"rental_uris": {"ios": "https://dc.lft.to/lastmile_qr_scan", "android": "https://dc.lft.to/lastmile_qr_scan"}, "lon": -77.04225383333333, "type": "electric_scooter", "fusion_lat": 0.0, "lat": 38.921124666666664, "name": "729820dfe2409fbae7f3467bd5156d7b", "fusion_lon": 0.0, "bike_id": "729820dfe2409fbae7f3467bd5156d7b", "is_disabled": 0, "is_reserved": 0}, {"rental_uris": {"ios": "https://dc.lft.to/lastmile_qr_scan", "android": "https://dc.lft.to/lastmile_qr_scan"}, "lon": -77.02396816666666, "type": "electric_scooter", "fusion_lat": 0.0, "lat": 38.93769266666666, "name": "336e8f1565fbd8362345e05f0bf9ae7e", "fusion_lon": 0.0, "bike_id": "336e8f1565fbd8362345e05f0bf9ae7e", "is_disabled": 0, "is_reserved": 0}, {"rental_uris": {"ios": "https://dc.lft.to/lastmile_qr_scan", "android": "https://dc.lft.to/lastmile_qr_scan"}, "lon": -77.00135766666666, "type": "electric_scooter", "fusion_lat": 0.0, "lat": 38.91910033333333, "name": "51a664857d32c193bc0b61906000dcd7", "fusion_lon": 0.0, "bike_id": "51a664857d32c193bc0b61906000dcd7", "is_disabled": 0, "is_reserved": 0}, {"rental_uris": {"ios": "https://dc.lft.to/lastmile_qr_scan", "android": "https://dc.lft.to/lastmile_qr_scan"}, "lon": -76.99382333333334, "type": "electric_scooter", "fusion_lat": 0.0, "lat": 38.8874925, "name": "c5144c0ac048a5369140d85530340ca8", "fusion_lon": 0.0, "bike_id": "c5144c0ac048a5369140d85530340ca8", "is_disabled": 0, "is_reserved": 0}, {"rental_uris": {"ios": "https://dc.lft.to/lastmile_qr_scan", "android": "https://dc.lft.to/lastmile_qr_scan"}, "lon": -76.9441485, "type": "electric_scooter", "fusion_lat": 0.0, "lat": 38.89796666666667, "name": "b824d9435317e5599278e337d27a0d79", "fusion_lon": 0.0, "bike_id": "b824d9435317e5599278e337d27a0d79", "is_disabled": 0, "is_reserved": 0}, {"rental_uris": {"ios": "https://dc.lft.to/lastmile_qr_scan", "android": "https://dc.lft.to/lastmile_qr_scan"}, "lon": -76.98353783333333, "type": "electric_scooter", "fusion_lat": 0.0, "lat": 38.91527816666667, "name": "50b93f7ab412e068b6cfbc3b74f5e0b4", "fusion_lon": 0.0, "bike_id": "50b93f7ab412e068b6cfbc3b74f5e0b4", "is_disabled": 0, "is_reserved": 0}, {"rental_uris": {"ios": "https://dc.lft.to/lastmile_qr_scan", "android": "https://dc.lft.to/lastmile_qr_scan"}, "lon": -77.044258, "type": "electric_scooter", "fusion_lat": 0.0, "lat": 38.905787833333335, "name": "8850682e800bc5332c2ce82f8327c703", "fusion_lon": 0.0, "bike_id": "8850682e800bc5332c2ce82f8327c703", "is_disabled": 0, "is_reserved": 0}, {"rental_uris": {"ios": "https://dc.lft.to/lastmile_qr_scan", "android": "https://dc.lft.to/lastmile_qr_scan"}, "lon": -77.034454, "type": "electric_scooter", "fusion_lat": 0.0, "lat": 38.91875666666667, "name": "d7d739d10807f51d0f33fac7d7de3a60", "fusion_lon": 0.0, "bike_id": "d7d739d10807f51d0f33fac7d7de3a60", "is_disabled": 0, "is_reserved": 0}, {"rental_uris": {"ios": "https://dc.lft.to/lastmile_qr_scan", "android": "https://dc.lft.to/lastmile_qr_scan"}, "lon": -77.031252, "type": "electric_scooter", "fusion_lat": 0.0, "lat": 38.923710166666666, "name": "d4abf9178cb328f33d6326c78d014f6e", "fusion_lon": 0.0, "bike_id": "d4abf9178cb328f33d6326c78d014f6e", "is_disabled": 0, "is_reserved": 0}, {"rental_uris": {"ios": "https://dc.lft.to/lastmile_qr_scan", "android": "https://dc.lft.to/lastmile_qr_scan"}, "lon": -77.026033, "type": "electric_scooter", "fusion_lat": 0.0, "lat": 38.920328, "name": "08da170c2712247d718e24a5729d0885", "fusion_lon": 0.0, "bike_id": "08da170c2712247d718e24a5729d0885", "is_disabled": 0, "is_reserved": 0}, {"rental_uris": {"ios": "https://dc.lft.to/lastmile_qr_scan", "android": "https://dc.lft.to/lastmile_qr_scan"}, "lon": -77.06506766666666, "type": "electric_bike", "fusion_lat": 0.0, "lat": 38.964934666666664, "name": "9d97dba2bf6eba91ef413a7b03f0d7bf", "fusion_lon": 0.0, "bike_id": "9d97dba2bf6eba91ef413a7b03f0d7bf", "is_disabled": 0, "is_reserved": 0}, {"rental_uris": {"ios": "https://dc.lft.to/lastmile_qr_scan", "android": "https://dc.lft.to/lastmile_qr_scan"}, "lon": -77.01967266666666, "type": "electric_scooter", "fusion_lat": 0.0, "lat": 38.934107, "name": "f1c454db08edee1a37ee61c4c5ef87c7", "fusion_lon": 0.0, "bike_id": "f1c454db08edee1a37ee61c4c5ef87c7", "is_disabled": 0, "is_reserved": 0}, {"rental_uris": {"ios": "https://dc.lft.to/lastmile_qr_scan", "android": "https://dc.lft.to/lastmile_qr_scan"}, "lon": -77.03649683333333, "type": "electric_scooter", "fusion_lat": 0.0, "lat": 38.9212265, "name": "a6549499a24ededc1e55308dcd9f6100", "fusion_lon": 0.0, "bike_id": "a6549499a24ededc1e55308dcd9f6100", "is_disabled": 0, "is_reserved": 0}, {"rental_uris": {"ios": "https://dc.lft.to/lastmile_qr_scan", "android": "https://dc.lft.to/lastmile_qr_scan"}, "lon": -77.05000416666667, "type": "electric_scooter", "fusion_lat": 0.0, "lat": 38.900581833333334, "name": "f8b2833e4f0a173950f673cf9ac5c245", "fusion_lon": 0.0, "bike_id": "f8b2833e4f0a173950f673cf9ac5c245", "is_disabled": 0, "is_reserved": 0}, {"rental_uris": {"ios": "https://dc.lft.to/lastmile_qr_scan", "android": "https://dc.lft.to/lastmile_qr_scan"}, "lon": -77.0482785, "type": "electric_scooter", "fusion_lat": 0.0, "lat": 38.920342833333336, "name": "83414230c4a7d464f3d71a27bd7a1874", "fusion_lon": 0.0, "bike_id": "83414230c4a7d464f3d71a27bd7a1874", "is_disabled": 0, "is_reserved": 0}, {"rental_uris": {"ios": "https://dc.lft.to/lastmile_qr_scan", "android": "https://dc.lft.to/lastmile_qr_scan"}, "lon": -77.0420795, "type": "electric_scooter", "fusion_lat": 0.0, "lat": 38.9210645, "name": "3bcc33249fbfacd93679bb72239b60f3", "fusion_lon": 0.0, "bike_id": "3bcc33249fbfacd93679bb72239b60f3", "is_disabled": 0, "is_reserved": 0}, {"rental_uris": {"ios": "https://dc.lft.to/lastmile_qr_scan", "android": "https://dc.lft.to/lastmile_qr_scan"}, "lon": -76.90445616666666, "type": "electric_bike", "fusion_lat": 0.0, "lat": 38.897673833333336, "name": "65513659e056801c8207f0dd71fa1def", "fusion_lon": 0.0, "bike_id": "65513659e056801c8207f0dd71fa1def", "is_disabled": 0, "is_reserved": 0}, {"rental_uris": {"ios": "https://dc.lft.to/lastmile_qr_scan", "android": "https://dc.lft.to/lastmile_qr_scan"}, "lon": -76.99496966666666, "type": "electric_scooter", "fusion_lat": 0.0, "lat": 38.92699183333333, "name": "e07d718ef89a205194f8672d5cb3d577", "fusion_lon": 0.0, "bike_id": "e07d718ef89a205194f8672d5cb3d577", "is_disabled": 0, "is_reserved": 0}, {"rental_uris": {"ios": "https://dc.lft.to/lastmile_qr_scan", "android": "https://dc.lft.to/lastmile_qr_scan"}, "lon": -76.99058533333333, "type": "electric_scooter", "fusion_lat": 0.0, "lat": 38.863523, "name": "ffc7ba44814d0c6d826dede0998abf32", "fusion_lon": 0.0, "bike_id": "ffc7ba44814d0c6d826dede0998abf32", "is_disabled": 0, "is_reserved": 0}, {"rental_uris": {"ios": "https://dc.lft.to/lastmile_qr_scan", "android": "https://dc.lft.to/lastmile_qr_scan"}, "lon": -77.026075, "type": "electric_scooter", "fusion_lat": 0.0, "lat": 38.919954833333335, "name": "bbafd822029c1212085b5c46bdb8e665", "fusion_lon": 0.0, "bike_id": "bbafd822029c1212085b5c46bdb8e665", "is_disabled": 0, "is_reserved": 0}, {"rental_uris": {"ios": "https://dc.lft.to/lastmile_qr_scan", "android": "https://dc.lft.to/lastmile_qr_scan"}, "lon": -76.99078, "type": "electric_scooter", "fusion_lat": 0.0, "lat": 38.893545833333334, "name": "7f4467904b21d32f3b3b17fc09462a97", "fusion_lon": 0.0, "bike_id": "7f4467904b21d32f3b3b17fc09462a97", "is_disabled": 0, "is_reserved": 0}, {"rental_uris": {"ios": "https://dc.lft.to/lastmile_qr_scan", "android": "https://dc.lft.to/lastmile_qr_scan"}, "lon": -76.99970716666667, "type": "electric_scooter", "fusion_lat": 0.0, "lat": 38.909301166666665, "name": "562a558100d6a91b6609837b94350bd6", "fusion_lon": 0.0, "bike_id": "562a558100d6a91b6609837b94350bd6", "is_disabled": 0, "is_reserved": 0}, {"rental_uris": {"ios": "https://dc.lft.to/lastmile_qr_scan", "android": "https://dc.lft.to/lastmile_qr_scan"}, "lon": -77.03621866666667, "type": "electric_scooter", "fusion_lat": 0.0, "lat": 38.9232225, "name": "080f96a74df64d2cc55ca0a887e93fae", "fusion_lon": 0.0, "bike_id": "080f96a74df64d2cc55ca0a887e93fae", "is_disabled": 0, "is_reserved": 0}, {"rental_uris": {"ios": "https://dc.lft.to/lastmile_qr_scan", "android": "https://dc.lft.to/lastmile_qr_scan"}, "lon": -77.03864683333333, "type": "electric_scooter", "fusion_lat": 0.0, "lat": 38.9202395, "name": "e51aeaa4898b7ab0f291d9d4abd6c5ec", "fusion_lon": 0.0, "bike_id": "e51aeaa4898b7ab0f291d9d4abd6c5ec", "is_disabled": 0, "is_reserved": 0}, {"rental_uris": {"ios": "https://dc.lft.to/lastmile_qr_scan", "android": "https://dc.lft.to/lastmile_qr_scan"}, "lon": -76.97876466666666, "type": "electric_scooter", "fusion_lat": 0.0, "lat": 38.885074333333336, "name": "8c9726fecc10abb19224dbb657ba2cad", "fusion_lon": 0.0, "bike_id": "8c9726fecc10abb19224dbb657ba2cad", "is_disabled": 0, "is_reserved": 0}, {"rental_uris": {"ios": "https://dc.lft.to/lastmile_qr_scan", "android": "https://dc.lft.to/lastmile_qr_scan"}, "lon": -76.98696283333334, "type": "electric_scooter", "fusion_lat": 0.0, "lat": 38.90701966666666, "name": "566d365e418435a5c9241280fae2aba7", "fusion_lon": 0.0, "bike_id": "566d365e418435a5c9241280fae2aba7", "is_disabled": 0, "is_reserved": 0}, {"rental_uris": {"ios": "https://dc.lft.to/lastmile_qr_scan", "android": "https://dc.lft.to/lastmile_qr_scan"}, "lon": -77.02618966666667, "type": "electric_scooter", "fusion_lat": 0.0, "lat": 38.905593, "name": "7fb1876fd028054e6b780adc3ade6100", "fusion_lon": 0.0, "bike_id": "7fb1876fd028054e6b780adc3ade6100", "is_disabled": 0, "is_reserved": 0}, {"rental_uris": {"ios": "https://dc.lft.to/lastmile_qr_scan", "android": "https://dc.lft.to/lastmile_qr_scan"}, "lon": -77.0148405, "type": "electric_scooter", "fusion_lat": 0.0, "lat": 38.88123616666667, "name": "b662c9083f0fead04f58f6be76aeb12c", "fusion_lon": 0.0, "bike_id": "b662c9083f0fead04f58f6be76aeb12c", "is_disabled": 0, "is_reserved": 0}, {"rental_uris": {"ios": "https://dc.lft.to/lastmile_qr_scan", "android": "https://dc.lft.to/lastmile_qr_scan"}, "lon": -77.0108475, "type": "electric_scooter", "fusion_lat": 0.0, "lat": 38.8948345, "name": "199796e31fd9ef17a00e300ac868911a", "fusion_lon": 0.0, "bike_id": "199796e31fd9ef17a00e300ac868911a", "is_disabled": 0, "is_reserved": 0}, {"rental_uris": {"ios": "https://dc.lft.to/lastmile_qr_scan", "android": "https://dc.lft.to/lastmile_qr_scan"}, "lon": -77.0405615, "type": "electric_scooter", "fusion_lat": 0.0, "lat": 38.90287266666667, "name": "bb589e7f06b05e50be62d9a6de70456c", "fusion_lon": 0.0, "bike_id": "bb589e7f06b05e50be62d9a6de70456c", "is_disabled": 0, "is_reserved": 0}, {"rental_uris": {"ios": "https://dc.lft.to/lastmile_qr_scan", "android": "https://dc.lft.to/lastmile_qr_scan"}, "lon": -77.03515533333334, "type": "electric_bike", "fusion_lat": 0.0, "lat": 38.96520683333333, "name": "1765a2df38617fe7c92f23ce48e9dc95", "fusion_lon": 0.0, "bike_id": "1765a2df38617fe7c92f23ce48e9dc95", "is_disabled": 0, "is_reserved": 0}, {"rental_uris": {"ios": "https://dc.lft.to/lastmile_qr_scan", "android": "https://dc.lft.to/lastmile_qr_scan"}, "lon": -77.03630083333333, "type": "electric_scooter", "fusion_lat": 0.0, "lat": 38.918153833333335, "name": "941033f18ca489887e6c231cf27ebfd2", "fusion_lon": 0.0, "bike_id": "941033f18ca489887e6c231cf27ebfd2", "is_disabled": 0, "is_reserved": 0}, {"rental_uris": {"ios": "https://dc.lft.to/lastmile_qr_scan", "android": "https://dc.lft.to/lastmile_qr_scan"}, "lon": -77.002476, "type": "electric_scooter", "fusion_lat": 0.0, "lat": 38.9055815, "name": "76213fa8cfd6fbca791184443fc9ae4f", "fusion_lon": 0.0, "bike_id": "76213fa8cfd6fbca791184443fc9ae4f", "is_disabled": 0, "is_reserved": 0}, {"rental_uris": {"ios": "https://dc.lft.to/lastmile_qr_scan", "android": "https://dc.lft.to/lastmile_qr_scan"}, "lon": -77.11426816666666, "type": "electric_bike", "fusion_lat": 0.0, "lat": 38.852457, "name": "214686a3dcda4055556408de90090858", "fusion_lon": 0.0, "bike_id": "214686a3dcda4055556408de90090858", "is_disabled": 0, "is_reserved": 0}, {"rental_uris": {"ios": "https://dc.lft.to/lastmile_qr_scan", "android": "https://dc.lft.to/lastmile_qr_scan"}, "lon": -76.98411933333334, "type": "electric_scooter", "fusion_lat": 0.0, "lat": 38.913864333333336, "name": "a85360469bfdc1872e9936156c6bd4bb", "fusion_lon": 0.0, "bike_id": "a85360469bfdc1872e9936156c6bd4bb", "is_disabled": 0, "is_reserved": 0}, {"rental_uris": {"ios": "https://dc.lft.to/lastmile_qr_scan", "android": "https://dc.lft.to/lastmile_qr_scan"}, "lon": -77.0317365, "type": "electric_scooter", "fusion_lat": 0.0, "lat": 38.89946333333333, "name": "00559788d53192f8043d3ab09c454bc6", "fusion_lon": 0.0, "bike_id": "00559788d53192f8043d3ab09c454bc6", "is_disabled": 0, "is_reserved": 0}, {"rental_uris": {"ios": "https://dc.lft.to/lastmile_qr_scan", "android": "https://dc.lft.to/lastmile_qr_scan"}, "lon": -77.02689116666667, "type": "electric_scooter", "fusion_lat": 0.0, "lat": 38.908476666666665, "name": "2c46306cba7c2853f743875117381987", "fusion_lon": 0.0, "bike_id": "2c46306cba7c2853f743875117381987", "is_disabled": 0, "is_reserved": 0}, {"rental_uris": {"ios": "https://dc.lft.to/lastmile_qr_scan", "android": "https://dc.lft.to/lastmile_qr_scan"}, "lon": -77.05023633333333, "type": "electric_scooter", "fusion_lat": 0.0, "lat": 38.896539833333335, "name": "de8b0ba4c9901e88f6191bcbebfca711", "fusion_lon": 0.0, "bike_id": "de8b0ba4c9901e88f6191bcbebfca711", "is_disabled": 0, "is_reserved": 0}, {"rental_uris": {"ios": "https://dc.lft.to/lastmile_qr_scan", "android": "https://dc.lft.to/lastmile_qr_scan"}, "lon": -77.00329183333334, "type": "electric_scooter", "fusion_lat": 0.0, "lat": 38.9090255, "name": "41a0445341184203f134e3ede76467d9", "fusion_lon": 0.0, "bike_id": "41a0445341184203f134e3ede76467d9", "is_disabled": 0, "is_reserved": 0}, {"rental_uris": {"ios": "https://dc.lft.to/lastmile_qr_scan", "android": "https://dc.lft.to/lastmile_qr_scan"}, "lon": -76.96769916666666, "type": "electric_scooter", "fusion_lat": 0.0, "lat": 38.86138016666666, "name": "a6feff558ef35f8c772ee9b9f10c06bc", "fusion_lon": 0.0, "bike_id": "a6feff558ef35f8c772ee9b9f10c06bc", "is_disabled": 0, "is_reserved": 0}, {"rental_uris": {"ios": "https://dc.lft.to/lastmile_qr_scan", "android": "https://dc.lft.to/lastmile_qr_scan"}, "lon": -77.034732, "type": "electric_scooter", "fusion_lat": 0.0, "lat": 38.9027675, "name": "bc404c37cf284f37b32df52870a9189a", "fusion_lon": 0.0, "bike_id": "bc404c37cf284f37b32df52870a9189a", "is_disabled": 0, "is_reserved": 0}, {"rental_uris": {"ios": "https://dc.lft.to/lastmile_qr_scan", "android": "https://dc.lft.to/lastmile_qr_scan"}, "lon": -76.99380816666667, "type": "electric_scooter", "fusion_lat": 0.0, "lat": 38.88717116666667, "name": "01caf3d9a2419e8878b6115aa360d4f7", "fusion_lon": 0.0, "bike_id": "01caf3d9a2419e8878b6115aa360d4f7", "is_disabled": 0, "is_reserved": 0}, {"rental_uris": {"ios": "https://dc.lft.to/lastmile_qr_scan", "android": "https://dc.lft.to/lastmile_qr_scan"}, "lon": -77.03319166666667, "type": "electric_scooter", "fusion_lat": 0.0, "lat": 38.92154, "name": "17e343cd251100b44034a8ca53adfc49", "fusion_lon": 0.0, "bike_id": "17e343cd251100b44034a8ca53adfc49", "is_disabled": 0, "is_reserved": 0}, {"rental_uris": {"ios": "https://dc.lft.to/lastmile_qr_scan", "android": "https://dc.lft.to/lastmile_qr_scan"}, "lon": -77.07486016666667, "type": "electric_scooter", "fusion_lat": 0.0, "lat": 38.91490016666667, "name": "82145890129583b7aae12a859f09ccc3", "fusion_lon": 0.0, "bike_id": "82145890129583b7aae12a859f09ccc3", "is_disabled": 0, "is_reserved": 0}, {"rental_uris": {"ios": "https://dc.lft.to/lastmile_qr_scan", "android": "https://dc.lft.to/lastmile_qr_scan"}, "lon": -77.05032216666666, "type": "electric_scooter", "fusion_lat": 0.0, "lat": 38.89651283333333, "name": "7500f42a40411e5f4fc5311b9e5f64f6", "fusion_lon": 0.0, "bike_id": "7500f42a40411e5f4fc5311b9e5f64f6", "is_disabled": 0, "is_reserved": 0}, {"rental_uris": {"ios": "https://dc.lft.to/lastmile_qr_scan", "android": "https://dc.lft.to/lastmile_qr_scan"}, "lon": -77.04592066666666, "type": "electric_scooter", "fusion_lat": 0.0, "lat": 38.902133166666665, "name": "1c95aa727adefcf60ec851a6b67cec15", "fusion_lon": 0.0, "bike_id": "1c95aa727adefcf60ec851a6b67cec15", "is_disabled": 0, "is_reserved": 0}, {"rental_uris": {"ios": "https://dc.lft.to/lastmile_qr_scan", "android": "https://dc.lft.to/lastmile_qr_scan"}, "lon": -77.05261766666666, "type": "electric_scooter", "fusion_lat": 0.0, "lat": 38.910090333333336, "name": "2382c4005deacd833b3e25e059285bfb", "fusion_lon": 0.0, "bike_id": "2382c4005deacd833b3e25e059285bfb", "is_disabled": 0, "is_reserved": 0}, {"rental_uris": {"ios": "https://dc.lft.to/lastmile_qr_scan", "android": "https://dc.lft.to/lastmile_qr_scan"}, "lon": -77.03799666666667, "type": "electric_scooter", "fusion_lat": 0.0, "lat": 38.921893833333336, "name": "8d2d1138e90ab5cad792a919e5701829", "fusion_lon": 0.0, "bike_id": "8d2d1138e90ab5cad792a919e5701829", "is_disabled": 0, "is_reserved": 0}, {"rental_uris": {"ios": "https://dc.lft.to/lastmile_qr_scan", "android": "https://dc.lft.to/lastmile_qr_scan"}, "lon": -77.039399, "type": "electric_scooter", "fusion_lat": 0.0, "lat": 38.90272083333333, "name": "066d50c166522c8add2aad21df9a636f", "fusion_lon": 0.0, "bike_id": "066d50c166522c8add2aad21df9a636f", "is_disabled": 0, "is_reserved": 0}, {"rental_uris": {"ios": "https://dc.lft.to/lastmile_qr_scan", "android": "https://dc.lft.to/lastmile_qr_scan"}, "lon": -77.03669316666667, "type": "electric_scooter", "fusion_lat": 0.0, "lat": 38.929973333333336, "name": "6d7eeda992a444ebb641ea9d69dd94fc", "fusion_lon": 0.0, "bike_id": "6d7eeda992a444ebb641ea9d69dd94fc", "is_disabled": 0, "is_reserved": 0}, {"rental_uris": {"ios": "https://dc.lft.to/lastmile_qr_scan", "android": "https://dc.lft.to/lastmile_qr_scan"}, "lon": -77.02449233333333, "type": "electric_scooter", "fusion_lat": 0.0, "lat": 38.97933866666666, "name": "67eafec1ef773a147f28854a77831706", "fusion_lon": 0.0, "bike_id": "67eafec1ef773a147f28854a77831706", "is_disabled": 0, "is_reserved": 0}, {"rental_uris": {"ios": "https://dc.lft.to/lastmile_qr_scan", "android": "https://dc.lft.to/lastmile_qr_scan"}, "lon": -77.0412775, "type": "electric_scooter", "fusion_lat": 0.0, "lat": 38.923483, "name": "59c10e6745dbb6ab280d9b4b07bf8c04", "fusion_lon": 0.0, "bike_id": "59c10e6745dbb6ab280d9b4b07bf8c04", "is_disabled": 0, "is_reserved": 0}, {"rental_uris": {"ios": "https://dc.lft.to/lastmile_qr_scan", "android": "https://dc.lft.to/lastmile_qr_scan"}, "lon": -77.03092583333333, "type": "electric_scooter", "fusion_lat": 0.0, "lat": 38.904618666666664, "name": "e85762392c7e7da346504195f2df8f2f", "fusion_lon": 0.0, "bike_id": "e85762392c7e7da346504195f2df8f2f", "is_disabled": 0, "is_reserved": 0}, {"rental_uris": {"ios": "https://dc.lft.to/lastmile_qr_scan", "android": "https://dc.lft.to/lastmile_qr_scan"}, "lon": -77.025761, "type": "electric_scooter", "fusion_lat": 0.0, "lat": 38.918154666666666, "name": "47373369eb47a2d7c37e4decfd1b66e2", "fusion_lon": 0.0, "bike_id": "47373369eb47a2d7c37e4decfd1b66e2", "is_disabled": 0, "is_reserved": 0}, {"rental_uris": {"ios": "https://dc.lft.to/lastmile_qr_scan", "android": "https://dc.lft.to/lastmile_qr_scan"}, "lon": -77.04786633333333, "type": "electric_scooter", "fusion_lat": 0.0, "lat": 38.9073165, "name": "2584071503727a3a30954346a5eb1424", "fusion_lon": 0.0, "bike_id": "2584071503727a3a30954346a5eb1424", "is_disabled": 0, "is_reserved": 0}, {"rental_uris": {"ios": "https://dc.lft.to/lastmile_qr_scan", "android": "https://dc.lft.to/lastmile_qr_scan"}, "lon": -76.9732735, "type": "electric_bike", "fusion_lat": 0.0, "lat": 38.85064783333333, "name": "aeee1cda9ae90348c67ed18e46f39db9", "fusion_lon": 0.0, "bike_id": "aeee1cda9ae90348c67ed18e46f39db9", "is_disabled": 0, "is_reserved": 0}, {"rental_uris": {"ios": "https://dc.lft.to/lastmile_qr_scan", "android": "https://dc.lft.to/lastmile_qr_scan"}, "lon": -77.02332866666667, "type": "electric_scooter", "fusion_lat": 0.0, "lat": 38.93047166666667, "name": "69b124130147172509dc95a080bc48c9", "fusion_lon": 0.0, "bike_id": "69b124130147172509dc95a080bc48c9", "is_disabled": 0, "is_reserved": 0}, {"rental_uris": {"ios": "https://dc.lft.to/lastmile_qr_scan", "android": "https://dc.lft.to/lastmile_qr_scan"}, "lon": -77.02419033333334, "type": "electric_scooter", "fusion_lat": 0.0, "lat": 38.918207, "name": "46dc660f92df83578e0416aa3d306a2e", "fusion_lon": 0.0, "bike_id": "46dc660f92df83578e0416aa3d306a2e", "is_disabled": 0, "is_reserved": 0}, {"rental_uris": {"ios": "https://dc.lft.to/lastmile_qr_scan", "android": "https://dc.lft.to/lastmile_qr_scan"}, "lon": -77.09666816666666, "type": "electric_scooter", "fusion_lat": 0.0, "lat": 38.917622, "name": "b239da7b5ca1410536c1e7bc79246f7b", "fusion_lon": 0.0, "bike_id": "b239da7b5ca1410536c1e7bc79246f7b", "is_disabled": 0, "is_reserved": 0}, {"rental_uris": {"ios": "https://dc.lft.to/lastmile_qr_scan", "android": "https://dc.lft.to/lastmile_qr_scan"}, "lon": -77.032241, "type": "electric_scooter", "fusion_lat": 0.0, "lat": 38.9086475, "name": "49bfc0ec6311c02d62b155c68c5d3a33", "fusion_lon": 0.0, "bike_id": "49bfc0ec6311c02d62b155c68c5d3a33", "is_disabled": 0, "is_reserved": 0}, {"rental_uris": {"ios": "https://dc.lft.to/lastmile_qr_scan", "android": "https://dc.lft.to/lastmile_qr_scan"}, "lon": -77.044155, "type": "electric_scooter", "fusion_lat": 0.0, "lat": 38.919046333333334, "name": "d29dd1450f0f7e1649d9f3c2ef0fd077", "fusion_lon": 0.0, "bike_id": "d29dd1450f0f7e1649d9f3c2ef0fd077", "is_disabled": 0, "is_reserved": 0}, {"rental_uris": {"ios": "https://dc.lft.to/lastmile_qr_scan", "android": "https://dc.lft.to/lastmile_qr_scan"}, "lon": -76.988852, "type": "electric_scooter", "fusion_lat": 0.0, "lat": 38.866560666666665, "name": "7573424fd53720b914a886eed30be7e0", "fusion_lon": 0.0, "bike_id": "7573424fd53720b914a886eed30be7e0", "is_disabled": 0, "is_reserved": 0}, {"rental_uris": {"ios": "https://dc.lft.to/lastmile_qr_scan", "android": "https://dc.lft.to/lastmile_qr_scan"}, "lon": -76.93748866666667, "type": "electric_scooter", "fusion_lat": 0.0, "lat": 38.912878166666665, "name": "07653d5e6ec3a6b0903d4d3a02e79b20", "fusion_lon": 0.0, "bike_id": "07653d5e6ec3a6b0903d4d3a02e79b20", "is_disabled": 0, "is_reserved": 0}, {"rental_uris": {"ios": "https://dc.lft.to/lastmile_qr_scan", "android": "https://dc.lft.to/lastmile_qr_scan"}, "lon": -76.97703033333333, "type": "electric_scooter", "fusion_lat": 0.0, "lat": 38.902520333333335, "name": "5e953ad761a57466d6c9748c052a5693", "fusion_lon": 0.0, "bike_id": "5e953ad761a57466d6c9748c052a5693", "is_disabled": 0, "is_reserved": 0}, {"rental_uris": {"ios": "https://dc.lft.to/lastmile_qr_scan", "android": "https://dc.lft.to/lastmile_qr_scan"}, "lon": -77.03280933333333, "type": "electric_scooter", "fusion_lat": 0.0, "lat": 38.93494466666667, "name": "89b7cad104e8aed0fe52c540536e794f", "fusion_lon": 0.0, "bike_id": "89b7cad104e8aed0fe52c540536e794f", "is_disabled": 0, "is_reserved": 0}, {"rental_uris": {"ios": "https://dc.lft.to/lastmile_qr_scan", "android": "https://dc.lft.to/lastmile_qr_scan"}, "lon": -76.98594783333333, "type": "electric_bike", "fusion_lat": 0.0, "lat": 38.90619866666667, "name": "3f79c7339e14fc379a5b33b4eccad0f2", "fusion_lon": 0.0, "bike_id": "3f79c7339e14fc379a5b33b4eccad0f2", "is_disabled": 0, "is_reserved": 0}, {"rental_uris": {"ios": "https://dc.lft.to/lastmile_qr_scan", "android": "https://dc.lft.to/lastmile_qr_scan"}, "lon": -77.04254716666667, "type": "electric_scooter", "fusion_lat": 0.0, "lat": 38.9204935, "name": "b1c039338ec8f5a7b89364913598478f", "fusion_lon": 0.0, "bike_id": "b1c039338ec8f5a7b89364913598478f", "is_disabled": 0, "is_reserved": 0}, {"rental_uris": {"ios": "https://dc.lft.to/lastmile_qr_scan", "android": "https://dc.lft.to/lastmile_qr_scan"}, "lon": -76.98566083333333, "type": "electric_scooter", "fusion_lat": 0.0, "lat": 38.89956383333333, "name": "d99472a6da8890d6bbf4d89cd8c245b7", "fusion_lon": 0.0, "bike_id": "d99472a6da8890d6bbf4d89cd8c245b7", "is_disabled": 0, "is_reserved": 0}, {"rental_uris": {"ios": "https://dc.lft.to/lastmile_qr_scan", "android": "https://dc.lft.to/lastmile_qr_scan"}, "lon": -77.01699583333334, "type": "electric_scooter", "fusion_lat": 0.0, "lat": 38.920184666666664, "name": "3c83d07ad7970da6f84128e25863253e", "fusion_lon": 0.0, "bike_id": "3c83d07ad7970da6f84128e25863253e", "is_disabled": 0, "is_reserved": 0}, {"rental_uris": {"ios": "https://dc.lft.to/lastmile_qr_scan", "android": "https://dc.lft.to/lastmile_qr_scan"}, "lon": -77.0285475, "type": "electric_scooter", "fusion_lat": 0.0, "lat": 38.92813366666667, "name": "82710f4e975260bf3c39d332cc904b76", "fusion_lon": 0.0, "bike_id": "82710f4e975260bf3c39d332cc904b76", "is_disabled": 0, "is_reserved": 0}, {"rental_uris": {"ios": "https://dc.lft.to/lastmile_qr_scan", "android": "https://dc.lft.to/lastmile_qr_scan"}, "lon": -77.02357083333334, "type": "electric_scooter", "fusion_lat": 0.0, "lat": 38.92506066666667, "name": "2a86129f7f1f4e3e198fb23ddcf30afb", "fusion_lon": 0.0, "bike_id": "2a86129f7f1f4e3e198fb23ddcf30afb", "is_disabled": 0, "is_reserved": 0}, {"rental_uris": {"ios": "https://dc.lft.to/lastmile_qr_scan", "android": "https://dc.lft.to/lastmile_qr_scan"}, "lon": -77.02259383333333, "type": "electric_scooter", "fusion_lat": 0.0, "lat": 38.924578333333336, "name": "b10b1359d247ed144b38040c1eac41cc", "fusion_lon": 0.0, "bike_id": "b10b1359d247ed144b38040c1eac41cc", "is_disabled": 0, "is_reserved": 0}, {"rental_uris": {"ios": "https://dc.lft.to/lastmile_qr_scan", "android": "https://dc.lft.to/lastmile_qr_scan"}, "lon": -77.0422005, "type": "electric_scooter", "fusion_lat": 0.0, "lat": 38.905970833333335, "name": "a35dbcc29f184d1f15a1769d51ff7e4a", "fusion_lon": 0.0, "bike_id": "a35dbcc29f184d1f15a1769d51ff7e4a", "is_disabled": 0, "is_reserved": 0}, {"rental_uris": {"ios": "https://dc.lft.to/lastmile_qr_scan", "android": "https://dc.lft.to/lastmile_qr_scan"}, "lon": -77.03414783333334, "type": "electric_scooter", "fusion_lat": 0.0, "lat": 38.93540483333334, "name": "4e0dc9d9ec55aef8cb5157a33a56869a", "fusion_lon": 0.0, "bike_id": "4e0dc9d9ec55aef8cb5157a33a56869a", "is_disabled": 0, "is_reserved": 0}, {"rental_uris": {"ios": "https://dc.lft.to/lastmile_qr_scan", "android": "https://dc.lft.to/lastmile_qr_scan"}, "lon": -77.01313833333333, "type": "electric_scooter", "fusion_lat": 0.0, "lat": 38.900492, "name": "546aa1dc303dccb204b9b9f2cc6193a4", "fusion_lon": 0.0, "bike_id": "546aa1dc303dccb204b9b9f2cc6193a4", "is_disabled": 0, "is_reserved": 0}, {"rental_uris": {"ios": "https://dc.lft.to/lastmile_qr_scan", "android": "https://dc.lft.to/lastmile_qr_scan"}, "lon": -77.0334775, "type": "electric_scooter", "fusion_lat": 0.0, "lat": 38.93424, "name": "0d93b072bbec31024709bcfd291e3156", "fusion_lon": 0.0, "bike_id": "0d93b072bbec31024709bcfd291e3156", "is_disabled": 0, "is_reserved": 0}, {"rental_uris": {"ios": "https://dc.lft.to/lastmile_qr_scan", "android": "https://dc.lft.to/lastmile_qr_scan"}, "lon": -77.03233, "type": "electric_scooter", "fusion_lat": 0.0, "lat": 38.9075015, "name": "d84bc482c44d45ffc24c233745a807de", "fusion_lon": 0.0, "bike_id": "d84bc482c44d45ffc24c233745a807de", "is_disabled": 0, "is_reserved": 0}, {"rental_uris": {"ios": "https://dc.lft.to/lastmile_qr_scan", "android": "https://dc.lft.to/lastmile_qr_scan"}, "lon": -77.02835833333333, "type": "electric_scooter", "fusion_lat": 0.0, "lat": 38.88755, "name": "8edfedf73bb1fba8522cb71d629ee454", "fusion_lon": 0.0, "bike_id": "8edfedf73bb1fba8522cb71d629ee454", "is_disabled": 0, "is_reserved": 0}, {"rental_uris": {"ios": "https://dc.lft.to/lastmile_qr_scan", "android": "https://dc.lft.to/lastmile_qr_scan"}, "lon": -77.0384365, "type": "electric_scooter", "fusion_lat": 0.0, "lat": 38.9265315, "name": "30f539d451f611464f15ab04065c0f81", "fusion_lon": 0.0, "bike_id": "30f539d451f611464f15ab04065c0f81", "is_disabled": 0, "is_reserved": 0}, {"rental_uris": {"ios": "https://dc.lft.to/lastmile_qr_scan", "android": "https://dc.lft.to/lastmile_qr_scan"}, "lon": -77.0467405, "type": "electric_scooter", "fusion_lat": 0.0, "lat": 38.903689666666665, "name": "9cd6be0429f67429506d752106c76cae", "fusion_lon": 0.0, "bike_id": "9cd6be0429f67429506d752106c76cae", "is_disabled": 0, "is_reserved": 0}, {"rental_uris": {"ios": "https://dc.lft.to/lastmile_qr_scan", "android": "https://dc.lft.to/lastmile_qr_scan"}, "lon": -77.04486633333333, "type": "electric_scooter", "fusion_lat": 0.0, "lat": 38.9187255, "name": "1652bbe22542b5f815c088688b01cd32", "fusion_lon": 0.0, "bike_id": "1652bbe22542b5f815c088688b01cd32", "is_disabled": 0, "is_reserved": 0}, {"rental_uris": {"ios": "https://dc.lft.to/lastmile_qr_scan", "android": "https://dc.lft.to/lastmile_qr_scan"}, "lon": -76.99884066666667, "type": "electric_scooter", "fusion_lat": 0.0, "lat": 38.907411333333336, "name": "3fd6676e8da36ca528d92c6da8735f7d", "fusion_lon": 0.0, "bike_id": "3fd6676e8da36ca528d92c6da8735f7d", "is_disabled": 0, "is_reserved": 0}, {"rental_uris": {"ios": "https://dc.lft.to/lastmile_qr_scan", "android": "https://dc.lft.to/lastmile_qr_scan"}, "lon": -77.01503933333333, "type": "electric_scooter", "fusion_lat": 0.0, "lat": 38.901401666666665, "name": "a6fbf4fd80c31fba34f471c3e1c6cdc7", "fusion_lon": 0.0, "bike_id": "a6fbf4fd80c31fba34f471c3e1c6cdc7", "is_disabled": 0, "is_reserved": 0}, {"rental_uris": {"ios": "https://dc.lft.to/lastmile_qr_scan", "android": "https://dc.lft.to/lastmile_qr_scan"}, "lon": -77.026293, "type": "electric_scooter", "fusion_lat": 0.0, "lat": 38.895885, "name": "b9f663e763e04222db837e2952602565", "fusion_lon": 0.0, "bike_id": "b9f663e763e04222db837e2952602565", "is_disabled": 0, "is_reserved": 0}, {"rental_uris": {"ios": "https://dc.lft.to/lastmile_qr_scan", "android": "https://dc.lft.to/lastmile_qr_scan"}, "lon": -76.9722415, "type": "electric_scooter", "fusion_lat": 0.0, "lat": 38.854909666666664, "name": "96e322c209341bd30511a9208dbcc572", "fusion_lon": 0.0, "bike_id": "96e322c209341bd30511a9208dbcc572", "is_disabled": 0, "is_reserved": 0}, {"rental_uris": {"ios": "https://dc.lft.to/lastmile_qr_scan", "android": "https://dc.lft.to/lastmile_qr_scan"}, "lon": -76.94628583333333, "type": "electric_bike", "fusion_lat": 0.0, "lat": 38.946249333333334, "name": "a8045c55f46ada2e13e3b2ec1a9a1f3c", "fusion_lon": 0.0, "bike_id": "a8045c55f46ada2e13e3b2ec1a9a1f3c", "is_disabled": 0, "is_reserved": 0}, {"rental_uris": {"ios": "https://dc.lft.to/lastmile_qr_scan", "android": "https://dc.lft.to/lastmile_qr_scan"}, "lon": -77.03826366666667, "type": "electric_scooter", "fusion_lat": 0.0, "lat": 38.904718, "name": "6de6519b686a29149250b2a9d346fc1f", "fusion_lon": 0.0, "bike_id": "6de6519b686a29149250b2a9d346fc1f", "is_disabled": 0, "is_reserved": 0}, {"rental_uris": {"ios": "https://dc.lft.to/lastmile_qr_scan", "android": "https://dc.lft.to/lastmile_qr_scan"}, "lon": -77.04329333333334, "type": "electric_scooter", "fusion_lat": 0.0, "lat": 38.8958765, "name": "a4aca1829ee3c5edf0f45cc052053425", "fusion_lon": 0.0, "bike_id": "a4aca1829ee3c5edf0f45cc052053425", "is_disabled": 0, "is_reserved": 0}, {"rental_uris": {"ios": "https://dc.lft.to/lastmile_qr_scan", "android": "https://dc.lft.to/lastmile_qr_scan"}, "lon": -77.024643, "type": "electric_scooter", "fusion_lat": 0.0, "lat": 38.936252, "name": "bf040261860c7f9caf78b26708971954", "fusion_lon": 0.0, "bike_id": "bf040261860c7f9caf78b26708971954", "is_disabled": 0, "is_reserved": 0}, {"rental_uris": {"ios": "https://dc.lft.to/lastmile_qr_scan", "android": "https://dc.lft.to/lastmile_qr_scan"}, "lon": -77.0385585, "type": "electric_scooter", "fusion_lat": 0.0, "lat": 38.90935316666667, "name": "3cdad9337389e8c060c25de303bb48d1", "fusion_lon": 0.0, "bike_id": "3cdad9337389e8c060c25de303bb48d1", "is_disabled": 0, "is_reserved": 0}, {"rental_uris": {"ios": "https://dc.lft.to/lastmile_qr_scan", "android": "https://dc.lft.to/lastmile_qr_scan"}, "lon": -76.9589975, "type": "electric_scooter", "fusion_lat": 0.0, "lat": 38.926892, "name": "99d25caa845183ed484b23de09f50bb0", "fusion_lon": 0.0, "bike_id": "99d25caa845183ed484b23de09f50bb0", "is_disabled": 0, "is_reserved": 0}, {"rental_uris": {"ios": "https://dc.lft.to/lastmile_qr_scan", "android": "https://dc.lft.to/lastmile_qr_scan"}, "lon": -77.013724, "type": "electric_scooter", "fusion_lat": 0.0, "lat": 38.886542666666664, "name": "fc60798416c179ff4cdefc0d0a6fbcf1", "fusion_lon": 0.0, "bike_id": "fc60798416c179ff4cdefc0d0a6fbcf1", "is_disabled": 0, "is_reserved": 0}, {"rental_uris": {"ios": "https://dc.lft.to/lastmile_qr_scan", "android": "https://dc.lft.to/lastmile_qr_scan"}, "lon": -77.05264783333334, "type": "electric_scooter", "fusion_lat": 0.0, "lat": 38.93438183333333, "name": "2032e43a057967fb460aec1029a63cc7", "fusion_lon": 0.0, "bike_id": "2032e43a057967fb460aec1029a63cc7", "is_disabled": 0, "is_reserved": 0}, {"rental_uris": {"ios": "https://dc.lft.to/lastmile_qr_scan", "android": "https://dc.lft.to/lastmile_qr_scan"}, "lon": -77.04879983333333, "type": "electric_scooter", "fusion_lat": 0.0, "lat": 38.905881, "name": "72bf9d12a38dd80b6ec4330a479ab35b", "fusion_lon": 0.0, "bike_id": "72bf9d12a38dd80b6ec4330a479ab35b", "is_disabled": 0, "is_reserved": 0}, {"rental_uris": {"ios": "https://dc.lft.to/lastmile_qr_scan", "android": "https://dc.lft.to/lastmile_qr_scan"}, "lon": -77.037672, "type": "electric_scooter", "fusion_lat": 0.0, "lat": 38.930056666666665, "name": "df89a78c7203dbb14212e934b1600e8e", "fusion_lon": 0.0, "bike_id": "df89a78c7203dbb14212e934b1600e8e", "is_disabled": 0, "is_reserved": 0}, {"rental_uris": {"ios": "https://dc.lft.to/lastmile_qr_scan", "android": "https://dc.lft.to/lastmile_qr_scan"}, "lon": -76.98003033333333, "type": "electric_bike", "fusion_lat": 0.0, "lat": 38.900156333333335, "name": "f4794635abb2eb76d3e7d486a508a7cb", "fusion_lon": 0.0, "bike_id": "f4794635abb2eb76d3e7d486a508a7cb", "is_disabled": 0, "is_reserved": 0}, {"rental_uris": {"ios": "https://dc.lft.to/lastmile_qr_scan", "android": "https://dc.lft.to/lastmile_qr_scan"}, "lon": -77.042824, "type": "electric_scooter", "fusion_lat": 0.0, "lat": 38.8953415, "name": "956d0b27ed411dce2b6dc38febfb84cb", "fusion_lon": 0.0, "bike_id": "956d0b27ed411dce2b6dc38febfb84cb", "is_disabled": 0, "is_reserved": 0}, {"rental_uris": {"ios": "https://dc.lft.to/lastmile_qr_scan", "android": "https://dc.lft.to/lastmile_qr_scan"}, "lon": -76.93173716666666, "type": "electric_scooter", "fusion_lat": 0.0, "lat": 38.898836833333334, "name": "66460f19b27913d4c31dd8143aaa4862", "fusion_lon": 0.0, "bike_id": "66460f19b27913d4c31dd8143aaa4862", "is_disabled": 0, "is_reserved": 0}, {"rental_uris": {"ios": "https://dc.lft.to/lastmile_qr_scan", "android": "https://dc.lft.to/lastmile_qr_scan"}, "lon": -76.951853, "type": "electric_bike", "fusion_lat": 0.0, "lat": 38.9069035, "name": "10df658ca1588440590561ceb3b0b1e9", "fusion_lon": 0.0, "bike_id": "10df658ca1588440590561ceb3b0b1e9", "is_disabled": 0, "is_reserved": 0}, {"rental_uris": {"ios": "https://dc.lft.to/lastmile_qr_scan", "android": "https://dc.lft.to/lastmile_qr_scan"}, "lon": -77.03281083333333, "type": "electric_scooter", "fusion_lat": 0.0, "lat": 38.93876983333333, "name": "e12eb8a67fc53a8c1766d00480ef0d51", "fusion_lon": 0.0, "bike_id": "e12eb8a67fc53a8c1766d00480ef0d51", "is_disabled": 0, "is_reserved": 0}, {"rental_uris": {"ios": "https://dc.lft.to/lastmile_qr_scan", "android": "https://dc.lft.to/lastmile_qr_scan"}, "lon": -77.011054, "type": "electric_scooter", "fusion_lat": 0.0, "lat": 38.903535, "name": "3f2deb258f1d7f5ad6b583c0002d9759", "fusion_lon": 0.0, "bike_id": "3f2deb258f1d7f5ad6b583c0002d9759", "is_disabled": 0, "is_reserved": 0}, {"rental_uris": {"ios": "https://dc.lft.to/lastmile_qr_scan", "android": "https://dc.lft.to/lastmile_qr_scan"}, "lon": -77.036651, "type": "electric_scooter", "fusion_lat": 0.0, "lat": 38.91868383333333, "name": "ffa4beabda64bf817e9da10d3640d6de", "fusion_lon": 0.0, "bike_id": "ffa4beabda64bf817e9da10d3640d6de", "is_disabled": 0, "is_reserved": 0}, {"rental_uris": {"ios": "https://dc.lft.to/lastmile_qr_scan", "android": "https://dc.lft.to/lastmile_qr_scan"}, "lon": -77.0441455, "type": "electric_scooter", "fusion_lat": 0.0, "lat": 38.913123166666665, "name": "e9552e7d285ddb3322541a3d83d6b704", "fusion_lon": 0.0, "bike_id": "e9552e7d285ddb3322541a3d83d6b704", "is_disabled": 0, "is_reserved": 0}, {"rental_uris": {"ios": "https://dc.lft.to/lastmile_qr_scan", "android": "https://dc.lft.to/lastmile_qr_scan"}, "lon": -77.02966416666666, "type": "electric_scooter", "fusion_lat": 0.0, "lat": 38.92315883333333, "name": "ef79fc3628faec3a2346e6262811a46f", "fusion_lon": 0.0, "bike_id": "ef79fc3628faec3a2346e6262811a46f", "is_disabled": 0, "is_reserved": 0}, {"rental_uris": {"ios": "https://dc.lft.to/lastmile_qr_scan", "android": "https://dc.lft.to/lastmile_qr_scan"}, "lon": -77.013177, "type": "electric_scooter", "fusion_lat": 0.0, "lat": 38.89742416666667, "name": "5add146a05560cbd251549133f7c65ba", "fusion_lon": 0.0, "bike_id": "5add146a05560cbd251549133f7c65ba", "is_disabled": 0, "is_reserved": 0}, {"rental_uris": {"ios": "https://dc.lft.to/lastmile_qr_scan", "android": "https://dc.lft.to/lastmile_qr_scan"}, "lon": -76.98008116666666, "type": "electric_bike", "fusion_lat": 0.0, "lat": 38.86282816666667, "name": "8a487b065f121f876e0a6e196dc4efce", "fusion_lon": 0.0, "bike_id": "8a487b065f121f876e0a6e196dc4efce", "is_disabled": 0, "is_reserved": 0}, {"rental_uris": {"ios": "https://dc.lft.to/lastmile_qr_scan", "android": "https://dc.lft.to/lastmile_qr_scan"}, "lon": -77.033017, "type": "electric_scooter", "fusion_lat": 0.0, "lat": 38.928658666666664, "name": "fdc3ba2a08ec95b1db8ec504258fd277", "fusion_lon": 0.0, "bike_id": "fdc3ba2a08ec95b1db8ec504258fd277", "is_disabled": 0, "is_reserved": 0}, {"rental_uris": {"ios": "https://dc.lft.to/lastmile_qr_scan", "android": "https://dc.lft.to/lastmile_qr_scan"}, "lon": -77.072505, "type": "electric_scooter", "fusion_lat": 0.0, "lat": 38.93400916666667, "name": "b010755c1a636d1803bb56807bfdddd7", "fusion_lon": 0.0, "bike_id": "b010755c1a636d1803bb56807bfdddd7", "is_disabled": 0, "is_reserved": 0}, {"rental_uris": {"ios": "https://dc.lft.to/lastmile_qr_scan", "android": "https://dc.lft.to/lastmile_qr_scan"}, "lon": -76.93098633333334, "type": "electric_scooter", "fusion_lat": 0.0, "lat": 38.901392333333334, "name": "bc44a6290dba2905a7f46b83cb863a86", "fusion_lon": 0.0, "bike_id": "bc44a6290dba2905a7f46b83cb863a86", "is_disabled": 0, "is_reserved": 0}, {"rental_uris": {"ios": "https://dc.lft.to/lastmile_qr_scan", "android": "https://dc.lft.to/lastmile_qr_scan"}, "lon": -77.05351716666667, "type": "electric_scooter", "fusion_lat": 0.0, "lat": 38.902686333333335, "name": "9c709e0bbf422a97a1c88fe59140aaa0", "fusion_lon": 0.0, "bike_id": "9c709e0bbf422a97a1c88fe59140aaa0", "is_disabled": 0, "is_reserved": 0}, {"rental_uris": {"ios": "https://dc.lft.to/lastmile_qr_scan", "android": "https://dc.lft.to/lastmile_qr_scan"}, "lon": -77.022026, "type": "electric_scooter", "fusion_lat": 0.0, "lat": 38.91423266666666, "name": "1598a0502af3552890fad9e1a48bd30a", "fusion_lon": 0.0, "bike_id": "1598a0502af3552890fad9e1a48bd30a", "is_disabled": 0, "is_reserved": 0}, {"rental_uris": {"ios": "https://dc.lft.to/lastmile_qr_scan", "android": "https://dc.lft.to/lastmile_qr_scan"}, "lon": -76.9855955, "type": "electric_scooter", "fusion_lat": 0.0, "lat": 38.89771116666667, "name": "7d2e29e86db8360152aed9b181ab9ab8", "fusion_lon": 0.0, "bike_id": "7d2e29e86db8360152aed9b181ab9ab8", "is_disabled": 0, "is_reserved": 0}, {"rental_uris": {"ios": "https://dc.lft.to/lastmile_qr_scan", "android": "https://dc.lft.to/lastmile_qr_scan"}, "lon": -77.0481895, "type": "electric_scooter", "fusion_lat": 0.0, "lat": 38.91333816666667, "name": "d0beb22b1867dfb9ddad3e668148e704", "fusion_lon": 0.0, "bike_id": "d0beb22b1867dfb9ddad3e668148e704", "is_disabled": 0, "is_reserved": 0}, {"rental_uris": {"ios": "https://dc.lft.to/lastmile_qr_scan", "android": "https://dc.lft.to/lastmile_qr_scan"}, "lon": -77.0347695, "type": "electric_scooter", "fusion_lat": 0.0, "lat": 38.93041733333333, "name": "b427994bb202313ffa20d594c3fcafcf", "fusion_lon": 0.0, "bike_id": "b427994bb202313ffa20d594c3fcafcf", "is_disabled": 0, "is_reserved": 0}, {"rental_uris": {"ios": "https://dc.lft.to/lastmile_qr_scan", "android": "https://dc.lft.to/lastmile_qr_scan"}, "lon": -76.96062083333334, "type": "electric_bike", "fusion_lat": 0.0, "lat": 38.884099166666665, "name": "3d5fed2858d7f8dc37af08062a657f6c", "fusion_lon": 0.0, "bike_id": "3d5fed2858d7f8dc37af08062a657f6c", "is_disabled": 0, "is_reserved": 0}, {"rental_uris": {"ios": "https://dc.lft.to/lastmile_qr_scan", "android": "https://dc.lft.to/lastmile_qr_scan"}, "lon": -77.04521666666666, "type": "electric_scooter", "fusion_lat": 0.0, "lat": 38.903733833333334, "name": "b56d439c283be7f32ce6fb22778ac12d", "fusion_lon": 0.0, "bike_id": "b56d439c283be7f32ce6fb22778ac12d", "is_disabled": 0, "is_reserved": 0}, {"rental_uris": {"ios": "https://dc.lft.to/lastmile_qr_scan", "android": "https://dc.lft.to/lastmile_qr_scan"}, "lon": -77.00577883333334, "type": "electric_scooter", "fusion_lat": 0.0, "lat": 38.903551, "name": "01d091858d25beb0395b7379e96454af", "fusion_lon": 0.0, "bike_id": "01d091858d25beb0395b7379e96454af", "is_disabled": 0, "is_reserved": 0}, {"rental_uris": {"ios": "https://dc.lft.to/lastmile_qr_scan", "android": "https://dc.lft.to/lastmile_qr_scan"}, "lon": -76.90815066666667, "type": "electric_bike", "fusion_lat": 0.0, "lat": 38.99457016666667, "name": "5d530b045486e3de694e1355dd34ebe2", "fusion_lon": 0.0, "bike_id": "5d530b045486e3de694e1355dd34ebe2", "is_disabled": 0, "is_reserved": 0}, {"rental_uris": {"ios": "https://dc.lft.to/lastmile_qr_scan", "android": "https://dc.lft.to/lastmile_qr_scan"}, "lon": -77.02690766666667, "type": "electric_scooter", "fusion_lat": 0.0, "lat": 38.925975333333334, "name": "567e9fcb470db335ed49d84d43c6cee0", "fusion_lon": 0.0, "bike_id": "567e9fcb470db335ed49d84d43c6cee0", "is_disabled": 0, "is_reserved": 0}, {"rental_uris": {"ios": "https://dc.lft.to/lastmile_qr_scan", "android": "https://dc.lft.to/lastmile_qr_scan"}, "lon": -77.0283805, "type": "electric_scooter", "fusion_lat": 0.0, "lat": 38.931928166666665, "name": "b025d94e9547d9eec6d27879f1632651", "fusion_lon": 0.0, "bike_id": "b025d94e9547d9eec6d27879f1632651", "is_disabled": 0, "is_reserved": 0}, {"rental_uris": {"ios": "https://dc.lft.to/lastmile_qr_scan", "android": "https://dc.lft.to/lastmile_qr_scan"}, "lon": -77.01126816666667, "type": "electric_scooter", "fusion_lat": 0.0, "lat": 38.895338833333334, "name": "3a9df43a952e5c7fb42d97874a1ee658", "fusion_lon": 0.0, "bike_id": "3a9df43a952e5c7fb42d97874a1ee658", "is_disabled": 0, "is_reserved": 0}, {"rental_uris": {"ios": "https://dc.lft.to/lastmile_qr_scan", "android": "https://dc.lft.to/lastmile_qr_scan"}, "lon": -77.02469683333334, "type": "electric_scooter", "fusion_lat": 0.0, "lat": 38.930974666666664, "name": "9166386b1dfdcbb55771b2f4e1220c3a", "fusion_lon": 0.0, "bike_id": "9166386b1dfdcbb55771b2f4e1220c3a", "is_disabled": 0, "is_reserved": 0}, {"rental_uris": {"ios": "https://dc.lft.to/lastmile_qr_scan", "android": "https://dc.lft.to/lastmile_qr_scan"}, "lon": -77.08197983333334, "type": "electric_scooter", "fusion_lat": 0.0, "lat": 38.9492645, "name": "129cc550fe2cb1d36723eccbf22f900a", "fusion_lon": 0.0, "bike_id": "129cc550fe2cb1d36723eccbf22f900a", "is_disabled": 0, "is_reserved": 0}, {"rental_uris": {"ios": "https://dc.lft.to/lastmile_qr_scan", "android": "https://dc.lft.to/lastmile_qr_scan"}, "lon": -77.03636366666667, "type": "electric_scooter", "fusion_lat": 0.0, "lat": 38.903283333333334, "name": "4c5d7e650a012e499d22e64ede0652fb", "fusion_lon": 0.0, "bike_id": "4c5d7e650a012e499d22e64ede0652fb", "is_disabled": 0, "is_reserved": 0}, {"rental_uris": {"ios": "https://dc.lft.to/lastmile_qr_scan", "android": "https://dc.lft.to/lastmile_qr_scan"}, "lon": -77.03200716666667, "type": "electric_scooter", "fusion_lat": 0.0, "lat": 38.92062883333333, "name": "97c5bdcc0d2abf6ecb0541c415389b52", "fusion_lon": 0.0, "bike_id": "97c5bdcc0d2abf6ecb0541c415389b52", "is_disabled": 0, "is_reserved": 0}, {"rental_uris": {"ios": "https://dc.lft.to/lastmile_qr_scan", "android": "https://dc.lft.to/lastmile_qr_scan"}, "lon": -77.03952733333334, "type": "electric_scooter", "fusion_lat": 0.0, "lat": 38.926138333333334, "name": "fa5a5a50fb82153bcca0e788d0422ea6", "fusion_lon": 0.0, "bike_id": "fa5a5a50fb82153bcca0e788d0422ea6", "is_disabled": 0, "is_reserved": 0}, {"rental_uris": {"ios": "https://dc.lft.to/lastmile_qr_scan", "android": "https://dc.lft.to/lastmile_qr_scan"}, "lon": -77.0418875, "type": "electric_scooter", "fusion_lat": 0.0, "lat": 38.9220325, "name": "db989fd801d847c10cca13db3966c7c3", "fusion_lon": 0.0, "bike_id": "db989fd801d847c10cca13db3966c7c3", "is_disabled": 0, "is_reserved": 0}, {"rental_uris": {"ios": "https://dc.lft.to/lastmile_qr_scan", "android": "https://dc.lft.to/lastmile_qr_scan"}, "lon": -77.053042, "type": "electric_scooter", "fusion_lat": 0.0, "lat": 38.90159366666666, "name": "ed09341a18c3c0cb3b2c05811abc9953", "fusion_lon": 0.0, "bike_id": "ed09341a18c3c0cb3b2c05811abc9953", "is_disabled": 0, "is_reserved": 0}, {"rental_uris": {"ios": "https://dc.lft.to/lastmile_qr_scan", "android": "https://dc.lft.to/lastmile_qr_scan"}, "lon": -77.02760433333333, "type": "electric_scooter", "fusion_lat": 0.0, "lat": 38.9715235, "name": "799a03749220b173fe8f6362b383e000", "fusion_lon": 0.0, "bike_id": "799a03749220b173fe8f6362b383e000", "is_disabled": 0, "is_reserved": 0}, {"rental_uris": {"ios": "https://dc.lft.to/lastmile_qr_scan", "android": "https://dc.lft.to/lastmile_qr_scan"}, "lon": -77.050497, "type": "electric_scooter", "fusion_lat": 0.0, "lat": 38.92362133333334, "name": "a037fb32461cc562628433c945e1a2b0", "fusion_lon": 0.0, "bike_id": "a037fb32461cc562628433c945e1a2b0", "is_disabled": 0, "is_reserved": 0}, {"rental_uris": {"ios": "https://dc.lft.to/lastmile_qr_scan", "android": "https://dc.lft.to/lastmile_qr_scan"}, "lon": -77.02565016666667, "type": "electric_scooter", "fusion_lat": 0.0, "lat": 38.90853216666667, "name": "115a83213b8023bab94e6dea2b5463fc", "fusion_lon": 0.0, "bike_id": "115a83213b8023bab94e6dea2b5463fc", "is_disabled": 0, "is_reserved": 0}, {"rental_uris": {"ios": "https://dc.lft.to/lastmile_qr_scan", "android": "https://dc.lft.to/lastmile_qr_scan"}, "lon": -77.03653466666667, "type": "electric_scooter", "fusion_lat": 0.0, "lat": 38.92119866666667, "name": "27dd2d3c092f80c624b9b953ef25b154", "fusion_lon": 0.0, "bike_id": "27dd2d3c092f80c624b9b953ef25b154", "is_disabled": 0, "is_reserved": 0}, {"rental_uris": {"ios": "https://dc.lft.to/lastmile_qr_scan", "android": "https://dc.lft.to/lastmile_qr_scan"}, "lon": -77.07094483333333, "type": "electric_scooter", "fusion_lat": 0.0, "lat": 38.93368666666667, "name": "f0d1a057a20270785dcdc25442436cf4", "fusion_lon": 0.0, "bike_id": "f0d1a057a20270785dcdc25442436cf4", "is_disabled": 0, "is_reserved": 0}, {"rental_uris": {"ios": "https://dc.lft.to/lastmile_qr_scan", "android": "https://dc.lft.to/lastmile_qr_scan"}, "lon": -76.98202066666667, "type": "electric_scooter", "fusion_lat": 0.0, "lat": 38.89085816666667, "name": "40647c364d759dd3ffdc101b32927b92", "fusion_lon": 0.0, "bike_id": "40647c364d759dd3ffdc101b32927b92", "is_disabled": 0, "is_reserved": 0}, {"rental_uris": {"ios": "https://dc.lft.to/lastmile_qr_scan", "android": "https://dc.lft.to/lastmile_qr_scan"}, "lon": -76.99611366666667, "type": "electric_scooter", "fusion_lat": 0.0, "lat": 38.897449, "name": "d5cab23ae9f7f5569583418848b6467e", "fusion_lon": 0.0, "bike_id": "d5cab23ae9f7f5569583418848b6467e", "is_disabled": 0, "is_reserved": 0}, {"rental_uris": {"ios": "https://dc.lft.to/lastmile_qr_scan", "android": "https://dc.lft.to/lastmile_qr_scan"}, "lon": -77.0550625, "type": "electric_scooter", "fusion_lat": 0.0, "lat": 38.92967983333333, "name": "4cdec66f2093f97a2862fe9355f9633d", "fusion_lon": 0.0, "bike_id": "4cdec66f2093f97a2862fe9355f9633d", "is_disabled": 0, "is_reserved": 0}, {"rental_uris": {"ios": "https://dc.lft.to/lastmile_qr_scan", "android": "https://dc.lft.to/lastmile_qr_scan"}, "lon": -76.93249716666666, "type": "electric_bike", "fusion_lat": 0.0, "lat": 38.88277433333333, "name": "ed05b39c5d96dfdcea0bb8a32f7a2fbf", "fusion_lon": 0.0, "bike_id": "ed05b39c5d96dfdcea0bb8a32f7a2fbf", "is_disabled": 0, "is_reserved": 0}, {"rental_uris": {"ios": "https://dc.lft.to/lastmile_qr_scan", "android": "https://dc.lft.to/lastmile_qr_scan"}, "lon": -77.04455516666667, "type": "electric_scooter", "fusion_lat": 0.0, "lat": 38.9185935, "name": "9bc35ea34cb178a11ef062b4c0d6a0eb", "fusion_lon": 0.0, "bike_id": "9bc35ea34cb178a11ef062b4c0d6a0eb", "is_disabled": 0, "is_reserved": 0}, {"rental_uris": {"ios": "https://dc.lft.to/lastmile_qr_scan", "android": "https://dc.lft.to/lastmile_qr_scan"}, "lon": -77.04782766666666, "type": "electric_scooter", "fusion_lat": 0.0, "lat": 38.89767066666667, "name": "a27f5024f32a0959d05a04d617c6f528", "fusion_lon": 0.0, "bike_id": "a27f5024f32a0959d05a04d617c6f528", "is_disabled": 0, "is_reserved": 0}, {"rental_uris": {"ios": "https://dc.lft.to/lastmile_qr_scan", "android": "https://dc.lft.to/lastmile_qr_scan"}, "lon": -77.01863366666667, "type": "electric_scooter", "fusion_lat": 0.0, "lat": 38.94893583333333, "name": "3675fce4e12ae04e264b6fa3f33624c4", "fusion_lon": 0.0, "bike_id": "3675fce4e12ae04e264b6fa3f33624c4", "is_disabled": 0, "is_reserved": 0}, {"rental_uris": {"ios": "https://dc.lft.to/lastmile_qr_scan", "android": "https://dc.lft.to/lastmile_qr_scan"}, "lon": -76.96528416666666, "type": "electric_scooter", "fusion_lat": 0.0, "lat": 38.87627716666667, "name": "a9116951e654bcec63a5b2437caf3c1b", "fusion_lon": 0.0, "bike_id": "a9116951e654bcec63a5b2437caf3c1b", "is_disabled": 0, "is_reserved": 0}, {"rental_uris": {"ios": "https://dc.lft.to/lastmile_qr_scan", "android": "https://dc.lft.to/lastmile_qr_scan"}, "lon": -76.997374, "type": "electric_scooter", "fusion_lat": 0.0, "lat": 38.90934383333333, "name": "1bbeb13994b35545043127feee464d07", "fusion_lon": 0.0, "bike_id": "1bbeb13994b35545043127feee464d07", "is_disabled": 0, "is_reserved": 0}, {"rental_uris": {"ios": "https://dc.lft.to/lastmile_qr_scan", "android": "https://dc.lft.to/lastmile_qr_scan"}, "lon": -77.06608566666667, "type": "electric_scooter", "fusion_lat": 0.0, "lat": 38.905399, "name": "72e76338891fca6b3a961171a217f82e", "fusion_lon": 0.0, "bike_id": "72e76338891fca6b3a961171a217f82e", "is_disabled": 0, "is_reserved": 0}, {"rental_uris": {"ios": "https://dc.lft.to/lastmile_qr_scan", "android": "https://dc.lft.to/lastmile_qr_scan"}, "lon": -77.00101966666666, "type": "electric_scooter", "fusion_lat": 0.0, "lat": 38.8942915, "name": "aba5f0a5b66f0193368bd865fe6817e9", "fusion_lon": 0.0, "bike_id": "aba5f0a5b66f0193368bd865fe6817e9", "is_disabled": 0, "is_reserved": 0}, {"rental_uris": {"ios": "https://dc.lft.to/lastmile_qr_scan", "android": "https://dc.lft.to/lastmile_qr_scan"}, "lon": -77.08816566666667, "type": "electric_bike", "fusion_lat": 0.0, "lat": 38.9116865, "name": "a9be4b120348685b00439ce8b248879a", "fusion_lon": 0.0, "bike_id": "a9be4b120348685b00439ce8b248879a", "is_disabled": 0, "is_reserved": 0}, {"rental_uris": {"ios": "https://dc.lft.to/lastmile_qr_scan", "android": "https://dc.lft.to/lastmile_qr_scan"}, "lon": -77.03793116666667, "type": "electric_scooter", "fusion_lat": 0.0, "lat": 38.905632833333335, "name": "031e7f0e2d705ad1fe0ee50e081b774e", "fusion_lon": 0.0, "bike_id": "031e7f0e2d705ad1fe0ee50e081b774e", "is_disabled": 0, "is_reserved": 0}, {"rental_uris": {"ios": "https://dc.lft.to/lastmile_qr_scan", "android": "https://dc.lft.to/lastmile_qr_scan"}, "lon": -77.03656183333334, "type": "electric_bike", "fusion_lat": 0.0, "lat": 38.9363295, "name": "8bebeb9c83868dc5389da32bce3abbed", "fusion_lon": 0.0, "bike_id": "8bebeb9c83868dc5389da32bce3abbed", "is_disabled": 0, "is_reserved": 0}, {"rental_uris": {"ios": "https://dc.lft.to/lastmile_qr_scan", "android": "https://dc.lft.to/lastmile_qr_scan"}, "lon": -77.03785183333333, "type": "electric_scooter", "fusion_lat": 0.0, "lat": 38.936055, "name": "28898388485348ee4c850febdfd125fa", "fusion_lon": 0.0, "bike_id": "28898388485348ee4c850febdfd125fa", "is_disabled": 0, "is_reserved": 0}, {"rental_uris": {"ios": "https://dc.lft.to/lastmile_qr_scan", "android": "https://dc.lft.to/lastmile_qr_scan"}, "lon": -77.12898866666667, "type": "electric_bike", "fusion_lat": 0.0, "lat": 38.86378166666667, "name": "13cae2270ab43d22d571abc0be2865f9", "fusion_lon": 0.0, "bike_id": "13cae2270ab43d22d571abc0be2865f9", "is_disabled": 0, "is_reserved": 0}, {"rental_uris": {"ios": "https://dc.lft.to/lastmile_qr_scan", "android": "https://dc.lft.to/lastmile_qr_scan"}, "lon": -77.05292466666667, "type": "electric_scooter", "fusion_lat": 0.0, "lat": 38.92785683333334, "name": "7df6bb6ca85b0c0f7a80ecad0047d44d", "fusion_lon": 0.0, "bike_id": "7df6bb6ca85b0c0f7a80ecad0047d44d", "is_disabled": 0, "is_reserved": 0}, {"rental_uris": {"ios": "https://dc.lft.to/lastmile_qr_scan", "android": "https://dc.lft.to/lastmile_qr_scan"}, "lon": -77.03265316666666, "type": "electric_scooter", "fusion_lat": 0.0, "lat": 38.932295333333336, "name": "d424108fc16ed541d200593fcdd38f5f", "fusion_lon": 0.0, "bike_id": "d424108fc16ed541d200593fcdd38f5f", "is_disabled": 0, "is_reserved": 0}, {"rental_uris": {"ios": "https://dc.lft.to/lastmile_qr_scan", "android": "https://dc.lft.to/lastmile_qr_scan"}, "lon": -77.006094, "type": "electric_scooter", "fusion_lat": 0.0, "lat": 38.905789666666664, "name": "ceee2dc8d4da3503bda8508d84a6fa9f", "fusion_lon": 0.0, "bike_id": "ceee2dc8d4da3503bda8508d84a6fa9f", "is_disabled": 0, "is_reserved": 0}, {"rental_uris": {"ios": "https://dc.lft.to/lastmile_qr_scan", "android": "https://dc.lft.to/lastmile_qr_scan"}, "lon": -76.98964416666666, "type": "electric_scooter", "fusion_lat": 0.0, "lat": 38.900133333333336, "name": "2602f1134858f2be5c4ca4cfe4795203", "fusion_lon": 0.0, "bike_id": "2602f1134858f2be5c4ca4cfe4795203", "is_disabled": 0, "is_reserved": 0}, {"rental_uris": {"ios": "https://dc.lft.to/lastmile_qr_scan", "android": "https://dc.lft.to/lastmile_qr_scan"}, "lon": -77.0219985, "type": "electric_scooter", "fusion_lat": 0.0, "lat": 38.915942333333334, "name": "ba0c99f5d1756c52610f86b97d4672b6", "fusion_lon": 0.0, "bike_id": "ba0c99f5d1756c52610f86b97d4672b6", "is_disabled": 0, "is_reserved": 0}, {"rental_uris": {"ios": "https://dc.lft.to/lastmile_qr_scan", "android": "https://dc.lft.to/lastmile_qr_scan"}, "lon": -77.12743366666666, "type": "electric_bike", "fusion_lat": 0.0, "lat": 38.88827716666667, "name": "967a1655f830ec6d2b5f4170968ef73c", "fusion_lon": 0.0, "bike_id": "967a1655f830ec6d2b5f4170968ef73c", "is_disabled": 0, "is_reserved": 0}, {"rental_uris": {"ios": "https://dc.lft.to/lastmile_qr_scan", "android": "https://dc.lft.to/lastmile_qr_scan"}, "lon": -76.97886216666667, "type": "electric_scooter", "fusion_lat": 0.0, "lat": 38.916724333333335, "name": "d3680347819ffb0f71e26a8c73339250", "fusion_lon": 0.0, "bike_id": "d3680347819ffb0f71e26a8c73339250", "is_disabled": 0, "is_reserved": 0}, {"rental_uris": {"ios": "https://dc.lft.to/lastmile_qr_scan", "android": "https://dc.lft.to/lastmile_qr_scan"}, "lon": -76.93790883333334, "type": "electric_scooter", "fusion_lat": 0.0, "lat": 38.912875166666666, "name": "c2aa2b57766ba5777b96c2668dbbe87d", "fusion_lon": 0.0, "bike_id": "c2aa2b57766ba5777b96c2668dbbe87d", "is_disabled": 0, "is_reserved": 0}, {"rental_uris": {"ios": "https://dc.lft.to/lastmile_qr_scan", "android": "https://dc.lft.to/lastmile_qr_scan"}, "lon": -77.008518, "type": "electric_scooter", "fusion_lat": 0.0, "lat": 38.925936166666666, "name": "58c66f7bd7430aeaf13eb9648a8cd262", "fusion_lon": 0.0, "bike_id": "58c66f7bd7430aeaf13eb9648a8cd262", "is_disabled": 0, "is_reserved": 0}, {"rental_uris": {"ios": "https://dc.lft.to/lastmile_qr_scan", "android": "https://dc.lft.to/lastmile_qr_scan"}, "lon": -77.04927333333333, "type": "electric_scooter", "fusion_lat": 0.0, "lat": 38.8968115, "name": "a09e4c38ff93b9880cc472d7936fd95e", "fusion_lon": 0.0, "bike_id": "a09e4c38ff93b9880cc472d7936fd95e", "is_disabled": 0, "is_reserved": 0}, {"rental_uris": {"ios": "https://dc.lft.to/lastmile_qr_scan", "android": "https://dc.lft.to/lastmile_qr_scan"}, "lon": -77.04246133333334, "type": "electric_scooter", "fusion_lat": 0.0, "lat": 38.908096, "name": "246d55d4a6e2ce7db5b7f9a075a6a7e0", "fusion_lon": 0.0, "bike_id": "246d55d4a6e2ce7db5b7f9a075a6a7e0", "is_disabled": 0, "is_reserved": 0}, {"rental_uris": {"ios": "https://dc.lft.to/lastmile_qr_scan", "android": "https://dc.lft.to/lastmile_qr_scan"}, "lon": -77.0327565, "type": "electric_scooter", "fusion_lat": 0.0, "lat": 38.93736833333333, "name": "5c2197a4e36aa33c72351024becb189d", "fusion_lon": 0.0, "bike_id": "5c2197a4e36aa33c72351024becb189d", "is_disabled": 0, "is_reserved": 0}, {"rental_uris": {"ios": "https://dc.lft.to/lastmile_qr_scan", "android": "https://dc.lft.to/lastmile_qr_scan"}, "lon": -76.9953035, "type": "electric_scooter", "fusion_lat": 0.0, "lat": 38.92671266666667, "name": "c939cf376d0d3e35280c870787831916", "fusion_lon": 0.0, "bike_id": "c939cf376d0d3e35280c870787831916", "is_disabled": 0, "is_reserved": 0}, {"rental_uris": {"ios": "https://dc.lft.to/lastmile_qr_scan", "android": "https://dc.lft.to/lastmile_qr_scan"}, "lon": -77.08368833333333, "type": "electric_scooter", "fusion_lat": 0.0, "lat": 38.930335, "name": "7a83bbdce8b3dbfc0997e7608d1e5d47", "fusion_lon": 0.0, "bike_id": "7a83bbdce8b3dbfc0997e7608d1e5d47", "is_disabled": 0, "is_reserved": 0}, {"rental_uris": {"ios": "https://dc.lft.to/lastmile_qr_scan", "android": "https://dc.lft.to/lastmile_qr_scan"}, "lon": -77.030822, "type": "electric_scooter", "fusion_lat": 0.0, "lat": 38.93477016666667, "name": "eeff3092f86ade1db0864ac4922317ee", "fusion_lon": 0.0, "bike_id": "eeff3092f86ade1db0864ac4922317ee", "is_disabled": 0, "is_reserved": 0}, {"rental_uris": {"ios": "https://dc.lft.to/lastmile_qr_scan", "android": "https://dc.lft.to/lastmile_qr_scan"}, "lon": -76.9876875, "type": "electric_scooter", "fusion_lat": 0.0, "lat": 38.91169283333333, "name": "4cb0a70d20d18015568b3b8dd5b360fd", "fusion_lon": 0.0, "bike_id": "4cb0a70d20d18015568b3b8dd5b360fd", "is_disabled": 0, "is_reserved": 0}, {"rental_uris": {"ios": "https://dc.lft.to/lastmile_qr_scan", "android": "https://dc.lft.to/lastmile_qr_scan"}, "lon": -77.04823866666666, "type": "electric_scooter", "fusion_lat": 0.0, "lat": 38.8962275, "name": "34adc29fb6f5f36116afc2fefe85fb9b", "fusion_lon": 0.0, "bike_id": "34adc29fb6f5f36116afc2fefe85fb9b", "is_disabled": 0, "is_reserved": 0}, {"rental_uris": {"ios": "https://dc.lft.to/lastmile_qr_scan", "android": "https://dc.lft.to/lastmile_qr_scan"}, "lon": -77.02905066666666, "type": "electric_scooter", "fusion_lat": 0.0, "lat": 38.90356883333333, "name": "eacb3161cfce03cb8ec482bd921ce5ae", "fusion_lon": 0.0, "bike_id": "eacb3161cfce03cb8ec482bd921ce5ae", "is_disabled": 0, "is_reserved": 0}, {"rental_uris": {"ios": "https://dc.lft.to/lastmile_qr_scan", "android": "https://dc.lft.to/lastmile_qr_scan"}, "lon": -77.01756483333334, "type": "electric_scooter", "fusion_lat": 0.0, "lat": 38.93891433333334, "name": "2a7c2ebd7c8d13b3bdc6c9da4081c55b", "fusion_lon": 0.0, "bike_id": "2a7c2ebd7c8d13b3bdc6c9da4081c55b", "is_disabled": 0, "is_reserved": 0}, {"rental_uris": {"ios": "https://dc.lft.to/lastmile_qr_scan", "android": "https://dc.lft.to/lastmile_qr_scan"}, "lon": -77.0010515, "type": "electric_scooter", "fusion_lat": 0.0, "lat": 38.873216166666666, "name": "1a99f72f7a37e7df88646a168d14359c", "fusion_lon": 0.0, "bike_id": "1a99f72f7a37e7df88646a168d14359c", "is_disabled": 0, "is_reserved": 0}, {"rental_uris": {"ios": "https://dc.lft.to/lastmile_qr_scan", "android": "https://dc.lft.to/lastmile_qr_scan"}, "lon": -77.04808133333333, "type": "electric_scooter", "fusion_lat": 0.0, "lat": 38.89737866666667, "name": "23e225d6d77f2c977337851ef8692d78", "fusion_lon": 0.0, "bike_id": "23e225d6d77f2c977337851ef8692d78", "is_disabled": 0, "is_reserved": 0}, {"rental_uris": {"ios": "https://dc.lft.to/lastmile_qr_scan", "android": "https://dc.lft.to/lastmile_qr_scan"}, "lon": -77.05085416666667, "type": "electric_bike", "fusion_lat": 0.0, "lat": 38.813329333333336, "name": "9323d96a14cda649da3b8373d37a61ab", "fusion_lon": 0.0, "bike_id": "9323d96a14cda649da3b8373d37a61ab", "is_disabled": 0, "is_reserved": 0}, {"rental_uris": {"ios": "https://dc.lft.to/lastmile_qr_scan", "android": "https://dc.lft.to/lastmile_qr_scan"}, "lon": -77.05681433333334, "type": "electric_scooter", "fusion_lat": 0.0, "lat": 38.93701216666667, "name": "e40ce5bdc37e8a0b7918bc1dbf250202", "fusion_lon": 0.0, "bike_id": "e40ce5bdc37e8a0b7918bc1dbf250202", "is_disabled": 0, "is_reserved": 0}, {"rental_uris": {"ios": "https://dc.lft.to/lastmile_qr_scan", "android": "https://dc.lft.to/lastmile_qr_scan"}, "lon": -76.97312133333334, "type": "electric_scooter", "fusion_lat": 0.0, "lat": 38.904783333333334, "name": "5da7f7874e1358291128c17f2b3c9447", "fusion_lon": 0.0, "bike_id": "5da7f7874e1358291128c17f2b3c9447", "is_disabled": 0, "is_reserved": 0}, {"rental_uris": {"ios": "https://dc.lft.to/lastmile_qr_scan", "android": "https://dc.lft.to/lastmile_qr_scan"}, "lon": -77.05811416666667, "type": "electric_scooter", "fusion_lat": 0.0, "lat": 38.90295833333333, "name": "66f792d84259653a08dc13b6465ce1fe", "fusion_lon": 0.0, "bike_id": "66f792d84259653a08dc13b6465ce1fe", "is_disabled": 0, "is_reserved": 0}, {"rental_uris": {"ios": "https://dc.lft.to/lastmile_qr_scan", "android": "https://dc.lft.to/lastmile_qr_scan"}, "lon": -77.03567933333333, "type": "electric_scooter", "fusion_lat": 0.0, "lat": 38.9181425, "name": "b20ac1438d0d08ed6adc6f62302d309f", "fusion_lon": 0.0, "bike_id": "b20ac1438d0d08ed6adc6f62302d309f", "is_disabled": 0, "is_reserved": 0}, {"rental_uris": {"ios": "https://dc.lft.to/lastmile_qr_scan", "android": "https://dc.lft.to/lastmile_qr_scan"}, "lon": -77.03364383333333, "type": "electric_scooter", "fusion_lat": 0.0, "lat": 38.91414983333333, "name": "4f8ad7e4895f641b93025ddb391c1c36", "fusion_lon": 0.0, "bike_id": "4f8ad7e4895f641b93025ddb391c1c36", "is_disabled": 0, "is_reserved": 0}, {"rental_uris": {"ios": "https://dc.lft.to/lastmile_qr_scan", "android": "https://dc.lft.to/lastmile_qr_scan"}, "lon": -77.03078066666667, "type": "electric_scooter", "fusion_lat": 0.0, "lat": 38.922487833333335, "name": "61a0d325ebf13875c04f6dbfb7eda230", "fusion_lon": 0.0, "bike_id": "61a0d325ebf13875c04f6dbfb7eda230", "is_disabled": 0, "is_reserved": 0}, {"rental_uris": {"ios": "https://dc.lft.to/lastmile_qr_scan", "android": "https://dc.lft.to/lastmile_qr_scan"}, "lon": -76.93544733333333, "type": "electric_bike", "fusion_lat": 0.0, "lat": 38.9518605, "name": "5204bf2d6db9dc1c861f91a6cc97388d", "fusion_lon": 0.0, "bike_id": "5204bf2d6db9dc1c861f91a6cc97388d", "is_disabled": 0, "is_reserved": 0}, {"rental_uris": {"ios": "https://dc.lft.to/lastmile_qr_scan", "android": "https://dc.lft.to/lastmile_qr_scan"}, "lon": -76.99550683333334, "type": "electric_scooter", "fusion_lat": 0.0, "lat": 38.923185333333336, "name": "2a30cadb7dbcde9d3bea4ee903c2ac88", "fusion_lon": 0.0, "bike_id": "2a30cadb7dbcde9d3bea4ee903c2ac88", "is_disabled": 0, "is_reserved": 0}, {"rental_uris": {"ios": "https://dc.lft.to/lastmile_qr_scan", "android": "https://dc.lft.to/lastmile_qr_scan"}, "lon": -77.02426016666666, "type": "electric_scooter", "fusion_lat": 0.0, "lat": 38.907198, "name": "2922e15989e229eae9c029b0f14cbdd3", "fusion_lon": 0.0, "bike_id": "2922e15989e229eae9c029b0f14cbdd3", "is_disabled": 0, "is_reserved": 0}, {"rental_uris": {"ios": "https://dc.lft.to/lastmile_qr_scan", "android": "https://dc.lft.to/lastmile_qr_scan"}, "lon": -77.03580733333334, "type": "electric_scooter", "fusion_lat": 0.0, "lat": 38.9075915, "name": "a00882d427f855a9103db9b1eb5991a5", "fusion_lon": 0.0, "bike_id": "a00882d427f855a9103db9b1eb5991a5", "is_disabled": 0, "is_reserved": 0}, {"rental_uris": {"ios": "https://dc.lft.to/lastmile_qr_scan", "android": "https://dc.lft.to/lastmile_qr_scan"}, "lon": -76.97703566666667, "type": "electric_scooter", "fusion_lat": 0.0, "lat": 38.89709833333333, "name": "f6cc7ccc5a3a7523a001396dc49bf79e", "fusion_lon": 0.0, "bike_id": "f6cc7ccc5a3a7523a001396dc49bf79e", "is_disabled": 0, "is_reserved": 0}, {"rental_uris": {"ios": "https://dc.lft.to/lastmile_qr_scan", "android": "https://dc.lft.to/lastmile_qr_scan"}, "lon": -77.03277916666667, "type": "electric_scooter", "fusion_lat": 0.0, "lat": 38.937351666666665, "name": "d4a0e2bbe47bc60fb8bcab0faad47882", "fusion_lon": 0.0, "bike_id": "d4a0e2bbe47bc60fb8bcab0faad47882", "is_disabled": 0, "is_reserved": 0}, {"rental_uris": {"ios": "https://dc.lft.to/lastmile_qr_scan", "android": "https://dc.lft.to/lastmile_qr_scan"}, "lon": -77.048794, "type": "electric_scooter", "fusion_lat": 0.0, "lat": 38.89674, "name": "7659d9bf7dca35ab453426e9644c29a2", "fusion_lon": 0.0, "bike_id": "7659d9bf7dca35ab453426e9644c29a2", "is_disabled": 0, "is_reserved": 0}, {"rental_uris": {"ios": "https://dc.lft.to/lastmile_qr_scan", "android": "https://dc.lft.to/lastmile_qr_scan"}, "lon": -77.035059, "type": "electric_scooter", "fusion_lat": 0.0, "lat": 38.90029916666667, "name": "6fbfa9316145ceb7dd9998ca77bcd5c9", "fusion_lon": 0.0, "bike_id": "6fbfa9316145ceb7dd9998ca77bcd5c9", "is_disabled": 0, "is_reserved": 0}, {"rental_uris": {"ios": "https://dc.lft.to/lastmile_qr_scan", "android": "https://dc.lft.to/lastmile_qr_scan"}, "lon": -77.02223883333333, "type": "electric_scooter", "fusion_lat": 0.0, "lat": 38.91267916666666, "name": "79c811f680c6ea54b514aa8e74c323d9", "fusion_lon": 0.0, "bike_id": "79c811f680c6ea54b514aa8e74c323d9", "is_disabled": 0, "is_reserved": 0}, {"rental_uris": {"ios": "https://dc.lft.to/lastmile_qr_scan", "android": "https://dc.lft.to/lastmile_qr_scan"}, "lon": -76.95412783333333, "type": "electric_scooter", "fusion_lat": 0.0, "lat": 38.891415, "name": "b1b2a1e3e520dbace8cfaae4317c5686", "fusion_lon": 0.0, "bike_id": "b1b2a1e3e520dbace8cfaae4317c5686", "is_disabled": 0, "is_reserved": 0}, {"rental_uris": {"ios": "https://dc.lft.to/lastmile_qr_scan", "android": "https://dc.lft.to/lastmile_qr_scan"}, "lon": -77.03472783333333, "type": "electric_scooter", "fusion_lat": 0.0, "lat": 38.917116, "name": "dbdd9d112960d4965a238cca6e987a25", "fusion_lon": 0.0, "bike_id": "dbdd9d112960d4965a238cca6e987a25", "is_disabled": 0, "is_reserved": 0}, {"rental_uris": {"ios": "https://dc.lft.to/lastmile_qr_scan", "android": "https://dc.lft.to/lastmile_qr_scan"}, "lon": -77.024168, "type": "electric_scooter", "fusion_lat": 0.0, "lat": 38.9265635, "name": "1bbb632bd81a7bad3d7eaeab0ecb9f9e", "fusion_lon": 0.0, "bike_id": "1bbb632bd81a7bad3d7eaeab0ecb9f9e", "is_disabled": 0, "is_reserved": 0}, {"rental_uris": {"ios": "https://dc.lft.to/lastmile_qr_scan", "android": "https://dc.lft.to/lastmile_qr_scan"}, "lon": -77.03560266666666, "type": "electric_scooter", "fusion_lat": 0.0, "lat": 38.918080833333335, "name": "bc6b0677301c8768fc67097507b34481", "fusion_lon": 0.0, "bike_id": "bc6b0677301c8768fc67097507b34481", "is_disabled": 0, "is_reserved": 0}, {"rental_uris": {"ios": "https://dc.lft.to/lastmile_qr_scan", "android": "https://dc.lft.to/lastmile_qr_scan"}, "lon": -76.9807175, "type": "electric_scooter", "fusion_lat": 0.0, "lat": 38.901756666666664, "name": "8d98562bc5ab95d4ac0dabcb9e707295", "fusion_lon": 0.0, "bike_id": "8d98562bc5ab95d4ac0dabcb9e707295", "is_disabled": 0, "is_reserved": 0}, {"rental_uris": {"ios": "https://dc.lft.to/lastmile_qr_scan", "android": "https://dc.lft.to/lastmile_qr_scan"}, "lon": -77.01432083333333, "type": "electric_scooter", "fusion_lat": 0.0, "lat": 38.9064585, "name": "485dc504a074894685afdb0186a5b1e3", "fusion_lon": 0.0, "bike_id": "485dc504a074894685afdb0186a5b1e3", "is_disabled": 0, "is_reserved": 0}, {"rental_uris": {"ios": "https://dc.lft.to/lastmile_qr_scan", "android": "https://dc.lft.to/lastmile_qr_scan"}, "lon": -77.01653716666667, "type": "electric_bike", "fusion_lat": 0.0, "lat": 38.881188, "name": "ab5d07ecd0d27d02874a3d60e0d06f98", "fusion_lon": 0.0, "bike_id": "ab5d07ecd0d27d02874a3d60e0d06f98", "is_disabled": 0, "is_reserved": 0}, {"rental_uris": {"ios": "https://dc.lft.to/lastmile_qr_scan", "android": "https://dc.lft.to/lastmile_qr_scan"}, "lon": -76.9462045, "type": "electric_bike", "fusion_lat": 0.0, "lat": 38.83238433333333, "name": "3cc77d97cf25074c6a0cbc4d67af8219", "fusion_lon": 0.0, "bike_id": "3cc77d97cf25074c6a0cbc4d67af8219", "is_disabled": 0, "is_reserved": 0}, {"rental_uris": {"ios": "https://dc.lft.to/lastmile_qr_scan", "android": "https://dc.lft.to/lastmile_qr_scan"}, "lon": -77.05468216666667, "type": "electric_scooter", "fusion_lat": 0.0, "lat": 38.896687, "name": "c4ee647f3cad6720793297c56fae31ed", "fusion_lon": 0.0, "bike_id": "c4ee647f3cad6720793297c56fae31ed", "is_disabled": 0, "is_reserved": 0}, {"rental_uris": {"ios": "https://dc.lft.to/lastmile_qr_scan", "android": "https://dc.lft.to/lastmile_qr_scan"}, "lon": -77.00708916666666, "type": "electric_scooter", "fusion_lat": 0.0, "lat": 38.884915666666664, "name": "9ede9d064fb4acf86dfc4b2d41d7e1b0", "fusion_lon": 0.0, "bike_id": "9ede9d064fb4acf86dfc4b2d41d7e1b0", "is_disabled": 0, "is_reserved": 0}, {"rental_uris": {"ios": "https://dc.lft.to/lastmile_qr_scan", "android": "https://dc.lft.to/lastmile_qr_scan"}, "lon": -77.0294795, "type": "electric_scooter", "fusion_lat": 0.0, "lat": 38.887440166666664, "name": "4ab407767ef91d9938a2ec4f272d4ba1", "fusion_lon": 0.0, "bike_id": "4ab407767ef91d9938a2ec4f272d4ba1", "is_disabled": 0, "is_reserved": 0}, {"rental_uris": {"ios": "https://dc.lft.to/lastmile_qr_scan", "android": "https://dc.lft.to/lastmile_qr_scan"}, "lon": -77.03368166666667, "type": "electric_scooter", "fusion_lat": 0.0, "lat": 38.887570333333336, "name": "00d8077c02899ef0965fa7be2f31e242", "fusion_lon": 0.0, "bike_id": "00d8077c02899ef0965fa7be2f31e242", "is_disabled": 0, "is_reserved": 0}, {"rental_uris": {"ios": "https://dc.lft.to/lastmile_qr_scan", "android": "https://dc.lft.to/lastmile_qr_scan"}, "lon": -77.04358266666667, "type": "electric_scooter", "fusion_lat": 0.0, "lat": 38.933291, "name": "cab27fe9b034e3a07963c73fb12b0d36", "fusion_lon": 0.0, "bike_id": "cab27fe9b034e3a07963c73fb12b0d36", "is_disabled": 0, "is_reserved": 0}, {"rental_uris": {"ios": "https://dc.lft.to/lastmile_qr_scan", "android": "https://dc.lft.to/lastmile_qr_scan"}, "lon": -76.98543483333333, "type": "electric_scooter", "fusion_lat": 0.0, "lat": 38.90420066666667, "name": "7d9079345bd58c76c52921c1859f7f64", "fusion_lon": 0.0, "bike_id": "7d9079345bd58c76c52921c1859f7f64", "is_disabled": 0, "is_reserved": 0}, {"rental_uris": {"ios": "https://dc.lft.to/lastmile_qr_scan", "android": "https://dc.lft.to/lastmile_qr_scan"}, "lon": -76.93922466666666, "type": "electric_scooter", "fusion_lat": 0.0, "lat": 38.892964166666665, "name": "c71f3fa316db008080d765c079cc1cb3", "fusion_lon": 0.0, "bike_id": "c71f3fa316db008080d765c079cc1cb3", "is_disabled": 0, "is_reserved": 0}, {"rental_uris": {"ios": "https://dc.lft.to/lastmile_qr_scan", "android": "https://dc.lft.to/lastmile_qr_scan"}, "lon": -77.0248025, "type": "electric_scooter", "fusion_lat": 0.0, "lat": 38.93765966666667, "name": "3693848a92f824c4c8d629609e0327ff", "fusion_lon": 0.0, "bike_id": "3693848a92f824c4c8d629609e0327ff", "is_disabled": 0, "is_reserved": 0}, {"rental_uris": {"ios": "https://dc.lft.to/lastmile_qr_scan", "android": "https://dc.lft.to/lastmile_qr_scan"}, "lon": -77.044932, "type": "electric_scooter", "fusion_lat": 0.0, "lat": 38.91105016666667, "name": "478547d31d3548bcf90c84d37091ec79", "fusion_lon": 0.0, "bike_id": "478547d31d3548bcf90c84d37091ec79", "is_disabled": 0, "is_reserved": 0}, {"rental_uris": {"ios": "https://dc.lft.to/lastmile_qr_scan", "android": "https://dc.lft.to/lastmile_qr_scan"}, "lon": -77.1296465, "type": "electric_bike", "fusion_lat": 0.0, "lat": 38.8079375, "name": "f884c819abe0e190a3f770fc24e36099", "fusion_lon": 0.0, "bike_id": "f884c819abe0e190a3f770fc24e36099", "is_disabled": 0, "is_reserved": 0}, {"rental_uris": {"ios": "https://dc.lft.to/lastmile_qr_scan", "android": "https://dc.lft.to/lastmile_qr_scan"}, "lon": -77.03646016666667, "type": "electric_scooter", "fusion_lat": 0.0, "lat": 38.902762833333334, "name": "89b82184dcb4af0ab0e296b2d324b3c4", "fusion_lon": 0.0, "bike_id": "89b82184dcb4af0ab0e296b2d324b3c4", "is_disabled": 0, "is_reserved": 0}, {"rental_uris": {"ios": "https://dc.lft.to/lastmile_qr_scan", "android": "https://dc.lft.to/lastmile_qr_scan"}, "lon": -77.03030766666667, "type": "electric_scooter", "fusion_lat": 0.0, "lat": 38.8960595, "name": "3b5eaa9a77d3dd16f9e6daff7e593949", "fusion_lon": 0.0, "bike_id": "3b5eaa9a77d3dd16f9e6daff7e593949", "is_disabled": 0, "is_reserved": 0}, {"rental_uris": {"ios": "https://dc.lft.to/lastmile_qr_scan", "android": "https://dc.lft.to/lastmile_qr_scan"}, "lon": -77.01292583333333, "type": "electric_bike", "fusion_lat": 0.0, "lat": 39.00383016666667, "name": "12ba24911801df7f14b5595366db252b", "fusion_lon": 0.0, "bike_id": "12ba24911801df7f14b5595366db252b", "is_disabled": 0, "is_reserved": 0}, {"rental_uris": {"ios": "https://dc.lft.to/lastmile_qr_scan", "android": "https://dc.lft.to/lastmile_qr_scan"}, "lon": -77.04877783333333, "type": "electric_scooter", "fusion_lat": 0.0, "lat": 38.902094, "name": "fcddc35188d613126319707e95cecdfe", "fusion_lon": 0.0, "bike_id": "fcddc35188d613126319707e95cecdfe", "is_disabled": 0, "is_reserved": 0}, {"rental_uris": {"ios": "https://dc.lft.to/lastmile_qr_scan", "android": "https://dc.lft.to/lastmile_qr_scan"}, "lon": -77.03349066666667, "type": "electric_scooter", "fusion_lat": 0.0, "lat": 38.89531316666667, "name": "55b6f36014d721189072ab754eefa0d5", "fusion_lon": 0.0, "bike_id": "55b6f36014d721189072ab754eefa0d5", "is_disabled": 0, "is_reserved": 0}, {"rental_uris": {"ios": "https://dc.lft.to/lastmile_qr_scan", "android": "https://dc.lft.to/lastmile_qr_scan"}, "lon": -77.03916766666667, "type": "electric_scooter", "fusion_lat": 0.0, "lat": 38.92096816666667, "name": "18a597e123919546a801ae7a2ee0e626", "fusion_lon": 0.0, "bike_id": "18a597e123919546a801ae7a2ee0e626", "is_disabled": 0, "is_reserved": 0}, {"rental_uris": {"ios": "https://dc.lft.to/lastmile_qr_scan", "android": "https://dc.lft.to/lastmile_qr_scan"}, "lon": -77.01608983333334, "type": "electric_scooter", "fusion_lat": 0.0, "lat": 38.9020755, "name": "48e404c15ce85ff7e1870139f27b76ef", "fusion_lon": 0.0, "bike_id": "48e404c15ce85ff7e1870139f27b76ef", "is_disabled": 0, "is_reserved": 0}, {"rental_uris": {"ios": "https://dc.lft.to/lastmile_qr_scan", "android": "https://dc.lft.to/lastmile_qr_scan"}, "lon": -77.055196, "type": "electric_scooter", "fusion_lat": 0.0, "lat": 38.89728266666667, "name": "0eb7df41a96defc01f6f729302989952", "fusion_lon": 0.0, "bike_id": "0eb7df41a96defc01f6f729302989952", "is_disabled": 0, "is_reserved": 0}, {"rental_uris": {"ios": "https://dc.lft.to/lastmile_qr_scan", "android": "https://dc.lft.to/lastmile_qr_scan"}, "lon": -77.0466665, "type": "electric_scooter", "fusion_lat": 0.0, "lat": 38.9329865, "name": "2de89cdc1767ba70d5a025fe0598ca40", "fusion_lon": 0.0, "bike_id": "2de89cdc1767ba70d5a025fe0598ca40", "is_disabled": 0, "is_reserved": 0}, {"rental_uris": {"ios": "https://dc.lft.to/lastmile_qr_scan", "android": "https://dc.lft.to/lastmile_qr_scan"}, "lon": -76.93242466666666, "type": "electric_scooter", "fusion_lat": 0.0, "lat": 38.89404666666667, "name": "1ef9587ebf41bdd8cb12b793fdcf2717", "fusion_lon": 0.0, "bike_id": "1ef9587ebf41bdd8cb12b793fdcf2717", "is_disabled": 0, "is_reserved": 0}, {"rental_uris": {"ios": "https://dc.lft.to/lastmile_qr_scan", "android": "https://dc.lft.to/lastmile_qr_scan"}, "lon": -76.99066316666666, "type": "electric_scooter", "fusion_lat": 0.0, "lat": 38.86350483333333, "name": "8d23012040d38d1abd45de68b3bda87f", "fusion_lon": 0.0, "bike_id": "8d23012040d38d1abd45de68b3bda87f", "is_disabled": 0, "is_reserved": 0}, {"rental_uris": {"ios": "https://dc.lft.to/lastmile_qr_scan", "android": "https://dc.lft.to/lastmile_qr_scan"}, "lon": -77.04643816666666, "type": "electric_bike", "fusion_lat": 0.0, "lat": 38.852111666666666, "name": "cb6d8dc3660d9f2bc96f8767cfef21d7", "fusion_lon": 0.0, "bike_id": "cb6d8dc3660d9f2bc96f8767cfef21d7", "is_disabled": 0, "is_reserved": 0}, {"rental_uris": {"ios": "https://dc.lft.to/lastmile_qr_scan", "android": "https://dc.lft.to/lastmile_qr_scan"}, "lon": -77.01780516666666, "type": "electric_scooter", "fusion_lat": 0.0, "lat": 38.903972333333336, "name": "44e89d39702cb846751e7a3d525edc1e", "fusion_lon": 0.0, "bike_id": "44e89d39702cb846751e7a3d525edc1e", "is_disabled": 0, "is_reserved": 0}, {"rental_uris": {"ios": "https://dc.lft.to/lastmile_qr_scan", "android": "https://dc.lft.to/lastmile_qr_scan"}, "lon": -76.99255833333333, "type": "electric_scooter", "fusion_lat": 0.0, "lat": 38.9197565, "name": "2681f091283b4809e6e7ff6bf4ea14b6", "fusion_lon": 0.0, "bike_id": "2681f091283b4809e6e7ff6bf4ea14b6", "is_disabled": 0, "is_reserved": 0}, {"rental_uris": {"ios": "https://dc.lft.to/lastmile_qr_scan", "android": "https://dc.lft.to/lastmile_qr_scan"}, "lon": -77.115202, "type": "electric_bike", "fusion_lat": 0.0, "lat": 38.85491366666667, "name": "3258ed408c49a28780a26862e8faed7f", "fusion_lon": 0.0, "bike_id": "3258ed408c49a28780a26862e8faed7f", "is_disabled": 0, "is_reserved": 0}, {"rental_uris": {"ios": "https://dc.lft.to/lastmile_qr_scan", "android": "https://dc.lft.to/lastmile_qr_scan"}, "lon": -77.0073065, "type": "electric_scooter", "fusion_lat": 0.0, "lat": 38.878369666666664, "name": "d3d65b7b53dd01115aa1def86cd65f69", "fusion_lon": 0.0, "bike_id": "d3d65b7b53dd01115aa1def86cd65f69", "is_disabled": 0, "is_reserved": 0}, {"rental_uris": {"ios": "https://dc.lft.to/lastmile_qr_scan", "android": "https://dc.lft.to/lastmile_qr_scan"}, "lon": -77.02384516666666, "type": "electric_scooter", "fusion_lat": 0.0, "lat": 38.93767283333333, "name": "ed3ded5292365ce55f07acf4945c2253", "fusion_lon": 0.0, "bike_id": "ed3ded5292365ce55f07acf4945c2253", "is_disabled": 0, "is_reserved": 0}, {"rental_uris": {"ios": "https://dc.lft.to/lastmile_qr_scan", "android": "https://dc.lft.to/lastmile_qr_scan"}, "lon": -77.01210316666666, "type": "electric_scooter", "fusion_lat": 0.0, "lat": 38.921241333333334, "name": "1fea5c0956ac9ca3a33a3a6a20a1f8d7", "fusion_lon": 0.0, "bike_id": "1fea5c0956ac9ca3a33a3a6a20a1f8d7", "is_disabled": 0, "is_reserved": 0}, {"rental_uris": {"ios": "https://dc.lft.to/lastmile_qr_scan", "android": "https://dc.lft.to/lastmile_qr_scan"}, "lon": -77.03190116666667, "type": "electric_scooter", "fusion_lat": 0.0, "lat": 38.91482516666667, "name": "6308aa2a909d0c8fafb47d44a4dfc4ea", "fusion_lon": 0.0, "bike_id": "6308aa2a909d0c8fafb47d44a4dfc4ea", "is_disabled": 0, "is_reserved": 0}, {"rental_uris": {"ios": "https://dc.lft.to/lastmile_qr_scan", "android": "https://dc.lft.to/lastmile_qr_scan"}, "lon": -77.0573955, "type": "electric_scooter", "fusion_lat": 0.0, "lat": 38.9339785, "name": "e92bcc4347803acb69ff375b53b471d4", "fusion_lon": 0.0, "bike_id": "e92bcc4347803acb69ff375b53b471d4", "is_disabled": 0, "is_reserved": 0}, {"rental_uris": {"ios": "https://dc.lft.to/lastmile_qr_scan", "android": "https://dc.lft.to/lastmile_qr_scan"}, "lon": -77.0322005, "type": "electric_scooter", "fusion_lat": 0.0, "lat": 38.91997416666667, "name": "51592c5d326898d0f224eb9c07f8ac19", "fusion_lon": 0.0, "bike_id": "51592c5d326898d0f224eb9c07f8ac19", "is_disabled": 0, "is_reserved": 0}, {"rental_uris": {"ios": "https://dc.lft.to/lastmile_qr_scan", "android": "https://dc.lft.to/lastmile_qr_scan"}, "lon": -77.04802766666667, "type": "electric_scooter", "fusion_lat": 0.0, "lat": 38.916442333333336, "name": "6529f919921d2989c52f71e9218b5f17", "fusion_lon": 0.0, "bike_id": "6529f919921d2989c52f71e9218b5f17", "is_disabled": 0, "is_reserved": 0}, {"rental_uris": {"ios": "https://dc.lft.to/lastmile_qr_scan", "android": "https://dc.lft.to/lastmile_qr_scan"}, "lon": -77.03189933333333, "type": "electric_scooter", "fusion_lat": 0.0, "lat": 38.88572633333333, "name": "ff6cb2e23fd69ce5e69cb675068e5b91", "fusion_lon": 0.0, "bike_id": "ff6cb2e23fd69ce5e69cb675068e5b91", "is_disabled": 0, "is_reserved": 0}, {"rental_uris": {"ios": "https://dc.lft.to/lastmile_qr_scan", "android": "https://dc.lft.to/lastmile_qr_scan"}, "lon": -76.95752016666667, "type": "electric_scooter", "fusion_lat": 0.0, "lat": 38.884294833333335, "name": "4eb8a01013677504daa08c9780b66abd", "fusion_lon": 0.0, "bike_id": "4eb8a01013677504daa08c9780b66abd", "is_disabled": 0, "is_reserved": 0}, {"rental_uris": {"ios": "https://dc.lft.to/lastmile_qr_scan", "android": "https://dc.lft.to/lastmile_qr_scan"}, "lon": -77.03282583333333, "type": "electric_scooter", "fusion_lat": 0.0, "lat": 38.934909166666664, "name": "4d0e0831c9697a63a3be2967dd693eaf", "fusion_lon": 0.0, "bike_id": "4d0e0831c9697a63a3be2967dd693eaf", "is_disabled": 0, "is_reserved": 0}, {"rental_uris": {"ios": "https://dc.lft.to/lastmile_qr_scan", "android": "https://dc.lft.to/lastmile_qr_scan"}, "lon": -77.03404433333333, "type": "electric_scooter", "fusion_lat": 0.0, "lat": 38.92269616666667, "name": "4f5e697dc5649ce3cf08a4d63f68c0dc", "fusion_lon": 0.0, "bike_id": "4f5e697dc5649ce3cf08a4d63f68c0dc", "is_disabled": 0, "is_reserved": 0}, {"rental_uris": {"ios": "https://dc.lft.to/lastmile_qr_scan", "android": "https://dc.lft.to/lastmile_qr_scan"}, "lon": -77.05494933333334, "type": "electric_scooter", "fusion_lat": 0.0, "lat": 38.9296725, "name": "cc941fa7f0d57ebe89770346739e98ea", "fusion_lon": 0.0, "bike_id": "cc941fa7f0d57ebe89770346739e98ea", "is_disabled": 0, "is_reserved": 0}, {"rental_uris": {"ios": "https://dc.lft.to/lastmile_qr_scan", "android": "https://dc.lft.to/lastmile_qr_scan"}, "lon": -77.04334733333333, "type": "electric_scooter", "fusion_lat": 0.0, "lat": 38.896683, "name": "754f3569a6693ace0da6a0459cf6f59e", "fusion_lon": 0.0, "bike_id": "754f3569a6693ace0da6a0459cf6f59e", "is_disabled": 0, "is_reserved": 0}, {"rental_uris": {"ios": "https://dc.lft.to/lastmile_qr_scan", "android": "https://dc.lft.to/lastmile_qr_scan"}, "lon": -77.12503416666667, "type": "electric_bike", "fusion_lat": 0.0, "lat": 39.02425516666667, "name": "9189170a38f9d9fb2e6504cf6a6e9722", "fusion_lon": 0.0, "bike_id": "9189170a38f9d9fb2e6504cf6a6e9722", "is_disabled": 0, "is_reserved": 0}, {"rental_uris": {"ios": "https://dc.lft.to/lastmile_qr_scan", "android": "https://dc.lft.to/lastmile_qr_scan"}, "lon": -77.0328055, "type": "electric_scooter", "fusion_lat": 0.0, "lat": 38.9377195, "name": "a915f1764d2791865a8895c99455f291", "fusion_lon": 0.0, "bike_id": "a915f1764d2791865a8895c99455f291", "is_disabled": 0, "is_reserved": 0}, {"rental_uris": {"ios": "https://dc.lft.to/lastmile_qr_scan", "android": "https://dc.lft.to/lastmile_qr_scan"}, "lon": -77.027156, "type": "electric_scooter", "fusion_lat": 0.0, "lat": 38.906889666666665, "name": "6dc14d8b82fee9c8a042f1013c0657f3", "fusion_lon": 0.0, "bike_id": "6dc14d8b82fee9c8a042f1013c0657f3", "is_disabled": 0, "is_reserved": 0}, {"rental_uris": {"ios": "https://dc.lft.to/lastmile_qr_scan", "android": "https://dc.lft.to/lastmile_qr_scan"}, "lon": -77.020061, "type": "electric_scooter", "fusion_lat": 0.0, "lat": 38.88574283333333, "name": "af802eb3cf31550ff6e5fbc2989c0d4f", "fusion_lon": 0.0, "bike_id": "af802eb3cf31550ff6e5fbc2989c0d4f", "is_disabled": 0, "is_reserved": 0}, {"rental_uris": {"ios": "https://dc.lft.to/lastmile_qr_scan", "android": "https://dc.lft.to/lastmile_qr_scan"}, "lon": -77.078032, "type": "electric_scooter", "fusion_lat": 0.0, "lat": 38.940848333333335, "name": "6a3ddd7f5e3dca65abd1295c34f02ad6", "fusion_lon": 0.0, "bike_id": "6a3ddd7f5e3dca65abd1295c34f02ad6", "is_disabled": 0, "is_reserved": 0}, {"rental_uris": {"ios": "https://dc.lft.to/lastmile_qr_scan", "android": "https://dc.lft.to/lastmile_qr_scan"}, "lon": -77.00714333333333, "type": "electric_scooter", "fusion_lat": 0.0, "lat": 38.913462, "name": "69606038b5c737840199aa0f71d9a4cf", "fusion_lon": 0.0, "bike_id": "69606038b5c737840199aa0f71d9a4cf", "is_disabled": 0, "is_reserved": 0}, {"rental_uris": {"ios": "https://dc.lft.to/lastmile_qr_scan", "android": "https://dc.lft.to/lastmile_qr_scan"}, "lon": -77.01600033333334, "type": "electric_scooter", "fusion_lat": 0.0, "lat": 38.896165, "name": "d0c3fa3bef0f2b377a00e2997cbc61ec", "fusion_lon": 0.0, "bike_id": "d0c3fa3bef0f2b377a00e2997cbc61ec", "is_disabled": 0, "is_reserved": 0}, {"rental_uris": {"ios": "https://dc.lft.to/lastmile_qr_scan", "android": "https://dc.lft.to/lastmile_qr_scan"}, "lon": -77.05268033333333, "type": "electric_scooter", "fusion_lat": 0.0, "lat": 38.9101705, "name": "18127f5faf1ad67f46a9eb97a65012b5", "fusion_lon": 0.0, "bike_id": "18127f5faf1ad67f46a9eb97a65012b5", "is_disabled": 0, "is_reserved": 0}, {"rental_uris": {"ios": "https://dc.lft.to/lastmile_qr_scan", "android": "https://dc.lft.to/lastmile_qr_scan"}, "lon": -76.92993916666667, "type": "electric_bike", "fusion_lat": 0.0, "lat": 38.887958, "name": "f2f58991b936737e5fcebc36504dac00", "fusion_lon": 0.0, "bike_id": "f2f58991b936737e5fcebc36504dac00", "is_disabled": 0, "is_reserved": 0}, {"rental_uris": {"ios": "https://dc.lft.to/lastmile_qr_scan", "android": "https://dc.lft.to/lastmile_qr_scan"}, "lon": -76.93952016666667, "type": "electric_scooter", "fusion_lat": 0.0, "lat": 38.89414716666667, "name": "b430d08416d851b5b1878c6dec67eeff", "fusion_lon": 0.0, "bike_id": "b430d08416d851b5b1878c6dec67eeff", "is_disabled": 0, "is_reserved": 0}, {"rental_uris": {"ios": "https://dc.lft.to/lastmile_qr_scan", "android": "https://dc.lft.to/lastmile_qr_scan"}, "lon": -77.04932883333333, "type": "electric_scooter", "fusion_lat": 0.0, "lat": 38.896055833333335, "name": "c16ae5405a74e5de6625e301fe42eb06", "fusion_lon": 0.0, "bike_id": "c16ae5405a74e5de6625e301fe42eb06", "is_disabled": 0, "is_reserved": 0}, {"rental_uris": {"ios": "https://dc.lft.to/lastmile_qr_scan", "android": "https://dc.lft.to/lastmile_qr_scan"}, "lon": -77.04003633333333, "type": "electric_scooter", "fusion_lat": 0.0, "lat": 38.9324895, "name": "6b813fab3cf59b095b263628af75b62c", "fusion_lon": 0.0, "bike_id": "6b813fab3cf59b095b263628af75b62c", "is_disabled": 0, "is_reserved": 0}, {"rental_uris": {"ios": "https://dc.lft.to/lastmile_qr_scan", "android": "https://dc.lft.to/lastmile_qr_scan"}, "lon": -77.03725916666667, "type": "electric_scooter", "fusion_lat": 0.0, "lat": 38.91043366666667, "name": "cd4d9db7dc7db3e8d613f3e6b4b321b2", "fusion_lon": 0.0, "bike_id": "cd4d9db7dc7db3e8d613f3e6b4b321b2", "is_disabled": 0, "is_reserved": 0}, {"rental_uris": {"ios": "https://dc.lft.to/lastmile_qr_scan", "android": "https://dc.lft.to/lastmile_qr_scan"}, "lon": -77.00585216666667, "type": "electric_scooter", "fusion_lat": 0.0, "lat": 38.9054145, "name": "703b7e7d19a3d3d8d00c871b72447d69", "fusion_lon": 0.0, "bike_id": "703b7e7d19a3d3d8d00c871b72447d69", "is_disabled": 0, "is_reserved": 0}, {"rental_uris": {"ios": "https://dc.lft.to/lastmile_qr_scan", "android": "https://dc.lft.to/lastmile_qr_scan"}, "lon": -77.048124, "type": "electric_scooter", "fusion_lat": 0.0, "lat": 38.920335666666666, "name": "cb8e276f0d38a9bfed369e6bac6be494", "fusion_lon": 0.0, "bike_id": "cb8e276f0d38a9bfed369e6bac6be494", "is_disabled": 0, "is_reserved": 0}, {"rental_uris": {"ios": "https://dc.lft.to/lastmile_qr_scan", "android": "https://dc.lft.to/lastmile_qr_scan"}, "lon": -76.996634, "type": "electric_scooter", "fusion_lat": 0.0, "lat": 38.90032883333333, "name": "f6c53272a87c920a40deb149784f4fa7", "fusion_lon": 0.0, "bike_id": "f6c53272a87c920a40deb149784f4fa7", "is_disabled": 0, "is_reserved": 0}, {"rental_uris": {"ios": "https://dc.lft.to/lastmile_qr_scan", "android": "https://dc.lft.to/lastmile_qr_scan"}, "lon": -76.98590733333333, "type": "electric_scooter", "fusion_lat": 0.0, "lat": 38.899243166666665, "name": "59acab307324357ebb439547f37feab2", "fusion_lon": 0.0, "bike_id": "59acab307324357ebb439547f37feab2", "is_disabled": 0, "is_reserved": 0}, {"rental_uris": {"ios": "https://dc.lft.to/lastmile_qr_scan", "android": "https://dc.lft.to/lastmile_qr_scan"}, "lon": -76.99819083333334, "type": "electric_bike", "fusion_lat": 0.0, "lat": 38.84438866666667, "name": "9268c126500d0ac6baba2a3615a75c72", "fusion_lon": 0.0, "bike_id": "9268c126500d0ac6baba2a3615a75c72", "is_disabled": 0, "is_reserved": 0}, {"rental_uris": {"ios": "https://dc.lft.to/lastmile_qr_scan", "android": "https://dc.lft.to/lastmile_qr_scan"}, "lon": -77.0318925, "type": "electric_scooter", "fusion_lat": 0.0, "lat": 38.91533283333333, "name": "77442bf3a133db2d0b27cf31934fe939", "fusion_lon": 0.0, "bike_id": "77442bf3a133db2d0b27cf31934fe939", "is_disabled": 0, "is_reserved": 0}, {"rental_uris": {"ios": "https://dc.lft.to/lastmile_qr_scan", "android": "https://dc.lft.to/lastmile_qr_scan"}, "lon": -77.02974533333334, "type": "electric_scooter", "fusion_lat": 0.0, "lat": 38.907207166666666, "name": "05dd7bd72e1f2481b91add7ee633d7f9", "fusion_lon": 0.0, "bike_id": "05dd7bd72e1f2481b91add7ee633d7f9", "is_disabled": 0, "is_reserved": 0}, {"rental_uris": {"ios": "https://dc.lft.to/lastmile_qr_scan", "android": "https://dc.lft.to/lastmile_qr_scan"}, "lon": -77.02333416666667, "type": "electric_scooter", "fusion_lat": 0.0, "lat": 38.9305205, "name": "1bdaa53a5b7b8cdb3fab5d82f0a77896", "fusion_lon": 0.0, "bike_id": "1bdaa53a5b7b8cdb3fab5d82f0a77896", "is_disabled": 0, "is_reserved": 0}, {"rental_uris": {"ios": "https://dc.lft.to/lastmile_qr_scan", "android": "https://dc.lft.to/lastmile_qr_scan"}, "lon": -77.00067533333333, "type": "electric_scooter", "fusion_lat": 0.0, "lat": 38.92554283333333, "name": "74bf9d6051b0b87891a735a689e8d099", "fusion_lon": 0.0, "bike_id": "74bf9d6051b0b87891a735a689e8d099", "is_disabled": 0, "is_reserved": 0}, {"rental_uris": {"ios": "https://dc.lft.to/lastmile_qr_scan", "android": "https://dc.lft.to/lastmile_qr_scan"}, "lon": -77.0055425, "type": "electric_scooter", "fusion_lat": 0.0, "lat": 38.878887166666665, "name": "160fab37aca7888caa55fcd8a7a79a33", "fusion_lon": 0.0, "bike_id": "160fab37aca7888caa55fcd8a7a79a33", "is_disabled": 0, "is_reserved": 0}, {"rental_uris": {"ios": "https://dc.lft.to/lastmile_qr_scan", "android": "https://dc.lft.to/lastmile_qr_scan"}, "lon": -77.03183933333334, "type": "electric_scooter", "fusion_lat": 0.0, "lat": 38.904329, "name": "ffb264cc2132f7e66c3a243f47037d41", "fusion_lon": 0.0, "bike_id": "ffb264cc2132f7e66c3a243f47037d41", "is_disabled": 0, "is_reserved": 0}, {"rental_uris": {"ios": "https://dc.lft.to/lastmile_qr_scan", "android": "https://dc.lft.to/lastmile_qr_scan"}, "lon": -77.199071, "type": "electric_bike", "fusion_lat": 0.0, "lat": 38.87528283333333, "name": "51327454310b838bc7d2084db9255f78", "fusion_lon": 0.0, "bike_id": "51327454310b838bc7d2084db9255f78", "is_disabled": 0, "is_reserved": 0}, {"rental_uris": {"ios": "https://dc.lft.to/lastmile_qr_scan", "android": "https://dc.lft.to/lastmile_qr_scan"}, "lon": -77.04608166666667, "type": "electric_scooter", "fusion_lat": 0.0, "lat": 38.919121, "name": "c5f2cdf39fde63bee1da1ebaf1643635", "fusion_lon": 0.0, "bike_id": "c5f2cdf39fde63bee1da1ebaf1643635", "is_disabled": 0, "is_reserved": 0}, {"rental_uris": {"ios": "https://dc.lft.to/lastmile_qr_scan", "android": "https://dc.lft.to/lastmile_qr_scan"}, "lon": -77.15001533333333, "type": "electric_bike", "fusion_lat": 0.0, "lat": 39.094634, "name": "4dbf1b407aaa30b8cb2ee68e64ec4361", "fusion_lon": 0.0, "bike_id": "4dbf1b407aaa30b8cb2ee68e64ec4361", "is_disabled": 0, "is_reserved": 0}, {"rental_uris": {"ios": "https://dc.lft.to/lastmile_qr_scan", "android": "https://dc.lft.to/lastmile_qr_scan"}, "lon": -76.93369133333333, "type": "electric_scooter", "fusion_lat": 0.0, "lat": 38.89916016666667, "name": "6490b402f87131028e5431939a3f28b6", "fusion_lon": 0.0, "bike_id": "6490b402f87131028e5431939a3f28b6", "is_disabled": 0, "is_reserved": 0}, {"rental_uris": {"ios": "https://dc.lft.to/lastmile_qr_scan", "android": "https://dc.lft.to/lastmile_qr_scan"}, "lon": -77.064697, "type": "electric_bike", "fusion_lat": 0.0, "lat": 38.973837333333336, "name": "7d1996fdb6869f00c0eeb80332e25346", "fusion_lon": 0.0, "bike_id": "7d1996fdb6869f00c0eeb80332e25346", "is_disabled": 0, "is_reserved": 0}, {"rental_uris": {"ios": "https://dc.lft.to/lastmile_qr_scan", "android": "https://dc.lft.to/lastmile_qr_scan"}, "lon": -77.03810216666666, "type": "electric_scooter", "fusion_lat": 0.0, "lat": 38.9311065, "name": "fd924c47c1f7faba1eca8c8be80b62c4", "fusion_lon": 0.0, "bike_id": "fd924c47c1f7faba1eca8c8be80b62c4", "is_disabled": 0, "is_reserved": 0}, {"rental_uris": {"ios": "https://dc.lft.to/lastmile_qr_scan", "android": "https://dc.lft.to/lastmile_qr_scan"}, "lon": -77.0962145, "type": "electric_bike", "fusion_lat": 0.0, "lat": 38.84572716666667, "name": "ce1e431650ac116c17f75fdda029a44d", "fusion_lon": 0.0, "bike_id": "ce1e431650ac116c17f75fdda029a44d", "is_disabled": 0, "is_reserved": 0}, {"rental_uris": {"ios": "https://dc.lft.to/lastmile_qr_scan", "android": "https://dc.lft.to/lastmile_qr_scan"}, "lon": -77.03183583333333, "type": "electric_scooter", "fusion_lat": 0.0, "lat": 38.92011733333333, "name": "32f286f8810dcb84982f8fc90968ef06", "fusion_lon": 0.0, "bike_id": "32f286f8810dcb84982f8fc90968ef06", "is_disabled": 0, "is_reserved": 0}, {"rental_uris": {"ios": "https://dc.lft.to/lastmile_qr_scan", "android": "https://dc.lft.to/lastmile_qr_scan"}, "lon": -77.04618733333334, "type": "electric_bike", "fusion_lat": 0.0, "lat": 38.99907116666667, "name": "2ecd1ded882fdc608333e6ca488c39e0", "fusion_lon": 0.0, "bike_id": "2ecd1ded882fdc608333e6ca488c39e0", "is_disabled": 0, "is_reserved": 0}, {"rental_uris": {"ios": "https://dc.lft.to/lastmile_qr_scan", "android": "https://dc.lft.to/lastmile_qr_scan"}, "lon": -77.00130933333334, "type": "electric_scooter", "fusion_lat": 0.0, "lat": 38.92445933333333, "name": "d99d56ad75f02865e35ffded00fa8c8c", "fusion_lon": 0.0, "bike_id": "d99d56ad75f02865e35ffded00fa8c8c", "is_disabled": 0, "is_reserved": 0}, {"rental_uris": {"ios": "https://dc.lft.to/lastmile_qr_scan", "android": "https://dc.lft.to/lastmile_qr_scan"}, "lon": -77.06419, "type": "electric_bike", "fusion_lat": 0.0, "lat": 38.905118, "name": "6e31c4fd7d68f416e8f591af48d72f4c", "fusion_lon": 0.0, "bike_id": "6e31c4fd7d68f416e8f591af48d72f4c", "is_disabled": 0, "is_reserved": 0}, {"rental_uris": {"ios": "https://dc.lft.to/lastmile_qr_scan", "android": "https://dc.lft.to/lastmile_qr_scan"}, "lon": -77.03860483333334, "type": "electric_scooter", "fusion_lat": 0.0, "lat": 38.9077615, "name": "47c914d5c543512ec5604e63b968b155", "fusion_lon": 0.0, "bike_id": "47c914d5c543512ec5604e63b968b155", "is_disabled": 0, "is_reserved": 0}, {"rental_uris": {"ios": "https://dc.lft.to/lastmile_qr_scan", "android": "https://dc.lft.to/lastmile_qr_scan"}, "lon": -76.92707833333333, "type": "electric_scooter", "fusion_lat": 0.0, "lat": 38.88766533333333, "name": "0cccd9afc1c71d1ca80d46355b938be0", "fusion_lon": 0.0, "bike_id": "0cccd9afc1c71d1ca80d46355b938be0", "is_disabled": 0, "is_reserved": 0}, {"rental_uris": {"ios": "https://dc.lft.to/lastmile_qr_scan", "android": "https://dc.lft.to/lastmile_qr_scan"}, "lon": -77.02226866666666, "type": "electric_scooter", "fusion_lat": 0.0, "lat": 38.89219083333333, "name": "f9d8aebae5d7e85d5202c51bc7d2c183", "fusion_lon": 0.0, "bike_id": "f9d8aebae5d7e85d5202c51bc7d2c183", "is_disabled": 0, "is_reserved": 0}, {"rental_uris": {"ios": "https://dc.lft.to/lastmile_qr_scan", "android": "https://dc.lft.to/lastmile_qr_scan"}, "lon": -76.9890585, "type": "electric_scooter", "fusion_lat": 0.0, "lat": 38.866903666666666, "name": "be38ded2a26af12f5fef9528afec5cfb", "fusion_lon": 0.0, "bike_id": "be38ded2a26af12f5fef9528afec5cfb", "is_disabled": 0, "is_reserved": 0}, {"rental_uris": {"ios": "https://dc.lft.to/lastmile_qr_scan", "android": "https://dc.lft.to/lastmile_qr_scan"}, "lon": -77.06995666666667, "type": "electric_bike", "fusion_lat": 0.0, "lat": 38.95503583333333, "name": "7b473de19cd8539f581411c0905a98ad", "fusion_lon": 0.0, "bike_id": "7b473de19cd8539f581411c0905a98ad", "is_disabled": 0, "is_reserved": 0}, {"rental_uris": {"ios": "https://dc.lft.to/lastmile_qr_scan", "android": "https://dc.lft.to/lastmile_qr_scan"}, "lon": -77.03662733333333, "type": "electric_scooter", "fusion_lat": 0.0, "lat": 38.92210383333333, "name": "d1664deedc11256bd6818164f7991611", "fusion_lon": 0.0, "bike_id": "d1664deedc11256bd6818164f7991611", "is_disabled": 0, "is_reserved": 0}, {"rental_uris": {"ios": "https://dc.lft.to/lastmile_qr_scan", "android": "https://dc.lft.to/lastmile_qr_scan"}, "lon": -77.0098365, "type": "electric_scooter", "fusion_lat": 0.0, "lat": 38.872903666666666, "name": "ea741191afadec9a236823628f577a29", "fusion_lon": 0.0, "bike_id": "ea741191afadec9a236823628f577a29", "is_disabled": 0, "is_reserved": 0}, {"rental_uris": {"ios": "https://dc.lft.to/lastmile_qr_scan", "android": "https://dc.lft.to/lastmile_qr_scan"}, "lon": -77.03561233333333, "type": "electric_scooter", "fusion_lat": 0.0, "lat": 38.91799916666667, "name": "4d1817c805f6e63cecb1c720a5c8e3fb", "fusion_lon": 0.0, "bike_id": "4d1817c805f6e63cecb1c720a5c8e3fb", "is_disabled": 0, "is_reserved": 0}, {"rental_uris": {"ios": "https://dc.lft.to/lastmile_qr_scan", "android": "https://dc.lft.to/lastmile_qr_scan"}, "lon": -77.066309, "type": "electric_scooter", "fusion_lat": 0.0, "lat": 38.928039166666665, "name": "157589ea2da44560dcb1d4d9802100db", "fusion_lon": 0.0, "bike_id": "157589ea2da44560dcb1d4d9802100db", "is_disabled": 0, "is_reserved": 0}, {"rental_uris": {"ios": "https://dc.lft.to/lastmile_qr_scan", "android": "https://dc.lft.to/lastmile_qr_scan"}, "lon": -77.10778916666666, "type": "electric_bike", "fusion_lat": 0.0, "lat": 38.89218, "name": "c271d1f8362abb5f4d45810d15fdc310", "fusion_lon": 0.0, "bike_id": "c271d1f8362abb5f4d45810d15fdc310", "is_disabled": 0, "is_reserved": 0}, {"rental_uris": {"ios": "https://dc.lft.to/lastmile_qr_scan", "android": "https://dc.lft.to/lastmile_qr_scan"}, "lon": -77.036515, "type": "electric_scooter", "fusion_lat": 0.0, "lat": 38.90274216666667, "name": "a7b22e35d2e6ca0dd980adc6f0e1441c", "fusion_lon": 0.0, "bike_id": "a7b22e35d2e6ca0dd980adc6f0e1441c", "is_disabled": 0, "is_reserved": 0}, {"rental_uris": {"ios": "https://dc.lft.to/lastmile_qr_scan", "android": "https://dc.lft.to/lastmile_qr_scan"}, "lon": -77.04224183333334, "type": "electric_scooter", "fusion_lat": 0.0, "lat": 38.90611616666666, "name": "4d95058145c7e64d9bada04227e0e4bb", "fusion_lon": 0.0, "bike_id": "4d95058145c7e64d9bada04227e0e4bb", "is_disabled": 0, "is_reserved": 0}, {"rental_uris": {"ios": "https://dc.lft.to/lastmile_qr_scan", "android": "https://dc.lft.to/lastmile_qr_scan"}, "lon": -76.97883966666667, "type": "electric_scooter", "fusion_lat": 0.0, "lat": 38.90418783333333, "name": "1e5e05ff02a31a5337fafcb8d3ce6b2f", "fusion_lon": 0.0, "bike_id": "1e5e05ff02a31a5337fafcb8d3ce6b2f", "is_disabled": 0, "is_reserved": 0}, {"rental_uris": {"ios": "https://dc.lft.to/lastmile_qr_scan", "android": "https://dc.lft.to/lastmile_qr_scan"}, "lon": -77.06348783333334, "type": "electric_scooter", "fusion_lat": 0.0, "lat": 38.94450766666667, "name": "9f6b82ba8323490cb6caa7b4d16927c5", "fusion_lon": 0.0, "bike_id": "9f6b82ba8323490cb6caa7b4d16927c5", "is_disabled": 0, "is_reserved": 0}, {"rental_uris": {"ios": "https://dc.lft.to/lastmile_qr_scan", "android": "https://dc.lft.to/lastmile_qr_scan"},