{"data": {"bikes": [{"rental_uris": {"ios": "https://dc.lft.to/lastmile_qr_scan", "android": "https://dc.lft.to/lastmile_qr_scan"}, "type": "electric_scooter", "name": "4c1f89a7f402e59c2428340aadeaef91", "is_reserved": 0, "lon": -77.01433333333334, "is_disabled": 0, "fusion_lat": 0.0, "lat": 38.887438, "bike_id": "4c1f89a7f402e59c2428340aadeaef91", "fusion_lon": 0.0}, {"rental_uris": {"ios": "https://dc.lft.to/lastmile_qr_scan", "android": "https://dc.lft.to/lastmile_qr_scan"}, "type": "electric_scooter", "name": "384de76ca34cfed3cdb6a5e1e098928f", "is_reserved": 0, "lon": -77.01211516666666, "is_disabled": 0, "fusion_lat": 0.0, "lat": 38.90006366666667, "bike_id": "384de76ca34cfed3cdb6a5e1e098928f", "fusion_lon": 0.0}, {"rental_uris": {"ios": "https://dc.lft.to/lastmile_qr_scan", "android": "https://dc.lft.to/lastmile_qr_scan"}, "type": "electric_scooter", "name": "33636c2912736360be2755d4fb44ad86", "is_reserved": 0, "lon": -77.02830183333333, "is_disabled": 0, "fusion_lat": 0.0, "lat": 38.892359, "bike_id": "33636c2912736360be2755d4fb44ad86", "fusion_lon": 0.0}, {"rental_uris": {"ios": "https://dc.lft.to/lastmile_qr_scan", "android": "https://dc.lft.to/lastmile_qr_scan"}, "type": "electric_scooter", "name": "abe97d2195b3902fb43407d24c4d521c", "is_reserved": 0, "lon": -77.03277366666667, "is_disabled": 0, "fusion_lat": 0.0, "lat": 38.919906833333336, "bike_id": "abe97d2195b3902fb43407d24c4d521c", "fusion_lon": 0.0}, {"rental_uris": {"ios": "https://dc.lft.to/lastmile_qr_scan", "android": "https://dc.lft.to/lastmile_qr_scan"}, "type": "electric_scooter", "name": "93d68873be36d3adba7b14da56a0a74c", "is_reserved": 0, "lon": -77.04513533333333, "is_disabled": 0, "fusion_lat": 0.0, "lat": 38.919081166666665, "bike_id": "93d68873be36d3adba7b14da56a0a74c", "fusion_lon": 0.0}, {"rental_uris": {"ios": "https://dc.lft.to/lastmile_qr_scan", "android": "https://dc.lft.to/lastmile_qr_scan"}, "type": "electric_scooter", "name": "6d9d416a5fb7d67a5ad071bdd790ef1f", "is_reserved": 0, "lon": -77.03266666666667, "is_disabled": 0, "fusion_lat": 0.0, "lat": 38.910319666666666, "bike_id": "6d9d416a5fb7d67a5ad071bdd790ef1f", "fusion_lon": 0.0}, {"rental_uris": {"ios": "https://dc.lft.to/lastmile_qr_scan", "android": "https://dc.lft.to/lastmile_qr_scan"}, "type": "electric_scooter", "name": "2db2e94799eac8028578191c191fcfcb", "is_reserved": 0, "lon": -77.03908066666666, "is_disabled": 0, "fusion_lat": 0.0, "lat": 38.914242, "bike_id": "2db2e94799eac8028578191c191fcfcb", "fusion_lon": 0.0}, {"rental_uris": {"ios": "https://dc.lft.to/lastmile_qr_scan", "android": "https://dc.lft.to/lastmile_qr_scan"}, "type": "electric_scooter", "name": "42acc142cf78ecccccf5ff9e00b981e4", "is_reserved": 0, "lon": -77.031774, "is_disabled": 0, "fusion_lat": 0.0, "lat": 38.918279166666665, "bike_id": "42acc142cf78ecccccf5ff9e00b981e4", "fusion_lon": 0.0}, {"rental_uris": {"ios": "https://dc.lft.to/lastmile_qr_scan", "android": "https://dc.lft.to/lastmile_qr_scan"}, "type": "electric_scooter", "name": "133abc70bd1421f0084e7bfabd0ede14", "is_reserved": 0, "lon": -77.0363215, "is_disabled": 0, "fusion_lat": 0.0, "lat": 38.925937833333336, "bike_id": "133abc70bd1421f0084e7bfabd0ede14", "fusion_lon": 0.0}, {"rental_uris": {"ios": "https://dc.lft.to/lastmile_qr_scan", "android": "https://dc.lft.to/lastmile_qr_scan"}, "type": "electric_scooter", "name": "ef40a7dba6beb789a2d59232134f73c1", "is_reserved": 0, "lon": -77.04370316666666, "is_disabled": 0, "fusion_lat": 0.0, "lat": 38.93155333333333, "bike_id": "ef40a7dba6beb789a2d59232134f73c1", "fusion_lon": 0.0}, {"rental_uris": {"ios": "https://dc.lft.to/lastmile_qr_scan", "android": "https://dc.lft.to/lastmile_qr_scan"}, "type": "electric_scooter", "name": "8e917890813f7f45c6be6ce9d85b1d70", "is_reserved": 0, "lon": -77.056358, "is_disabled": 0, "fusion_lat": 0.0, "lat": 38.93594783333333, "bike_id": "8e917890813f7f45c6be6ce9d85b1d70", "fusion_lon": 0.0}, {"rental_uris": {"ios": "https://dc.lft.to/lastmile_qr_scan", "android": "https://dc.lft.to/lastmile_qr_scan"}, "type": "electric_scooter", "name": "16e03f16655c3cba55f656d9b786f890", "is_reserved": 0, "lon": -77.02724283333333, "is_disabled": 0, "fusion_lat": 0.0, "lat": 38.910633, "bike_id": "16e03f16655c3cba55f656d9b786f890", "fusion_lon": 0.0}, {"rental_uris": {"ios": "https://dc.lft.to/lastmile_qr_scan", "android": "https://dc.lft.to/lastmile_qr_scan"}, "type": "electric_scooter", "name": "f8f256095b5a58a3dc0fcab9be65c997", "is_reserved": 0, "lon": -77.02087916666666, "is_disabled": 0, "fusion_lat": 0.0, "lat": 38.929145166666665, "bike_id": "f8f256095b5a58a3dc0fcab9be65c997", "fusion_lon": 0.0}, {"rental_uris": {"ios": "https://dc.lft.to/lastmile_qr_scan", "android": "https://dc.lft.to/lastmile_qr_scan"}, "type": "electric_scooter", "name": "4906e117bd2cb9a466118bcdcd268793", "is_reserved": 0, "lon": -77.06112283333333, "is_disabled": 0, "fusion_lat": 0.0, "lat": 38.912827166666666, "bike_id": "4906e117bd2cb9a466118bcdcd268793", "fusion_lon": 0.0}, {"rental_uris": {"ios": "https://dc.lft.to/lastmile_qr_scan", "android": "https://dc.lft.to/lastmile_qr_scan"}, "type": "electric_scooter", "name": "143b814f24069092427db8e976692b02", "is_reserved": 0, "lon": -77.06112683333333, "is_disabled": 0, "fusion_lat": 0.0, "lat": 38.90376833333333, "bike_id": "143b814f24069092427db8e976692b02", "fusion_lon": 0.0}, {"rental_uris": {"ios": "https://dc.lft.to/lastmile_qr_scan", "android": "https://dc.lft.to/lastmile_qr_scan"}, "type": "electric_scooter", "name": "6d5e55d0ded69ce7fd1c8817377e47f6", "is_reserved": 0, "lon": -77.00301583333334, "is_disabled": 0, "fusion_lat": 0.0, "lat": 38.877201, "bike_id": "6d5e55d0ded69ce7fd1c8817377e47f6", "fusion_lon": 0.0}, {"rental_uris": {"ios": "https://dc.lft.to/lastmile_qr_scan", "android": "https://dc.lft.to/lastmile_qr_scan"}, "type": "electric_scooter", "name": "0efbfb450a73b66a4f5c0de18f74f35b", "is_reserved": 0, "lon": -77.00349316666667, "is_disabled": 0, "fusion_lat": 0.0, "lat": 38.876752, "bike_id": "0efbfb450a73b66a4f5c0de18f74f35b", "fusion_lon": 0.0}, {"rental_uris": {"ios": "https://dc.lft.to/lastmile_qr_scan", "android": "https://dc.lft.to/lastmile_qr_scan"}, "type": "electric_scooter", "name": "f2a826503337eeaaacc3ebbe7d20ed9b", "is_reserved": 0, "lon": -77.00253983333333, "is_disabled": 0, "fusion_lat": 0.0, "lat": 38.902604833333335, "bike_id": "f2a826503337eeaaacc3ebbe7d20ed9b", "fusion_lon": 0.0}, {"rental_uris": {"ios": "https://dc.lft.to/lastmile_qr_scan", "android": "https://dc.lft.to/lastmile_qr_scan"}, "type": "electric_scooter", "name": "aa02ead53fea89b5a3e87a090d930f5d", "is_reserved": 0, "lon": -77.01237033333334, "is_disabled": 0, "fusion_lat": 0.0, "lat": 38.881055833333335, "bike_id": "aa02ead53fea89b5a3e87a090d930f5d", "fusion_lon": 0.0}, {"rental_uris": {"ios": "https://dc.lft.to/lastmile_qr_scan", "android": "https://dc.lft.to/lastmile_qr_scan"}, "type": "electric_scooter", "name": "4ec92176507d29da1547c052b006c83e", "is_reserved": 0, "lon": -77.02972133333333, "is_disabled": 0, "fusion_lat": 0.0, "lat": 38.923159166666665, "bike_id": "4ec92176507d29da1547c052b006c83e", "fusion_lon": 0.0}, {"rental_uris": {"ios": "https://dc.lft.to/lastmile_qr_scan", "android": "https://dc.lft.to/lastmile_qr_scan"}, "type": "electric_scooter", "name": "16a7016dccb7a1891aeb6b102050794d", "is_reserved": 0, "lon": -77.02164483333334, "is_disabled": 0, "fusion_lat": 0.0, "lat": 38.925041666666665, "bike_id": "16a7016dccb7a1891aeb6b102050794d", "fusion_lon": 0.0}, {"rental_uris": {"ios": "https://dc.lft.to/lastmile_qr_scan", "android": "https://dc.lft.to/lastmile_qr_scan"}, "type": "electric_scooter", "name": "8bf8f8c80539ed2ad7a2529c79da1c0c", "is_reserved": 0, "lon": -77.05355216666666, "is_disabled": 0, "fusion_lat": 0.0, "lat": 38.898792666666665, "bike_id": "8bf8f8c80539ed2ad7a2529c79da1c0c", "fusion_lon": 0.0}, {"rental_uris": {"ios": "https://dc.lft.to/lastmile_qr_scan", "android": "https://dc.lft.to/lastmile_qr_scan"}, "type": "electric_bike", "name": "a438fcb46116e2f5802e3fc3d3e9fdc7", "is_reserved": 0, "lon": -77.07239316666667, "is_disabled": 0, "fusion_lat": 0.0, "lat": 38.813614333333334, "bike_id": "a438fcb46116e2f5802e3fc3d3e9fdc7", "fusion_lon": 0.0}, {"rental_uris": {"ios": "https://dc.lft.to/lastmile_qr_scan", "android": "https://dc.lft.to/lastmile_qr_scan"}, "type": "electric_scooter", "name": "a0b03b3e70f1b0814949b385d5de0963", "is_reserved": 0, "lon": -77.031946, "is_disabled": 0, "fusion_lat": 0.0, "lat": 38.91636416666667, "bike_id": "a0b03b3e70f1b0814949b385d5de0963", "fusion_lon": 0.0}, {"rental_uris": {"ios": "https://dc.lft.to/lastmile_qr_scan", "android": "https://dc.lft.to/lastmile_qr_scan"}, "type": "electric_scooter", "name": "441d8869b36650d3da8dda4a4464396a", "is_reserved": 0, "lon": -77.03355666666667, "is_disabled": 0, "fusion_lat": 0.0, "lat": 38.92154566666667, "bike_id": "441d8869b36650d3da8dda4a4464396a", "fusion_lon": 0.0}, {"rental_uris": {"ios": "https://dc.lft.to/lastmile_qr_scan", "android": "https://dc.lft.to/lastmile_qr_scan"}, "type": "electric_scooter", "name": "bb9742a5eae5dd98ed4253b259d6d88e", "is_reserved": 0, "lon": -77.01504366666667, "is_disabled": 0, "fusion_lat": 0.0, "lat": 38.901453833333335, "bike_id": "bb9742a5eae5dd98ed4253b259d6d88e", "fusion_lon": 0.0}, {"rental_uris": {"ios": "https://dc.lft.to/lastmile_qr_scan", "android": "https://dc.lft.to/lastmile_qr_scan"}, "type": "electric_scooter", "name": "a5580b44eaf55bd6beeddab472e9bbc8", "is_reserved": 0, "lon": -77.00699016666667, "is_disabled": 0, "fusion_lat": 0.0, "lat": 38.905937, "bike_id": "a5580b44eaf55bd6beeddab472e9bbc8", "fusion_lon": 0.0}, {"rental_uris": {"ios": "https://dc.lft.to/lastmile_qr_scan", "android": "https://dc.lft.to/lastmile_qr_scan"}, "type": "electric_scooter", "name": "b8a4006c885a52393dcf599ea5b5e190", "is_reserved": 0, "lon": -77.0375985, "is_disabled": 0, "fusion_lat": 0.0, "lat": 38.925505666666666, "bike_id": "b8a4006c885a52393dcf599ea5b5e190", "fusion_lon": 0.0}, {"rental_uris": {"ios": "https://dc.lft.to/lastmile_qr_scan", "android": "https://dc.lft.to/lastmile_qr_scan"}, "type": "electric_scooter", "name": "f39c547e4aac5e22516e552615d82e85", "is_reserved": 0, "lon": -77.044058, "is_disabled": 0, "fusion_lat": 0.0, "lat": 38.925895, "bike_id": "f39c547e4aac5e22516e552615d82e85", "fusion_lon": 0.0}, {"rental_uris": {"ios": "https://dc.lft.to/lastmile_qr_scan", "android": "https://dc.lft.to/lastmile_qr_scan"}, "type": "electric_scooter", "name": "952950ec93ba871f8cfc796ad3b14f2b", "is_reserved": 0, "lon": -77.01918983333333, "is_disabled": 0, "fusion_lat": 0.0, "lat": 38.9023985, "bike_id": "952950ec93ba871f8cfc796ad3b14f2b", "fusion_lon": 0.0}, {"rental_uris": {"ios": "https://dc.lft.to/lastmile_qr_scan", "android": "https://dc.lft.to/lastmile_qr_scan"}, "type": "electric_scooter", "name": "0a9764e98c09ff4a269ef291897fdba1", "is_reserved": 0, "lon": -76.990109, "is_disabled": 0, "fusion_lat": 0.0, "lat": 38.90396283333333, "bike_id": "0a9764e98c09ff4a269ef291897fdba1", "fusion_lon": 0.0}, {"rental_uris": {"ios": "https://dc.lft.to/lastmile_qr_scan", "android": "https://dc.lft.to/lastmile_qr_scan"}, "type": "electric_scooter", "name": "80b856a67f60e9801ab59a31b474d7a0", "is_reserved": 0, "lon": -77.03508016666666, "is_disabled": 0, "fusion_lat": 0.0, "lat": 38.918776, "bike_id": "80b856a67f60e9801ab59a31b474d7a0", "fusion_lon": 0.0}, {"rental_uris": {"ios": "https://dc.lft.to/lastmile_qr_scan", "android": "https://dc.lft.to/lastmile_qr_scan"}, "type": "electric_scooter", "name": "10690d70cc526e84aebaea389fb670c2", "is_reserved": 0, "lon": -77.03713483333334, "is_disabled": 0, "fusion_lat": 0.0, "lat": 38.926463, "bike_id": "10690d70cc526e84aebaea389fb670c2", "fusion_lon": 0.0}, {"rental_uris": {"ios": "https://dc.lft.to/lastmile_qr_scan", "android": "https://dc.lft.to/lastmile_qr_scan"}, "type": "electric_scooter", "name": "927ce2a4e37485886bac0d2c8180009d", "is_reserved": 0, "lon": -77.000697, "is_disabled": 0, "fusion_lat": 0.0, "lat": 38.87686683333333, "bike_id": "927ce2a4e37485886bac0d2c8180009d", "fusion_lon": 0.0}, {"rental_uris": {"ios": "https://dc.lft.to/lastmile_qr_scan", "android": "https://dc.lft.to/lastmile_qr_scan"}, "type": "electric_scooter", "name": "f367172f0b2658d361ed2b37d4d1b601", "is_reserved": 0, "lon": -76.94323383333334, "is_disabled": 0, "fusion_lat": 0.0, "lat": 38.879179666666666, "bike_id": "f367172f0b2658d361ed2b37d4d1b601", "fusion_lon": 0.0}, {"rental_uris": {"ios": "https://dc.lft.to/lastmile_qr_scan", "android": "https://dc.lft.to/lastmile_qr_scan"}, "type": "electric_scooter", "name": "74c5eb35a5e3a7720edb0ee473f78025", "is_reserved": 0, "lon": -77.02807666666666, "is_disabled": 0, "fusion_lat": 0.0, "lat": 38.923723833333334, "bike_id": "74c5eb35a5e3a7720edb0ee473f78025", "fusion_lon": 0.0}, {"rental_uris": {"ios": "https://dc.lft.to/lastmile_qr_scan", "android": "https://dc.lft.to/lastmile_qr_scan"}, "type": "electric_scooter", "name": "5fb5e90a0e3c3cacab30cd477c3cf868", "is_reserved": 0, "lon": -77.04495883333334, "is_disabled": 0, "fusion_lat": 0.0, "lat": 38.89732016666667, "bike_id": "5fb5e90a0e3c3cacab30cd477c3cf868", "fusion_lon": 0.0}, {"rental_uris": {"ios": "https://dc.lft.to/lastmile_qr_scan", "android": "https://dc.lft.to/lastmile_qr_scan"}, "type": "electric_scooter", "name": "a496b3ac068f4ef8fc1ab69e52e15774", "is_reserved": 0, "lon": -77.017017, "is_disabled": 0, "fusion_lat": 0.0, "lat": 38.904721333333335, "bike_id": "a496b3ac068f4ef8fc1ab69e52e15774", "fusion_lon": 0.0}, {"rental_uris": {"ios": "https://dc.lft.to/lastmile_qr_scan", "android": "https://dc.lft.to/lastmile_qr_scan"}, "type": "electric_scooter", "name": "5c3ebe10604f5f0c79fe9073ce6879d0", "is_reserved": 0, "lon": -77.017657, "is_disabled": 0, "fusion_lat": 0.0, "lat": 38.88617216666667, "bike_id": "5c3ebe10604f5f0c79fe9073ce6879d0", "fusion_lon": 0.0}, {"rental_uris": {"ios": "https://dc.lft.to/lastmile_qr_scan", "android": "https://dc.lft.to/lastmile_qr_scan"}, "type": "electric_scooter", "name": "52c6d11f1810bae277119d1b02f8f775", "is_reserved": 0, "lon": -77.02591316666667, "is_disabled": 0, "fusion_lat": 0.0, "lat": 38.91400066666667, "bike_id": "52c6d11f1810bae277119d1b02f8f775", "fusion_lon": 0.0}, {"rental_uris": {"ios": "https://dc.lft.to/lastmile_qr_scan", "android": "https://dc.lft.to/lastmile_qr_scan"}, "type": "electric_bike", "name": "3b51138a6132c16d2931906bb598bda1", "is_reserved": 0, "lon": -76.98820716666667, "is_disabled": 0, "fusion_lat": 0.0, "lat": 38.84270983333333, "bike_id": "3b51138a6132c16d2931906bb598bda1", "fusion_lon": 0.0}, {"rental_uris": {"ios": "https://dc.lft.to/lastmile_qr_scan", "android": "https://dc.lft.to/lastmile_qr_scan"}, "type": "electric_scooter", "name": "b8554174b4f478c2a2d37c39759311f1", "is_reserved": 0, "lon": -76.983387, "is_disabled": 0, "fusion_lat": 0.0, "lat": 38.9009565, "bike_id": "b8554174b4f478c2a2d37c39759311f1", "fusion_lon": 0.0}, {"rental_uris": {"ios": "https://dc.lft.to/lastmile_qr_scan", "android": "https://dc.lft.to/lastmile_qr_scan"}, "type": "electric_scooter", "name": "8660b53d94c16b10a441656c63570889", "is_reserved": 0, "lon": -77.04644133333333, "is_disabled": 0, "fusion_lat": 0.0, "lat": 38.897313, "bike_id": "8660b53d94c16b10a441656c63570889", "fusion_lon": 0.0}, {"rental_uris": {"ios": "https://dc.lft.to/lastmile_qr_scan", "android": "https://dc.lft.to/lastmile_qr_scan"}, "type": "electric_scooter", "name": "df1eae2774a8aae9417fcdb90a7d9748", "is_reserved": 0, "lon": -77.03821233333333, "is_disabled": 0, "fusion_lat": 0.0, "lat": 38.91483516666667, "bike_id": "df1eae2774a8aae9417fcdb90a7d9748", "fusion_lon": 0.0}, {"rental_uris": {"ios": "https://dc.lft.to/lastmile_qr_scan", "android": "https://dc.lft.to/lastmile_qr_scan"}, "type": "electric_scooter", "name": "813251b1298b7f8d7b8a24a46c65f3ca", "is_reserved": 0, "lon": -77.02814016666666, "is_disabled": 0, "fusion_lat": 0.0, "lat": 38.899683, "bike_id": "813251b1298b7f8d7b8a24a46c65f3ca", "fusion_lon": 0.0}, {"rental_uris": {"ios": "https://dc.lft.to/lastmile_qr_scan", "android": "https://dc.lft.to/lastmile_qr_scan"}, "type": "electric_scooter", "name": "02918e64a00da91501fd8b839c42761e", "is_reserved": 0, "lon": -77.02291166666667, "is_disabled": 0, "fusion_lat": 0.0, "lat": 38.9183955, "bike_id": "02918e64a00da91501fd8b839c42761e", "fusion_lon": 0.0}, {"rental_uris": {"ios": "https://dc.lft.to/lastmile_qr_scan", "android": "https://dc.lft.to/lastmile_qr_scan"}, "type": "electric_scooter", "name": "e15ac02a9a9f5fa22a286fe7ff7d8d10", "is_reserved": 0, "lon": -76.9970425, "is_disabled": 0, "fusion_lat": 0.0, "lat": 38.8876325, "bike_id": "e15ac02a9a9f5fa22a286fe7ff7d8d10", "fusion_lon": 0.0}, {"rental_uris": {"ios": "https://dc.lft.to/lastmile_qr_scan", "android": "https://dc.lft.to/lastmile_qr_scan"}, "type": "electric_scooter", "name": "28d2b16c608a1e256b39c6f99315bec7", "is_reserved": 0, "lon": -77.074851, "is_disabled": 0, "fusion_lat": 0.0, "lat": 38.962028, "bike_id": "28d2b16c608a1e256b39c6f99315bec7", "fusion_lon": 0.0}, {"rental_uris": {"ios": "https://dc.lft.to/lastmile_qr_scan", "android": "https://dc.lft.to/lastmile_qr_scan"}, "type": "electric_scooter", "name": "d5bb0fa39874d84b0b097e1051879b83", "is_reserved": 0, "lon": -77.03622866666667, "is_disabled": 0, "fusion_lat": 0.0, "lat": 38.90367966666667, "bike_id": "d5bb0fa39874d84b0b097e1051879b83", "fusion_lon": 0.0}, {"rental_uris": {"ios": "https://dc.lft.to/lastmile_qr_scan", "android": "https://dc.lft.to/lastmile_qr_scan"}, "type": "electric_scooter", "name": "c59db41eef41a71a5890ee263f339676", "is_reserved": 0, "lon": -77.03277366666667, "is_disabled": 0, "fusion_lat": 0.0, "lat": 38.9357195, "bike_id": "c59db41eef41a71a5890ee263f339676", "fusion_lon": 0.0}, {"rental_uris": {"ios": "https://dc.lft.to/lastmile_qr_scan", "android": "https://dc.lft.to/lastmile_qr_scan"}, "type": "electric_scooter", "name": "596f2c78713c1bc67bb631ed12aa7d11", "is_reserved": 0, "lon": -77.02610166666666, "is_disabled": 0, "fusion_lat": 0.0, "lat": 38.90811383333333, "bike_id": "596f2c78713c1bc67bb631ed12aa7d11", "fusion_lon": 0.0}, {"rental_uris": {"ios": "https://dc.lft.to/lastmile_qr_scan", "android": "https://dc.lft.to/lastmile_qr_scan"}, "type": "electric_scooter", "name": "426e647cb411db7a5662cef0b0aca210", "is_reserved": 0, "lon": -77.03462283333333, "is_disabled": 0, "fusion_lat": 0.0, "lat": 38.90835966666667, "bike_id": "426e647cb411db7a5662cef0b0aca210", "fusion_lon": 0.0}, {"rental_uris": {"ios": "https://dc.lft.to/lastmile_qr_scan", "android": "https://dc.lft.to/lastmile_qr_scan"}, "type": "electric_scooter", "name": "fc322442fce08a280c9e28c2ebc96cec", "is_reserved": 0, "lon": -77.0199715, "is_disabled": 0, "fusion_lat": 0.0, "lat": 38.89965083333333, "bike_id": "fc322442fce08a280c9e28c2ebc96cec", "fusion_lon": 0.0}, {"rental_uris": {"ios": "https://dc.lft.to/lastmile_qr_scan", "android": "https://dc.lft.to/lastmile_qr_scan"}, "type": "electric_scooter", "name": "bd0c11ee84137c401f189348b6db4491", "is_reserved": 0, "lon": -77.03464, "is_disabled": 0, "fusion_lat": 0.0, "lat": 38.909275, "bike_id": "bd0c11ee84137c401f189348b6db4491", "fusion_lon": 0.0}, {"rental_uris": {"ios": "https://dc.lft.to/lastmile_qr_scan", "android": "https://dc.lft.to/lastmile_qr_scan"}, "type": "electric_scooter", "name": "bbf857e509550321238bad77b03f863e", "is_reserved": 0, "lon": -77.07451616666667, "is_disabled": 0, "fusion_lat": 0.0, "lat": 38.937818666666665, "bike_id": "bbf857e509550321238bad77b03f863e", "fusion_lon": 0.0}, {"rental_uris": {"ios": "https://dc.lft.to/lastmile_qr_scan", "android": "https://dc.lft.to/lastmile_qr_scan"}, "type": "electric_scooter", "name": "34012c16e57e733e78ba86cccf3aa91e", "is_reserved": 0, "lon": -77.036415, "is_disabled": 0, "fusion_lat": 0.0, "lat": 38.918603833333336, "bike_id": "34012c16e57e733e78ba86cccf3aa91e", "fusion_lon": 0.0}, {"rental_uris": {"ios": "https://dc.lft.to/lastmile_qr_scan", "android": "https://dc.lft.to/lastmile_qr_scan"}, "type": "electric_scooter", "name": "a15fd6d1148898960c0fb58323e19bc1", "is_reserved": 0, "lon": -77.029098, "is_disabled": 0, "fusion_lat": 0.0, "lat": 38.9529595, "bike_id": "a15fd6d1148898960c0fb58323e19bc1", "fusion_lon": 0.0}, {"rental_uris": {"ios": "https://dc.lft.to/lastmile_qr_scan", "android": "https://dc.lft.to/lastmile_qr_scan"}, "type": "electric_scooter", "name": "8d79339471801fc912d76435382e9cdc", "is_reserved": 0, "lon": -77.038164, "is_disabled": 0, "fusion_lat": 0.0, "lat": 38.92567066666667, "bike_id": "8d79339471801fc912d76435382e9cdc", "fusion_lon": 0.0}, {"rental_uris": {"ios": "https://dc.lft.to/lastmile_qr_scan", "android": "https://dc.lft.to/lastmile_qr_scan"}, "type": "electric_scooter", "name": "3e3590522731227e89137bf56a6c2737", "is_reserved": 0, "lon": -77.04292916666667, "is_disabled": 0, "fusion_lat": 0.0, "lat": 38.9043245, "bike_id": "3e3590522731227e89137bf56a6c2737", "fusion_lon": 0.0}, {"rental_uris": {"ios": "https://dc.lft.to/lastmile_qr_scan", "android": "https://dc.lft.to/lastmile_qr_scan"}, "type": "electric_scooter", "name": "7f8c356b0b66edb16a252d1044a571f6", "is_reserved": 0, "lon": -77.0440515, "is_disabled": 0, "fusion_lat": 0.0, "lat": 38.929452, "bike_id": "7f8c356b0b66edb16a252d1044a571f6", "fusion_lon": 0.0}, {"rental_uris": {"ios": "https://dc.lft.to/lastmile_qr_scan", "android": "https://dc.lft.to/lastmile_qr_scan"}, "type": "electric_bike", "name": "fa4dbd06d21187a886c676aefc7a1731", "is_reserved": 0, "lon": -77.00406233333334, "is_disabled": 0, "fusion_lat": 0.0, "lat": 38.9854285, "bike_id": "fa4dbd06d21187a886c676aefc7a1731", "fusion_lon": 0.0}, {"rental_uris": {"ios": "https://dc.lft.to/lastmile_qr_scan", "android": "https://dc.lft.to/lastmile_qr_scan"}, "type": "electric_scooter", "name": "a38e43bd22c967fc0b2242c86ee7d87f", "is_reserved": 0, "lon": -76.93210633333334, "is_disabled": 0, "fusion_lat": 0.0, "lat": 38.896709, "bike_id": "a38e43bd22c967fc0b2242c86ee7d87f", "fusion_lon": 0.0}, {"rental_uris": {"ios": "https://dc.lft.to/lastmile_qr_scan", "android": "https://dc.lft.to/lastmile_qr_scan"}, "type": "electric_scooter", "name": "058226648659fd48ad1b600dae238aff", "is_reserved": 0, "lon": -76.99938216666666, "is_disabled": 0, "fusion_lat": 0.0, "lat": 38.89167483333333, "bike_id": "058226648659fd48ad1b600dae238aff", "fusion_lon": 0.0}, {"rental_uris": {"ios": "https://dc.lft.to/lastmile_qr_scan", "android": "https://dc.lft.to/lastmile_qr_scan"}, "type": "electric_bike", "name": "96ba51e8da116ad4781c01298e12847c", "is_reserved": 0, "lon": -77.09818816666667, "is_disabled": 0, "fusion_lat": 0.0, "lat": 38.8502115, "bike_id": "96ba51e8da116ad4781c01298e12847c", "fusion_lon": 0.0}, {"rental_uris": {"ios": "https://dc.lft.to/lastmile_qr_scan", "android": "https://dc.lft.to/lastmile_qr_scan"}, "type": "electric_scooter", "name": "c8a3a02e952f04c9411d6dc19c00f8a7", "is_reserved": 0, "lon": -77.0256025, "is_disabled": 0, "fusion_lat": 0.0, "lat": 38.930952833333336, "bike_id": "c8a3a02e952f04c9411d6dc19c00f8a7", "fusion_lon": 0.0}, {"rental_uris": {"ios": "https://dc.lft.to/lastmile_qr_scan", "android": "https://dc.lft.to/lastmile_qr_scan"}, "type": "electric_scooter", "name": "c7582ae1ab190b8574cb0ee9125fa255", "is_reserved": 0, "lon": -77.04483166666667, "is_disabled": 0, "fusion_lat": 0.0, "lat": 38.918540666666665, "bike_id": "c7582ae1ab190b8574cb0ee9125fa255", "fusion_lon": 0.0}, {"rental_uris": {"ios": "https://dc.lft.to/lastmile_qr_scan", "android": "https://dc.lft.to/lastmile_qr_scan"}, "type": "electric_scooter", "name": "3c6739f6dc165cb5e1cd5bbda04d41b2", "is_reserved": 0, "lon": -77.0134475, "is_disabled": 0, "fusion_lat": 0.0, "lat": 38.896018, "bike_id": "3c6739f6dc165cb5e1cd5bbda04d41b2", "fusion_lon": 0.0}, {"rental_uris": {"ios": "https://dc.lft.to/lastmile_qr_scan", "android": "https://dc.lft.to/lastmile_qr_scan"}, "type": "electric_scooter", "name": "e8bcc2ad5aa0f3b34b30cf71906e50a9", "is_reserved": 0, "lon": -77.04230566666666, "is_disabled": 0, "fusion_lat": 0.0, "lat": 38.924291833333335, "bike_id": "e8bcc2ad5aa0f3b34b30cf71906e50a9", "fusion_lon": 0.0}, {"rental_uris": {"ios": "https://dc.lft.to/lastmile_qr_scan", "android": "https://dc.lft.to/lastmile_qr_scan"}, "type": "electric_scooter", "name": "ec786740c1b03f8e824cf423424b16c0", "is_reserved": 0, "lon": -77.02166033333333, "is_disabled": 0, "fusion_lat": 0.0, "lat": 38.9250175, "bike_id": "ec786740c1b03f8e824cf423424b16c0", "fusion_lon": 0.0}, {"rental_uris": {"ios": "https://dc.lft.to/lastmile_qr_scan", "android": "https://dc.lft.to/lastmile_qr_scan"}, "type": "electric_scooter", "name": "a01f1bc9261aa82143e08b9e41779cd2", "is_reserved": 0, "lon": -77.00728766666667, "is_disabled": 0, "fusion_lat": 0.0, "lat": 38.878358, "bike_id": "a01f1bc9261aa82143e08b9e41779cd2", "fusion_lon": 0.0}, {"rental_uris": {"ios": "https://dc.lft.to/lastmile_qr_scan", "android": "https://dc.lft.to/lastmile_qr_scan"}, "type": "electric_scooter", "name": "ab5ed919338e1677588a236f2ccacbec", "is_reserved": 0, "lon": -77.0272775, "is_disabled": 0, "fusion_lat": 0.0, "lat": 38.924840333333336, "bike_id": "ab5ed919338e1677588a236f2ccacbec", "fusion_lon": 0.0}, {"rental_uris": {"ios": "https://dc.lft.to/lastmile_qr_scan", "android": "https://dc.lft.to/lastmile_qr_scan"}, "type": "electric_scooter", "name": "7015c04400835759349f80dcc4db7534", "is_reserved": 0, "lon": -77.02450066666667, "is_disabled": 0, "fusion_lat": 0.0, "lat": 38.917765833333334, "bike_id": "7015c04400835759349f80dcc4db7534", "fusion_lon": 0.0}, {"rental_uris": {"ios": "https://dc.lft.to/lastmile_qr_scan", "android": "https://dc.lft.to/lastmile_qr_scan"}, "type": "electric_scooter", "name": "8cb8136b03b88c6b92b38af435e84082", "is_reserved": 0, "lon": -77.020833, "is_disabled": 0, "fusion_lat": 0.0, "lat": 38.92406883333334, "bike_id": "8cb8136b03b88c6b92b38af435e84082", "fusion_lon": 0.0}, {"rental_uris": {"ios": "https://dc.lft.to/lastmile_qr_scan", "android": "https://dc.lft.to/lastmile_qr_scan"}, "type": "electric_scooter", "name": "889165b05ca4d4400bb45f0735c96088", "is_reserved": 0, "lon": -77.04672516666666, "is_disabled": 0, "fusion_lat": 0.0, "lat": 38.892244, "bike_id": "889165b05ca4d4400bb45f0735c96088", "fusion_lon": 0.0}, {"rental_uris": {"ios": "https://dc.lft.to/lastmile_qr_scan", "android": "https://dc.lft.to/lastmile_qr_scan"}, "type": "electric_scooter", "name": "8622d2aefa48ebc49a03a4622beebdea", "is_reserved": 0, "lon": -76.98086566666667, "is_disabled": 0, "fusion_lat": 0.0, "lat": 38.90415383333333, "bike_id": "8622d2aefa48ebc49a03a4622beebdea", "fusion_lon": 0.0}, {"rental_uris": {"ios": "https://dc.lft.to/lastmile_qr_scan", "android": "https://dc.lft.to/lastmile_qr_scan"}, "type": "electric_bike", "name": "93296738abbfb75b10f1de12c9e954ea", "is_reserved": 0, "lon": -77.04355316666667, "is_disabled": 0, "fusion_lat": 0.0, "lat": 38.89723333333333, "bike_id": "93296738abbfb75b10f1de12c9e954ea", "fusion_lon": 0.0}, {"rental_uris": {"ios": "https://dc.lft.to/lastmile_qr_scan", "android": "https://dc.lft.to/lastmile_qr_scan"}, "type": "electric_scooter", "name": "3c41096be78bbe558584679333087d94", "is_reserved": 0, "lon": -77.01530133333333, "is_disabled": 0, "fusion_lat": 0.0, "lat": 38.887326333333334, "bike_id": "3c41096be78bbe558584679333087d94", "fusion_lon": 0.0}, {"rental_uris": {"ios": "https://dc.lft.to/lastmile_qr_scan", "android": "https://dc.lft.to/lastmile_qr_scan"}, "type": "electric_scooter", "name": "a761708f79c9d94fa663b8c9eba2e8bd", "is_reserved": 0, "lon": -77.0542205, "is_disabled": 0, "fusion_lat": 0.0, "lat": 38.92835566666667, "bike_id": "a761708f79c9d94fa663b8c9eba2e8bd", "fusion_lon": 0.0}, {"rental_uris": {"ios": "https://dc.lft.to/lastmile_qr_scan", "android": "https://dc.lft.to/lastmile_qr_scan"}, "type": "electric_scooter", "name": "2d96080aeb13102655b99eb10ab1a2f2", "is_reserved": 0, "lon": -77.02275516666667, "is_disabled": 0, "fusion_lat": 0.0, "lat": 38.92663483333333, "bike_id": "2d96080aeb13102655b99eb10ab1a2f2", "fusion_lon": 0.0}, {"rental_uris": {"ios": "https://dc.lft.to/lastmile_qr_scan", "android": "https://dc.lft.to/lastmile_qr_scan"}, "type": "electric_scooter", "name": "3b4c1dd5aaeb0be3bec240cd55b664f6", "is_reserved": 0, "lon": -77.02187483333333, "is_disabled": 0, "fusion_lat": 0.0, "lat": 38.878994, "bike_id": "3b4c1dd5aaeb0be3bec240cd55b664f6", "fusion_lon": 0.0}, {"rental_uris": {"ios": "https://dc.lft.to/lastmile_qr_scan", "android": "https://dc.lft.to/lastmile_qr_scan"}, "type": "electric_scooter", "name": "ffa08e3124d58010afc1a41029fc147c", "is_reserved": 0, "lon": -77.03475366666666, "is_disabled": 0, "fusion_lat": 0.0, "lat": 38.930347166666664, "bike_id": "ffa08e3124d58010afc1a41029fc147c", "fusion_lon": 0.0}, {"rental_uris": {"ios": "https://dc.lft.to/lastmile_qr_scan", "android": "https://dc.lft.to/lastmile_qr_scan"}, "type": "electric_scooter", "name": "689b2267763d7d3aa8caf011224d4092", "is_reserved": 0, "lon": -77.03974066666666, "is_disabled": 0, "fusion_lat": 0.0, "lat": 38.931491666666666, "bike_id": "689b2267763d7d3aa8caf011224d4092", "fusion_lon": 0.0}, {"rental_uris": {"ios": "https://dc.lft.to/lastmile_qr_scan", "android": "https://dc.lft.to/lastmile_qr_scan"}, "type": "electric_scooter", "name": "687edc38f81ddddd52e8754bbf5f7f26", "is_reserved": 0, "lon": -77.00628916666666, "is_disabled": 0, "fusion_lat": 0.0, "lat": 38.8717015, "bike_id": "687edc38f81ddddd52e8754bbf5f7f26", "fusion_lon": 0.0}, {"rental_uris": {"ios": "https://dc.lft.to/lastmile_qr_scan", "android": "https://dc.lft.to/lastmile_qr_scan"}, "type": "electric_scooter", "name": "469b8dd8fb65b9df0abcf687e0151159", "is_reserved": 0, "lon": -77.04082816666667, "is_disabled": 0, "fusion_lat": 0.0, "lat": 38.947872333333336, "bike_id": "469b8dd8fb65b9df0abcf687e0151159", "fusion_lon": 0.0}, {"rental_uris": {"ios": "https://dc.lft.to/lastmile_qr_scan", "android": "https://dc.lft.to/lastmile_qr_scan"}, "type": "electric_scooter", "name": "70dbc1d374e54b8cbd00694cf93838f2", "is_reserved": 0, "lon": -77.03665983333333, "is_disabled": 0, "fusion_lat": 0.0, "lat": 38.92129383333334, "bike_id": "70dbc1d374e54b8cbd00694cf93838f2", "fusion_lon": 0.0}, {"rental_uris": {"ios": "https://dc.lft.to/lastmile_qr_scan", "android": "https://dc.lft.to/lastmile_qr_scan"}, "type": "electric_scooter", "name": "04b20a04d75a68574417e9a9b631b432", "is_reserved": 0, "lon": -77.005783, "is_disabled": 0, "fusion_lat": 0.0, "lat": 38.878556833333334, "bike_id": "04b20a04d75a68574417e9a9b631b432", "fusion_lon": 0.0}, {"rental_uris": {"ios": "https://dc.lft.to/lastmile_qr_scan", "android": "https://dc.lft.to/lastmile_qr_scan"}, "type": "electric_bike", "name": "b854c0c4d6343c26d3092cb53dcb1823", "is_reserved": 0, "lon": -76.982431, "is_disabled": 0, "fusion_lat": 0.0, "lat": 38.952355833333336, "bike_id": "b854c0c4d6343c26d3092cb53dcb1823", "fusion_lon": 0.0}, {"rental_uris": {"ios": "https://dc.lft.to/lastmile_qr_scan", "android": "https://dc.lft.to/lastmile_qr_scan"}, "type": "electric_scooter", "name": "971f159784b736dcaa6f96ef24e963b1", "is_reserved": 0, "lon": -77.007427, "is_disabled": 0, "fusion_lat": 0.0, "lat": 38.916161, "bike_id": "971f159784b736dcaa6f96ef24e963b1", "fusion_lon": 0.0}, {"rental_uris": {"ios": "https://dc.lft.to/lastmile_qr_scan", "android": "https://dc.lft.to/lastmile_qr_scan"}, "type": "electric_scooter", "name": "437139a812fcacf3cb761a6e5ba7feee", "is_reserved": 0, "lon": -77.04578316666667, "is_disabled": 0, "fusion_lat": 0.0, "lat": 38.920705, "bike_id": "437139a812fcacf3cb761a6e5ba7feee", "fusion_lon": 0.0}, {"rental_uris": {"ios": "https://dc.lft.to/lastmile_qr_scan", "android": "https://dc.lft.to/lastmile_qr_scan"}, "type": "electric_scooter", "name": "fbb90895abf58ac9b1c35ef773a66506", "is_reserved": 0, "lon": -77.03821633333334, "is_disabled": 0, "fusion_lat": 0.0, "lat": 38.914047, "bike_id": "fbb90895abf58ac9b1c35ef773a66506", "fusion_lon": 0.0}, {"rental_uris": {"ios": "https://dc.lft.to/lastmile_qr_scan", "android": "https://dc.lft.to/lastmile_qr_scan"}, "type": "electric_scooter", "name": "830940eb8aa131c215db2b4777a090d5", "is_reserved": 0, "lon": -77.041768, "is_disabled": 0, "fusion_lat": 0.0, "lat": 38.916113833333334, "bike_id": "830940eb8aa131c215db2b4777a090d5", "fusion_lon": 0.0}, {"rental_uris": {"ios": "https://dc.lft.to/lastmile_qr_scan", "android": "https://dc.lft.to/lastmile_qr_scan"}, "type": "electric_scooter", "name": "1dcd3902a84f6a962c1d999b5555581b", "is_reserved": 0, "lon": -77.02421366666667, "is_disabled": 0, "fusion_lat": 0.0, "lat": 38.921398833333335, "bike_id": "1dcd3902a84f6a962c1d999b5555581b", "fusion_lon": 0.0}, {"rental_uris": {"ios": "https://dc.lft.to/lastmile_qr_scan", "android": "https://dc.lft.to/lastmile_qr_scan"}, "type": "electric_scooter", "name": "c0b57829d6b52f9b007e1631fe316f8b", "is_reserved": 0, "lon": -77.01961883333334, "is_disabled": 0, "fusion_lat": 0.0, "lat": 38.923255, "bike_id": "c0b57829d6b52f9b007e1631fe316f8b", "fusion_lon": 0.0}, {"rental_uris": {"ios": "https://dc.lft.to/lastmile_qr_scan", "android": "https://dc.lft.to/lastmile_qr_scan"}, "type": "electric_scooter", "name": "b2820d864392d6732682281142f45a3b", "is_reserved": 0, "lon": -76.98154466666666, "is_disabled": 0, "fusion_lat": 0.0, "lat": 38.899419333333334, "bike_id": "b2820d864392d6732682281142f45a3b", "fusion_lon": 0.0}, {"rental_uris": {"ios": "https://dc.lft.to/lastmile_qr_scan", "android": "https://dc.lft.to/lastmile_qr_scan"}, "type": "electric_bike", "name": "efdc68bfab429453564477c8d3501890", "is_reserved": 0, "lon": -76.980233, "is_disabled": 0, "fusion_lat": 0.0, "lat": 38.8531795, "bike_id": "efdc68bfab429453564477c8d3501890", "fusion_lon": 0.0}, {"rental_uris": {"ios": "https://dc.lft.to/lastmile_qr_scan", "android": "https://dc.lft.to/lastmile_qr_scan"}, "type": "electric_scooter", "name": "070e82344e3a23784c03afd664cfbc2c", "is_reserved": 0, "lon": -77.0320535, "is_disabled": 0, "fusion_lat": 0.0, "lat": 38.921809333333336, "bike_id": "070e82344e3a23784c03afd664cfbc2c", "fusion_lon": 0.0}, {"rental_uris": {"ios": "https://dc.lft.to/lastmile_qr_scan", "android": "https://dc.lft.to/lastmile_qr_scan"}, "type": "electric_scooter", "name": "72df70a7e82cda2e14c421009bc49220", "is_reserved": 0, "lon": -77.02901116666666, "is_disabled": 0, "fusion_lat": 0.0, "lat": 38.9404315, "bike_id": "72df70a7e82cda2e14c421009bc49220", "fusion_lon": 0.0}, {"rental_uris": {"ios": "https://dc.lft.to/lastmile_qr_scan", "android": "https://dc.lft.to/lastmile_qr_scan"}, "type": "electric_scooter", "name": "18befeb5bb87017302e30db469651b24", "is_reserved": 0, "lon": -77.01891266666667, "is_disabled": 0, "fusion_lat": 0.0, "lat": 38.89748633333333, "bike_id": "18befeb5bb87017302e30db469651b24", "fusion_lon": 0.0}, {"rental_uris": {"ios": "https://dc.lft.to/lastmile_qr_scan", "android": "https://dc.lft.to/lastmile_qr_scan"}, "type": "electric_scooter", "name": "845c391293edfd5ca9708a772a92a20d", "is_reserved": 0, "lon": -77.04376816666667, "is_disabled": 0, "fusion_lat": 0.0, "lat": 38.916538333333335, "bike_id": "845c391293edfd5ca9708a772a92a20d", "fusion_lon": 0.0}, {"rental_uris": {"ios": "https://dc.lft.to/lastmile_qr_scan", "android": "https://dc.lft.to/lastmile_qr_scan"}, "type": "electric_scooter", "name": "d47751a2a3fbd06415ff2744f5416eb1", "is_reserved": 0, "lon": -77.034744, "is_disabled": 0, "fusion_lat": 0.0, "lat": 38.908074166666665, "bike_id": "d47751a2a3fbd06415ff2744f5416eb1", "fusion_lon": 0.0}, {"rental_uris": {"ios": "https://dc.lft.to/lastmile_qr_scan", "android": "https://dc.lft.to/lastmile_qr_scan"}, "type": "electric_scooter", "name": "4147affff0f23c3e6c3decef34c435d0", "is_reserved": 0, "lon": -77.09350133333334, "is_disabled": 0, "fusion_lat": 0.0, "lat": 38.884029, "bike_id": "4147affff0f23c3e6c3decef34c435d0", "fusion_lon": 0.0}, {"rental_uris": {"ios": "https://dc.lft.to/lastmile_qr_scan", "android": "https://dc.lft.to/lastmile_qr_scan"}, "type": "electric_scooter", "name": "adc9c57bc78e290eb02c4aca9bdf3765", "is_reserved": 0, "lon": -77.0289015, "is_disabled": 0, "fusion_lat": 0.0, "lat": 38.907175, "bike_id": "adc9c57bc78e290eb02c4aca9bdf3765", "fusion_lon": 0.0}, {"rental_uris": {"ios": "https://dc.lft.to/lastmile_qr_scan", "android": "https://dc.lft.to/lastmile_qr_scan"}, "type": "electric_bike", "name": "ecab7d7b483ebb1520e4b1fa63714ae3", "is_reserved": 0, "lon": -76.94971816666667, "is_disabled": 0, "fusion_lat": 0.0, "lat": 38.8829785, "bike_id": "ecab7d7b483ebb1520e4b1fa63714ae3", "fusion_lon": 0.0}, {"rental_uris": {"ios": "https://dc.lft.to/lastmile_qr_scan", "android": "https://dc.lft.to/lastmile_qr_scan"}, "type": "electric_scooter", "name": "f7436bdffe8a8f1729944b8907e0c219", "is_reserved": 0, "lon": -77.02606416666667, "is_disabled": 0, "fusion_lat": 0.0, "lat": 38.92414466666666, "bike_id": "f7436bdffe8a8f1729944b8907e0c219", "fusion_lon": 0.0}, {"rental_uris": {"ios": "https://dc.lft.to/lastmile_qr_scan", "android": "https://dc.lft.to/lastmile_qr_scan"}, "type": "electric_scooter", "name": "17df7cf960510612eb28181a153f55d0", "is_reserved": 0, "lon": -76.98538033333334, "is_disabled": 0, "fusion_lat": 0.0, "lat": 38.912922, "bike_id": "17df7cf960510612eb28181a153f55d0", "fusion_lon": 0.0}, {"rental_uris": {"ios": "https://dc.lft.to/lastmile_qr_scan", "android": "https://dc.lft.to/lastmile_qr_scan"}, "type": "electric_scooter", "name": "86ed35f45ab73d4da403b7f5d4994f4e", "is_reserved": 0, "lon": -77.02938616666667, "is_disabled": 0, "fusion_lat": 0.0, "lat": 38.90418016666667, "bike_id": "86ed35f45ab73d4da403b7f5d4994f4e", "fusion_lon": 0.0}, {"rental_uris": {"ios": "https://dc.lft.to/lastmile_qr_scan", "android": "https://dc.lft.to/lastmile_qr_scan"}, "type": "electric_scooter", "name": "83ae06d9415035a882cf9fd28c02bbc4", "is_reserved": 0, "lon": -77.03366316666667, "is_disabled": 0, "fusion_lat": 0.0, "lat": 38.91107183333333, "bike_id": "83ae06d9415035a882cf9fd28c02bbc4", "fusion_lon": 0.0}, {"rental_uris": {"ios": "https://dc.lft.to/lastmile_qr_scan", "android": "https://dc.lft.to/lastmile_qr_scan"}, "type": "electric_bike", "name": "158886f1ac618f811d3c0c7e28398982", "is_reserved": 0, "lon": -77.05180083333333, "is_disabled": 0, "fusion_lat": 0.0, "lat": 38.844635, "bike_id": "158886f1ac618f811d3c0c7e28398982", "fusion_lon": 0.0}, {"rental_uris": {"ios": "https://dc.lft.to/lastmile_qr_scan", "android": "https://dc.lft.to/lastmile_qr_scan"}, "type": "electric_scooter", "name": "cf5702e5ac5a690aee3501a75e44122d", "is_reserved": 0, "lon": -77.02810733333334, "is_disabled": 0, "fusion_lat": 0.0, "lat": 38.89929683333333, "bike_id": "cf5702e5ac5a690aee3501a75e44122d", "fusion_lon": 0.0}, {"rental_uris": {"ios": "https://dc.lft.to/lastmile_qr_scan", "android": "https://dc.lft.to/lastmile_qr_scan"}, "type": "electric_scooter", "name": "e8ce381f97cccc220b65808503581b84", "is_reserved": 0, "lon": -77.04518866666666, "is_disabled": 0, "fusion_lat": 0.0, "lat": 38.92320683333333, "bike_id": "e8ce381f97cccc220b65808503581b84", "fusion_lon": 0.0}, {"rental_uris": {"ios": "https://dc.lft.to/lastmile_qr_scan", "android": "https://dc.lft.to/lastmile_qr_scan"}, "type": "electric_scooter", "name": "cd23a52c74eb8e002ee4315068fd1b6f", "is_reserved": 0, "lon": -77.06279666666667, "is_disabled": 0, "fusion_lat": 0.0, "lat": 38.91240583333333, "bike_id": "cd23a52c74eb8e002ee4315068fd1b6f", "fusion_lon": 0.0}, {"rental_uris": {"ios": "https://dc.lft.to/lastmile_qr_scan", "android": "https://dc.lft.to/lastmile_qr_scan"}, "type": "electric_scooter", "name": "7c06b9a315c71889b3ed3fc32852a956", "is_reserved": 0, "lon": -77.03870983333333, "is_disabled": 0, "fusion_lat": 0.0, "lat": 38.921507166666665, "bike_id": "7c06b9a315c71889b3ed3fc32852a956", "fusion_lon": 0.0}, {"rental_uris": {"ios": "https://dc.lft.to/lastmile_qr_scan", "android": "https://dc.lft.to/lastmile_qr_scan"}, "type": "electric_scooter", "name": "d2bc16c2da44dc882daf639b83c0f432", "is_reserved": 0, "lon": -77.03335416666667, "is_disabled": 0, "fusion_lat": 0.0, "lat": 38.919144333333335, "bike_id": "d2bc16c2da44dc882daf639b83c0f432", "fusion_lon": 0.0}, {"rental_uris": {"ios": "https://dc.lft.to/lastmile_qr_scan", "android": "https://dc.lft.to/lastmile_qr_scan"}, "type": "electric_scooter", "name": "2737d927da56493370c6d28171a412d9", "is_reserved": 0, "lon": -77.0436935, "is_disabled": 0, "fusion_lat": 0.0, "lat": 38.8922115, "bike_id": "2737d927da56493370c6d28171a412d9", "fusion_lon": 0.0}, {"rental_uris": {"ios": "https://dc.lft.to/lastmile_qr_scan", "android": "https://dc.lft.to/lastmile_qr_scan"}, "type": "electric_scooter", "name": "c77f35ca7685cf5ee5b577f05d08d705", "is_reserved": 0, "lon": -77.03441716666667, "is_disabled": 0, "fusion_lat": 0.0, "lat": 38.9180085, "bike_id": "c77f35ca7685cf5ee5b577f05d08d705", "fusion_lon": 0.0}, {"rental_uris": {"ios": "https://dc.lft.to/lastmile_qr_scan", "android": "https://dc.lft.to/lastmile_qr_scan"}, "type": "electric_scooter", "name": "3eda9b4e38818db009c7d0d3754963cd", "is_reserved": 0, "lon": -77.02108833333334, "is_disabled": 0, "fusion_lat": 0.0, "lat": 38.92687566666667, "bike_id": "3eda9b4e38818db009c7d0d3754963cd", "fusion_lon": 0.0}, {"rental_uris": {"ios": "https://dc.lft.to/lastmile_qr_scan", "android": "https://dc.lft.to/lastmile_qr_scan"}, "type": "electric_scooter", "name": "6334aaad382cb2b8749a44c0f5e7db08", "is_reserved": 0, "lon": -76.99507, "is_disabled": 0, "fusion_lat": 0.0, "lat": 38.90980883333334, "bike_id": "6334aaad382cb2b8749a44c0f5e7db08", "fusion_lon": 0.0}, {"rental_uris": {"ios": "https://dc.lft.to/lastmile_qr_scan", "android": "https://dc.lft.to/lastmile_qr_scan"}, "type": "electric_scooter", "name": "7cc352e70a51232397a323610ecbfff3", "is_reserved": 0, "lon": -76.9405945, "is_disabled": 0, "fusion_lat": 0.0, "lat": 38.8858605, "bike_id": "7cc352e70a51232397a323610ecbfff3", "fusion_lon": 0.0}, {"rental_uris": {"ios": "https://dc.lft.to/lastmile_qr_scan", "android": "https://dc.lft.to/lastmile_qr_scan"}, "type": "electric_scooter", "name": "c3f917be1caa89639e2b755f33bc745b", "is_reserved": 0, "lon": -77.023018, "is_disabled": 0, "fusion_lat": 0.0, "lat": 38.949295, "bike_id": "c3f917be1caa89639e2b755f33bc745b", "fusion_lon": 0.0}, {"rental_uris": {"ios": "https://dc.lft.to/lastmile_qr_scan", "android": "https://dc.lft.to/lastmile_qr_scan"}, "type": "electric_scooter", "name": "0ec8eeb8206ba27411a9b7d0449205d2", "is_reserved": 0, "lon": -77.07254, "is_disabled": 0, "fusion_lat": 0.0, "lat": 38.9343755, "bike_id": "0ec8eeb8206ba27411a9b7d0449205d2", "fusion_lon": 0.0}, {"rental_uris": {"ios": "https://dc.lft.to/lastmile_qr_scan", "android": "https://dc.lft.to/lastmile_qr_scan"}, "type": "electric_scooter", "name": "9c8584550ad14cc83a35fa0de1fe7285", "is_reserved": 0, "lon": -77.00477183333334, "is_disabled": 0, "fusion_lat": 0.0, "lat": 38.885097333333334, "bike_id": "9c8584550ad14cc83a35fa0de1fe7285", "fusion_lon": 0.0}, {"rental_uris": {"ios": "https://dc.lft.to/lastmile_qr_scan", "android": "https://dc.lft.to/lastmile_qr_scan"}, "type": "electric_scooter", "name": "63bd8e090e7576a088a7c666652e4fad", "is_reserved": 0, "lon": -77.02315683333333, "is_disabled": 0, "fusion_lat": 0.0, "lat": 38.938056333333336, "bike_id": "63bd8e090e7576a088a7c666652e4fad", "fusion_lon": 0.0}, {"rental_uris": {"ios": "https://dc.lft.to/lastmile_qr_scan", "android": "https://dc.lft.to/lastmile_qr_scan"}, "type": "electric_scooter", "name": "af397025cc7b71e816584e630c1d95f8", "is_reserved": 0, "lon": -77.03857316666667, "is_disabled": 0, "fusion_lat": 0.0, "lat": 38.912796166666666, "bike_id": "af397025cc7b71e816584e630c1d95f8", "fusion_lon": 0.0}, {"rental_uris": {"ios": "https://dc.lft.to/lastmile_qr_scan", "android": "https://dc.lft.to/lastmile_qr_scan"}, "type": "electric_scooter", "name": "a796771a65e959423f567f72680e39f3", "is_reserved": 0, "lon": -77.0329355, "is_disabled": 0, "fusion_lat": 0.0, "lat": 38.90437633333333, "bike_id": "a796771a65e959423f567f72680e39f3", "fusion_lon": 0.0}, {"rental_uris": {"ios": "https://dc.lft.to/lastmile_qr_scan", "android": "https://dc.lft.to/lastmile_qr_scan"}, "type": "electric_bike", "name": "26e46934251a2f966ad8adf9de62b30b", "is_reserved": 0, "lon": -76.9991225, "is_disabled": 0, "fusion_lat": 0.0, "lat": 38.864460333333334, "bike_id": "26e46934251a2f966ad8adf9de62b30b", "fusion_lon": 0.0}, {"rental_uris": {"ios": "https://dc.lft.to/lastmile_qr_scan", "android": "https://dc.lft.to/lastmile_qr_scan"}, "type": "electric_scooter", "name": "eff3d51d828c29abbdff762e3ec201ad", "is_reserved": 0, "lon": -77.02103416666667, "is_disabled": 0, "fusion_lat": 0.0, "lat": 38.94311833333333, "bike_id": "eff3d51d828c29abbdff762e3ec201ad", "fusion_lon": 0.0}, {"rental_uris": {"ios": "https://dc.lft.to/lastmile_qr_scan", "android": "https://dc.lft.to/lastmile_qr_scan"}, "type": "electric_scooter", "name": "f20bd5e03c710840167e205b6471c759", "is_reserved": 0, "lon": -77.05919266666666, "is_disabled": 0, "fusion_lat": 0.0, "lat": 38.905072, "bike_id": "f20bd5e03c710840167e205b6471c759", "fusion_lon": 0.0}, {"rental_uris": {"ios": "https://dc.lft.to/lastmile_qr_scan", "android": "https://dc.lft.to/lastmile_qr_scan"}, "type": "electric_scooter", "name": "8e66ba7b24b7652b2c039a7d42c8ad0f", "is_reserved": 0, "lon": -77.03649583333333, "is_disabled": 0, "fusion_lat": 0.0, "lat": 38.91049133333333, "bike_id": "8e66ba7b24b7652b2c039a7d42c8ad0f", "fusion_lon": 0.0}, {"rental_uris": {"ios": "https://dc.lft.to/lastmile_qr_scan", "android": "https://dc.lft.to/lastmile_qr_scan"}, "type": "electric_scooter", "name": "0f960ccbccc8d3f853e1601733ae21bd", "is_reserved": 0, "lon": -77.02005633333333, "is_disabled": 0, "fusion_lat": 0.0, "lat": 38.8813905, "bike_id": "0f960ccbccc8d3f853e1601733ae21bd", "fusion_lon": 0.0}, {"rental_uris": {"ios": "https://dc.lft.to/lastmile_qr_scan", "android": "https://dc.lft.to/lastmile_qr_scan"}, "type": "electric_scooter", "name": "8600cfb7a8639c6003688a3cc82bc1e3", "is_reserved": 0, "lon": -77.04229233333334, "is_disabled": 0, "fusion_lat": 0.0, "lat": 38.91107816666667, "bike_id": "8600cfb7a8639c6003688a3cc82bc1e3", "fusion_lon": 0.0}, {"rental_uris": {"ios": "https://dc.lft.to/lastmile_qr_scan", "android": "https://dc.lft.to/lastmile_qr_scan"}, "type": "electric_scooter", "name": "f90c37c677c89ca5353b464663732519", "is_reserved": 0, "lon": -77.00384483333333, "is_disabled": 0, "fusion_lat": 0.0, "lat": 38.879425, "bike_id": "f90c37c677c89ca5353b464663732519", "fusion_lon": 0.0}, {"rental_uris": {"ios": "https://dc.lft.to/lastmile_qr_scan", "android": "https://dc.lft.to/lastmile_qr_scan"}, "type": "electric_scooter", "name": "e44152e6b009a56a9f1547f73409f392", "is_reserved": 0, "lon": -77.01083883333334, "is_disabled": 0, "fusion_lat": 0.0, "lat": 38.91114316666667, "bike_id": "e44152e6b009a56a9f1547f73409f392", "fusion_lon": 0.0}, {"rental_uris": {"ios": "https://dc.lft.to/lastmile_qr_scan", "android": "https://dc.lft.to/lastmile_qr_scan"}, "type": "electric_bike", "name": "bf1cd6a5799630604a7b933d44e12378", "is_reserved": 0, "lon": -77.00409016666667, "is_disabled": 0, "fusion_lat": 0.0, "lat": 38.985253666666665, "bike_id": "bf1cd6a5799630604a7b933d44e12378", "fusion_lon": 0.0}, {"rental_uris": {"ios": "https://dc.lft.to/lastmile_qr_scan", "android": "https://dc.lft.to/lastmile_qr_scan"}, "type": "electric_scooter", "name": "9fd18b1b4cf1038d5ac68d7379b743e0", "is_reserved": 0, "lon": -77.00578866666666, "is_disabled": 0, "fusion_lat": 0.0, "lat": 38.905567833333336, "bike_id": "9fd18b1b4cf1038d5ac68d7379b743e0", "fusion_lon": 0.0}, {"rental_uris": {"ios": "https://dc.lft.to/lastmile_qr_scan", "android": "https://dc.lft.to/lastmile_qr_scan"}, "type": "electric_scooter", "name": "e4c14b16dafd603a14871006319b29fc", "is_reserved": 0, "lon": -77.05718583333334, "is_disabled": 0, "fusion_lat": 0.0, "lat": 38.9335805, "bike_id": "e4c14b16dafd603a14871006319b29fc", "fusion_lon": 0.0}, {"rental_uris": {"ios": "https://dc.lft.to/lastmile_qr_scan", "android": "https://dc.lft.to/lastmile_qr_scan"}, "type": "electric_scooter", "name": "3fc6b5d790c8124d5bbab2cb27991c61", "is_reserved": 0, "lon": -77.043771, "is_disabled": 0, "fusion_lat": 0.0, "lat": 38.9349705, "bike_id": "3fc6b5d790c8124d5bbab2cb27991c61", "fusion_lon": 0.0}, {"rental_uris": {"ios": "https://dc.lft.to/lastmile_qr_scan", "android": "https://dc.lft.to/lastmile_qr_scan"}, "type": "electric_scooter", "name": "15454d92b6ad48840c834f20cedb3308", "is_reserved": 0, "lon": -77.0329055, "is_disabled": 0, "fusion_lat": 0.0, "lat": 38.917095, "bike_id": "15454d92b6ad48840c834f20cedb3308", "fusion_lon": 0.0}, {"rental_uris": {"ios": "https://dc.lft.to/lastmile_qr_scan", "android": "https://dc.lft.to/lastmile_qr_scan"}, "type": "electric_scooter", "name": "8b10ccc5f4773db5e22705831d1a77b7", "is_reserved": 0, "lon": -77.04913083333334, "is_disabled": 0, "fusion_lat": 0.0, "lat": 38.900881, "bike_id": "8b10ccc5f4773db5e22705831d1a77b7", "fusion_lon": 0.0}, {"rental_uris": {"ios": "https://dc.lft.to/lastmile_qr_scan", "android": "https://dc.lft.to/lastmile_qr_scan"}, "type": "electric_scooter", "name": "30242ec8603ac5c18b58d074d2cd6aeb", "is_reserved": 0, "lon": -77.04368816666667, "is_disabled": 0, "fusion_lat": 0.0, "lat": 38.892231, "bike_id": "30242ec8603ac5c18b58d074d2cd6aeb", "fusion_lon": 0.0}, {"rental_uris": {"ios": "https://dc.lft.to/lastmile_qr_scan", "android": "https://dc.lft.to/lastmile_qr_scan"}, "type": "electric_bike", "name": "179d937e70444abe700855b0cab2e639", "is_reserved": 0, "lon": -77.12943983333334, "is_disabled": 0, "fusion_lat": 0.0, "lat": 38.865773, "bike_id": "179d937e70444abe700855b0cab2e639", "fusion_lon": 0.0}, {"rental_uris": {"ios": "https://dc.lft.to/lastmile_qr_scan", "android": "https://dc.lft.to/lastmile_qr_scan"}, "type": "electric_scooter", "name": "a62619678d60566047ea8a5404a6ef31", "is_reserved": 0, "lon": -77.02163033333333, "is_disabled": 0, "fusion_lat": 0.0, "lat": 38.925003833333335, "bike_id": "a62619678d60566047ea8a5404a6ef31", "fusion_lon": 0.0}, {"rental_uris": {"ios": "https://dc.lft.to/lastmile_qr_scan", "android": "https://dc.lft.to/lastmile_qr_scan"}, "type": "electric_scooter", "name": "95cf6e31ba6cb25743aa92f042d47040", "is_reserved": 0, "lon": -77.058164, "is_disabled": 0, "fusion_lat": 0.0, "lat": 38.93519533333333, "bike_id": "95cf6e31ba6cb25743aa92f042d47040", "fusion_lon": 0.0}, {"rental_uris": {"ios": "https://dc.lft.to/lastmile_qr_scan", "android": "https://dc.lft.to/lastmile_qr_scan"}, "type": "electric_scooter", "name": "19ec3404f5fb6996cfe87bde996c65ba", "is_reserved": 0, "lon": -77.00030766666667, "is_disabled": 0, "fusion_lat": 0.0, "lat": 38.87454566666667, "bike_id": "19ec3404f5fb6996cfe87bde996c65ba", "fusion_lon": 0.0}, {"rental_uris": {"ios": "https://dc.lft.to/lastmile_qr_scan", "android": "https://dc.lft.to/lastmile_qr_scan"}, "type": "electric_scooter", "name": "956b2775d9c56e6c29f3da6a19a79466", "is_reserved": 0, "lon": -76.931851, "is_disabled": 0, "fusion_lat": 0.0, "lat": 38.898760833333334, "bike_id": "956b2775d9c56e6c29f3da6a19a79466", "fusion_lon": 0.0}, {"rental_uris": {"ios": "https://dc.lft.to/lastmile_qr_scan", "android": "https://dc.lft.to/lastmile_qr_scan"}, "type": "electric_scooter", "name": "28c7ec7becd4db71ef94e4349020c0ea", "is_reserved": 0, "lon": -77.07022733333334, "is_disabled": 0, "fusion_lat": 0.0, "lat": 38.8930315, "bike_id": "28c7ec7becd4db71ef94e4349020c0ea", "fusion_lon": 0.0}, {"rental_uris": {"ios": "https://dc.lft.to/lastmile_qr_scan", "android": "https://dc.lft.to/lastmile_qr_scan"}, "type": "electric_scooter", "name": "61940bf1e3612dca1bcdd701c9173fec", "is_reserved": 0, "lon": -77.0458185, "is_disabled": 0, "fusion_lat": 0.0, "lat": 38.909483, "bike_id": "61940bf1e3612dca1bcdd701c9173fec", "fusion_lon": 0.0}, {"rental_uris": {"ios": "https://dc.lft.to/lastmile_qr_scan", "android": "https://dc.lft.to/lastmile_qr_scan"}, "type": "electric_scooter", "name": "363d790313f2830b8ddb6d6cfb2b4c87", "is_reserved": 0, "lon": -77.00179533333333, "is_disabled": 0, "fusion_lat": 0.0, "lat": 38.911981833333336, "bike_id": "363d790313f2830b8ddb6d6cfb2b4c87", "fusion_lon": 0.0}, {"rental_uris": {"ios": "https://dc.lft.to/lastmile_qr_scan", "android": "https://dc.lft.to/lastmile_qr_scan"}, "type": "electric_scooter", "name": "42aea7a7e2a642521fade8f4d814a38d", "is_reserved": 0, "lon": -77.05532366666667, "is_disabled": 0, "fusion_lat": 0.0, "lat": 38.90998833333333, "bike_id": "42aea7a7e2a642521fade8f4d814a38d", "fusion_lon": 0.0}, {"rental_uris": {"ios": "https://dc.lft.to/lastmile_qr_scan", "android": "https://dc.lft.to/lastmile_qr_scan"}, "type": "electric_scooter", "name": "16d890e29226494798165d00ab05f802", "is_reserved": 0, "lon": -77.02479566666666, "is_disabled": 0, "fusion_lat": 0.0, "lat": 38.91814866666667, "bike_id": "16d890e29226494798165d00ab05f802", "fusion_lon": 0.0}, {"rental_uris": {"ios": "https://dc.lft.to/lastmile_qr_scan", "android": "https://dc.lft.to/lastmile_qr_scan"}, "type": "electric_scooter", "name": "584f9d38727268734a193a6d01b2d181", "is_reserved": 0, "lon": -77.02499566666667, "is_disabled": 0, "fusion_lat": 0.0, "lat": 38.932790833333335, "bike_id": "584f9d38727268734a193a6d01b2d181", "fusion_lon": 0.0}, {"rental_uris": {"ios": "https://dc.lft.to/lastmile_qr_scan", "android": "https://dc.lft.to/lastmile_qr_scan"}, "type": "electric_bike", "name": "aaa6a5d33e9210976abe2b84074f044a", "is_reserved": 0, "lon": -76.941467, "is_disabled": 0, "fusion_lat": 0.0, "lat": 38.89008833333333, "bike_id": "aaa6a5d33e9210976abe2b84074f044a", "fusion_lon": 0.0}, {"rental_uris": {"ios": "https://dc.lft.to/lastmile_qr_scan", "android": "https://dc.lft.to/lastmile_qr_scan"}, "type": "electric_scooter", "name": "502fdc2ad531785374aef9178cca259b", "is_reserved": 0, "lon": -76.99002516666667, "is_disabled": 0, "fusion_lat": 0.0, "lat": 38.864240333333335, "bike_id": "502fdc2ad531785374aef9178cca259b", "fusion_lon": 0.0}, {"rental_uris": {"ios": "https://dc.lft.to/lastmile_qr_scan", "android": "https://dc.lft.to/lastmile_qr_scan"}, "type": "electric_scooter", "name": "a3d0d83af6389c3ffc9bbdbab641bf12", "is_reserved": 0, "lon": -77.03823883333334, "is_disabled": 0, "fusion_lat": 0.0, "lat": 38.962627166666664, "bike_id": "a3d0d83af6389c3ffc9bbdbab641bf12", "fusion_lon": 0.0}, {"rental_uris": {"ios": "https://dc.lft.to/lastmile_qr_scan", "android": "https://dc.lft.to/lastmile_qr_scan"}, "type": "electric_scooter", "name": "e5d690fd6c1a0f2a320708ede1eba0fc", "is_reserved": 0, "lon": -77.038576, "is_disabled": 0, "fusion_lat": 0.0, "lat": 38.917095333333336, "bike_id": "e5d690fd6c1a0f2a320708ede1eba0fc", "fusion_lon": 0.0}, {"rental_uris": {"ios": "https://dc.lft.to/lastmile_qr_scan", "android": "https://dc.lft.to/lastmile_qr_scan"}, "type": "electric_scooter", "name": "5451366b7d47f40bea99c1eff5c901dc", "is_reserved": 0, "lon": -76.9991335, "is_disabled": 0, "fusion_lat": 0.0, "lat": 38.90054583333333, "bike_id": "5451366b7d47f40bea99c1eff5c901dc", "fusion_lon": 0.0}, {"rental_uris": {"ios": "https://dc.lft.to/lastmile_qr_scan", "android": "https://dc.lft.to/lastmile_qr_scan"}, "type": "electric_scooter", "name": "9588a9a468d6afde5008a537ea209d74", "is_reserved": 0, "lon": -77.04591333333333, "is_disabled": 0, "fusion_lat": 0.0, "lat": 38.918636666666664, "bike_id": "9588a9a468d6afde5008a537ea209d74", "fusion_lon": 0.0}, {"rental_uris": {"ios": "https://dc.lft.to/lastmile_qr_scan", "android": "https://dc.lft.to/lastmile_qr_scan"}, "type": "electric_scooter", "name": "5d164ad3945ff49ec78aec54cc61e81f", "is_reserved": 0, "lon": -77.07214466666667, "is_disabled": 0, "fusion_lat": 0.0, "lat": 38.9068155, "bike_id": "5d164ad3945ff49ec78aec54cc61e81f", "fusion_lon": 0.0}, {"rental_uris": {"ios": "https://dc.lft.to/lastmile_qr_scan", "android": "https://dc.lft.to/lastmile_qr_scan"}, "type": "electric_scooter", "name": "08a030f01403cd341edd849fe343e5e5", "is_reserved": 0, "lon": -76.986682, "is_disabled": 0, "fusion_lat": 0.0, "lat": 38.906153833333335, "bike_id": "08a030f01403cd341edd849fe343e5e5", "fusion_lon": 0.0}, {"rental_uris": {"ios": "https://dc.lft.to/lastmile_qr_scan", "android": "https://dc.lft.to/lastmile_qr_scan"}, "type": "electric_scooter", "name": "f3ff057eae0aee4da6ad0177064857e8", "is_reserved": 0, "lon": -77.039622, "is_disabled": 0, "fusion_lat": 0.0, "lat": 38.90241983333333, "bike_id": "f3ff057eae0aee4da6ad0177064857e8", "fusion_lon": 0.0}, {"rental_uris": {"ios": "https://dc.lft.to/lastmile_qr_scan", "android": "https://dc.lft.to/lastmile_qr_scan"}, "type": "electric_scooter", "name": "7d350cb04fa776228b0ea8b1ff18da12", "is_reserved": 0, "lon": -77.02322633333333, "is_disabled": 0, "fusion_lat": 0.0, "lat": 38.940176, "bike_id": "7d350cb04fa776228b0ea8b1ff18da12", "fusion_lon": 0.0}, {"rental_uris": {"ios": "https://dc.lft.to/lastmile_qr_scan", "android": "https://dc.lft.to/lastmile_qr_scan"}, "type": "electric_scooter", "name": "b1526dafb0685d1de4fa650e58c2cc0f", "is_reserved": 0, "lon": -77.05224683333333, "is_disabled": 0, "fusion_lat": 0.0, "lat": 38.9032125, "bike_id": "b1526dafb0685d1de4fa650e58c2cc0f", "fusion_lon": 0.0}, {"rental_uris": {"ios": "https://dc.lft.to/lastmile_qr_scan", "android": "https://dc.lft.to/lastmile_qr_scan"}, "type": "electric_scooter", "name": "33ad34f202dcdde5716fdfe8bd62ae6d", "is_reserved": 0, "lon": -77.0126255, "is_disabled": 0, "fusion_lat": 0.0, "lat": 38.89716133333334, "bike_id": "33ad34f202dcdde5716fdfe8bd62ae6d", "fusion_lon": 0.0}, {"rental_uris": {"ios": "https://dc.lft.to/lastmile_qr_scan", "android": "https://dc.lft.to/lastmile_qr_scan"}, "type": "electric_scooter", "name": "049605a770d215f1695e86aec67dc1fd", "is_reserved": 0, "lon": -77.0118045, "is_disabled": 0, "fusion_lat": 0.0, "lat": 38.951542, "bike_id": "049605a770d215f1695e86aec67dc1fd", "fusion_lon": 0.0}, {"rental_uris": {"ios": "https://dc.lft.to/lastmile_qr_scan", "android": "https://dc.lft.to/lastmile_qr_scan"}, "type": "electric_scooter", "name": "9064f67d9391e03d94473c5bd24c9b41", "is_reserved": 0, "lon": -77.0134265, "is_disabled": 0, "fusion_lat": 0.0, "lat": 38.919123166666665, "bike_id": "9064f67d9391e03d94473c5bd24c9b41", "fusion_lon": 0.0}, {"rental_uris": {"ios": "https://dc.lft.to/lastmile_qr_scan", "android": "https://dc.lft.to/lastmile_qr_scan"}, "type": "electric_scooter", "name": "30e627d730d3fb4937a40478df7ed21e", "is_reserved": 0, "lon": -77.020361, "is_disabled": 0, "fusion_lat": 0.0, "lat": 38.894213666666666, "bike_id": "30e627d730d3fb4937a40478df7ed21e", "fusion_lon": 0.0}, {"rental_uris": {"ios": "https://dc.lft.to/lastmile_qr_scan", "android": "https://dc.lft.to/lastmile_qr_scan"}, "type": "electric_scooter", "name": "22985652906a3c6a5eeea9d15dac12b7", "is_reserved": 0, "lon": -77.03279316666666, "is_disabled": 0, "fusion_lat": 0.0, "lat": 38.93250833333333, "bike_id": "22985652906a3c6a5eeea9d15dac12b7", "fusion_lon": 0.0}, {"rental_uris": {"ios": "https://dc.lft.to/lastmile_qr_scan", "android": "https://dc.lft.to/lastmile_qr_scan"}, "type": "electric_scooter", "name": "10b652c892be1fda49e2a9e214488c31", "is_reserved": 0, "lon": -77.03466616666667, "is_disabled": 0, "fusion_lat": 0.0, "lat": 38.90554266666667, "bike_id": "10b652c892be1fda49e2a9e214488c31", "fusion_lon": 0.0}, {"rental_uris": {"ios": "https://dc.lft.to/lastmile_qr_scan", "android": "https://dc.lft.to/lastmile_qr_scan"}, "type": "electric_scooter", "name": "589d075cfe47a38becf7cfbe7ecf248d", "is_reserved": 0, "lon": -77.0325415, "is_disabled": 0, "fusion_lat": 0.0, "lat": 38.928931166666665, "bike_id": "589d075cfe47a38becf7cfbe7ecf248d", "fusion_lon": 0.0}, {"rental_uris": {"ios": "https://dc.lft.to/lastmile_qr_scan", "android": "https://dc.lft.to/lastmile_qr_scan"}, "type": "electric_scooter", "name": "c84d646bb215620000fb80b4708869ce", "is_reserved": 0, "lon": -77.0015745, "is_disabled": 0, "fusion_lat": 0.0, "lat": 38.8213225, "bike_id": "c84d646bb215620000fb80b4708869ce", "fusion_lon": 0.0}, {"rental_uris": {"ios": "https://dc.lft.to/lastmile_qr_scan", "android": "https://dc.lft.to/lastmile_qr_scan"}, "type": "electric_bike", "name": "471f397d7ad4269d7e4ea666b130a54d", "is_reserved": 0, "lon": -76.95158283333333, "is_disabled": 0, "fusion_lat": 0.0, "lat": 39.08439033333333, "bike_id": "471f397d7ad4269d7e4ea666b130a54d", "fusion_lon": 0.0}, {"rental_uris": {"ios": "https://dc.lft.to/lastmile_qr_scan", "android": "https://dc.lft.to/lastmile_qr_scan"}, "type": "electric_scooter", "name": "4df57d88ddc1e2fd9136127d3483bc16", "is_reserved": 0, "lon": -77.07559433333333, "is_disabled": 0, "fusion_lat": 0.0, "lat": 38.9063495, "bike_id": "4df57d88ddc1e2fd9136127d3483bc16", "fusion_lon": 0.0}, {"rental_uris": {"ios": "https://dc.lft.to/lastmile_qr_scan", "android": "https://dc.lft.to/lastmile_qr_scan"}, "type": "electric_scooter", "name": "1059ae8d8ff2895eb5d92ca84385f9c2", "is_reserved": 0, "lon": -77.02229666666666, "is_disabled": 0, "fusion_lat": 0.0, "lat": 38.891953, "bike_id": "1059ae8d8ff2895eb5d92ca84385f9c2", "fusion_lon": 0.0}, {"rental_uris": {"ios": "https://dc.lft.to/lastmile_qr_scan", "android": "https://dc.lft.to/lastmile_qr_scan"}, "type": "electric_scooter", "name": "061bd9ef0e02edfcbd1ace6d605fbad6", "is_reserved": 0, "lon": -77.02644266666667, "is_disabled": 0, "fusion_lat": 0.0, "lat": 38.895958666666665, "bike_id": "061bd9ef0e02edfcbd1ace6d605fbad6", "fusion_lon": 0.0}, {"rental_uris": {"ios": "https://dc.lft.to/lastmile_qr_scan", "android": "https://dc.lft.to/lastmile_qr_scan"}, "type": "electric_scooter", "name": "20060acd8b31e049f7601e844ad8842a", "is_reserved": 0, "lon": -77.07249483333334, "is_disabled": 0, "fusion_lat": 0.0, "lat": 38.93439266666667, "bike_id": "20060acd8b31e049f7601e844ad8842a", "fusion_lon": 0.0}, {"rental_uris": {"ios": "https://dc.lft.to/lastmile_qr_scan", "android": "https://dc.lft.to/lastmile_qr_scan"}, "type": "electric_scooter", "name": "c98b0c03ba16708254a6179660ff9f11", "is_reserved": 0, "lon": -77.01949583333334, "is_disabled": 0, "fusion_lat": 0.0, "lat": 38.95047516666666, "bike_id": "c98b0c03ba16708254a6179660ff9f11", "fusion_lon": 0.0}, {"rental_uris": {"ios": "https://dc.lft.to/lastmile_qr_scan", "android": "https://dc.lft.to/lastmile_qr_scan"}, "type": "electric_scooter", "name": "1aadaef48177d875b248384528f1551c", "is_reserved": 0, "lon": -77.04697566666667, "is_disabled": 0, "fusion_lat": 0.0, "lat": 38.92060566666667, "bike_id": "1aadaef48177d875b248384528f1551c", "fusion_lon": 0.0}, {"rental_uris": {"ios": "https://dc.lft.to/lastmile_qr_scan", "android": "https://dc.lft.to/lastmile_qr_scan"}, "type": "electric_scooter", "name": "acd3a32674b691bca07f5e19609258a1", "is_reserved": 0, "lon": -77.02396833333333, "is_disabled": 0, "fusion_lat": 0.0, "lat": 38.909746, "bike_id": "acd3a32674b691bca07f5e19609258a1", "fusion_lon": 0.0}, {"rental_uris": {"ios": "https://dc.lft.to/lastmile_qr_scan", "android": "https://dc.lft.to/lastmile_qr_scan"}, "type": "electric_bike", "name": "45f0c286c22f83eab0d9f65e155f39c2", "is_reserved": 0, "lon": -76.975457, "is_disabled": 0, "fusion_lat": 0.0, "lat": 38.90427833333333, "bike_id": "45f0c286c22f83eab0d9f65e155f39c2", "fusion_lon": 0.0}, {"rental_uris": {"ios": "https://dc.lft.to/lastmile_qr_scan", "android": "https://dc.lft.to/lastmile_qr_scan"}, "type": "electric_bike", "name": "eb37bcc814bf9914aff6b19496aeb0b1", "is_reserved": 0, "lon": -77.018499, "is_disabled": 0, "fusion_lat": 0.0, "lat": 38.93108266666667, "bike_id": "eb37bcc814bf9914aff6b19496aeb0b1", "fusion_lon": 0.0}, {"rental_uris": {"ios": "https://dc.lft.to/lastmile_qr_scan", "android": "https://dc.lft.to/lastmile_qr_scan"}, "type": "electric_scooter", "name": "033d6ca63f6925061d39f3a4bb4bb454", "is_reserved": 0, "lon": -77.0006735, "is_disabled": 0, "fusion_lat": 0.0, "lat": 38.87682066666667, "bike_id": "033d6ca63f6925061d39f3a4bb4bb454", "fusion_lon": 0.0}, {"rental_uris": {"ios": "https://dc.lft.to/lastmile_qr_scan", "android": "https://dc.lft.to/lastmile_qr_scan"}, "type": "electric_scooter", "name": "0d125c52b03b4aa50cd51943b5d996a4", "is_reserved": 0, "lon": -77.03454766666667, "is_disabled": 0, "fusion_lat": 0.0, "lat": 38.9073665, "bike_id": "0d125c52b03b4aa50cd51943b5d996a4", "fusion_lon": 0.0}, {"rental_uris": {"ios": "https://dc.lft.to/lastmile_qr_scan", "android": "https://dc.lft.to/lastmile_qr_scan"}, "type": "electric_scooter", "name": "ced81cc19ffc169886d7e172f0f32e6b", "is_reserved": 0, "lon": -77.05721766666667, "is_disabled": 0, "fusion_lat": 0.0, "lat": 38.933565, "bike_id": "ced81cc19ffc169886d7e172f0f32e6b", "fusion_lon": 0.0}, {"rental_uris": {"ios": "https://dc.lft.to/lastmile_qr_scan", "android": "https://dc.lft.to/lastmile_qr_scan"}, "type": "electric_scooter", "name": "86e3aaa4a15c32889cc4bac7a94d6973", "is_reserved": 0, "lon": -77.02859783333334, "is_disabled": 0, "fusion_lat": 0.0, "lat": 38.9125375, "bike_id": "86e3aaa4a15c32889cc4bac7a94d6973", "fusion_lon": 0.0}, {"rental_uris": {"ios": "https://dc.lft.to/lastmile_qr_scan", "android": "https://dc.lft.to/lastmile_qr_scan"}, "type": "electric_scooter", "name": "826115bb1a365c6beadc3ef20ae88a08", "is_reserved": 0, "lon": -77.03789166666667, "is_disabled": 0, "fusion_lat": 0.0, "lat": 38.936048666666665, "bike_id": "826115bb1a365c6beadc3ef20ae88a08", "fusion_lon": 0.0}, {"rental_uris": {"ios": "https://dc.lft.to/lastmile_qr_scan", "android": "https://dc.lft.to/lastmile_qr_scan"}, "type": "electric_scooter", "name": "e20d742b682ae8a0b59cdb1405eea927", "is_reserved": 0, "lon": -77.017934, "is_disabled": 0, "fusion_lat": 0.0, "lat": 38.90377816666667, "bike_id": "e20d742b682ae8a0b59cdb1405eea927", "fusion_lon": 0.0}, {"rental_uris": {"ios": "https://dc.lft.to/lastmile_qr_scan", "android": "https://dc.lft.to/lastmile_qr_scan"}, "type": "electric_scooter", "name": "802e053471c840fdc4b2e68aef766b73", "is_reserved": 0, "lon": -76.986989, "is_disabled": 0, "fusion_lat": 0.0, "lat": 38.912952833333335, "bike_id": "802e053471c840fdc4b2e68aef766b73", "fusion_lon": 0.0}, {"rental_uris": {"ios": "https://dc.lft.to/lastmile_qr_scan", "android": "https://dc.lft.to/lastmile_qr_scan"}, "type": "electric_scooter", "name": "72e36f741591cb80b85b4b368ee0c09f", "is_reserved": 0, "lon": -77.0028295, "is_disabled": 0, "fusion_lat": 0.0, "lat": 38.901287833333335, "bike_id": "72e36f741591cb80b85b4b368ee0c09f", "fusion_lon": 0.0}, {"rental_uris": {"ios": "https://dc.lft.to/lastmile_qr_scan", "android": "https://dc.lft.to/lastmile_qr_scan"}, "type": "electric_scooter", "name": "593992d61f309684927fa2f83c1b2a3f", "is_reserved": 0, "lon": -77.00166766666666, "is_disabled": 0, "fusion_lat": 0.0, "lat": 38.873876333333335, "bike_id": "593992d61f309684927fa2f83c1b2a3f", "fusion_lon": 0.0}, {"rental_uris": {"ios": "https://dc.lft.to/lastmile_qr_scan", "android": "https://dc.lft.to/lastmile_qr_scan"}, "type": "electric_scooter", "name": "f9f73e0534187b527478d327d3b91e31", "is_reserved": 0, "lon": -77.01632683333334, "is_disabled": 0, "fusion_lat": 0.0, "lat": 38.9294045, "bike_id": "f9f73e0534187b527478d327d3b91e31", "fusion_lon": 0.0}, {"rental_uris": {"ios": "https://dc.lft.to/lastmile_qr_scan", "android": "https://dc.lft.to/lastmile_qr_scan"}, "type": "electric_scooter", "name": "eb40585b65484f90121cd30cde99847c", "is_reserved": 0, "lon": -77.02917133333334, "is_disabled": 0, "fusion_lat": 0.0, "lat": 38.934536333333334, "bike_id": "eb40585b65484f90121cd30cde99847c", "fusion_lon": 0.0}, {"rental_uris": {"ios": "https://dc.lft.to/lastmile_qr_scan", "android": "https://dc.lft.to/lastmile_qr_scan"}, "type": "electric_scooter", "name": "18b411edcb489554c9490db664189153", "is_reserved": 0, "lon": -77.03655066666667, "is_disabled": 0, "fusion_lat": 0.0, "lat": 38.906350333333336, "bike_id": "18b411edcb489554c9490db664189153", "fusion_lon": 0.0}, {"rental_uris": {"ios": "https://dc.lft.to/lastmile_qr_scan", "android": "https://dc.lft.to/lastmile_qr_scan"}, "type": "electric_scooter", "name": "932341ff07002d4519f34284b5345627", "is_reserved": 0, "lon": -77.066922, "is_disabled": 0, "fusion_lat": 0.0, "lat": 38.90974283333333, "bike_id": "932341ff07002d4519f34284b5345627", "fusion_lon": 0.0}, {"rental_uris": {"ios": "https://dc.lft.to/lastmile_qr_scan", "android": "https://dc.lft.to/lastmile_qr_scan"}, "type": "electric_scooter", "name": "21cd1da392468f736e8bf7db4f0360a9", "is_reserved": 0, "lon": -77.03333366666666, "is_disabled": 0, "fusion_lat": 0.0, "lat": 38.897227666666666, "bike_id": "21cd1da392468f736e8bf7db4f0360a9", "fusion_lon": 0.0}, {"rental_uris": {"ios": "https://dc.lft.to/lastmile_qr_scan", "android": "https://dc.lft.to/lastmile_qr_scan"}, "type": "electric_scooter", "name": "481076298d1c5b04c192a2d5ab4bb23d", "is_reserved": 0, "lon": -77.0325695, "is_disabled": 0, "fusion_lat": 0.0, "lat": 38.91182366666666, "bike_id": "481076298d1c5b04c192a2d5ab4bb23d", "fusion_lon": 0.0}, {"rental_uris": {"ios": "https://dc.lft.to/lastmile_qr_scan", "android": "https://dc.lft.to/lastmile_qr_scan"}, "type": "electric_scooter", "name": "d9c7497d64a0c8bcd4ae269850f460e7", "is_reserved": 0, "lon": -76.98358266666666, "is_disabled": 0, "fusion_lat": 0.0, "lat": 38.887421, "bike_id": "d9c7497d64a0c8bcd4ae269850f460e7", "fusion_lon": 0.0}, {"rental_uris": {"ios": "https://dc.lft.to/lastmile_qr_scan", "android": "https://dc.lft.to/lastmile_qr_scan"}, "type": "electric_scooter", "name": "8ca4ad37d3d5070315ab8b141379ea4d", "is_reserved": 0, "lon": -77.0526625, "is_disabled": 0, "fusion_lat": 0.0, "lat": 38.924194666666665, "bike_id": "8ca4ad37d3d5070315ab8b141379ea4d", "fusion_lon": 0.0}, {"rental_uris": {"ios": "https://dc.lft.to/lastmile_qr_scan", "android": "https://dc.lft.to/lastmile_qr_scan"}, "type": "electric_scooter", "name": "1d759c651797c4e8cb23e93809e3e318", "is_reserved": 0, "lon": -77.01665683333333, "is_disabled": 0, "fusion_lat": 0.0, "lat": 38.88111283333333, "bike_id": "1d759c651797c4e8cb23e93809e3e318", "fusion_lon": 0.0}, {"rental_uris": {"ios": "https://dc.lft.to/lastmile_qr_scan", "android": "https://dc.lft.to/lastmile_qr_scan"}, "type": "electric_scooter", "name": "7cd7395d683bb52c60c4655a8dffc3f3", "is_reserved": 0, "lon": -77.0213005, "is_disabled": 0, "fusion_lat": 0.0, "lat": 38.9269645, "bike_id": "7cd7395d683bb52c60c4655a8dffc3f3", "fusion_lon": 0.0}, {"rental_uris": {"ios": "https://dc.lft.to/lastmile_qr_scan", "android": "https://dc.lft.to/lastmile_qr_scan"}, "type": "electric_scooter", "name": "f2424e331d8f54b81d1c89021aec48ac", "is_reserved": 0, "lon": -77.02331483333333, "is_disabled": 0, "fusion_lat": 0.0, "lat": 38.92298433333333, "bike_id": "f2424e331d8f54b81d1c89021aec48ac", "fusion_lon": 0.0}, {"rental_uris": {"ios": "https://dc.lft.to/lastmile_qr_scan", "android": "https://dc.lft.to/lastmile_qr_scan"}, "type": "electric_scooter", "name": "325c01834c64368a7b3e34a876b4c32d", "is_reserved": 0, "lon": -77.02708983333333, "is_disabled": 0, "fusion_lat": 0.0, "lat": 38.918171666666666, "bike_id": "325c01834c64368a7b3e34a876b4c32d", "fusion_lon": 0.0}, {"rental_uris": {"ios": "https://dc.lft.to/lastmile_qr_scan", "android": "https://dc.lft.to/lastmile_qr_scan"}, "type": "electric_scooter", "name": "7a203f0e27988685695d8527c0b261e8", "is_reserved": 0, "lon": -77.06561016666667, "is_disabled": 0, "fusion_lat": 0.0, "lat": 38.91172483333333, "bike_id": "7a203f0e27988685695d8527c0b261e8", "fusion_lon": 0.0}, {"rental_uris": {"ios": "https://dc.lft.to/lastmile_qr_scan", "android": "https://dc.lft.to/lastmile_qr_scan"}, "type": "electric_scooter", "name": "460d13c547cb841d66e37b73c521fa39", "is_reserved": 0, "lon": -76.982607, "is_disabled": 0, "fusion_lat": 0.0, "lat": 38.8662275, "bike_id": "460d13c547cb841d66e37b73c521fa39", "fusion_lon": 0.0}, {"rental_uris": {"ios": "https://dc.lft.to/lastmile_qr_scan", "android": "https://dc.lft.to/lastmile_qr_scan"}, "type": "electric_scooter", "name": "c25923c9de163e14ba41f4c586c7a052", "is_reserved": 0, "lon": -77.03454, "is_disabled": 0, "fusion_lat": 0.0, "lat": 38.93749566666666, "bike_id": "c25923c9de163e14ba41f4c586c7a052", "fusion_lon": 0.0}, {"rental_uris": {"ios": "https://dc.lft.to/lastmile_qr_scan", "android": "https://dc.lft.to/lastmile_qr_scan"}, "type": "electric_scooter", "name": "c63a9fa5db4247a06b8ab2c864864a9c", "is_reserved": 0, "lon": -77.00830383333333, "is_disabled": 0, "fusion_lat": 0.0, "lat": 38.91368833333333, "bike_id": "c63a9fa5db4247a06b8ab2c864864a9c", "fusion_lon": 0.0}, {"rental_uris": {"ios": "https://dc.lft.to/lastmile_qr_scan", "android": "https://dc.lft.to/lastmile_qr_scan"}, "type": "electric_scooter", "name": "62bae4d37d1717226a45b56add25d333", "is_reserved": 0, "lon": -77.04757233333333, "is_disabled": 0, "fusion_lat": 0.0, "lat": 38.94095566666667, "bike_id": "62bae4d37d1717226a45b56add25d333", "fusion_lon": 0.0}, {"rental_uris": {"ios": "https://dc.lft.to/lastmile_qr_scan", "android": "https://dc.lft.to/lastmile_qr_scan"}, "type": "electric_scooter", "name": "25655b168bc3102e5f3aa9f9c4e263e7", "is_reserved": 0, "lon": -77.0408505, "is_disabled": 0, "fusion_lat": 0.0, "lat": 38.9270825, "bike_id": "25655b168bc3102e5f3aa9f9c4e263e7", "fusion_lon": 0.0}, {"rental_uris": {"ios": "https://dc.lft.to/lastmile_qr_scan", "android": "https://dc.lft.to/lastmile_qr_scan"}, "type": "electric_scooter", "name": "8820237d15f7e6dd0be8500568ef5510", "is_reserved": 0, "lon": -77.03411683333333, "is_disabled": 0, "fusion_lat": 0.0, "lat": 38.90085116666667, "bike_id": "8820237d15f7e6dd0be8500568ef5510", "fusion_lon": 0.0}, {"rental_uris": {"ios": "https://dc.lft.to/lastmile_qr_scan", "android": "https://dc.lft.to/lastmile_qr_scan"}, "type": "electric_scooter", "name": "41bb2e4e7722f57c3aacf99a6c38ccfd", "is_reserved": 0, "lon": -77.0218705, "is_disabled": 0, "fusion_lat": 0.0, "lat": 38.894897, "bike_id": "41bb2e4e7722f57c3aacf99a6c38ccfd", "fusion_lon": 0.0}, {"rental_uris": {"ios": "https://dc.lft.to/lastmile_qr_scan", "android": "https://dc.lft.to/lastmile_qr_scan"}, "type": "electric_scooter", "name": "f17433f8ed79e2862cd36d954fec4261", "is_reserved": 0, "lon": -77.038268, "is_disabled": 0, "fusion_lat": 0.0, "lat": 38.90972716666667, "bike_id": "f17433f8ed79e2862cd36d954fec4261", "fusion_lon": 0.0}, {"rental_uris": {"ios": "https://dc.lft.to/lastmile_qr_scan", "android": "https://dc.lft.to/lastmile_qr_scan"}, "type": "electric_scooter", "name": "134e9bfb30eeaf4ccb49ec267c7b9534", "is_reserved": 0, "lon": -77.05621766666667, "is_disabled": 0, "fusion_lat": 0.0, "lat": 38.9068525, "bike_id": "134e9bfb30eeaf4ccb49ec267c7b9534", "fusion_lon": 0.0}, {"rental_uris": {"ios": "https://dc.lft.to/lastmile_qr_scan", "android": "https://dc.lft.to/lastmile_qr_scan"}, "type": "electric_scooter", "name": "d2966ec0bfa640a3c0ca623a28b7c7cd", "is_reserved": 0, "lon": -77.012272, "is_disabled": 0, "fusion_lat": 0.0, "lat": 38.86718366666667, "bike_id": "d2966ec0bfa640a3c0ca623a28b7c7cd", "fusion_lon": 0.0}, {"rental_uris": {"ios": "https://dc.lft.to/lastmile_qr_scan", "android": "https://dc.lft.to/lastmile_qr_scan"}, "type": "electric_bike", "name": "3a08064040bf2fe1da930bfc6f2467f4", "is_reserved": 0, "lon": -76.9073305, "is_disabled": 0, "fusion_lat": 0.0, "lat": 38.896171833333334, "bike_id": "3a08064040bf2fe1da930bfc6f2467f4", "fusion_lon": 0.0}, {"rental_uris": {"ios": "https://dc.lft.to/lastmile_qr_scan", "android": "https://dc.lft.to/lastmile_qr_scan"}, "type": "electric_scooter", "name": "616f45075eddf5e82ef1628ed0a44c6a", "is_reserved": 0, "lon": -76.99228733333334, "is_disabled": 0, "fusion_lat": 0.0, "lat": 38.887513, "bike_id": "616f45075eddf5e82ef1628ed0a44c6a", "fusion_lon": 0.0}, {"rental_uris": {"ios": "https://dc.lft.to/lastmile_qr_scan", "android": "https://dc.lft.to/lastmile_qr_scan"}, "type": "electric_scooter", "name": "1f4be50b4f7646dbe7bc3fbe134a536b", "is_reserved": 0, "lon": -77.0321365, "is_disabled": 0, "fusion_lat": 0.0, "lat": 38.884734, "bike_id": "1f4be50b4f7646dbe7bc3fbe134a536b", "fusion_lon": 0.0}, {"rental_uris": {"ios": "https://dc.lft.to/lastmile_qr_scan", "android": "https://dc.lft.to/lastmile_qr_scan"}, "type": "electric_scooter", "name": "b3a962a41ad59c0bd69beff1d587256f", "is_reserved": 0, "lon": -77.03263416666667, "is_disabled": 0, "fusion_lat": 0.0, "lat": 38.933761, "bike_id": "b3a962a41ad59c0bd69beff1d587256f", "fusion_lon": 0.0}, {"rental_uris": {"ios": "https://dc.lft.to/lastmile_qr_scan", "android": "https://dc.lft.to/lastmile_qr_scan"}, "type": "electric_scooter", "name": "f7c72a47a6474da8536aa1f54b2d8e6f", "is_reserved": 0, "lon": -77.03659166666667, "is_disabled": 0, "fusion_lat": 0.0, "lat": 38.92362983333334, "bike_id": "f7c72a47a6474da8536aa1f54b2d8e6f", "fusion_lon": 0.0}, {"rental_uris": {"ios": "https://dc.lft.to/lastmile_qr_scan", "android": "https://dc.lft.to/lastmile_qr_scan"}, "type": "electric_scooter", "name": "6708714836967ce63d961085bf92ceef", "is_reserved": 0, "lon": -76.99914533333333, "is_disabled": 0, "fusion_lat": 0.0, "lat": 38.92459616666667, "bike_id": "6708714836967ce63d961085bf92ceef", "fusion_lon": 0.0}, {"rental_uris": {"ios": "https://dc.lft.to/lastmile_qr_scan", "android": "https://dc.lft.to/lastmile_qr_scan"}, "type": "electric_bike", "name": "3ed5a71b642c844a7c38cf8933ed9225", "is_reserved": 0, "lon": -77.05090233333334, "is_disabled": 0, "fusion_lat": 0.0, "lat": 38.813343833333334, "bike_id": "3ed5a71b642c844a7c38cf8933ed9225", "fusion_lon": 0.0}, {"rental_uris": {"ios": "https://dc.lft.to/lastmile_qr_scan", "android": "https://dc.lft.to/lastmile_qr_scan"}, "type": "electric_scooter", "name": "8267f7e70c0953d4091b72fdf4e0b0f1", "is_reserved": 0, "lon": -77.0296975, "is_disabled": 0, "fusion_lat": 0.0, "lat": 38.9356165, "bike_id": "8267f7e70c0953d4091b72fdf4e0b0f1", "fusion_lon": 0.0}, {"rental_uris": {"ios": "https://dc.lft.to/lastmile_qr_scan", "android": "https://dc.lft.to/lastmile_qr_scan"}, "type": "electric_scooter", "name": "45878ca8011ee11e8136b5d7e6fb23e6", "is_reserved": 0, "lon": -77.000711, "is_disabled": 0, "fusion_lat": 0.0, "lat": 38.8948385, "bike_id": "45878ca8011ee11e8136b5d7e6fb23e6", "fusion_lon": 0.0}, {"rental_uris": {"ios": "https://dc.lft.to/lastmile_qr_scan", "android": "https://dc.lft.to/lastmile_qr_scan"}, "type": "electric_scooter", "name": "61910bb978ddb53d4045f68b639df54f", "is_reserved": 0, "lon": -77.0439115, "is_disabled": 0, "fusion_lat": 0.0, "lat": 38.908825666666665, "bike_id": "61910bb978ddb53d4045f68b639df54f", "fusion_lon": 0.0}, {"rental_uris": {"ios": "https://dc.lft.to/lastmile_qr_scan", "android": "https://dc.lft.to/lastmile_qr_scan"}, "type": "electric_scooter", "name": "586deb56a47269161d2c56d5cc85c58a", "is_reserved": 0, "lon": -76.98047216666667, "is_disabled": 0, "fusion_lat": 0.0, "lat": 38.901694166666665, "bike_id": "586deb56a47269161d2c56d5cc85c58a", "fusion_lon": 0.0}, {"rental_uris": {"ios": "https://dc.lft.to/lastmile_qr_scan", "android": "https://dc.lft.to/lastmile_qr_scan"}, "type": "electric_scooter", "name": "fc6300cea8c49dc6ea913574efcc9d2a", "is_reserved": 0, "lon": -77.00783466666667, "is_disabled": 0, "fusion_lat": 0.0, "lat": 38.905662666666665, "bike_id": "fc6300cea8c49dc6ea913574efcc9d2a", "fusion_lon": 0.0}, {"rental_uris": {"ios": "https://dc.lft.to/lastmile_qr_scan", "android": "https://dc.lft.to/lastmile_qr_scan"}, "type": "electric_scooter", "name": "74410c9603026fada1899316c60d8ca7", "is_reserved": 0, "lon": -77.03473166666667, "is_disabled": 0, "fusion_lat": 0.0, "lat": 38.90968066666667, "bike_id": "74410c9603026fada1899316c60d8ca7", "fusion_lon": 0.0}, {"rental_uris": {"ios": "https://dc.lft.to/lastmile_qr_scan", "android": "https://dc.lft.to/lastmile_qr_scan"}, "type": "electric_scooter", "name": "28f5d2d3e7842186b1287c931bbf1328", "is_reserved": 0, "lon": -77.0305675, "is_disabled": 0, "fusion_lat": 0.0, "lat": 38.9237375, "bike_id": "28f5d2d3e7842186b1287c931bbf1328", "fusion_lon": 0.0}, {"rental_uris": {"ios": "https://dc.lft.to/lastmile_qr_scan", "android": "https://dc.lft.to/lastmile_qr_scan"}, "type": "electric_scooter", "name": "54e687af83d2c93fa71c9db9745cdfc2", "is_reserved": 0, "lon": -77.04433983333334, "is_disabled": 0, "fusion_lat": 0.0, "lat": 38.92128616666667, "bike_id": "54e687af83d2c93fa71c9db9745cdfc2", "fusion_lon": 0.0}, {"rental_uris": {"ios": "https://dc.lft.to/lastmile_qr_scan", "android": "https://dc.lft.to/lastmile_qr_scan"}, "type": "electric_bike", "name": "0dc3b82b6b53f67bc2dcc14f79f13dbc", "is_reserved": 0, "lon": -76.93871516666667, "is_disabled": 0, "fusion_lat": 0.0, "lat": 38.97768383333333, "bike_id": "0dc3b82b6b53f67bc2dcc14f79f13dbc", "fusion_lon": 0.0}, {"rental_uris": {"ios": "https://dc.lft.to/lastmile_qr_scan", "android": "https://dc.lft.to/lastmile_qr_scan"}, "type": "electric_bike", "name": "33a0583393ddda626edd0d96ebdf82bd", "is_reserved": 0, "lon": -76.98348966666667, "is_disabled": 0, "fusion_lat": 0.0, "lat": 38.86263233333333, "bike_id": "33a0583393ddda626edd0d96ebdf82bd", "fusion_lon": 0.0}, {"rental_uris": {"ios": "https://dc.lft.to/lastmile_qr_scan", "android": "https://dc.lft.to/lastmile_qr_scan"}, "type": "electric_scooter", "name": "239642f8673525693415aa9182e810fc", "is_reserved": 0, "lon": -77.004829, "is_disabled": 0, "fusion_lat": 0.0, "lat": 38.8745795, "bike_id": "239642f8673525693415aa9182e810fc", "fusion_lon": 0.0}, {"rental_uris": {"ios": "https://dc.lft.to/lastmile_qr_scan", "android": "https://dc.lft.to/lastmile_qr_scan"}, "type": "electric_scooter", "name": "d20d4c22eb3e5620432900ae3ac426f5", "is_reserved": 0, "lon": -77.05058983333333, "is_disabled": 0, "fusion_lat": 0.0, "lat": 38.92355533333333, "bike_id": "d20d4c22eb3e5620432900ae3ac426f5", "fusion_lon": 0.0}, {"rental_uris": {"ios": "https://dc.lft.to/lastmile_qr_scan", "android": "https://dc.lft.to/lastmile_qr_scan"}, "type": "electric_scooter", "name": "754fddaf5dd4d9a9ae95611e4ad7ff50", "is_reserved": 0, "lon": -77.03804033333333, "is_disabled": 0, "fusion_lat": 0.0, "lat": 38.910392, "bike_id": "754fddaf5dd4d9a9ae95611e4ad7ff50", "fusion_lon": 0.0}, {"rental_uris": {"ios": "https://dc.lft.to/lastmile_qr_scan", "android": "https://dc.lft.to/lastmile_qr_scan"}, "type": "electric_scooter", "name": "c93d3acb2abfb6549678509c2b40dd8c", "is_reserved": 0, "lon": -77.0614915, "is_disabled": 0, "fusion_lat": 0.0, "lat": 38.94303983333333, "bike_id": "c93d3acb2abfb6549678509c2b40dd8c", "fusion_lon": 0.0}, {"rental_uris": {"ios": "https://dc.lft.to/lastmile_qr_scan", "android": "https://dc.lft.to/lastmile_qr_scan"}, "type": "electric_scooter", "name": "79e6f99c23d243a901507d699e4e6510", "is_reserved": 0, "lon": -77.032581, "is_disabled": 0, "fusion_lat": 0.0, "lat": 38.911231666666666, "bike_id": "79e6f99c23d243a901507d699e4e6510", "fusion_lon": 0.0}, {"rental_uris": {"ios": "https://dc.lft.to/lastmile_qr_scan", "android": "https://dc.lft.to/lastmile_qr_scan"}, "type": "electric_scooter", "name": "027e137bcc6fc7ec529fc9e23d9feed8", "is_reserved": 0, "lon": -76.94654, "is_disabled": 0, "fusion_lat": 0.0, "lat": 38.898275166666664, "bike_id": "027e137bcc6fc7ec529fc9e23d9feed8", "fusion_lon": 0.0}, {"rental_uris": {"ios": "https://dc.lft.to/lastmile_qr_scan", "android": "https://dc.lft.to/lastmile_qr_scan"}, "type": "electric_scooter", "name": "cb590b839423ec43d2d30843179f5988", "is_reserved": 0, "lon": -77.0466965, "is_disabled": 0, "fusion_lat": 0.0, "lat": 38.9028975, "bike_id": "cb590b839423ec43d2d30843179f5988", "fusion_lon": 0.0}, {"rental_uris": {"ios": "https://dc.lft.to/lastmile_qr_scan", "android": "https://dc.lft.to/lastmile_qr_scan"}, "type": "electric_bike", "name": "3f365953a3cb9afba8ce673999426138", "is_reserved": 0, "lon": -77.1273245, "is_disabled": 0, "fusion_lat": 0.0, "lat": 38.895604166666665, "bike_id": "3f365953a3cb9afba8ce673999426138", "fusion_lon": 0.0}, {"rental_uris": {"ios": "https://dc.lft.to/lastmile_qr_scan", "android": "https://dc.lft.to/lastmile_qr_scan"}, "type": "electric_scooter", "name": "e4823cbbd1613380651178906345a21e", "is_reserved": 0, "lon": -77.00909516666667, "is_disabled": 0, "fusion_lat": 0.0, "lat": 38.89877633333333, "bike_id": "e4823cbbd1613380651178906345a21e", "fusion_lon": 0.0}, {"rental_uris": {"ios": "https://dc.lft.to/lastmile_qr_scan", "android": "https://dc.lft.to/lastmile_qr_scan"}, "type": "electric_scooter", "name": "163e62b3fdc730dc0a6cbe3727392bd3", "is_reserved": 0, "lon": -77.05783616666666, "is_disabled": 0, "fusion_lat": 0.0, "lat": 38.90511683333333, "bike_id": "163e62b3fdc730dc0a6cbe3727392bd3", "fusion_lon": 0.0}, {"rental_uris": {"ios": "https://dc.lft.to/lastmile_qr_scan", "android": "https://dc.lft.to/lastmile_qr_scan"}, "type": "electric_scooter", "name": "31b148e218cb796d5fc4679d53e4360d", "is_reserved": 0, "lon": -77.0092785, "is_disabled": 0, "fusion_lat": 0.0, "lat": 38.89603416666667, "bike_id": "31b148e218cb796d5fc4679d53e4360d", "fusion_lon": 0.0}, {"rental_uris": {"ios": "https://dc.lft.to/lastmile_qr_scan", "android": "https://dc.lft.to/lastmile_qr_scan"}, "type": "electric_bike", "name": "292e058b11d5a4ba77ac2982b207dc49", "is_reserved": 0, "lon": -76.98087883333334, "is_disabled": 0, "fusion_lat": 0.0, "lat": 38.95353683333333, "bike_id": "292e058b11d5a4ba77ac2982b207dc49", "fusion_lon": 0.0}, {"rental_uris": {"ios": "https://dc.lft.to/lastmile_qr_scan", "android": "https://dc.lft.to/lastmile_qr_scan"}, "type": "electric_scooter", "name": "950e41cc60c757b5198ef38779c15065", "is_reserved": 0, "lon": -77.03508233333334, "is_disabled": 0, "fusion_lat": 0.0, "lat": 38.9215175, "bike_id": "950e41cc60c757b5198ef38779c15065", "fusion_lon": 0.0}, {"rental_uris": {"ios": "https://dc.lft.to/lastmile_qr_scan", "android": "https://dc.lft.to/lastmile_qr_scan"}, "type": "electric_scooter", "name": "1ed2b6f2ba2da5be04fe2c845e730e5e", "is_reserved": 0, "lon": -77.0332655, "is_disabled": 0, "fusion_lat": 0.0, "lat": 38.91910416666666, "bike_id": "1ed2b6f2ba2da5be04fe2c845e730e5e", "fusion_lon": 0.0}, {"rental_uris": {"ios": "https://dc.lft.to/lastmile_qr_scan", "android": "https://dc.lft.to/lastmile_qr_scan"}, "type": "electric_scooter", "name": "1ba37208420a9335cf4179f3e8dcf584", "is_reserved": 0, "lon": -76.99637616666666, "is_disabled": 0, "fusion_lat": 0.0, "lat": 38.887650666666666, "bike_id": "1ba37208420a9335cf4179f3e8dcf584", "fusion_lon": 0.0}, {"rental_uris": {"ios": "https://dc.lft.to/lastmile_qr_scan", "android": "https://dc.lft.to/lastmile_qr_scan"}, "type": "electric_scooter", "name": "b4fdab4d40a0b11d3e8bc9050b46b7b5", "is_reserved": 0, "lon": -77.02153616666666, "is_disabled": 0, "fusion_lat": 0.0, "lat": 38.88742966666667, "bike_id": "b4fdab4d40a0b11d3e8bc9050b46b7b5", "fusion_lon": 0.0}, {"rental_uris": {"ios": "https://dc.lft.to/lastmile_qr_scan", "android": "https://dc.lft.to/lastmile_qr_scan"}, "type": "electric_scooter", "name": "685639b0acbb5d6698c3eae2b48f27dc", "is_reserved": 0, "lon": -77.02636816666667, "is_disabled": 0, "fusion_lat": 0.0, "lat": 38.926794666666666, "bike_id": "685639b0acbb5d6698c3eae2b48f27dc", "fusion_lon": 0.0}, {"rental_uris": {"ios": "https://dc.lft.to/lastmile_qr_scan", "android": "https://dc.lft.to/lastmile_qr_scan"}, "type": "electric_scooter", "name": "cc0680d5e01a86818e576f9bd05878a7", "is_reserved": 0, "lon": -76.97937133333333, "is_disabled": 0, "fusion_lat": 0.0, "lat": 38.90662116666667, "bike_id": "cc0680d5e01a86818e576f9bd05878a7", "fusion_lon": 0.0}, {"rental_uris": {"ios": "https://dc.lft.to/lastmile_qr_scan", "android": "https://dc.lft.to/lastmile_qr_scan"}, "type": "electric_bike", "name": "60112cbe107574e4b26e022a5c902fbc", "is_reserved": 0, "lon": -76.9954335, "is_disabled": 0, "fusion_lat": 0.0, "lat": 38.831581, "bike_id": "60112cbe107574e4b26e022a5c902fbc", "fusion_lon": 0.0}, {"rental_uris": {"ios": "https://dc.lft.to/lastmile_qr_scan", "android": "https://dc.lft.to/lastmile_qr_scan"}, "type": "electric_scooter", "name": "6d418e4db26cd1e0671a0f298f6cb16c", "is_reserved": 0, "lon": -76.95287933333333, "is_disabled": 0, "fusion_lat": 0.0, "lat": 38.890269333333336, "bike_id": "6d418e4db26cd1e0671a0f298f6cb16c", "fusion_lon": 0.0}, {"rental_uris": {"ios": "https://dc.lft.to/lastmile_qr_scan", "android": "https://dc.lft.to/lastmile_qr_scan"}, "type": "electric_scooter", "name": "1cac45e366b5e0cad8a9120bcd1f12e2", "is_reserved": 0, "lon": -77.0355975, "is_disabled": 0, "fusion_lat": 0.0, "lat": 38.92739483333333, "bike_id": "1cac45e366b5e0cad8a9120bcd1f12e2", "fusion_lon": 0.0}, {"rental_uris": {"ios": "https://dc.lft.to/lastmile_qr_scan", "android": "https://dc.lft.to/lastmile_qr_scan"}, "type": "electric_scooter", "name": "391c82fd9a1371f8d8cd6791a48db6a6", "is_reserved": 0, "lon": -77.02083566666667, "is_disabled": 0, "fusion_lat": 0.0, "lat": 38.91252716666666, "bike_id": "391c82fd9a1371f8d8cd6791a48db6a6", "fusion_lon": 0.0}, {"rental_uris": {"ios": "https://dc.lft.to/lastmile_qr_scan", "android": "https://dc.lft.to/lastmile_qr_scan"}, "type": "electric_scooter", "name": "e0bc6a491124735bd46c25db2af95ecc", "is_reserved": 0, "lon": -76.98532233333333, "is_disabled": 0, "fusion_lat": 0.0, "lat": 38.87974366666667, "bike_id": "e0bc6a491124735bd46c25db2af95ecc", "fusion_lon": 0.0}, {"rental_uris": {"ios": "https://dc.lft.to/lastmile_qr_scan", "android": "https://dc.lft.to/lastmile_qr_scan"}, "type": "electric_scooter", "name": "8e060c3e318f4b9b74e70ac668d4c933", "is_reserved": 0, "lon": -77.02379566666667, "is_disabled": 0, "fusion_lat": 0.0, "lat": 38.903271833333335, "bike_id": "8e060c3e318f4b9b74e70ac668d4c933", "fusion_lon": 0.0}, {"rental_uris": {"ios": "https://dc.lft.to/lastmile_qr_scan", "android": "https://dc.lft.to/lastmile_qr_scan"}, "type": "electric_scooter", "name": "addfd6ea7f44145f2cb16484c2674479", "is_reserved": 0, "lon": -77.01889483333333, "is_disabled": 0, "fusion_lat": 0.0, "lat": 38.87470416666667, "bike_id": "addfd6ea7f44145f2cb16484c2674479", "fusion_lon": 0.0}, {"rental_uris": {"ios": "https://dc.lft.to/lastmile_qr_scan", "android": "https://dc.lft.to/lastmile_qr_scan"}, "type": "electric_scooter", "name": "b656d6ab8464d4d772799e5c85e5444c", "is_reserved": 0, "lon": -77.04002866666667, "is_disabled": 0, "fusion_lat": 0.0, "lat": 38.93424816666667, "bike_id": "b656d6ab8464d4d772799e5c85e5444c", "fusion_lon": 0.0}, {"rental_uris": {"ios": "https://dc.lft.to/lastmile_qr_scan", "android": "https://dc.lft.to/lastmile_qr_scan"}, "type": "electric_bike", "name": "d8c83c56fb5d30bb4f4b720fcfedc223", "is_reserved": 0, "lon": -77.1288395, "is_disabled": 0, "fusion_lat": 0.0, "lat": 38.90610316666667, "bike_id": "d8c83c56fb5d30bb4f4b720fcfedc223", "fusion_lon": 0.0}, {"rental_uris": {"ios": "https://dc.lft.to/lastmile_qr_scan", "android": "https://dc.lft.to/lastmile_qr_scan"}, "type": "electric_scooter", "name": "8aadd3ce1756212e9c9014358bec039d", "is_reserved": 0, "lon": -77.0531585, "is_disabled": 0, "fusion_lat": 0.0, "lat": 38.940964666666666, "bike_id": "8aadd3ce1756212e9c9014358bec039d", "fusion_lon": 0.0}, {"rental_uris": {"ios": "https://dc.lft.to/lastmile_qr_scan", "android": "https://dc.lft.to/lastmile_qr_scan"}, "type": "electric_scooter", "name": "e49df9df5e96c176cc45a7b0e9424cac", "is_reserved": 0, "lon": -77.06717566666667, "is_disabled": 0, "fusion_lat": 0.0, "lat": 38.914592666666664, "bike_id": "e49df9df5e96c176cc45a7b0e9424cac", "fusion_lon": 0.0}, {"rental_uris": {"ios": "https://dc.lft.to/lastmile_qr_scan", "android": "https://dc.lft.to/lastmile_qr_scan"}, "type": "electric_bike", "name": "75633db8e07ce301c51f777e891eb158", "is_reserved": 0, "lon": -76.96892766666667, "is_disabled": 0, "fusion_lat": 0.0, "lat": 38.86984416666667, "bike_id": "75633db8e07ce301c51f777e891eb158", "fusion_lon": 0.0}, {"rental_uris": {"ios": "https://dc.lft.to/lastmile_qr_scan", "android": "https://dc.lft.to/lastmile_qr_scan"}, "type": "electric_scooter", "name": "d5658b773cd032a4dced0765335dc919", "is_reserved": 0, "lon": -76.99143833333333, "is_disabled": 0, "fusion_lat": 0.0, "lat": 38.87337983333333, "bike_id": "d5658b773cd032a4dced0765335dc919", "fusion_lon": 0.0}, {"rental_uris": {"ios": "https://dc.lft.to/lastmile_qr_scan", "android": "https://dc.lft.to/lastmile_qr_scan"}, "type": "electric_scooter", "name": "74031a2c71ce1f6eedaac880b60db4f8", "is_reserved": 0, "lon": -77.06398683333333, "is_disabled": 0, "fusion_lat": 0.0, "lat": 38.908593, "bike_id": "74031a2c71ce1f6eedaac880b60db4f8", "fusion_lon": 0.0}, {"rental_uris": {"ios": "https://dc.lft.to/lastmile_qr_scan", "android": "https://dc.lft.to/lastmile_qr_scan"}, "type": "electric_scooter", "name": "2a61fa46a716babbb4fe601ad5063c0e", "is_reserved": 0, "lon": -77.02474816666667, "is_disabled": 0, "fusion_lat": 0.0, "lat": 38.903225, "bike_id": "2a61fa46a716babbb4fe601ad5063c0e", "fusion_lon": 0.0}, {"rental_uris": {"ios": "https://dc.lft.to/lastmile_qr_scan", "android": "https://dc.lft.to/lastmile_qr_scan"}, "type": "electric_scooter", "name": "44718115304056b8f8dbdfaced67f5be", "is_reserved": 0, "lon": -77.02177983333333, "is_disabled": 0, "fusion_lat": 0.0, "lat": 38.9282825, "bike_id": "44718115304056b8f8dbdfaced67f5be", "fusion_lon": 0.0}, {"rental_uris": {"ios": "https://dc.lft.to/lastmile_qr_scan", "android": "https://dc.lft.to/lastmile_qr_scan"}, "type": "electric_scooter", "name": "52facb3ef1d7897501f9c9b0eaf2ffdc", "is_reserved": 0, "lon": -77.01884033333333, "is_disabled": 0, "fusion_lat": 0.0, "lat": 38.8771435, "bike_id": "52facb3ef1d7897501f9c9b0eaf2ffdc", "fusion_lon": 0.0}, {"rental_uris": {"ios": "https://dc.lft.to/lastmile_qr_scan", "android": "https://dc.lft.to/lastmile_qr_scan"}, "type": "electric_bike", "name": "36584ede70036992c3050956a8263373", "is_reserved": 0, "lon": -76.97614083333333, "is_disabled": 0, "fusion_lat": 0.0, "lat": 38.892911, "bike_id": "36584ede70036992c3050956a8263373", "fusion_lon": 0.0}, {"rental_uris": {"ios": "https://dc.lft.to/lastmile_qr_scan", "android": "https://dc.lft.to/lastmile_qr_scan"}, "type": "electric_scooter", "name": "7b05db5c73288d2d3525a865892213ce", "is_reserved": 0, "lon": -77.03623583333334, "is_disabled": 0, "fusion_lat": 0.0, "lat": 38.926575666666665, "bike_id": "7b05db5c73288d2d3525a865892213ce", "fusion_lon": 0.0}, {"rental_uris": {"ios": "https://dc.lft.to/lastmile_qr_scan", "android": "https://dc.lft.to/lastmile_qr_scan"}, "type": "electric_scooter", "name": "305f645e1240c4629fb97fb2fc82a65a", "is_reserved": 0, "lon": -77.0191855, "is_disabled": 0, "fusion_lat": 0.0, "lat": 38.90559566666667, "bike_id": "305f645e1240c4629fb97fb2fc82a65a", "fusion_lon": 0.0}, {"rental_uris": {"ios": "https://dc.lft.to/lastmile_qr_scan", "android": "https://dc.lft.to/lastmile_qr_scan"}, "type": "electric_bike", "name": "66cf92cd507a1132bf44b5635f61b3c6", "is_reserved": 0, "lon": -77.2218855, "is_disabled": 0, "fusion_lat": 0.0, "lat": 38.87176383333333, "bike_id": "66cf92cd507a1132bf44b5635f61b3c6", "fusion_lon": 0.0}, {"rental_uris": {"ios": "https://dc.lft.to/lastmile_qr_scan", "android": "https://dc.lft.to/lastmile_qr_scan"}, "type": "electric_scooter", "name": "41a796107fc97b181a9bd8f735fbfcc9", "is_reserved": 0, "lon": -77.00697583333333, "is_disabled": 0, "fusion_lat": 0.0, "lat": 38.90562166666667, "bike_id": "41a796107fc97b181a9bd8f735fbfcc9", "fusion_lon": 0.0}, {"rental_uris": {"ios": "https://dc.lft.to/lastmile_qr_scan", "android": "https://dc.lft.to/lastmile_qr_scan"}, "type": "electric_scooter", "name": "bb8d8de0e941d94094fbb1c2f0ffaf42", "is_reserved": 0, "lon": -77.02558316666666, "is_disabled": 0, "fusion_lat": 0.0, "lat": 38.920311833333336, "bike_id": "bb8d8de0e941d94094fbb1c2f0ffaf42", "fusion_lon": 0.0}, {"rental_uris": {"ios": "https://dc.lft.to/lastmile_qr_scan", "android": "https://dc.lft.to/lastmile_qr_scan"}, "type": "electric_scooter", "name": "5a776daaeb116a0c595d5fcdf6b57656", "is_reserved": 0, "lon": -77.00929916666666, "is_disabled": 0, "fusion_lat": 0.0, "lat": 38.871189, "bike_id": "5a776daaeb116a0c595d5fcdf6b57656", "fusion_lon": 0.0}, {"rental_uris": {"ios": "https://dc.lft.to/lastmile_qr_scan", "android": "https://dc.lft.to/lastmile_qr_scan"}, "type": "electric_scooter", "name": "0a4cd512daea201dae87b8ff33abb569", "is_reserved": 0, "lon": -77.00256516666667, "is_disabled": 0, "fusion_lat": 0.0, "lat": 38.91257916666667, "bike_id": "0a4cd512daea201dae87b8ff33abb569", "fusion_lon": 0.0}, {"rental_uris": {"ios": "https://dc.lft.to/lastmile_qr_scan", "android": "https://dc.lft.to/lastmile_qr_scan"}, "type": "electric_scooter", "name": "f787c5009b593c58c824f33ff631cc8a", "is_reserved": 0, "lon": -77.051193, "is_disabled": 0, "fusion_lat": 0.0, "lat": 38.896986, "bike_id": "f787c5009b593c58c824f33ff631cc8a", "fusion_lon": 0.0}, {"rental_uris": {"ios": "https://dc.lft.to/lastmile_qr_scan", "android": "https://dc.lft.to/lastmile_qr_scan"}, "type": "electric_scooter", "name": "1ffe64c8bdcee2ab371927de797eaf89", "is_reserved": 0, "lon": -77.0096265, "is_disabled": 0, "fusion_lat": 0.0, "lat": 38.9213525, "bike_id": "1ffe64c8bdcee2ab371927de797eaf89", "fusion_lon": 0.0}, {"rental_uris": {"ios": "https://dc.lft.to/lastmile_qr_scan", "android": "https://dc.lft.to/lastmile_qr_scan"}, "type": "electric_scooter", "name": "ff31ddb029bc3e865ef9c45d120639ba", "is_reserved": 0, "lon": -76.998419, "is_disabled": 0, "fusion_lat": 0.0, "lat": 38.90732766666667, "bike_id": "ff31ddb029bc3e865ef9c45d120639ba", "fusion_lon": 0.0}, {"rental_uris": {"ios": "https://dc.lft.to/lastmile_qr_scan", "android": "https://dc.lft.to/lastmile_qr_scan"}, "type": "electric_scooter", "name": "8836c9d0bb515947f47bf6ef2650153b", "is_reserved": 0, "lon": -77.02910583333333, "is_disabled": 0, "fusion_lat": 0.0, "lat": 38.917046, "bike_id": "8836c9d0bb515947f47bf6ef2650153b", "fusion_lon": 0.0}, {"rental_uris": {"ios": "https://dc.lft.to/lastmile_qr_scan", "android": "https://dc.lft.to/lastmile_qr_scan"}, "type": "electric_scooter", "name": "f494456a66491b4bd20eea5e8a0dff64", "is_reserved": 0, "lon": -77.040767, "is_disabled": 0, "fusion_lat": 0.0, "lat": 38.920252, "bike_id": "f494456a66491b4bd20eea5e8a0dff64", "fusion_lon": 0.0}, {"rental_uris": {"ios": "https://dc.lft.to/lastmile_qr_scan", "android": "https://dc.lft.to/lastmile_qr_scan"}, "type": "electric_scooter", "name": "75e426cc4dfcd432c307ae60532cd304", "is_reserved": 0, "lon": -77.04137833333333, "is_disabled": 0, "fusion_lat": 0.0, "lat": 38.925395, "bike_id": "75e426cc4dfcd432c307ae60532cd304", "fusion_lon": 0.0}, {"rental_uris": {"ios": "https://dc.lft.to/lastmile_qr_scan", "android": "https://dc.lft.to/lastmile_qr_scan"}, "type": "electric_scooter", "name": "0a20f33ca2ca56ea1e3859e1d9f9390c", "is_reserved": 0, "lon": -77.05227783333333, "is_disabled": 0, "fusion_lat": 0.0, "lat": 38.9246045, "bike_id": "0a20f33ca2ca56ea1e3859e1d9f9390c", "fusion_lon": 0.0}, {"rental_uris": {"ios": "https://dc.lft.to/lastmile_qr_scan", "android": "https://dc.lft.to/lastmile_qr_scan"}, "type": "electric_scooter", "name": "8fa388d8ee59b3d36860a406c9087fa2", "is_reserved": 0, "lon": -77.03222933333333, "is_disabled": 0, "fusion_lat": 0.0, "lat": 38.91991433333333, "bike_id": "8fa388d8ee59b3d36860a406c9087fa2", "fusion_lon": 0.0}, {"rental_uris": {"ios": "https://dc.lft.to/lastmile_qr_scan", "android": "https://dc.lft.to/lastmile_qr_scan"}, "type": "electric_scooter", "name": "1704e25f631a4ef8c8115042c8130806", "is_reserved": 0, "lon": -77.015932, "is_disabled": 0, "fusion_lat": 0.0, "lat": 38.899768, "bike_id": "1704e25f631a4ef8c8115042c8130806", "fusion_lon": 0.0}, {"rental_uris": {"ios": "https://dc.lft.to/lastmile_qr_scan", "android": "https://dc.lft.to/lastmile_qr_scan"}, "type": "electric_scooter", "name": "13ecda55480ac9a17f732a41117486e1", "is_reserved": 0, "lon": -77.03467733333333, "is_disabled": 0, "fusion_lat": 0.0, "lat": 38.90449666666667, "bike_id": "13ecda55480ac9a17f732a41117486e1", "fusion_lon": 0.0}, {"rental_uris": {"ios": "https://dc.lft.to/lastmile_qr_scan", "android": "https://dc.lft.to/lastmile_qr_scan"}, "type": "electric_scooter", "name": "697d4e1322769f22b9fc470b8e247231", "is_reserved": 0, "lon": -77.04911033333333, "is_disabled": 0, "fusion_lat": 0.0, "lat": 38.910382166666665, "bike_id": "697d4e1322769f22b9fc470b8e247231", "fusion_lon": 0.0}, {"rental_uris": {"ios": "https://dc.lft.to/lastmile_qr_scan", "android": "https://dc.lft.to/lastmile_qr_scan"},