{"data": {"bikes": [{"fusion_lon": 0.0, "name": "7462ea358ceabc53795141a50734ce69", "rental_uris": {"android": "https://dc.lft.to/lastmile_qr_scan", "ios": "https://dc.lft.to/lastmile_qr_scan"}, "lat": 38.897124166666664, "bike_id": "7462ea358ceabc53795141a50734ce69", "is_disabled": 0, "lon": -76.991183, "is_reserved": 0, "fusion_lat": 0.0, "type": "electric_scooter"}, {"fusion_lon": 0.0, "name": "1364603651966423727fc9a8ec18f666", "rental_uris": {"android": "https://dc.lft.to/lastmile_qr_scan", "ios": "https://dc.lft.to/lastmile_qr_scan"}, "lat": 38.9353565, "bike_id": "1364603651966423727fc9a8ec18f666", "is_disabled": 0, "lon": -77.02305983333333, "is_reserved": 0, "fusion_lat": 0.0, "type": "electric_scooter"}, {"fusion_lon": 0.0, "name": "2f1bc8ab3996c5e03a3dea91c0f62faf", "rental_uris": {"android": "https://dc.lft.to/lastmile_qr_scan", "ios": "https://dc.lft.to/lastmile_qr_scan"}, "lat": 38.898225833333335, "bike_id": "2f1bc8ab3996c5e03a3dea91c0f62faf", "is_disabled": 0, "lon": -77.00748883333333, "is_reserved": 0, "fusion_lat": 0.0, "type": "electric_scooter"}, {"fusion_lon": 0.0, "name": "e7514797b69b90f89cea979b96d3dd39", "rental_uris": {"android": "https://dc.lft.to/lastmile_qr_scan", "ios": "https://dc.lft.to/lastmile_qr_scan"}, "lat": 38.903333, "bike_id": "e7514797b69b90f89cea979b96d3dd39", "is_disabled": 0, "lon": -76.9759585, "is_reserved": 0, "fusion_lat": 0.0, "type": "electric_scooter"}, {"fusion_lon": 0.0, "name": "a8ce1c7d11e8684621d083d672dfabb5", "rental_uris": {"android": "https://dc.lft.to/lastmile_qr_scan", "ios": "https://dc.lft.to/lastmile_qr_scan"}, "lat": 38.903962, "bike_id": "a8ce1c7d11e8684621d083d672dfabb5", "is_disabled": 0, "lon": -77.00428166666667, "is_reserved": 0, "fusion_lat": 0.0, "type": "electric_scooter"}, {"fusion_lon": 0.0, "name": "942a17dc19750f4cb1dd9e216f274481", "rental_uris": {"android": "https://dc.lft.to/lastmile_qr_scan", "ios": "https://dc.lft.to/lastmile_qr_scan"}, "lat": 38.91710416666667, "bike_id": "942a17dc19750f4cb1dd9e216f274481", "is_disabled": 0, "lon": -77.02898383333333, "is_reserved": 0, "fusion_lat": 0.0, "type": "electric_scooter"}, {"fusion_lon": 0.0, "name": "016be7fdd71fd876a6e918591dc22068", "rental_uris": {"android": "https://dc.lft.to/lastmile_qr_scan", "ios": "https://dc.lft.to/lastmile_qr_scan"}, "lat": 38.950751333333336, "bike_id": "016be7fdd71fd876a6e918591dc22068", "is_disabled": 0, "lon": -77.02982783333333, "is_reserved": 0, "fusion_lat": 0.0, "type": "electric_scooter"}, {"fusion_lon": 0.0, "name": "edbbe94fa43a3508bdaf6b4c34bc62d7", "rental_uris": {"android": "https://dc.lft.to/lastmile_qr_scan", "ios": "https://dc.lft.to/lastmile_qr_scan"}, "lat": 38.9002815, "bike_id": "edbbe94fa43a3508bdaf6b4c34bc62d7", "is_disabled": 0, "lon": -76.986874, "is_reserved": 0, "fusion_lat": 0.0, "type": "electric_scooter"}, {"fusion_lon": 0.0, "name": "8bb6f5298dfa89559c603db9814ccecd", "rental_uris": {"android": "https://dc.lft.to/lastmile_qr_scan", "ios": "https://dc.lft.to/lastmile_qr_scan"}, "lat": 38.8543545, "bike_id": "8bb6f5298dfa89559c603db9814ccecd", "is_disabled": 0, "lon": -77.08317, "is_reserved": 0, "fusion_lat": 0.0, "type": "electric_bike"}, {"fusion_lon": 0.0, "name": "099eed9be56a03e27b9fde7a4f6f48a9", "rental_uris": {"android": "https://dc.lft.to/lastmile_qr_scan", "ios": "https://dc.lft.to/lastmile_qr_scan"}, "lat": 38.94679766666667, "bike_id": "099eed9be56a03e27b9fde7a4f6f48a9", "is_disabled": 0, "lon": -76.99327116666667, "is_reserved": 0, "fusion_lat": 0.0, "type": "electric_bike"}, {"fusion_lon": 0.0, "name": "04affa298a61035b63f7d5c2bd980f54", "rental_uris": {"android": "https://dc.lft.to/lastmile_qr_scan", "ios": "https://dc.lft.to/lastmile_qr_scan"}, "lat": 38.92045016666667, "bike_id": "04affa298a61035b63f7d5c2bd980f54", "is_disabled": 0, "lon": -77.01678166666666, "is_reserved": 0, "fusion_lat": 0.0, "type": "electric_scooter"}, {"fusion_lon": 0.0, "name": "022c4d692305d6a53d9afb36d487251b", "rental_uris": {"android": "https://dc.lft.to/lastmile_qr_scan", "ios": "https://dc.lft.to/lastmile_qr_scan"}, "lat": 38.9268855, "bike_id": "022c4d692305d6a53d9afb36d487251b", "is_disabled": 0, "lon": -76.99563033333334, "is_reserved": 0, "fusion_lat": 0.0, "type": "electric_scooter"}, {"fusion_lon": 0.0, "name": "84e647303a610a128e1e04d9910fdf02", "rental_uris": {"android": "https://dc.lft.to/lastmile_qr_scan", "ios": "https://dc.lft.to/lastmile_qr_scan"}, "lat": 38.9990385, "bike_id": "84e647303a610a128e1e04d9910fdf02", "is_disabled": 0, "lon": -76.90861183333334, "is_reserved": 0, "fusion_lat": 0.0, "type": "electric_bike"}, {"fusion_lon": 0.0, "name": "0f844edae945313d5cdb5a3c4544a71d", "rental_uris": {"android": "https://dc.lft.to/lastmile_qr_scan", "ios": "https://dc.lft.to/lastmile_qr_scan"}, "lat": 38.87035516666667, "bike_id": "0f844edae945313d5cdb5a3c4544a71d", "is_disabled": 0, "lon": -77.229033, "is_reserved": 0, "fusion_lat": 0.0, "type": "electric_bike"}, {"fusion_lon": 0.0, "name": "b5b2709c576cbb060386d9ea547b54ce", "rental_uris": {"android": "https://dc.lft.to/lastmile_qr_scan", "ios": "https://dc.lft.to/lastmile_qr_scan"}, "lat": 38.957125166666664, "bike_id": "b5b2709c576cbb060386d9ea547b54ce", "is_disabled": 0, "lon": -77.00279116666667, "is_reserved": 0, "fusion_lat": 0.0, "type": "electric_bike"}, {"fusion_lon": 0.0, "name": "16ef19e4c2e8f8d077f55213081e9b26", "rental_uris": {"android": "https://dc.lft.to/lastmile_qr_scan", "ios": "https://dc.lft.to/lastmile_qr_scan"}, "lat": 38.924672666666666, "bike_id": "16ef19e4c2e8f8d077f55213081e9b26", "is_disabled": 0, "lon": -77.05236816666667, "is_reserved": 0, "fusion_lat": 0.0, "type": "electric_scooter"}, {"fusion_lon": 0.0, "name": "4379927a35077bca94f815889e21a4f8", "rental_uris": {"android": "https://dc.lft.to/lastmile_qr_scan", "ios": "https://dc.lft.to/lastmile_qr_scan"}, "lat": 38.9033445, "bike_id": "4379927a35077bca94f815889e21a4f8", "is_disabled": 0, "lon": -76.98221866666667, "is_reserved": 0, "fusion_lat": 0.0, "type": "electric_scooter"}, {"fusion_lon": 0.0, "name": "e4ca5ceb61d3f3b9e075e41712d2f737", "rental_uris": {"android": "https://dc.lft.to/lastmile_qr_scan", "ios": "https://dc.lft.to/lastmile_qr_scan"}, "lat": 38.894725666666666, "bike_id": "e4ca5ceb61d3f3b9e075e41712d2f737", "is_disabled": 0, "lon": -76.997125, "is_reserved": 0, "fusion_lat": 0.0, "type": "electric_scooter"}, {"fusion_lon": 0.0, "name": "dd5967b84ed0a70f9fdd8df807cf1fe4", "rental_uris": {"android": "https://dc.lft.to/lastmile_qr_scan", "ios": "https://dc.lft.to/lastmile_qr_scan"}, "lat": 38.85244333333333, "bike_id": "dd5967b84ed0a70f9fdd8df807cf1fe4", "is_disabled": 0, "lon": -77.053054, "is_reserved": 0, "fusion_lat": 0.0, "type": "electric_bike"}, {"fusion_lon": 0.0, "name": "5a6468b063438031274bef29bf7d3deb", "rental_uris": {"android": "https://dc.lft.to/lastmile_qr_scan", "ios": "https://dc.lft.to/lastmile_qr_scan"}, "lat": 38.9120215, "bike_id": "5a6468b063438031274bef29bf7d3deb", "is_disabled": 0, "lon": -77.032103, "is_reserved": 0, "fusion_lat": 0.0, "type": "electric_scooter"}, {"fusion_lon": 0.0, "name": "7853b77981a87e6714f91d3824823f69", "rental_uris": {"android": "https://dc.lft.to/lastmile_qr_scan", "ios": "https://dc.lft.to/lastmile_qr_scan"}, "lat": 38.91562866666666, "bike_id": "7853b77981a87e6714f91d3824823f69", "is_disabled": 0, "lon": -77.04887083333334, "is_reserved": 0, "fusion_lat": 0.0, "type": "electric_scooter"}, {"fusion_lon": 0.0, "name": "e35eac37fc311a191071d149236ae6de", "rental_uris": {"android": "https://dc.lft.to/lastmile_qr_scan", "ios": "https://dc.lft.to/lastmile_qr_scan"}, "lat": 38.893522833333336, "bike_id": "e35eac37fc311a191071d149236ae6de", "is_disabled": 0, "lon": -77.00339333333334, "is_reserved": 0, "fusion_lat": 0.0, "type": "electric_scooter"}, {"fusion_lon": 0.0, "name": "ced9d2414dfd81f7e7418900582337d5", "rental_uris": {"android": "https://dc.lft.to/lastmile_qr_scan", "ios": "https://dc.lft.to/lastmile_qr_scan"}, "lat": 38.87650133333333, "bike_id": "ced9d2414dfd81f7e7418900582337d5", "is_disabled": 0, "lon": -77.0025995, "is_reserved": 0, "fusion_lat": 0.0, "type": "electric_scooter"}, {"fusion_lon": 0.0, "name": "54fbfcc90f67cbdad556c4fe192c7ada", "rental_uris": {"android": "https://dc.lft.to/lastmile_qr_scan", "ios": "https://dc.lft.to/lastmile_qr_scan"}, "lat": 38.89230666666667, "bike_id": "54fbfcc90f67cbdad556c4fe192c7ada", "is_disabled": 0, "lon": -77.0500305, "is_reserved": 0, "fusion_lat": 0.0, "type": "electric_scooter"}, {"fusion_lon": 0.0, "name": "a0820758f46be2a8d8edbb0698e2d1ce", "rental_uris": {"android": "https://dc.lft.to/lastmile_qr_scan", "ios": "https://dc.lft.to/lastmile_qr_scan"}, "lat": 38.95909833333333, "bike_id": "a0820758f46be2a8d8edbb0698e2d1ce", "is_disabled": 0, "lon": -77.000163, "is_reserved": 0, "fusion_lat": 0.0, "type": "electric_scooter"}, {"fusion_lon": 0.0, "name": "c2ee84c2859a8423d881324319d6219e", "rental_uris": {"android": "https://dc.lft.to/lastmile_qr_scan", "ios": "https://dc.lft.to/lastmile_qr_scan"}, "lat": 38.904961166666666, "bike_id": "c2ee84c2859a8423d881324319d6219e", "is_disabled": 0, "lon": -76.97736816666666, "is_reserved": 0, "fusion_lat": 0.0, "type": "electric_scooter"}, {"fusion_lon": 0.0, "name": "0a9ef7e7f243eb76931b77c78b933e3f", "rental_uris": {"android": "https://dc.lft.to/lastmile_qr_scan", "ios": "https://dc.lft.to/lastmile_qr_scan"}, "lat": 38.9008665, "bike_id": "0a9ef7e7f243eb76931b77c78b933e3f", "is_disabled": 0, "lon": -77.04736016666666, "is_reserved": 0, "fusion_lat": 0.0, "type": "electric_scooter"}, {"fusion_lon": 0.0, "name": "ed1d7f2ed1eb2170a7860310072bc24b", "rental_uris": {"android": "https://dc.lft.to/lastmile_qr_scan", "ios": "https://dc.lft.to/lastmile_qr_scan"}, "lat": 38.91928266666667, "bike_id": "ed1d7f2ed1eb2170a7860310072bc24b", "is_disabled": 0, "lon": -77.00973666666667, "is_reserved": 0, "fusion_lat": 0.0, "type": "electric_scooter"}, {"fusion_lon": 0.0, "name": "9e16ae63cf6827dd2227f35c10452d93", "rental_uris": {"android": "https://dc.lft.to/lastmile_qr_scan", "ios": "https://dc.lft.to/lastmile_qr_scan"}, "lat": 38.906115666666665, "bike_id": "9e16ae63cf6827dd2227f35c10452d93", "is_disabled": 0, "lon": -76.949968, "is_reserved": 0, "fusion_lat": 0.0, "type": "electric_scooter"}, {"fusion_lon": 0.0, "name": "12ad7c2316c1e4c4a0b92680be4d3b14", "rental_uris": {"android": "https://dc.lft.to/lastmile_qr_scan", "ios": "https://dc.lft.to/lastmile_qr_scan"}, "lat": 38.88513733333333, "bike_id": "12ad7c2316c1e4c4a0b92680be4d3b14", "is_disabled": 0, "lon": -77.01115116666666, "is_reserved": 0, "fusion_lat": 0.0, "type": "electric_scooter"}, {"fusion_lon": 0.0, "name": "c7bfd2bbc654812ecf5d48aa53f28573", "rental_uris": {"android": "https://dc.lft.to/lastmile_qr_scan", "ios": "https://dc.lft.to/lastmile_qr_scan"}, "lat": 38.96124733333333, "bike_id": "c7bfd2bbc654812ecf5d48aa53f28573", "is_disabled": 0, "lon": -77.02793966666667, "is_reserved": 0, "fusion_lat": 0.0, "type": "electric_scooter"}, {"fusion_lon": 0.0, "name": "022f02bee7116108b5c9a951edb0f487", "rental_uris": {"android": "https://dc.lft.to/lastmile_qr_scan", "ios": "https://dc.lft.to/lastmile_qr_scan"}, "lat": 38.886374833333335, "bike_id": "022f02bee7116108b5c9a951edb0f487", "is_disabled": 0, "lon": -77.015267, "is_reserved": 0, "fusion_lat": 0.0, "type": "electric_scooter"}, {"fusion_lon": 0.0, "name": "bb7b5bd3e861433208f62fe4be47f519", "rental_uris": {"android": "https://dc.lft.to/lastmile_qr_scan", "ios": "https://dc.lft.to/lastmile_qr_scan"}, "lat": 38.90434716666667, "bike_id": "bb7b5bd3e861433208f62fe4be47f519", "is_disabled": 0, "lon": -77.05150116666667, "is_reserved": 0, "fusion_lat": 0.0, "type": "electric_scooter"}, {"fusion_lon": 0.0, "name": "05f73e3777b282764a4ecc0d1f48ae88", "rental_uris": {"android": "https://dc.lft.to/lastmile_qr_scan", "ios": "https://dc.lft.to/lastmile_qr_scan"}, "lat": 38.903538166666664, "bike_id": "05f73e3777b282764a4ecc0d1f48ae88", "is_disabled": 0, "lon": -77.02618683333333, "is_reserved": 0, "fusion_lat": 0.0, "type": "electric_scooter"}, {"fusion_lon": 0.0, "name": "d83e616d61d841dc67bb03ef00277137", "rental_uris": {"android": "https://dc.lft.to/lastmile_qr_scan", "ios": "https://dc.lft.to/lastmile_qr_scan"}, "lat": 38.90367, "bike_id": "d83e616d61d841dc67bb03ef00277137", "is_disabled": 0, "lon": -77.03838, "is_reserved": 0, "fusion_lat": 0.0, "type": "electric_scooter"}, {"fusion_lon": 0.0, "name": "46854a0cd06e32e1b368dfc5f422a826", "rental_uris": {"android": "https://dc.lft.to/lastmile_qr_scan", "ios": "https://dc.lft.to/lastmile_qr_scan"}, "lat": 38.894511333333334, "bike_id": "46854a0cd06e32e1b368dfc5f422a826", "is_disabled": 0, "lon": -77.00222516666666, "is_reserved": 0, "fusion_lat": 0.0, "type": "electric_scooter"}, {"fusion_lon": 0.0, "name": "1172e0282931eac570016e1aa30af427", "rental_uris": {"android": "https://dc.lft.to/lastmile_qr_scan", "ios": "https://dc.lft.to/lastmile_qr_scan"}, "lat": 38.884184833333336, "bike_id": "1172e0282931eac570016e1aa30af427", "is_disabled": 0, "lon": -77.0174285, "is_reserved": 0, "fusion_lat": 0.0, "type": "electric_scooter"}, {"fusion_lon": 0.0, "name": "9954e31645982d61c1a3eeeba64dacb0", "rental_uris": {"android": "https://dc.lft.to/lastmile_qr_scan", "ios": "https://dc.lft.to/lastmile_qr_scan"}, "lat": 38.91117666666667, "bike_id": "9954e31645982d61c1a3eeeba64dacb0", "is_disabled": 0, "lon": -77.04224916666666, "is_reserved": 0, "fusion_lat": 0.0, "type": "electric_scooter"}, {"fusion_lon": 0.0, "name": "47daaa5e23310d549b44d3082d48cb4d", "rental_uris": {"android": "https://dc.lft.to/lastmile_qr_scan", "ios": "https://dc.lft.to/lastmile_qr_scan"}, "lat": 38.883757, "bike_id": "47daaa5e23310d549b44d3082d48cb4d", "is_disabled": 0, "lon": -76.92417466666667, "is_reserved": 0, "fusion_lat": 0.0, "type": "electric_scooter"}, {"fusion_lon": 0.0, "name": "92ce8c03760bc74cdc052387dcce143b", "rental_uris": {"android": "https://dc.lft.to/lastmile_qr_scan", "ios": "https://dc.lft.to/lastmile_qr_scan"}, "lat": 38.92885966666667, "bike_id": "92ce8c03760bc74cdc052387dcce143b", "is_disabled": 0, "lon": -77.03460383333334, "is_reserved": 0, "fusion_lat": 0.0, "type": "electric_scooter"}, {"fusion_lon": 0.0, "name": "59e5d076f5ab4c2cab6fd920ab8dd0ed", "rental_uris": {"android": "https://dc.lft.to/lastmile_qr_scan", "ios": "https://dc.lft.to/lastmile_qr_scan"}, "lat": 38.892344666666666, "bike_id": "59e5d076f5ab4c2cab6fd920ab8dd0ed", "is_disabled": 0, "lon": -77.04999566666666, "is_reserved": 0, "fusion_lat": 0.0, "type": "electric_scooter"}, {"fusion_lon": 0.0, "name": "ab944441cfd5eaa93c083c500716927e", "rental_uris": {"android": "https://dc.lft.to/lastmile_qr_scan", "ios": "https://dc.lft.to/lastmile_qr_scan"}, "lat": 38.8991505, "bike_id": "ab944441cfd5eaa93c083c500716927e", "is_disabled": 0, "lon": -77.033031, "is_reserved": 0, "fusion_lat": 0.0, "type": "electric_scooter"}, {"fusion_lon": 0.0, "name": "6356536079ee910e8b5fef63ea189a75", "rental_uris": {"android": "https://dc.lft.to/lastmile_qr_scan", "ios": "https://dc.lft.to/lastmile_qr_scan"}, "lat": 38.908396, "bike_id": "6356536079ee910e8b5fef63ea189a75", "is_disabled": 0, "lon": -77.07297283333334, "is_reserved": 0, "fusion_lat": 0.0, "type": "electric_scooter"}, {"fusion_lon": 0.0, "name": "48a10b0c8c2c03e125c729f2fc4f1a8c", "rental_uris": {"android": "https://dc.lft.to/lastmile_qr_scan", "ios": "https://dc.lft.to/lastmile_qr_scan"}, "lat": 38.9236465, "bike_id": "48a10b0c8c2c03e125c729f2fc4f1a8c", "is_disabled": 0, "lon": -77.0504625, "is_reserved": 0, "fusion_lat": 0.0, "type": "electric_scooter"}, {"fusion_lon": 0.0, "name": "38c465293f6c9380e1bea95574d56e26", "rental_uris": {"android": "https://dc.lft.to/lastmile_qr_scan", "ios": "https://dc.lft.to/lastmile_qr_scan"}, "lat": 38.919071, "bike_id": "38c465293f6c9380e1bea95574d56e26", "is_disabled": 0, "lon": -77.021359, "is_reserved": 0, "fusion_lat": 0.0, "type": "electric_scooter"}, {"fusion_lon": 0.0, "name": "56e4d0b70b29fb7fa854555541313e16", "rental_uris": {"android": "https://dc.lft.to/lastmile_qr_scan", "ios": "https://dc.lft.to/lastmile_qr_scan"}, "lat": 38.923485, "bike_id": "56e4d0b70b29fb7fa854555541313e16", "is_disabled": 0, "lon": -77.0190405, "is_reserved": 0, "fusion_lat": 0.0, "type": "electric_scooter"}, {"fusion_lon": 0.0, "name": "b75f5107105d1ec7f63af6505b0b228d", "rental_uris": {"android": "https://dc.lft.to/lastmile_qr_scan", "ios": "https://dc.lft.to/lastmile_qr_scan"}, "lat": 38.90591666666667, "bike_id": "b75f5107105d1ec7f63af6505b0b228d", "is_disabled": 0, "lon": -77.04498933333333, "is_reserved": 0, "fusion_lat": 0.0, "type": "electric_scooter"}, {"fusion_lon": 0.0, "name": "5f3620a244c03bb644408586afa09c8d", "rental_uris": {"android": "https://dc.lft.to/lastmile_qr_scan", "ios": "https://dc.lft.to/lastmile_qr_scan"}, "lat": 38.899710666666664, "bike_id": "5f3620a244c03bb644408586afa09c8d", "is_disabled": 0, "lon": -76.9375705, "is_reserved": 0, "fusion_lat": 0.0, "type": "electric_scooter"}, {"fusion_lon": 0.0, "name": "bea4e3921fa0d58ccdab96dedb93b60a", "rental_uris": {"android": "https://dc.lft.to/lastmile_qr_scan", "ios": "https://dc.lft.to/lastmile_qr_scan"}, "lat": 38.92245366666667, "bike_id": "bea4e3921fa0d58ccdab96dedb93b60a", "is_disabled": 0, "lon": -77.02148316666667, "is_reserved": 0, "fusion_lat": 0.0, "type": "electric_scooter"}, {"fusion_lon": 0.0, "name": "d5e83436d05e1da8597fb90f30a7c2c2", "rental_uris": {"android": "https://dc.lft.to/lastmile_qr_scan", "ios": "https://dc.lft.to/lastmile_qr_scan"}, "lat": 38.921735, "bike_id": "d5e83436d05e1da8597fb90f30a7c2c2", "is_disabled": 0, "lon": -77.026682, "is_reserved": 0, "fusion_lat": 0.0, "type": "electric_scooter"}, {"fusion_lon": 0.0, "name": "19fa597e04b430b33ab154b5436853d4", "rental_uris": {"android": "https://dc.lft.to/lastmile_qr_scan", "ios": "https://dc.lft.to/lastmile_qr_scan"}, "lat": 38.87681083333333, "bike_id": "19fa597e04b430b33ab154b5436853d4", "is_disabled": 0, "lon": -77.00065316666667, "is_reserved": 0, "fusion_lat": 0.0, "type": "electric_scooter"}, {"fusion_lon": 0.0, "name": "507366dd3e9d217cf4ce9e54e565f0ce", "rental_uris": {"android": "https://dc.lft.to/lastmile_qr_scan", "ios": "https://dc.lft.to/lastmile_qr_scan"}, "lat": 38.92605416666667, "bike_id": "507366dd3e9d217cf4ce9e54e565f0ce", "is_disabled": 0, "lon": -77.0215785, "is_reserved": 0, "fusion_lat": 0.0, "type": "electric_scooter"}, {"fusion_lon": 0.0, "name": "72d9f95635fa3f5ad9aa15adcc8f92b5", "rental_uris": {"android": "https://dc.lft.to/lastmile_qr_scan", "ios": "https://dc.lft.to/lastmile_qr_scan"}, "lat": 38.920413333333336, "bike_id": "72d9f95635fa3f5ad9aa15adcc8f92b5", "is_disabled": 0, "lon": -76.99131383333334, "is_reserved": 0, "fusion_lat": 0.0, "type": "electric_bike"}, {"fusion_lon": 0.0, "name": "4e7c1d1f47954ec9ff91ff83f11cbe13", "rental_uris": {"android": "https://dc.lft.to/lastmile_qr_scan", "ios": "https://dc.lft.to/lastmile_qr_scan"}, "lat": 38.9576445, "bike_id": "4e7c1d1f47954ec9ff91ff83f11cbe13", "is_disabled": 0, "lon": -77.00912166666667, "is_reserved": 0, "fusion_lat": 0.0, "type": "electric_scooter"}, {"fusion_lon": 0.0, "name": "9fded28657b2943e5ec2b0640c4cdd2d", "rental_uris": {"android": "https://dc.lft.to/lastmile_qr_scan", "ios": "https://dc.lft.to/lastmile_qr_scan"}, "lat": 38.92005616666667, "bike_id": "9fded28657b2943e5ec2b0640c4cdd2d", "is_disabled": 0, "lon": -77.0377995, "is_reserved": 0, "fusion_lat": 0.0, "type": "electric_scooter"}, {"fusion_lon": 0.0, "name": "1f2a1943758b0d414ab23d6527f12c54", "rental_uris": {"android": "https://dc.lft.to/lastmile_qr_scan", "ios": "https://dc.lft.to/lastmile_qr_scan"}, "lat": 38.9542265, "bike_id": "1f2a1943758b0d414ab23d6527f12c54", "is_disabled": 0, "lon": -77.00728016666666, "is_reserved": 0, "fusion_lat": 0.0, "type": "electric_scooter"}, {"fusion_lon": 0.0, "name": "f41044aa0d534550c333e4d22c5df41e", "rental_uris": {"android": "https://dc.lft.to/lastmile_qr_scan", "ios": "https://dc.lft.to/lastmile_qr_scan"}, "lat": 38.896281, "bike_id": "f41044aa0d534550c333e4d22c5df41e", "is_disabled": 0, "lon": -77.02381016666666, "is_reserved": 0, "fusion_lat": 0.0, "type": "electric_scooter"}, {"fusion_lon": 0.0, "name": "fa5c0072556a5a939f9d23079c9c71fe", "rental_uris": {"android": "https://dc.lft.to/lastmile_qr_scan", "ios": "https://dc.lft.to/lastmile_qr_scan"}, "lat": 38.90029633333333, "bike_id": "fa5c0072556a5a939f9d23079c9c71fe", "is_disabled": 0, "lon": -76.990605, "is_reserved": 0, "fusion_lat": 0.0, "type": "electric_bike"}, {"fusion_lon": 0.0, "name": "2e79f6cc9dc47ce378716542bff2ab0e", "rental_uris": {"android": "https://dc.lft.to/lastmile_qr_scan", "ios": "https://dc.lft.to/lastmile_qr_scan"}, "lat": 38.892327333333334, "bike_id": "2e79f6cc9dc47ce378716542bff2ab0e", "is_disabled": 0, "lon": -77.02382833333333, "is_reserved": 0, "fusion_lat": 0.0, "type": "electric_scooter"}, {"fusion_lon": 0.0, "name": "59d44b692837ed13fa8206abf726852f", "rental_uris": {"android": "https://dc.lft.to/lastmile_qr_scan", "ios": "https://dc.lft.to/lastmile_qr_scan"}, "lat": 38.923497833333336, "bike_id": "59d44b692837ed13fa8206abf726852f", "is_disabled": 0, "lon": -77.01905983333333, "is_reserved": 0, "fusion_lat": 0.0, "type": "electric_scooter"}, {"fusion_lon": 0.0, "name": "b959eac1b1a981a381be8223978ab48c", "rental_uris": {"android": "https://dc.lft.to/lastmile_qr_scan", "ios": "https://dc.lft.to/lastmile_qr_scan"}, "lat": 38.91757883333333, "bike_id": "b959eac1b1a981a381be8223978ab48c", "is_disabled": 0, "lon": -77.021091, "is_reserved": 0, "fusion_lat": 0.0, "type": "electric_scooter"}, {"fusion_lon": 0.0, "name": "7ad818ca47036888da796c187e3ec47e", "rental_uris": {"android": "https://dc.lft.to/lastmile_qr_scan", "ios": "https://dc.lft.to/lastmile_qr_scan"}, "lat": 38.9261435, "bike_id": "7ad818ca47036888da796c187e3ec47e", "is_disabled": 0, "lon": -77.0215905, "is_reserved": 0, "fusion_lat": 0.0, "type": "electric_scooter"}, {"fusion_lon": 0.0, "name": "d1bc57fd5ecf78b6c93482528f52f44b", "rental_uris": {"android": "https://dc.lft.to/lastmile_qr_scan", "ios": "https://dc.lft.to/lastmile_qr_scan"}, "lat": 38.87661466666667, "bike_id": "d1bc57fd5ecf78b6c93482528f52f44b", "is_disabled": 0, "lon": -76.9931875, "is_reserved": 0, "fusion_lat": 0.0, "type": "electric_scooter"}, {"fusion_lon": 0.0, "name": "d898e0cb47a9580eb1684fc2b505b7ad", "rental_uris": {"android": "https://dc.lft.to/lastmile_qr_scan", "ios": "https://dc.lft.to/lastmile_qr_scan"}, "lat": 38.943678166666665, "bike_id": "d898e0cb47a9580eb1684fc2b505b7ad", "is_disabled": 0, "lon": -77.06098816666666, "is_reserved": 0, "fusion_lat": 0.0, "type": "electric_scooter"}, {"fusion_lon": 0.0, "name": "e16ad42aaf4a8f283f83071e0ab882c2", "rental_uris": {"android": "https://dc.lft.to/lastmile_qr_scan", "ios": "https://dc.lft.to/lastmile_qr_scan"}, "lat": 38.922746, "bike_id": "e16ad42aaf4a8f283f83071e0ab882c2", "is_disabled": 0, "lon": -77.03394983333334, "is_reserved": 0, "fusion_lat": 0.0, "type": "electric_scooter"}, {"fusion_lon": 0.0, "name": "f52bcbbc4b84cc5871c4cf76061cac87", "rental_uris": {"android": "https://dc.lft.to/lastmile_qr_scan", "ios": "https://dc.lft.to/lastmile_qr_scan"}, "lat": 38.92599283333333, "bike_id": "f52bcbbc4b84cc5871c4cf76061cac87", "is_disabled": 0, "lon": -77.03662666666666, "is_reserved": 0, "fusion_lat": 0.0, "type": "electric_scooter"}, {"fusion_lon": 0.0, "name": "71f33b0237018110a2eb1ecc0e77b173", "rental_uris": {"android": "https://dc.lft.to/lastmile_qr_scan", "ios": "https://dc.lft.to/lastmile_qr_scan"}, "lat": 38.8784885, "bike_id": "71f33b0237018110a2eb1ecc0e77b173", "is_disabled": 0, "lon": -77.01969366666667, "is_reserved": 0, "fusion_lat": 0.0, "type": "electric_scooter"}, {"fusion_lon": 0.0, "name": "e351848a8a11637ae860e6f4aae2a996", "rental_uris": {"android": "https://dc.lft.to/lastmile_qr_scan", "ios": "https://dc.lft.to/lastmile_qr_scan"}, "lat": 38.8901845, "bike_id": "e351848a8a11637ae860e6f4aae2a996", "is_disabled": 0, "lon": -76.93715833333333, "is_reserved": 0, "fusion_lat": 0.0, "type": "electric_scooter"}, {"fusion_lon": 0.0, "name": "b94a8e549bd4e78da749e4cfdf6b9e4a", "rental_uris": {"android": "https://dc.lft.to/lastmile_qr_scan", "ios": "https://dc.lft.to/lastmile_qr_scan"}, "lat": 38.93693433333333, "bike_id": "b94a8e549bd4e78da749e4cfdf6b9e4a", "is_disabled": 0, "lon": -76.99056666666667, "is_reserved": 0, "fusion_lat": 0.0, "type": "electric_bike"}, {"fusion_lon": 0.0, "name": "69d19ac564beb4c77d7cc2c9d44c5a2f", "rental_uris": {"android": "https://dc.lft.to/lastmile_qr_scan", "ios": "https://dc.lft.to/lastmile_qr_scan"}, "lat": 38.908405, "bike_id": "69d19ac564beb4c77d7cc2c9d44c5a2f", "is_disabled": 0, "lon": -77.04351466666667, "is_reserved": 0, "fusion_lat": 0.0, "type": "electric_scooter"}, {"fusion_lon": 0.0, "name": "468abef0631e87ebddae03561e8f15e2", "rental_uris": {"android": "https://dc.lft.to/lastmile_qr_scan", "ios": "https://dc.lft.to/lastmile_qr_scan"}, "lat": 38.88731416666667, "bike_id": "468abef0631e87ebddae03561e8f15e2", "is_disabled": 0, "lon": -77.01339733333333, "is_reserved": 0, "fusion_lat": 0.0, "type": "electric_scooter"}, {"fusion_lon": 0.0, "name": "8c0c6e7be70ef2c3e876beea773a1564", "rental_uris": {"android": "https://dc.lft.to/lastmile_qr_scan", "ios": "https://dc.lft.to/lastmile_qr_scan"}, "lat": 38.889904, "bike_id": "8c0c6e7be70ef2c3e876beea773a1564", "is_disabled": 0, "lon": -76.9211025, "is_reserved": 0, "fusion_lat": 0.0, "type": "electric_scooter"}, {"fusion_lon": 0.0, "name": "990cecdc98876bed7b74189a2ab13e55", "rental_uris": {"android": "https://dc.lft.to/lastmile_qr_scan", "ios": "https://dc.lft.to/lastmile_qr_scan"}, "lat": 38.89807233333333, "bike_id": "990cecdc98876bed7b74189a2ab13e55", "is_disabled": 0, "lon": -77.0317665, "is_reserved": 0, "fusion_lat": 0.0, "type": "electric_scooter"}, {"fusion_lon": 0.0, "name": "631d51bee73e2af44ecc6a3dd4382c5e", "rental_uris": {"android": "https://dc.lft.to/lastmile_qr_scan", "ios": "https://dc.lft.to/lastmile_qr_scan"}, "lat": 38.9016765, "bike_id": "631d51bee73e2af44ecc6a3dd4382c5e", "is_disabled": 0, "lon": -77.03345933333334, "is_reserved": 0, "fusion_lat": 0.0, "type": "electric_scooter"}, {"fusion_lon": 0.0, "name": "94b3bbd416612c65acaa74649fb33f6f", "rental_uris": {"android": "https://dc.lft.to/lastmile_qr_scan", "ios": "https://dc.lft.to/lastmile_qr_scan"}, "lat": 38.876652666666665, "bike_id": "94b3bbd416612c65acaa74649fb33f6f", "is_disabled": 0, "lon": -77.0038755, "is_reserved": 0, "fusion_lat": 0.0, "type": "electric_scooter"}, {"fusion_lon": 0.0, "name": "cc15cacd980c656f6ce47479d481c7d8", "rental_uris": {"android": "https://dc.lft.to/lastmile_qr_scan", "ios": "https://dc.lft.to/lastmile_qr_scan"}, "lat": 38.91627066666667, "bike_id": "cc15cacd980c656f6ce47479d481c7d8", "is_disabled": 0, "lon": -77.034967, "is_reserved": 0, "fusion_lat": 0.0, "type": "electric_scooter"}, {"fusion_lon": 0.0, "name": "ea6f80771f810e0bd6fb9df4cc69fe9f", "rental_uris": {"android": "https://dc.lft.to/lastmile_qr_scan", "ios": "https://dc.lft.to/lastmile_qr_scan"}, "lat": 38.905891, "bike_id": "ea6f80771f810e0bd6fb9df4cc69fe9f", "is_disabled": 0, "lon": -77.03989966666667, "is_reserved": 0, "fusion_lat": 0.0, "type": "electric_scooter"}, {"fusion_lon": 0.0, "name": "2bab91219fd010b43a6f4955237b5a49", "rental_uris": {"android": "https://dc.lft.to/lastmile_qr_scan", "ios": "https://dc.lft.to/lastmile_qr_scan"}, "lat": 38.9038265, "bike_id": "2bab91219fd010b43a6f4955237b5a49", "is_disabled": 0, "lon": -77.031204, "is_reserved": 0, "fusion_lat": 0.0, "type": "electric_scooter"}, {"fusion_lon": 0.0, "name": "f76cc0333ce0be2efae38430977b7446", "rental_uris": {"android": "https://dc.lft.to/lastmile_qr_scan", "ios": "https://dc.lft.to/lastmile_qr_scan"}, "lat": 38.894617833333335, "bike_id": "f76cc0333ce0be2efae38430977b7446", "is_disabled": 0, "lon": -77.19132516666667, "is_reserved": 0, "fusion_lat": 0.0, "type": "electric_bike"}, {"fusion_lon": 0.0, "name": "79b601e0fe3560883013a65af57454dd", "rental_uris": {"android": "https://dc.lft.to/lastmile_qr_scan", "ios": "https://dc.lft.to/lastmile_qr_scan"}, "lat": 38.922615666666665, "bike_id": "79b601e0fe3560883013a65af57454dd", "is_disabled": 0, "lon": -77.0243965, "is_reserved": 0, "fusion_lat": 0.0, "type": "electric_scooter"}, {"fusion_lon": 0.0, "name": "63d09a41a548ebe6d7be4e99b42e73c8", "rental_uris": {"android": "https://dc.lft.to/lastmile_qr_scan", "ios": "https://dc.lft.to/lastmile_qr_scan"}, "lat": 38.89884383333333, "bike_id": "63d09a41a548ebe6d7be4e99b42e73c8", "is_disabled": 0, "lon": -76.931747, "is_reserved": 0, "fusion_lat": 0.0, "type": "electric_scooter"}, {"fusion_lon": 0.0, "name": "fb57e7f6d5682b9ab133ded4de4f1f1c", "rental_uris": {"android": "https://dc.lft.to/lastmile_qr_scan", "ios": "https://dc.lft.to/lastmile_qr_scan"}, "lat": 38.957520833333334, "bike_id": "fb57e7f6d5682b9ab133ded4de4f1f1c", "is_disabled": 0, "lon": -76.96748283333334, "is_reserved": 0, "fusion_lat": 0.0, "type": "electric_bike"}, {"fusion_lon": 0.0, "name": "1cd104d90a68ef0b08a8ce0433c1e282", "rental_uris": {"android": "https://dc.lft.to/lastmile_qr_scan", "ios": "https://dc.lft.to/lastmile_qr_scan"}, "lat": 38.9087335, "bike_id": "1cd104d90a68ef0b08a8ce0433c1e282", "is_disabled": 0, "lon": -77.03748883333333, "is_reserved": 0, "fusion_lat": 0.0, "type": "electric_scooter"}, {"fusion_lon": 0.0, "name": "b19d54e65dd83ca6460237d0f5e7faf5", "rental_uris": {"android": "https://dc.lft.to/lastmile_qr_scan", "ios": "https://dc.lft.to/lastmile_qr_scan"}, "lat": 38.91758683333333, "bike_id": "b19d54e65dd83ca6460237d0f5e7faf5", "is_disabled": 0, "lon": -77.00913783333333, "is_reserved": 0, "fusion_lat": 0.0, "type": "electric_scooter"}, {"fusion_lon": 0.0, "name": "a985370c878aeb7a60de6e2933371146", "rental_uris": {"android": "https://dc.lft.to/lastmile_qr_scan", "ios": "https://dc.lft.to/lastmile_qr_scan"}, "lat": 38.8995205, "bike_id": "a985370c878aeb7a60de6e2933371146", "is_disabled": 0, "lon": -77.05144166666666, "is_reserved": 0, "fusion_lat": 0.0, "type": "electric_scooter"}, {"fusion_lon": 0.0, "name": "4e4e319c819ba05dde702e06e0365788", "rental_uris": {"android": "https://dc.lft.to/lastmile_qr_scan", "ios": "https://dc.lft.to/lastmile_qr_scan"}, "lat": 38.903712166666665, "bike_id": "4e4e319c819ba05dde702e06e0365788", "is_disabled": 0, "lon": -76.99834533333333, "is_reserved": 0, "fusion_lat": 0.0, "type": "electric_scooter"}, {"fusion_lon": 0.0, "name": "71a30399941c834d55773173c6429436", "rental_uris": {"android": "https://dc.lft.to/lastmile_qr_scan", "ios": "https://dc.lft.to/lastmile_qr_scan"}, "lat": 38.905292333333335, "bike_id": "71a30399941c834d55773173c6429436", "is_disabled": 0, "lon": -77.06236916666667, "is_reserved": 0, "fusion_lat": 0.0, "type": "electric_scooter"}, {"fusion_lon": 0.0, "name": "98321f766727cbff576ef79b19586519", "rental_uris": {"android": "https://dc.lft.to/lastmile_qr_scan", "ios": "https://dc.lft.to/lastmile_qr_scan"}, "lat": 38.9046975, "bike_id": "98321f766727cbff576ef79b19586519", "is_disabled": 0, "lon": -77.04676983333333, "is_reserved": 0, "fusion_lat": 0.0, "type": "electric_scooter"}, {"fusion_lon": 0.0, "name": "42e8dc3073f5f1a7740c9f2863872f16", "rental_uris": {"android": "https://dc.lft.to/lastmile_qr_scan", "ios": "https://dc.lft.to/lastmile_qr_scan"}, "lat": 38.9002915, "bike_id": "42e8dc3073f5f1a7740c9f2863872f16", "is_disabled": 0, "lon": -76.98744883333333, "is_reserved": 0, "fusion_lat": 0.0, "type": "electric_scooter"}, {"fusion_lon": 0.0, "name": "66da98803a91e970c727646a5ac447e6", "rental_uris": {"android": "https://dc.lft.to/lastmile_qr_scan", "ios": "https://dc.lft.to/lastmile_qr_scan"}, "lat": 38.87200166666667, "bike_id": "66da98803a91e970c727646a5ac447e6", "is_disabled": 0, "lon": -77.00933466666666, "is_reserved": 0, "fusion_lat": 0.0, "type": "electric_scooter"}, {"fusion_lon": 0.0, "name": "f98975b75b036aaece68df12bc9b51c2", "rental_uris": {"android": "https://dc.lft.to/lastmile_qr_scan", "ios": "https://dc.lft.to/lastmile_qr_scan"}, "lat": 38.808684166666666, "bike_id": "f98975b75b036aaece68df12bc9b51c2", "is_disabled": 0, "lon": -77.112511, "is_reserved": 0, "fusion_lat": 0.0, "type": "electric_bike"}, {"fusion_lon": 0.0, "name": "cd6f63ff766a8550b89d092abefb4511", "rental_uris": {"android": "https://dc.lft.to/lastmile_qr_scan", "ios": "https://dc.lft.to/lastmile_qr_scan"}, "lat": 38.91659083333333, "bike_id": "cd6f63ff766a8550b89d092abefb4511", "is_disabled": 0, "lon": -77.00945433333334, "is_reserved": 0, "fusion_lat": 0.0, "type": "electric_scooter"}, {"fusion_lon": 0.0, "name": "31ef4f497ba4ec779fd2f53691a0ce13", "rental_uris": {"android": "https://dc.lft.to/lastmile_qr_scan", "ios": "https://dc.lft.to/lastmile_qr_scan"}, "lat": 38.87570183333333, "bike_id": "31ef4f497ba4ec779fd2f53691a0ce13", "is_disabled": 0, "lon": -77.005793, "is_reserved": 0, "fusion_lat": 0.0, "type": "electric_scooter"}, {"fusion_lon": 0.0, "name": "1d768fd0bbb6dcfe9d557a2e9a5d4c45", "rental_uris": {"android": "https://dc.lft.to/lastmile_qr_scan", "ios": "https://dc.lft.to/lastmile_qr_scan"}, "lat": 38.909624, "bike_id": "1d768fd0bbb6dcfe9d557a2e9a5d4c45", "is_disabled": 0, "lon": -77.02439516666666, "is_reserved": 0, "fusion_lat": 0.0, "type": "electric_scooter"}, {"fusion_lon": 0.0, "name": "27afb5899591d9c4bb7d767010b9c183", "rental_uris": {"android": "https://dc.lft.to/lastmile_qr_scan", "ios": "https://dc.lft.to/lastmile_qr_scan"}, "lat": 38.890192166666665, "bike_id": "27afb5899591d9c4bb7d767010b9c183", "is_disabled": 0, "lon": -76.9371795, "is_reserved": 0, "fusion_lat": 0.0, "type": "electric_scooter"}, {"fusion_lon": 0.0, "name": "a7887d7ff783d0fb8c84403e56a6f56a", "rental_uris": {"android": "https://dc.lft.to/lastmile_qr_scan", "ios": "https://dc.lft.to/lastmile_qr_scan"}, "lat": 38.941669, "bike_id": "a7887d7ff783d0fb8c84403e56a6f56a", "is_disabled": 0, "lon": -77.02555516666666, "is_reserved": 0, "fusion_lat": 0.0, "type": "electric_scooter"}, {"fusion_lon": 0.0, "name": "8a967cead8636d7b0eee316eaceb3985", "rental_uris": {"android": "https://dc.lft.to/lastmile_qr_scan", "ios": "https://dc.lft.to/lastmile_qr_scan"}, "lat": 38.916112166666665, "bike_id": "8a967cead8636d7b0eee316eaceb3985", "is_disabled": 0, "lon": -77.02305233333334, "is_reserved": 0, "fusion_lat": 0.0, "type": "electric_scooter"}, {"fusion_lon": 0.0, "name": "19769b5af80b381bed351d84dd5b9b90", "rental_uris": {"android": "https://dc.lft.to/lastmile_qr_scan", "ios": "https://dc.lft.to/lastmile_qr_scan"}, "lat": 38.87176816666667, "bike_id": "19769b5af80b381bed351d84dd5b9b90", "is_disabled": 0, "lon": -77.2338675, "is_reserved": 0, "fusion_lat": 0.0, "type": "electric_bike"}, {"fusion_lon": 0.0, "name": "32fb205a217b62bc8d699ecaa4cd8eed", "rental_uris": {"android": "https://dc.lft.to/lastmile_qr_scan", "ios": "https://dc.lft.to/lastmile_qr_scan"}, "lat": 38.9737295, "bike_id": "32fb205a217b62bc8d699ecaa4cd8eed", "is_disabled": 0, "lon": -77.0186675, "is_reserved": 0, "fusion_lat": 0.0, "type": "electric_scooter"}, {"fusion_lon": 0.0, "name": "09f7d1681fb7eb21213f38f825c3ca49", "rental_uris": {"android": "https://dc.lft.to/lastmile_qr_scan", "ios": "https://dc.lft.to/lastmile_qr_scan"}, "lat": 38.883239833333334, "bike_id": "09f7d1681fb7eb21213f38f825c3ca49", "is_disabled": 0, "lon": -77.00950383333333, "is_reserved": 0, "fusion_lat": 0.0, "type": "electric_scooter"}, {"fusion_lon": 0.0, "name": "b0493642faf8ec4354357b1d1779d5ab", "rental_uris": {"android": "https://dc.lft.to/lastmile_qr_scan", "ios": "https://dc.lft.to/lastmile_qr_scan"}, "lat": 38.91250466666666, "bike_id": "b0493642faf8ec4354357b1d1779d5ab", "is_disabled": 0, "lon": -77.03210233333333, "is_reserved": 0, "fusion_lat": 0.0, "type": "electric_scooter"}, {"fusion_lon": 0.0, "name": "c3d470145a78e3d998092e82f47f6a31", "rental_uris": {"android": "https://dc.lft.to/lastmile_qr_scan", "ios": "https://dc.lft.to/lastmile_qr_scan"}, "lat": 38.94565166666667, "bike_id": "c3d470145a78e3d998092e82f47f6a31", "is_disabled": 0, "lon": -77.0796165, "is_reserved": 0, "fusion_lat": 0.0, "type": "electric_scooter"}, {"fusion_lon": 0.0, "name": "b5fb9196f31ad8f46ad2c1aa7a3c960e", "rental_uris": {"android": "https://dc.lft.to/lastmile_qr_scan", "ios": "https://dc.lft.to/lastmile_qr_scan"}, "lat": 38.8862855, "bike_id": "b5fb9196f31ad8f46ad2c1aa7a3c960e", "is_disabled": 0, "lon": -77.03152916666667, "is_reserved": 0, "fusion_lat": 0.0, "type": "electric_scooter"}, {"fusion_lon": 0.0, "name": "acd0caf57563a309af900d2d442c2850", "rental_uris": {"android": "https://dc.lft.to/lastmile_qr_scan", "ios": "https://dc.lft.to/lastmile_qr_scan"}, "lat": 38.9238975, "bike_id": "acd0caf57563a309af900d2d442c2850", "is_disabled": 0, "lon": -77.0430905, "is_reserved": 0, "fusion_lat": 0.0, "type": "electric_scooter"}, {"fusion_lon": 0.0, "name": "bf35e2619afa15dd45915521d9529003", "rental_uris": {"android": "https://dc.lft.to/lastmile_qr_scan", "ios": "https://dc.lft.to/lastmile_qr_scan"}, "lat": 38.922240333333335, "bike_id": "bf35e2619afa15dd45915521d9529003", "is_disabled": 0, "lon": -77.02418283333333, "is_reserved": 0, "fusion_lat": 0.0, "type": "electric_scooter"}, {"fusion_lon": 0.0, "name": "beddcd6dfd1c1d2dfdde2ac16758af6a", "rental_uris": {"android": "https://dc.lft.to/lastmile_qr_scan", "ios": "https://dc.lft.to/lastmile_qr_scan"}, "lat": 38.915713, "bike_id": "beddcd6dfd1c1d2dfdde2ac16758af6a", "is_disabled": 0, "lon": -77.046099, "is_reserved": 0, "fusion_lat": 0.0, "type": "electric_scooter"}, {"fusion_lon": 0.0, "name": "7e85f7f97fa00e12f097c53a05d4260c", "rental_uris": {"android": "https://dc.lft.to/lastmile_qr_scan", "ios": "https://dc.lft.to/lastmile_qr_scan"}, "lat": 38.90187533333334, "bike_id": "7e85f7f97fa00e12f097c53a05d4260c", "is_disabled": 0, "lon": -77.00128183333334, "is_reserved": 0, "fusion_lat": 0.0, "type": "electric_scooter"}, {"fusion_lon": 0.0, "name": "b287bc467967b8e00768a8cfce83e394", "rental_uris": {"android": "https://dc.lft.to/lastmile_qr_scan", "ios": "https://dc.lft.to/lastmile_qr_scan"}, "lat": 38.8933125, "bike_id": "b287bc467967b8e00768a8cfce83e394", "is_disabled": 0, "lon": -77.04678, "is_reserved": 0, "fusion_lat": 0.0, "type": "electric_scooter"}, {"fusion_lon": 0.0, "name": "0de5fcd405639093a4a1fa802795192f", "rental_uris": {"android": "https://dc.lft.to/lastmile_qr_scan", "ios": "https://dc.lft.to/lastmile_qr_scan"}, "lat": 38.927944, "bike_id": "0de5fcd405639093a4a1fa802795192f", "is_disabled": 0, "lon": -77.03150366666667, "is_reserved": 0, "fusion_lat": 0.0, "type": "electric_scooter"}, {"fusion_lon": 0.0, "name": "fc0a902afddc64ee96ff12e5c12bed1d", "rental_uris": {"android": "https://dc.lft.to/lastmile_qr_scan", "ios": "https://dc.lft.to/lastmile_qr_scan"}, "lat": 38.90902233333333, "bike_id": "fc0a902afddc64ee96ff12e5c12bed1d", "is_disabled": 0, "lon": -76.98388333333334, "is_reserved": 0, "fusion_lat": 0.0, "type": "electric_scooter"}, {"fusion_lon": 0.0, "name": "2ebabda8c912638e71b16b0bfca3cb5d", "rental_uris": {"android": "https://dc.lft.to/lastmile_qr_scan", "ios": "https://dc.lft.to/lastmile_qr_scan"}, "lat": 38.90061516666667, "bike_id": "2ebabda8c912638e71b16b0bfca3cb5d", "is_disabled": 0, "lon": -76.98484533333334, "is_reserved": 0, "fusion_lat": 0.0, "type": "electric_scooter"}, {"fusion_lon": 0.0, "name": "afe84bd717f9f53553f01d7a6c5ec5c4", "rental_uris": {"android": "https://dc.lft.to/lastmile_qr_scan", "ios": "https://dc.lft.to/lastmile_qr_scan"}, "lat": 38.784039666666665, "bike_id": "afe84bd717f9f53553f01d7a6c5ec5c4", "is_disabled": 0, "lon": -77.12067016666667, "is_reserved": 0, "fusion_lat": 0.0, "type": "electric_bike"}, {"fusion_lon": 0.0, "name": "58aa905fa28aaa2e9f6710b1d8873ffc", "rental_uris": {"android": "https://dc.lft.to/lastmile_qr_scan", "ios": "https://dc.lft.to/lastmile_qr_scan"}, "lat": 38.988378166666664, "bike_id": "58aa905fa28aaa2e9f6710b1d8873ffc", "is_disabled": 0, "lon": -77.026497, "is_reserved": 0, "fusion_lat": 0.0, "type": "electric_bike"}, {"fusion_lon": 0.0, "name": "7418cee17889c2a753998eedb6bd8168", "rental_uris": {"android": "https://dc.lft.to/lastmile_qr_scan", "ios": "https://dc.lft.to/lastmile_qr_scan"}, "lat": 38.897419666666664, "bike_id": "7418cee17889c2a753998eedb6bd8168", "is_disabled": 0, "lon": -77.01382783333334, "is_reserved": 0, "fusion_lat": 0.0, "type": "electric_scooter"}, {"fusion_lon": 0.0, "name": "df4cd331e57a4a939ab34d394ca8827d", "rental_uris": {"android": "https://dc.lft.to/lastmile_qr_scan", "ios": "https://dc.lft.to/lastmile_qr_scan"}, "lat": 38.92479183333333, "bike_id": "df4cd331e57a4a939ab34d394ca8827d", "is_disabled": 0, "lon": -77.0310015, "is_reserved": 0, "fusion_lat": 0.0, "type": "electric_scooter"}, {"fusion_lon": 0.0, "name": "d193b193f35d0c9d270c7ac5b7f40826", "rental_uris": {"android": "https://dc.lft.to/lastmile_qr_scan", "ios": "https://dc.lft.to/lastmile_qr_scan"}, "lat": 38.89769066666667, "bike_id": "d193b193f35d0c9d270c7ac5b7f40826", "is_disabled": 0, "lon": -77.02692866666666, "is_reserved": 0, "fusion_lat": 0.0, "type": "electric_scooter"}, {"fusion_lon": 0.0, "name": "8a4e256bf6ebf7175c774f127688b8b0", "rental_uris": {"android": "https://dc.lft.to/lastmile_qr_scan", "ios": "https://dc.lft.to/lastmile_qr_scan"}, "lat": 38.8973, "bike_id": "8a4e256bf6ebf7175c774f127688b8b0", "is_disabled": 0, "lon": -77.0213665, "is_reserved": 0, "fusion_lat": 0.0, "type": "electric_scooter"}, {"fusion_lon": 0.0, "name": "ac860545c23ed6f7d35db65b9a88e153", "rental_uris": {"android": "https://dc.lft.to/lastmile_qr_scan", "ios": "https://dc.lft.to/lastmile_qr_scan"}, "lat": 38.88066933333333, "bike_id": "ac860545c23ed6f7d35db65b9a88e153", "is_disabled": 0, "lon": -77.0255415, "is_reserved": 0, "fusion_lat": 0.0, "type": "electric_scooter"}, {"fusion_lon": 0.0, "name": "03ef1b79e506c2d9ee334becbd591900", "rental_uris": {"android": "https://dc.lft.to/lastmile_qr_scan", "ios": "https://dc.lft.to/lastmile_qr_scan"}, "lat": 39.00383583333333, "bike_id": "03ef1b79e506c2d9ee334becbd591900", "is_disabled": 0, "lon": -77.01290066666667, "is_reserved": 0, "fusion_lat": 0.0, "type": "electric_bike"}, {"fusion_lon": 0.0, "name": "087dffde3b2d15713244f93f572d3934", "rental_uris": {"android": "https://dc.lft.to/lastmile_qr_scan", "ios": "https://dc.lft.to/lastmile_qr_scan"}, "lat": 38.805638333333334, "bike_id": "087dffde3b2d15713244f93f572d3934", "is_disabled": 0, "lon": -77.13229333333334, "is_reserved": 0, "fusion_lat": 0.0, "type": "electric_bike"}, {"fusion_lon": 0.0, "name": "bbf908339b0c15403ee84cd7306b7453", "rental_uris": {"android": "https://dc.lft.to/lastmile_qr_scan", "ios": "https://dc.lft.to/lastmile_qr_scan"}, "lat": 38.916967, "bike_id": "bbf908339b0c15403ee84cd7306b7453", "is_disabled": 0, "lon": -77.0313175, "is_reserved": 0, "fusion_lat": 0.0, "type": "electric_scooter"}, {"fusion_lon": 0.0, "name": "0587390106d5acb97b5a110d8a271a5c", "rental_uris": {"android": "https://dc.lft.to/lastmile_qr_scan", "ios": "https://dc.lft.to/lastmile_qr_scan"}, "lat": 38.895459333333335, "bike_id": "0587390106d5acb97b5a110d8a271a5c", "is_disabled": 0, "lon": -76.98338366666667, "is_reserved": 0, "fusion_lat": 0.0, "type": "electric_scooter"}, {"fusion_lon": 0.0, "name": "ce79d5f41cd6b13a5f0cbeeae02ea4a6", "rental_uris": {"android": "https://dc.lft.to/lastmile_qr_scan", "ios": "https://dc.lft.to/lastmile_qr_scan"}, "lat": 38.87697, "bike_id": "ce79d5f41cd6b13a5f0cbeeae02ea4a6", "is_disabled": 0, "lon": -76.996137, "is_reserved": 0, "fusion_lat": 0.0, "type": "electric_scooter"}, {"fusion_lon": 0.0, "name": "d3c0371de0e615775554816a6d06e964", "rental_uris": {"android": "https://dc.lft.to/lastmile_qr_scan", "ios": "https://dc.lft.to/lastmile_qr_scan"}, "lat": 38.918191, "bike_id": "d3c0371de0e615775554816a6d06e964", "is_disabled": 0, "lon": -77.036622, "is_reserved": 0, "fusion_lat": 0.0, "type": "electric_scooter"}, {"fusion_lon": 0.0, "name": "f4a623a1e07871caf1256d4aeaa43763", "rental_uris": {"android": "https://dc.lft.to/lastmile_qr_scan", "ios": "https://dc.lft.to/lastmile_qr_scan"}, "lat": 38.928157, "bike_id": "f4a623a1e07871caf1256d4aeaa43763", "is_disabled": 0, "lon": -77.03145566666667, "is_reserved": 0, "fusion_lat": 0.0, "type": "electric_scooter"}, {"fusion_lon": 0.0, "name": "68150667a1798af55788f591e47af623", "rental_uris": {"android": "https://dc.lft.to/lastmile_qr_scan", "ios": "https://dc.lft.to/lastmile_qr_scan"}, "lat": 38.903721, "bike_id": "68150667a1798af55788f591e47af623", "is_disabled": 0, "lon": -77.036837, "is_reserved": 0, "fusion_lat": 0.0, "type": "electric_scooter"}, {"fusion_lon": 0.0, "name": "63cf5bb8ab5bd46f180d484b035d91b8", "rental_uris": {"android": "https://dc.lft.to/lastmile_qr_scan", "ios": "https://dc.lft.to/lastmile_qr_scan"}, "lat": 38.94258966666666, "bike_id": "63cf5bb8ab5bd46f180d484b035d91b8", "is_disabled": 0, "lon": -76.99071366666666, "is_reserved": 0, "fusion_lat": 0.0, "type": "electric_bike"}, {"fusion_lon": 0.0, "name": "b80e4e63ab7782f540825a8a35765f10", "rental_uris": {"android": "https://dc.lft.to/lastmile_qr_scan", "ios": "https://dc.lft.to/lastmile_qr_scan"}, "lat": 38.91708533333333, "bike_id": "b80e4e63ab7782f540825a8a35765f10", "is_disabled": 0, "lon": -77.04223983333333, "is_reserved": 0, "fusion_lat": 0.0, "type": "electric_scooter"}, {"fusion_lon": 0.0, "name": "a82044615565df918309dd846fed1fce", "rental_uris": {"android": "https://dc.lft.to/lastmile_qr_scan", "ios": "https://dc.lft.to/lastmile_qr_scan"}, "lat": 38.90147266666666, "bike_id": "a82044615565df918309dd846fed1fce", "is_disabled": 0, "lon": -76.99795933333333, "is_reserved": 0, "fusion_lat": 0.0, "type": "electric_scooter"}, {"fusion_lon": 0.0, "name": "ed7339ae1238ce46555383fa9fb062de", "rental_uris": {"android": "https://dc.lft.to/lastmile_qr_scan", "ios": "https://dc.lft.to/lastmile_qr_scan"}, "lat": 38.90637133333333, "bike_id": "ed7339ae1238ce46555383fa9fb062de", "is_disabled": 0, "lon": -77.04135016666666, "is_reserved": 0, "fusion_lat": 0.0, "type": "electric_scooter"}, {"fusion_lon": 0.0, "name": "88acd095e6cf99447966f87a3102d746", "rental_uris": {"android": "https://dc.lft.to/lastmile_qr_scan", "ios": "https://dc.lft.to/lastmile_qr_scan"}, "lat": 38.916633, "bike_id": "88acd095e6cf99447966f87a3102d746", "is_disabled": 0, "lon": -77.04617533333334, "is_reserved": 0, "fusion_lat": 0.0, "type": "electric_scooter"}, {"fusion_lon": 0.0, "name": "42e5a4d4f11cd044959c897d22c92a5e", "rental_uris": {"android": "https://dc.lft.to/lastmile_qr_scan", "ios": "https://dc.lft.to/lastmile_qr_scan"}, "lat": 38.90665166666667, "bike_id": "42e5a4d4f11cd044959c897d22c92a5e", "is_disabled": 0, "lon": -77.02807083333333, "is_reserved": 0, "fusion_lat": 0.0, "type": "electric_scooter"}, {"fusion_lon": 0.0, "name": "3867cfd984deccff7d3e2b10ded094dd", "rental_uris": {"android": "https://dc.lft.to/lastmile_qr_scan", "ios": "https://dc.lft.to/lastmile_qr_scan"}, "lat": 38.806868, "bike_id": "3867cfd984deccff7d3e2b10ded094dd", "is_disabled": 0, "lon": -77.1338525, "is_reserved": 0, "fusion_lat": 0.0, "type": "electric_bike"}, {"fusion_lon": 0.0, "name": "604ed93bfd07e1245c2789279afcf1a1", "rental_uris": {"android": "https://dc.lft.to/lastmile_qr_scan", "ios": "https://dc.lft.to/lastmile_qr_scan"}, "lat": 38.84352716666667, "bike_id": "604ed93bfd07e1245c2789279afcf1a1", "is_disabled": 0, "lon": -76.97656266666667, "is_reserved": 0, "fusion_lat": 0.0, "type": "electric_scooter"}, {"fusion_lon": 0.0, "name": "597b8b9c41013ed9199d3f14ff59aab5", "rental_uris": {"android": "https://dc.lft.to/lastmile_qr_scan", "ios": "https://dc.lft.to/lastmile_qr_scan"}, "lat": 38.96407033333333, "bike_id": "597b8b9c41013ed9199d3f14ff59aab5", "is_disabled": 0, "lon": -77.0277085, "is_reserved": 0, "fusion_lat": 0.0, "type": "electric_scooter"}, {"fusion_lon": 0.0, "name": "ec0bd4d2a96a31f9fc5b052c99f273bc", "rental_uris": {"android": "https://dc.lft.to/lastmile_qr_scan", "ios": "https://dc.lft.to/lastmile_qr_scan"}, "lat": 38.90180566666667, "bike_id": "ec0bd4d2a96a31f9fc5b052c99f273bc", "is_disabled": 0, "lon": -77.02400983333334, "is_reserved": 0, "fusion_lat": 0.0, "type": "electric_scooter"}, {"fusion_lon": 0.0, "name": "55d5465534044a7a1163307c83fa4193", "rental_uris": {"android": "https://dc.lft.to/lastmile_qr_scan", "ios": "https://dc.lft.to/lastmile_qr_scan"}, "lat": 38.899133166666665, "bike_id": "55d5465534044a7a1163307c83fa4193", "is_disabled": 0, "lon": -77.03296633333333, "is_reserved": 0, "fusion_lat": 0.0, "type": "electric_scooter"}, {"fusion_lon": 0.0, "name": "455a5012e8b0a40fe968dd82d0fbd767", "rental_uris": {"android": "https://dc.lft.to/lastmile_qr_scan", "ios": "https://dc.lft.to/lastmile_qr_scan"}, "lat": 38.906788666666664, "bike_id": "455a5012e8b0a40fe968dd82d0fbd767", "is_disabled": 0, "lon": -77.038007, "is_reserved": 0, "fusion_lat": 0.0, "type": "electric_scooter"}, {"fusion_lon": 0.0, "name": "f6ade2eea890c712e1fe3313b4dc6f84", "rental_uris": {"android": "https://dc.lft.to/lastmile_qr_scan", "ios": "https://dc.lft.to/lastmile_qr_scan"}, "lat": 38.895427, "bike_id": "f6ade2eea890c712e1fe3313b4dc6f84", "is_disabled": 0, "lon": -77.01104783333334, "is_reserved": 0, "fusion_lat": 0.0, "type": "electric_scooter"}, {"fusion_lon": 0.0, "name": "ea21d4a84f4f9879c9f61ba605bb73d8", "rental_uris": {"android": "https://dc.lft.to/lastmile_qr_scan", "ios": "https://dc.lft.to/lastmile_qr_scan"}, "lat": 38.9202825, "bike_id": "ea21d4a84f4f9879c9f61ba605bb73d8", "is_disabled": 0, "lon": -77.01116166666667, "is_reserved": 0, "fusion_lat": 0.0, "type": "electric_scooter"}, {"fusion_lon": 0.0, "name": "9e90c4eb04607fbd16c162fd7e144468", "rental_uris": {"android": "https://dc.lft.to/lastmile_qr_scan", "ios": "https://dc.lft.to/lastmile_qr_scan"}, "lat": 38.91461683333333, "bike_id": "9e90c4eb04607fbd16c162fd7e144468", "is_disabled": 0, "lon": -77.041704, "is_reserved": 0, "fusion_lat": 0.0, "type": "electric_scooter"}, {"fusion_lon": 0.0, "name": "4c0c1774416b4dc89242d13ee832e295", "rental_uris": {"android": "https://dc.lft.to/lastmile_qr_scan", "ios": "https://dc.lft.to/lastmile_qr_scan"}, "lat": 38.893522833333336, "bike_id": "4c0c1774416b4dc89242d13ee832e295", "is_disabled": 0, "lon": -77.00335883333334, "is_reserved": 0, "fusion_lat": 0.0, "type": "electric_scooter"}, {"fusion_lon": 0.0, "name": "f4734ae32a7b3d0157ce563d28aed58c", "rental_uris": {"android": "https://dc.lft.to/lastmile_qr_scan", "ios": "https://dc.lft.to/lastmile_qr_scan"}, "lat": 38.896211666666666, "bike_id": "f4734ae32a7b3d0157ce563d28aed58c", "is_disabled": 0, "lon": -76.907552, "is_reserved": 0, "fusion_lat": 0.0, "type": "electric_bike"}, {"fusion_lon": 0.0, "name": "533549be3aef9d6940bf39716ff83202", "rental_uris": {"android": "https://dc.lft.to/lastmile_qr_scan", "ios": "https://dc.lft.to/lastmile_qr_scan"}, "lat": 38.9008315, "bike_id": "533549be3aef9d6940bf39716ff83202", "is_disabled": 0, "lon": -77.04474033333334, "is_reserved": 0, "fusion_lat": 0.0, "type": "electric_scooter"}, {"fusion_lon": 0.0, "name": "be160db9509ee8d4ba7cf02a8ade65b9", "rental_uris": {"android": "https://dc.lft.to/lastmile_qr_scan", "ios": "https://dc.lft.to/lastmile_qr_scan"}, "lat": 38.903198, "bike_id": "be160db9509ee8d4ba7cf02a8ade65b9", "is_disabled": 0, "lon": -76.98151383333334, "is_reserved": 0, "fusion_lat": 0.0, "type": "electric_scooter"}, {"fusion_lon": 0.0, "name": "9a8638bf56e65a53b7c12bf4d64cd182", "rental_uris": {"android": "https://dc.lft.to/lastmile_qr_scan", "ios": "https://dc.lft.to/lastmile_qr_scan"}, "lat": 38.893583166666666, "bike_id": "9a8638bf56e65a53b7c12bf4d64cd182", "is_disabled": 0, "lon": -77.00335466666667, "is_reserved": 0, "fusion_lat": 0.0, "type": "electric_scooter"}, {"fusion_lon": 0.0, "name": "8c8b65d31f7e5369323f8c5d15401727", "rental_uris": {"android": "https://dc.lft.to/lastmile_qr_scan", "ios": "https://dc.lft.to/lastmile_qr_scan"}, "lat": 38.899216333333335, "bike_id": "8c8b65d31f7e5369323f8c5d15401727", "is_disabled": 0, "lon": -77.02798233333333, "is_reserved": 0, "fusion_lat": 0.0, "type": "electric_scooter"}, {"fusion_lon": 0.0, "name": "85a78df32ad05a69e4f47bcd2d2044ac", "rental_uris": {"android": "https://dc.lft.to/lastmile_qr_scan", "ios": "https://dc.lft.to/lastmile_qr_scan"}, "lat": 38.8983255, "bike_id": "85a78df32ad05a69e4f47bcd2d2044ac", "is_disabled": 0, "lon": -77.0468405, "is_reserved": 0, "fusion_lat": 0.0, "type": "electric_bike"}, {"fusion_lon": 0.0, "name": "3e3eaec1f2000e1050feac4e069b2ff9", "rental_uris": {"android": "https://dc.lft.to/lastmile_qr_scan", "ios": "https://dc.lft.to/lastmile_qr_scan"}, "lat": 38.91856216666667, "bike_id": "3e3eaec1f2000e1050feac4e069b2ff9", "is_disabled": 0, "lon": -77.03184816666666, "is_reserved": 0, "fusion_lat": 0.0, "type": "electric_scooter"}, {"fusion_lon": 0.0, "name": "4d3011b47639a345f82866c59e225bf5", "rental_uris": {"android": "https://dc.lft.to/lastmile_qr_scan", "ios": "https://dc.lft.to/lastmile_qr_scan"}, "lat": 38.898831666666666, "bike_id": "4d3011b47639a345f82866c59e225bf5", "is_disabled": 0, "lon": -76.98836183333333, "is_reserved": 0, "fusion_lat": 0.0, "type": "electric_scooter"}, {"fusion_lon": 0.0, "name": "34e1bd89e024f31f45098b070d535881", "rental_uris": {"android": "https://dc.lft.to/lastmile_qr_scan", "ios": "https://dc.lft.to/lastmile_qr_scan"}, "lat": 38.90286183333333, "bike_id": "34e1bd89e024f31f45098b070d535881", "is_disabled": 0, "lon": -77.04592866666667, "is_reserved": 0, "fusion_lat": 0.0, "type": "electric_scooter"}, {"fusion_lon": 0.0, "name": "8873bc2f82b5909f10454e742cba0a70", "rental_uris": {"android": "https://dc.lft.to/lastmile_qr_scan", "ios": "https://dc.lft.to/lastmile_qr_scan"}, "lat": 38.91842583333333, "bike_id": "8873bc2f82b5909f10454e742cba0a70", "is_disabled": 0, "lon": -77.03858283333334, "is_reserved": 0, "fusion_lat": 0.0, "type": "electric_scooter"}, {"fusion_lon": 0.0, "name": "b4e9776d3d86c1f3b0f7bcc4b80c4b78", "rental_uris": {"android": "https://dc.lft.to/lastmile_qr_scan", "ios": "https://dc.lft.to/lastmile_qr_scan"}, "lat": 38.8804035, "bike_id": "b4e9776d3d86c1f3b0f7bcc4b80c4b78", "is_disabled": 0, "lon": -77.003653, "is_reserved": 0, "fusion_lat": 0.0, "type": "electric_scooter"}, {"fusion_lon": 0.0, "name": "bddb3485c90aebe2541bf4371daefd65", "rental_uris": {"android": "https://dc.lft.to/lastmile_qr_scan", "ios": "https://dc.lft.to/lastmile_qr_scan"}, "lat": 38.86578266666667, "bike_id": "bddb3485c90aebe2541bf4371daefd65", "is_disabled": 0, "lon": -76.99036916666667, "is_reserved": 0, "fusion_lat": 0.0, "type": "electric_bike"}, {"fusion_lon": 0.0, "name": "b238eacfcd3fe966cf7ff9dd69199459", "rental_uris": {"android": "https://dc.lft.to/lastmile_qr_scan", "ios": "https://dc.lft.to/lastmile_qr_scan"}, "lat": 38.936352666666664, "bike_id": "b238eacfcd3fe966cf7ff9dd69199459", "is_disabled": 0, "lon": -77.03265516666667, "is_reserved": 0, "fusion_lat": 0.0, "type": "electric_scooter"}, {"fusion_lon": 0.0, "name": "dfbdfddd73dab6fe291f6e2efc7fb560", "rental_uris": {"android": "https://dc.lft.to/lastmile_qr_scan", "ios": "https://dc.lft.to/lastmile_qr_scan"}, "lat": 38.940285333333335, "bike_id": "dfbdfddd73dab6fe291f6e2efc7fb560", "is_disabled": 0, "lon": -77.02523033333334, "is_reserved": 0, "fusion_lat": 0.0, "type": "electric_scooter"}, {"fusion_lon": 0.0, "name": "243341dbe2f60cc81df06bc19ac09919", "rental_uris": {"android": "https://dc.lft.to/lastmile_qr_scan", "ios": "https://dc.lft.to/lastmile_qr_scan"}, "lat": 38.917143333333335, "bike_id": "243341dbe2f60cc81df06bc19ac09919", "is_disabled": 0, "lon": -77.03865033333334, "is_reserved": 0, "fusion_lat": 0.0, "type": "electric_scooter"}, {"fusion_lon": 0.0, "name": "af72a4231718af7809e2a42c2a9dba38", "rental_uris": {"android": "https://dc.lft.to/lastmile_qr_scan", "ios": "https://dc.lft.to/lastmile_qr_scan"}, "lat": 38.924710166666664, "bike_id": "af72a4231718af7809e2a42c2a9dba38", "is_disabled": 0, "lon": -77.03830566666667, "is_reserved": 0, "fusion_lat": 0.0, "type": "electric_scooter"}, {"fusion_lon": 0.0, "name": "bb1e1885e5fbf2b273c6b69b3521df7b", "rental_uris": {"android": "https://dc.lft.to/lastmile_qr_scan", "ios": "https://dc.lft.to/lastmile_qr_scan"}, "lat": 38.89544016666667, "bike_id": "bb1e1885e5fbf2b273c6b69b3521df7b", "is_disabled": 0, "lon": -76.9833455, "is_reserved": 0, "fusion_lat": 0.0, "type": "electric_scooter"}, {"fusion_lon": 0.0, "name": "aa3cf96eeeaac68e7c3aa4f2ac7c077f", "rental_uris": {"android": "https://dc.lft.to/lastmile_qr_scan", "ios": "https://dc.lft.to/lastmile_qr_scan"}, "lat": 38.917096666666666, "bike_id": "aa3cf96eeeaac68e7c3aa4f2ac7c077f", "is_disabled": 0, "lon": -77.02949816666667, "is_reserved": 0, "fusion_lat": 0.0, "type": "electric_scooter"}, {"fusion_lon": 0.0, "name": "237f629d9ab85bdf30ccd03e4d11cbb2", "rental_uris": {"android": "https://dc.lft.to/lastmile_qr_scan", "ios": "https://dc.lft.to/lastmile_qr_scan"}, "lat": 38.94463866666667, "bike_id": "237f629d9ab85bdf30ccd03e4d11cbb2", "is_disabled": 0, "lon": -77.06390166666667, "is_reserved": 0, "fusion_lat": 0.0, "type": "electric_scooter"}, {"fusion_lon": 0.0, "name": "f30269f000a7277c83e1c946d8b04a76", "rental_uris": {"android": "https://dc.lft.to/lastmile_qr_scan", "ios": "https://dc.lft.to/lastmile_qr_scan"}, "lat": 38.896113, "bike_id": "f30269f000a7277c83e1c946d8b04a76", "is_disabled": 0, "lon": -77.0508, "is_reserved": 0, "fusion_lat": 0.0, "type": "electric_scooter"}, {"fusion_lon": 0.0, "name": "3bf9af652f0b1757100b7056561c8e8d", "rental_uris": {"android": "https://dc.lft.to/lastmile_qr_scan", "ios": "https://dc.lft.to/lastmile_qr_scan"}, "lat": 38.920415, "bike_id": "3bf9af652f0b1757100b7056561c8e8d", "is_disabled": 0, "lon": -77.01681416666666, "is_reserved": 0, "fusion_lat": 0.0, "type": "electric_scooter"}, {"fusion_lon": 0.0, "name": "99d1f97b941aaae95bb6a7114e8acb6a", "rental_uris": {"android": "https://dc.lft.to/lastmile_qr_scan", "ios": "https://dc.lft.to/lastmile_qr_scan"}, "lat": 38.919219, "bike_id": "99d1f97b941aaae95bb6a7114e8acb6a", "is_disabled": 0, "lon": -77.01927033333334, "is_reserved": 0, "fusion_lat": 0.0, "type": "electric_scooter"}, {"fusion_lon": 0.0, "name": "95df87293f0f4358e60ff9148184c78d", "rental_uris": {"android": "https://dc.lft.to/lastmile_qr_scan", "ios": "https://dc.lft.to/lastmile_qr_scan"}, "lat": 38.879623333333335, "bike_id": "95df87293f0f4358e60ff9148184c78d", "is_disabled": 0, "lon": -77.02416216666667, "is_reserved": 0, "fusion_lat": 0.0, "type": "electric_scooter"}, {"fusion_lon": 0.0, "name": "0eb78a3188a07adb7a4ef7e582cd4f92", "rental_uris": {"android": "https://dc.lft.to/lastmile_qr_scan", "ios": "https://dc.lft.to/lastmile_qr_scan"}, "lat": 38.88589983333333, "bike_id": "0eb78a3188a07adb7a4ef7e582cd4f92", "is_disabled": 0, "lon": -77.00579166666667, "is_reserved": 0, "fusion_lat": 0.0, "type": "electric_scooter"}, {"fusion_lon": 0.0, "name": "5237c325f5c66608bd59145924d38397", "rental_uris": {"android": "https://dc.lft.to/lastmile_qr_scan", "ios": "https://dc.lft.to/lastmile_qr_scan"}, "lat": 38.90143783333333, "bike_id": "5237c325f5c66608bd59145924d38397", "is_disabled": 0, "lon": -77.04499783333333, "is_reserved": 0, "fusion_lat": 0.0, "type": "electric_scooter"}, {"fusion_lon": 0.0, "name": "be2ed6d9901602cdcb7c6cab4dcfd2fd", "rental_uris": {"android": "https://dc.lft.to/lastmile_qr_scan", "ios": "https://dc.lft.to/lastmile_qr_scan"}, "lat": 38.903930833333334, "bike_id": "be2ed6d9901602cdcb7c6cab4dcfd2fd", "is_disabled": 0, "lon": -77.04823516666667, "is_reserved": 0, "fusion_lat": 0.0, "type": "electric_scooter"}, {"fusion_lon": 0.0, "name": "7e5cbf7a8fd24b98fbd4cff783b28d49", "rental_uris": {"android": "https://dc.lft.to/lastmile_qr_scan", "ios": "https://dc.lft.to/lastmile_qr_scan"}, "lat": 38.89257333333333, "bike_id": "7e5cbf7a8fd24b98fbd4cff783b28d49", "is_disabled": 0, "lon": -77.002173, "is_reserved": 0, "fusion_lat": 0.0, "type": "electric_scooter"}, {"fusion_lon": 0.0, "name": "c28a6d68e0088557de14250a88cce685", "rental_uris": {"android": "https://dc.lft.to/lastmile_qr_scan", "ios": "https://dc.lft.to/lastmile_qr_scan"}, "lat": 38.86873883333333, "bike_id": "c28a6d68e0088557de14250a88cce685", "is_disabled": 0, "lon": -76.98660783333334, "is_reserved": 0, "fusion_lat": 0.0, "type": "electric_scooter"}, {"fusion_lon": 0.0, "name": "2af1cb2a5d1a1dd072c7338f4abdcf35", "rental_uris": {"android": "https://dc.lft.to/lastmile_qr_scan", "ios": "https://dc.lft.to/lastmile_qr_scan"}, "lat": 38.9057175, "bike_id": "2af1cb2a5d1a1dd072c7338f4abdcf35", "is_disabled": 0, "lon": -77.03462066666667, "is_reserved": 0, "fusion_lat": 0.0, "type": "electric_scooter"}, {"fusion_lon": 0.0, "name": "1fdf3b4c834617db9fb58b5299af7338", "rental_uris": {"android": "https://dc.lft.to/lastmile_qr_scan", "ios": "https://dc.lft.to/lastmile_qr_scan"}, "lat": 38.901454666666666, "bike_id": "1fdf3b4c834617db9fb58b5299af7338", "is_disabled": 0, "lon": -77.03186033333333, "is_reserved": 0, "fusion_lat": 0.0, "type": "electric_scooter"}, {"fusion_lon": 0.0, "name": "fe33586f62f6424e7b8fc064430412af", "rental_uris": {"android": "https://dc.lft.to/lastmile_qr_scan", "ios": "https://dc.lft.to/lastmile_qr_scan"}, "lat": 38.88511366666667, "bike_id": "fe33586f62f6424e7b8fc064430412af", "is_disabled": 0, "lon": -77.01115516666667, "is_reserved": 0, "fusion_lat": 0.0, "type": "electric_scooter"}, {"fusion_lon": 0.0, "name": "d4856cf1ba1d7c553bcb5f9172f7e0cb", "rental_uris": {"android": "https://dc.lft.to/lastmile_qr_scan", "ios": "https://dc.lft.to/lastmile_qr_scan"}, "lat": 38.923656, "bike_id": "d4856cf1ba1d7c553bcb5f9172f7e0cb", "is_disabled": 0, "lon": -77.05049333333334, "is_reserved": 0, "fusion_lat": 0.0, "type": "electric_scooter"}, {"fusion_lon": 0.0, "name": "729d8164764a2635291328ab5dca5dcb", "rental_uris": {"android": "https://dc.lft.to/lastmile_qr_scan", "ios": "https://dc.lft.to/lastmile_qr_scan"}, "lat": 38.89357483333333, "bike_id": "729d8164764a2635291328ab5dca5dcb", "is_disabled": 0, "lon": -77.00335633333333, "is_reserved": 0, "fusion_lat": 0.0, "type": "electric_scooter"}, {"fusion_lon": 0.0, "name": "d1c53de6d46bb21be9646c91b0d61e4c", "rental_uris": {"android": "https://dc.lft.to/lastmile_qr_scan", "ios": "https://dc.lft.to/lastmile_qr_scan"}, "lat": 38.895921333333334, "bike_id": "d1c53de6d46bb21be9646c91b0d61e4c", "is_disabled": 0, "lon": -77.048068, "is_reserved": 0, "fusion_lat": 0.0, "type": "electric_scooter"}, {"fusion_lon": 0.0, "name": "6a80d15215e6a180f72588309610e87e", "rental_uris": {"android": "https://dc.lft.to/lastmile_qr_scan", "ios": "https://dc.lft.to/lastmile_qr_scan"}, "lat": 38.900221, "bike_id": "6a80d15215e6a180f72588309610e87e", "is_disabled": 0, "lon": -77.04672083333334, "is_reserved": 0, "fusion_lat": 0.0, "type": "electric_scooter"}, {"fusion_lon": 0.0, "name": "7a7650da5bc63ffe765934d0459ef55b", "rental_uris": {"android": "https://dc.lft.to/lastmile_qr_scan", "ios": "https://dc.lft.to/lastmile_qr_scan"}, "lat": 38.9243525, "bike_id": "7a7650da5bc63ffe765934d0459ef55b", "is_disabled": 0, "lon": -77.0521055, "is_reserved": 0, "fusion_lat": 0.0, "type": "electric_scooter"}, {"fusion_lon": 0.0, "name": "e4cec3f7545c050ff646c16b865d32f6", "rental_uris": {"android": "https://dc.lft.to/lastmile_qr_scan", "ios": "https://dc.lft.to/lastmile_qr_scan"}, "lat": 38.944481333333336, "bike_id": "e4cec3f7545c050ff646c16b865d32f6", "is_disabled": 0, "lon": -77.02339916666666, "is_reserved": 0, "fusion_lat": 0.0, "type": "electric_scooter"}, {"fusion_lon": 0.0, "name": "5d2ef4098c8bc3dda9aeda7fed396f9f", "rental_uris": {"android": "https://dc.lft.to/lastmile_qr_scan", "ios": "https://dc.lft.to/lastmile_qr_scan"}, "lat": 38.9049375, "bike_id": "5d2ef4098c8bc3dda9aeda7fed396f9f", "is_disabled": 0, "lon": -77.04865516666666, "is_reserved": 0, "fusion_lat": 0.0, "type": "electric_scooter"}, {"fusion_lon": 0.0, "name": "5e5a716678e840f4f331356e1fda9611", "rental_uris": {"android": "https://dc.lft.to/lastmile_qr_scan", "ios": "https://dc.lft.to/lastmile_qr_scan"}, "lat": 38.9034595, "bike_id": "5e5a716678e840f4f331356e1fda9611", "is_disabled": 0, "lon": -77.06203333333333, "is_reserved": 0, "fusion_lat": 0.0, "type": "electric_scooter"}, {"fusion_lon": 0.0, "name": "cc7a3c2076406748270719cfd6682acf", "rental_uris": {"android": "https://dc.lft.to/lastmile_qr_scan", "ios": "https://dc.lft.to/lastmile_qr_scan"}, "lat": 38.9181915, "bike_id": "cc7a3c2076406748270719cfd6682acf", "is_disabled": 0, "lon": -77.03728, "is_reserved": 0, "fusion_lat": 0.0, "type": "electric_scooter"}, {"fusion_lon": 0.0, "name": "c879c610536e3da46b27cf9b6897a78c", "rental_uris": {"android": "https://dc.lft.to/lastmile_qr_scan", "ios": "https://dc.lft.to/lastmile_qr_scan"}, "lat": 38.896885833333336, "bike_id": "c879c610536e3da46b27cf9b6897a78c", "is_disabled": 0, "lon": -77.04351233333334, "is_reserved": 0, "fusion_lat": 0.0, "type": "electric_scooter"}, {"fusion_lon": 0.0, "name": "4c73f8f7d5f805941a2d86fa650eaff2", "rental_uris": {"android": "https://dc.lft.to/lastmile_qr_scan", "ios": "https://dc.lft.to/lastmile_qr_scan"}, "lat": 38.9187475, "bike_id": "4c73f8f7d5f805941a2d86fa650eaff2", "is_disabled": 0, "lon": -77.03473866666667, "is_reserved": 0, "fusion_lat": 0.0, "type": "electric_scooter"}, {"fusion_lon": 0.0, "name": "6ed659b7dd32e70eb75b21084ef2abee", "rental_uris": {"android": "https://dc.lft.to/lastmile_qr_scan", "ios": "https://dc.lft.to/lastmile_qr_scan"}, "lat": 38.914060666666664, "bike_id": "6ed659b7dd32e70eb75b21084ef2abee", "is_disabled": 0, "lon": -77.01843733333334, "is_reserved": 0, "fusion_lat": 0.0, "type": "electric_scooter"}, {"fusion_lon": 0.0, "name": "fca40123b13c3fa2d6abad864da312b9", "rental_uris": {"android": "https://dc.lft.to/lastmile_qr_scan", "ios": "https://dc.lft.to/lastmile_qr_scan"}, "lat": 38.90838433333333, "bike_id": "fca40123b13c3fa2d6abad864da312b9", "is_disabled": 0, "lon": -77.03944166666666, "is_reserved": 0, "fusion_lat": 0.0, "type": "electric_scooter"}, {"fusion_lon": 0.0, "name": "ff693596294cbf04ae8cdd5f445398ad", "rental_uris": {"android": "https://dc.lft.to/lastmile_qr_scan", "ios": "https://dc.lft.to/lastmile_qr_scan"}, "lat": 38.901377, "bike_id": "ff693596294cbf04ae8cdd5f445398ad", "is_disabled": 0, "lon": -77.0430445, "is_reserved": 0, "fusion_lat": 0.0, "type": "electric_scooter"}, {"fusion_lon": 0.0, "name": "24c8bbfe37a5965f75ba993276971990", "rental_uris": {"android": "https://dc.lft.to/lastmile_qr_scan", "ios": "https://dc.lft.to/lastmile_qr_scan"}, "lat": 38.90007816666667, "bike_id": "24c8bbfe37a5965f75ba993276971990", "is_disabled": 0, "lon": -77.0466065, "is_reserved": 0, "fusion_lat": 0.0, "type": "electric_scooter"}, {"fusion_lon": 0.0, "name": "46b50cb53a7006ae167ccd475196f2a4", "rental_uris": {"android": "https://dc.lft.to/lastmile_qr_scan", "ios": "https://dc.lft.to/lastmile_qr_scan"}, "lat": 38.90062983333333, "bike_id": "46b50cb53a7006ae167ccd475196f2a4", "is_disabled": 0, "lon": -77.046347, "is_reserved": 0, "fusion_lat": 0.0, "type": "electric_scooter"}, {"fusion_lon": 0.0, "name": "93a85f083cf5738fb0398696bc6664a6", "rental_uris": {"android": "https://dc.lft.to/lastmile_qr_scan", "ios": "https://dc.lft.to/lastmile_qr_scan"}, "lat": 38.89968116666667, "bike_id": "93a85f083cf5738fb0398696bc6664a6", "is_disabled": 0, "lon": -77.04859833333333, "is_reserved": 0, "fusion_lat": 0.0, "type": "electric_scooter"}, {"fusion_lon": 0.0, "name": "6efa6f4c1df05e6722c4139c8d00cd33", "rental_uris": {"android": "https://dc.lft.to/lastmile_qr_scan", "ios": "https://dc.lft.to/lastmile_qr_scan"}, "lat": 38.87562966666667, "bike_id": "6efa6f4c1df05e6722c4139c8d00cd33", "is_disabled": 0, "lon": -77.00591666666666, "is_reserved": 0, "fusion_lat": 0.0, "type": "electric_scooter"}, {"fusion_lon": 0.0, "name": "a9c88d293be1976764ade99605236567", "rental_uris": {"android": "https://dc.lft.to/lastmile_qr_scan", "ios": "https://dc.lft.to/lastmile_qr_scan"}, "lat": 38.92760033333333, "bike_id": "a9c88d293be1976764ade99605236567", "is_disabled": 0, "lon": -77.0526775, "is_reserved": 0, "fusion_lat": 0.0, "type": "electric_scooter"}, {"fusion_lon": 0.0, "name": "51489c399abbe54f0003ea52dc54ffbb", "rental_uris": {"android": "https://dc.lft.to/lastmile_qr_scan", "ios": "https://dc.lft.to/lastmile_qr_scan"}, "lat": 38.907308666666665, "bike_id": "51489c399abbe54f0003ea52dc54ffbb", "is_disabled": 0, "lon": -77.02796616666667, "is_reserved": 0, "fusion_lat": 0.0, "type": "electric_scooter"}, {"fusion_lon": 0.0, "name": "f2e763d51a8dd4bbde9da863f1ba9855", "rental_uris": {"android": "https://dc.lft.to/lastmile_qr_scan", "ios": "https://dc.lft.to/lastmile_qr_scan"}, "lat": 38.924647666666665, "bike_id": "f2e763d51a8dd4bbde9da863f1ba9855", "is_disabled": 0, "lon": -77.02237366666667, "is_reserved": 0, "fusion_lat": 0.0, "type": "electric_scooter"}, {"fusion_lon": 0.0, "name": "da43ab7a2da6a76200a42c9c7272c440", "rental_uris": {"android": "https://dc.lft.to/lastmile_qr_scan", "ios": "https://dc.lft.to/lastmile_qr_scan"}, "lat": 38.90219116666667, "bike_id": "da43ab7a2da6a76200a42c9c7272c440", "is_disabled": 0, "lon": -77.02365766666667, "is_reserved": 0, "fusion_lat": 0.0, "type": "electric_scooter"}, {"fusion_lon": 0.0, "name": "7ccce4d32146ad2e6d6be5183da2071a", "rental_uris": {"android": "https://dc.lft.to/lastmile_qr_scan", "ios": "https://dc.lft.to/lastmile_qr_scan"}, "lat": 38.900373, "bike_id": "7ccce4d32146ad2e6d6be5183da2071a", "is_disabled": 0, "lon": -77.05073216666666, "is_reserved": 0, "fusion_lat": 0.0, "type": "electric_scooter"}, {"fusion_lon": 0.0, "name": "1544230631aaf20d6242c995d4353b0d", "rental_uris": {"android": "https://dc.lft.to/lastmile_qr_scan", "ios": "https://dc.lft.to/lastmile_qr_scan"}, "lat": 38.892368, "bike_id": "1544230631aaf20d6242c995d4353b0d", "is_disabled": 0, "lon": -77.03376116666666, "is_reserved": 0, "fusion_lat": 0.0, "type": "electric_scooter"}, {"fusion_lon": 0.0, "name": "290cb743f26f39992a64c9ddf9667175", "rental_uris": {"android": "https://dc.lft.to/lastmile_qr_scan", "ios": "https://dc.lft.to/lastmile_qr_scan"}, "lat": 38.9195715, "bike_id": "290cb743f26f39992a64c9ddf9667175", "is_disabled": 0, "lon": -77.04368283333334, "is_reserved": 0, "fusion_lat": 0.0, "type": "electric_scooter"}, {"fusion_lon": 0.0, "name": "e371370f4bae4647f814939d7e621bbf", "rental_uris": {"android": "https://dc.lft.to/lastmile_qr_scan", "ios": "https://dc.lft.to/lastmile_qr_scan"}, "lat": 38.876611, "bike_id": "e371370f4bae4647f814939d7e621bbf", "is_disabled": 0, "lon": -77.00248583333334, "is_reserved": 0, "fusion_lat": 0.0, "type": "electric_scooter"}, {"fusion_lon": 0.0, "name": "128ecbeb023439a2c330d96f075a9b5a", "rental_uris": {"android": "https://dc.lft.to/lastmile_qr_scan", "ios": "https://dc.lft.to/lastmile_qr_scan"}, "lat": 38.919964, "bike_id": "128ecbeb023439a2c330d96f075a9b5a", "is_disabled": 0, "lon": -77.02174433333333, "is_reserved": 0, "fusion_lat": 0.0, "type": "electric_scooter"}, {"fusion_lon": 0.0, "name": "e7f90e3bfa14c64bb694eeef37dbc991", "rental_uris": {"android": "https://dc.lft.to/lastmile_qr_scan", "ios": "https://dc.lft.to/lastmile_qr_scan"}, "lat": 38.910281, "bike_id": "e7f90e3bfa14c64bb694eeef37dbc991", "is_disabled": 0, "lon": -77.04304083333334, "is_reserved": 0, "fusion_lat": 0.0, "type": "electric_scooter"}, {"fusion_lon": 0.0, "name": "349391f7aa022866b9c25d542b164706", "rental_uris": {"android": "https://dc.lft.to/lastmile_qr_scan", "ios": "https://dc.lft.to/lastmile_qr_scan"}, "lat": 38.905308166666664, "bike_id": "349391f7aa022866b9c25d542b164706", "is_disabled": 0, "lon": -77.06433466666667, "is_reserved": 0, "fusion_lat": 0.0, "type": "electric_scooter"}, {"fusion_lon": 0.0, "name": "dbf7862ba6415152e917cba38d6b7dfd", "rental_uris": {"android": "https://dc.lft.to/lastmile_qr_scan", "ios": "https://dc.lft.to/lastmile_qr_scan"}, "lat": 38.8850045, "bike_id": "dbf7862ba6415152e917cba38d6b7dfd", "is_disabled": 0, "lon": -77.02637683333333, "is_reserved": 0, "fusion_lat": 0.0, "type": "electric_scooter"}, {"fusion_lon": 0.0, "name": "de62f5f7530961fe73210846365a2153", "rental_uris": {"android": "https://dc.lft.to/lastmile_qr_scan", "ios": "https://dc.lft.to/lastmile_qr_scan"}, "lat": 38.89884816666667, "bike_id": "de62f5f7530961fe73210846365a2153", "is_disabled": 0, "lon": -77.04532133333333, "is_reserved": 0, "fusion_lat": 0.0, "type": "electric_scooter"}, {"fusion_lon": 0.0, "name": "37a15369461ec8bf0e023f01019abd53", "rental_uris": {"android": "https://dc.lft.to/lastmile_qr_scan", "ios": "https://dc.lft.to/lastmile_qr_scan"}, "lat": 38.90405916666667, "bike_id": "37a15369461ec8bf0e023f01019abd53", "is_disabled": 0, "lon": -77.0385195, "is_reserved": 0, "fusion_lat": 0.0, "type": "electric_scooter"}, {"fusion_lon": 0.0, "name": "3e79e5f34a15ba7f33f0413846666258", "rental_uris": {"android": "https://dc.lft.to/lastmile_qr_scan", "ios": "https://dc.lft.to/lastmile_qr_scan"}, "lat": 38.928867333333336, "bike_id": "3e79e5f34a15ba7f33f0413846666258", "is_disabled": 0, "lon": -77.0333935, "is_reserved": 0, "fusion_lat": 0.0, "type": "electric_scooter"}, {"fusion_lon": 0.0, "name": "fe0470762f92446bbd2ee311febbbcf9", "rental_uris": {"android": "https://dc.lft.to/lastmile_qr_scan", "ios": "https://dc.lft.to/lastmile_qr_scan"}, "lat": 38.90380016666667, "bike_id": "fe0470762f92446bbd2ee311febbbcf9", "is_disabled": 0, "lon": -77.0386155, "is_reserved": 0, "fusion_lat": 0.0, "type": "electric_scooter"}, {"fusion_lon": 0.0, "name": "faad30d930fc3c8b45f056c0cc47cfa7", "rental_uris": {"android": "https://dc.lft.to/lastmile_qr_scan", "ios": "https://dc.lft.to/lastmile_qr_scan"}, "lat": 38.903279, "bike_id": "faad30d930fc3c8b45f056c0cc47cfa7", "is_disabled": 0, "lon": -77.0447605, "is_reserved": 0, "fusion_lat": 0.0, "type": "electric_scooter"}, {"fusion_lon": 0.0, "name": "dabf66e23ac01eb8dfae571b85ba3b9c", "rental_uris": {"android": "https://dc.lft.to/lastmile_qr_scan", "ios": "https://dc.lft.to/lastmile_qr_scan"}, "lat": 38.924686, "bike_id": "dabf66e23ac01eb8dfae571b85ba3b9c", "is_disabled": 0, "lon": -77.02204933333333, "is_reserved": 0, "fusion_lat": 0.0, "type": "electric_scooter"}, {"fusion_lon": 0.0, "name": "1438be0f8273128dc454cdeca15a5b78", "rental_uris": {"android": "https://dc.lft.to/lastmile_qr_scan", "ios": "https://dc.lft.to/lastmile_qr_scan"}, "lat": 38.894270666666664, "bike_id": "1438be0f8273128dc454cdeca15a5b78", "is_disabled": 0, "lon": -76.9977665, "is_reserved": 0, "fusion_lat": 0.0, "type": "electric_scooter"}, {"fusion_lon": 0.0, "name": "d355678106d013a71f73c03fb2813517", "rental_uris": {"android": "https://dc.lft.to/lastmile_qr_scan", "ios": "https://dc.lft.to/lastmile_qr_scan"}, "lat": 39.03810133333333, "bike_id": "d355678106d013a71f73c03fb2813517", "is_disabled": 0, "lon": -77.04230383333334, "is_reserved": 0, "fusion_lat": 0.0, "type": "electric_bike"}, {"fusion_lon": 0.0, "name": "f7d57f2d401299e57dc3c0340d4fe521", "rental_uris": {"android": "https://dc.lft.to/lastmile_qr_scan", "ios": "https://dc.lft.to/lastmile_qr_scan"}, "lat": 38.9056495, "bike_id": "f7d57f2d401299e57dc3c0340d4fe521", "is_disabled": 0, "lon": -77.0351015, "is_reserved": 0, "fusion_lat": 0.0, "type": "electric_scooter"}, {"fusion_lon": 0.0, "name": "09bdb5bd62bd1197426bacef25d84a1d", "rental_uris": {"android": "https://dc.lft.to/lastmile_qr_scan", "ios": "https://dc.lft.to/lastmile_qr_scan"}, "lat": 38.91578916666667, "bike_id": "09bdb5bd62bd1197426bacef25d84a1d", "is_disabled": 0, "lon": -77.0123145, "is_reserved": 0, "fusion_lat": 0.0, "type": "electric_scooter"}, {"fusion_lon": 0.0, "name": "463477f37d467d479f36ba5113fee37f", "rental_uris": {"android": "https://dc.lft.to/lastmile_qr_scan", "ios": "https://dc.lft.to/lastmile_qr_scan"}, "lat": 38.882164333333336, "bike_id": "463477f37d467d479f36ba5113fee37f", "is_disabled": 0, "lon": -76.939238, "is_reserved": 0, "fusion_lat": 0.0, "type": "electric_scooter"}, {"fusion_lon": 0.0, "name": "ca468eca6d50e2944a0f586223243aeb", "rental_uris": {"android": "https://dc.lft.to/lastmile_qr_scan", "ios": "https://dc.lft.to/lastmile_qr_scan"}, "lat": 38.902445, "bike_id": "ca468eca6d50e2944a0f586223243aeb", "is_disabled": 0, "lon": -76.97409166666667, "is_reserved": 0, "fusion_lat": 0.0, "type": "electric_scooter"}, {"fusion_lon": 0.0, "name": "d857467032ef54e9ff7a8f3aaa927a63", "rental_uris": {"android": "https://dc.lft.to/lastmile_qr_scan", "ios": "https://dc.lft.to/lastmile_qr_scan"}, "lat": 38.876617, "bike_id": "d857467032ef54e9ff7a8f3aaa927a63", "is_disabled": 0, "lon": -77.0025285, "is_reserved": 0, "fusion_lat": 0.0, "type": "electric_scooter"}, {"fusion_lon": 0.0, "name": "c9ba5ddf7b279ddf8c205de5e16e6f4d", "rental_uris": {"android": "https://dc.lft.to/lastmile_qr_scan", "ios": "https://dc.lft.to/lastmile_qr_scan"}, "lat": 38.94303583333333, "bike_id": "c9ba5ddf7b279ddf8c205de5e16e6f4d", "is_disabled": 0, "lon": -77.03461133333333, "is_reserved": 0, "fusion_lat": 0.0, "type": "electric_scooter"}, {"fusion_lon": 0.0, "name": "4531a9e7f4608de378e793635a4dd81c", "rental_uris": {"android": "https://dc.lft.to/lastmile_qr_scan", "ios": "https://dc.lft.to/lastmile_qr_scan"}, "lat": 38.902424833333335, "bike_id": "4531a9e7f4608de378e793635a4dd81c", "is_disabled": 0, "lon": -77.04438333333333, "is_reserved": 0, "fusion_lat": 0.0, "type": "electric_scooter"}, {"fusion_lon": 0.0, "name": "2b56a985c32beb091acbeb8711819cc4", "rental_uris": {"android": "https://dc.lft.to/lastmile_qr_scan", "ios": "https://dc.lft.to/lastmile_qr_scan"}, "lat": 38.91488583333334, "bike_id": "2b56a985c32beb091acbeb8711819cc4", "is_disabled": 0, "lon": -77.0450045, "is_reserved": 0, "fusion_lat": 0.0, "type": "electric_scooter"}, {"fusion_lon": 0.0, "name": "03ab271ac266ca7852b9b304d7832d41", "rental_uris": {"android": "https://dc.lft.to/lastmile_qr_scan", "ios": "https://dc.lft.to/lastmile_qr_scan"}, "lat": 38.892239000000004, "bike_id": "03ab271ac266ca7852b9b304d7832d41", "is_disabled": 0, "lon": -77.043697, "is_reserved": 0, "fusion_lat": 0.0, "type": "electric_scooter"}, {"fusion_lon": 0.0, "name": "d00d670e72393f79e747891211592e96", "rental_uris": {"android": "https://dc.lft.to/lastmile_qr_scan", "ios": "https://dc.lft.to/lastmile_qr_scan"}, "lat": 38.90265, "bike_id": "d00d670e72393f79e747891211592e96", "is_disabled": 0, "lon": -77.03963433333334, "is_reserved": 0, "fusion_lat": 0.0, "type": "electric_scooter"}, {"fusion_lon": 0.0, "name": "469574f61da471464099ae480f15b304", "rental_uris": {"android": "https://dc.lft.to/lastmile_qr_scan", "ios": "https://dc.lft.to/lastmile_qr_scan"}, "lat": 38.9338415, "bike_id": "469574f61da471464099ae480f15b304", "is_disabled": 0, "lon": -77.032484, "is_reserved": 0, "fusion_lat": 0.0, "type": "electric_scooter"}, {"fusion_lon": 0.0, "name": "a12998c31789837653e3282b0f5dd2cd", "rental_uris": {"android": "https://dc.lft.to/lastmile_qr_scan", "ios": "https://dc.lft.to/lastmile_qr_scan"}, "lat": 38.903768, "bike_id": "a12998c31789837653e3282b0f5dd2cd", "is_disabled": 0, "lon": -77.03193433333334, "is_reserved": 0, "fusion_lat": 0.0, "type": "electric_scooter"}, {"fusion_lon": 0.0, "name": "e3c782949a3df6fe4b03afde50e33013", "rental_uris": {"android": "https://dc.lft.to/lastmile_qr_scan", "ios": "https://dc.lft.to/lastmile_qr_scan"}, "lat": 38.9966975, "bike_id": "e3c782949a3df6fe4b03afde50e33013", "is_disabled": 0, "lon": -77.03810983333334, "is_reserved": 0, "fusion_lat": 0.0, "type": "electric_bike"}, {"fusion_lon": 0.0, "name": "7aaa56efc30ca36af8a2ba0c459fa370", "rental_uris": {"android": "https://dc.lft.to/lastmile_qr_scan", "ios": "https://dc.lft.to/lastmile_qr_scan"}, "lat": 38.92437183333333, "bike_id": "7aaa56efc30ca36af8a2ba0c459fa370", "is_disabled": 0, "lon": -77.05203566666667, "is_reserved": 0, "fusion_lat": 0.0, "type": "electric_scooter"}, {"fusion_lon": 0.0, "name": "85dc9722545288b324f24208b2e7a5c6", "rental_uris": {"android": "https://dc.lft.to/lastmile_qr_scan", "ios": "https://dc.lft.to/lastmile_qr_scan"}, "lat": 38.926136666666665, "bike_id": "85dc9722545288b324f24208b2e7a5c6", "is_disabled": 0, "lon": -77.0224125, "is_reserved": 0, "fusion_lat": 0.0, "type": "electric_scooter"}, {"fusion_lon": 0.0, "name": "d59271f12a11158b360de931afec3469", "rental_uris": {"android": "https://dc.lft.to/lastmile_qr_scan", "ios": "https://dc.lft.to/lastmile_qr_scan"}, "lat": 38.924742333333334, "bike_id": "d59271f12a11158b360de931afec3469", "is_disabled": 0, "lon": -77.02202266666667, "is_reserved": 0, "fusion_lat": 0.0, "type": "electric_scooter"}, {"fusion_lon": 0.0, "name": "dac6a4411cc6dbcf4af4a0742316d1fa", "rental_uris": {"android": "https://dc.lft.to/lastmile_qr_scan", "ios": "https://dc.lft.to/lastmile_qr_scan"}, "lat": 38.9244745, "bike_id": "dac6a4411cc6dbcf4af4a0742316d1fa", "is_disabled": 0, "lon": -77.02158316666667, "is_reserved": 0, "fusion_lat": 0.0, "type": "electric_scooter"}, {"fusion_lon": 0.0, "name": "ccf166842656ad4265cf5f227bad79cc", "rental_uris": {"android": "https://dc.lft.to/lastmile_qr_scan", "ios": "https://dc.lft.to/lastmile_qr_scan"}, "lat": 38.8922995, "bike_id": "ccf166842656ad4265cf5f227bad79cc", "is_disabled": 0, "lon": -77.0337495, "is_reserved": 0, "fusion_lat": 0.0, "type": "electric_scooter"}, {"fusion_lon": 0.0, "name": "8a65b1bfc5ed0e48cfc04ef973e72e6d", "rental_uris": {"android": "https://dc.lft.to/lastmile_qr_scan", "ios": "https://dc.lft.to/lastmile_qr_scan"}, "lat": 38.883196, "bike_id": "8a65b1bfc5ed0e48cfc04ef973e72e6d", "is_disabled": 0, "lon": -77.00599583333333, "is_reserved": 0, "fusion_lat": 0.0, "type": "electric_scooter"}, {"fusion_lon": 0.0, "name": "cb9c2d2f06de87a857ce44de3683b931", "rental_uris": {"android": "https://dc.lft.to/lastmile_qr_scan", "ios": "https://dc.lft.to/lastmile_qr_scan"}, "lat": 38.92042216666667, "bike_id": "cb9c2d2f06de87a857ce44de3683b931", "is_disabled": 0, "lon": -77.01684016666667, "is_reserved": 0, "fusion_lat": 0.0, "type": "electric_scooter"}, {"fusion_lon": 0.0, "name": "371162def4466c8307dacff89c67a9e2", "rental_uris": {"android": "https://dc.lft.to/lastmile_qr_scan", "ios": "https://dc.lft.to/lastmile_qr_scan"}, "lat": 38.898518833333334, "bike_id": "371162def4466c8307dacff89c67a9e2", "is_disabled": 0, "lon": -77.03327566666667, "is_reserved": 0, "fusion_lat": 0.0, "type": "electric_scooter"}, {"fusion_lon": 0.0, "name": "fa8827d8ece95963dcf5bfc266a0338a", "rental_uris": {"android": "https://dc.lft.to/lastmile_qr_scan", "ios": "https://dc.lft.to/lastmile_qr_scan"}, "lat": 38.90815, "bike_id": "fa8827d8ece95963dcf5bfc266a0338a", "is_disabled": 0, "lon": -77.039467, "is_reserved": 0, "fusion_lat": 0.0, "type": "electric_scooter"}, {"fusion_lon": 0.0, "name": "ba5d6b57e0d8d93582d743b95b90657d", "rental_uris": {"android": "https://dc.lft.to/lastmile_qr_scan", "ios": "https://dc.lft.to/lastmile_qr_scan"}, "lat": 38.9249335, "bike_id": "ba5d6b57e0d8d93582d743b95b90657d", "is_disabled": 0, "lon": -77.02134083333333, "is_reserved": 0, "fusion_lat": 0.0, "type": "electric_scooter"}, {"fusion_lon": 0.0, "name": "0fcbab2e54c10b98164301607d850607", "rental_uris": {"android": "https://dc.lft.to/lastmile_qr_scan", "ios": "https://dc.lft.to/lastmile_qr_scan"}, "lat": 38.887199, "bike_id": "0fcbab2e54c10b98164301607d850607", "is_disabled": 0, "lon": -77.02169616666667, "is_reserved": 0, "fusion_lat": 0.0, "type": "electric_scooter"}, {"fusion_lon": 0.0, "name": "6b42b651bd3f6ca49833710cd48db17c", "rental_uris": {"android": "https://dc.lft.to/lastmile_qr_scan", "ios": "https://dc.lft.to/lastmile_qr_scan"}, "lat": 38.865125166666665, "bike_id": "6b42b651bd3f6ca49833710cd48db17c", "is_disabled": 0, "lon": -76.96899483333334, "is_reserved": 0, "fusion_lat": 0.0, "type": "electric_scooter"}, {"fusion_lon": 0.0, "name": "9741ed3a9fb4c8a9d137b29e8e7e4bdb", "rental_uris": {"android": "https://dc.lft.to/lastmile_qr_scan", "ios": "https://dc.lft.to/lastmile_qr_scan"}, "lat": 38.928631333333335, "bike_id": "9741ed3a9fb4c8a9d137b29e8e7e4bdb", "is_disabled": 0, "lon": -77.05444183333333, "is_reserved": 0, "fusion_lat": 0.0, "type": "electric_scooter"}, {"fusion_lon": 0.0, "name": "e0cc8315a4eb698cbecb7af7fb72e762", "rental_uris": {"android": "https://dc.lft.to/lastmile_qr_scan", "ios": "https://dc.lft.to/lastmile_qr_scan"}, "lat": 38.898363, "bike_id": "e0cc8315a4eb698cbecb7af7fb72e762", "is_disabled": 0, "lon": -77.02795566666667, "is_reserved": 0, "fusion_lat": 0.0, "type": "electric_scooter"}, {"fusion_lon": 0.0, "name": "e18c8716ca9729f56bc46ff55611ad31", "rental_uris": {"android": "https://dc.lft.to/lastmile_qr_scan", "ios": "https://dc.lft.to/lastmile_qr_scan"}, "lat": 38.8756145, "bike_id": "e18c8716ca9729f56bc46ff55611ad31", "is_disabled": 0, "lon": -77.005991, "is_reserved": 0, "fusion_lat": 0.0, "type": "electric_scooter"}, {"fusion_lon": 0.0, "name": "3f603735260da3376c59f657718099df", "rental_uris": {"android": "https://dc.lft.to/lastmile_qr_scan", "ios": "https://dc.lft.to/lastmile_qr_scan"}, "lat": 38.85711233333333, "bike_id": "3f603735260da3376c59f657718099df", "is_disabled": 0, "lon": -76.98130733333333, "is_reserved": 0, "fusion_lat": 0.0, "type": "electric_scooter"}, {"fusion_lon": 0.0, "name": "ddcc1ea68d67653cb0504e85019f0dd5", "rental_uris": {"android": "https://dc.lft.to/lastmile_qr_scan", "ios": "https://dc.lft.to/lastmile_qr_scan"}, "lat": 38.92599166666667, "bike_id": "ddcc1ea68d67653cb0504e85019f0dd5", "is_disabled": 0, "lon": -77.02489683333333, "is_reserved": 0, "fusion_lat": 0.0, "type": "electric_scooter"}, {"fusion_lon": 0.0, "name": "cb6d42a50e3a6de8ab9d51bac57d4e94", "rental_uris": {"android": "https://dc.lft.to/lastmile_qr_scan", "ios": "https://dc.lft.to/lastmile_qr_scan"}, "lat": 38.91885333333333, "bike_id": "cb6d42a50e3a6de8ab9d51bac57d4e94", "is_disabled": 0, "lon": -77.0189365, "is_reserved": 0, "fusion_lat": 0.0, "type": "electric_scooter"}, {"fusion_lon": 0.0, "name": "4a3fd03c6faa171f587d76f44137f4f8", "rental_uris": {"android": "https://dc.lft.to/lastmile_qr_scan", "ios": "https://dc.lft.to/lastmile_qr_scan"}, "lat": 38.92426433333333, "bike_id": "4a3fd03c6faa171f587d76f44137f4f8", "is_disabled": 0, "lon": -77.02011116666667, "is_reserved": 0, "fusion_lat": 0.0, "type": "electric_scooter"}, {"fusion_lon": 0.0, "name": "898a7f8f76a6dcce044176201b8f4827", "rental_uris": {"android": "https://dc.lft.to/lastmile_qr_scan", "ios": "https://dc.lft.to/lastmile_qr_scan"}, "lat": 38.88074116666667, "bike_id": "898a7f8f76a6dcce044176201b8f4827", "is_disabled": 0, "lon": -76.99163016666667, "is_reserved": 0, "fusion_lat": 0.0, "type": "electric_scooter"}, {"fusion_lon": 0.0, "name": "7b8f99836f342c827baca52e2e633ae3", "rental_uris": {"android": "https://dc.lft.to/lastmile_qr_scan", "ios": "https://dc.lft.to/lastmile_qr_scan"}, "lat": 38.8647355, "bike_id": "7b8f99836f342c827baca52e2e633ae3", "is_disabled": 0, "lon": -76.98229866666667, "is_reserved": 0, "fusion_lat": 0.0, "type": "electric_scooter"}, {"fusion_lon": 0.0, "name": "9161f2bd35487afe7ea4d15423d858b6", "rental_uris": {"android": "https://dc.lft.to/lastmile_qr_scan", "ios": "https://dc.lft.to/lastmile_qr_scan"}, "lat": 38.8973965, "bike_id": "9161f2bd35487afe7ea4d15423d858b6", "is_disabled": 0, "lon": -77.02150166666667, "is_reserved": 0, "fusion_lat": 0.0, "type": "electric_scooter"}, {"fusion_lon": 0.0, "name": "db4490ada639e33cba71d4e18b5bedb5", "rental_uris": {"android": "https://dc.lft.to/lastmile_qr_scan", "ios": "https://dc.lft.to/lastmile_qr_scan"}, "lat": 38.894111333333335, "bike_id": "db4490ada639e33cba71d4e18b5bedb5", "is_disabled": 0, "lon": -77.049858, "is_reserved": 0, "fusion_lat": 0.0, "type": "electric_scooter"}, {"fusion_lon": 0.0, "name": "90e051d1316fdb40c5aaee8f386b89c8", "rental_uris": {"android": "https://dc.lft.to/lastmile_qr_scan", "ios": "https://dc.lft.to/lastmile_qr_scan"}, "lat": 38.922573, "bike_id": "90e051d1316fdb40c5aaee8f386b89c8", "is_disabled": 0, "lon": -77.03044683333333, "is_reserved": 0, "fusion_lat": 0.0, "type": "electric_scooter"}, {"fusion_lon": 0.0, "name": "9a23d6f629381eb492004fd21f99a51f", "rental_uris": {"android": "https://dc.lft.to/lastmile_qr_scan", "ios": "https://dc.lft.to/lastmile_qr_scan"}, "lat": 38.9319215, "bike_id": "9a23d6f629381eb492004fd21f99a51f", "is_disabled": 0, "lon": -77.0283665, "is_reserved": 0, "fusion_lat": 0.0, "type": "electric_scooter"}, {"fusion_lon": 0.0, "name": "133ee9a3ecec53ec036037585b1d4f5f", "rental_uris": {"android": "https://dc.lft.to/lastmile_qr_scan", "ios": "https://dc.lft.to/lastmile_qr_scan"}, "lat": 38.9016875, "bike_id": "133ee9a3ecec53ec036037585b1d4f5f", "is_disabled": 0, "lon": -76.98058483333334, "is_reserved": 0, "fusion_lat": 0.0, "type": "electric_scooter"}, {"fusion_lon": 0.0, "name": "341114899d3b3a50d7804824aec94ff4", "rental_uris": {"android": "https://dc.lft.to/lastmile_qr_scan", "ios": "https://dc.lft.to/lastmile_qr_scan"}, "lat": 38.92321183333333, "bike_id": "341114899d3b3a50d7804824aec94ff4", "is_disabled": 0, "lon": -77.0213985, "is_reserved": 0, "fusion_lat": 0.0, "type": "electric_scooter"}, {"fusion_lon": 0.0, "name": "b28af0c8fc67a754a4c7b64edaa7c9ae", "rental_uris": {"android": "https://dc.lft.to/lastmile_qr_scan", "ios": "https://dc.lft.to/lastmile_qr_scan"}, "lat": 39.08492116666667, "bike_id": "b28af0c8fc67a754a4c7b64edaa7c9ae", "is_disabled": 0, "lon": -76.9504465, "is_reserved": 0, "fusion_lat": 0.0, "type": "electric_bike"}, {"fusion_lon": 0.0, "name": "f9b3c0f26e2d092963bfad918e60b03c", "rental_uris": {"android": "https://dc.lft.to/lastmile_qr_scan", "ios": "https://dc.lft.to/lastmile_qr_scan"}, "lat": 38.90715816666667, "bike_id": "f9b3c0f26e2d092963bfad918e60b03c", "is_disabled": 0, "lon": -77.00377183333333, "is_reserved": 0, "fusion_lat": 0.0, "type": "electric_scooter"}, {"fusion_lon": 0.0, "name": "0974e9047de6f6a68cf987043373ae9a", "rental_uris": {"android": "https://dc.lft.to/lastmile_qr_scan", "ios": "https://dc.lft.to/lastmile_qr_scan"}, "lat": 38.901759166666665, "bike_id": "0974e9047de6f6a68cf987043373ae9a", "is_disabled": 0, "lon": -77.0508775, "is_reserved": 0, "fusion_lat": 0.0, "type": "electric_scooter"}, {"fusion_lon": 0.0, "name": "0f9d4484cf91dfbc1d03e285462cedab", "rental_uris": {"android": "https://dc.lft.to/lastmile_qr_scan", "ios": "https://dc.lft.to/lastmile_qr_scan"}, "lat": 38.9006665, "bike_id": "0f9d4484cf91dfbc1d03e285462cedab", "is_disabled": 0, "lon": -77.0317435, "is_reserved": 0, "fusion_lat": 0.0, "type": "electric_scooter"}, {"fusion_lon": 0.0, "name": "852ddcb51121319f6f75e9761d0e0351", "rental_uris": {"android": "https://dc.lft.to/lastmile_qr_scan", "ios": "https://dc.lft.to/lastmile_qr_scan"}, "lat": 38.89231216666667, "bike_id": "852ddcb51121319f6f75e9761d0e0351", "is_disabled": 0, "lon": -77.03377183333333, "is_reserved": 0, "fusion_lat": 0.0, "type": "electric_scooter"}, {"fusion_lon": 0.0, "name": "238e5f9832ceceec5da478b8770450cb", "rental_uris": {"android": "https://dc.lft.to/lastmile_qr_scan", "ios": "https://dc.lft.to/lastmile_qr_scan"}, "lat": 38.89537166666667, "bike_id": "238e5f9832ceceec5da478b8770450cb", "is_disabled": 0, "lon": -77.04471483333333, "is_reserved": 0, "fusion_lat": 0.0, "type": "electric_scooter"}, {"fusion_lon": 0.0, "name": "8188663f073d12a1dc43e153d77c3c42", "rental_uris": {"android": "https://dc.lft.to/lastmile_qr_scan", "ios": "https://dc.lft.to/lastmile_qr_scan"}, "lat": 38.892408333333336, "bike_id": "8188663f073d12a1dc43e153d77c3c42", "is_disabled": 0, "lon": -77.02507716666666, "is_reserved": 0, "fusion_lat": 0.0, "type": "electric_scooter"}, {"fusion_lon": 0.0, "name": "a59461bff52423da93bd76161eb3951c", "rental_uris": {"android": "https://dc.lft.to/lastmile_qr_scan", "ios": "https://dc.lft.to/lastmile_qr_scan"}, "lat": 38.94429216666666, "bike_id": "a59461bff52423da93bd76161eb3951c", "is_disabled": 0, "lon": -77.05520316666667, "is_reserved": 0, "fusion_lat": 0.0, "type": "electric_scooter"}, {"fusion_lon": 0.0, "name": "b35cb802e5d04bfb5dc76f1b95a2e3cf", "rental_uris": {"android": "https://dc.lft.to/lastmile_qr_scan", "ios": "https://dc.lft.to/lastmile_qr_scan"}, "lat": 38.886154, "bike_id": "b35cb802e5d04bfb5dc76f1b95a2e3cf", "is_disabled": 0, "lon": -77.0027955, "is_reserved": 0, "fusion_lat": 0.0, "type": "electric_scooter"}, {"fusion_lon": 0.0, "name": "5d816c3834d264766d20d0ba3945ff22", "rental_uris": {"android": "https://dc.lft.to/lastmile_qr_scan", "ios": "https://dc.lft.to/lastmile_qr_scan"}, "lat": 38.903847166666665, "bike_id": "5d816c3834d264766d20d0ba3945ff22", "is_disabled": 0, "lon": -77.0447005, "is_reserved": 0, "fusion_lat": 0.0, "type": "electric_scooter"}, {"fusion_lon": 0.0, "name": "24c83847a2bdaf1b5087e180ba75c91a", "rental_uris": {"android": "https://dc.lft.to/lastmile_qr_scan", "ios": "https://dc.lft.to/lastmile_qr_scan"}, "lat": 38.91708283333333, "bike_id": "24c83847a2bdaf1b5087e180ba75c91a", "is_disabled": 0, "lon": -77.00111383333333, "is_reserved": 0, "fusion_lat": 0.0, "type": "electric_scooter"}, {"fusion_lon": 0.0, "name": "c79e5c8e5e26f6f357cbad9c27082b97", "rental_uris": {"android": "https://dc.lft.to/lastmile_qr_scan", "ios": "https://dc.lft.to/lastmile_qr_scan"}, "lat": 38.9305625, "bike_id": "c79e5c8e5e26f6f357cbad9c27082b97", "is_disabled": 0, "lon": -77.039352, "is_reserved": 0, "fusion_lat": 0.0, "type": "electric_scooter"}, {"fusion_lon": 0.0, "name": "128b806c918356550d430b6c359b8367", "rental_uris": {"android": "https://dc.lft.to/lastmile_qr_scan", "ios": "https://dc.lft.to/lastmile_qr_scan"}, "lat": 38.9626625, "bike_id": "128b806c918356550d430b6c359b8367", "is_disabled": 0, "lon": -77.01353866666666, "is_reserved": 0, "fusion_lat": 0.0, "type": "electric_scooter"}, {"fusion_lon": 0.0, "name": "e6f9f087dfa60edfd6a9c2121e9eb319", "rental_uris": {"android": "https://dc.lft.to/lastmile_qr_scan", "ios": "https://dc.lft.to/lastmile_qr_scan"}, "lat": 38.929636333333335, "bike_id": "e6f9f087dfa60edfd6a9c2121e9eb319", "is_disabled": 0, "lon": -77.02796483333333, "is_reserved": 0, "fusion_lat": 0.0, "type": "electric_scooter"}, {"fusion_lon": 0.0, "name": "c44736ca68f81c0db79a6fbd91eebc47", "rental_uris": {"android": "https://dc.lft.to/lastmile_qr_scan", "ios": "https://dc.lft.to/lastmile_qr_scan"}, "lat": 38.902015666666664, "bike_id": "c44736ca68f81c0db79a6fbd91eebc47", "is_disabled": 0, "lon": -77.05900616666666, "is_reserved": 0, "fusion_lat": 0.0, "type": "electric_scooter"}, {"fusion_lon": 0.0, "name": "555178b69c465140eab0839c68b3b233", "rental_uris": {"android": "https://dc.lft.to/lastmile_qr_scan", "ios": "https://dc.lft.to/lastmile_qr_scan"}, "lat": 38.903894666666666, "bike_id": "555178b69c465140eab0839c68b3b233", "is_disabled": 0, "lon": -77.04359833333334, "is_reserved": 0, "fusion_lat": 0.0, "type": "electric_scooter"}, {"fusion_lon": 0.0, "name": "253d09385769c4a1d56c6aacf46fe067", "rental_uris": {"android": "https://dc.lft.to/lastmile_qr_scan", "ios": "https://dc.lft.to/lastmile_qr_scan"}, "lat": 38.89466133333333, "bike_id": "253d09385769c4a1d56c6aacf46fe067", "is_disabled": 0, "lon": -77.026772, "is_reserved": 0, "fusion_lat": 0.0, "type": "electric_scooter"}, {"fusion_lon": 0.0, "name": "9dfe7961cefed76b871e51fbfcd7f812", "rental_uris": {"android": "https://dc.lft.to/lastmile_qr_scan", "ios": "https://dc.lft.to/lastmile_qr_scan"}, "lat": 38.9008685, "bike_id": "9dfe7961cefed76b871e51fbfcd7f812", "is_disabled": 0, "lon": -77.03649766666666, "is_reserved": 0, "fusion_lat": 0.0, "type": "electric_scooter"}, {"fusion_lon": 0.0, "name": "63ae84e823908ef2819961446ce7412c", "rental_uris": {"android": "https://dc.lft.to/lastmile_qr_scan", "ios": "https://dc.lft.to/lastmile_qr_scan"}, "lat": 38.89544216666667, "bike_id": "63ae84e823908ef2819961446ce7412c", "is_disabled": 0, "lon": -76.9889295, "is_reserved": 0, "fusion_lat": 0.0, "type": "electric_scooter"}, {"fusion_lon": 0.0, "name": "839c6cca5ff9b1d274f7d2a7421e57ac", "rental_uris": {"android": "https://dc.lft.to/lastmile_qr_scan", "ios": "https://dc.lft.to/lastmile_qr_scan"}, "lat": 38.92887616666667, "bike_id": "839c6cca5ff9b1d274f7d2a7421e57ac", "is_disabled": 0, "lon": -77.034937, "is_reserved": 0, "fusion_lat": 0.0, "type": "electric_scooter"}, {"fusion_lon": 0.0, "name": "ce066ce9c0cf401c6fbf6c4c2fc96d1a", "rental_uris": {"android": "https://dc.lft.to/lastmile_qr_scan", "ios": "https://dc.lft.to/lastmile_qr_scan"}, "lat": 38.893370166666664, "bike_id": "ce066ce9c0cf401c6fbf6c4c2fc96d1a", "is_disabled": 0, "lon": -77.03169, "is_reserved": 0, "fusion_lat": 0.0, "type": "electric_scooter"}, {"fusion_lon": 0.0, "name": "4eab5a806651db933a8c7955a46e2a7a", "rental_uris": {"android": "https://dc.lft.to/lastmile_qr_scan", "ios": "https://dc.lft.to/lastmile_qr_scan"}, "lat": 38.92821383333333, "bike_id": "4eab5a806651db933a8c7955a46e2a7a", "is_disabled": 0, "lon": -77.03241066666666, "is_reserved": 0, "fusion_lat": 0.0, "type": "electric_scooter"}, {"fusion_lon": 0.0, "name": "95abfb8cea699b86d33c429dfeda94c8", "rental_uris": {"android": "https://dc.lft.to/lastmile_qr_scan", "ios": "https://dc.lft.to/lastmile_qr_scan"}, "lat": 38.93532183333333, "bike_id": "95abfb8cea699b86d33c429dfeda94c8", "is_disabled": 0, "lon": -77.02841983333333, "is_reserved": 0, "fusion_lat": 0.0, "type": "electric_scooter"}, {"fusion_lon": 0.0, "name": "137e2966c6040491c285311ed70a2901", "rental_uris": {"android": "https://dc.lft.to/lastmile_qr_scan", "ios": "https://dc.lft.to/lastmile_qr_scan"}, "lat": 38.885322333333335, "bike_id": "137e2966c6040491c285311ed70a2901", "is_disabled": 0, "lon": -76.97957966666667, "is_reserved": 0, "fusion_lat": 0.0, "type": "electric_scooter"}, {"fusion_lon": 0.0, "name": "710df5e63af3684c51ec62ec7533bbb2", "rental_uris": {"android": "https://dc.lft.to/lastmile_qr_scan", "ios": "https://dc.lft.to/lastmile_qr_scan"}, "lat": 38.896538666666665, "bike_id": "710df5e63af3684c51ec62ec7533bbb2", "is_disabled": 0, "lon": -77.02721433333333, "is_reserved": 0, "fusion_lat": 0.0, "type": "electric_scooter"}, {"fusion_lon": 0.0, "name": "0313db8125ed982a307b8ec65d27fabf", "rental_uris": {"android": "https://dc.lft.to/lastmile_qr_scan", "ios": "https://dc.lft.to/lastmile_qr_scan"}, "lat": 38.93522333333333, "bike_id": "0313db8125ed982a307b8ec65d27fabf", "is_disabled": 0, "lon": -77.03377283333333, "is_reserved": 0, "fusion_lat": 0.0, "type": "electric_scooter"}, {"fusion_lon": 0.0, "name": "1fb80cb57717a5141d69a2adf7bf783c", "rental_uris": {"android": "https://dc.lft.to/lastmile_qr_scan", "ios": "https://dc.lft.to/lastmile_qr_scan"}, "lat": 38.9026095, "bike_id": "1fb80cb57717a5141d69a2adf7bf783c", "is_disabled": 0, "lon": -77.01752866666666, "is_reserved": 0, "fusion_lat": 0.0, "type": "electric_scooter"}, {"fusion_lon": 0.0, "name": "d0eb0ecbc24f6f691eb62f2dc269ad43", "rental_uris": {"android": "https://dc.lft.to/lastmile_qr_scan", "ios": "https://dc.lft.to/lastmile_qr_scan"}, "lat": 38.894983833333335, "bike_id": "d0eb0ecbc24f6f691eb62f2dc269ad43", "is_disabled": 0, "lon": -77.01120116666667, "is_reserved": 0, "fusion_lat": 0.0, "type": "electric_scooter"}, {"fusion_lon": 0.0, "name": "a0b2e1323bedc3b8f1da7a3f340990a3", "rental_uris": {"android": "https://dc.lft.to/lastmile_qr_scan", "ios": "https://dc.lft.to/lastmile_qr_scan"}, "lat": 38.891650166666665, "bike_id": "a0b2e1323bedc3b8f1da7a3f340990a3", "is_disabled": 0, "lon": -77.02176283333333, "is_reserved": 0, "fusion_lat": 0.0, "type": "electric_scooter"}, {"fusion_lon": 0.0, "name": "178f36bb968c325193f638ccf5f4bda1", "rental_uris": {"android": "https://dc.lft.to/lastmile_qr_scan", "ios": "https://dc.lft.to/lastmile_qr_scan"}, "lat": 38.935521333333334, "bike_id": "178f36bb968c325193f638ccf5f4bda1", "is_disabled": 0, "lon": -76.997879, "is_reserved": 0, "fusion_lat": 0.0, "type": "electric_scooter"}, {"fusion_lon": 0.0, "name": "fd6c9dbcf69b9d6068be9c5fc6872f22", "rental_uris": {"android": "https://dc.lft.to/lastmile_qr_scan", "ios": "https://dc.lft.to/lastmile_qr_scan"}, "lat": 38.926678833333334, "bike_id": "fd6c9dbcf69b9d6068be9c5fc6872f22", "is_disabled": 0, "lon": -77.01483633333334, "is_reserved": 0, "fusion_lat": 0.0, "type": "electric_scooter"}, {"fusion_lon": 0.0, "name": "f3002fbb62e443f52a94fb69a7bcfc58", "rental_uris": {"android": "https://dc.lft.to/lastmile_qr_scan", "ios": "https://dc.lft.to/lastmile_qr_scan"},