{"data": {"bikes": [{"bike_id": "bff986908307a6dbad9dbd0ffa25a9ec", "fusion_lon": 0.0, "type": "electric_scooter", "name": "bff986908307a6dbad9dbd0ffa25a9ec", "rental_uris": {"android": "https://dc.lft.to/lastmile_qr_scan", "ios": "https://dc.lft.to/lastmile_qr_scan"}, "fusion_lat": 0.0, "lat": 38.893114833333335, "is_disabled": 0, "lon": -77.02611983333334, "is_reserved": 0}, {"bike_id": "83fd2aadf8cfd4ae1703d79cf09018fc", "fusion_lon": 0.0, "type": "electric_scooter", "name": "83fd2aadf8cfd4ae1703d79cf09018fc", "rental_uris": {"android": "https://dc.lft.to/lastmile_qr_scan", "ios": "https://dc.lft.to/lastmile_qr_scan"}, "fusion_lat": 0.0, "lat": 38.9273695, "is_disabled": 0, "lon": -77.03523333333334, "is_reserved": 0}, {"bike_id": "5c81e420896c03155f2b226630d76ac2", "fusion_lon": 0.0, "type": "electric_scooter", "name": "5c81e420896c03155f2b226630d76ac2", "rental_uris": {"android": "https://dc.lft.to/lastmile_qr_scan", "ios": "https://dc.lft.to/lastmile_qr_scan"}, "fusion_lat": 0.0, "lat": 38.9232795, "is_disabled": 0, "lon": -77.04034433333334, "is_reserved": 0}, {"bike_id": "cec3a21f5f361a341b6309d1a6e1ff67", "fusion_lon": 0.0, "type": "electric_scooter", "name": "cec3a21f5f361a341b6309d1a6e1ff67", "rental_uris": {"android": "https://dc.lft.to/lastmile_qr_scan", "ios": "https://dc.lft.to/lastmile_qr_scan"}, "fusion_lat": 0.0, "lat": 38.93708133333333, "is_disabled": 0, "lon": -77.021103, "is_reserved": 0}, {"bike_id": "a1ef57fb7fc688c9f50757deffdc3e5a", "fusion_lon": 0.0, "type": "electric_scooter", "name": "a1ef57fb7fc688c9f50757deffdc3e5a", "rental_uris": {"android": "https://dc.lft.to/lastmile_qr_scan", "ios": "https://dc.lft.to/lastmile_qr_scan"}, "fusion_lat": 0.0, "lat": 38.9156925, "is_disabled": 0, "lon": -77.008355, "is_reserved": 0}, {"bike_id": "eb0ed5d35191c29316e93be346adc88d", "fusion_lon": 0.0, "type": "electric_scooter", "name": "eb0ed5d35191c29316e93be346adc88d", "rental_uris": {"android": "https://dc.lft.to/lastmile_qr_scan", "ios": "https://dc.lft.to/lastmile_qr_scan"}, "fusion_lat": 0.0, "lat": 38.9265055, "is_disabled": 0, "lon": -77.03703066666667, "is_reserved": 0}, {"bike_id": "f77876ec85dd60522ec5dd06cd7255b7", "fusion_lon": 0.0, "type": "electric_scooter", "name": "f77876ec85dd60522ec5dd06cd7255b7", "rental_uris": {"android": "https://dc.lft.to/lastmile_qr_scan", "ios": "https://dc.lft.to/lastmile_qr_scan"}, "fusion_lat": 0.0, "lat": 38.92109166666667, "is_disabled": 0, "lon": -77.046918, "is_reserved": 0}, {"bike_id": "c3f4aefd671f73d861e6be5a0a835b33", "fusion_lon": 0.0, "type": "electric_scooter", "name": "c3f4aefd671f73d861e6be5a0a835b33", "rental_uris": {"android": "https://dc.lft.to/lastmile_qr_scan", "ios": "https://dc.lft.to/lastmile_qr_scan"}, "fusion_lat": 0.0, "lat": 38.90999466666667, "is_disabled": 0, "lon": -77.03088766666667, "is_reserved": 0}, {"bike_id": "d3099346e19b2749e86e5dd2bffbfd03", "fusion_lon": 0.0, "type": "electric_bike", "name": "d3099346e19b2749e86e5dd2bffbfd03", "rental_uris": {"android": "https://dc.lft.to/lastmile_qr_scan", "ios": "https://dc.lft.to/lastmile_qr_scan"}, "fusion_lat": 0.0, "lat": 38.897443333333335, "is_disabled": 0, "lon": -76.90536066666667, "is_reserved": 0}, {"bike_id": "f96584d392f1c4fef91391c77e677731", "fusion_lon": 0.0, "type": "electric_bike", "name": "f96584d392f1c4fef91391c77e677731", "rental_uris": {"android": "https://dc.lft.to/lastmile_qr_scan", "ios": "https://dc.lft.to/lastmile_qr_scan"}, "fusion_lat": 0.0, "lat": 38.949622833333336, "is_disabled": 0, "lon": -76.96102366666666, "is_reserved": 0}, {"bike_id": "62c4a5840516a54739e39a88095a0f98", "fusion_lon": 0.0, "type": "electric_scooter", "name": "62c4a5840516a54739e39a88095a0f98", "rental_uris": {"android": "https://dc.lft.to/lastmile_qr_scan", "ios": "https://dc.lft.to/lastmile_qr_scan"}, "fusion_lat": 0.0, "lat": 38.9162685, "is_disabled": 0, "lon": -77.02278533333333, "is_reserved": 0}, {"bike_id": "e9515a789727d2eb4fe5d648e7d9ddd9", "fusion_lon": 0.0, "type": "electric_scooter", "name": "e9515a789727d2eb4fe5d648e7d9ddd9", "rental_uris": {"android": "https://dc.lft.to/lastmile_qr_scan", "ios": "https://dc.lft.to/lastmile_qr_scan"}, "fusion_lat": 0.0, "lat": 38.9048465, "is_disabled": 0, "lon": -77.01975666666667, "is_reserved": 0}, {"bike_id": "1d0b2ccc4f83a65f1bbb080c21c1cc4e", "fusion_lon": 0.0, "type": "electric_scooter", "name": "1d0b2ccc4f83a65f1bbb080c21c1cc4e", "rental_uris": {"android": "https://dc.lft.to/lastmile_qr_scan", "ios": "https://dc.lft.to/lastmile_qr_scan"}, "fusion_lat": 0.0, "lat": 38.944629, "is_disabled": 0, "lon": -77.02803333333334, "is_reserved": 0}, {"bike_id": "4335b803e390614c5fbfc41677289044", "fusion_lon": 0.0, "type": "electric_scooter", "name": "4335b803e390614c5fbfc41677289044", "rental_uris": {"android": "https://dc.lft.to/lastmile_qr_scan", "ios": "https://dc.lft.to/lastmile_qr_scan"}, "fusion_lat": 0.0, "lat": 38.91838, "is_disabled": 0, "lon": -77.03916066666666, "is_reserved": 0}, {"bike_id": "e4aa1ffea43820e49961efdcaf13f78f", "fusion_lon": 0.0, "type": "electric_scooter", "name": "e4aa1ffea43820e49961efdcaf13f78f", "rental_uris": {"android": "https://dc.lft.to/lastmile_qr_scan", "ios": "https://dc.lft.to/lastmile_qr_scan"}, "fusion_lat": 0.0, "lat": 38.89440333333334, "is_disabled": 0, "lon": -77.001136, "is_reserved": 0}, {"bike_id": "bcd6a10308db9f2b07583bc38ca7d788", "fusion_lon": 0.0, "type": "electric_scooter", "name": "bcd6a10308db9f2b07583bc38ca7d788", "rental_uris": {"android": "https://dc.lft.to/lastmile_qr_scan", "ios": "https://dc.lft.to/lastmile_qr_scan"}, "fusion_lat": 0.0, "lat": 38.91354033333333, "is_disabled": 0, "lon": -77.00341133333333, "is_reserved": 0}, {"bike_id": "2eab35bb3af922df633b9be06fdd760d", "fusion_lon": 0.0, "type": "electric_scooter", "name": "2eab35bb3af922df633b9be06fdd760d", "rental_uris": {"android": "https://dc.lft.to/lastmile_qr_scan", "ios": "https://dc.lft.to/lastmile_qr_scan"}, "fusion_lat": 0.0, "lat": 38.8922715, "is_disabled": 0, "lon": -77.02718, "is_reserved": 0}, {"bike_id": "aab6d21912f4d7138cc50f66dfceb435", "fusion_lon": 0.0, "type": "electric_scooter", "name": "aab6d21912f4d7138cc50f66dfceb435", "rental_uris": {"android": "https://dc.lft.to/lastmile_qr_scan", "ios": "https://dc.lft.to/lastmile_qr_scan"}, "fusion_lat": 0.0, "lat": 38.8923415, "is_disabled": 0, "lon": -77.049975, "is_reserved": 0}, {"bike_id": "77898a6b75d3cddfc287743a6d410761", "fusion_lon": 0.0, "type": "electric_scooter", "name": "77898a6b75d3cddfc287743a6d410761", "rental_uris": {"android": "https://dc.lft.to/lastmile_qr_scan", "ios": "https://dc.lft.to/lastmile_qr_scan"}, "fusion_lat": 0.0, "lat": 38.93554366666667, "is_disabled": 0, "lon": -77.0820125, "is_reserved": 0}, {"bike_id": "0c2459ed0ff9d4f0ea2aa26ac54a5990", "fusion_lon": 0.0, "type": "electric_scooter", "name": "0c2459ed0ff9d4f0ea2aa26ac54a5990", "rental_uris": {"android": "https://dc.lft.to/lastmile_qr_scan", "ios": "https://dc.lft.to/lastmile_qr_scan"}, "fusion_lat": 0.0, "lat": 38.902577666666666, "is_disabled": 0, "lon": -77.02597916666667, "is_reserved": 0}, {"bike_id": "87892b0192513b8566317914dd0ba532", "fusion_lon": 0.0, "type": "electric_scooter", "name": "87892b0192513b8566317914dd0ba532", "rental_uris": {"android": "https://dc.lft.to/lastmile_qr_scan", "ios": "https://dc.lft.to/lastmile_qr_scan"}, "fusion_lat": 0.0, "lat": 38.924742333333334, "is_disabled": 0, "lon": -77.02835933333333, "is_reserved": 0}, {"bike_id": "6d0bb86e4e31993f1f665d3e3d14cc3b", "fusion_lon": 0.0, "type": "electric_scooter", "name": "6d0bb86e4e31993f1f665d3e3d14cc3b", "rental_uris": {"android": "https://dc.lft.to/lastmile_qr_scan", "ios": "https://dc.lft.to/lastmile_qr_scan"}, "fusion_lat": 0.0, "lat": 38.911964, "is_disabled": 0, "lon": -77.01886733333333, "is_reserved": 0}, {"bike_id": "afa1e818c5d0abc0507b4e2f24992144", "fusion_lon": 0.0, "type": "electric_scooter", "name": "afa1e818c5d0abc0507b4e2f24992144", "rental_uris": {"android": "https://dc.lft.to/lastmile_qr_scan", "ios": "https://dc.lft.to/lastmile_qr_scan"}, "fusion_lat": 0.0, "lat": 38.908695333333334, "is_disabled": 0, "lon": -76.99951933333334, "is_reserved": 0}, {"bike_id": "ff7995d4413264414e107d7478a3fc56", "fusion_lon": 0.0, "type": "electric_bike", "name": "ff7995d4413264414e107d7478a3fc56", "rental_uris": {"android": "https://dc.lft.to/lastmile_qr_scan", "ios": "https://dc.lft.to/lastmile_qr_scan"}, "fusion_lat": 0.0, "lat": 38.92558833333333, "is_disabled": 0, "lon": -77.00135866666666, "is_reserved": 0}, {"bike_id": "84f451df9d2f83caa918579bc53cca08", "fusion_lon": 0.0, "type": "electric_scooter", "name": "84f451df9d2f83caa918579bc53cca08", "rental_uris": {"android": "https://dc.lft.to/lastmile_qr_scan", "ios": "https://dc.lft.to/lastmile_qr_scan"}, "fusion_lat": 0.0, "lat": 38.898039, "is_disabled": 0, "lon": -77.00751433333333, "is_reserved": 0}, {"bike_id": "512a98b4f22185276dd38804dec480e6", "fusion_lon": 0.0, "type": "electric_scooter", "name": "512a98b4f22185276dd38804dec480e6", "rental_uris": {"android": "https://dc.lft.to/lastmile_qr_scan", "ios": "https://dc.lft.to/lastmile_qr_scan"}, "fusion_lat": 0.0, "lat": 38.90951616666667, "is_disabled": 0, "lon": -77.04888083333333, "is_reserved": 0}, {"bike_id": "b1af6940083318affac796115ea0b8de", "fusion_lon": 0.0, "type": "electric_scooter", "name": "b1af6940083318affac796115ea0b8de", "rental_uris": {"android": "https://dc.lft.to/lastmile_qr_scan", "ios": "https://dc.lft.to/lastmile_qr_scan"}, "fusion_lat": 0.0, "lat": 38.928718, "is_disabled": 0, "lon": -77.0325195, "is_reserved": 0}, {"bike_id": "5f1fa1d5aab9c578033b0c9bee89b2ea", "fusion_lon": 0.0, "type": "electric_scooter", "name": "5f1fa1d5aab9c578033b0c9bee89b2ea", "rental_uris": {"android": "https://dc.lft.to/lastmile_qr_scan", "ios": "https://dc.lft.to/lastmile_qr_scan"}, "fusion_lat": 0.0, "lat": 38.9478745, "is_disabled": 0, "lon": -77.06746216666667, "is_reserved": 0}, {"bike_id": "e75e3298d868ec1a7ea8cdb60bd9e97a", "fusion_lon": 0.0, "type": "electric_bike", "name": "e75e3298d868ec1a7ea8cdb60bd9e97a", "rental_uris": {"android": "https://dc.lft.to/lastmile_qr_scan", "ios": "https://dc.lft.to/lastmile_qr_scan"}, "fusion_lat": 0.0, "lat": 38.8697535, "is_disabled": 0, "lon": -77.13231416666666, "is_reserved": 0}, {"bike_id": "a2fa366064d3d8e4c8e5f6b59b11b31a", "fusion_lon": 0.0, "type": "electric_scooter", "name": "a2fa366064d3d8e4c8e5f6b59b11b31a", "rental_uris": {"android": "https://dc.lft.to/lastmile_qr_scan", "ios": "https://dc.lft.to/lastmile_qr_scan"}, "fusion_lat": 0.0, "lat": 38.92139516666667, "is_disabled": 0, "lon": -77.04128216666666, "is_reserved": 0}, {"bike_id": "cf83a9bbdfe2cc8f7e9d3dd76c63f1b4", "fusion_lon": 0.0, "type": "electric_scooter", "name": "cf83a9bbdfe2cc8f7e9d3dd76c63f1b4", "rental_uris": {"android": "https://dc.lft.to/lastmile_qr_scan", "ios": "https://dc.lft.to/lastmile_qr_scan"}, "fusion_lat": 0.0, "lat": 38.919382, "is_disabled": 0, "lon": -77.02509966666666, "is_reserved": 0}, {"bike_id": "789fbf181d983d6399f4c4a32537ae43", "fusion_lon": 0.0, "type": "electric_scooter", "name": "789fbf181d983d6399f4c4a32537ae43", "rental_uris": {"android": "https://dc.lft.to/lastmile_qr_scan", "ios": "https://dc.lft.to/lastmile_qr_scan"}, "fusion_lat": 0.0, "lat": 38.90098183333333, "is_disabled": 0, "lon": -76.99483933333333, "is_reserved": 0}, {"bike_id": "5fc8302f63f44c8ee547dbf2c663fd8f", "fusion_lon": 0.0, "type": "electric_scooter", "name": "5fc8302f63f44c8ee547dbf2c663fd8f", "rental_uris": {"android": "https://dc.lft.to/lastmile_qr_scan", "ios": "https://dc.lft.to/lastmile_qr_scan"}, "fusion_lat": 0.0, "lat": 38.8838285, "is_disabled": 0, "lon": -76.98524483333334, "is_reserved": 0}, {"bike_id": "73e3c0925cf2cc227438f9ae4b1b9d5b", "fusion_lon": 0.0, "type": "electric_scooter", "name": "73e3c0925cf2cc227438f9ae4b1b9d5b", "rental_uris": {"android": "https://dc.lft.to/lastmile_qr_scan", "ios": "https://dc.lft.to/lastmile_qr_scan"}, "fusion_lat": 0.0, "lat": 38.903825, "is_disabled": 0, "lon": -77.02966666666667, "is_reserved": 0}, {"bike_id": "af9f89d70bc2efe44b5b4d8482d983f7", "fusion_lon": 0.0, "type": "electric_scooter", "name": "af9f89d70bc2efe44b5b4d8482d983f7", "rental_uris": {"android": "https://dc.lft.to/lastmile_qr_scan", "ios": "https://dc.lft.to/lastmile_qr_scan"}, "fusion_lat": 0.0, "lat": 38.90062966666667, "is_disabled": 0, "lon": -77.00195266666667, "is_reserved": 0}, {"bike_id": "33451cf91b86bdb9e93def7084ed0729", "fusion_lon": 0.0, "type": "electric_scooter", "name": "33451cf91b86bdb9e93def7084ed0729", "rental_uris": {"android": "https://dc.lft.to/lastmile_qr_scan", "ios": "https://dc.lft.to/lastmile_qr_scan"}, "fusion_lat": 0.0, "lat": 38.9057505, "is_disabled": 0, "lon": -77.00586683333333, "is_reserved": 0}, {"bike_id": "667b6b842d11499a5e1e126b45671dbd", "fusion_lon": 0.0, "type": "electric_scooter", "name": "667b6b842d11499a5e1e126b45671dbd", "rental_uris": {"android": "https://dc.lft.to/lastmile_qr_scan", "ios": "https://dc.lft.to/lastmile_qr_scan"}, "fusion_lat": 0.0, "lat": 38.94135383333333, "is_disabled": 0, "lon": -77.09201016666667, "is_reserved": 0}, {"bike_id": "818d559d6493491fdc8fdfb1d52e5735", "fusion_lon": 0.0, "type": "electric_scooter", "name": "818d559d6493491fdc8fdfb1d52e5735", "rental_uris": {"android": "https://dc.lft.to/lastmile_qr_scan", "ios": "https://dc.lft.to/lastmile_qr_scan"}, "fusion_lat": 0.0, "lat": 38.9557025, "is_disabled": 0, "lon": -77.00633016666667, "is_reserved": 0}, {"bike_id": "2038c75d34ed55fb15ea6080b849da41", "fusion_lon": 0.0, "type": "electric_scooter", "name": "2038c75d34ed55fb15ea6080b849da41", "rental_uris": {"android": "https://dc.lft.to/lastmile_qr_scan", "ios": "https://dc.lft.to/lastmile_qr_scan"}, "fusion_lat": 0.0, "lat": 38.92787516666667, "is_disabled": 0, "lon": -77.0231435, "is_reserved": 0}, {"bike_id": "3985e821b66b17ab91b7dcb6890bbc18", "fusion_lon": 0.0, "type": "electric_bike", "name": "3985e821b66b17ab91b7dcb6890bbc18", "rental_uris": {"android": "https://dc.lft.to/lastmile_qr_scan", "ios": "https://dc.lft.to/lastmile_qr_scan"}, "fusion_lat": 0.0, "lat": 38.85221166666667, "is_disabled": 0, "lon": -77.12956866666667, "is_reserved": 0}, {"bike_id": "1b9004acacfa1db4923bebb6ae18262b", "fusion_lon": 0.0, "type": "electric_scooter", "name": "1b9004acacfa1db4923bebb6ae18262b", "rental_uris": {"android": "https://dc.lft.to/lastmile_qr_scan", "ios": "https://dc.lft.to/lastmile_qr_scan"}, "fusion_lat": 0.0, "lat": 38.905026, "is_disabled": 0, "lon": -77.040465, "is_reserved": 0}, {"bike_id": "dabac3a7a5ef79426c44770482986cb5", "fusion_lon": 0.0, "type": "electric_scooter", "name": "dabac3a7a5ef79426c44770482986cb5", "rental_uris": {"android": "https://dc.lft.to/lastmile_qr_scan", "ios": "https://dc.lft.to/lastmile_qr_scan"}, "fusion_lat": 0.0, "lat": 38.9175995, "is_disabled": 0, "lon": -77.02484216666667, "is_reserved": 0}, {"bike_id": "8ecf904f13708f3b62c227cd9110f046", "fusion_lon": 0.0, "type": "electric_scooter", "name": "8ecf904f13708f3b62c227cd9110f046", "rental_uris": {"android": "https://dc.lft.to/lastmile_qr_scan", "ios": "https://dc.lft.to/lastmile_qr_scan"}, "fusion_lat": 0.0, "lat": 38.912561333333336, "is_disabled": 0, "lon": -77.009311, "is_reserved": 0}, {"bike_id": "bc8d7ed68190975b6f33418bf186e979", "fusion_lon": 0.0, "type": "electric_scooter", "name": "bc8d7ed68190975b6f33418bf186e979", "rental_uris": {"android": "https://dc.lft.to/lastmile_qr_scan", "ios": "https://dc.lft.to/lastmile_qr_scan"}, "fusion_lat": 0.0, "lat": 38.913236833333336, "is_disabled": 0, "lon": -77.01411716666667, "is_reserved": 0}, {"bike_id": "c6838db29651565e93538a424b2a6ba4", "fusion_lon": 0.0, "type": "electric_bike", "name": "c6838db29651565e93538a424b2a6ba4", "rental_uris": {"android": "https://dc.lft.to/lastmile_qr_scan", "ios": "https://dc.lft.to/lastmile_qr_scan"}, "fusion_lat": 0.0, "lat": 38.8659765, "is_disabled": 0, "lon": -76.9322235, "is_reserved": 0}, {"bike_id": "2590dd78a59aa472d09b354fa6ce0d22", "fusion_lon": 0.0, "type": "electric_scooter", "name": "2590dd78a59aa472d09b354fa6ce0d22", "rental_uris": {"android": "https://dc.lft.to/lastmile_qr_scan", "ios": "https://dc.lft.to/lastmile_qr_scan"}, "fusion_lat": 0.0, "lat": 38.89679783333333, "is_disabled": 0, "lon": -76.9421615, "is_reserved": 0}, {"bike_id": "5d82a3cef2a2e56c1d289dd36cb6edb3", "fusion_lon": 0.0, "type": "electric_scooter", "name": "5d82a3cef2a2e56c1d289dd36cb6edb3", "rental_uris": {"android": "https://dc.lft.to/lastmile_qr_scan", "ios": "https://dc.lft.to/lastmile_qr_scan"}, "fusion_lat": 0.0, "lat": 38.91922666666667, "is_disabled": 0, "lon": -77.03382783333333, "is_reserved": 0}, {"bike_id": "a8eb211c49904bc3dafa27417441e392", "fusion_lon": 0.0, "type": "electric_scooter", "name": "a8eb211c49904bc3dafa27417441e392", "rental_uris": {"android": "https://dc.lft.to/lastmile_qr_scan", "ios": "https://dc.lft.to/lastmile_qr_scan"}, "fusion_lat": 0.0, "lat": 38.8948335, "is_disabled": 0, "lon": -76.9951505, "is_reserved": 0}, {"bike_id": "c1c3c78c52ee82d1c06bb68c539e89e8", "fusion_lon": 0.0, "type": "electric_scooter", "name": "c1c3c78c52ee82d1c06bb68c539e89e8", "rental_uris": {"android": "https://dc.lft.to/lastmile_qr_scan", "ios": "https://dc.lft.to/lastmile_qr_scan"}, "fusion_lat": 0.0, "lat": 38.92803716666667, "is_disabled": 0, "lon": -77.02714816666666, "is_reserved": 0}, {"bike_id": "111c0ef2d9fd10da95cac1c9b29e08d7", "fusion_lon": 0.0, "type": "electric_bike", "name": "111c0ef2d9fd10da95cac1c9b29e08d7", "rental_uris": {"android": "https://dc.lft.to/lastmile_qr_scan", "ios": "https://dc.lft.to/lastmile_qr_scan"}, "fusion_lat": 0.0, "lat": 38.903742333333334, "is_disabled": 0, "lon": -77.01779116666667, "is_reserved": 0}, {"bike_id": "6f0cf8bb8a9f2be7db1ef776d63e14b0", "fusion_lon": 0.0, "type": "electric_scooter", "name": "6f0cf8bb8a9f2be7db1ef776d63e14b0", "rental_uris": {"android": "https://dc.lft.to/lastmile_qr_scan", "ios": "https://dc.lft.to/lastmile_qr_scan"}, "fusion_lat": 0.0, "lat": 38.921662166666664, "is_disabled": 0, "lon": -77.041226, "is_reserved": 0}, {"bike_id": "774b466ee76bfc09fd8b78b605386287", "fusion_lon": 0.0, "type": "electric_scooter", "name": "774b466ee76bfc09fd8b78b605386287", "rental_uris": {"android": "https://dc.lft.to/lastmile_qr_scan", "ios": "https://dc.lft.to/lastmile_qr_scan"}, "fusion_lat": 0.0, "lat": 38.874369333333334, "is_disabled": 0, "lon": -77.0440355, "is_reserved": 0}, {"bike_id": "50f69156d09c1d3aa29a75ea5d4d3803", "fusion_lon": 0.0, "type": "electric_scooter", "name": "50f69156d09c1d3aa29a75ea5d4d3803", "rental_uris": {"android": "https://dc.lft.to/lastmile_qr_scan", "ios": "https://dc.lft.to/lastmile_qr_scan"}, "fusion_lat": 0.0, "lat": 38.9117615, "is_disabled": 0, "lon": -77.03854966666667, "is_reserved": 0}, {"bike_id": "2612732d029b2aa8cfbcac2e89c47ec7", "fusion_lon": 0.0, "type": "electric_bike", "name": "2612732d029b2aa8cfbcac2e89c47ec7", "rental_uris": {"android": "https://dc.lft.to/lastmile_qr_scan", "ios": "https://dc.lft.to/lastmile_qr_scan"}, "fusion_lat": 0.0, "lat": 38.967619166666665, "is_disabled": 0, "lon": -77.09157466666667, "is_reserved": 0}, {"bike_id": "49118e3a82dc927615cd8b7496d11922", "fusion_lon": 0.0, "type": "electric_scooter", "name": "49118e3a82dc927615cd8b7496d11922", "rental_uris": {"android": "https://dc.lft.to/lastmile_qr_scan", "ios": "https://dc.lft.to/lastmile_qr_scan"}, "fusion_lat": 0.0, "lat": 38.930753, "is_disabled": 0, "lon": -77.032556, "is_reserved": 0}, {"bike_id": "5ca32007670bfc3a1dfe73fb11a6d1f4", "fusion_lon": 0.0, "type": "electric_scooter", "name": "5ca32007670bfc3a1dfe73fb11a6d1f4", "rental_uris": {"android": "https://dc.lft.to/lastmile_qr_scan", "ios": "https://dc.lft.to/lastmile_qr_scan"}, "fusion_lat": 0.0, "lat": 38.903513333333336, "is_disabled": 0, "lon": -77.03442083333333, "is_reserved": 0}, {"bike_id": "9b0e946170e1fd26fd559493fd030dab", "fusion_lon": 0.0, "type": "electric_scooter", "name": "9b0e946170e1fd26fd559493fd030dab", "rental_uris": {"android": "https://dc.lft.to/lastmile_qr_scan", "ios": "https://dc.lft.to/lastmile_qr_scan"}, "fusion_lat": 0.0, "lat": 38.91277183333333, "is_disabled": 0, "lon": -77.032748, "is_reserved": 0}, {"bike_id": "7a81988bb706fd230f8df1ba6886703a", "fusion_lon": 0.0, "type": "electric_scooter", "name": "7a81988bb706fd230f8df1ba6886703a", "rental_uris": {"android": "https://dc.lft.to/lastmile_qr_scan", "ios": "https://dc.lft.to/lastmile_qr_scan"}, "fusion_lat": 0.0, "lat": 38.93244033333333, "is_disabled": 0, "lon": -77.03877266666667, "is_reserved": 0}, {"bike_id": "dccf17ac7ccb080a127a8145bf3bcbf1", "fusion_lon": 0.0, "type": "electric_scooter", "name": "dccf17ac7ccb080a127a8145bf3bcbf1", "rental_uris": {"android": "https://dc.lft.to/lastmile_qr_scan", "ios": "https://dc.lft.to/lastmile_qr_scan"}, "fusion_lat": 0.0, "lat": 38.855255, "is_disabled": 0, "lon": -76.96911466666667, "is_reserved": 0}, {"bike_id": "943f49ee6ed56ed3eb6c18dd144129c3", "fusion_lon": 0.0, "type": "electric_bike", "name": "943f49ee6ed56ed3eb6c18dd144129c3", "rental_uris": {"android": "https://dc.lft.to/lastmile_qr_scan", "ios": "https://dc.lft.to/lastmile_qr_scan"}, "fusion_lat": 0.0, "lat": 38.91673383333333, "is_disabled": 0, "lon": -77.0238675, "is_reserved": 0}, {"bike_id": "551d6e562b722a2877df789de1eb1a00", "fusion_lon": 0.0, "type": "electric_bike", "name": "551d6e562b722a2877df789de1eb1a00", "rental_uris": {"android": "https://dc.lft.to/lastmile_qr_scan", "ios": "https://dc.lft.to/lastmile_qr_scan"}, "fusion_lat": 0.0, "lat": 38.961965, "is_disabled": 0, "lon": -77.026107, "is_reserved": 0}, {"bike_id": "029d375b39e7ff1679b538ebd7f3fab7", "fusion_lon": 0.0, "type": "electric_scooter", "name": "029d375b39e7ff1679b538ebd7f3fab7", "rental_uris": {"android": "https://dc.lft.to/lastmile_qr_scan", "ios": "https://dc.lft.to/lastmile_qr_scan"}, "fusion_lat": 0.0, "lat": 38.97380166666667, "is_disabled": 0, "lon": -77.03121, "is_reserved": 0}, {"bike_id": "dd9bc839ed3f2ec1223d9cf195b315de", "fusion_lon": 0.0, "type": "electric_scooter", "name": "dd9bc839ed3f2ec1223d9cf195b315de", "rental_uris": {"android": "https://dc.lft.to/lastmile_qr_scan", "ios": "https://dc.lft.to/lastmile_qr_scan"}, "fusion_lat": 0.0, "lat": 38.937033, "is_disabled": 0, "lon": -77.05598083333334, "is_reserved": 0}, {"bike_id": "7a149f6daa78cb9c9121464286c367f1", "fusion_lon": 0.0, "type": "electric_scooter", "name": "7a149f6daa78cb9c9121464286c367f1", "rental_uris": {"android": "https://dc.lft.to/lastmile_qr_scan", "ios": "https://dc.lft.to/lastmile_qr_scan"}, "fusion_lat": 0.0, "lat": 38.91051183333333, "is_disabled": 0, "lon": -77.03366366666667, "is_reserved": 0}, {"bike_id": "f290999a9c46ecfb3c10b996504a3f21", "fusion_lon": 0.0, "type": "electric_scooter", "name": "f290999a9c46ecfb3c10b996504a3f21", "rental_uris": {"android": "https://dc.lft.to/lastmile_qr_scan", "ios": "https://dc.lft.to/lastmile_qr_scan"}, "fusion_lat": 0.0, "lat": 38.893012666666664, "is_disabled": 0, "lon": -77.04651466666667, "is_reserved": 0}, {"bike_id": "ffbc28cf32901e69199b5b64fea9cca4", "fusion_lon": 0.0, "type": "electric_scooter", "name": "ffbc28cf32901e69199b5b64fea9cca4", "rental_uris": {"android": "https://dc.lft.to/lastmile_qr_scan", "ios": "https://dc.lft.to/lastmile_qr_scan"}, "fusion_lat": 0.0, "lat": 38.92500783333333, "is_disabled": 0, "lon": -77.02148, "is_reserved": 0}, {"bike_id": "bb08905f168e59c93aff4caa6367f315", "fusion_lon": 0.0, "type": "electric_scooter", "name": "bb08905f168e59c93aff4caa6367f315", "rental_uris": {"android": "https://dc.lft.to/lastmile_qr_scan", "ios": "https://dc.lft.to/lastmile_qr_scan"}, "fusion_lat": 0.0, "lat": 38.883609166666666, "is_disabled": 0, "lon": -77.02297416666667, "is_reserved": 0}, {"bike_id": "13d41a36e774031160a2359493299633", "fusion_lon": 0.0, "type": "electric_scooter", "name": "13d41a36e774031160a2359493299633", "rental_uris": {"android": "https://dc.lft.to/lastmile_qr_scan", "ios": "https://dc.lft.to/lastmile_qr_scan"}, "fusion_lat": 0.0, "lat": 38.905104666666666, "is_disabled": 0, "lon": -76.99180533333333, "is_reserved": 0}, {"bike_id": "586c3ba3bc2572535e324904c72f5410", "fusion_lon": 0.0, "type": "electric_scooter", "name": "586c3ba3bc2572535e324904c72f5410", "rental_uris": {"android": "https://dc.lft.to/lastmile_qr_scan", "ios": "https://dc.lft.to/lastmile_qr_scan"}, "fusion_lat": 0.0, "lat": 38.8587255, "is_disabled": 0, "lon": -76.990222, "is_reserved": 0}, {"bike_id": "71cc5732385bbdcd712404ff9b9344a5", "fusion_lon": 0.0, "type": "electric_scooter", "name": "71cc5732385bbdcd712404ff9b9344a5", "rental_uris": {"android": "https://dc.lft.to/lastmile_qr_scan", "ios": "https://dc.lft.to/lastmile_qr_scan"}, "fusion_lat": 0.0, "lat": 38.8952015, "is_disabled": 0, "lon": -77.02753716666666, "is_reserved": 0}, {"bike_id": "aa584d2d46d50a10a8c67ea7de7ed316", "fusion_lon": 0.0, "type": "electric_scooter", "name": "aa584d2d46d50a10a8c67ea7de7ed316", "rental_uris": {"android": "https://dc.lft.to/lastmile_qr_scan", "ios": "https://dc.lft.to/lastmile_qr_scan"}, "fusion_lat": 0.0, "lat": 38.9034075, "is_disabled": 0, "lon": -77.0433515, "is_reserved": 0}, {"bike_id": "214e18a5fee1e88665b5a21a85a8df0f", "fusion_lon": 0.0, "type": "electric_scooter", "name": "214e18a5fee1e88665b5a21a85a8df0f", "rental_uris": {"android": "https://dc.lft.to/lastmile_qr_scan", "ios": "https://dc.lft.to/lastmile_qr_scan"}, "fusion_lat": 0.0, "lat": 38.91976866666667, "is_disabled": 0, "lon": -77.0485165, "is_reserved": 0}, {"bike_id": "910ca59333e2be5c442787ef9ffbabb2", "fusion_lon": 0.0, "type": "electric_scooter", "name": "910ca59333e2be5c442787ef9ffbabb2", "rental_uris": {"android": "https://dc.lft.to/lastmile_qr_scan", "ios": "https://dc.lft.to/lastmile_qr_scan"}, "fusion_lat": 0.0, "lat": 38.914895666666666, "is_disabled": 0, "lon": -77.00289033333334, "is_reserved": 0}, {"bike_id": "06f1c0fe1385b3c4ff813124d8adab18", "fusion_lon": 0.0, "type": "electric_bike", "name": "06f1c0fe1385b3c4ff813124d8adab18", "rental_uris": {"android": "https://dc.lft.to/lastmile_qr_scan", "ios": "https://dc.lft.to/lastmile_qr_scan"}, "fusion_lat": 0.0, "lat": 38.88345483333333, "is_disabled": 0, "lon": -77.18292616666666, "is_reserved": 0}, {"bike_id": "4a89ad3d445676b0e07f6cb30c425bb1", "fusion_lon": 0.0, "type": "electric_scooter", "name": "4a89ad3d445676b0e07f6cb30c425bb1", "rental_uris": {"android": "https://dc.lft.to/lastmile_qr_scan", "ios": "https://dc.lft.to/lastmile_qr_scan"}, "fusion_lat": 0.0, "lat": 38.89224466666667, "is_disabled": 0, "lon": -77.0253315, "is_reserved": 0}, {"bike_id": "2e9fcb69ad3e88f4b41145df6684c536", "fusion_lon": 0.0, "type": "electric_scooter", "name": "2e9fcb69ad3e88f4b41145df6684c536", "rental_uris": {"android": "https://dc.lft.to/lastmile_qr_scan", "ios": "https://dc.lft.to/lastmile_qr_scan"}, "fusion_lat": 0.0, "lat": 38.90010983333333, "is_disabled": 0, "lon": -76.99528716666667, "is_reserved": 0}, {"bike_id": "b515db37f043883c0787aeaa430573eb", "fusion_lon": 0.0, "type": "electric_scooter", "name": "b515db37f043883c0787aeaa430573eb", "rental_uris": {"android": "https://dc.lft.to/lastmile_qr_scan", "ios": "https://dc.lft.to/lastmile_qr_scan"}, "fusion_lat": 0.0, "lat": 38.89912783333333, "is_disabled": 0, "lon": -76.93342433333333, "is_reserved": 0}, {"bike_id": "f89f257d706461c74fe0cf957fedb7f2", "fusion_lon": 0.0, "type": "electric_scooter", "name": "f89f257d706461c74fe0cf957fedb7f2", "rental_uris": {"android": "https://dc.lft.to/lastmile_qr_scan", "ios": "https://dc.lft.to/lastmile_qr_scan"}, "fusion_lat": 0.0, "lat": 38.9078765, "is_disabled": 0, "lon": -77.0321315, "is_reserved": 0}, {"bike_id": "0c1748fb67652041ab895cb2f2c35ea1", "fusion_lon": 0.0, "type": "electric_scooter", "name": "0c1748fb67652041ab895cb2f2c35ea1", "rental_uris": {"android": "https://dc.lft.to/lastmile_qr_scan", "ios": "https://dc.lft.to/lastmile_qr_scan"}, "fusion_lat": 0.0, "lat": 38.886402333333336, "is_disabled": 0, "lon": -77.02163216666666, "is_reserved": 0}, {"bike_id": "3cb1248e54dd0bf2e33c374f04b62ca1", "fusion_lon": 0.0, "type": "electric_scooter", "name": "3cb1248e54dd0bf2e33c374f04b62ca1", "rental_uris": {"android": "https://dc.lft.to/lastmile_qr_scan", "ios": "https://dc.lft.to/lastmile_qr_scan"}, "fusion_lat": 0.0, "lat": 38.92236316666666, "is_disabled": 0, "lon": -77.0424935, "is_reserved": 0}, {"bike_id": "c54b4c0501ee8983d1bf033bb2776ddc", "fusion_lon": 0.0, "type": "electric_scooter", "name": "c54b4c0501ee8983d1bf033bb2776ddc", "rental_uris": {"android": "https://dc.lft.to/lastmile_qr_scan", "ios": "https://dc.lft.to/lastmile_qr_scan"}, "fusion_lat": 0.0, "lat": 38.91459233333333, "is_disabled": 0, "lon": -77.0716545, "is_reserved": 0}, {"bike_id": "e2c901ae147a39039ea23a4a8695cd7e", "fusion_lon": 0.0, "type": "electric_bike", "name": "e2c901ae147a39039ea23a4a8695cd7e", "rental_uris": {"android": "https://dc.lft.to/lastmile_qr_scan", "ios": "https://dc.lft.to/lastmile_qr_scan"}, "fusion_lat": 0.0, "lat": 38.954152666666666, "is_disabled": 0, "lon": -76.94287233333333, "is_reserved": 0}, {"bike_id": "cbeca601613466fce3168b30c0d9608a", "fusion_lon": 0.0, "type": "electric_scooter", "name": "cbeca601613466fce3168b30c0d9608a", "rental_uris": {"android": "https://dc.lft.to/lastmile_qr_scan", "ios": "https://dc.lft.to/lastmile_qr_scan"}, "fusion_lat": 0.0, "lat": 38.84622733333333, "is_disabled": 0, "lon": -76.99631433333333, "is_reserved": 0}, {"bike_id": "122170ba6497b09c9b899083e7a33c27", "fusion_lon": 0.0, "type": "electric_scooter", "name": "122170ba6497b09c9b899083e7a33c27", "rental_uris": {"android": "https://dc.lft.to/lastmile_qr_scan", "ios": "https://dc.lft.to/lastmile_qr_scan"}, "fusion_lat": 0.0, "lat": 38.897463, "is_disabled": 0, "lon": -77.02869733333333, "is_reserved": 0}, {"bike_id": "9f596d1b6eb47a7abf6362a80925c518", "fusion_lon": 0.0, "type": "electric_bike", "name": "9f596d1b6eb47a7abf6362a80925c518", "rental_uris": {"android": "https://dc.lft.to/lastmile_qr_scan", "ios": "https://dc.lft.to/lastmile_qr_scan"}, "fusion_lat": 0.0, "lat": 38.965110833333334, "is_disabled": 0, "lon": -77.028166, "is_reserved": 0}, {"bike_id": "4e6bcc09c907087bd3bbbf1a8e22bda5", "fusion_lon": 0.0, "type": "electric_scooter", "name": "4e6bcc09c907087bd3bbbf1a8e22bda5", "rental_uris": {"android": "https://dc.lft.to/lastmile_qr_scan", "ios": "https://dc.lft.to/lastmile_qr_scan"}, "fusion_lat": 0.0, "lat": 38.914628666666665, "is_disabled": 0, "lon": -77.04158033333333, "is_reserved": 0}, {"bike_id": "0e7d90e2b24176ac416798397122bf3d", "fusion_lon": 0.0, "type": "electric_scooter", "name": "0e7d90e2b24176ac416798397122bf3d", "rental_uris": {"android": "https://dc.lft.to/lastmile_qr_scan", "ios": "https://dc.lft.to/lastmile_qr_scan"}, "fusion_lat": 0.0, "lat": 38.8442795, "is_disabled": 0, "lon": -76.99777083333333, "is_reserved": 0}, {"bike_id": "d690ed9125098403c8a32ab2190b6141", "fusion_lon": 0.0, "type": "electric_scooter", "name": "d690ed9125098403c8a32ab2190b6141", "rental_uris": {"android": "https://dc.lft.to/lastmile_qr_scan", "ios": "https://dc.lft.to/lastmile_qr_scan"}, "fusion_lat": 0.0, "lat": 38.9028495, "is_disabled": 0, "lon": -77.03644316666667, "is_reserved": 0}, {"bike_id": "68830e53cd9c57ab127f21bbae6c67cc", "fusion_lon": 0.0, "type": "electric_scooter", "name": "68830e53cd9c57ab127f21bbae6c67cc", "rental_uris": {"android": "https://dc.lft.to/lastmile_qr_scan", "ios": "https://dc.lft.to/lastmile_qr_scan"}, "fusion_lat": 0.0, "lat": 38.87940316666667, "is_disabled": 0, "lon": -77.00402116666666, "is_reserved": 0}, {"bike_id": "517c4ecc7b153fd9a0768240745982c9", "fusion_lon": 0.0, "type": "electric_scooter", "name": "517c4ecc7b153fd9a0768240745982c9", "rental_uris": {"android": "https://dc.lft.to/lastmile_qr_scan", "ios": "https://dc.lft.to/lastmile_qr_scan"}, "fusion_lat": 0.0, "lat": 38.88050033333333, "is_disabled": 0, "lon": -76.99947, "is_reserved": 0}, {"bike_id": "dac96203dda7c0de7d1cdea359d614c8", "fusion_lon": 0.0, "type": "electric_scooter", "name": "dac96203dda7c0de7d1cdea359d614c8", "rental_uris": {"android": "https://dc.lft.to/lastmile_qr_scan", "ios": "https://dc.lft.to/lastmile_qr_scan"}, "fusion_lat": 0.0, "lat": 38.938636833333334, "is_disabled": 0, "lon": -77.03207116666667, "is_reserved": 0}, {"bike_id": "c9072cbffeb4bc4f1f3577687159d67f", "fusion_lon": 0.0, "type": "electric_scooter", "name": "c9072cbffeb4bc4f1f3577687159d67f", "rental_uris": {"android": "https://dc.lft.to/lastmile_qr_scan", "ios": "https://dc.lft.to/lastmile_qr_scan"}, "fusion_lat": 0.0, "lat": 38.92062633333333, "is_disabled": 0, "lon": -77.02365533333334, "is_reserved": 0}, {"bike_id": "7f2a46b3831f0381d1c7d2a5af196c77", "fusion_lon": 0.0, "type": "electric_scooter", "name": "7f2a46b3831f0381d1c7d2a5af196c77", "rental_uris": {"android": "https://dc.lft.to/lastmile_qr_scan", "ios": "https://dc.lft.to/lastmile_qr_scan"}, "fusion_lat": 0.0, "lat": 38.907248333333335, "is_disabled": 0, "lon": -77.002035, "is_reserved": 0}, {"bike_id": "996a36ad770bbb64eaf924fb4875bbaf", "fusion_lon": 0.0, "type": "electric_bike", "name": "996a36ad770bbb64eaf924fb4875bbaf", "rental_uris": {"android": "https://dc.lft.to/lastmile_qr_scan", "ios": "https://dc.lft.to/lastmile_qr_scan"}, "fusion_lat": 0.0, "lat": 38.931960333333336, "is_disabled": 0, "lon": -77.03725516666667, "is_reserved": 0}, {"bike_id": "d002648c037365247f2c14cf38cf0ae0", "fusion_lon": 0.0, "type": "electric_scooter", "name": "d002648c037365247f2c14cf38cf0ae0", "rental_uris": {"android": "https://dc.lft.to/lastmile_qr_scan", "ios": "https://dc.lft.to/lastmile_qr_scan"}, "fusion_lat": 0.0, "lat": 38.90125916666667, "is_disabled": 0, "lon": -77.00312383333333, "is_reserved": 0}, {"bike_id": "36050fddd595bf951cf71af6ea1e5e39", "fusion_lon": 0.0, "type": "electric_bike", "name": "36050fddd595bf951cf71af6ea1e5e39", "rental_uris": {"android": "https://dc.lft.to/lastmile_qr_scan", "ios": "https://dc.lft.to/lastmile_qr_scan"}, "fusion_lat": 0.0, "lat": 38.842734166666666, "is_disabled": 0, "lon": -77.1141735, "is_reserved": 0}, {"bike_id": "5c1e756a6090a0c36d0fa52ab9382b04", "fusion_lon": 0.0, "type": "electric_scooter", "name": "5c1e756a6090a0c36d0fa52ab9382b04", "rental_uris": {"android": "https://dc.lft.to/lastmile_qr_scan", "ios": "https://dc.lft.to/lastmile_qr_scan"}, "fusion_lat": 0.0, "lat": 38.884582333333334, "is_disabled": 0, "lon": -77.0291335, "is_reserved": 0}, {"bike_id": "dbf51f7d8ad12cd7bc24414f5a4beb8a", "fusion_lon": 0.0, "type": "electric_bike", "name": "dbf51f7d8ad12cd7bc24414f5a4beb8a", "rental_uris": {"android": "https://dc.lft.to/lastmile_qr_scan", "ios": "https://dc.lft.to/lastmile_qr_scan"}, "fusion_lat": 0.0, "lat": 38.839450666666664, "is_disabled": 0, "lon": -77.07898216666666, "is_reserved": 0}, {"bike_id": "1bd5e3de0db9195ab5906df9836859c6", "fusion_lon": 0.0, "type": "electric_scooter", "name": "1bd5e3de0db9195ab5906df9836859c6", "rental_uris": {"android": "https://dc.lft.to/lastmile_qr_scan", "ios": "https://dc.lft.to/lastmile_qr_scan"}, "fusion_lat": 0.0, "lat": 38.914924666666664, "is_disabled": 0, "lon": -77.0132565, "is_reserved": 0}, {"bike_id": "ff42e76e3243a59f1d88d2b484cd806b", "fusion_lon": 0.0, "type": "electric_scooter", "name": "ff42e76e3243a59f1d88d2b484cd806b", "rental_uris": {"android": "https://dc.lft.to/lastmile_qr_scan", "ios": "https://dc.lft.to/lastmile_qr_scan"}, "fusion_lat": 0.0, "lat": 38.86947, "is_disabled": 0, "lon": -77.00858833333334, "is_reserved": 0}, {"bike_id": "c276a35625ed529ae199816aac530c15", "fusion_lon": 0.0, "type": "electric_scooter", "name": "c276a35625ed529ae199816aac530c15", "rental_uris": {"android": "https://dc.lft.to/lastmile_qr_scan", "ios": "https://dc.lft.to/lastmile_qr_scan"}, "fusion_lat": 0.0, "lat": 38.909874, "is_disabled": 0, "lon": -77.034619, "is_reserved": 0}, {"bike_id": "5242aad792e59db92e5bc81ef93c8933", "fusion_lon": 0.0, "type": "electric_scooter", "name": "5242aad792e59db92e5bc81ef93c8933", "rental_uris": {"android": "https://dc.lft.to/lastmile_qr_scan", "ios": "https://dc.lft.to/lastmile_qr_scan"}, "fusion_lat": 0.0, "lat": 38.9050985, "is_disabled": 0, "lon": -77.02942283333333, "is_reserved": 0}, {"bike_id": "16e4ff9f9bf1479856a35e38f53c550d", "fusion_lon": 0.0, "type": "electric_scooter", "name": "16e4ff9f9bf1479856a35e38f53c550d", "rental_uris": {"android": "https://dc.lft.to/lastmile_qr_scan", "ios": "https://dc.lft.to/lastmile_qr_scan"}, "fusion_lat": 0.0, "lat": 38.8873685, "is_disabled": 0, "lon": -77.01533766666667, "is_reserved": 0}, {"bike_id": "f0279b91e78bde4f4af36aab4c594244", "fusion_lon": 0.0, "type": "electric_bike", "name": "f0279b91e78bde4f4af36aab4c594244", "rental_uris": {"android": "https://dc.lft.to/lastmile_qr_scan", "ios": "https://dc.lft.to/lastmile_qr_scan"}, "fusion_lat": 0.0, "lat": 38.813305, "is_disabled": 0, "lon": -77.05089, "is_reserved": 0}, {"bike_id": "bdfaddacacbf545477238162a4a80bc7", "fusion_lon": 0.0, "type": "electric_scooter", "name": "bdfaddacacbf545477238162a4a80bc7", "rental_uris": {"android": "https://dc.lft.to/lastmile_qr_scan", "ios": "https://dc.lft.to/lastmile_qr_scan"}, "fusion_lat": 0.0, "lat": 38.91261983333333, "is_disabled": 0, "lon": -77.03137283333334, "is_reserved": 0}, {"bike_id": "c024bb2fb7bdd14692fba2d7aa1f72df", "fusion_lon": 0.0, "type": "electric_bike", "name": "c024bb2fb7bdd14692fba2d7aa1f72df", "rental_uris": {"android": "https://dc.lft.to/lastmile_qr_scan", "ios": "https://dc.lft.to/lastmile_qr_scan"}, "fusion_lat": 0.0, "lat": 38.87719383333334, "is_disabled": 0, "lon": -77.01751066666667, "is_reserved": 0}, {"bike_id": "17d5eab377ea88489be0d44a82dadab0", "fusion_lon": 0.0, "type": "electric_scooter", "name": "17d5eab377ea88489be0d44a82dadab0", "rental_uris": {"android": "https://dc.lft.to/lastmile_qr_scan", "ios": "https://dc.lft.to/lastmile_qr_scan"}, "fusion_lat": 0.0, "lat": 38.864855, "is_disabled": 0, "lon": -76.983578, "is_reserved": 0}, {"bike_id": "c86d87b504d981252055e521ccfcfbd3", "fusion_lon": 0.0, "type": "electric_scooter", "name": "c86d87b504d981252055e521ccfcfbd3", "rental_uris": {"android": "https://dc.lft.to/lastmile_qr_scan", "ios": "https://dc.lft.to/lastmile_qr_scan"}, "fusion_lat": 0.0, "lat": 38.922925666666664, "is_disabled": 0, "lon": -76.99778533333334, "is_reserved": 0}, {"bike_id": "ee431b1cf31a08c1838367df78a437ee", "fusion_lon": 0.0, "type": "electric_scooter", "name": "ee431b1cf31a08c1838367df78a437ee", "rental_uris": {"android": "https://dc.lft.to/lastmile_qr_scan", "ios": "https://dc.lft.to/lastmile_qr_scan"}, "fusion_lat": 0.0, "lat": 38.92377583333333, "is_disabled": 0, "lon": -77.04028466666666, "is_reserved": 0}, {"bike_id": "e26c18782ea414047620a822c5be799c", "fusion_lon": 0.0, "type": "electric_scooter", "name": "e26c18782ea414047620a822c5be799c", "rental_uris": {"android": "https://dc.lft.to/lastmile_qr_scan", "ios": "https://dc.lft.to/lastmile_qr_scan"}, "fusion_lat": 0.0, "lat": 38.91630466666667, "is_disabled": 0, "lon": -77.03635616666666, "is_reserved": 0}, {"bike_id": "a36bf94221f9ba0e720a40084cf0f668", "fusion_lon": 0.0, "type": "electric_scooter", "name": "a36bf94221f9ba0e720a40084cf0f668", "rental_uris": {"android": "https://dc.lft.to/lastmile_qr_scan", "ios": "https://dc.lft.to/lastmile_qr_scan"}, "fusion_lat": 0.0, "lat": 38.907987166666665, "is_disabled": 0, "lon": -76.99726, "is_reserved": 0}, {"bike_id": "b1b701cd288c8a8e9b84416885bf3a64", "fusion_lon": 0.0, "type": "electric_scooter", "name": "b1b701cd288c8a8e9b84416885bf3a64", "rental_uris": {"android": "https://dc.lft.to/lastmile_qr_scan", "ios": "https://dc.lft.to/lastmile_qr_scan"}, "fusion_lat": 0.0, "lat": 38.878856166666665, "is_disabled": 0, "lon": -76.97087466666666, "is_reserved": 0}, {"bike_id": "53ae9485c0fdf062f486e82230d1dc85", "fusion_lon": 0.0, "type": "electric_bike", "name": "53ae9485c0fdf062f486e82230d1dc85", "rental_uris": {"android": "https://dc.lft.to/lastmile_qr_scan", "ios": "https://dc.lft.to/lastmile_qr_scan"}, "fusion_lat": 0.0, "lat": 38.85250666666666, "is_disabled": 0, "lon": -77.11423583333334, "is_reserved": 0}, {"bike_id": "900745f1299ae689cef856be92565488", "fusion_lon": 0.0, "type": "electric_scooter", "name": "900745f1299ae689cef856be92565488", "rental_uris": {"android": "https://dc.lft.to/lastmile_qr_scan", "ios": "https://dc.lft.to/lastmile_qr_scan"}, "fusion_lat": 0.0, "lat": 38.904253, "is_disabled": 0, "lon": -77.0395455, "is_reserved": 0}, {"bike_id": "2b772a7dbbe6d35ce515b926f8335d02", "fusion_lon": 0.0, "type": "electric_scooter", "name": "2b772a7dbbe6d35ce515b926f8335d02", "rental_uris": {"android": "https://dc.lft.to/lastmile_qr_scan", "ios": "https://dc.lft.to/lastmile_qr_scan"}, "fusion_lat": 0.0, "lat": 38.95639116666667, "is_disabled": 0, "lon": -77.03294083333333, "is_reserved": 0}, {"bike_id": "71a1b0afda3cfb09849bc325f5b60e89", "fusion_lon": 0.0, "type": "electric_scooter", "name": "71a1b0afda3cfb09849bc325f5b60e89", "rental_uris": {"android": "https://dc.lft.to/lastmile_qr_scan", "ios": "https://dc.lft.to/lastmile_qr_scan"}, "fusion_lat": 0.0, "lat": 38.924295, "is_disabled": 0, "lon": -77.056047, "is_reserved": 0}, {"bike_id": "89ce721b1404d115dde81f5f7008a1e9", "fusion_lon": 0.0, "type": "electric_scooter", "name": "89ce721b1404d115dde81f5f7008a1e9", "rental_uris": {"android": "https://dc.lft.to/lastmile_qr_scan", "ios": "https://dc.lft.to/lastmile_qr_scan"}, "fusion_lat": 0.0, "lat": 38.9001135, "is_disabled": 0, "lon": -77.02138616666667, "is_reserved": 0}, {"bike_id": "1977e16ca3a2929d8326727ea81281d4", "fusion_lon": 0.0, "type": "electric_scooter", "name": "1977e16ca3a2929d8326727ea81281d4", "rental_uris": {"android": "https://dc.lft.to/lastmile_qr_scan", "ios": "https://dc.lft.to/lastmile_qr_scan"}, "fusion_lat": 0.0, "lat": 38.90316833333333, "is_disabled": 0, "lon": -77.03475716666667, "is_reserved": 0}, {"bike_id": "acb183e317068a93272ff7f06ba003e5", "fusion_lon": 0.0, "type": "electric_scooter", "name": "acb183e317068a93272ff7f06ba003e5", "rental_uris": {"android": "https://dc.lft.to/lastmile_qr_scan", "ios": "https://dc.lft.to/lastmile_qr_scan"}, "fusion_lat": 0.0, "lat": 38.93098116666667, "is_disabled": 0, "lon": -77.023861, "is_reserved": 0}, {"bike_id": "2f370b52ae2fabe02a6278b82a8730af", "fusion_lon": 0.0, "type": "electric_scooter", "name": "2f370b52ae2fabe02a6278b82a8730af", "rental_uris": {"android": "https://dc.lft.to/lastmile_qr_scan", "ios": "https://dc.lft.to/lastmile_qr_scan"}, "fusion_lat": 0.0, "lat": 38.91704516666667, "is_disabled": 0, "lon": -77.042502, "is_reserved": 0}, {"bike_id": "c7d7d9a1802cf151611bd1b8e207920d", "fusion_lon": 0.0, "type": "electric_scooter", "name": "c7d7d9a1802cf151611bd1b8e207920d", "rental_uris": {"android": "https://dc.lft.to/lastmile_qr_scan", "ios": "https://dc.lft.to/lastmile_qr_scan"}, "fusion_lat": 0.0, "lat": 38.917106, "is_disabled": 0, "lon": -77.09206516666667, "is_reserved": 0}, {"bike_id": "caad05b42489b7a62b03c3142e924198", "fusion_lon": 0.0, "type": "electric_scooter", "name": "caad05b42489b7a62b03c3142e924198", "rental_uris": {"android": "https://dc.lft.to/lastmile_qr_scan", "ios": "https://dc.lft.to/lastmile_qr_scan"}, "fusion_lat": 0.0, "lat": 38.9022085, "is_disabled": 0, "lon": -77.048126, "is_reserved": 0}, {"bike_id": "40d1e52180c0d97d47cdc72f57a272eb", "fusion_lon": 0.0, "type": "electric_scooter", "name": "40d1e52180c0d97d47cdc72f57a272eb", "rental_uris": {"android": "https://dc.lft.to/lastmile_qr_scan", "ios": "https://dc.lft.to/lastmile_qr_scan"}, "fusion_lat": 0.0, "lat": 38.9594265, "is_disabled": 0, "lon": -77.03251916666666, "is_reserved": 0}, {"bike_id": "a608140eb95af347e9cf453c5743709c", "fusion_lon": 0.0, "type": "electric_scooter", "name": "a608140eb95af347e9cf453c5743709c", "rental_uris": {"android": "https://dc.lft.to/lastmile_qr_scan", "ios": "https://dc.lft.to/lastmile_qr_scan"}, "fusion_lat": 0.0, "lat": 38.93700066666667, "is_disabled": 0, "lon": -77.032176, "is_reserved": 0}, {"bike_id": "83e821ea60a423205114270208d0bd2f", "fusion_lon": 0.0, "type": "electric_scooter", "name": "83e821ea60a423205114270208d0bd2f", "rental_uris": {"android": "https://dc.lft.to/lastmile_qr_scan", "ios": "https://dc.lft.to/lastmile_qr_scan"}, "fusion_lat": 0.0, "lat": 38.932605, "is_disabled": 0, "lon": -77.03617483333333, "is_reserved": 0}, {"bike_id": "9f77a6c62dd143fbed67567930e245e6", "fusion_lon": 0.0, "type": "electric_scooter", "name": "9f77a6c62dd143fbed67567930e245e6", "rental_uris": {"android": "https://dc.lft.to/lastmile_qr_scan", "ios": "https://dc.lft.to/lastmile_qr_scan"}, "fusion_lat": 0.0, "lat": 38.913625833333334, "is_disabled": 0, "lon": -77.022412, "is_reserved": 0}, {"bike_id": "00fd735360bb020de7b0a1c73188a995", "fusion_lon": 0.0, "type": "electric_scooter", "name": "00fd735360bb020de7b0a1c73188a995", "rental_uris": {"android": "https://dc.lft.to/lastmile_qr_scan", "ios": "https://dc.lft.to/lastmile_qr_scan"}, "fusion_lat": 0.0, "lat": 38.900547, "is_disabled": 0, "lon": -77.04484683333334, "is_reserved": 0}, {"bike_id": "af579b705f91c5b730d0105470b527d6", "fusion_lon": 0.0, "type": "electric_scooter", "name": "af579b705f91c5b730d0105470b527d6", "rental_uris": {"android": "https://dc.lft.to/lastmile_qr_scan", "ios": "https://dc.lft.to/lastmile_qr_scan"}, "fusion_lat": 0.0, "lat": 38.886631333333334, "is_disabled": 0, "lon": -77.03385983333334, "is_reserved": 0}, {"bike_id": "196bad2332f0ae5d57949b52841ff11e", "fusion_lon": 0.0, "type": "electric_scooter", "name": "196bad2332f0ae5d57949b52841ff11e", "rental_uris": {"android": "https://dc.lft.to/lastmile_qr_scan", "ios": "https://dc.lft.to/lastmile_qr_scan"}, "fusion_lat": 0.0, "lat": 38.91491366666666, "is_disabled": 0, "lon": -77.04649383333333, "is_reserved": 0}, {"bike_id": "fd4b247176484e164c06d705cde1f6e2", "fusion_lon": 0.0, "type": "electric_scooter", "name": "fd4b247176484e164c06d705cde1f6e2", "rental_uris": {"android": "https://dc.lft.to/lastmile_qr_scan", "ios": "https://dc.lft.to/lastmile_qr_scan"}, "fusion_lat": 0.0, "lat": 38.91881466666667, "is_disabled": 0, "lon": -77.03500133333333, "is_reserved": 0}, {"bike_id": "39429318de01db0a73c61c871707ed95", "fusion_lon": 0.0, "type": "electric_scooter", "name": "39429318de01db0a73c61c871707ed95", "rental_uris": {"android": "https://dc.lft.to/lastmile_qr_scan", "ios": "https://dc.lft.to/lastmile_qr_scan"}, "fusion_lat": 0.0, "lat": 38.93915333333333, "is_disabled": 0, "lon": -77.06044716666666, "is_reserved": 0}, {"bike_id": "8ffc5c4e1553858db1d539274b8a4d51", "fusion_lon": 0.0, "type": "electric_bike", "name": "8ffc5c4e1553858db1d539274b8a4d51", "rental_uris": {"android": "https://dc.lft.to/lastmile_qr_scan", "ios": "https://dc.lft.to/lastmile_qr_scan"}, "fusion_lat": 0.0, "lat": 38.8638145, "is_disabled": 0, "lon": -77.1289795, "is_reserved": 0}, {"bike_id": "7ce7605548735ee909ca049d261e0875", "fusion_lon": 0.0, "type": "electric_scooter", "name": "7ce7605548735ee909ca049d261e0875", "rental_uris": {"android": "https://dc.lft.to/lastmile_qr_scan", "ios": "https://dc.lft.to/lastmile_qr_scan"}, "fusion_lat": 0.0, "lat": 38.8969695, "is_disabled": 0, "lon": -77.02184866666667, "is_reserved": 0}, {"bike_id": "c531c7fbcbfe629c51dc880007f27c17", "fusion_lon": 0.0, "type": "electric_scooter", "name": "c531c7fbcbfe629c51dc880007f27c17", "rental_uris": {"android": "https://dc.lft.to/lastmile_qr_scan", "ios": "https://dc.lft.to/lastmile_qr_scan"}, "fusion_lat": 0.0, "lat": 38.94284433333333, "is_disabled": 0, "lon": -77.02930883333333, "is_reserved": 0}, {"bike_id": "40902cbc1690097f2e5d3cce5ef9d806", "fusion_lon": 0.0, "type": "electric_scooter", "name": "40902cbc1690097f2e5d3cce5ef9d806", "rental_uris": {"android": "https://dc.lft.to/lastmile_qr_scan", "ios": "https://dc.lft.to/lastmile_qr_scan"}, "fusion_lat": 0.0, "lat": 38.93103833333333, "is_disabled": 0, "lon": -77.02402516666666, "is_reserved": 0}, {"bike_id": "ab42b827f9e376574f196075015f7962", "fusion_lon": 0.0, "type": "electric_scooter", "name": "ab42b827f9e376574f196075015f7962", "rental_uris": {"android": "https://dc.lft.to/lastmile_qr_scan", "ios": "https://dc.lft.to/lastmile_qr_scan"}, "fusion_lat": 0.0, "lat": 38.875349166666666, "is_disabled": 0, "lon": -77.00552716666667, "is_reserved": 0}, {"bike_id": "a833391faa03f2de6d466c1e3b483fbf", "fusion_lon": 0.0, "type": "electric_scooter", "name": "a833391faa03f2de6d466c1e3b483fbf", "rental_uris": {"android": "https://dc.lft.to/lastmile_qr_scan", "ios": "https://dc.lft.to/lastmile_qr_scan"}, "fusion_lat": 0.0, "lat": 38.907101833333336, "is_disabled": 0, "lon": -76.98696633333333, "is_reserved": 0}, {"bike_id": "d7cab14f5312ea0b776da86c078b93cc", "fusion_lon": 0.0, "type": "electric_scooter", "name": "d7cab14f5312ea0b776da86c078b93cc", "rental_uris": {"android": "https://dc.lft.to/lastmile_qr_scan", "ios": "https://dc.lft.to/lastmile_qr_scan"}, "fusion_lat": 0.0, "lat": 38.92224, "is_disabled": 0, "lon": -77.03752716666666, "is_reserved": 0}, {"bike_id": "7e364b607bee45b72cd1fe71f6240d7f", "fusion_lon": 0.0, "type": "electric_scooter", "name": "7e364b607bee45b72cd1fe71f6240d7f", "rental_uris": {"android": "https://dc.lft.to/lastmile_qr_scan", "ios": "https://dc.lft.to/lastmile_qr_scan"}, "fusion_lat": 0.0, "lat": 38.936711833333334, "is_disabled": 0, "lon": -77.05930716666667, "is_reserved": 0}, {"bike_id": "5b624a55903245b7fdf92dc4556af08a", "fusion_lon": 0.0, "type": "electric_scooter", "name": "5b624a55903245b7fdf92dc4556af08a", "rental_uris": {"android": "https://dc.lft.to/lastmile_qr_scan", "ios": "https://dc.lft.to/lastmile_qr_scan"}, "fusion_lat": 0.0, "lat": 38.9002305, "is_disabled": 0, "lon": -77.0446895, "is_reserved": 0}, {"bike_id": "817bdabccf7cf0145f1c3638efc1942a", "fusion_lon": 0.0, "type": "electric_scooter", "name": "817bdabccf7cf0145f1c3638efc1942a", "rental_uris": {"android": "https://dc.lft.to/lastmile_qr_scan", "ios": "https://dc.lft.to/lastmile_qr_scan"}, "fusion_lat": 0.0, "lat": 38.88743433333333, "is_disabled": 0, "lon": -77.0282755, "is_reserved": 0}, {"bike_id": "1c470ea4497f5393a8ff13c11a50ee43", "fusion_lon": 0.0, "type": "electric_bike", "name": "1c470ea4497f5393a8ff13c11a50ee43", "rental_uris": {"android": "https://dc.lft.to/lastmile_qr_scan", "ios": "https://dc.lft.to/lastmile_qr_scan"}, "fusion_lat": 0.0, "lat": 38.89638016666667, "is_disabled": 0, "lon": -76.94785316666666, "is_reserved": 0}, {"bike_id": "b403f50d4ba77b580a3f856940339fc2", "fusion_lon": 0.0, "type": "electric_scooter", "name": "b403f50d4ba77b580a3f856940339fc2", "rental_uris": {"android": "https://dc.lft.to/lastmile_qr_scan", "ios": "https://dc.lft.to/lastmile_qr_scan"}, "fusion_lat": 0.0, "lat": 38.89481033333333, "is_disabled": 0, "lon": -77.04540683333333, "is_reserved": 0}, {"bike_id": "fa6e6a2723e24f5930880f7b8b79d0d8", "fusion_lon": 0.0, "type": "electric_scooter", "name": "fa6e6a2723e24f5930880f7b8b79d0d8", "rental_uris": {"android": "https://dc.lft.to/lastmile_qr_scan", "ios": "https://dc.lft.to/lastmile_qr_scan"}, "fusion_lat": 0.0, "lat": 38.937463666666666, "is_disabled": 0, "lon": -77.03483666666666, "is_reserved": 0}, {"bike_id": "06df6df1dddd927c7d043f84fb6619fd", "fusion_lon": 0.0, "type": "electric_scooter", "name": "06df6df1dddd927c7d043f84fb6619fd", "rental_uris": {"android": "https://dc.lft.to/lastmile_qr_scan", "ios": "https://dc.lft.to/lastmile_qr_scan"}, "fusion_lat": 0.0, "lat": 38.892398, "is_disabled": 0, "lon": -77.03199216666667, "is_reserved": 0}, {"bike_id": "61b615fd3d03bddef86f614e2f462171", "fusion_lon": 0.0, "type": "electric_bike", "name": "61b615fd3d03bddef86f614e2f462171", "rental_uris": {"android": "https://dc.lft.to/lastmile_qr_scan", "ios": "https://dc.lft.to/lastmile_qr_scan"}, "fusion_lat": 0.0, "lat": 38.925814333333335, "is_disabled": 0, "lon": -76.98607233333334, "is_reserved": 0}, {"bike_id": "0b122853e52d297b9d5adf6a2ac3b28c", "fusion_lon": 0.0, "type": "electric_scooter", "name": "0b122853e52d297b9d5adf6a2ac3b28c", "rental_uris": {"android": "https://dc.lft.to/lastmile_qr_scan", "ios": "https://dc.lft.to/lastmile_qr_scan"}, "fusion_lat": 0.0, "lat": 38.90870683333333, "is_disabled": 0, "lon": -76.99957416666666, "is_reserved": 0}, {"bike_id": "ca2b5a8d55c14fdd6d39b4a870187c3a", "fusion_lon": 0.0, "type": "electric_scooter", "name": "ca2b5a8d55c14fdd6d39b4a870187c3a", "rental_uris": {"android": "https://dc.lft.to/lastmile_qr_scan", "ios": "https://dc.lft.to/lastmile_qr_scan"}, "fusion_lat": 0.0, "lat": 38.898469166666665, "is_disabled": 0, "lon": -77.03334833333334, "is_reserved": 0}, {"bike_id": "2bf01d8b1a492803e59058bda802f660", "fusion_lon": 0.0, "type": "electric_scooter", "name": "2bf01d8b1a492803e59058bda802f660", "rental_uris": {"android": "https://dc.lft.to/lastmile_qr_scan", "ios": "https://dc.lft.to/lastmile_qr_scan"}, "fusion_lat": 0.0, "lat": 38.939203, "is_disabled": 0, "lon": -77.01898916666667, "is_reserved": 0}, {"bike_id": "0b904232920cda88dd403fa7c5ccc603", "fusion_lon": 0.0, "type": "electric_scooter", "name": "0b904232920cda88dd403fa7c5ccc603", "rental_uris": {"android": "https://dc.lft.to/lastmile_qr_scan", "ios": "https://dc.lft.to/lastmile_qr_scan"}, "fusion_lat": 0.0, "lat": 38.84295433333333, "is_disabled": 0, "lon": -76.99083033333334, "is_reserved": 0}, {"bike_id": "42c2223e2de09969a86dbbf7cd2b0647", "fusion_lon": 0.0, "type": "electric_scooter", "name": "42c2223e2de09969a86dbbf7cd2b0647", "rental_uris": {"android": "https://dc.lft.to/lastmile_qr_scan", "ios": "https://dc.lft.to/lastmile_qr_scan"}, "fusion_lat": 0.0, "lat": 38.920326833333334, "is_disabled": 0, "lon": -76.97016033333334, "is_reserved": 0}, {"bike_id": "cf8eaa02a851f90956663a0b308ec686", "fusion_lon": 0.0, "type": "electric_scooter", "name": "cf8eaa02a851f90956663a0b308ec686", "rental_uris": {"android": "https://dc.lft.to/lastmile_qr_scan", "ios": "https://dc.lft.to/lastmile_qr_scan"}, "fusion_lat": 0.0, "lat": 38.907256333333336, "is_disabled": 0, "lon": -77.02373716666666, "is_reserved": 0}, {"bike_id": "81cb23ad9ae34efc63504effbf328db1", "fusion_lon": 0.0, "type": "electric_scooter", "name": "81cb23ad9ae34efc63504effbf328db1", "rental_uris": {"android": "https://dc.lft.to/lastmile_qr_scan", "ios": "https://dc.lft.to/lastmile_qr_scan"}, "fusion_lat": 0.0, "lat": 38.9038855, "is_disabled": 0, "lon": -76.98017666666667, "is_reserved": 0}, {"bike_id": "a60c1a3f87fc232467f339699b15f41b", "fusion_lon": 0.0, "type": "electric_scooter", "name": "a60c1a3f87fc232467f339699b15f41b", "rental_uris": {"android": "https://dc.lft.to/lastmile_qr_scan", "ios": "https://dc.lft.to/lastmile_qr_scan"}, "fusion_lat": 0.0, "lat": 38.88746483333333, "is_disabled": 0, "lon": -77.0282855, "is_reserved": 0}, {"bike_id": "0de06a476f71ad5b0334f7d0310888ee", "fusion_lon": 0.0, "type": "electric_bike", "name": "0de06a476f71ad5b0334f7d0310888ee", "rental_uris": {"android": "https://dc.lft.to/lastmile_qr_scan", "ios": "https://dc.lft.to/lastmile_qr_scan"}, "fusion_lat": 0.0, "lat": 38.88533183333333, "is_disabled": 0, "lon": -76.935674, "is_reserved": 0}, {"bike_id": "5c8eeaae2810ace8701159b5b5501da4", "fusion_lon": 0.0, "type": "electric_scooter", "name": "5c8eeaae2810ace8701159b5b5501da4", "rental_uris": {"android": "https://dc.lft.to/lastmile_qr_scan", "ios": "https://dc.lft.to/lastmile_qr_scan"}, "fusion_lat": 0.0, "lat": 38.9057115, "is_disabled": 0, "lon": -77.01679616666667, "is_reserved": 0}, {"bike_id": "8058e8ec87ea95ffaaea7e713f00f757", "fusion_lon": 0.0, "type": "electric_bike", "name": "8058e8ec87ea95ffaaea7e713f00f757", "rental_uris": {"android": "https://dc.lft.to/lastmile_qr_scan", "ios": "https://dc.lft.to/lastmile_qr_scan"}, "fusion_lat": 0.0, "lat": 38.91924816666667, "is_disabled": 0, "lon": -77.07062633333334, "is_reserved": 0}, {"bike_id": "48a96a75376755474a7cf90744a63e83", "fusion_lon": 0.0, "type": "electric_bike", "name": "48a96a75376755474a7cf90744a63e83", "rental_uris": {"android": "https://dc.lft.to/lastmile_qr_scan", "ios": "https://dc.lft.to/lastmile_qr_scan"}, "fusion_lat": 0.0, "lat": 38.962656, "is_disabled": 0, "lon": -77.0107535, "is_reserved": 0}, {"bike_id": "1482ed5c23ff52a94f79ee596df839d0", "fusion_lon": 0.0, "type": "electric_scooter", "name": "1482ed5c23ff52a94f79ee596df839d0", "rental_uris": {"android": "https://dc.lft.to/lastmile_qr_scan", "ios": "https://dc.lft.to/lastmile_qr_scan"}, "fusion_lat": 0.0, "lat": 38.910471333333334, "is_disabled": 0, "lon": -77.00908516666667, "is_reserved": 0}, {"bike_id": "fd396ee0dddeeaa60b39c8f3405f6410", "fusion_lon": 0.0, "type": "electric_bike", "name": "fd396ee0dddeeaa60b39c8f3405f6410", "rental_uris": {"android": "https://dc.lft.to/lastmile_qr_scan", "ios": "https://dc.lft.to/lastmile_qr_scan"}, "fusion_lat": 0.0, "lat": 38.90576433333333, "is_disabled": 0, "lon": -77.0169935, "is_reserved": 0}, {"bike_id": "167d09bf22a1dfefbe1ca2e310842577", "fusion_lon": 0.0, "type": "electric_scooter", "name": "167d09bf22a1dfefbe1ca2e310842577", "rental_uris": {"android": "https://dc.lft.to/lastmile_qr_scan", "ios": "https://dc.lft.to/lastmile_qr_scan"}, "fusion_lat": 0.0, "lat": 38.92794716666667, "is_disabled": 0, "lon": -77.03076466666667, "is_reserved": 0}, {"bike_id": "d81e5f46243f8ca120dcbe34ddf8b5b4", "fusion_lon": 0.0, "type": "electric_scooter", "name": "d81e5f46243f8ca120dcbe34ddf8b5b4", "rental_uris": {"android": "https://dc.lft.to/lastmile_qr_scan", "ios": "https://dc.lft.to/lastmile_qr_scan"}, "fusion_lat": 0.0, "lat": 38.93360466666667, "is_disabled": 0, "lon": -77.03725766666666, "is_reserved": 0}, {"bike_id": "2ef76030af5c93d41717f3d687490e6e", "fusion_lon": 0.0, "type": "electric_scooter", "name": "2ef76030af5c93d41717f3d687490e6e", "rental_uris": {"android": "https://dc.lft.to/lastmile_qr_scan", "ios": "https://dc.lft.to/lastmile_qr_scan"}, "fusion_lat": 0.0, "lat": 38.902645, "is_disabled": 0, "lon": -77.029278, "is_reserved": 0}, {"bike_id": "45f8871871f4f3a3bfb5bec5852d5706", "fusion_lon": 0.0, "type": "electric_scooter", "name": "45f8871871f4f3a3bfb5bec5852d5706", "rental_uris": {"android": "https://dc.lft.to/lastmile_qr_scan", "ios": "https://dc.lft.to/lastmile_qr_scan"}, "fusion_lat": 0.0, "lat": 38.85463816666667, "is_disabled": 0, "lon": -76.98613066666667, "is_reserved": 0}, {"bike_id": "899e9d5036f197d8e53f6e0aa12a2e3b", "fusion_lon": 0.0, "type": "electric_bike", "name": "899e9d5036f197d8e53f6e0aa12a2e3b", "rental_uris": {"android": "https://dc.lft.to/lastmile_qr_scan", "ios": "https://dc.lft.to/lastmile_qr_scan"}, "fusion_lat": 0.0, "lat": 38.83915983333333, "is_disabled": 0, "lon": -76.998349, "is_reserved": 0}, {"bike_id": "94b2c19c2bc394fca627d36849eb377b", "fusion_lon": 0.0, "type": "electric_scooter", "name": "94b2c19c2bc394fca627d36849eb377b", "rental_uris": {"android": "https://dc.lft.to/lastmile_qr_scan", "ios": "https://dc.lft.to/lastmile_qr_scan"}, "fusion_lat": 0.0, "lat": 38.90265466666666, "is_disabled": 0, "lon": -77.03190816666667, "is_reserved": 0}, {"bike_id": "d0aa76b3e78e9820d6febaf183af3fb9", "fusion_lon": 0.0, "type": "electric_scooter", "name": "d0aa76b3e78e9820d6febaf183af3fb9", "rental_uris": {"android": "https://dc.lft.to/lastmile_qr_scan", "ios": "https://dc.lft.to/lastmile_qr_scan"}, "fusion_lat": 0.0, "lat": 38.895278166666664, "is_disabled": 0, "lon": -76.94897083333333, "is_reserved": 0}, {"bike_id": "d37919d9bbcd0ff36acc4d3453b6221d", "fusion_lon": 0.0, "type": "electric_scooter", "name": "d37919d9bbcd0ff36acc4d3453b6221d", "rental_uris": {"android": "https://dc.lft.to/lastmile_qr_scan", "ios": "https://dc.lft.to/lastmile_qr_scan"}, "fusion_lat": 0.0, "lat": 38.9056495, "is_disabled": 0, "lon": -77.00597666666667, "is_reserved": 0}, {"bike_id": "a098f780bc5199b295d92f384ed80c40", "fusion_lon": 0.0, "type": "electric_scooter", "name": "a098f780bc5199b295d92f384ed80c40", "rental_uris": {"android": "https://dc.lft.to/lastmile_qr_scan", "ios": "https://dc.lft.to/lastmile_qr_scan"}, "fusion_lat": 0.0, "lat": 38.91983283333333, "is_disabled": 0, "lon": -77.03961016666666, "is_reserved": 0}, {"bike_id": "3c07409b5a447fe1b0c4849a0c2aa078", "fusion_lon": 0.0, "type": "electric_scooter", "name": "3c07409b5a447fe1b0c4849a0c2aa078", "rental_uris": {"android": "https://dc.lft.to/lastmile_qr_scan", "ios": "https://dc.lft.to/lastmile_qr_scan"}, "fusion_lat": 0.0, "lat": 38.918866, "is_disabled": 0, "lon": -77.02183066666667, "is_reserved": 0}, {"bike_id": "4977f5f5ea64ea1eea48ab8675d7adb3", "fusion_lon": 0.0, "type": "electric_scooter", "name": "4977f5f5ea64ea1eea48ab8675d7adb3", "rental_uris": {"android": "https://dc.lft.to/lastmile_qr_scan", "ios": "https://dc.lft.to/lastmile_qr_scan"}, "fusion_lat": 0.0, "lat": 38.892220333333334, "is_disabled": 0, "lon": -77.02685533333333, "is_reserved": 0}, {"bike_id": "635d63060f16a4ae7ebe2f208dab19c5", "fusion_lon": 0.0, "type": "electric_scooter", "name": "635d63060f16a4ae7ebe2f208dab19c5", "rental_uris": {"android": "https://dc.lft.to/lastmile_qr_scan", "ios": "https://dc.lft.to/lastmile_qr_scan"}, "fusion_lat": 0.0, "lat": 38.900889166666666, "is_disabled": 0, "lon": -76.93854083333333, "is_reserved": 0}, {"bike_id": "a072de32ffcec0a32fe3de797d56a7a4", "fusion_lon": 0.0, "type": "electric_scooter", "name": "a072de32ffcec0a32fe3de797d56a7a4", "rental_uris": {"android": "https://dc.lft.to/lastmile_qr_scan", "ios": "https://dc.lft.to/lastmile_qr_scan"}, "fusion_lat": 0.0, "lat": 38.92519033333333, "is_disabled": 0, "lon": -77.05226583333334, "is_reserved": 0}, {"bike_id": "2faf80399cab12e6b4dba5ebcfbff3e9", "fusion_lon": 0.0, "type": "electric_scooter", "name": "2faf80399cab12e6b4dba5ebcfbff3e9", "rental_uris": {"android": "https://dc.lft.to/lastmile_qr_scan", "ios": "https://dc.lft.to/lastmile_qr_scan"}, "fusion_lat": 0.0, "lat": 38.9369645, "is_disabled": 0, "lon": -77.03282866666666, "is_reserved": 0}, {"bike_id": "632953e769991c461dcc64ab324eaa24", "fusion_lon": 0.0, "type": "electric_scooter", "name": "632953e769991c461dcc64ab324eaa24", "rental_uris": {"android": "https://dc.lft.to/lastmile_qr_scan", "ios": "https://dc.lft.to/lastmile_qr_scan"}, "fusion_lat": 0.0, "lat": 38.900318666666664, "is_disabled": 0, "lon": -77.05309966666667, "is_reserved": 0}, {"bike_id": "7187d20326e4c32339e6830b2e183f6c", "fusion_lon": 0.0, "type": "electric_bike", "name": "7187d20326e4c32339e6830b2e183f6c", "rental_uris": {"android": "https://dc.lft.to/lastmile_qr_scan", "ios": "https://dc.lft.to/lastmile_qr_scan"}, "fusion_lat": 0.0, "lat": 38.93215133333333, "is_disabled": 0, "lon": -77.02345, "is_reserved": 0}, {"bike_id": "f4489e1100d071ae9c15201f23ef80a4", "fusion_lon": 0.0, "type": "electric_scooter", "name": "f4489e1100d071ae9c15201f23ef80a4", "rental_uris": {"android": "https://dc.lft.to/lastmile_qr_scan", "ios": "https://dc.lft.to/lastmile_qr_scan"}, "fusion_lat": 0.0, "lat": 38.920938, "is_disabled": 0, "lon": -77.0364565, "is_reserved": 0}, {"bike_id": "901fb377983e3d6e066dc6c1b55fd89f", "fusion_lon": 0.0, "type": "electric_scooter", "name": "901fb377983e3d6e066dc6c1b55fd89f", "rental_uris": {"android": "https://dc.lft.to/lastmile_qr_scan", "ios": "https://dc.lft.to/lastmile_qr_scan"}, "fusion_lat": 0.0, "lat": 38.902847666666666, "is_disabled": 0, "lon": -77.0364905, "is_reserved": 0}, {"bike_id": "9d5dc5ca1993e24af2ff20a9a52fc104", "fusion_lon": 0.0, "type": "electric_scooter", "name": "9d5dc5ca1993e24af2ff20a9a52fc104", "rental_uris": {"android": "https://dc.lft.to/lastmile_qr_scan", "ios": "https://dc.lft.to/lastmile_qr_scan"}, "fusion_lat": 0.0, "lat": 38.9189105, "is_disabled": 0, "lon": -77.03767933333333, "is_reserved": 0}, {"bike_id": "adcd46d0e11bf23ec56e8b8f9b2ea9e0", "fusion_lon": 0.0, "type": "electric_scooter", "name": "adcd46d0e11bf23ec56e8b8f9b2ea9e0", "rental_uris": {"android": "https://dc.lft.to/lastmile_qr_scan", "ios": "https://dc.lft.to/lastmile_qr_scan"}, "fusion_lat": 0.0, "lat": 38.9185565, "is_disabled": 0, "lon": -77.03198733333333, "is_reserved": 0}, {"bike_id": "3efce4dfb7b2405926543fd3099127e5", "fusion_lon": 0.0, "type": "electric_scooter", "name": "3efce4dfb7b2405926543fd3099127e5", "rental_uris": {"android": "https://dc.lft.to/lastmile_qr_scan", "ios": "https://dc.lft.to/lastmile_qr_scan"}, "fusion_lat": 0.0, "lat": 38.928913333333334, "is_disabled": 0, "lon": -77.02707416666667, "is_reserved": 0}, {"bike_id": "95a583eb632e66535e12e0276fb92ef2", "fusion_lon": 0.0, "type": "electric_bike", "name": "95a583eb632e66535e12e0276fb92ef2", "rental_uris": {"android": "https://dc.lft.to/lastmile_qr_scan", "ios": "https://dc.lft.to/lastmile_qr_scan"}, "fusion_lat": 0.0, "lat": 38.85064583333333, "is_disabled": 0, "lon": -76.97327716666666, "is_reserved": 0}, {"bike_id": "d0b09081ba91854ed0c4289b7a1bbfe2", "fusion_lon": 0.0, "type": "electric_scooter", "name": "d0b09081ba91854ed0c4289b7a1bbfe2", "rental_uris": {"android": "https://dc.lft.to/lastmile_qr_scan", "ios": "https://dc.lft.to/lastmile_qr_scan"}, "fusion_lat": 0.0, "lat": 38.91253916666667, "is_disabled": 0, "lon": -77.038676, "is_reserved": 0}, {"bike_id": "72dc944b5172b60e12c122a13acf67bd", "fusion_lon": 0.0, "type": "electric_scooter", "name": "72dc944b5172b60e12c122a13acf67bd", "rental_uris": {"android": "https://dc.lft.to/lastmile_qr_scan", "ios": "https://dc.lft.to/lastmile_qr_scan"}, "fusion_lat": 0.0, "lat": 38.911479666666665, "is_disabled": 0, "lon": -77.02799583333334, "is_reserved": 0}, {"bike_id": "e77e88cfd2160c82171eeaa14cac78f9", "fusion_lon": 0.0, "type": "electric_scooter", "name": "e77e88cfd2160c82171eeaa14cac78f9", "rental_uris": {"android": "https://dc.lft.to/lastmile_qr_scan", "ios": "https://dc.lft.to/lastmile_qr_scan"}, "fusion_lat": 0.0, "lat": 38.9101205, "is_disabled": 0, "lon": -77.05267966666666, "is_reserved": 0}, {"bike_id": "d8c7edb9f2a4d99595afaadd028c75fb", "fusion_lon": 0.0, "type": "electric_scooter", "name": "d8c7edb9f2a4d99595afaadd028c75fb", "rental_uris": {"android": "https://dc.lft.to/lastmile_qr_scan", "ios": "https://dc.lft.to/lastmile_qr_scan"}, "fusion_lat": 0.0, "lat": 38.91022666666667, "is_disabled": 0, "lon": -77.02211483333333, "is_reserved": 0}, {"bike_id": "a3171bfc02f1806be0e61b0144c7f8af", "fusion_lon": 0.0, "type": "electric_scooter", "name": "a3171bfc02f1806be0e61b0144c7f8af", "rental_uris": {"android": "https://dc.lft.to/lastmile_qr_scan", "ios": "https://dc.lft.to/lastmile_qr_scan"}, "fusion_lat": 0.0, "lat": 38.90037, "is_disabled": 0, "lon": -77.0447115, "is_reserved": 0}, {"bike_id": "1c9d7498d110d97a07f46ad7301ec796", "fusion_lon": 0.0, "type": "electric_scooter", "name": "1c9d7498d110d97a07f46ad7301ec796", "rental_uris": {"android": "https://dc.lft.to/lastmile_qr_scan", "ios": "https://dc.lft.to/lastmile_qr_scan"}, "fusion_lat": 0.0, "lat": 38.89949716666667, "is_disabled": 0, "lon": -76.98540183333333, "is_reserved": 0}, {"bike_id": "3f5b2d8dfbe047eca79a31e04550d6ed", "fusion_lon": 0.0, "type": "electric_scooter", "name": "3f5b2d8dfbe047eca79a31e04550d6ed", "rental_uris": {"android": "https://dc.lft.to/lastmile_qr_scan", "ios": "https://dc.lft.to/lastmile_qr_scan"}, "fusion_lat": 0.0, "lat": 38.92300133333333, "is_disabled": 0, "lon": -77.0414315, "is_reserved": 0}, {"bike_id": "6cb16127a655068163087320b6534cc6", "fusion_lon": 0.0, "type": "electric_scooter", "name": "6cb16127a655068163087320b6534cc6", "rental_uris": {"android": "https://dc.lft.to/lastmile_qr_scan", "ios": "https://dc.lft.to/lastmile_qr_scan"}, "fusion_lat": 0.0, "lat": 38.91268566666667, "is_disabled": 0, "lon": -77.037275, "is_reserved": 0}, {"bike_id": "16aa57e31488dc88a08c0ea666b35a67", "fusion_lon": 0.0, "type": "electric_scooter", "name": "16aa57e31488dc88a08c0ea666b35a67", "rental_uris": {"android": "https://dc.lft.to/lastmile_qr_scan", "ios": "https://dc.lft.to/lastmile_qr_scan"}, "fusion_lat": 0.0, "lat": 38.930753833333334, "is_disabled": 0, "lon": -77.02784716666666, "is_reserved": 0}, {"bike_id": "a5cf293cfee351bf8988279f9ffb1547", "fusion_lon": 0.0, "type": "electric_scooter", "name": "a5cf293cfee351bf8988279f9ffb1547", "rental_uris": {"android": "https://dc.lft.to/lastmile_qr_scan", "ios": "https://dc.lft.to/lastmile_qr_scan"}, "fusion_lat": 0.0, "lat": 38.9003185, "is_disabled": 0, "lon": -77.0011745, "is_reserved": 0}, {"bike_id": "cd178e8bf9c296f11e7471d9fafce195", "fusion_lon": 0.0, "type": "electric_scooter", "name": "cd178e8bf9c296f11e7471d9fafce195", "rental_uris": {"android": "https://dc.lft.to/lastmile_qr_scan", "ios": "https://dc.lft.to/lastmile_qr_scan"}, "fusion_lat": 0.0, "lat": 38.920281833333334, "is_disabled": 0, "lon": -77.03724683333333, "is_reserved": 0}, {"bike_id": "fc965d56b196487547c6c64aaa7df801", "fusion_lon": 0.0, "type": "electric_scooter", "name": "fc965d56b196487547c6c64aaa7df801", "rental_uris": {"android": "https://dc.lft.to/lastmile_qr_scan", "ios": "https://dc.lft.to/lastmile_qr_scan"}, "fusion_lat": 0.0, "lat": 38.92429716666667, "is_disabled": 0, "lon": -77.05196533333333, "is_reserved": 0}, {"bike_id": "37ccaf33ded5df6509a8c25c4a815d41", "fusion_lon": 0.0, "type": "electric_scooter", "name": "37ccaf33ded5df6509a8c25c4a815d41", "rental_uris": {"android": "https://dc.lft.to/lastmile_qr_scan", "ios": "https://dc.lft.to/lastmile_qr_scan"}, "fusion_lat": 0.0, "lat": 38.90043566666667, "is_disabled": 0, "lon": -76.98827166666666, "is_reserved": 0}, {"bike_id": "75b49f0b0fc11ed907c83f627d3aa1bf", "fusion_lon": 0.0, "type": "electric_scooter", "name": "75b49f0b0fc11ed907c83f627d3aa1bf", "rental_uris": {"android": "https://dc.lft.to/lastmile_qr_scan", "ios": "https://dc.lft.to/lastmile_qr_scan"}, "fusion_lat": 0.0, "lat": 38.89535266666667, "is_disabled": 0, "lon": -77.03348433333333, "is_reserved": 0}, {"bike_id": "8a3e4b15cd6790ba625df15443538e07", "fusion_lon": 0.0, "type": "electric_scooter", "name": "8a3e4b15cd6790ba625df15443538e07", "rental_uris": {"android": "https://dc.lft.to/lastmile_qr_scan", "ios": "https://dc.lft.to/lastmile_qr_scan"}, "fusion_lat": 0.0, "lat": 38.91860583333333, "is_disabled": 0, "lon": -77.0159005, "is_reserved": 0}, {"bike_id": "d4f9f4f25ffa446b4833ad692cfb0d6b", "fusion_lon": 0.0, "type": "electric_scooter", "name": "d4f9f4f25ffa446b4833ad692cfb0d6b", "rental_uris": {"android": "https://dc.lft.to/lastmile_qr_scan", "ios": "https://dc.lft.to/lastmile_qr_scan"}, "fusion_lat": 0.0, "lat": 38.90858133333333, "is_disabled": 0, "lon": -77.03276633333333, "is_reserved": 0}, {"bike_id": "c2eb61862b5f95a18ef86ec88e4ddfbf", "fusion_lon": 0.0, "type": "electric_scooter", "name": "c2eb61862b5f95a18ef86ec88e4ddfbf", "rental_uris": {"android": "https://dc.lft.to/lastmile_qr_scan", "ios": "https://dc.lft.to/lastmile_qr_scan"}, "fusion_lat": 0.0, "lat": 38.88814633333333, "is_disabled": 0, "lon": -76.998408, "is_reserved": 0}, {"bike_id": "40dbf7f9a1805dbb27edabff8c2d1da8", "fusion_lon": 0.0, "type": "electric_scooter", "name": "40dbf7f9a1805dbb27edabff8c2d1da8", "rental_uris": {"android": "https://dc.lft.to/lastmile_qr_scan", "ios": "https://dc.lft.to/lastmile_qr_scan"}, "fusion_lat": 0.0, "lat": 38.865747999999996, "is_disabled": 0, "lon": -76.97411483333333, "is_reserved": 0}, {"bike_id": "1abb50d3fd5df1d9fbfe0e7ce98c9b7f", "fusion_lon": 0.0, "type": "electric_scooter", "name": "1abb50d3fd5df1d9fbfe0e7ce98c9b7f", "rental_uris": {"android": "https://dc.lft.to/lastmile_qr_scan", "ios": "https://dc.lft.to/lastmile_qr_scan"}, "fusion_lat": 0.0, "lat": 38.871111166666665, "is_disabled": 0, "lon": -77.010703, "is_reserved": 0}, {"bike_id": "4296f98663e665f5be44701396222f63", "fusion_lon": 0.0, "type": "electric_scooter", "name": "4296f98663e665f5be44701396222f63", "rental_uris": {"android": "https://dc.lft.to/lastmile_qr_scan", "ios": "https://dc.lft.to/lastmile_qr_scan"}, "fusion_lat": 0.0, "lat": 38.8765, "is_disabled": 0, "lon": -76.96506116666667, "is_reserved": 0}, {"bike_id": "8af53865993dbcef7d05dcb6dff0c598", "fusion_lon": 0.0, "type": "electric_scooter", "name": "8af53865993dbcef7d05dcb6dff0c598", "rental_uris": {"android": "https://dc.lft.to/lastmile_qr_scan", "ios": "https://dc.lft.to/lastmile_qr_scan"}, "fusion_lat": 0.0, "lat": 38.900261, "is_disabled": 0, "lon": -77.03205233333334, "is_reserved": 0}, {"bike_id": "afbef7a93f5d8f99d82db6d3b87c3332", "fusion_lon": 0.0, "type": "electric_scooter", "name": "afbef7a93f5d8f99d82db6d3b87c3332", "rental_uris": {"android": "https://dc.lft.to/lastmile_qr_scan", "ios": "https://dc.lft.to/lastmile_qr_scan"}, "fusion_lat": 0.0, "lat": 38.90874, "is_disabled": 0, "lon": -77.02348933333333, "is_reserved": 0}, {"bike_id": "33dbf6dd82ce64ff9c05c9c5c84c47b1", "fusion_lon": 0.0, "type": "electric_scooter", "name": "33dbf6dd82ce64ff9c05c9c5c84c47b1", "rental_uris": {"android": "https://dc.lft.to/lastmile_qr_scan", "ios": "https://dc.lft.to/lastmile_qr_scan"}, "fusion_lat": 0.0, "lat": 38.9185765, "is_disabled": 0, "lon": -76.96549516666667, "is_reserved": 0}, {"bike_id": "6f964caa6a00abbadc11187fe9749768", "fusion_lon": 0.0, "type": "electric_scooter", "name": "6f964caa6a00abbadc11187fe9749768", "rental_uris": {"android": "https://dc.lft.to/lastmile_qr_scan", "ios": "https://dc.lft.to/lastmile_qr_scan"}, "fusion_lat": 0.0, "lat": 38.858709, "is_disabled": 0, "lon": -76.99028416666667, "is_reserved": 0}, {"bike_id": "a14883b5b554a2454ba9b768eb2278d4", "fusion_lon": 0.0, "type": "electric_scooter", "name": "a14883b5b554a2454ba9b768eb2278d4", "rental_uris": {"android": "https://dc.lft.to/lastmile_qr_scan", "ios": "https://dc.lft.to/lastmile_qr_scan"}, "fusion_lat": 0.0, "lat": 38.887434999999996, "is_disabled": 0, "lon": -77.024, "is_reserved": 0}, {"bike_id": "c5c681c1abf68ebdb47f7df41970ce37", "fusion_lon": 0.0, "type": "electric_scooter", "name": "c5c681c1abf68ebdb47f7df41970ce37", "rental_uris": {"android": "https://dc.lft.to/lastmile_qr_scan", "ios": "https://dc.lft.to/lastmile_qr_scan"}, "fusion_lat": 0.0, "lat": 38.92280733333333, "is_disabled": 0, "lon": -77.043876, "is_reserved": 0}, {"bike_id": "2bcc3ad6262584b392a81b9adcae2b36", "fusion_lon": 0.0, "type": "electric_bike", "name": "2bcc3ad6262584b392a81b9adcae2b36", "rental_uris": {"android": "https://dc.lft.to/lastmile_qr_scan", "ios": "https://dc.lft.to/lastmile_qr_scan"}, "fusion_lat": 0.0, "lat": 38.937030166666666, "is_disabled": 0, "lon": -77.02975866666667, "is_reserved": 0}, {"bike_id": "6fd25167f2865a4770cd15eb942d8c43", "fusion_lon": 0.0, "type": "electric_scooter", "name": "6fd25167f2865a4770cd15eb942d8c43", "rental_uris": {"android": "https://dc.lft.to/lastmile_qr_scan", "ios": "https://dc.lft.to/lastmile_qr_scan"}, "fusion_lat": 0.0, "lat": 38.908175166666666, "is_disabled": 0, "lon": -77.01820983333333, "is_reserved": 0}, {"bike_id": "4d89da1a63c8df122a24c80f49a86529", "fusion_lon": 0.0, "type": "electric_bike", "name": "4d89da1a63c8df122a24c80f49a86529", "rental_uris": {"android": "https://dc.lft.to/lastmile_qr_scan", "ios": "https://dc.lft.to/lastmile_qr_scan"}, "fusion_lat": 0.0, "lat": 39.05212566666667, "is_disabled": 0, "lon": -77.10905116666666, "is_reserved": 0}, {"bike_id": "559696c22e662da7fa842a8522d2989f", "fusion_lon": 0.0, "type": "electric_scooter", "name": "559696c22e662da7fa842a8522d2989f", "rental_uris": {"android": "https://dc.lft.to/lastmile_qr_scan", "ios": "https://dc.lft.to/lastmile_qr_scan"}, "fusion_lat": 0.0, "lat": 38.9180765, "is_disabled": 0, "lon": -77.034311, "is_reserved": 0}, {"bike_id": "6307a4fce9252cb9a660fa4d36011308", "fusion_lon": 0.0, "type": "electric_scooter", "name": "6307a4fce9252cb9a660fa4d36011308", "rental_uris": {"android": "https://dc.lft.to/lastmile_qr_scan", "ios": "https://dc.lft.to/lastmile_qr_scan"}, "fusion_lat": 0.0, "lat": 38.9148415, "is_disabled": 0, "lon": -77.03216616666667, "is_reserved": 0}, {"bike_id": "b1fdbfecdd906dd4452d5fdacf3989b6", "fusion_lon": 0.0, "type": "electric_scooter", "name": "b1fdbfecdd906dd4452d5fdacf3989b6", "rental_uris": {"android": "https://dc.lft.to/lastmile_qr_scan", "ios": "https://dc.lft.to/lastmile_qr_scan"}, "fusion_lat": 0.0, "lat": 38.904764166666666, "is_disabled": 0, "lon": -77.007256, "is_reserved": 0}, {"bike_id": "ae9f675aef10f8e2fe7f08846cb7a6e9", "fusion_lon": 0.0, "type": "electric_scooter", "name": "ae9f675aef10f8e2fe7f08846cb7a6e9", "rental_uris": {"android": "https://dc.lft.to/lastmile_qr_scan", "ios": "https://dc.lft.to/lastmile_qr_scan"}, "fusion_lat": 0.0, "lat": 38.904422, "is_disabled": 0, "lon": -77.051493, "is_reserved": 0}, {"bike_id": "7fba80e17567831a665675801f9a9d17", "fusion_lon": 0.0, "type": "electric_scooter", "name": "7fba80e17567831a665675801f9a9d17", "rental_uris": {"android": "https://dc.lft.to/lastmile_qr_scan", "ios": "https://dc.lft.to/lastmile_qr_scan"}, "fusion_lat": 0.0, "lat": 38.880045333333335, "is_disabled": 0, "lon": -76.98540033333333, "is_reserved": 0}, {"bike_id": "5db9b0e7f1d6590502eeecc84fc61b14", "fusion_lon": 0.0, "type": "electric_scooter", "name": "5db9b0e7f1d6590502eeecc84fc61b14", "rental_uris": {"android": "https://dc.lft.to/lastmile_qr_scan", "ios": "https://dc.lft.to/lastmile_qr_scan"}, "fusion_lat": 0.0, "lat": 38.89228633333333, "is_disabled": 0, "lon": -77.02827, "is_reserved": 0}, {"bike_id": "dcd3b0881b182ac5d65e410b1fb6a4e1", "fusion_lon": 0.0, "type": "electric_scooter", "name": "dcd3b0881b182ac5d65e410b1fb6a4e1", "rental_uris": {"android": "https://dc.lft.to/lastmile_qr_scan", "ios": "https://dc.lft.to/lastmile_qr_scan"}, "fusion_lat": 0.0, "lat": 38.90798933333333, "is_disabled": 0, "lon": -76.9411955, "is_reserved": 0}, {"bike_id": "3cd067436e23994164487b1798c28cb5", "fusion_lon": 0.0, "type": "electric_scooter", "name": "3cd067436e23994164487b1798c28cb5", "rental_uris": {"android": "https://dc.lft.to/lastmile_qr_scan", "ios": "https://dc.lft.to/lastmile_qr_scan"}, "fusion_lat": 0.0, "lat": 38.9155605, "is_disabled": 0, "lon": -77.02205516666666, "is_reserved": 0}, {"bike_id": "bc61f16e8e0d5b810f1a9df626a4602c", "fusion_lon": 0.0, "type": "electric_scooter", "name": "bc61f16e8e0d5b810f1a9df626a4602c", "rental_uris": {"android": "https://dc.lft.to/lastmile_qr_scan", "ios": "https://dc.lft.to/lastmile_qr_scan"}, "fusion_lat": 0.0, "lat": 38.8990755, "is_disabled": 0, "lon": -76.93339883333333, "is_reserved": 0}, {"bike_id": "b20ea9b84702d049deb84d5b9a15eab2", "fusion_lon": 0.0, "type": "electric_scooter", "name": "b20ea9b84702d049deb84d5b9a15eab2", "rental_uris": {"android": "https://dc.lft.to/lastmile_qr_scan", "ios": "https://dc.lft.to/lastmile_qr_scan"}, "fusion_lat": 0.0, "lat": 38.93908033333334, "is_disabled": 0, "lon": -77.0603605, "is_reserved": 0}, {"bike_id": "97f2921372d71cc6d28f433ecd24ae63", "fusion_lon": 0.0, "type": "electric_scooter", "name": "97f2921372d71cc6d28f433ecd24ae63", "rental_uris": {"android": "https://dc.lft.to/lastmile_qr_scan", "ios": "https://dc.lft.to/lastmile_qr_scan"}, "fusion_lat": 0.0, "lat": 38.920529, "is_disabled": 0, "lon": -77.024256, "is_reserved": 0}, {"bike_id": "f5e7820ed05d3545fb96015b3909bf33", "fusion_lon": 0.0, "type": "electric_scooter", "name": "f5e7820ed05d3545fb96015b3909bf33", "rental_uris": {"android": "https://dc.lft.to/lastmile_qr_scan", "ios": "https://dc.lft.to/lastmile_qr_scan"}, "fusion_lat": 0.0, "lat": 38.91921383333333, "is_disabled": 0, "lon": -77.04589883333334, "is_reserved": 0}, {"bike_id": "fa73c268794fe4cd0ced9a29cbefe589", "fusion_lon": 0.0, "type": "electric_scooter", "name": "fa73c268794fe4cd0ced9a29cbefe589", "rental_uris": {"android": "https://dc.lft.to/lastmile_qr_scan", "ios": "https://dc.lft.to/lastmile_qr_scan"}, "fusion_lat": 0.0, "lat": 38.86038716666667, "is_disabled": 0, "lon": -76.983739, "is_reserved": 0}, {"bike_id": "f45793bdea209ad65a6ac27aefe16fac", "fusion_lon": 0.0, "type": "electric_scooter", "name": "f45793bdea209ad65a6ac27aefe16fac", "rental_uris": {"android": "https://dc.lft.to/lastmile_qr_scan", "ios": "https://dc.lft.to/lastmile_qr_scan"}, "fusion_lat": 0.0, "lat": 38.9156605, "is_disabled": 0, "lon": -77.03839283333333, "is_reserved": 0}, {"bike_id": "6973fa55a8b32d0cd4d9288b0e195b47", "fusion_lon": 0.0, "type": "electric_bike", "name": "6973fa55a8b32d0cd4d9288b0e195b47", "rental_uris": {"android": "https://dc.lft.to/lastmile_qr_scan", "ios": "https://dc.lft.to/lastmile_qr_scan"}, "fusion_lat": 0.0, "lat": 38.80848966666667, "is_disabled": 0, "lon": -77.08365133333334, "is_reserved": 0}, {"bike_id": "095422784b03a4cc68eb0ac6db9cf5f2", "fusion_lon": 0.0, "type": "electric_scooter", "name": "095422784b03a4cc68eb0ac6db9cf5f2", "rental_uris": {"android": "https://dc.lft.to/lastmile_qr_scan", "ios": "https://dc.lft.to/lastmile_qr_scan"}, "fusion_lat": 0.0, "lat": 38.90273283333333, "is_disabled": 0, "lon": -77.01751116666667, "is_reserved": 0}, {"bike_id": "3754679923116ae6fff45402103d3e1c", "fusion_lon": 0.0, "type": "electric_scooter", "name": "3754679923116ae6fff45402103d3e1c", "rental_uris": {"android": "https://dc.lft.to/lastmile_qr_scan", "ios": "https://dc.lft.to/lastmile_qr_scan"}, "fusion_lat": 0.0, "lat": 38.91658966666667, "is_disabled": 0, "lon": -76.98234583333333, "is_reserved": 0}, {"bike_id": "e888819532aa78ef9f2aa1c8338e086c", "fusion_lon": 0.0, "type": "electric_scooter", "name": "e888819532aa78ef9f2aa1c8338e086c", "rental_uris": {"android": "https://dc.lft.to/lastmile_qr_scan", "ios": "https://dc.lft.to/lastmile_qr_scan"}, "fusion_lat": 0.0, "lat": 38.935978, "is_disabled": 0, "lon": -77.03784, "is_reserved": 0}, {"bike_id": "b0e79fcee64da8eebb09aee78a1d12e3", "fusion_lon": 0.0, "type": "electric_scooter", "name": "b0e79fcee64da8eebb09aee78a1d12e3", "rental_uris": {"android": "https://dc.lft.to/lastmile_qr_scan", "ios": "https://dc.lft.to/lastmile_qr_scan"}, "fusion_lat": 0.0, "lat": 38.8610275, "is_disabled": 0, "lon": -76.98598533333333, "is_reserved": 0}, {"bike_id": "f066d5a7cc8e399e3ce8a5367b044788", "fusion_lon": 0.0, "type": "electric_scooter", "name": "f066d5a7cc8e399e3ce8a5367b044788", "rental_uris": {"android": "https://dc.lft.to/lastmile_qr_scan", "ios": "https://dc.lft.to/lastmile_qr_scan"}, "fusion_lat": 0.0, "lat": 38.87117583333333, "is_disabled": 0, "lon": -77.01068983333333, "is_reserved": 0}, {"bike_id": "aa32e5ce23562c4492f0889914e97764", "fusion_lon": 0.0, "type": "electric_scooter", "name": "aa32e5ce23562c4492f0889914e97764", "rental_uris": {"android": "https://dc.lft.to/lastmile_qr_scan", "ios": "https://dc.lft.to/lastmile_qr_scan"}, "fusion_lat": 0.0, "lat": 38.900282833333335, "is_disabled": 0, "lon": -76.98779666666667, "is_reserved": 0}, {"bike_id": "d23b941816431c49769fa1bef281488e", "fusion_lon": 0.0, "type": "electric_scooter", "name": "d23b941816431c49769fa1bef281488e", "rental_uris": {"android": "https://dc.lft.to/lastmile_qr_scan", "ios": "https://dc.lft.to/lastmile_qr_scan"}, "fusion_lat": 0.0, "lat": 38.90447183333333, "is_disabled": 0, "lon": -76.9756425, "is_reserved": 0}, {"bike_id": "c015d2a9a2854c4085d4d5d8d3d51b58", "fusion_lon": 0.0, "type": "electric_scooter", "name": "c015d2a9a2854c4085d4d5d8d3d51b58", "rental_uris": {"android": "https://dc.lft.to/lastmile_qr_scan", "ios": "https://dc.lft.to/lastmile_qr_scan"}, "fusion_lat": 0.0, "lat": 38.90034933333333, "is_disabled": 0, "lon": -77.00156716666666, "is_reserved": 0}, {"bike_id": "98dc52b1d17081545b72f94024ca070d", "fusion_lon": 0.0, "type": "electric_scooter", "name": "98dc52b1d17081545b72f94024ca070d", "rental_uris": {"android": "https://dc.lft.to/lastmile_qr_scan", "ios": "https://dc.lft.to/lastmile_qr_scan"}, "fusion_lat": 0.0, "lat": 38.9182365, "is_disabled": 0, "lon": -77.039981, "is_reserved": 0}, {"bike_id": "21ca1f303c3dabd1b5fe32dfd3812e87", "fusion_lon": 0.0, "type": "electric_bike", "name": "21ca1f303c3dabd1b5fe32dfd3812e87", "rental_uris": {"android": "https://dc.lft.to/lastmile_qr_scan", "ios": "https://dc.lft.to/lastmile_qr_scan"}, "fusion_lat": 0.0, "lat": 38.91936966666667, "is_disabled": 0, "lon": -76.97500383333333, "is_reserved": 0}, {"bike_id": "d7fcafd8da466c357858f109712073b7", "fusion_lon": 0.0, "type": "electric_scooter", "name": "d7fcafd8da466c357858f109712073b7", "rental_uris": {"android": "https://dc.lft.to/lastmile_qr_scan", "ios": "https://dc.lft.to/lastmile_qr_scan"}, "fusion_lat": 0.0, "lat": 38.8771475, "is_disabled": 0, "lon": -77.00606033333334, "is_reserved": 0}, {"bike_id": "174c7ca68c823b30c3b673708a589464", "fusion_lon": 0.0, "type": "electric_bike", "name": "174c7ca68c823b30c3b673708a589464", "rental_uris": {"android": "https://dc.lft.to/lastmile_qr_scan", "ios": "https://dc.lft.to/lastmile_qr_scan"}, "fusion_lat": 0.0, "lat": 39.003818333333335, "is_disabled": 0, "lon": -77.01297416666667, "is_reserved": 0}, {"bike_id": "3c91328f0dda699fed50b6dc2ae5759e", "fusion_lon": 0.0, "type": "electric_bike", "name": "3c91328f0dda699fed50b6dc2ae5759e", "rental_uris": {"android": "https://dc.lft.to/lastmile_qr_scan", "ios": "https://dc.lft.to/lastmile_qr_scan"}, "fusion_lat": 0.0, "lat": 38.8585705, "is_disabled": 0, "lon": -77.09750233333334, "is_reserved": 0}, {"bike_id": "b5a1f82c16d13f59944a43781dde1982", "fusion_lon": 0.0, "type": "electric_scooter", "name": "b5a1f82c16d13f59944a43781dde1982", "rental_uris": {"android": "https://dc.lft.to/lastmile_qr_scan", "ios": "https://dc.lft.to/lastmile_qr_scan"}, "fusion_lat": 0.0, "lat": 38.90309166666667, "is_disabled": 0, "lon": -77.01130866666666, "is_reserved": 0}, {"bike_id": "cac3ea25a5753b9eae97980ec6d4c8c8", "fusion_lon": 0.0, "type": "electric_scooter", "name": "cac3ea25a5753b9eae97980ec6d4c8c8", "rental_uris": {"android": "https://dc.lft.to/lastmile_qr_scan", "ios": "https://dc.lft.to/lastmile_qr_scan"}, "fusion_lat": 0.0, "lat": 38.923551, "is_disabled": 0, "lon": -77.03482016666666, "is_reserved": 0}, {"bike_id": "7922c79bc2863153025750c444564e5b", "fusion_lon": 0.0, "type": "electric_scooter", "name": "7922c79bc2863153025750c444564e5b", "rental_uris": {"android": "https://dc.lft.to/lastmile_qr_scan", "ios": "https://dc.lft.to/lastmile_qr_scan"}, "fusion_lat": 0.0, "lat": 38.913429666666666, "is_disabled": 0, "lon": -77.048402, "is_reserved": 0}, {"bike_id": "62c97d6a533a90395f4f8fdee641b4b3", "fusion_lon": 0.0, "type": "electric_scooter", "name": "62c97d6a533a90395f4f8fdee641b4b3", "rental_uris": {"android": "https://dc.lft.to/lastmile_qr_scan", "ios": "https://dc.lft.to/lastmile_qr_scan"}, "fusion_lat": 0.0, "lat": 38.892341, "is_disabled": 0, "lon": -77.025398, "is_reserved": 0}, {"bike_id": "b73db2a439deaa9203af93cf8f5abd64", "fusion_lon": 0.0, "type": "electric_scooter", "name": "b73db2a439deaa9203af93cf8f5abd64", "rental_uris": {"android": "https://dc.lft.to/lastmile_qr_scan", "ios": "https://dc.lft.to/lastmile_qr_scan"}, "fusion_lat": 0.0, "lat": 38.8949005, "is_disabled": 0, "lon": -76.948405, "is_reserved": 0}, {"bike_id": "40e056955aab70bbee86c2f398ce019a", "fusion_lon": 0.0, "type": "electric_scooter", "name": "40e056955aab70bbee86c2f398ce019a", "rental_uris": {"android": "https://dc.lft.to/lastmile_qr_scan", "ios": "https://dc.lft.to/lastmile_qr_scan"}, "fusion_lat": 0.0, "lat": 38.915143, "is_disabled": 0, "lon": -77.03208916666667, "is_reserved": 0}, {"bike_id": "a05c6ae8ce194aa1fe8b938b477cecb2", "fusion_lon": 0.0, "type": "electric_scooter", "name": "a05c6ae8ce194aa1fe8b938b477cecb2", "rental_uris": {"android": "https://dc.lft.to/lastmile_qr_scan", "ios": "https://dc.lft.to/lastmile_qr_scan"}, "fusion_lat": 0.0, "lat": 38.900308, "is_disabled": 0, "lon": -76.9961745, "is_reserved": 0}, {"bike_id": "f375b78b95501cf59bc08dfdccbdf506", "fusion_lon": 0.0, "type": "electric_scooter", "name": "f375b78b95501cf59bc08dfdccbdf506", "rental_uris": {"android": "https://dc.lft.to/lastmile_qr_scan", "ios": "https://dc.lft.to/lastmile_qr_scan"}, "fusion_lat": 0.0, "lat": 38.906819166666665, "is_disabled": 0, "lon": -77.02710166666667, "is_reserved": 0}, {"bike_id": "e9900e061bcaf1b9db324839a0be7949", "fusion_lon": 0.0, "type": "electric_scooter", "name": "e9900e061bcaf1b9db324839a0be7949", "rental_uris": {"android": "https://dc.lft.to/lastmile_qr_scan", "ios": "https://dc.lft.to/lastmile_qr_scan"}, "fusion_lat": 0.0, "lat": 38.885979166666665, "is_disabled": 0, "lon": -77.01719333333334, "is_reserved": 0}, {"bike_id": "e59b86f009fcdfb30db3af53e8fff5a4", "fusion_lon": 0.0, "type": "electric_scooter", "name": "e59b86f009fcdfb30db3af53e8fff5a4", "rental_uris": {"android": "https://dc.lft.to/lastmile_qr_scan", "ios": "https://dc.lft.to/lastmile_qr_scan"}, "fusion_lat": 0.0, "lat": 38.906488, "is_disabled": 0, "lon": -77.03433583333333, "is_reserved": 0}, {"bike_id": "59c13d1de477ba5a2753d2e86685f1fb", "fusion_lon": 0.0, "type": "electric_bike", "name": "59c13d1de477ba5a2753d2e86685f1fb", "rental_uris": {"android": "https://dc.lft.to/lastmile_qr_scan", "ios": "https://dc.lft.to/lastmile_qr_scan"}, "fusion_lat": 0.0, "lat": 39.024263833333336, "is_disabled": 0, "lon": -77.12496816666666, "is_reserved": 0}, {"bike_id": "1b473b83b659f7e7ee86dea1b03843fb", "fusion_lon": 0.0, "type": "electric_scooter", "name": "1b473b83b659f7e7ee86dea1b03843fb", "rental_uris": {"android": "https://dc.lft.to/lastmile_qr_scan", "ios": "https://dc.lft.to/lastmile_qr_scan"}, "fusion_lat": 0.0, "lat": 38.96211066666667, "is_disabled": 0, "lon": -77.02340033333333, "is_reserved": 0}, {"bike_id": "8f44c48719d9f0880d6495861f2b464d", "fusion_lon": 0.0, "type": "electric_scooter", "name": "8f44c48719d9f0880d6495861f2b464d", "rental_uris": {"android": "https://dc.lft.to/lastmile_qr_scan", "ios": "https://dc.lft.to/lastmile_qr_scan"}, "fusion_lat": 0.0, "lat": 38.862463, "is_disabled": 0, "lon": -76.9948385, "is_reserved": 0}, {"bike_id": "387c1670e03d55d9da5e8e03ccfcb6cf", "fusion_lon": 0.0, "type": "electric_scooter", "name": "387c1670e03d55d9da5e8e03ccfcb6cf", "rental_uris": {"android": "https://dc.lft.to/lastmile_qr_scan", "ios": "https://dc.lft.to/lastmile_qr_scan"}, "fusion_lat": 0.0, "lat": 38.91569116666667, "is_disabled": 0, "lon": -77.005915, "is_reserved": 0}, {"bike_id": "0553563d496de5a4d175f70d653e9f55", "fusion_lon": 0.0, "type": "electric_scooter", "name": "0553563d496de5a4d175f70d653e9f55", "rental_uris": {"android": "https://dc.lft.to/lastmile_qr_scan", "ios": "https://dc.lft.to/lastmile_qr_scan"}, "fusion_lat": 0.0, "lat": 38.931058166666666, "is_disabled": 0, "lon": -77.02416733333334, "is_reserved": 0}, {"bike_id": "4bd79a233fe22a211d7b74f6b89355a3", "fusion_lon": 0.0, "type": "electric_scooter", "name": "4bd79a233fe22a211d7b74f6b89355a3", "rental_uris": {"android": "https://dc.lft.to/lastmile_qr_scan", "ios": "https://dc.lft.to/lastmile_qr_scan"}, "fusion_lat": 0.0, "lat": 38.9329225, "is_disabled": 0, "lon": -77.03611516666666, "is_reserved": 0}, {"bike_id": "c161d1737ea769f667e3fc5388975722", "fusion_lon": 0.0, "type": "electric_scooter", "name": "c161d1737ea769f667e3fc5388975722", "rental_uris": {"android": "https://dc.lft.to/lastmile_qr_scan", "ios": "https://dc.lft.to/lastmile_qr_scan"}, "fusion_lat": 0.0, "lat": 38.91983166666667, "is_disabled": 0, "lon": -77.07112383333333, "is_reserved": 0}, {"bike_id": "500d77257c1e4c6e93dd3705b8414d53", "fusion_lon": 0.0, "type": "electric_scooter", "name": "500d77257c1e4c6e93dd3705b8414d53", "rental_uris": {"android": "https://dc.lft.to/lastmile_qr_scan", "ios": "https://dc.lft.to/lastmile_qr_scan"}, "fusion_lat": 0.0, "lat": 38.9093725, "is_disabled": 0, "lon": -77.0382905, "is_reserved": 0}, {"bike_id": "5b4c1555553f5b2c9e2a6677c43c2a83", "fusion_lon": 0.0, "type": "electric_scooter", "name": "5b4c1555553f5b2c9e2a6677c43c2a83", "rental_uris": {"android": "https://dc.lft.to/lastmile_qr_scan", "ios": "https://dc.lft.to/lastmile_qr_scan"}, "fusion_lat": 0.0, "lat": 38.9026895, "is_disabled": 0, "lon": -77.00579066666667, "is_reserved": 0}, {"bike_id": "bbb17a7e1ae9805b18b2195bbea8ad5b", "fusion_lon": 0.0, "type": "electric_scooter", "name": "bbb17a7e1ae9805b18b2195bbea8ad5b", "rental_uris": {"android": "https://dc.lft.to/lastmile_qr_scan", "ios": "https://dc.lft.to/lastmile_qr_scan"}, "fusion_lat": 0.0, "lat": 38.9222495, "is_disabled": 0, "lon": -77.043329, "is_reserved": 0}, {"bike_id": "fc65131d294b29106dd99b078a6d1758", "fusion_lon": 0.0, "type": "electric_scooter", "name": "fc65131d294b29106dd99b078a6d1758", "rental_uris": {"android": "https://dc.lft.to/lastmile_qr_scan", "ios": "https://dc.lft.to/lastmile_qr_scan"}, "fusion_lat": 0.0, "lat": 38.938655, "is_disabled": 0, "lon": -77.02649816666667, "is_reserved": 0}, {"bike_id": "c029e8b5702325a716a9369ea89bfc8d", "fusion_lon": 0.0, "type": "electric_scooter", "name": "c029e8b5702325a716a9369ea89bfc8d", "rental_uris": {"android": "https://dc.lft.to/lastmile_qr_scan", "ios": "https://dc.lft.to/lastmile_qr_scan"}, "fusion_lat": 0.0, "lat": 38.89508333333333, "is_disabled": 0, "lon": -77.01112183333333, "is_reserved": 0}, {"bike_id": "5567883c83ca2e9b10f98e9cb5eafdd2", "fusion_lon": 0.0, "type": "electric_scooter", "name": "5567883c83ca2e9b10f98e9cb5eafdd2", "rental_uris": {"android": "https://dc.lft.to/lastmile_qr_scan", "ios": "https://dc.lft.to/lastmile_qr_scan"}, "fusion_lat": 0.0, "lat": 38.932473333333334, "is_disabled": 0, "lon": -77.03878216666666, "is_reserved": 0}, {"bike_id": "9f809255974cf0f285e64d0412f5e1cf", "fusion_lon": 0.0, "type": "electric_scooter", "name": "9f809255974cf0f285e64d0412f5e1cf", "rental_uris": {"android": "https://dc.lft.to/lastmile_qr_scan", "ios": "https://dc.lft.to/lastmile_qr_scan"}, "fusion_lat": 0.0, "lat": 38.842975833333334, "is_disabled": 0, "lon": -76.9994995, "is_reserved": 0}, {"bike_id": "c4c10a6cb3da0dcce4f8bafb95b874b9", "fusion_lon": 0.0, "type": "electric_bike", "name": "c4c10a6cb3da0dcce4f8bafb95b874b9", "rental_uris": {"android": "https://dc.lft.to/lastmile_qr_scan", "ios": "https://dc.lft.to/lastmile_qr_scan"}, "fusion_lat": 0.0, "lat": 38.85213666666667, "is_disabled": 0, "lon": -77.04645283333333, "is_reserved": 0}, {"bike_id": "19a802071449ce26a6ca43c328146028", "fusion_lon": 0.0, "type": "electric_scooter", "name": "19a802071449ce26a6ca43c328146028", "rental_uris": {"android": "https://dc.lft.to/lastmile_qr_scan", "ios": "https://dc.lft.to/lastmile_qr_scan"}, "fusion_lat": 0.0, "lat": 38.89680766666667, "is_disabled": 0, "lon": -76.947204, "is_reserved": 0}, {"bike_id": "92ef8a31b93fe7992f630643f2d04e14", "fusion_lon": 0.0, "type": "electric_scooter", "name": "92ef8a31b93fe7992f630643f2d04e14", "rental_uris": {"android": "https://dc.lft.to/lastmile_qr_scan", "ios": "https://dc.lft.to/lastmile_qr_scan"}, "fusion_lat": 0.0, "lat": 38.92792216666667, "is_disabled": 0, "lon": -77.03145683333334, "is_reserved": 0}, {"bike_id": "e6f332f0c098724cdd1c0a46c869d261", "fusion_lon": 0.0, "type": "electric_scooter", "name": "e6f332f0c098724cdd1c0a46c869d261", "rental_uris": {"android": "https://dc.lft.to/lastmile_qr_scan", "ios": "https://dc.lft.to/lastmile_qr_scan"}, "fusion_lat": 0.0, "lat": 38.900393333333334, "is_disabled": 0, "lon": -77.03308783333334, "is_reserved": 0}, {"bike_id": "48a0af86a135eaf4483c1c4a36b4c24b", "fusion_lon": 0.0, "type": "electric_scooter", "name": "48a0af86a135eaf4483c1c4a36b4c24b", "rental_uris": {"android": "https://dc.lft.to/lastmile_qr_scan", "ios": "https://dc.lft.to/lastmile_qr_scan"}, "fusion_lat": 0.0, "lat": 38.917487666666666, "is_disabled": 0, "lon": -77.02290316666667, "is_reserved": 0}, {"bike_id": "2f2466c3ddb90680f7e7051927444a16", "fusion_lon": 0.0, "type": "electric_scooter", "name": "2f2466c3ddb90680f7e7051927444a16", "rental_uris": {"android": "https://dc.lft.to/lastmile_qr_scan", "ios": "https://dc.lft.to/lastmile_qr_scan"}, "fusion_lat": 0.0, "lat": 38.911982333333334, "is_disabled": 0, "lon": -77.03362183333333, "is_reserved": 0}, {"bike_id": "d63baf0650c96dc32494a4053c5fbe0b", "fusion_lon": 0.0, "type": "electric_bike", "name": "d63baf0650c96dc32494a4053c5fbe0b", "rental_uris": {"android": "https://dc.lft.to/lastmile_qr_scan", "ios": "https://dc.lft.to/lastmile_qr_scan"}, "fusion_lat": 0.0, "lat": 38.9740885, "is_disabled": 0, "lon": -77.024887, "is_reserved": 0}, {"bike_id": "b6b7b2fd3ab326a8e125034e94c06cec", "fusion_lon": 0.0, "type": "electric_scooter", "name": "b6b7b2fd3ab326a8e125034e94c06cec", "rental_uris": {"android": "https://dc.lft.to/lastmile_qr_scan", "ios": "https://dc.lft.to/lastmile_qr_scan"}, "fusion_lat": 0.0, "lat": 38.904081833333336, "is_disabled": 0, "lon": -77.06265916666666, "is_reserved": 0}, {"bike_id": "d0c4226387bfef7c4532a08502004ca4", "fusion_lon": 0.0, "type": "electric_scooter", "name": "d0c4226387bfef7c4532a08502004ca4", "rental_uris": {"android": "https://dc.lft.to/lastmile_qr_scan", "ios": "https://dc.lft.to/lastmile_qr_scan"}, "fusion_lat": 0.0, "lat": 38.885064666666665, "is_disabled": 0, "lon": -77.005612, "is_reserved": 0}, {"bike_id": "474f167b922c7e8c81ca23eb1ef0434b", "fusion_lon": 0.0, "type": "electric_scooter", "name": "474f167b922c7e8c81ca23eb1ef0434b", "rental_uris": {"android": "https://dc.lft.to/lastmile_qr_scan", "ios": "https://dc.lft.to/lastmile_qr_scan"}, "fusion_lat": 0.0, "lat": 38.90081033333333, "is_disabled": 0, "lon": -77.05065816666666, "is_reserved": 0}, {"bike_id": "b2f7348ced85d729337fa4de21031bef", "fusion_lon": 0.0, "type": "electric_scooter", "name": "b2f7348ced85d729337fa4de21031bef", "rental_uris": {"android": "https://dc.lft.to/lastmile_qr_scan", "ios": "https://dc.lft.to/lastmile_qr_scan"}, "fusion_lat": 0.0, "lat": 38.916076333333336, "is_disabled": 0, "lon": -77.02403266666667, "is_reserved": 0}, {"bike_id": "4934bc78800802a6ea2a69e712deb335", "fusion_lon": 0.0, "type": "electric_bike", "name": "4934bc78800802a6ea2a69e712deb335", "rental_uris": {"android": "https://dc.lft.to/lastmile_qr_scan", "ios": "https://dc.lft.to/lastmile_qr_scan"}, "fusion_lat": 0.0, "lat": 38.846063666666666, "is_disabled": 0, "lon": -76.968785, "is_reserved": 0}, {"bike_id": "3c67ff1af4a1a73f36b9059663132f7c", "fusion_lon": 0.0, "type": "electric_scooter", "name": "3c67ff1af4a1a73f36b9059663132f7c", "rental_uris": {"android": "https://dc.lft.to/lastmile_qr_scan", "ios": "https://dc.lft.to/lastmile_qr_scan"}, "fusion_lat": 0.0, "lat": 38.924234, "is_disabled": 0, "lon": -77.03633333333333, "is_reserved": 0}, {"bike_id": "160c3f7ee099f972b9def7cef117c085", "fusion_lon": 0.0, "type": "electric_scooter", "name": "160c3f7ee099f972b9def7cef117c085", "rental_uris": {"android": "https://dc.lft.to/lastmile_qr_scan", "ios": "https://dc.lft.to/lastmile_qr_scan"}, "fusion_lat": 0.0, "lat": 38.959721333333334, "is_disabled": 0, "lon": -77.00730266666666, "is_reserved": 0}, {"bike_id": "f6885196faa3e3dba756862f9fb27dbe", "fusion_lon": 0.0, "type": "electric_scooter", "name": "f6885196faa3e3dba756862f9fb27dbe", "rental_uris": {"android": "https://dc.lft.to/lastmile_qr_scan", "ios": "https://dc.lft.to/lastmile_qr_scan"}, "fusion_lat": 0.0, "lat": 38.90045466666667, "is_disabled": 0, "lon": -77.01274933333333, "is_reserved": 0}, {"bike_id": "43cf8d18a3b66ef24b258dc81d6031c0", "fusion_lon": 0.0, "type": "electric_bike", "name": "43cf8d18a3b66ef24b258dc81d6031c0", "rental_uris": {"android": "https://dc.lft.to/lastmile_qr_scan", "ios": "https://dc.lft.to/lastmile_qr_scan"}, "fusion_lat": 0.0, "lat": 38.84482766666667, "is_disabled": 0, "lon": -76.9722235, "is_reserved": 0}, {"bike_id": "856777cdb6e17862eed5d0dd1bc56da2", "fusion_lon": 0.0, "type": "electric_scooter", "name": "856777cdb6e17862eed5d0dd1bc56da2", "rental_uris": {"android": "https://dc.lft.to/lastmile_qr_scan", "ios": "https://dc.lft.to/lastmile_qr_scan"}, "fusion_lat": 0.0, "lat": 38.949788833333336, "is_disabled": 0, "lon": -77.06757466666667, "is_reserved": 0}, {"bike_id": "3c068168c77ff6bb17037063b6172cfe", "fusion_lon": 0.0, "type": "electric_bike", "name": "3c068168c77ff6bb17037063b6172cfe", "rental_uris": {"android": "https://dc.lft.to/lastmile_qr_scan", "ios": "https://dc.lft.to/lastmile_qr_scan"}, "fusion_lat": 0.0, "lat": 38.92227316666666, "is_disabled": 0, "lon": -77.02235366666666, "is_reserved": 0}, {"bike_id": "daf156be7617f99c5e39489291cf7fcf", "fusion_lon": 0.0, "type": "electric_bike", "name": "daf156be7617f99c5e39489291cf7fcf", "rental_uris": {"android": "https://dc.lft.to/lastmile_qr_scan", "ios": "https://dc.lft.to/lastmile_qr_scan"}, "fusion_lat": 0.0, "lat": 38.876849666666665, "is_disabled": 0, "lon": -77.01444683333334, "is_reserved": 0}, {"bike_id": "943c8b28454533ae2fec23842bf81aee", "fusion_lon": 0.0, "type": "electric_scooter", "name": "943c8b28454533ae2fec23842bf81aee", "rental_uris": {"android": "https://dc.lft.to/lastmile_qr_scan", "ios": "https://dc.lft.to/lastmile_qr_scan"},