{"data": {"bikes": [{"name": "3f25e041dda446559b6f52d8c94010d7", "fusion_lon": 0.0, "lat": 38.91195283333333, "is_reserved": 0, "type": "electric_scooter", "bike_id": "3f25e041dda446559b6f52d8c94010d7", "is_disabled": 0, "rental_uris": {"android": "https://dc.lft.to/lastmile_qr_scan", "ios": "https://dc.lft.to/lastmile_qr_scan"}, "lon": -77.0452255, "fusion_lat": 0.0}, {"name": "a7bee29528c55bb8965931f2f43a2cd7", "fusion_lon": 0.0, "lat": 38.931642333333336, "is_reserved": 0, "type": "electric_scooter", "bike_id": "a7bee29528c55bb8965931f2f43a2cd7", "is_disabled": 0, "rental_uris": {"android": "https://dc.lft.to/lastmile_qr_scan", "ios": "https://dc.lft.to/lastmile_qr_scan"}, "lon": -77.05608133333334, "fusion_lat": 0.0}, {"name": "52a2a10f0a9ae5ad718631891ab6c3c4", "fusion_lon": 0.0, "lat": 38.892174, "is_reserved": 0, "type": "electric_scooter", "bike_id": "52a2a10f0a9ae5ad718631891ab6c3c4", "is_disabled": 0, "rental_uris": {"android": "https://dc.lft.to/lastmile_qr_scan", "ios": "https://dc.lft.to/lastmile_qr_scan"}, "lon": -77.042612, "fusion_lat": 0.0}, {"name": "dc862b973d40662c5f16bc972725ca1a", "fusion_lon": 0.0, "lat": 38.87812133333333, "is_reserved": 0, "type": "electric_scooter", "bike_id": "dc862b973d40662c5f16bc972725ca1a", "is_disabled": 0, "rental_uris": {"android": "https://dc.lft.to/lastmile_qr_scan", "ios": "https://dc.lft.to/lastmile_qr_scan"}, "lon": -76.93092566666667, "fusion_lat": 0.0}, {"name": "0d9400ab535104a971747cd077147559", "fusion_lon": 0.0, "lat": 38.9174025, "is_reserved": 0, "type": "electric_scooter", "bike_id": "0d9400ab535104a971747cd077147559", "is_disabled": 0, "rental_uris": {"android": "https://dc.lft.to/lastmile_qr_scan", "ios": "https://dc.lft.to/lastmile_qr_scan"}, "lon": -77.03641616666667, "fusion_lat": 0.0}, {"name": "4330a664b848a81563e2301c98e690ad", "fusion_lon": 0.0, "lat": 38.93256433333333, "is_reserved": 0, "type": "electric_scooter", "bike_id": "4330a664b848a81563e2301c98e690ad", "is_disabled": 0, "rental_uris": {"android": "https://dc.lft.to/lastmile_qr_scan", "ios": "https://dc.lft.to/lastmile_qr_scan"}, "lon": -77.03269433333334, "fusion_lat": 0.0}, {"name": "bbeed0cc1e6e621c005e6c57d09055ac", "fusion_lon": 0.0, "lat": 38.944347, "is_reserved": 0, "type": "electric_scooter", "bike_id": "bbeed0cc1e6e621c005e6c57d09055ac", "is_disabled": 0, "rental_uris": {"android": "https://dc.lft.to/lastmile_qr_scan", "ios": "https://dc.lft.to/lastmile_qr_scan"}, "lon": -77.06349083333333, "fusion_lat": 0.0}, {"name": "b3c4311d0f4f5b771d6b6cdd016d5bf2", "fusion_lon": 0.0, "lat": 38.925914166666665, "is_reserved": 0, "type": "electric_scooter", "bike_id": "b3c4311d0f4f5b771d6b6cdd016d5bf2", "is_disabled": 0, "rental_uris": {"android": "https://dc.lft.to/lastmile_qr_scan", "ios": "https://dc.lft.to/lastmile_qr_scan"}, "lon": -77.04399366666667, "fusion_lat": 0.0}, {"name": "3e1709e333dabc2e8cf32a9a75003df2", "fusion_lon": 0.0, "lat": 38.93252916666667, "is_reserved": 0, "type": "electric_scooter", "bike_id": "3e1709e333dabc2e8cf32a9a75003df2", "is_disabled": 0, "rental_uris": {"android": "https://dc.lft.to/lastmile_qr_scan", "ios": "https://dc.lft.to/lastmile_qr_scan"}, "lon": -77.03280133333334, "fusion_lat": 0.0}, {"name": "7c7c6d5176b37d7474f91c8ea13f14e8", "fusion_lon": 0.0, "lat": 38.91726116666667, "is_reserved": 0, "type": "electric_scooter", "bike_id": "7c7c6d5176b37d7474f91c8ea13f14e8", "is_disabled": 0, "rental_uris": {"android": "https://dc.lft.to/lastmile_qr_scan", "ios": "https://dc.lft.to/lastmile_qr_scan"}, "lon": -77.0297295, "fusion_lat": 0.0}, {"name": "2110a31cc90eb1123ddcd068ea23466b", "fusion_lon": 0.0, "lat": 38.930930833333335, "is_reserved": 0, "type": "electric_scooter", "bike_id": "2110a31cc90eb1123ddcd068ea23466b", "is_disabled": 0, "rental_uris": {"android": "https://dc.lft.to/lastmile_qr_scan", "ios": "https://dc.lft.to/lastmile_qr_scan"}, "lon": -77.02658666666666, "fusion_lat": 0.0}, {"name": "9fc889ca6142b6f67ef507e2a9a0efef", "fusion_lon": 0.0, "lat": 38.919292166666665, "is_reserved": 0, "type": "electric_scooter", "bike_id": "9fc889ca6142b6f67ef507e2a9a0efef", "is_disabled": 0, "rental_uris": {"android": "https://dc.lft.to/lastmile_qr_scan", "ios": "https://dc.lft.to/lastmile_qr_scan"}, "lon": -77.04567233333333, "fusion_lat": 0.0}, {"name": "1732778a714c17e9bf58465f293813f2", "fusion_lon": 0.0, "lat": 38.9055815, "is_reserved": 0, "type": "electric_scooter", "bike_id": "1732778a714c17e9bf58465f293813f2", "is_disabled": 0, "rental_uris": {"android": "https://dc.lft.to/lastmile_qr_scan", "ios": "https://dc.lft.to/lastmile_qr_scan"}, "lon": -77.00581483333333, "fusion_lat": 0.0}, {"name": "15ee0e81f777066f8258b2886dbd1b22", "fusion_lon": 0.0, "lat": 38.937247666666664, "is_reserved": 0, "type": "electric_scooter", "bike_id": "15ee0e81f777066f8258b2886dbd1b22", "is_disabled": 0, "rental_uris": {"android": "https://dc.lft.to/lastmile_qr_scan", "ios": "https://dc.lft.to/lastmile_qr_scan"}, "lon": -77.03264016666667, "fusion_lat": 0.0}, {"name": "748c10da36a97404d28c380cd0f7d6c9", "fusion_lon": 0.0, "lat": 38.9396405, "is_reserved": 0, "type": "electric_scooter", "bike_id": "748c10da36a97404d28c380cd0f7d6c9", "is_disabled": 0, "rental_uris": {"android": "https://dc.lft.to/lastmile_qr_scan", "ios": "https://dc.lft.to/lastmile_qr_scan"}, "lon": -77.02751816666667, "fusion_lat": 0.0}, {"name": "0d0957cf419aebf7393b6c80afeeefe4", "fusion_lon": 0.0, "lat": 38.915180666666664, "is_reserved": 0, "type": "electric_scooter", "bike_id": "0d0957cf419aebf7393b6c80afeeefe4", "is_disabled": 0, "rental_uris": {"android": "https://dc.lft.to/lastmile_qr_scan", "ios": "https://dc.lft.to/lastmile_qr_scan"}, "lon": -77.01224266666667, "fusion_lat": 0.0}, {"name": "3e3b0223a2d6d23b6bf4702f16ff92a8", "fusion_lon": 0.0, "lat": 38.88591483333333, "is_reserved": 0, "type": "electric_scooter", "bike_id": "3e3b0223a2d6d23b6bf4702f16ff92a8", "is_disabled": 0, "rental_uris": {"android": "https://dc.lft.to/lastmile_qr_scan", "ios": "https://dc.lft.to/lastmile_qr_scan"}, "lon": -76.9962265, "fusion_lat": 0.0}, {"name": "676005227bd871cc300b0b65c3642ecc", "fusion_lon": 0.0, "lat": 38.935383333333334, "is_reserved": 0, "type": "electric_scooter", "bike_id": "676005227bd871cc300b0b65c3642ecc", "is_disabled": 0, "rental_uris": {"android": "https://dc.lft.to/lastmile_qr_scan", "ios": "https://dc.lft.to/lastmile_qr_scan"}, "lon": -77.057482, "fusion_lat": 0.0}, {"name": "5a4d7b566b7ae5dc86b4fe70603196cc", "fusion_lon": 0.0, "lat": 38.872172166666665, "is_reserved": 0, "type": "electric_scooter", "bike_id": "5a4d7b566b7ae5dc86b4fe70603196cc", "is_disabled": 0, "rental_uris": {"android": "https://dc.lft.to/lastmile_qr_scan", "ios": "https://dc.lft.to/lastmile_qr_scan"}, "lon": -77.01633266666667, "fusion_lat": 0.0}, {"name": "d0de511d914aed2ac57c651dd56204e3", "fusion_lon": 0.0, "lat": 38.90009933333333, "is_reserved": 0, "type": "electric_scooter", "bike_id": "d0de511d914aed2ac57c651dd56204e3", "is_disabled": 0, "rental_uris": {"android": "https://dc.lft.to/lastmile_qr_scan", "ios": "https://dc.lft.to/lastmile_qr_scan"}, "lon": -77.00684833333334, "fusion_lat": 0.0}, {"name": "71f59c84bf570a9475e75a004b10110b", "fusion_lon": 0.0, "lat": 38.90246966666667, "is_reserved": 0, "type": "electric_scooter", "bike_id": "71f59c84bf570a9475e75a004b10110b", "is_disabled": 0, "rental_uris": {"android": "https://dc.lft.to/lastmile_qr_scan", "ios": "https://dc.lft.to/lastmile_qr_scan"}, "lon": -77.0175135, "fusion_lat": 0.0}, {"name": "240dc46be1e3aea5fb4c3770551cf7c4", "fusion_lon": 0.0, "lat": 38.901326833333336, "is_reserved": 0, "type": "electric_scooter", "bike_id": "240dc46be1e3aea5fb4c3770551cf7c4", "is_disabled": 0, "rental_uris": {"android": "https://dc.lft.to/lastmile_qr_scan", "ios": "https://dc.lft.to/lastmile_qr_scan"}, "lon": -77.02451766666667, "fusion_lat": 0.0}, {"name": "24c19c36a4947e28787bea3679f59a8c", "fusion_lon": 0.0, "lat": 38.919163166666664, "is_reserved": 0, "type": "electric_scooter", "bike_id": "24c19c36a4947e28787bea3679f59a8c", "is_disabled": 0, "rental_uris": {"android": "https://dc.lft.to/lastmile_qr_scan", "ios": "https://dc.lft.to/lastmile_qr_scan"}, "lon": -77.02619883333334, "fusion_lat": 0.0}, {"name": "6b9ed92985eead638689c3cd098b4605", "fusion_lon": 0.0, "lat": 38.923890166666666, "is_reserved": 0, "type": "electric_scooter", "bike_id": "6b9ed92985eead638689c3cd098b4605", "is_disabled": 0, "rental_uris": {"android": "https://dc.lft.to/lastmile_qr_scan", "ios": "https://dc.lft.to/lastmile_qr_scan"}, "lon": -77.03661683333333, "fusion_lat": 0.0}, {"name": "fede22e82c2ff0c3f54773b3021c9299", "fusion_lon": 0.0, "lat": 38.92094933333333, "is_reserved": 0, "type": "electric_scooter", "bike_id": "fede22e82c2ff0c3f54773b3021c9299", "is_disabled": 0, "rental_uris": {"android": "https://dc.lft.to/lastmile_qr_scan", "ios": "https://dc.lft.to/lastmile_qr_scan"}, "lon": -77.024162, "fusion_lat": 0.0}, {"name": "c6e0e359d4b84ac8fc3b194111450093", "fusion_lon": 0.0, "lat": 38.924512166666666, "is_reserved": 0, "type": "electric_scooter", "bike_id": "c6e0e359d4b84ac8fc3b194111450093", "is_disabled": 0, "rental_uris": {"android": "https://dc.lft.to/lastmile_qr_scan", "ios": "https://dc.lft.to/lastmile_qr_scan"}, "lon": -77.04119466666667, "fusion_lat": 0.0}, {"name": "1099f4ad197e65d6b7ab24aa6c70c24a", "fusion_lon": 0.0, "lat": 38.87940533333333, "is_reserved": 0, "type": "electric_scooter", "bike_id": "1099f4ad197e65d6b7ab24aa6c70c24a", "is_disabled": 0, "rental_uris": {"android": "https://dc.lft.to/lastmile_qr_scan", "ios": "https://dc.lft.to/lastmile_qr_scan"}, "lon": -77.00409216666667, "fusion_lat": 0.0}, {"name": "d0fff2f1499d8baf7db9af2fc18ea19f", "fusion_lon": 0.0, "lat": 38.883121333333335, "is_reserved": 0, "type": "electric_scooter", "bike_id": "d0fff2f1499d8baf7db9af2fc18ea19f", "is_disabled": 0, "rental_uris": {"android": "https://dc.lft.to/lastmile_qr_scan", "ios": "https://dc.lft.to/lastmile_qr_scan"}, "lon": -77.000534, "fusion_lat": 0.0}, {"name": "c0eb6891a728ad98f61f8c7eeed23177", "fusion_lon": 0.0, "lat": 38.9125565, "is_reserved": 0, "type": "electric_scooter", "bike_id": "c0eb6891a728ad98f61f8c7eeed23177", "is_disabled": 0, "rental_uris": {"android": "https://dc.lft.to/lastmile_qr_scan", "ios": "https://dc.lft.to/lastmile_qr_scan"}, "lon": -77.04439383333333, "fusion_lat": 0.0}, {"name": "e1e591559dd4c1f23d212d6b2b5249a7", "fusion_lon": 0.0, "lat": 38.874832833333336, "is_reserved": 0, "type": "electric_scooter", "bike_id": "e1e591559dd4c1f23d212d6b2b5249a7", "is_disabled": 0, "rental_uris": {"android": "https://dc.lft.to/lastmile_qr_scan", "ios": "https://dc.lft.to/lastmile_qr_scan"}, "lon": -77.00943366666667, "fusion_lat": 0.0}, {"name": "7d3362376ae6f0c0750119c1e4203f8a", "fusion_lon": 0.0, "lat": 38.93062, "is_reserved": 0, "type": "electric_scooter", "bike_id": "7d3362376ae6f0c0750119c1e4203f8a", "is_disabled": 0, "rental_uris": {"android": "https://dc.lft.to/lastmile_qr_scan", "ios": "https://dc.lft.to/lastmile_qr_scan"}, "lon": -77.03191883333334, "fusion_lat": 0.0}, {"name": "db202d0f646b70818ae1ca3842090d99", "fusion_lon": 0.0, "lat": 38.8431365, "is_reserved": 0, "type": "electric_scooter", "bike_id": "db202d0f646b70818ae1ca3842090d99", "is_disabled": 0, "rental_uris": {"android": "https://dc.lft.to/lastmile_qr_scan", "ios": "https://dc.lft.to/lastmile_qr_scan"}, "lon": -76.99929416666667, "fusion_lat": 0.0}, {"name": "b1fa8778647ef350b60e0a61c1fc21ba", "fusion_lon": 0.0, "lat": 38.92049566666667, "is_reserved": 0, "type": "electric_scooter", "bike_id": "b1fa8778647ef350b60e0a61c1fc21ba", "is_disabled": 0, "rental_uris": {"android": "https://dc.lft.to/lastmile_qr_scan", "ios": "https://dc.lft.to/lastmile_qr_scan"}, "lon": -77.02618733333334, "fusion_lat": 0.0}, {"name": "ae8f55b351e4ff3cc5ae1a5d5bb87b04", "fusion_lon": 0.0, "lat": 38.900409333333336, "is_reserved": 0, "type": "electric_scooter", "bike_id": "ae8f55b351e4ff3cc5ae1a5d5bb87b04", "is_disabled": 0, "rental_uris": {"android": "https://dc.lft.to/lastmile_qr_scan", "ios": "https://dc.lft.to/lastmile_qr_scan"}, "lon": -76.91919766666666, "fusion_lat": 0.0}, {"name": "1984df1290a349d79df9351cd8b736d5", "fusion_lon": 0.0, "lat": 38.92322, "is_reserved": 0, "type": "electric_scooter", "bike_id": "1984df1290a349d79df9351cd8b736d5", "is_disabled": 0, "rental_uris": {"android": "https://dc.lft.to/lastmile_qr_scan", "ios": "https://dc.lft.to/lastmile_qr_scan"}, "lon": -77.03569333333333, "fusion_lat": 0.0}, {"name": "b098a6f8711f7d73ad1fc105c5de9a8b", "fusion_lon": 0.0, "lat": 38.918944833333335, "is_reserved": 0, "type": "electric_scooter", "bike_id": "b098a6f8711f7d73ad1fc105c5de9a8b", "is_disabled": 0, "rental_uris": {"android": "https://dc.lft.to/lastmile_qr_scan", "ios": "https://dc.lft.to/lastmile_qr_scan"}, "lon": -77.044676, "fusion_lat": 0.0}, {"name": "90d37c912bf2bfcad5ab3ca065cf739f", "fusion_lon": 0.0, "lat": 38.901773, "is_reserved": 0, "type": "electric_scooter", "bike_id": "90d37c912bf2bfcad5ab3ca065cf739f", "is_disabled": 0, "rental_uris": {"android": "https://dc.lft.to/lastmile_qr_scan", "ios": "https://dc.lft.to/lastmile_qr_scan"}, "lon": -77.01311616666666, "fusion_lat": 0.0}, {"name": "713207180c6bbd145ea5097dfd31e21a", "fusion_lon": 0.0, "lat": 38.935940333333335, "is_reserved": 0, "type": "electric_scooter", "bike_id": "713207180c6bbd145ea5097dfd31e21a", "is_disabled": 0, "rental_uris": {"android": "https://dc.lft.to/lastmile_qr_scan", "ios": "https://dc.lft.to/lastmile_qr_scan"}, "lon": -77.0365, "fusion_lat": 0.0}, {"name": "9b38cad072dc92e065a524a05d453833", "fusion_lon": 0.0, "lat": 38.90779583333333, "is_reserved": 0, "type": "electric_scooter", "bike_id": "9b38cad072dc92e065a524a05d453833", "is_disabled": 0, "rental_uris": {"android": "https://dc.lft.to/lastmile_qr_scan", "ios": "https://dc.lft.to/lastmile_qr_scan"}, "lon": -77.03828566666667, "fusion_lat": 0.0}, {"name": "7244dfb21b30a38b4e8de293b6e1dba1", "fusion_lon": 0.0, "lat": 38.874189666666666, "is_reserved": 0, "type": "electric_scooter", "bike_id": "7244dfb21b30a38b4e8de293b6e1dba1", "is_disabled": 0, "rental_uris": {"android": "https://dc.lft.to/lastmile_qr_scan", "ios": "https://dc.lft.to/lastmile_qr_scan"}, "lon": -76.96771416666667, "fusion_lat": 0.0}, {"name": "778cf6808c03698642bfdb09c4adcd0d", "fusion_lon": 0.0, "lat": 38.926599, "is_reserved": 0, "type": "electric_scooter", "bike_id": "778cf6808c03698642bfdb09c4adcd0d", "is_disabled": 0, "rental_uris": {"android": "https://dc.lft.to/lastmile_qr_scan", "ios": "https://dc.lft.to/lastmile_qr_scan"}, "lon": -77.0230575, "fusion_lat": 0.0}, {"name": "ccccf08c03d6718c3c3e9834db88b391", "fusion_lon": 0.0, "lat": 38.92362883333333, "is_reserved": 0, "type": "electric_scooter", "bike_id": "ccccf08c03d6718c3c3e9834db88b391", "is_disabled": 0, "rental_uris": {"android": "https://dc.lft.to/lastmile_qr_scan", "ios": "https://dc.lft.to/lastmile_qr_scan"}, "lon": -77.029824, "fusion_lat": 0.0}, {"name": "af1e5fd16573189da3f17d29085a2a07", "fusion_lon": 0.0, "lat": 38.91730533333333, "is_reserved": 0, "type": "electric_scooter", "bike_id": "af1e5fd16573189da3f17d29085a2a07", "is_disabled": 0, "rental_uris": {"android": "https://dc.lft.to/lastmile_qr_scan", "ios": "https://dc.lft.to/lastmile_qr_scan"}, "lon": -77.03661233333334, "fusion_lat": 0.0}, {"name": "05ef116a278f0434f9398279a501d501", "fusion_lon": 0.0, "lat": 38.973979166666666, "is_reserved": 0, "type": "electric_bike", "bike_id": "05ef116a278f0434f9398279a501d501", "is_disabled": 0, "rental_uris": {"android": "https://dc.lft.to/lastmile_qr_scan", "ios": "https://dc.lft.to/lastmile_qr_scan"}, "lon": -77.06455683333333, "fusion_lat": 0.0}, {"name": "f69488aeba5a39ae6ac3034678c33329", "fusion_lon": 0.0, "lat": 38.9154575, "is_reserved": 0, "type": "electric_scooter", "bike_id": "f69488aeba5a39ae6ac3034678c33329", "is_disabled": 0, "rental_uris": {"android": "https://dc.lft.to/lastmile_qr_scan", "ios": "https://dc.lft.to/lastmile_qr_scan"}, "lon": -77.0531865, "fusion_lat": 0.0}, {"name": "516e2c363ab3717e201cbd63f6a4886d", "fusion_lon": 0.0, "lat": 38.91692316666666, "is_reserved": 0, "type": "electric_scooter", "bike_id": "516e2c363ab3717e201cbd63f6a4886d", "is_disabled": 0, "rental_uris": {"android": "https://dc.lft.to/lastmile_qr_scan", "ios": "https://dc.lft.to/lastmile_qr_scan"}, "lon": -77.03118216666667, "fusion_lat": 0.0}, {"name": "7c000e2ffb5ec883d59f4199c8f926d7", "fusion_lon": 0.0, "lat": 38.89225733333333, "is_reserved": 0, "type": "electric_scooter", "bike_id": "7c000e2ffb5ec883d59f4199c8f926d7", "is_disabled": 0, "rental_uris": {"android": "https://dc.lft.to/lastmile_qr_scan", "ios": "https://dc.lft.to/lastmile_qr_scan"}, "lon": -77.0486835, "fusion_lat": 0.0}, {"name": "5077e80b8b737e2169f3948e0d842333", "fusion_lon": 0.0, "lat": 38.901464, "is_reserved": 0, "type": "electric_scooter", "bike_id": "5077e80b8b737e2169f3948e0d842333", "is_disabled": 0, "rental_uris": {"android": "https://dc.lft.to/lastmile_qr_scan", "ios": "https://dc.lft.to/lastmile_qr_scan"}, "lon": -76.92979533333333, "fusion_lat": 0.0}, {"name": "4e4afdaecc442ff8aee27965fad7eaf1", "fusion_lon": 0.0, "lat": 38.902050333333335, "is_reserved": 0, "type": "electric_scooter", "bike_id": "4e4afdaecc442ff8aee27965fad7eaf1", "is_disabled": 0, "rental_uris": {"android": "https://dc.lft.to/lastmile_qr_scan", "ios": "https://dc.lft.to/lastmile_qr_scan"}, "lon": -77.02373433333334, "fusion_lat": 0.0}, {"name": "35fe1677ab8a44511fd8a6aa5bb77695", "fusion_lon": 0.0, "lat": 38.927689, "is_reserved": 0, "type": "electric_scooter", "bike_id": "35fe1677ab8a44511fd8a6aa5bb77695", "is_disabled": 0, "rental_uris": {"android": "https://dc.lft.to/lastmile_qr_scan", "ios": "https://dc.lft.to/lastmile_qr_scan"}, "lon": -77.0406525, "fusion_lat": 0.0}, {"name": "18f6232cbab7a601a8d86f0bb9bdb123", "fusion_lon": 0.0, "lat": 38.92109216666667, "is_reserved": 0, "type": "electric_scooter", "bike_id": "18f6232cbab7a601a8d86f0bb9bdb123", "is_disabled": 0, "rental_uris": {"android": "https://dc.lft.to/lastmile_qr_scan", "ios": "https://dc.lft.to/lastmile_qr_scan"}, "lon": -77.03926116666666, "fusion_lat": 0.0}, {"name": "ff0b93e45c142c79eabd8af52feb38e9", "fusion_lon": 0.0, "lat": 38.947974, "is_reserved": 0, "type": "electric_bike", "bike_id": "ff0b93e45c142c79eabd8af52feb38e9", "is_disabled": 0, "rental_uris": {"android": "https://dc.lft.to/lastmile_qr_scan", "ios": "https://dc.lft.to/lastmile_qr_scan"}, "lon": -76.95542466666667, "fusion_lat": 0.0}, {"name": "a6228361bd5cb31e761297a9ae1796d8", "fusion_lon": 0.0, "lat": 38.91766416666667, "is_reserved": 0, "type": "electric_scooter", "bike_id": "a6228361bd5cb31e761297a9ae1796d8", "is_disabled": 0, "rental_uris": {"android": "https://dc.lft.to/lastmile_qr_scan", "ios": "https://dc.lft.to/lastmile_qr_scan"}, "lon": -77.0476975, "fusion_lat": 0.0}, {"name": "2f7d13b7e2f59ef74b49381921a8e770", "fusion_lon": 0.0, "lat": 38.87668633333333, "is_reserved": 0, "type": "electric_scooter", "bike_id": "2f7d13b7e2f59ef74b49381921a8e770", "is_disabled": 0, "rental_uris": {"android": "https://dc.lft.to/lastmile_qr_scan", "ios": "https://dc.lft.to/lastmile_qr_scan"}, "lon": -77.0043165, "fusion_lat": 0.0}, {"name": "734c701cb58c1ac7b156685fcad75dbc", "fusion_lon": 0.0, "lat": 38.8950305, "is_reserved": 0, "type": "electric_scooter", "bike_id": "734c701cb58c1ac7b156685fcad75dbc", "is_disabled": 0, "rental_uris": {"android": "https://dc.lft.to/lastmile_qr_scan", "ios": "https://dc.lft.to/lastmile_qr_scan"}, "lon": -76.934797, "fusion_lat": 0.0}, {"name": "1692a71e3458eaf00677ecad49b4e449", "fusion_lon": 0.0, "lat": 38.9953355, "is_reserved": 0, "type": "electric_bike", "bike_id": "1692a71e3458eaf00677ecad49b4e449", "is_disabled": 0, "rental_uris": {"android": "https://dc.lft.to/lastmile_qr_scan", "ios": "https://dc.lft.to/lastmile_qr_scan"}, "lon": -77.06941333333333, "fusion_lat": 0.0}, {"name": "9ab52d0002ca9f6b1ccb07f26e4bb354", "fusion_lon": 0.0, "lat": 38.9262065, "is_reserved": 0, "type": "electric_scooter", "bike_id": "9ab52d0002ca9f6b1ccb07f26e4bb354", "is_disabled": 0, "rental_uris": {"android": "https://dc.lft.to/lastmile_qr_scan", "ios": "https://dc.lft.to/lastmile_qr_scan"}, "lon": -77.0432775, "fusion_lat": 0.0}, {"name": "8e7fc9a480d42f805ffe7012794bcd0d", "fusion_lon": 0.0, "lat": 38.8549055, "is_reserved": 0, "type": "electric_bike", "bike_id": "8e7fc9a480d42f805ffe7012794bcd0d", "is_disabled": 0, "rental_uris": {"android": "https://dc.lft.to/lastmile_qr_scan", "ios": "https://dc.lft.to/lastmile_qr_scan"}, "lon": -77.11617666666666, "fusion_lat": 0.0}, {"name": "e8b78d3a612bda78f33a2f0f98c91962", "fusion_lon": 0.0, "lat": 38.922535333333336, "is_reserved": 0, "type": "electric_scooter", "bike_id": "e8b78d3a612bda78f33a2f0f98c91962", "is_disabled": 0, "rental_uris": {"android": "https://dc.lft.to/lastmile_qr_scan", "ios": "https://dc.lft.to/lastmile_qr_scan"}, "lon": -77.03390216666666, "fusion_lat": 0.0}, {"name": "dcebd3ef1a2fdd374f962c1ecfe9fb22", "fusion_lon": 0.0, "lat": 38.89220233333333, "is_reserved": 0, "type": "electric_scooter", "bike_id": "dcebd3ef1a2fdd374f962c1ecfe9fb22", "is_disabled": 0, "rental_uris": {"android": "https://dc.lft.to/lastmile_qr_scan", "ios": "https://dc.lft.to/lastmile_qr_scan"}, "lon": -77.02229966666667, "fusion_lat": 0.0}, {"name": "bf179e835950626fa65127e871072191", "fusion_lon": 0.0, "lat": 38.8669355, "is_reserved": 0, "type": "electric_scooter", "bike_id": "bf179e835950626fa65127e871072191", "is_disabled": 0, "rental_uris": {"android": "https://dc.lft.to/lastmile_qr_scan", "ios": "https://dc.lft.to/lastmile_qr_scan"}, "lon": -76.98560916666666, "fusion_lat": 0.0}, {"name": "c72248ae1b46cb22e5df5bc15e3bab86", "fusion_lon": 0.0, "lat": 38.8821325, "is_reserved": 0, "type": "electric_bike", "bike_id": "c72248ae1b46cb22e5df5bc15e3bab86", "is_disabled": 0, "rental_uris": {"android": "https://dc.lft.to/lastmile_qr_scan", "ios": "https://dc.lft.to/lastmile_qr_scan"}, "lon": -77.11733783333334, "fusion_lat": 0.0}, {"name": "2b160083a3b49d4561b342c518dc3b4a", "fusion_lon": 0.0, "lat": 38.9161625, "is_reserved": 0, "type": "electric_scooter", "bike_id": "2b160083a3b49d4561b342c518dc3b4a", "is_disabled": 0, "rental_uris": {"android": "https://dc.lft.to/lastmile_qr_scan", "ios": "https://dc.lft.to/lastmile_qr_scan"}, "lon": -77.01581016666667, "fusion_lat": 0.0}, {"name": "c9101f49c0e252f56796d6a8120e4c49", "fusion_lon": 0.0, "lat": 38.860595833333335, "is_reserved": 0, "type": "electric_scooter", "bike_id": "c9101f49c0e252f56796d6a8120e4c49", "is_disabled": 0, "rental_uris": {"android": "https://dc.lft.to/lastmile_qr_scan", "ios": "https://dc.lft.to/lastmile_qr_scan"}, "lon": -76.98507466666666, "fusion_lat": 0.0}, {"name": "4f4329d02835bc133841ecbace2fdb81", "fusion_lon": 0.0, "lat": 38.900027, "is_reserved": 0, "type": "electric_scooter", "bike_id": "4f4329d02835bc133841ecbace2fdb81", "is_disabled": 0, "rental_uris": {"android": "https://dc.lft.to/lastmile_qr_scan", "ios": "https://dc.lft.to/lastmile_qr_scan"}, "lon": -76.9961835, "fusion_lat": 0.0}, {"name": "b54d6b04104d688f96edc0d225ee026d", "fusion_lon": 0.0, "lat": 38.91993133333333, "is_reserved": 0, "type": "electric_scooter", "bike_id": "b54d6b04104d688f96edc0d225ee026d", "is_disabled": 0, "rental_uris": {"android": "https://dc.lft.to/lastmile_qr_scan", "ios": "https://dc.lft.to/lastmile_qr_scan"}, "lon": -77.04173266666666, "fusion_lat": 0.0}, {"name": "7e130a06d96f1e062ad74aab669d6d29", "fusion_lon": 0.0, "lat": 39.043077333333336, "is_reserved": 0, "type": "electric_bike", "bike_id": "7e130a06d96f1e062ad74aab669d6d29", "is_disabled": 0, "rental_uris": {"android": "https://dc.lft.to/lastmile_qr_scan", "ios": "https://dc.lft.to/lastmile_qr_scan"}, "lon": -77.0515695, "fusion_lat": 0.0}, {"name": "cec1a8ce3522b21221f4e805584a9478", "fusion_lon": 0.0, "lat": 38.91715716666667, "is_reserved": 0, "type": "electric_scooter", "bike_id": "cec1a8ce3522b21221f4e805584a9478", "is_disabled": 0, "rental_uris": {"android": "https://dc.lft.to/lastmile_qr_scan", "ios": "https://dc.lft.to/lastmile_qr_scan"}, "lon": -77.03856683333333, "fusion_lat": 0.0}, {"name": "77c224527056172b44fb780996013c3c", "fusion_lon": 0.0, "lat": 38.90859966666667, "is_reserved": 0, "type": "electric_scooter", "bike_id": "77c224527056172b44fb780996013c3c", "is_disabled": 0, "rental_uris": {"android": "https://dc.lft.to/lastmile_qr_scan", "ios": "https://dc.lft.to/lastmile_qr_scan"}, "lon": -77.02411266666667, "fusion_lat": 0.0}, {"name": "7a6764c19cd8636e5c23cafbade4ae6a", "fusion_lon": 0.0, "lat": 38.892214333333335, "is_reserved": 0, "type": "electric_scooter", "bike_id": "7a6764c19cd8636e5c23cafbade4ae6a", "is_disabled": 0, "rental_uris": {"android": "https://dc.lft.to/lastmile_qr_scan", "ios": "https://dc.lft.to/lastmile_qr_scan"}, "lon": -77.04686783333334, "fusion_lat": 0.0}, {"name": "1c7791aaba59cef6d68bd605ccffc586", "fusion_lon": 0.0, "lat": 38.922149, "is_reserved": 0, "type": "electric_scooter", "bike_id": "1c7791aaba59cef6d68bd605ccffc586", "is_disabled": 0, "rental_uris": {"android": "https://dc.lft.to/lastmile_qr_scan", "ios": "https://dc.lft.to/lastmile_qr_scan"}, "lon": -77.03656133333334, "fusion_lat": 0.0}, {"name": "c9a933c9c063980dd366fb3b4089318f", "fusion_lon": 0.0, "lat": 38.91256683333334, "is_reserved": 0, "type": "electric_scooter", "bike_id": "c9a933c9c063980dd366fb3b4089318f", "is_disabled": 0, "rental_uris": {"android": "https://dc.lft.to/lastmile_qr_scan", "ios": "https://dc.lft.to/lastmile_qr_scan"}, "lon": -77.0380485, "fusion_lat": 0.0}, {"name": "b49df7fdde6e676d465e228b90c72581", "fusion_lon": 0.0, "lat": 38.91535416666667, "is_reserved": 0, "type": "electric_scooter", "bike_id": "b49df7fdde6e676d465e228b90c72581", "is_disabled": 0, "rental_uris": {"android": "https://dc.lft.to/lastmile_qr_scan", "ios": "https://dc.lft.to/lastmile_qr_scan"}, "lon": -76.97011633333334, "fusion_lat": 0.0}, {"name": "5d3acf216fca6c8596893a3564b0b0d5", "fusion_lon": 0.0, "lat": 38.910166833333335, "is_reserved": 0, "type": "electric_scooter", "bike_id": "5d3acf216fca6c8596893a3564b0b0d5", "is_disabled": 0, "rental_uris": {"android": "https://dc.lft.to/lastmile_qr_scan", "ios": "https://dc.lft.to/lastmile_qr_scan"}, "lon": -77.00919866666666, "fusion_lat": 0.0}, {"name": "606e745887d2c46f026e27e9851bb42a", "fusion_lon": 0.0, "lat": 38.90670433333333, "is_reserved": 0, "type": "electric_scooter", "bike_id": "606e745887d2c46f026e27e9851bb42a", "is_disabled": 0, "rental_uris": {"android": "https://dc.lft.to/lastmile_qr_scan", "ios": "https://dc.lft.to/lastmile_qr_scan"}, "lon": -77.07118083333333, "fusion_lat": 0.0}, {"name": "7788153d232ac98df89e5d5a966e86f3", "fusion_lon": 0.0, "lat": 38.903681166666665, "is_reserved": 0, "type": "electric_scooter", "bike_id": "7788153d232ac98df89e5d5a966e86f3", "is_disabled": 0, "rental_uris": {"android": "https://dc.lft.to/lastmile_qr_scan", "ios": "https://dc.lft.to/lastmile_qr_scan"}, "lon": -76.997112, "fusion_lat": 0.0}, {"name": "94f99700e65b25569f81f2871bcaeb8a", "fusion_lon": 0.0, "lat": 38.92172033333333, "is_reserved": 0, "type": "electric_scooter", "bike_id": "94f99700e65b25569f81f2871bcaeb8a", "is_disabled": 0, "rental_uris": {"android": "https://dc.lft.to/lastmile_qr_scan", "ios": "https://dc.lft.to/lastmile_qr_scan"}, "lon": -77.03263433333333, "fusion_lat": 0.0}, {"name": "419442cd0e023470ae44736738d21aee", "fusion_lon": 0.0, "lat": 38.90021933333333, "is_reserved": 0, "type": "electric_scooter", "bike_id": "419442cd0e023470ae44736738d21aee", "is_disabled": 0, "rental_uris": {"android": "https://dc.lft.to/lastmile_qr_scan", "ios": "https://dc.lft.to/lastmile_qr_scan"}, "lon": -76.99719033333334, "fusion_lat": 0.0}, {"name": "5c5a9625822c1cb8c9bb8550d7981d0c", "fusion_lon": 0.0, "lat": 38.908841333333335, "is_reserved": 0, "type": "electric_scooter", "bike_id": "5c5a9625822c1cb8c9bb8550d7981d0c", "is_disabled": 0, "rental_uris": {"android": "https://dc.lft.to/lastmile_qr_scan", "ios": "https://dc.lft.to/lastmile_qr_scan"}, "lon": -77.03872166666666, "fusion_lat": 0.0}, {"name": "9567856f3af9899b67c3863dabc47e91", "fusion_lon": 0.0, "lat": 38.893567, "is_reserved": 0, "type": "electric_scooter", "bike_id": "9567856f3af9899b67c3863dabc47e91", "is_disabled": 0, "rental_uris": {"android": "https://dc.lft.to/lastmile_qr_scan", "ios": "https://dc.lft.to/lastmile_qr_scan"}, "lon": -76.949332, "fusion_lat": 0.0}, {"name": "0750924b4818bf6ed2382098daf1b2a7", "fusion_lon": 0.0, "lat": 38.92113483333333, "is_reserved": 0, "type": "electric_scooter", "bike_id": "0750924b4818bf6ed2382098daf1b2a7", "is_disabled": 0, "rental_uris": {"android": "https://dc.lft.to/lastmile_qr_scan", "ios": "https://dc.lft.to/lastmile_qr_scan"}, "lon": -77.03657383333334, "fusion_lat": 0.0}, {"name": "41d3d352ad31c2d54a5c65ab47f577bb", "fusion_lon": 0.0, "lat": 38.919263666666666, "is_reserved": 0, "type": "electric_scooter", "bike_id": "41d3d352ad31c2d54a5c65ab47f577bb", "is_disabled": 0, "rental_uris": {"android": "https://dc.lft.to/lastmile_qr_scan", "ios": "https://dc.lft.to/lastmile_qr_scan"}, "lon": -77.034252, "fusion_lat": 0.0}, {"name": "d25d7fae765aaf63c6177a983733d40e", "fusion_lon": 0.0, "lat": 38.9063315, "is_reserved": 0, "type": "electric_scooter", "bike_id": "d25d7fae765aaf63c6177a983733d40e", "is_disabled": 0, "rental_uris": {"android": "https://dc.lft.to/lastmile_qr_scan", "ios": "https://dc.lft.to/lastmile_qr_scan"}, "lon": -77.0238525, "fusion_lat": 0.0}, {"name": "52f941ee0765a99eb2137f6bc507b05e", "fusion_lon": 0.0, "lat": 39.014802333333336, "is_reserved": 0, "type": "electric_bike", "bike_id": "52f941ee0765a99eb2137f6bc507b05e", "is_disabled": 0, "rental_uris": {"android": "https://dc.lft.to/lastmile_qr_scan", "ios": "https://dc.lft.to/lastmile_qr_scan"}, "lon": -77.05494483333334, "fusion_lat": 0.0}, {"name": "5ad6a4e28bd4a8dd5b721c31ddddc276", "fusion_lon": 0.0, "lat": 38.903838, "is_reserved": 0, "type": "electric_scooter", "bike_id": "5ad6a4e28bd4a8dd5b721c31ddddc276", "is_disabled": 0, "rental_uris": {"android": "https://dc.lft.to/lastmile_qr_scan", "ios": "https://dc.lft.to/lastmile_qr_scan"}, "lon": -77.04079766666666, "fusion_lat": 0.0}, {"name": "e42ce0c72558422bf31cfc43caa7de15", "fusion_lon": 0.0, "lat": 38.920383333333334, "is_reserved": 0, "type": "electric_scooter", "bike_id": "e42ce0c72558422bf31cfc43caa7de15", "is_disabled": 0, "rental_uris": {"android": "https://dc.lft.to/lastmile_qr_scan", "ios": "https://dc.lft.to/lastmile_qr_scan"}, "lon": -77.02420983333333, "fusion_lat": 0.0}, {"name": "a4a2248ec603f1b7bfe848cd7ed28532", "fusion_lon": 0.0, "lat": 38.9388585, "is_reserved": 0, "type": "electric_scooter", "bike_id": "a4a2248ec603f1b7bfe848cd7ed28532", "is_disabled": 0, "rental_uris": {"android": "https://dc.lft.to/lastmile_qr_scan", "ios": "https://dc.lft.to/lastmile_qr_scan"}, "lon": -77.0248355, "fusion_lat": 0.0}, {"name": "515e9e7e2d1c78c46aa8123096e189c5", "fusion_lon": 0.0, "lat": 38.9184015, "is_reserved": 0, "type": "electric_scooter", "bike_id": "515e9e7e2d1c78c46aa8123096e189c5", "is_disabled": 0, "rental_uris": {"android": "https://dc.lft.to/lastmile_qr_scan", "ios": "https://dc.lft.to/lastmile_qr_scan"}, "lon": -77.02320866666666, "fusion_lat": 0.0}, {"name": "259c725b1e74fcadecb9639c009c3798", "fusion_lon": 0.0, "lat": 38.92881716666667, "is_reserved": 0, "type": "electric_scooter", "bike_id": "259c725b1e74fcadecb9639c009c3798", "is_disabled": 0, "rental_uris": {"android": "https://dc.lft.to/lastmile_qr_scan", "ios": "https://dc.lft.to/lastmile_qr_scan"}, "lon": -77.02649466666666, "fusion_lat": 0.0}, {"name": "616b4353afd7490d77771f77eb9dc3a3", "fusion_lon": 0.0, "lat": 38.92355416666667, "is_reserved": 0, "type": "electric_scooter", "bike_id": "616b4353afd7490d77771f77eb9dc3a3", "is_disabled": 0, "rental_uris": {"android": "https://dc.lft.to/lastmile_qr_scan", "ios": "https://dc.lft.to/lastmile_qr_scan"}, "lon": -77.03226916666667, "fusion_lat": 0.0}, {"name": "666deca475f49362d1d65d894a43026d", "fusion_lon": 0.0, "lat": 38.9000195, "is_reserved": 0, "type": "electric_scooter", "bike_id": "666deca475f49362d1d65d894a43026d", "is_disabled": 0, "rental_uris": {"android": "https://dc.lft.to/lastmile_qr_scan", "ios": "https://dc.lft.to/lastmile_qr_scan"}, "lon": -76.9929805, "fusion_lat": 0.0}, {"name": "f757215d754cdf67d84a58badf013fbe", "fusion_lon": 0.0, "lat": 38.922368, "is_reserved": 0, "type": "electric_scooter", "bike_id": "f757215d754cdf67d84a58badf013fbe", "is_disabled": 0, "rental_uris": {"android": "https://dc.lft.to/lastmile_qr_scan", "ios": "https://dc.lft.to/lastmile_qr_scan"}, "lon": -77.03892866666666, "fusion_lat": 0.0}, {"name": "5240d7e58c41433edb9824b886d7a1ff", "fusion_lon": 0.0, "lat": 38.87443966666667, "is_reserved": 0, "type": "electric_scooter", "bike_id": "5240d7e58c41433edb9824b886d7a1ff", "is_disabled": 0, "rental_uris": {"android": "https://dc.lft.to/lastmile_qr_scan", "ios": "https://dc.lft.to/lastmile_qr_scan"}, "lon": -77.005676, "fusion_lat": 0.0}, {"name": "c18187a7070cbe295b863340ed8b486d", "fusion_lon": 0.0, "lat": 38.94201133333333, "is_reserved": 0, "type": "electric_scooter", "bike_id": "c18187a7070cbe295b863340ed8b486d", "is_disabled": 0, "rental_uris": {"android": "https://dc.lft.to/lastmile_qr_scan", "ios": "https://dc.lft.to/lastmile_qr_scan"}, "lon": -77.02512966666667, "fusion_lat": 0.0}, {"name": "65802a018c853048a3f09fe190d4f809", "fusion_lon": 0.0, "lat": 38.90946183333333, "is_reserved": 0, "type": "electric_scooter", "bike_id": "65802a018c853048a3f09fe190d4f809", "is_disabled": 0, "rental_uris": {"android": "https://dc.lft.to/lastmile_qr_scan", "ios": "https://dc.lft.to/lastmile_qr_scan"}, "lon": -77.0344995, "fusion_lat": 0.0}, {"name": "6f13b612e8d60583b633cd1b7a3db25b", "fusion_lon": 0.0, "lat": 38.90009166666667, "is_reserved": 0, "type": "electric_scooter", "bike_id": "6f13b612e8d60583b633cd1b7a3db25b", "is_disabled": 0, "rental_uris": {"android": "https://dc.lft.to/lastmile_qr_scan", "ios": "https://dc.lft.to/lastmile_qr_scan"}, "lon": -76.996085, "fusion_lat": 0.0}, {"name": "a9061b97dc9633b4179e6f9e8098c616", "fusion_lon": 0.0, "lat": 38.917070833333334, "is_reserved": 0, "type": "electric_scooter", "bike_id": "a9061b97dc9633b4179e6f9e8098c616", "is_disabled": 0, "rental_uris": {"android": "https://dc.lft.to/lastmile_qr_scan", "ios": "https://dc.lft.to/lastmile_qr_scan"}, "lon": -77.01339866666666, "fusion_lat": 0.0}, {"name": "b3bb5d884e9839e11c385009d0a88faf", "fusion_lon": 0.0, "lat": 38.89617416666667, "is_reserved": 0, "type": "electric_scooter", "bike_id": "b3bb5d884e9839e11c385009d0a88faf", "is_disabled": 0, "rental_uris": {"android": "https://dc.lft.to/lastmile_qr_scan", "ios": "https://dc.lft.to/lastmile_qr_scan"}, "lon": -76.98111083333333, "fusion_lat": 0.0}, {"name": "b4721e030a88bf7300176b0ca1281060", "fusion_lon": 0.0, "lat": 38.921787, "is_reserved": 0, "type": "electric_scooter", "bike_id": "b4721e030a88bf7300176b0ca1281060", "is_disabled": 0, "rental_uris": {"android": "https://dc.lft.to/lastmile_qr_scan", "ios": "https://dc.lft.to/lastmile_qr_scan"}, "lon": -77.046976, "fusion_lat": 0.0}, {"name": "b06409da2673f3951a6d692e38b6b4f8", "fusion_lon": 0.0, "lat": 38.93442616666667, "is_reserved": 0, "type": "electric_scooter", "bike_id": "b06409da2673f3951a6d692e38b6b4f8", "is_disabled": 0, "rental_uris": {"android": "https://dc.lft.to/lastmile_qr_scan", "ios": "https://dc.lft.to/lastmile_qr_scan"}, "lon": -77.03287283333333, "fusion_lat": 0.0}, {"name": "f78e6e272c213c8580993c9aca6774c8", "fusion_lon": 0.0, "lat": 38.92119783333333, "is_reserved": 0, "type": "electric_bike", "bike_id": "f78e6e272c213c8580993c9aca6774c8", "is_disabled": 0, "rental_uris": {"android": "https://dc.lft.to/lastmile_qr_scan", "ios": "https://dc.lft.to/lastmile_qr_scan"}, "lon": -77.01213616666666, "fusion_lat": 0.0}, {"name": "4f083f889252fffb24524e154e3f60c3", "fusion_lon": 0.0, "lat": 38.912873833333336, "is_reserved": 0, "type": "electric_scooter", "bike_id": "4f083f889252fffb24524e154e3f60c3", "is_disabled": 0, "rental_uris": {"android": "https://dc.lft.to/lastmile_qr_scan", "ios": "https://dc.lft.to/lastmile_qr_scan"}, "lon": -77.023855, "fusion_lat": 0.0}, {"name": "9d8e5b03e76b92365919725f43d98aaa", "fusion_lon": 0.0, "lat": 38.896158166666666, "is_reserved": 0, "type": "electric_scooter", "bike_id": "9d8e5b03e76b92365919725f43d98aaa", "is_disabled": 0, "rental_uris": {"android": "https://dc.lft.to/lastmile_qr_scan", "ios": "https://dc.lft.to/lastmile_qr_scan"}, "lon": -77.022017, "fusion_lat": 0.0}, {"name": "86db4484b32402e654ccdc738529a908", "fusion_lon": 0.0, "lat": 38.896224, "is_reserved": 0, "type": "electric_scooter", "bike_id": "86db4484b32402e654ccdc738529a908", "is_disabled": 0, "rental_uris": {"android": "https://dc.lft.to/lastmile_qr_scan", "ios": "https://dc.lft.to/lastmile_qr_scan"}, "lon": -77.016009, "fusion_lat": 0.0}, {"name": "23c0574ec54829e61035c9319665cb06", "fusion_lon": 0.0, "lat": 38.9101825, "is_reserved": 0, "type": "electric_scooter", "bike_id": "23c0574ec54829e61035c9319665cb06", "is_disabled": 0, "rental_uris": {"android": "https://dc.lft.to/lastmile_qr_scan", "ios": "https://dc.lft.to/lastmile_qr_scan"}, "lon": -77.05276633333334, "fusion_lat": 0.0}, {"name": "cf006c36c95404b01abe3e5c9ce1cea4", "fusion_lon": 0.0, "lat": 38.900783, "is_reserved": 0, "type": "electric_scooter", "bike_id": "cf006c36c95404b01abe3e5c9ce1cea4", "is_disabled": 0, "rental_uris": {"android": "https://dc.lft.to/lastmile_qr_scan", "ios": "https://dc.lft.to/lastmile_qr_scan"}, "lon": -77.047326, "fusion_lat": 0.0}, {"name": "258891b88269849e51b0ab342b53798c", "fusion_lon": 0.0, "lat": 38.92161333333333, "is_reserved": 0, "type": "electric_scooter", "bike_id": "258891b88269849e51b0ab342b53798c", "is_disabled": 0, "rental_uris": {"android": "https://dc.lft.to/lastmile_qr_scan", "ios": "https://dc.lft.to/lastmile_qr_scan"}, "lon": -77.0253495, "fusion_lat": 0.0}, {"name": "d828dc8caf2ddebc4dd7e831ac5d0107", "fusion_lon": 0.0, "lat": 38.919900166666665, "is_reserved": 0, "type": "electric_scooter", "bike_id": "d828dc8caf2ddebc4dd7e831ac5d0107", "is_disabled": 0, "rental_uris": {"android": "https://dc.lft.to/lastmile_qr_scan", "ios": "https://dc.lft.to/lastmile_qr_scan"}, "lon": -77.02393033333334, "fusion_lat": 0.0}, {"name": "f487b3574ea61be42f4da6bce23dc1c0", "fusion_lon": 0.0, "lat": 38.921026499999996, "is_reserved": 0, "type": "electric_scooter", "bike_id": "f487b3574ea61be42f4da6bce23dc1c0", "is_disabled": 0, "rental_uris": {"android": "https://dc.lft.to/lastmile_qr_scan", "ios": "https://dc.lft.to/lastmile_qr_scan"}, "lon": -77.03176266666667, "fusion_lat": 0.0}, {"name": "ddde44b48729f56902b2c9b2116c41f2", "fusion_lon": 0.0, "lat": 38.9357835, "is_reserved": 0, "type": "electric_scooter", "bike_id": "ddde44b48729f56902b2c9b2116c41f2", "is_disabled": 0, "rental_uris": {"android": "https://dc.lft.to/lastmile_qr_scan", "ios": "https://dc.lft.to/lastmile_qr_scan"}, "lon": -77.02111566666666, "fusion_lat": 0.0}, {"name": "b41f3613a84197fe12dd830de3915562", "fusion_lon": 0.0, "lat": 38.914975, "is_reserved": 0, "type": "electric_scooter", "bike_id": "b41f3613a84197fe12dd830de3915562", "is_disabled": 0, "rental_uris": {"android": "https://dc.lft.to/lastmile_qr_scan", "ios": "https://dc.lft.to/lastmile_qr_scan"}, "lon": -76.983606, "fusion_lat": 0.0}, {"name": "104c9322127df1fc2ec893a41a28e479", "fusion_lon": 0.0, "lat": 38.91548266666667, "is_reserved": 0, "type": "electric_scooter", "bike_id": "104c9322127df1fc2ec893a41a28e479", "is_disabled": 0, "rental_uris": {"android": "https://dc.lft.to/lastmile_qr_scan", "ios": "https://dc.lft.to/lastmile_qr_scan"}, "lon": -77.0386705, "fusion_lat": 0.0}, {"name": "846a3e0363184c2eb17a744019875df3", "fusion_lon": 0.0, "lat": 38.93252, "is_reserved": 0, "type": "electric_scooter", "bike_id": "846a3e0363184c2eb17a744019875df3", "is_disabled": 0, "rental_uris": {"android": "https://dc.lft.to/lastmile_qr_scan", "ios": "https://dc.lft.to/lastmile_qr_scan"}, "lon": -77.03280633333334, "fusion_lat": 0.0}, {"name": "ae2f460c7a9c589e33827bec21b67129", "fusion_lon": 0.0, "lat": 38.861875166666664, "is_reserved": 0, "type": "electric_bike", "bike_id": "ae2f460c7a9c589e33827bec21b67129", "is_disabled": 0, "rental_uris": {"android": "https://dc.lft.to/lastmile_qr_scan", "ios": "https://dc.lft.to/lastmile_qr_scan"}, "lon": -76.94804283333333, "fusion_lat": 0.0}, {"name": "cbc88a52fe5e354cce2b4a16f5d899aa", "fusion_lon": 0.0, "lat": 38.951983166666665, "is_reserved": 0, "type": "electric_scooter", "bike_id": "cbc88a52fe5e354cce2b4a16f5d899aa", "is_disabled": 0, "rental_uris": {"android": "https://dc.lft.to/lastmile_qr_scan", "ios": "https://dc.lft.to/lastmile_qr_scan"}, "lon": -77.02738316666667, "fusion_lat": 0.0}, {"name": "b79d219ceed42327c571f4f7228e5b9a", "fusion_lon": 0.0, "lat": 38.890462, "is_reserved": 0, "type": "electric_scooter", "bike_id": "b79d219ceed42327c571f4f7228e5b9a", "is_disabled": 0, "rental_uris": {"android": "https://dc.lft.to/lastmile_qr_scan", "ios": "https://dc.lft.to/lastmile_qr_scan"}, "lon": -76.99066833333333, "fusion_lat": 0.0}, {"name": "577178aaf0cd276ffe531f74a518ccaf", "fusion_lon": 0.0, "lat": 38.89507433333333, "is_reserved": 0, "type": "electric_scooter", "bike_id": "577178aaf0cd276ffe531f74a518ccaf", "is_disabled": 0, "rental_uris": {"android": "https://dc.lft.to/lastmile_qr_scan", "ios": "https://dc.lft.to/lastmile_qr_scan"}, "lon": -76.93478783333333, "fusion_lat": 0.0}, {"name": "6a75e4b1d19048768f144b65917bb83f", "fusion_lon": 0.0, "lat": 38.90160933333333, "is_reserved": 0, "type": "electric_scooter", "bike_id": "6a75e4b1d19048768f144b65917bb83f", "is_disabled": 0, "rental_uris": {"android": "https://dc.lft.to/lastmile_qr_scan", "ios": "https://dc.lft.to/lastmile_qr_scan"}, "lon": -77.00852416666666, "fusion_lat": 0.0}, {"name": "39241a7409446e258135692fd97bbeac", "fusion_lon": 0.0, "lat": 38.892206333333334, "is_reserved": 0, "type": "electric_scooter", "bike_id": "39241a7409446e258135692fd97bbeac", "is_disabled": 0, "rental_uris": {"android": "https://dc.lft.to/lastmile_qr_scan", "ios": "https://dc.lft.to/lastmile_qr_scan"}, "lon": -77.022281, "fusion_lat": 0.0}, {"name": "8804f8dee9425d854f88a2fdc29adfba", "fusion_lon": 0.0, "lat": 38.940414833333335, "is_reserved": 0, "type": "electric_scooter", "bike_id": "8804f8dee9425d854f88a2fdc29adfba", "is_disabled": 0, "rental_uris": {"android": "https://dc.lft.to/lastmile_qr_scan", "ios": "https://dc.lft.to/lastmile_qr_scan"}, "lon": -77.0289595, "fusion_lat": 0.0}, {"name": "95cb5e9cab8cb093388525fbf0267e62", "fusion_lon": 0.0, "lat": 38.949112666666664, "is_reserved": 0, "type": "electric_bike", "bike_id": "95cb5e9cab8cb093388525fbf0267e62", "is_disabled": 0, "rental_uris": {"android": "https://dc.lft.to/lastmile_qr_scan", "ios": "https://dc.lft.to/lastmile_qr_scan"}, "lon": -77.0242315, "fusion_lat": 0.0}, {"name": "5521c0fad2780be6de1edea767cb1ad6", "fusion_lon": 0.0, "lat": 38.9051275, "is_reserved": 0, "type": "electric_scooter", "bike_id": "5521c0fad2780be6de1edea767cb1ad6", "is_disabled": 0, "rental_uris": {"android": "https://dc.lft.to/lastmile_qr_scan", "ios": "https://dc.lft.to/lastmile_qr_scan"}, "lon": -77.0419185, "fusion_lat": 0.0}, {"name": "12ae392f5c2fa98b309ee63c8dbdd9ae", "fusion_lon": 0.0, "lat": 38.85772466666667, "is_reserved": 0, "type": "electric_bike", "bike_id": "12ae392f5c2fa98b309ee63c8dbdd9ae", "is_disabled": 0, "rental_uris": {"android": "https://dc.lft.to/lastmile_qr_scan", "ios": "https://dc.lft.to/lastmile_qr_scan"}, "lon": -76.98768816666667, "fusion_lat": 0.0}, {"name": "50a246d095a62ac6361cd537f48093da", "fusion_lon": 0.0, "lat": 38.927711, "is_reserved": 0, "type": "electric_scooter", "bike_id": "50a246d095a62ac6361cd537f48093da", "is_disabled": 0, "rental_uris": {"android": "https://dc.lft.to/lastmile_qr_scan", "ios": "https://dc.lft.to/lastmile_qr_scan"}, "lon": -77.03059683333333, "fusion_lat": 0.0}, {"name": "79bad0207412bca6da14e73f4d10b179", "fusion_lon": 0.0, "lat": 38.89342666666667, "is_reserved": 0, "type": "electric_scooter", "bike_id": "79bad0207412bca6da14e73f4d10b179", "is_disabled": 0, "rental_uris": {"android": "https://dc.lft.to/lastmile_qr_scan", "ios": "https://dc.lft.to/lastmile_qr_scan"}, "lon": -77.017161, "fusion_lat": 0.0}, {"name": "e1a1c3b85e0589893dfbce20c37e3793", "fusion_lon": 0.0, "lat": 38.8991045, "is_reserved": 0, "type": "electric_scooter", "bike_id": "e1a1c3b85e0589893dfbce20c37e3793", "is_disabled": 0, "rental_uris": {"android": "https://dc.lft.to/lastmile_qr_scan", "ios": "https://dc.lft.to/lastmile_qr_scan"}, "lon": -76.97711716666667, "fusion_lat": 0.0}, {"name": "a5efccb42fc34f63560883003d7b46ac", "fusion_lon": 0.0, "lat": 38.9553225, "is_reserved": 0, "type": "electric_scooter", "bike_id": "a5efccb42fc34f63560883003d7b46ac", "is_disabled": 0, "rental_uris": {"android": "https://dc.lft.to/lastmile_qr_scan", "ios": "https://dc.lft.to/lastmile_qr_scan"}, "lon": -77.02780833333334, "fusion_lat": 0.0}, {"name": "3cfc4c37af5b2cb455107d346c95c690", "fusion_lon": 0.0, "lat": 38.924137, "is_reserved": 0, "type": "electric_scooter", "bike_id": "3cfc4c37af5b2cb455107d346c95c690", "is_disabled": 0, "rental_uris": {"android": "https://dc.lft.to/lastmile_qr_scan", "ios": "https://dc.lft.to/lastmile_qr_scan"}, "lon": -77.03541433333334, "fusion_lat": 0.0}, {"name": "fb08a50fe1e83953d4cbe042c00487d1", "fusion_lon": 0.0, "lat": 38.930126, "is_reserved": 0, "type": "electric_scooter", "bike_id": "fb08a50fe1e83953d4cbe042c00487d1", "is_disabled": 0, "rental_uris": {"android": "https://dc.lft.to/lastmile_qr_scan", "ios": "https://dc.lft.to/lastmile_qr_scan"}, "lon": -77.06093683333333, "fusion_lat": 0.0}, {"name": "73a38700cd77b62b30174c910804f5dc", "fusion_lon": 0.0, "lat": 38.8381145, "is_reserved": 0, "type": "electric_bike", "bike_id": "73a38700cd77b62b30174c910804f5dc", "is_disabled": 0, "rental_uris": {"android": "https://dc.lft.to/lastmile_qr_scan", "ios": "https://dc.lft.to/lastmile_qr_scan"}, "lon": -77.09523583333333, "fusion_lat": 0.0}, {"name": "099645b53dce1c13abfa0962b787df90", "fusion_lon": 0.0, "lat": 38.908031666666666, "is_reserved": 0, "type": "electric_scooter", "bike_id": "099645b53dce1c13abfa0962b787df90", "is_disabled": 0, "rental_uris": {"android": "https://dc.lft.to/lastmile_qr_scan", "ios": "https://dc.lft.to/lastmile_qr_scan"}, "lon": -77.036453, "fusion_lat": 0.0}, {"name": "a72199c459a3ddcced50ce82efa2ee8e", "fusion_lon": 0.0, "lat": 38.919374, "is_reserved": 0, "type": "electric_scooter", "bike_id": "a72199c459a3ddcced50ce82efa2ee8e", "is_disabled": 0, "rental_uris": {"android": "https://dc.lft.to/lastmile_qr_scan", "ios": "https://dc.lft.to/lastmile_qr_scan"}, "lon": -77.0248025, "fusion_lat": 0.0}, {"name": "486b280c03397d4feffbc49573f6b88c", "fusion_lon": 0.0, "lat": 38.951727, "is_reserved": 0, "type": "electric_scooter", "bike_id": "486b280c03397d4feffbc49573f6b88c", "is_disabled": 0, "rental_uris": {"android": "https://dc.lft.to/lastmile_qr_scan", "ios": "https://dc.lft.to/lastmile_qr_scan"}, "lon": -77.0272795, "fusion_lat": 0.0}, {"name": "3a1bbe67ba21196efb509a6b613f8f89", "fusion_lon": 0.0, "lat": 38.871787166666664, "is_reserved": 0, "type": "electric_scooter", "bike_id": "3a1bbe67ba21196efb509a6b613f8f89", "is_disabled": 0, "rental_uris": {"android": "https://dc.lft.to/lastmile_qr_scan", "ios": "https://dc.lft.to/lastmile_qr_scan"}, "lon": -77.00612183333334, "fusion_lat": 0.0}, {"name": "fe6f742c90cb5972d62b039cd747a64d", "fusion_lon": 0.0, "lat": 38.88065433333333, "is_reserved": 0, "type": "electric_scooter", "bike_id": "fe6f742c90cb5972d62b039cd747a64d", "is_disabled": 0, "rental_uris": {"android": "https://dc.lft.to/lastmile_qr_scan", "ios": "https://dc.lft.to/lastmile_qr_scan"}, "lon": -76.93216183333334, "fusion_lat": 0.0}, {"name": "878580a21b4b25fbe2ca8e4afa8ad1bd", "fusion_lon": 0.0, "lat": 38.887111833333336, "is_reserved": 0, "type": "electric_scooter", "bike_id": "878580a21b4b25fbe2ca8e4afa8ad1bd", "is_disabled": 0, "rental_uris": {"android": "https://dc.lft.to/lastmile_qr_scan", "ios": "https://dc.lft.to/lastmile_qr_scan"}, "lon": -77.01773983333334, "fusion_lat": 0.0}, {"name": "0dfd5a2e43e17549ec2ea708750869f7", "fusion_lon": 0.0, "lat": 38.932260166666666, "is_reserved": 0, "type": "electric_scooter", "bike_id": "0dfd5a2e43e17549ec2ea708750869f7", "is_disabled": 0, "rental_uris": {"android": "https://dc.lft.to/lastmile_qr_scan", "ios": "https://dc.lft.to/lastmile_qr_scan"}, "lon": -76.996095, "fusion_lat": 0.0}, {"name": "f4e6dfab68cd630f15d65c2cff3c2dcf", "fusion_lon": 0.0, "lat": 38.921596666666666, "is_reserved": 0, "type": "electric_scooter", "bike_id": "f4e6dfab68cd630f15d65c2cff3c2dcf", "is_disabled": 0, "rental_uris": {"android": "https://dc.lft.to/lastmile_qr_scan", "ios": "https://dc.lft.to/lastmile_qr_scan"}, "lon": -77.03382416666666, "fusion_lat": 0.0}, {"name": "b0ddad9646ca91168a3ef5f44dfdba24", "fusion_lon": 0.0, "lat": 38.90856983333333, "is_reserved": 0, "type": "electric_scooter", "bike_id": "b0ddad9646ca91168a3ef5f44dfdba24", "is_disabled": 0, "rental_uris": {"android": "https://dc.lft.to/lastmile_qr_scan", "ios": "https://dc.lft.to/lastmile_qr_scan"}, "lon": -77.04267683333333, "fusion_lat": 0.0}, {"name": "e30fb576ad1618e8a5dec608ecfe10c2", "fusion_lon": 0.0, "lat": 38.92232033333333, "is_reserved": 0, "type": "electric_scooter", "bike_id": "e30fb576ad1618e8a5dec608ecfe10c2", "is_disabled": 0, "rental_uris": {"android": "https://dc.lft.to/lastmile_qr_scan", "ios": "https://dc.lft.to/lastmile_qr_scan"}, "lon": -77.03519416666667, "fusion_lat": 0.0}, {"name": "e0befaac65f3b45dfc62130e5e156d7a", "fusion_lon": 0.0, "lat": 38.9085065, "is_reserved": 0, "type": "electric_scooter", "bike_id": "e0befaac65f3b45dfc62130e5e156d7a", "is_disabled": 0, "rental_uris": {"android": "https://dc.lft.to/lastmile_qr_scan", "ios": "https://dc.lft.to/lastmile_qr_scan"}, "lon": -77.04252766666667, "fusion_lat": 0.0}, {"name": "d0e4eeaaeba440dad3baef41b0da7b0f", "fusion_lon": 0.0, "lat": 38.9262465, "is_reserved": 0, "type": "electric_scooter", "bike_id": "d0e4eeaaeba440dad3baef41b0da7b0f", "is_disabled": 0, "rental_uris": {"android": "https://dc.lft.to/lastmile_qr_scan", "ios": "https://dc.lft.to/lastmile_qr_scan"}, "lon": -77.0431925, "fusion_lat": 0.0}, {"name": "899e27ced77b700ab001f47d6483eb7f", "fusion_lon": 0.0, "lat": 38.932468166666666, "is_reserved": 0, "type": "electric_scooter", "bike_id": "899e27ced77b700ab001f47d6483eb7f", "is_disabled": 0, "rental_uris": {"android": "https://dc.lft.to/lastmile_qr_scan", "ios": "https://dc.lft.to/lastmile_qr_scan"}, "lon": -77.03861533333334, "fusion_lat": 0.0}, {"name": "9be40982c9e2816d9da4e0d2cda5b85f", "fusion_lon": 0.0, "lat": 38.904169833333334, "is_reserved": 0, "type": "electric_scooter", "bike_id": "9be40982c9e2816d9da4e0d2cda5b85f", "is_disabled": 0, "rental_uris": {"android": "https://dc.lft.to/lastmile_qr_scan", "ios": "https://dc.lft.to/lastmile_qr_scan"}, "lon": -77.043753, "fusion_lat": 0.0}, {"name": "acc900f695269d6902e50f0291e6adec", "fusion_lon": 0.0, "lat": 38.902679166666665, "is_reserved": 0, "type": "electric_scooter", "bike_id": "acc900f695269d6902e50f0291e6adec", "is_disabled": 0, "rental_uris": {"android": "https://dc.lft.to/lastmile_qr_scan", "ios": "https://dc.lft.to/lastmile_qr_scan"}, "lon": -77.0032605, "fusion_lat": 0.0}, {"name": "e27b4b265c7846f58df8ca10e2613568", "fusion_lon": 0.0, "lat": 38.9019205, "is_reserved": 0, "type": "electric_scooter", "bike_id": "e27b4b265c7846f58df8ca10e2613568", "is_disabled": 0, "rental_uris": {"android": "https://dc.lft.to/lastmile_qr_scan", "ios": "https://dc.lft.to/lastmile_qr_scan"}, "lon": -77.0208065, "fusion_lat": 0.0}, {"name": "e7d3ffa50ce491a2dbc94b6297eb46c7", "fusion_lon": 0.0, "lat": 38.901203, "is_reserved": 0, "type": "electric_scooter", "bike_id": "e7d3ffa50ce491a2dbc94b6297eb46c7", "is_disabled": 0, "rental_uris": {"android": "https://dc.lft.to/lastmile_qr_scan", "ios": "https://dc.lft.to/lastmile_qr_scan"}, "lon": -77.02682433333334, "fusion_lat": 0.0}, {"name": "4657f74751daad62372cbb75576fb101", "fusion_lon": 0.0, "lat": 38.91918366666667, "is_reserved": 0, "type": "electric_scooter", "bike_id": "4657f74751daad62372cbb75576fb101", "is_disabled": 0, "rental_uris": {"android": "https://dc.lft.to/lastmile_qr_scan", "ios": "https://dc.lft.to/lastmile_qr_scan"}, "lon": -77.02512916666667, "fusion_lat": 0.0}, {"name": "a0204c01014031f35f082c87f363ce34", "fusion_lon": 0.0, "lat": 38.897310166666664, "is_reserved": 0, "type": "electric_scooter", "bike_id": "a0204c01014031f35f082c87f363ce34", "is_disabled": 0, "rental_uris": {"android": "https://dc.lft.to/lastmile_qr_scan", "ios": "https://dc.lft.to/lastmile_qr_scan"}, "lon": -77.05570966666667, "fusion_lat": 0.0}, {"name": "a267011b84935b679547d0cb5056da58", "fusion_lon": 0.0, "lat": 38.900461166666666, "is_reserved": 0, "type": "electric_scooter", "bike_id": "a267011b84935b679547d0cb5056da58", "is_disabled": 0, "rental_uris": {"android": "https://dc.lft.to/lastmile_qr_scan", "ios": "https://dc.lft.to/lastmile_qr_scan"}, "lon": -76.98833266666666, "fusion_lat": 0.0}, {"name": "c03e49718bd4d5b8d0895a2a4bdd36f4", "fusion_lon": 0.0, "lat": 38.90349583333333, "is_reserved": 0, "type": "electric_scooter", "bike_id": "c03e49718bd4d5b8d0895a2a4bdd36f4", "is_disabled": 0, "rental_uris": {"android": "https://dc.lft.to/lastmile_qr_scan", "ios": "https://dc.lft.to/lastmile_qr_scan"}, "lon": -76.97486716666667, "fusion_lat": 0.0}, {"name": "a32807e7c75c5a2f5e93b13034b64553", "fusion_lon": 0.0, "lat": 38.9282615, "is_reserved": 0, "type": "electric_scooter", "bike_id": "a32807e7c75c5a2f5e93b13034b64553", "is_disabled": 0, "rental_uris": {"android": "https://dc.lft.to/lastmile_qr_scan", "ios": "https://dc.lft.to/lastmile_qr_scan"}, "lon": -77.02620766666666, "fusion_lat": 0.0}, {"name": "a4fdb54e7ccc411f29ee2efa9d7a5322", "fusion_lon": 0.0, "lat": 38.92119266666667, "is_reserved": 0, "type": "electric_scooter", "bike_id": "a4fdb54e7ccc411f29ee2efa9d7a5322", "is_disabled": 0, "rental_uris": {"android": "https://dc.lft.to/lastmile_qr_scan", "ios": "https://dc.lft.to/lastmile_qr_scan"}, "lon": -77.04573983333333, "fusion_lat": 0.0}, {"name": "84069a8278368a8eabeaccaba1d85f50", "fusion_lon": 0.0, "lat": 38.925112, "is_reserved": 0, "type": "electric_scooter", "bike_id": "84069a8278368a8eabeaccaba1d85f50", "is_disabled": 0, "rental_uris": {"android": "https://dc.lft.to/lastmile_qr_scan", "ios": "https://dc.lft.to/lastmile_qr_scan"}, "lon": -77.05252416666667, "fusion_lat": 0.0}, {"name": "d6ac34967850ef45d940b16ca1d138f2", "fusion_lon": 0.0, "lat": 38.900591666666664, "is_reserved": 0, "type": "electric_scooter", "bike_id": "d6ac34967850ef45d940b16ca1d138f2", "is_disabled": 0, "rental_uris": {"android": "https://dc.lft.to/lastmile_qr_scan", "ios": "https://dc.lft.to/lastmile_qr_scan"}, "lon": -77.02913316666667, "fusion_lat": 0.0}, {"name": "258127416346ccc5126e044116c506f8", "fusion_lon": 0.0, "lat": 38.907166833333335, "is_reserved": 0, "type": "electric_scooter", "bike_id": "258127416346ccc5126e044116c506f8", "is_disabled": 0, "rental_uris": {"android": "https://dc.lft.to/lastmile_qr_scan", "ios": "https://dc.lft.to/lastmile_qr_scan"}, "lon": -77.01012933333334, "fusion_lat": 0.0}, {"name": "3e228d9ad0296cfef9a3570559c3afe5", "fusion_lon": 0.0, "lat": 38.90717566666667, "is_reserved": 0, "type": "electric_scooter", "bike_id": "3e228d9ad0296cfef9a3570559c3afe5", "is_disabled": 0, "rental_uris": {"android": "https://dc.lft.to/lastmile_qr_scan", "ios": "https://dc.lft.to/lastmile_qr_scan"}, "lon": -77.03447616666666, "fusion_lat": 0.0}, {"name": "dff2fd97594bdedebcae77bc9ed1fd36", "fusion_lon": 0.0, "lat": 38.91824883333334, "is_reserved": 0, "type": "electric_scooter", "bike_id": "dff2fd97594bdedebcae77bc9ed1fd36", "is_disabled": 0, "rental_uris": {"android": "https://dc.lft.to/lastmile_qr_scan", "ios": "https://dc.lft.to/lastmile_qr_scan"}, "lon": -77.02505866666667, "fusion_lat": 0.0}, {"name": "dcbaac90539074bcf2d4585ff4f4d6f0", "fusion_lon": 0.0, "lat": 38.90013366666667, "is_reserved": 0, "type": "electric_scooter", "bike_id": "dcbaac90539074bcf2d4585ff4f4d6f0", "is_disabled": 0, "rental_uris": {"android": "https://dc.lft.to/lastmile_qr_scan", "ios": "https://dc.lft.to/lastmile_qr_scan"}, "lon": -77.0067055, "fusion_lat": 0.0}, {"name": "ef94faf38df2af740c2fc2c4d9d69d1d", "fusion_lon": 0.0, "lat": 38.913823, "is_reserved": 0, "type": "electric_scooter", "bike_id": "ef94faf38df2af740c2fc2c4d9d69d1d", "is_disabled": 0, "rental_uris": {"android": "https://dc.lft.to/lastmile_qr_scan", "ios": "https://dc.lft.to/lastmile_qr_scan"}, "lon": -77.04138833333333, "fusion_lat": 0.0}, {"name": "448b0bed05e2d5262d592aaefd057c62", "fusion_lon": 0.0, "lat": 38.9202555, "is_reserved": 0, "type": "electric_scooter", "bike_id": "448b0bed05e2d5262d592aaefd057c62", "is_disabled": 0, "rental_uris": {"android": "https://dc.lft.to/lastmile_qr_scan", "ios": "https://dc.lft.to/lastmile_qr_scan"}, "lon": -77.01140566666666, "fusion_lat": 0.0}, {"name": "b2ae7b7fe023a67d88e27ba91bc66002", "fusion_lon": 0.0, "lat": 38.900846666666666, "is_reserved": 0, "type": "electric_scooter", "bike_id": "b2ae7b7fe023a67d88e27ba91bc66002", "is_disabled": 0, "rental_uris": {"android": "https://dc.lft.to/lastmile_qr_scan", "ios": "https://dc.lft.to/lastmile_qr_scan"}, "lon": -77.04754166666666, "fusion_lat": 0.0}, {"name": "a6490ce53afda4dc0130bc8b1b8e0067", "fusion_lon": 0.0, "lat": 38.903996666666664, "is_reserved": 0, "type": "electric_scooter", "bike_id": "a6490ce53afda4dc0130bc8b1b8e0067", "is_disabled": 0, "rental_uris": {"android": "https://dc.lft.to/lastmile_qr_scan", "ios": "https://dc.lft.to/lastmile_qr_scan"}, "lon": -77.03841683333333, "fusion_lat": 0.0}, {"name": "0fe88af41ae5dd4a826852edb383e8e8", "fusion_lon": 0.0, "lat": 38.901713, "is_reserved": 0, "type": "electric_scooter", "bike_id": "0fe88af41ae5dd4a826852edb383e8e8", "is_disabled": 0, "rental_uris": {"android": "https://dc.lft.to/lastmile_qr_scan", "ios": "https://dc.lft.to/lastmile_qr_scan"}, "lon": -77.0600785, "fusion_lat": 0.0}, {"name": "5e3983e9219fff575ac9664d465e2417", "fusion_lon": 0.0, "lat": 38.9272045, "is_reserved": 0, "type": "electric_scooter", "bike_id": "5e3983e9219fff575ac9664d465e2417", "is_disabled": 0, "rental_uris": {"android": "https://dc.lft.to/lastmile_qr_scan", "ios": "https://dc.lft.to/lastmile_qr_scan"}, "lon": -77.03992216666667, "fusion_lat": 0.0}, {"name": "139ed742d921f10748fcef466e755a98", "fusion_lon": 0.0, "lat": 38.929323, "is_reserved": 0, "type": "electric_bike", "bike_id": "139ed742d921f10748fcef466e755a98", "is_disabled": 0, "rental_uris": {"android": "https://dc.lft.to/lastmile_qr_scan", "ios": "https://dc.lft.to/lastmile_qr_scan"}, "lon": -77.02779833333334, "fusion_lat": 0.0}, {"name": "5de73395b010f2b8577705ecf48eff04", "fusion_lon": 0.0, "lat": 38.872753833333334, "is_reserved": 0, "type": "electric_bike", "bike_id": "5de73395b010f2b8577705ecf48eff04", "is_disabled": 0, "rental_uris": {"android": "https://dc.lft.to/lastmile_qr_scan", "ios": "https://dc.lft.to/lastmile_qr_scan"}, "lon": -77.23327016666667, "fusion_lat": 0.0}, {"name": "90e8481be137418538c2f61cc94ec7b5", "fusion_lon": 0.0, "lat": 38.9057735, "is_reserved": 0, "type": "electric_scooter", "bike_id": "90e8481be137418538c2f61cc94ec7b5", "is_disabled": 0, "rental_uris": {"android": "https://dc.lft.to/lastmile_qr_scan", "ios": "https://dc.lft.to/lastmile_qr_scan"}, "lon": -77.00707, "fusion_lat": 0.0}, {"name": "a6794207a33044c4de4f61a12a8c86b1", "fusion_lon": 0.0, "lat": 38.92889983333333, "is_reserved": 0, "type": "electric_scooter", "bike_id": "a6794207a33044c4de4f61a12a8c86b1", "is_disabled": 0, "rental_uris": {"android": "https://dc.lft.to/lastmile_qr_scan", "ios": "https://dc.lft.to/lastmile_qr_scan"}, "lon": -77.03507866666666, "fusion_lat": 0.0}, {"name": "6d794b3bc30f56d81e172d86c7976fba", "fusion_lon": 0.0, "lat": 38.90826466666667, "is_reserved": 0, "type": "electric_scooter", "bike_id": "6d794b3bc30f56d81e172d86c7976fba", "is_disabled": 0, "rental_uris": {"android": "https://dc.lft.to/lastmile_qr_scan", "ios": "https://dc.lft.to/lastmile_qr_scan"}, "lon": -76.94158683333333, "fusion_lat": 0.0}, {"name": "4e85e8910f63681fa5040220d6d7bded", "fusion_lon": 0.0, "lat": 38.964709666666664, "is_reserved": 0, "type": "electric_bike", "bike_id": "4e85e8910f63681fa5040220d6d7bded", "is_disabled": 0, "rental_uris": {"android": "https://dc.lft.to/lastmile_qr_scan", "ios": "https://dc.lft.to/lastmile_qr_scan"}, "lon": -77.03562266666667, "fusion_lat": 0.0}, {"name": "94023def2d70bf7bbd89d84aaffa11dd", "fusion_lon": 0.0, "lat": 38.903243333333336, "is_reserved": 0, "type": "electric_scooter", "bike_id": "94023def2d70bf7bbd89d84aaffa11dd", "is_disabled": 0, "rental_uris": {"android": "https://dc.lft.to/lastmile_qr_scan", "ios": "https://dc.lft.to/lastmile_qr_scan"}, "lon": -76.98154533333333, "fusion_lat": 0.0}, {"name": "53e1b439480d5d6aacd1f9fc6c204ee1", "fusion_lon": 0.0, "lat": 38.924558166666664, "is_reserved": 0, "type": "electric_scooter", "bike_id": "53e1b439480d5d6aacd1f9fc6c204ee1", "is_disabled": 0, "rental_uris": {"android": "https://dc.lft.to/lastmile_qr_scan", "ios": "https://dc.lft.to/lastmile_qr_scan"}, "lon": -77.0411395, "fusion_lat": 0.0}, {"name": "4fc3bb2395469560eb3563ffdf19fa53", "fusion_lon": 0.0, "lat": 38.919229333333334, "is_reserved": 0, "type": "electric_scooter", "bike_id": "4fc3bb2395469560eb3563ffdf19fa53", "is_disabled": 0, "rental_uris": {"android": "https://dc.lft.to/lastmile_qr_scan", "ios": "https://dc.lft.to/lastmile_qr_scan"}, "lon": -77.02485933333334, "fusion_lat": 0.0}, {"name": "ba250dd0c1deb78dd2fa79cd7df7a030", "fusion_lon": 0.0, "lat": 38.888197, "is_reserved": 0, "type": "electric_scooter", "bike_id": "ba250dd0c1deb78dd2fa79cd7df7a030", "is_disabled": 0, "rental_uris": {"android": "https://dc.lft.to/lastmile_qr_scan", "ios": "https://dc.lft.to/lastmile_qr_scan"}, "lon": -77.01491666666666, "fusion_lat": 0.0}, {"name": "85213da10b6ec0a3221136191caead62", "fusion_lon": 0.0, "lat": 38.90359, "is_reserved": 0, "type": "electric_scooter", "bike_id": "85213da10b6ec0a3221136191caead62", "is_disabled": 0, "rental_uris": {"android": "https://dc.lft.to/lastmile_qr_scan", "ios": "https://dc.lft.to/lastmile_qr_scan"}, "lon": -77.050196, "fusion_lat": 0.0}, {"name": "d2b533809d4e20bc0955a39036ea8c98", "fusion_lon": 0.0, "lat": 38.952994333333336, "is_reserved": 0, "type": "electric_bike", "bike_id": "d2b533809d4e20bc0955a39036ea8c98", "is_disabled": 0, "rental_uris": {"android": "https://dc.lft.to/lastmile_qr_scan", "ios": "https://dc.lft.to/lastmile_qr_scan"}, "lon": -77.02401583333334, "fusion_lat": 0.0}, {"name": "07eb93e30e0f87be21eb97cd7128085c", "fusion_lon": 0.0, "lat": 38.8978345, "is_reserved": 0, "type": "electric_scooter", "bike_id": "07eb93e30e0f87be21eb97cd7128085c", "is_disabled": 0, "rental_uris": {"android": "https://dc.lft.to/lastmile_qr_scan", "ios": "https://dc.lft.to/lastmile_qr_scan"}, "lon": -77.00910933333333, "fusion_lat": 0.0}, {"name": "28085213468d8265e5f3352efdf3eaec", "fusion_lon": 0.0, "lat": 38.91768616666667, "is_reserved": 0, "type": "electric_scooter", "bike_id": "28085213468d8265e5f3352efdf3eaec", "is_disabled": 0, "rental_uris": {"android": "https://dc.lft.to/lastmile_qr_scan", "ios": "https://dc.lft.to/lastmile_qr_scan"}, "lon": -77.04057216666666, "fusion_lat": 0.0}, {"name": "c79345318c160a30180c91515153a163", "fusion_lon": 0.0, "lat": 38.87887466666667, "is_reserved": 0, "type": "electric_bike", "bike_id": "c79345318c160a30180c91515153a163", "is_disabled": 0, "rental_uris": {"android": "https://dc.lft.to/lastmile_qr_scan", "ios": "https://dc.lft.to/lastmile_qr_scan"}, "lon": -77.09613266666666, "fusion_lat": 0.0}, {"name": "f94ae1ac900a8aa5fea4a74786c73a5e", "fusion_lon": 0.0, "lat": 38.92233933333333, "is_reserved": 0, "type": "electric_scooter", "bike_id": "f94ae1ac900a8aa5fea4a74786c73a5e", "is_disabled": 0, "rental_uris": {"android": "https://dc.lft.to/lastmile_qr_scan", "ios": "https://dc.lft.to/lastmile_qr_scan"}, "lon": -77.0449175, "fusion_lat": 0.0}, {"name": "33ee20befb8d7943dbdb18c23455f0f8", "fusion_lon": 0.0, "lat": 38.91555266666667, "is_reserved": 0, "type": "electric_scooter", "bike_id": "33ee20befb8d7943dbdb18c23455f0f8", "is_disabled": 0, "rental_uris": {"android": "https://dc.lft.to/lastmile_qr_scan", "ios": "https://dc.lft.to/lastmile_qr_scan"}, "lon": -77.04176366666667, "fusion_lat": 0.0}, {"name": "7cfd41831ff8e34758c0db4ac752cc6f", "fusion_lon": 0.0, "lat": 38.925064, "is_reserved": 0, "type": "electric_scooter", "bike_id": "7cfd41831ff8e34758c0db4ac752cc6f", "is_disabled": 0, "rental_uris": {"android": "https://dc.lft.to/lastmile_qr_scan", "ios": "https://dc.lft.to/lastmile_qr_scan"}, "lon": -77.023541, "fusion_lat": 0.0}, {"name": "baba00677a1f6b91625e92d15a483b7d", "fusion_lon": 0.0, "lat": 38.91694116666667, "is_reserved": 0, "type": "electric_scooter", "bike_id": "baba00677a1f6b91625e92d15a483b7d", "is_disabled": 0, "rental_uris": {"android": "https://dc.lft.to/lastmile_qr_scan", "ios": "https://dc.lft.to/lastmile_qr_scan"}, "lon": -77.04262483333333, "fusion_lat": 0.0}, {"name": "7574471bc0758c018b2850b4ba945bdf", "fusion_lon": 0.0, "lat": 39.054990333333336, "is_reserved": 0, "type": "electric_bike", "bike_id": "7574471bc0758c018b2850b4ba945bdf", "is_disabled": 0, "rental_uris": {"android": "https://dc.lft.to/lastmile_qr_scan", "ios": "https://dc.lft.to/lastmile_qr_scan"}, "lon": -77.0465065, "fusion_lat": 0.0}, {"name": "b79cfc829175519794f1eff3bd9fc56f", "fusion_lon": 0.0, "lat": 38.90274766666667, "is_reserved": 0, "type": "electric_scooter", "bike_id": "b79cfc829175519794f1eff3bd9fc56f", "is_disabled": 0, "rental_uris": {"android": "https://dc.lft.to/lastmile_qr_scan", "ios": "https://dc.lft.to/lastmile_qr_scan"}, "lon": -77.057926, "fusion_lat": 0.0}, {"name": "0e3e48580ab34aec4a8a58290c272a20", "fusion_lon": 0.0, "lat": 38.931799, "is_reserved": 0, "type": "electric_scooter", "bike_id": "0e3e48580ab34aec4a8a58290c272a20", "is_disabled": 0, "rental_uris": {"android": "https://dc.lft.to/lastmile_qr_scan", "ios": "https://dc.lft.to/lastmile_qr_scan"}, "lon": -77.03656283333333, "fusion_lat": 0.0}, {"name": "4c3ecc2e49b4a6efa94f5fcc6374831f", "fusion_lon": 0.0, "lat": 38.904991, "is_reserved": 0, "type": "electric_scooter", "bike_id": "4c3ecc2e49b4a6efa94f5fcc6374831f", "is_disabled": 0, "rental_uris": {"android": "https://dc.lft.to/lastmile_qr_scan", "ios": "https://dc.lft.to/lastmile_qr_scan"}, "lon": -77.01991, "fusion_lat": 0.0}, {"name": "2f52e5a882d273ef0817ba0c06a4be83", "fusion_lon": 0.0, "lat": 38.933106333333335, "is_reserved": 0, "type": "electric_scooter", "bike_id": "2f52e5a882d273ef0817ba0c06a4be83", "is_disabled": 0, "rental_uris": {"android": "https://dc.lft.to/lastmile_qr_scan", "ios": "https://dc.lft.to/lastmile_qr_scan"}, "lon": -77.03455133333334, "fusion_lat": 0.0}, {"name": "0c4cb12b27aece14d20cb962a2b31fee", "fusion_lon": 0.0, "lat": 38.914061333333336, "is_reserved": 0, "type": "electric_scooter", "bike_id": "0c4cb12b27aece14d20cb962a2b31fee", "is_disabled": 0, "rental_uris": {"android": "https://dc.lft.to/lastmile_qr_scan", "ios": "https://dc.lft.to/lastmile_qr_scan"}, "lon": -77.03700383333333, "fusion_lat": 0.0}, {"name": "84a74c2464c2a7f6c1e301b69f6fd16c", "fusion_lon": 0.0, "lat": 38.94224966666667, "is_reserved": 0, "type": "electric_bike", "bike_id": "84a74c2464c2a7f6c1e301b69f6fd16c", "is_disabled": 0, "rental_uris": {"android": "https://dc.lft.to/lastmile_qr_scan", "ios": "https://dc.lft.to/lastmile_qr_scan"}, "lon": -76.96619133333333, "fusion_lat": 0.0}, {"name": "5f0856525bd936ae62a9b58d6469fea6", "fusion_lon": 0.0, "lat": 38.92037666666667, "is_reserved": 0, "type": "electric_scooter", "bike_id": "5f0856525bd936ae62a9b58d6469fea6", "is_disabled": 0, "rental_uris": {"android": "https://dc.lft.to/lastmile_qr_scan", "ios": "https://dc.lft.to/lastmile_qr_scan"}, "lon": -77.02587516666667, "fusion_lat": 0.0}, {"name": "4921e8a1650c99037f08d299ed9eaf5e", "fusion_lon": 0.0, "lat": 38.896199833333334, "is_reserved": 0, "type": "electric_scooter", "bike_id": "4921e8a1650c99037f08d299ed9eaf5e", "is_disabled": 0, "rental_uris": {"android": "https://dc.lft.to/lastmile_qr_scan", "ios": "https://dc.lft.to/lastmile_qr_scan"}, "lon": -77.04463566666666, "fusion_lat": 0.0}, {"name": "9a5b25a6c533930fb5d0193a1e5057ea", "fusion_lon": 0.0, "lat": 38.9296625, "is_reserved": 0, "type": "electric_bike", "bike_id": "9a5b25a6c533930fb5d0193a1e5057ea", "is_disabled": 0, "rental_uris": {"android": "https://dc.lft.to/lastmile_qr_scan", "ios": "https://dc.lft.to/lastmile_qr_scan"}, "lon": -77.18563116666667, "fusion_lat": 0.0}, {"name": "2c997be63caa4ecbbc8e4e2eb2147dd0", "fusion_lon": 0.0, "lat": 38.915604, "is_reserved": 0, "type": "electric_scooter", "bike_id": "2c997be63caa4ecbbc8e4e2eb2147dd0", "is_disabled": 0, "rental_uris": {"android": "https://dc.lft.to/lastmile_qr_scan", "ios": "https://dc.lft.to/lastmile_qr_scan"}, "lon": -77.02051933333334, "fusion_lat": 0.0}, {"name": "bbf95eb00ceb7bd320c4ae13adeffb48", "fusion_lon": 0.0, "lat": 38.924557166666666, "is_reserved": 0, "type": "electric_scooter", "bike_id": "bbf95eb00ceb7bd320c4ae13adeffb48", "is_disabled": 0, "rental_uris": {"android": "https://dc.lft.to/lastmile_qr_scan", "ios": "https://dc.lft.to/lastmile_qr_scan"}, "lon": -77.07828783333333, "fusion_lat": 0.0}, {"name": "8f8bbbdc7a265a007cdccdcda3373d45", "fusion_lon": 0.0, "lat": 38.934031166666664, "is_reserved": 0, "type": "electric_scooter", "bike_id": "8f8bbbdc7a265a007cdccdcda3373d45", "is_disabled": 0, "rental_uris": {"android": "https://dc.lft.to/lastmile_qr_scan", "ios": "https://dc.lft.to/lastmile_qr_scan"}, "lon": -77.03990933333333, "fusion_lat": 0.0}, {"name": "cb03e350443e20f58d48092d8e3d2129", "fusion_lon": 0.0, "lat": 38.9272415, "is_reserved": 0, "type": "electric_scooter", "bike_id": "cb03e350443e20f58d48092d8e3d2129", "is_disabled": 0, "rental_uris": {"android": "https://dc.lft.to/lastmile_qr_scan", "ios": "https://dc.lft.to/lastmile_qr_scan"}, "lon": -77.02280183333333, "fusion_lat": 0.0}, {"name": "f04d599e33921d86bfb4eaa306eeb739", "fusion_lon": 0.0, "lat": 38.886097666666664, "is_reserved": 0, "type": "electric_scooter", "bike_id": "f04d599e33921d86bfb4eaa306eeb739", "is_disabled": 0, "rental_uris": {"android": "https://dc.lft.to/lastmile_qr_scan", "ios": "https://dc.lft.to/lastmile_qr_scan"}, "lon": -76.99513516666667, "fusion_lat": 0.0}, {"name": "feaa1d4d3d184ea320d236bd4e095793", "fusion_lon": 0.0, "lat": 38.9241315, "is_reserved": 0, "type": "electric_scooter", "bike_id": "feaa1d4d3d184ea320d236bd4e095793", "is_disabled": 0, "rental_uris": {"android": "https://dc.lft.to/lastmile_qr_scan", "ios": "https://dc.lft.to/lastmile_qr_scan"}, "lon": -77.03638466666666, "fusion_lat": 0.0}, {"name": "bc38d599258c357dbcb67ab741efb0a9", "fusion_lon": 0.0, "lat": 38.913128666666665, "is_reserved": 0, "type": "electric_bike", "bike_id": "bc38d599258c357dbcb67ab741efb0a9", "is_disabled": 0, "rental_uris": {"android": "https://dc.lft.to/lastmile_qr_scan", "ios": "https://dc.lft.to/lastmile_qr_scan"}, "lon": -77.223012, "fusion_lat": 0.0}, {"name": "ac56bd332e1a742e6dd2313e1c79e166", "fusion_lon": 0.0, "lat": 38.888731666666665, "is_reserved": 0, "type": "electric_scooter", "bike_id": "ac56bd332e1a742e6dd2313e1c79e166", "is_disabled": 0, "rental_uris": {"android": "https://dc.lft.to/lastmile_qr_scan", "ios": "https://dc.lft.to/lastmile_qr_scan"}, "lon": -76.99030616666667, "fusion_lat": 0.0}, {"name": "f8583a262318a4c04294198c1e3f37fd", "fusion_lon": 0.0, "lat": 38.919217, "is_reserved": 0, "type": "electric_scooter", "bike_id": "f8583a262318a4c04294198c1e3f37fd", "is_disabled": 0, "rental_uris": {"android": "https://dc.lft.to/lastmile_qr_scan", "ios": "https://dc.lft.to/lastmile_qr_scan"}, "lon": -77.04250166666667, "fusion_lat": 0.0}, {"name": "bdd4a22d6c47cd11904912e1e82a90ff", "fusion_lon": 0.0, "lat": 38.94175766666667, "is_reserved": 0, "type": "electric_scooter", "bike_id": "bdd4a22d6c47cd11904912e1e82a90ff", "is_disabled": 0, "rental_uris": {"android": "https://dc.lft.to/lastmile_qr_scan", "ios": "https://dc.lft.to/lastmile_qr_scan"}, "lon": -77.02559916666667, "fusion_lat": 0.0}, {"name": "495ee9e9c9db6b6469c6555b79013804", "fusion_lon": 0.0, "lat": 38.931874, "is_reserved": 0, "type": "electric_scooter", "bike_id": "495ee9e9c9db6b6469c6555b79013804", "is_disabled": 0, "rental_uris": {"android": "https://dc.lft.to/lastmile_qr_scan", "ios": "https://dc.lft.to/lastmile_qr_scan"}, "lon": -77.0387735, "fusion_lat": 0.0}, {"name": "b8e7ddf32a1d5f0cccb945d0500ffeae", "fusion_lon": 0.0, "lat": 38.866905833333334, "is_reserved": 0, "type": "electric_scooter", "bike_id": "b8e7ddf32a1d5f0cccb945d0500ffeae", "is_disabled": 0, "rental_uris": {"android": "https://dc.lft.to/lastmile_qr_scan", "ios": "https://dc.lft.to/lastmile_qr_scan"}, "lon": -76.98564133333333, "fusion_lat": 0.0}, {"name": "10b40859c7c9111eff3e054c83637272", "fusion_lon": 0.0, "lat": 38.86374083333333, "is_reserved": 0, "type": "electric_scooter", "bike_id": "10b40859c7c9111eff3e054c83637272", "is_disabled": 0, "rental_uris": {"android": "https://dc.lft.to/lastmile_qr_scan", "ios": "https://dc.lft.to/lastmile_qr_scan"}, "lon": -76.990614, "fusion_lat": 0.0}, {"name": "13e75b546f7ecdabc99b40acf36e660f", "fusion_lon": 0.0, "lat": 38.905744166666665, "is_reserved": 0, "type": "electric_scooter", "bike_id": "13e75b546f7ecdabc99b40acf36e660f", "is_disabled": 0, "rental_uris": {"android": "https://dc.lft.to/lastmile_qr_scan", "ios": "https://dc.lft.to/lastmile_qr_scan"}, "lon": -77.0276435, "fusion_lat": 0.0}, {"name": "4a82bb4bb546df4abbf134aa1ed0edeb", "fusion_lon": 0.0, "lat": 38.911944166666665, "is_reserved": 0, "type": "electric_scooter", "bike_id": "4a82bb4bb546df4abbf134aa1ed0edeb", "is_disabled": 0, "rental_uris": {"android": "https://dc.lft.to/lastmile_qr_scan", "ios": "https://dc.lft.to/lastmile_qr_scan"}, "lon": -77.038382, "fusion_lat": 0.0}, {"name": "bef262852c63c7c1f5f0a2539bcb6a06", "fusion_lon": 0.0, "lat": 38.911689333333335, "is_reserved": 0, "type": "electric_scooter", "bike_id": "bef262852c63c7c1f5f0a2539bcb6a06", "is_disabled": 0, "rental_uris": {"android": "https://dc.lft.to/lastmile_qr_scan", "ios": "https://dc.lft.to/lastmile_qr_scan"}, "lon": -77.011308, "fusion_lat": 0.0}, {"name": "42eb639188f678baa0f27bd6da011af5", "fusion_lon": 0.0, "lat": 38.9141545, "is_reserved": 0, "type": "electric_scooter", "bike_id": "42eb639188f678baa0f27bd6da011af5", "is_disabled": 0, "rental_uris": {"android": "https://dc.lft.to/lastmile_qr_scan", "ios": "https://dc.lft.to/lastmile_qr_scan"}, "lon": -77.04220066666667, "fusion_lat": 0.0}, {"name": "cb454496d8604803c15e0de5798dd3c2", "fusion_lon": 0.0, "lat": 38.90254616666667, "is_reserved": 0, "type": "electric_scooter", "bike_id": "cb454496d8604803c15e0de5798dd3c2", "is_disabled": 0, "rental_uris": {"android": "https://dc.lft.to/lastmile_qr_scan", "ios": "https://dc.lft.to/lastmile_qr_scan"}, "lon": -76.9891665, "fusion_lat": 0.0}, {"name": "38a7406767427e107098885862e75b9e", "fusion_lon": 0.0, "lat": 38.9079335, "is_reserved": 0, "type": "electric_scooter", "bike_id": "38a7406767427e107098885862e75b9e", "is_disabled": 0, "rental_uris": {"android": "https://dc.lft.to/lastmile_qr_scan", "ios": "https://dc.lft.to/lastmile_qr_scan"}, "lon": -77.03130083333333, "fusion_lat": 0.0}, {"name": "c726d64de52711982f37f6a2a695899a", "fusion_lon": 0.0, "lat": 38.91097966666667, "is_reserved": 0, "type": "electric_scooter", "bike_id": "c726d64de52711982f37f6a2a695899a", "is_disabled": 0, "rental_uris": {"android": "https://dc.lft.to/lastmile_qr_scan", "ios": "https://dc.lft.to/lastmile_qr_scan"}, "lon": -77.042047, "fusion_lat": 0.0}, {"name": "83837440ae4a71e7f3302078be4376bf", "fusion_lon": 0.0, "lat": 38.8848875, "is_reserved": 0, "type": "electric_scooter", "bike_id": "83837440ae4a71e7f3302078be4376bf", "is_disabled": 0, "rental_uris": {"android": "https://dc.lft.to/lastmile_qr_scan", "ios": "https://dc.lft.to/lastmile_qr_scan"}, "lon": -77.0071095, "fusion_lat": 0.0}, {"name": "b69fef50dd3ae4a4a25c123aa3b14d7c", "fusion_lon": 0.0, "lat": 38.913571833333336, "is_reserved": 0, "type": "electric_scooter", "bike_id": "b69fef50dd3ae4a4a25c123aa3b14d7c", "is_disabled": 0, "rental_uris": {"android": "https://dc.lft.to/lastmile_qr_scan", "ios": "https://dc.lft.to/lastmile_qr_scan"}, "lon": -77.01622533333334, "fusion_lat": 0.0}, {"name": "5d0fe3b8619d583f2da1382bfa7de054", "fusion_lon": 0.0, "lat": 38.91719, "is_reserved": 0, "type": "electric_scooter", "bike_id": "5d0fe3b8619d583f2da1382bfa7de054", "is_disabled": 0, "rental_uris": {"android": "https://dc.lft.to/lastmile_qr_scan", "ios": "https://dc.lft.to/lastmile_qr_scan"}, "lon": -77.02593066666667, "fusion_lat": 0.0}, {"name": "0c5e3d73cdb365d6156c7ce182013bf4", "fusion_lon": 0.0, "lat": 38.9037205, "is_reserved": 0, "type": "electric_scooter", "bike_id": "0c5e3d73cdb365d6156c7ce182013bf4", "is_disabled": 0, "rental_uris": {"android": "https://dc.lft.to/lastmile_qr_scan", "ios": "https://dc.lft.to/lastmile_qr_scan"}, "lon": -77.017711, "fusion_lat": 0.0}, {"name": "c1d061f1b38c3a6716959fe53f2aa72f", "fusion_lon": 0.0, "lat": 38.900413, "is_reserved": 0, "type": "electric_scooter", "bike_id": "c1d061f1b38c3a6716959fe53f2aa72f", "is_disabled": 0, "rental_uris": {"android": "https://dc.lft.to/lastmile_qr_scan", "ios": "https://dc.lft.to/lastmile_qr_scan"}, "lon": -77.00309283333333, "fusion_lat": 0.0}, {"name": "b76a147e8608328b86122fe2da0ba1ba", "fusion_lon": 0.0, "lat": 38.9089135, "is_reserved": 0, "type": "electric_scooter", "bike_id": "b76a147e8608328b86122fe2da0ba1ba", "is_disabled": 0, "rental_uris": {"android": "https://dc.lft.to/lastmile_qr_scan", "ios": "https://dc.lft.to/lastmile_qr_scan"}, "lon": -77.03144833333333, "fusion_lat": 0.0}, {"name": "365199a496ea51a9b991f368d7e6114d", "fusion_lon": 0.0, "lat": 38.907242, "is_reserved": 0, "type": "electric_scooter", "bike_id": "365199a496ea51a9b991f368d7e6114d", "is_disabled": 0, "rental_uris": {"android": "https://dc.lft.to/lastmile_qr_scan", "ios": "https://dc.lft.to/lastmile_qr_scan"}, "lon": -77.02937333333334, "fusion_lat": 0.0}, {"name": "6267757dae2bc479bb16c7bb9a827263", "fusion_lon": 0.0, "lat": 38.8922115, "is_reserved": 0, "type": "electric_scooter", "bike_id": "6267757dae2bc479bb16c7bb9a827263", "is_disabled": 0, "rental_uris": {"android": "https://dc.lft.to/lastmile_qr_scan", "ios": "https://dc.lft.to/lastmile_qr_scan"}, "lon": -77.032192, "fusion_lat": 0.0}, {"name": "dae8725d36b8ab4f6ab344576c85a2e6", "fusion_lon": 0.0, "lat": 38.89221366666666, "is_reserved": 0, "type": "electric_scooter", "bike_id": "dae8725d36b8ab4f6ab344576c85a2e6", "is_disabled": 0, "rental_uris": {"android": "https://dc.lft.to/lastmile_qr_scan", "ios": "https://dc.lft.to/lastmile_qr_scan"}, "lon": -77.04308633333333, "fusion_lat": 0.0}, {"name": "05e02d6a30d448565f1a4cb0f9fa4f62", "fusion_lon": 0.0, "lat": 38.91703533333333, "is_reserved": 0, "type": "electric_scooter", "bike_id": "05e02d6a30d448565f1a4cb0f9fa4f62", "is_disabled": 0, "rental_uris": {"android": "https://dc.lft.to/lastmile_qr_scan", "ios": "https://dc.lft.to/lastmile_qr_scan"}, "lon": -77.040452, "fusion_lat": 0.0}, {"name": "bb63c67d918b3a63cd360a27c9341196", "fusion_lon": 0.0, "lat": 38.91413283333333, "is_reserved": 0, "type": "electric_scooter", "bike_id": "bb63c67d918b3a63cd360a27c9341196", "is_disabled": 0, "rental_uris": {"android": "https://dc.lft.to/lastmile_qr_scan", "ios": "https://dc.lft.to/lastmile_qr_scan"}, "lon": -77.02252783333333, "fusion_lat": 0.0}, {"name": "98563e617d15a608cd7f081c58b5a729", "fusion_lon": 0.0, "lat": 38.923292833333335, "is_reserved": 0, "type": "electric_scooter", "bike_id": "98563e617d15a608cd7f081c58b5a729", "is_disabled": 0, "rental_uris": {"android": "https://dc.lft.to/lastmile_qr_scan", "ios": "https://dc.lft.to/lastmile_qr_scan"}, "lon": -77.073298, "fusion_lat": 0.0}, {"name": "904e119e62e00e2d41d42eb021baff74", "fusion_lon": 0.0, "lat": 38.9339495, "is_reserved": 0, "type": "electric_scooter", "bike_id": "904e119e62e00e2d41d42eb021baff74", "is_disabled": 0, "rental_uris": {"android": "https://dc.lft.to/lastmile_qr_scan", "ios": "https://dc.lft.to/lastmile_qr_scan"}, "lon": -77.02731016666667, "fusion_lat": 0.0}, {"name": "0ad47c0319f765e1f151e320e93ca690", "fusion_lon": 0.0, "lat": 38.93237033333333, "is_reserved": 0, "type": "electric_bike", "bike_id": "0ad47c0319f765e1f151e320e93ca690", "is_disabled": 0, "rental_uris": {"android": "https://dc.lft.to/lastmile_qr_scan", "ios": "https://dc.lft.to/lastmile_qr_scan"}, "lon": -76.97423816666667, "fusion_lat": 0.0}, {"name": "391696bdcb8c2a36e1afa35360a63d1a", "fusion_lon": 0.0, "lat": 38.8710985, "is_reserved": 0, "type": "electric_scooter", "bike_id": "391696bdcb8c2a36e1afa35360a63d1a", "is_disabled": 0, "rental_uris": {"android": "https://dc.lft.to/lastmile_qr_scan", "ios": "https://dc.lft.to/lastmile_qr_scan"}, "lon": -77.0075385, "fusion_lat": 0.0}, {"name": "bc45cca918cb63b2b82f40926c5fb9b1", "fusion_lon": 0.0, "lat": 38.91149766666667, "is_reserved": 0, "type": "electric_scooter", "bike_id": "bc45cca918cb63b2b82f40926c5fb9b1", "is_disabled": 0, "rental_uris": {"android": "https://dc.lft.to/lastmile_qr_scan", "ios": "https://dc.lft.to/lastmile_qr_scan"}, "lon": -77.02380883333333, "fusion_lat": 0.0}, {"name": "5085ba7a8dced7eba2ae0a1e24995f31", "fusion_lon": 0.0, "lat": 38.865153, "is_reserved": 0, "type": "electric_bike", "bike_id": "5085ba7a8dced7eba2ae0a1e24995f31", "is_disabled": 0, "rental_uris": {"android": "https://dc.lft.to/lastmile_qr_scan", "ios": "https://dc.lft.to/lastmile_qr_scan"}, "lon": -76.97335466666667, "fusion_lat": 0.0}, {"name": "f7f6bc6e0fb43277883b75c67b25271e", "fusion_lon": 0.0, "lat": 38.9137795, "is_reserved": 0, "type": "electric_scooter", "bike_id": "f7f6bc6e0fb43277883b75c67b25271e", "is_disabled": 0, "rental_uris": {"android": "https://dc.lft.to/lastmile_qr_scan", "ios": "https://dc.lft.to/lastmile_qr_scan"}, "lon": -77.01421683333334, "fusion_lat": 0.0}, {"name": "7c921766db6a9fbd4cb16ee11b3163b1", "fusion_lon": 0.0, "lat": 38.906928, "is_reserved": 0, "type": "electric_scooter", "bike_id": "7c921766db6a9fbd4cb16ee11b3163b1", "is_disabled": 0, "rental_uris": {"android": "https://dc.lft.to/lastmile_qr_scan", "ios": "https://dc.lft.to/lastmile_qr_scan"}, "lon": -77.03529983333334, "fusion_lat": 0.0}, {"name": "2aa8c661ac45f5fdeef9644320039911", "fusion_lon": 0.0, "lat": 38.90381583333333, "is_reserved": 0, "type": "electric_scooter", "bike_id": "2aa8c661ac45f5fdeef9644320039911", "is_disabled": 0, "rental_uris": {"android": "https://dc.lft.to/lastmile_qr_scan", "ios": "https://dc.lft.to/lastmile_qr_scan"}, "lon": -77.02949366666667, "fusion_lat": 0.0}, {"name": "e05f431526129f0ff1b586896c4d7cfe", "fusion_lon": 0.0, "lat": 38.8985665, "is_reserved": 0, "type": "electric_scooter", "bike_id": "e05f431526129f0ff1b586896c4d7cfe", "is_disabled": 0, "rental_uris": {"android": "https://dc.lft.to/lastmile_qr_scan", "ios": "https://dc.lft.to/lastmile_qr_scan"}, "lon": -76.99029966666667, "fusion_lat": 0.0}, {"name": "a4306f6c1f94823bacf75135c0a2b1cc", "fusion_lon": 0.0, "lat": 38.9422765, "is_reserved": 0, "type": "electric_scooter", "bike_id": "a4306f6c1f94823bacf75135c0a2b1cc", "is_disabled": 0, "rental_uris": {"android": "https://dc.lft.to/lastmile_qr_scan", "ios": "https://dc.lft.to/lastmile_qr_scan"}, "lon": -77.01449683333334, "fusion_lat": 0.0}, {"name": "ec9f046c057e2f3019a64c1e4436433e", "fusion_lon": 0.0, "lat": 38.91989316666667, "is_reserved": 0, "type": "electric_scooter", "bike_id": "ec9f046c057e2f3019a64c1e4436433e", "is_disabled": 0, "rental_uris": {"android": "https://dc.lft.to/lastmile_qr_scan", "ios": "https://dc.lft.to/lastmile_qr_scan"}, "lon": -77.02439583333333, "fusion_lat": 0.0}, {"name": "a54cc3aae590547cfe5633980aa94b2b", "fusion_lon": 0.0, "lat": 38.926772666666665, "is_reserved": 0, "type": "electric_scooter", "bike_id": "a54cc3aae590547cfe5633980aa94b2b", "is_disabled": 0, "rental_uris": {"android": "https://dc.lft.to/lastmile_qr_scan", "ios": "https://dc.lft.to/lastmile_qr_scan"}, "lon": -76.99559133333334, "fusion_lat": 0.0}, {"name": "155d3fa10587726fc652f78dfca1335d", "fusion_lon": 0.0, "lat": 38.91740433333333, "is_reserved": 0, "type": "electric_scooter", "bike_id": "155d3fa10587726fc652f78dfca1335d", "is_disabled": 0, "rental_uris": {"android": "https://dc.lft.to/lastmile_qr_scan", "ios": "https://dc.lft.to/lastmile_qr_scan"}, "lon": -77.036437, "fusion_lat": 0.0}, {"name": "eb41f5ab3b894cb34346870acb77ffbd", "fusion_lon": 0.0, "lat": 38.9017365, "is_reserved": 0, "type": "electric_scooter", "bike_id": "eb41f5ab3b894cb34346870acb77ffbd", "is_disabled": 0, "rental_uris": {"android": "https://dc.lft.to/lastmile_qr_scan", "ios": "https://dc.lft.to/lastmile_qr_scan"}, "lon": -76.98301566666666, "fusion_lat": 0.0}, {"name": "511b46139ddcf38880e73f1a091139ad", "fusion_lon": 0.0, "lat": 38.88741516666666, "is_reserved": 0, "type": "electric_scooter", "bike_id": "511b46139ddcf38880e73f1a091139ad", "is_disabled": 0, "rental_uris": {"android": "https://dc.lft.to/lastmile_qr_scan", "ios": "https://dc.lft.to/lastmile_qr_scan"}, "lon": -77.02727966666667, "fusion_lat": 0.0}, {"name": "63f590a13b0b6b6b5a8e82ad16ec7575", "fusion_lon": 0.0, "lat": 38.915537666666665, "is_reserved": 0, "type": "electric_scooter", "bike_id": "63f590a13b0b6b6b5a8e82ad16ec7575", "is_disabled": 0, "rental_uris": {"android": "https://dc.lft.to/lastmile_qr_scan", "ios": "https://dc.lft.to/lastmile_qr_scan"}, "lon": -77.02439016666666, "fusion_lat": 0.0}, {"name": "80c294eacd66362662fa36c501d157ca", "fusion_lon": 0.0, "lat": 38.91705866666667, "is_reserved": 0, "type": "electric_scooter", "bike_id": "80c294eacd66362662fa36c501d157ca", "is_disabled": 0, "rental_uris": {"android": "https://dc.lft.to/lastmile_qr_scan", "ios": "https://dc.lft.to/lastmile_qr_scan"}, "lon": -77.012169, "fusion_lat": 0.0}, {"name": "e51707f02c0e54cca603294400439763", "fusion_lon": 0.0, "lat": 38.897238, "is_reserved": 0, "type": "electric_scooter", "bike_id": "e51707f02c0e54cca603294400439763", "is_disabled": 0, "rental_uris": {"android": "https://dc.lft.to/lastmile_qr_scan", "ios": "https://dc.lft.to/lastmile_qr_scan"}, "lon": -77.00784716666666, "fusion_lat": 0.0}, {"name": "f993f924d133795f2ef5089a97c7d607", "fusion_lon": 0.0, "lat": 38.9198725, "is_reserved": 0, "type": "electric_scooter", "bike_id": "f993f924d133795f2ef5089a97c7d607", "is_disabled": 0, "rental_uris": {"android": "https://dc.lft.to/lastmile_qr_scan", "ios": "https://dc.lft.to/lastmile_qr_scan"}, "lon": -77.023758, "fusion_lat": 0.0}, {"name": "fff5cc8f45309fc6a8c790d4ccf1657a", "fusion_lon": 0.0, "lat": 38.92161733333333, "is_reserved": 0, "type": "electric_scooter", "bike_id": "fff5cc8f45309fc6a8c790d4ccf1657a", "is_disabled": 0, "rental_uris": {"android": "https://dc.lft.to/lastmile_qr_scan", "ios": "https://dc.lft.to/lastmile_qr_scan"}, "lon": -77.03515266666666, "fusion_lat": 0.0}, {"name": "5f636440b1666a786e9cc828276cccad", "fusion_lon": 0.0, "lat": 38.940371999999996, "is_reserved": 0, "type": "electric_scooter", "bike_id": "5f636440b1666a786e9cc828276cccad", "is_disabled": 0, "rental_uris": {"android": "https://dc.lft.to/lastmile_qr_scan", "ios": "https://dc.lft.to/lastmile_qr_scan"}, "lon": -77.0289755, "fusion_lat": 0.0}, {"name": "a3476473324199ba42a08cebbf6a1844", "fusion_lon": 0.0, "lat": 38.838313666666664, "is_reserved": 0, "type": "electric_bike", "bike_id": "a3476473324199ba42a08cebbf6a1844", "is_disabled": 0, "rental_uris": {"android": "https://dc.lft.to/lastmile_qr_scan", "ios": "https://dc.lft.to/lastmile_qr_scan"}, "lon": -77.07917216666667, "fusion_lat": 0.0}, {"name": "5786181e6da6d10edf1c8072a3eb7451", "fusion_lon": 0.0, "lat": 38.9106955, "is_reserved": 0, "type": "electric_scooter", "bike_id": "5786181e6da6d10edf1c8072a3eb7451", "is_disabled": 0, "rental_uris": {"android": "https://dc.lft.to/lastmile_qr_scan", "ios": "https://dc.lft.to/lastmile_qr_scan"}, "lon": -77.03842016666667, "fusion_lat": 0.0}, {"name": "f349379cee4cfa3f36c4209dca39a31b", "fusion_lon": 0.0, "lat": 38.88654583333334, "is_reserved": 0, "type": "electric_scooter", "bike_id": "f349379cee4cfa3f36c4209dca39a31b", "is_disabled": 0, "rental_uris": {"android": "https://dc.lft.to/lastmile_qr_scan", "ios": "https://dc.lft.to/lastmile_qr_scan"}, "lon": -76.99995833333334, "fusion_lat": 0.0}, {"name": "0ebff980b228a5882d583b4dc5f787db", "fusion_lon": 0.0, "lat": 38.924527, "is_reserved": 0, "type": "electric_scooter", "bike_id": "0ebff980b228a5882d583b4dc5f787db", "is_disabled": 0, "rental_uris": {"android": "https://dc.lft.to/lastmile_qr_scan", "ios": "https://dc.lft.to/lastmile_qr_scan"}, "lon": -77.03966683333333, "fusion_lat": 0.0}, {"name": "797fe7a8dc7c1d20a3a23934789229bd", "fusion_lon": 0.0, "lat": 38.92462283333333, "is_reserved": 0, "type": "electric_scooter", "bike_id": "797fe7a8dc7c1d20a3a23934789229bd", "is_disabled": 0, "rental_uris": {"android": "https://dc.lft.to/lastmile_qr_scan", "ios": "https://dc.lft.to/lastmile_qr_scan"}, "lon": -77.02717983333334, "fusion_lat": 0.0}, {"name": "ccf45439fadea12b7ce961792ad93f02", "fusion_lon": 0.0, "lat": 38.875499, "is_reserved": 0, "type": "electric_scooter", "bike_id": "ccf45439fadea12b7ce961792ad93f02", "is_disabled": 0, "rental_uris": {"android": "https://dc.lft.to/lastmile_qr_scan", "ios": "https://dc.lft.to/lastmile_qr_scan"}, "lon": -77.0057005, "fusion_lat": 0.0}, {"name": "1253e9804b74c9ef15ce04c6bec5b547", "fusion_lon": 0.0, "lat": 38.8840085, "is_reserved": 0, "type": "electric_scooter", "bike_id": "1253e9804b74c9ef15ce04c6bec5b547", "is_disabled": 0, "rental_uris": {"android": "https://dc.lft.to/lastmile_qr_scan", "ios": "https://dc.lft.to/lastmile_qr_scan"}, "lon": -76.9539365, "fusion_lat": 0.0}, {"name": "a1388257279cdb0c0d772d6bfa73e316", "fusion_lon": 0.0, "lat": 38.908361166666666, "is_reserved": 0, "type": "electric_bike", "bike_id": "a1388257279cdb0c0d772d6bfa73e316", "is_disabled": 0, "rental_uris": {"android": "https://dc.lft.to/lastmile_qr_scan", "ios": "https://dc.lft.to/lastmile_qr_scan"}, "lon": -76.932987, "fusion_lat": 0.0}, {"name": "5981b292274ec360d9bf3c98b26ccfec", "fusion_lon": 0.0, "lat": 38.919799, "is_reserved": 0, "type": "electric_scooter", "bike_id": "5981b292274ec360d9bf3c98b26ccfec", "is_disabled": 0, "rental_uris": {"android": "https://dc.lft.to/lastmile_qr_scan", "ios": "https://dc.lft.to/lastmile_qr_scan"}, "lon": -77.041862, "fusion_lat": 0.0}, {"name": "5cc0b21ecd6b21d22fd405c753b5f3b0", "fusion_lon": 0.0, "lat": 38.909557, "is_reserved": 0, "type": "electric_scooter", "bike_id": "5cc0b21ecd6b21d22fd405c753b5f3b0", "is_disabled": 0, "rental_uris": {"android": "https://dc.lft.to/lastmile_qr_scan", "ios": "https://dc.lft.to/lastmile_qr_scan"}, "lon": -77.04798333333333, "fusion_lat": 0.0}, {"name": "65d211942a63e6429c8e1301a8d609fe", "fusion_lon": 0.0, "lat": 38.9106385, "is_reserved": 0, "type": "electric_scooter", "bike_id": "65d211942a63e6429c8e1301a8d609fe", "is_disabled": 0, "rental_uris": {"android": "https://dc.lft.to/lastmile_qr_scan", "ios": "https://dc.lft.to/lastmile_qr_scan"}, "lon": -77.04104283333334, "fusion_lat": 0.0}, {"name": "b4460ff7cc863eeded6d344793cb93f5", "fusion_lon": 0.0, "lat": 38.923772666666665, "is_reserved": 0, "type": "electric_scooter", "bike_id": "b4460ff7cc863eeded6d344793cb93f5", "is_disabled": 0, "rental_uris": {"android": "https://dc.lft.to/lastmile_qr_scan", "ios": "https://dc.lft.to/lastmile_qr_scan"}, "lon": -77.01896083333334, "fusion_lat": 0.0}, {"name": "08d0f2e82f511d0815cc0c3f3fad871c", "fusion_lon": 0.0, "lat": 39.057935, "is_reserved": 0, "type": "electric_bike", "bike_id": "08d0f2e82f511d0815cc0c3f3fad871c", "is_disabled": 0, "rental_uris": {"android": "https://dc.lft.to/lastmile_qr_scan", "ios": "https://dc.lft.to/lastmile_qr_scan"}, "lon": -77.15020866666667, "fusion_lat": 0.0}, {"name": "b2e942218eb6536d1a77633c5f878e10", "fusion_lon": 0.0, "lat": 38.936779666666666, "is_reserved": 0, "type": "electric_scooter", "bike_id": "b2e942218eb6536d1a77633c5f878e10", "is_disabled": 0, "rental_uris": {"android": "https://dc.lft.to/lastmile_qr_scan", "ios": "https://dc.lft.to/lastmile_qr_scan"}, "lon": -77.032831, "fusion_lat": 0.0}, {"name": "c8a59e8aa2a748ea21c9248fcd0c0b45", "fusion_lon": 0.0, "lat": 38.90058833333333, "is_reserved": 0, "type": "electric_scooter", "bike_id": "c8a59e8aa2a748ea21c9248fcd0c0b45", "is_disabled": 0, "rental_uris": {"android": "https://dc.lft.to/lastmile_qr_scan", "ios": "https://dc.lft.to/lastmile_qr_scan"}, "lon": -76.9347255, "fusion_lat": 0.0}, {"name": "fb0df6969388c0e66d865ce4e8479cd6", "fusion_lon": 0.0, "lat": 38.923201, "is_reserved": 0, "type": "electric_scooter", "bike_id": "fb0df6969388c0e66d865ce4e8479cd6", "is_disabled": 0, "rental_uris": {"android": "https://dc.lft.to/lastmile_qr_scan", "ios": "https://dc.lft.to/lastmile_qr_scan"}, "lon": -77.021134, "fusion_lat": 0.0}, {"name": "b922d5e69bf601eccb7a7519bbb497de", "fusion_lon": 0.0, "lat": 38.85697483333333, "is_reserved": 0, "type": "electric_scooter", "bike_id": "b922d5e69bf601eccb7a7519bbb497de", "is_disabled": 0, "rental_uris": {"android": "https://dc.lft.to/lastmile_qr_scan", "ios": "https://dc.lft.to/lastmile_qr_scan"}, "lon": -76.98943683333333, "fusion_lat": 0.0}, {"name": "4d150d4719393d623aa300a665b355da", "fusion_lon": 0.0, "lat": 38.930074166666664, "is_reserved": 0, "type": "electric_scooter", "bike_id": "4d150d4719393d623aa300a665b355da", "is_disabled": 0, "rental_uris": {"android": "https://dc.lft.to/lastmile_qr_scan", "ios": "https://dc.lft.to/lastmile_qr_scan"}, "lon": -77.01431266666667, "fusion_lat": 0.0}, {"name": "cba0716a24eaeb4df61c417e523c1b21", "fusion_lon": 0.0, "lat": 38.8442475, "is_reserved": 0, "type": "electric_scooter", "bike_id": "cba0716a24eaeb4df61c417e523c1b21", "is_disabled": 0, "rental_uris": {"android": "https://dc.lft.to/lastmile_qr_scan", "ios": "https://dc.lft.to/lastmile_qr_scan"}, "lon": -76.99785733333333, "fusion_lat": 0.0}, {"name": "1ac4d1f1d5b80c49cd4f6910b874aa2b", "fusion_lon": 0.0, "lat": 38.9089985, "is_reserved": 0, "type": "electric_scooter", "bike_id": "1ac4d1f1d5b80c49cd4f6910b874aa2b", "is_disabled": 0, "rental_uris": {"android": "https://dc.lft.to/lastmile_qr_scan", "ios": "https://dc.lft.to/lastmile_qr_scan"}, "lon": -77.07274883333334, "fusion_lat": 0.0}, {"name": "0bb318f37d0a070c1e6cf7c922b849ea", "fusion_lon": 0.0, "lat": 38.837311666666665, "is_reserved": 0, "type": "electric_bike", "bike_id": "0bb318f37d0a070c1e6cf7c922b849ea", "is_disabled": 0, "rental_uris": {"android": "https://dc.lft.to/lastmile_qr_scan", "ios": "https://dc.lft.to/lastmile_qr_scan"}, "lon": -77.09548, "fusion_lat": 0.0}, {"name": "e29dbd101eebbccc338b7adc83571147", "fusion_lon": 0.0, "lat": 38.90280633333333, "is_reserved": 0, "type": "electric_scooter", "bike_id": "e29dbd101eebbccc338b7adc83571147", "is_disabled": 0, "rental_uris": {"android": "https://dc.lft.to/lastmile_qr_scan", "ios": "https://dc.lft.to/lastmile_qr_scan"}, "lon": -77.05802183333333, "fusion_lat": 0.0}, {"name": "0a98ed0eec9b35ffa09a81854239f820", "fusion_lon": 0.0, "lat": 38.92133916666667, "is_reserved": 0, "type": "electric_scooter", "bike_id": "0a98ed0eec9b35ffa09a81854239f820", "is_disabled": 0, "rental_uris": {"android": "https://dc.lft.to/lastmile_qr_scan", "ios": "https://dc.lft.to/lastmile_qr_scan"}, "lon": -77.04421733333334, "fusion_lat": 0.0}, {"name": "c98835b53db3079472961efd81ae7080", "fusion_lon": 0.0, "lat": 38.930236, "is_reserved": 0, "type": "electric_scooter", "bike_id": "c98835b53db3079472961efd81ae7080", "is_disabled": 0, "rental_uris": {"android": "https://dc.lft.to/lastmile_qr_scan", "ios": "https://dc.lft.to/lastmile_qr_scan"}, "lon": -77.06313883333333, "fusion_lat": 0.0}, {"name": "cd1e28213f732b8b4a03bc1911bf4398", "fusion_lon": 0.0, "lat": 38.904116, "is_reserved": 0, "type": "electric_scooter", "bike_id": "cd1e28213f732b8b4a03bc1911bf4398", "is_disabled": 0, "rental_uris": {"android": "https://dc.lft.to/lastmile_qr_scan", "ios": "https://dc.lft.to/lastmile_qr_scan"}, "lon": -76.973314, "fusion_lat": 0.0}, {"name": "78244b213edf233dd4879bec201c0af1", "fusion_lon": 0.0, "lat": 38.92318866666667, "is_reserved": 0, "type": "electric_scooter", "bike_id": "78244b213edf233dd4879bec201c0af1", "is_disabled": 0, "rental_uris": {"android": "https://dc.lft.to/lastmile_qr_scan", "ios": "https://dc.lft.to/lastmile_qr_scan"}, "lon": -77.02975783333333, "fusion_lat": 0.0}, {"name": "f5d105f67314e971fe351f72914eacc2", "fusion_lon": 0.0, "lat": 38.93239166666667, "is_reserved": 0, "type": "electric_scooter", "bike_id": "f5d105f67314e971fe351f72914eacc2", "is_disabled": 0, "rental_uris": {"android": "https://dc.lft.to/lastmile_qr_scan", "ios": "https://dc.lft.to/lastmile_qr_scan"}, "lon": -77.038523, "fusion_lat": 0.0}, {"name": "4da1dc254d35e021fee66b96c6be1111", "fusion_lon": 0.0, "lat": 38.904907666666666, "is_reserved": 0, "type": "electric_scooter", "bike_id": "4da1dc254d35e021fee66b96c6be1111", "is_disabled": 0, "rental_uris": {"android": "https://dc.lft.to/lastmile_qr_scan", "ios": "https://dc.lft.to/lastmile_qr_scan"}, "lon": -77.060153, "fusion_lat": 0.0}, {"name": "3fedd3bf3102a6622fdc437ee34767bd", "fusion_lon": 0.0, "lat": 38.90667966666667, "is_reserved": 0, "type": "electric_scooter", "bike_id": "3fedd3bf3102a6622fdc437ee34767bd", "is_disabled": 0, "rental_uris": {"android": "https://dc.lft.to/lastmile_qr_scan", "ios": "https://dc.lft.to/lastmile_qr_scan"}, "lon": -77.02967083333333, "fusion_lat": 0.0}, {"name": "c8393258274561500db1e6d613c2c3f7", "fusion_lon": 0.0, "lat": 38.879204, "is_reserved": 0, "type": "electric_scooter", "bike_id": "c8393258274561500db1e6d613c2c3f7", "is_disabled": 0, "rental_uris": {"android": "https://dc.lft.to/lastmile_qr_scan", "ios": "https://dc.lft.to/lastmile_qr_scan"}, "lon": -76.999829, "fusion_lat": 0.0}, {"name": "f5958d7d926c54e53dc48b715fe67ddd", "fusion_lon": 0.0, "lat": 38.8937025, "is_reserved": 0, "type": "electric_scooter", "bike_id": "f5958d7d926c54e53dc48b715fe67ddd", "is_disabled": 0, "rental_uris": {"android": "https://dc.lft.to/lastmile_qr_scan", "ios": "https://dc.lft.to/lastmile_qr_scan"}, "lon": -77.02848766666666, "fusion_lat": 0.0}, {"name": "dc3416a341377ec5c24e0b3bd77b4c7a", "fusion_lon": 0.0, "lat": 38.92515783333333, "is_reserved": 0, "type": "electric_scooter", "bike_id": "dc3416a341377ec5c24e0b3bd77b4c7a", "is_disabled": 0, "rental_uris": {"android": "https://dc.lft.to/lastmile_qr_scan", "ios": "https://dc.lft.to/lastmile_qr_scan"}, "lon": -77.0233825, "fusion_lat": 0.0}, {"name": "d5f30ed8001b5b098f3a9552df3f26b9", "fusion_lon": 0.0, "lat": 38.83236566666667, "is_reserved": 0, "type": "electric_bike", "bike_id": "d5f30ed8001b5b098f3a9552df3f26b9", "is_disabled": 0, "rental_uris": {"android": "https://dc.lft.to/lastmile_qr_scan", "ios": "https://dc.lft.to/lastmile_qr_scan"}, "lon": -76.94615233333333, "fusion_lat": 0.0}, {"name": "a59c6c83faa7436f7c746e2ca78f902c", "fusion_lon": 0.0, "lat": 38.90631666666667, "is_reserved": 0, "type": "electric_scooter", "bike_id": "a59c6c83faa7436f7c746e2ca78f902c", "is_disabled": 0, "rental_uris": {"android": "https://dc.lft.to/lastmile_qr_scan", "ios": "https://dc.lft.to/lastmile_qr_scan"}, "lon": -77.03855766666666, "fusion_lat": 0.0}, {"name": "13d8bc44b2ea4635bd3d1394368c5019", "fusion_lon": 0.0, "lat": 39.05055383333333, "is_reserved": 0, "type": "electric_bike", "bike_id": "13d8bc44b2ea4635bd3d1394368c5019", "is_disabled": 0, "rental_uris": {"android": "https://dc.lft.to/lastmile_qr_scan", "ios": "https://dc.lft.to/lastmile_qr_scan"}, "lon": -77.05142416666666, "fusion_lat": 0.0},