{"data": {"bikes": [{"name": "e91850f34fee6551c145bcca004b0de7", "fusion_lon": 0.0, "lat": 38.9132965, "is_reserved": 0, "type": "electric_scooter", "bike_id": "e91850f34fee6551c145bcca004b0de7", "is_disabled": 0, "rental_uris": {"android": "https://dc.lft.to/lastmile_qr_scan", "ios": "https://dc.lft.to/lastmile_qr_scan"}, "lon": -77.031697, "fusion_lat": 0.0}, {"name": "2cbe0ce74ea9af207b912926434be7d7", "fusion_lon": 0.0, "lat": 38.892249166666666, "is_reserved": 0, "type": "electric_scooter", "bike_id": "2cbe0ce74ea9af207b912926434be7d7", "is_disabled": 0, "rental_uris": {"android": "https://dc.lft.to/lastmile_qr_scan", "ios": "https://dc.lft.to/lastmile_qr_scan"}, "lon": -77.0408355, "fusion_lat": 0.0}, {"name": "891afb29145406607d3711171a4cbb45", "fusion_lon": 0.0, "lat": 38.914076, "is_reserved": 0, "type": "electric_scooter", "bike_id": "891afb29145406607d3711171a4cbb45", "is_disabled": 0, "rental_uris": {"android": "https://dc.lft.to/lastmile_qr_scan", "ios": "https://dc.lft.to/lastmile_qr_scan"}, "lon": -77.04178833333333, "fusion_lat": 0.0}, {"name": "af4ce440d36b2a8dc11936b034e01c1f", "fusion_lon": 0.0, "lat": 38.92470183333333, "is_reserved": 0, "type": "electric_scooter", "bike_id": "af4ce440d36b2a8dc11936b034e01c1f", "is_disabled": 0, "rental_uris": {"android": "https://dc.lft.to/lastmile_qr_scan", "ios": "https://dc.lft.to/lastmile_qr_scan"}, "lon": -77.02830833333333, "fusion_lat": 0.0}, {"name": "bab24e45fb171a7bcee8782068c05e60", "fusion_lon": 0.0, "lat": 38.9443745, "is_reserved": 0, "type": "electric_scooter", "bike_id": "bab24e45fb171a7bcee8782068c05e60", "is_disabled": 0, "rental_uris": {"android": "https://dc.lft.to/lastmile_qr_scan", "ios": "https://dc.lft.to/lastmile_qr_scan"}, "lon": -77.0635015, "fusion_lat": 0.0}, {"name": "bd6d3af5e8cdedcb4b656983c34373d2", "fusion_lon": 0.0, "lat": 38.9126965, "is_reserved": 0, "type": "electric_scooter", "bike_id": "bd6d3af5e8cdedcb4b656983c34373d2", "is_disabled": 0, "rental_uris": {"android": "https://dc.lft.to/lastmile_qr_scan", "ios": "https://dc.lft.to/lastmile_qr_scan"}, "lon": -77.02693483333333, "fusion_lat": 0.0}, {"name": "9643e4f03273853e20dce33a9e6a9ba8", "fusion_lon": 0.0, "lat": 38.901646666666664, "is_reserved": 0, "type": "electric_scooter", "bike_id": "9643e4f03273853e20dce33a9e6a9ba8", "is_disabled": 0, "rental_uris": {"android": "https://dc.lft.to/lastmile_qr_scan", "ios": "https://dc.lft.to/lastmile_qr_scan"}, "lon": -77.03993283333334, "fusion_lat": 0.0}, {"name": "ec22367ad78de9fd4715939d02f7e8a2", "fusion_lon": 0.0, "lat": 38.917675, "is_reserved": 0, "type": "electric_scooter", "bike_id": "ec22367ad78de9fd4715939d02f7e8a2", "is_disabled": 0, "rental_uris": {"android": "https://dc.lft.to/lastmile_qr_scan", "ios": "https://dc.lft.to/lastmile_qr_scan"}, "lon": -77.01468333333334, "fusion_lat": 0.0}, {"name": "716b1bcb4174ef25b46f344417f3ae09", "fusion_lon": 0.0, "lat": 38.91604516666666, "is_reserved": 0, "type": "electric_scooter", "bike_id": "716b1bcb4174ef25b46f344417f3ae09", "is_disabled": 0, "rental_uris": {"android": "https://dc.lft.to/lastmile_qr_scan", "ios": "https://dc.lft.to/lastmile_qr_scan"}, "lon": -77.031946, "fusion_lat": 0.0}, {"name": "4a889f4c5db05553ddd9043f1c0629a9", "fusion_lon": 0.0, "lat": 38.90370716666666, "is_reserved": 0, "type": "electric_scooter", "bike_id": "4a889f4c5db05553ddd9043f1c0629a9", "is_disabled": 0, "rental_uris": {"android": "https://dc.lft.to/lastmile_qr_scan", "ios": "https://dc.lft.to/lastmile_qr_scan"}, "lon": -76.93758166666667, "fusion_lat": 0.0}, {"name": "f17efefa2f724bda29b5abf08be504df", "fusion_lon": 0.0, "lat": 38.9015315, "is_reserved": 0, "type": "electric_scooter", "bike_id": "f17efefa2f724bda29b5abf08be504df", "is_disabled": 0, "rental_uris": {"android": "https://dc.lft.to/lastmile_qr_scan", "ios": "https://dc.lft.to/lastmile_qr_scan"}, "lon": -76.9306025, "fusion_lat": 0.0}, {"name": "a26114c07bb7112f8c2e12c4266dcf21", "fusion_lon": 0.0, "lat": 39.062927333333334, "is_reserved": 0, "type": "electric_bike", "bike_id": "a26114c07bb7112f8c2e12c4266dcf21", "is_disabled": 0, "rental_uris": {"android": "https://dc.lft.to/lastmile_qr_scan", "ios": "https://dc.lft.to/lastmile_qr_scan"}, "lon": -77.04977033333333, "fusion_lat": 0.0}, {"name": "e4b04a7580117ed0fcfc510060e35f01", "fusion_lon": 0.0, "lat": 38.92318516666667, "is_reserved": 0, "type": "electric_scooter", "bike_id": "e4b04a7580117ed0fcfc510060e35f01", "is_disabled": 0, "rental_uris": {"android": "https://dc.lft.to/lastmile_qr_scan", "ios": "https://dc.lft.to/lastmile_qr_scan"}, "lon": -77.04180116666667, "fusion_lat": 0.0}, {"name": "da1517a79cc2661705e2a963a0b8cf30", "fusion_lon": 0.0, "lat": 38.92347433333333, "is_reserved": 0, "type": "electric_scooter", "bike_id": "da1517a79cc2661705e2a963a0b8cf30", "is_disabled": 0, "rental_uris": {"android": "https://dc.lft.to/lastmile_qr_scan", "ios": "https://dc.lft.to/lastmile_qr_scan"}, "lon": -77.05078933333333, "fusion_lat": 0.0}, {"name": "075ff99e6687718404334d2d12018213", "fusion_lon": 0.0, "lat": 38.917783666666665, "is_reserved": 0, "type": "electric_scooter", "bike_id": "075ff99e6687718404334d2d12018213", "is_disabled": 0, "rental_uris": {"android": "https://dc.lft.to/lastmile_qr_scan", "ios": "https://dc.lft.to/lastmile_qr_scan"}, "lon": -77.01789033333333, "fusion_lat": 0.0}, {"name": "6f6d28cb2fe2ddb9aca8485f42656f84", "fusion_lon": 0.0, "lat": 38.91109816666667, "is_reserved": 0, "type": "electric_scooter", "bike_id": "6f6d28cb2fe2ddb9aca8485f42656f84", "is_disabled": 0, "rental_uris": {"android": "https://dc.lft.to/lastmile_qr_scan", "ios": "https://dc.lft.to/lastmile_qr_scan"}, "lon": -77.0480835, "fusion_lat": 0.0}, {"name": "b47d9256be635c0e07fe28cd7d1f95a3", "fusion_lon": 0.0, "lat": 39.013692666666664, "is_reserved": 0, "type": "electric_bike", "bike_id": "b47d9256be635c0e07fe28cd7d1f95a3", "is_disabled": 0, "rental_uris": {"android": "https://dc.lft.to/lastmile_qr_scan", "ios": "https://dc.lft.to/lastmile_qr_scan"}, "lon": -76.9213385, "fusion_lat": 0.0}, {"name": "b4db2bfd7e84fbe8f14011a6260e8ca2", "fusion_lon": 0.0, "lat": 38.916764, "is_reserved": 0, "type": "electric_scooter", "bike_id": "b4db2bfd7e84fbe8f14011a6260e8ca2", "is_disabled": 0, "rental_uris": {"android": "https://dc.lft.to/lastmile_qr_scan", "ios": "https://dc.lft.to/lastmile_qr_scan"}, "lon": -77.02344383333333, "fusion_lat": 0.0}, {"name": "2bb60d66ded701f5b54d8e28fea8be69", "fusion_lon": 0.0, "lat": 38.8887555, "is_reserved": 0, "type": "electric_scooter", "bike_id": "2bb60d66ded701f5b54d8e28fea8be69", "is_disabled": 0, "rental_uris": {"android": "https://dc.lft.to/lastmile_qr_scan", "ios": "https://dc.lft.to/lastmile_qr_scan"}, "lon": -76.99028833333334, "fusion_lat": 0.0}, {"name": "f85aab3482ebc5ba61051ebbcce775eb", "fusion_lon": 0.0, "lat": 38.91965116666667, "is_reserved": 0, "type": "electric_scooter", "bike_id": "f85aab3482ebc5ba61051ebbcce775eb", "is_disabled": 0, "rental_uris": {"android": "https://dc.lft.to/lastmile_qr_scan", "ios": "https://dc.lft.to/lastmile_qr_scan"}, "lon": -77.038514, "fusion_lat": 0.0}, {"name": "8046eca2b30e7ee75994d5e3a9ea642e", "fusion_lon": 0.0, "lat": 38.90084083333333, "is_reserved": 0, "type": "electric_scooter", "bike_id": "8046eca2b30e7ee75994d5e3a9ea642e", "is_disabled": 0, "rental_uris": {"android": "https://dc.lft.to/lastmile_qr_scan", "ios": "https://dc.lft.to/lastmile_qr_scan"}, "lon": -77.04755066666667, "fusion_lat": 0.0}, {"name": "ac20bae86469fdfd83d43803bcca289f", "fusion_lon": 0.0, "lat": 38.91925583333333, "is_reserved": 0, "type": "electric_bike", "bike_id": "ac20bae86469fdfd83d43803bcca289f", "is_disabled": 0, "rental_uris": {"android": "https://dc.lft.to/lastmile_qr_scan", "ios": "https://dc.lft.to/lastmile_qr_scan"}, "lon": -77.073716, "fusion_lat": 0.0}, {"name": "7799b10e0649675cdae0b6062b97eaa5", "fusion_lon": 0.0, "lat": 38.930930333333336, "is_reserved": 0, "type": "electric_scooter", "bike_id": "7799b10e0649675cdae0b6062b97eaa5", "is_disabled": 0, "rental_uris": {"android": "https://dc.lft.to/lastmile_qr_scan", "ios": "https://dc.lft.to/lastmile_qr_scan"}, "lon": -77.02540916666666, "fusion_lat": 0.0}, {"name": "f151a63553e0dfa4e0acd9706d13bec2", "fusion_lon": 0.0, "lat": 38.9002175, "is_reserved": 0, "type": "electric_scooter", "bike_id": "f151a63553e0dfa4e0acd9706d13bec2", "is_disabled": 0, "rental_uris": {"android": "https://dc.lft.to/lastmile_qr_scan", "ios": "https://dc.lft.to/lastmile_qr_scan"}, "lon": -77.00208583333334, "fusion_lat": 0.0}, {"name": "45e6d6e8933168c457358be86054ad1b", "fusion_lon": 0.0, "lat": 38.892239000000004, "is_reserved": 0, "type": "electric_scooter", "bike_id": "45e6d6e8933168c457358be86054ad1b", "is_disabled": 0, "rental_uris": {"android": "https://dc.lft.to/lastmile_qr_scan", "ios": "https://dc.lft.to/lastmile_qr_scan"}, "lon": -77.04802916666667, "fusion_lat": 0.0}, {"name": "b4ce3d4b7c254b2789426ac730744ed0", "fusion_lon": 0.0, "lat": 38.91605416666667, "is_reserved": 0, "type": "electric_scooter", "bike_id": "b4ce3d4b7c254b2789426ac730744ed0", "is_disabled": 0, "rental_uris": {"android": "https://dc.lft.to/lastmile_qr_scan", "ios": "https://dc.lft.to/lastmile_qr_scan"}, "lon": -77.0006925, "fusion_lat": 0.0}, {"name": "d32e008f3b3e18655bf1ccfb59fc63e5", "fusion_lon": 0.0, "lat": 38.94283766666667, "is_reserved": 0, "type": "electric_bike", "bike_id": "d32e008f3b3e18655bf1ccfb59fc63e5", "is_disabled": 0, "rental_uris": {"android": "https://dc.lft.to/lastmile_qr_scan", "ios": "https://dc.lft.to/lastmile_qr_scan"}, "lon": -76.98783466666667, "fusion_lat": 0.0}, {"name": "e5f7b8858bcccab5c230a0d24e07bb27", "fusion_lon": 0.0, "lat": 38.88237516666667, "is_reserved": 0, "type": "electric_scooter", "bike_id": "e5f7b8858bcccab5c230a0d24e07bb27", "is_disabled": 0, "rental_uris": {"android": "https://dc.lft.to/lastmile_qr_scan", "ios": "https://dc.lft.to/lastmile_qr_scan"}, "lon": -77.00849316666667, "fusion_lat": 0.0}, {"name": "86bbb4609ad74fc6b47c19fe2d3afd93", "fusion_lon": 0.0, "lat": 38.9343445, "is_reserved": 0, "type": "electric_scooter", "bike_id": "86bbb4609ad74fc6b47c19fe2d3afd93", "is_disabled": 0, "rental_uris": {"android": "https://dc.lft.to/lastmile_qr_scan", "ios": "https://dc.lft.to/lastmile_qr_scan"}, "lon": -77.04538416666666, "fusion_lat": 0.0}, {"name": "ae355797545b25d1215983147a427c4e", "fusion_lon": 0.0, "lat": 38.942104, "is_reserved": 0, "type": "electric_scooter", "bike_id": "ae355797545b25d1215983147a427c4e", "is_disabled": 0, "rental_uris": {"android": "https://dc.lft.to/lastmile_qr_scan", "ios": "https://dc.lft.to/lastmile_qr_scan"}, "lon": -77.02516933333334, "fusion_lat": 0.0}, {"name": "ce4287d27fe43333f4db35e91b26c984", "fusion_lon": 0.0, "lat": 38.90312216666667, "is_reserved": 0, "type": "electric_scooter", "bike_id": "ce4287d27fe43333f4db35e91b26c984", "is_disabled": 0, "rental_uris": {"android": "https://dc.lft.to/lastmile_qr_scan", "ios": "https://dc.lft.to/lastmile_qr_scan"}, "lon": -77.02218816666667, "fusion_lat": 0.0}, {"name": "c73117707fea38786afb3d0dbdbdb9e5", "fusion_lon": 0.0, "lat": 38.94993233333334, "is_reserved": 0, "type": "electric_scooter", "bike_id": "c73117707fea38786afb3d0dbdbdb9e5", "is_disabled": 0, "rental_uris": {"android": "https://dc.lft.to/lastmile_qr_scan", "ios": "https://dc.lft.to/lastmile_qr_scan"}, "lon": -77.03329016666666, "fusion_lat": 0.0}, {"name": "0538e741ba6144b5b8e442a00e8996f1", "fusion_lon": 0.0, "lat": 38.923747166666665, "is_reserved": 0, "type": "electric_scooter", "bike_id": "0538e741ba6144b5b8e442a00e8996f1", "is_disabled": 0, "rental_uris": {"android": "https://dc.lft.to/lastmile_qr_scan", "ios": "https://dc.lft.to/lastmile_qr_scan"}, "lon": -77.020573, "fusion_lat": 0.0}, {"name": "de10e2a0a89d20d4a4d3415878b69cc9", "fusion_lon": 0.0, "lat": 38.901847833333335, "is_reserved": 0, "type": "electric_scooter", "bike_id": "de10e2a0a89d20d4a4d3415878b69cc9", "is_disabled": 0, "rental_uris": {"android": "https://dc.lft.to/lastmile_qr_scan", "ios": "https://dc.lft.to/lastmile_qr_scan"}, "lon": -76.98818116666666, "fusion_lat": 0.0}, {"name": "86a66bd0ada54070bfb1845116c00969", "fusion_lon": 0.0, "lat": 38.866445166666665, "is_reserved": 0, "type": "electric_scooter", "bike_id": "86a66bd0ada54070bfb1845116c00969", "is_disabled": 0, "rental_uris": {"android": "https://dc.lft.to/lastmile_qr_scan", "ios": "https://dc.lft.to/lastmile_qr_scan"}, "lon": -76.98263783333333, "fusion_lat": 0.0}, {"name": "315dd1c64a3e840d37978cbfdf4d90ab", "fusion_lon": 0.0, "lat": 38.928588166666664, "is_reserved": 0, "type": "electric_scooter", "bike_id": "315dd1c64a3e840d37978cbfdf4d90ab", "is_disabled": 0, "rental_uris": {"android": "https://dc.lft.to/lastmile_qr_scan", "ios": "https://dc.lft.to/lastmile_qr_scan"}, "lon": -77.03288033333334, "fusion_lat": 0.0}, {"name": "36d7ee1dd6989f130794ae522647f2e5", "fusion_lon": 0.0, "lat": 38.903647, "is_reserved": 0, "type": "electric_scooter", "bike_id": "36d7ee1dd6989f130794ae522647f2e5", "is_disabled": 0, "rental_uris": {"android": "https://dc.lft.to/lastmile_qr_scan", "ios": "https://dc.lft.to/lastmile_qr_scan"}, "lon": -77.04310983333333, "fusion_lat": 0.0}, {"name": "9d9ce46857b555c56e500d8e43edfe7a", "fusion_lon": 0.0, "lat": 38.90590016666667, "is_reserved": 0, "type": "electric_scooter", "bike_id": "9d9ce46857b555c56e500d8e43edfe7a", "is_disabled": 0, "rental_uris": {"android": "https://dc.lft.to/lastmile_qr_scan", "ios": "https://dc.lft.to/lastmile_qr_scan"}, "lon": -77.04105633333333, "fusion_lat": 0.0}, {"name": "19f7000a11b5188d7f156e1ca22459d3", "fusion_lon": 0.0, "lat": 38.91639116666666, "is_reserved": 0, "type": "electric_scooter", "bike_id": "19f7000a11b5188d7f156e1ca22459d3", "is_disabled": 0, "rental_uris": {"android": "https://dc.lft.to/lastmile_qr_scan", "ios": "https://dc.lft.to/lastmile_qr_scan"}, "lon": -77.02273666666666, "fusion_lat": 0.0}, {"name": "f3fd3b5598db9e6ea667aea10d50a3fb", "fusion_lon": 0.0, "lat": 38.90148966666667, "is_reserved": 0, "type": "electric_scooter", "bike_id": "f3fd3b5598db9e6ea667aea10d50a3fb", "is_disabled": 0, "rental_uris": {"android": "https://dc.lft.to/lastmile_qr_scan", "ios": "https://dc.lft.to/lastmile_qr_scan"}, "lon": -77.04179433333333, "fusion_lat": 0.0}, {"name": "35dd2be6d998a9780d36eed843b5cfa0", "fusion_lon": 0.0, "lat": 38.906022166666666, "is_reserved": 0, "type": "electric_scooter", "bike_id": "35dd2be6d998a9780d36eed843b5cfa0", "is_disabled": 0, "rental_uris": {"android": "https://dc.lft.to/lastmile_qr_scan", "ios": "https://dc.lft.to/lastmile_qr_scan"}, "lon": -77.041013, "fusion_lat": 0.0}, {"name": "b1b612b517e9226b0339d336654cb6db", "fusion_lon": 0.0, "lat": 38.90960533333333, "is_reserved": 0, "type": "electric_scooter", "bike_id": "b1b612b517e9226b0339d336654cb6db", "is_disabled": 0, "rental_uris": {"android": "https://dc.lft.to/lastmile_qr_scan", "ios": "https://dc.lft.to/lastmile_qr_scan"}, "lon": -77.0268985, "fusion_lat": 0.0}, {"name": "95fb9b1e6b10b4c7444c050a5a03bbbb", "fusion_lon": 0.0, "lat": 38.80127533333334, "is_reserved": 0, "type": "electric_bike", "bike_id": "95fb9b1e6b10b4c7444c050a5a03bbbb", "is_disabled": 0, "rental_uris": {"android": "https://dc.lft.to/lastmile_qr_scan", "ios": "https://dc.lft.to/lastmile_qr_scan"}, "lon": -77.0704215, "fusion_lat": 0.0}, {"name": "e09436a4fb8b6f6c30b2406593b31c97", "fusion_lon": 0.0, "lat": 38.863891333333335, "is_reserved": 0, "type": "electric_scooter", "bike_id": "e09436a4fb8b6f6c30b2406593b31c97", "is_disabled": 0, "rental_uris": {"android": "https://dc.lft.to/lastmile_qr_scan", "ios": "https://dc.lft.to/lastmile_qr_scan"}, "lon": -76.99044033333334, "fusion_lat": 0.0}, {"name": "13e03a519dd4fb31463b344c86b7aab1", "fusion_lon": 0.0, "lat": 38.90376716666667, "is_reserved": 0, "type": "electric_scooter", "bike_id": "13e03a519dd4fb31463b344c86b7aab1", "is_disabled": 0, "rental_uris": {"android": "https://dc.lft.to/lastmile_qr_scan", "ios": "https://dc.lft.to/lastmile_qr_scan"}, "lon": -77.03645483333334, "fusion_lat": 0.0}, {"name": "b52967753c06be94aa7f6c0573d4fd42", "fusion_lon": 0.0, "lat": 38.910838166666665, "is_reserved": 0, "type": "electric_scooter", "bike_id": "b52967753c06be94aa7f6c0573d4fd42", "is_disabled": 0, "rental_uris": {"android": "https://dc.lft.to/lastmile_qr_scan", "ios": "https://dc.lft.to/lastmile_qr_scan"}, "lon": -76.9927045, "fusion_lat": 0.0}, {"name": "1f65f368d8cb5db6787ea513c135e552", "fusion_lon": 0.0, "lat": 38.92835383333333, "is_reserved": 0, "type": "electric_bike", "bike_id": "1f65f368d8cb5db6787ea513c135e552", "is_disabled": 0, "rental_uris": {"android": "https://dc.lft.to/lastmile_qr_scan", "ios": "https://dc.lft.to/lastmile_qr_scan"}, "lon": -77.05523916666667, "fusion_lat": 0.0}, {"name": "44b1f497003724fe26aad78381d88997", "fusion_lon": 0.0, "lat": 38.883911833333336, "is_reserved": 0, "type": "electric_scooter", "bike_id": "44b1f497003724fe26aad78381d88997", "is_disabled": 0, "rental_uris": {"android": "https://dc.lft.to/lastmile_qr_scan", "ios": "https://dc.lft.to/lastmile_qr_scan"}, "lon": -76.93047966666667, "fusion_lat": 0.0}, {"name": "1060e8a9f15d98b28518b78fc620d003", "fusion_lon": 0.0, "lat": 38.936304166666666, "is_reserved": 0, "type": "electric_bike", "bike_id": "1060e8a9f15d98b28518b78fc620d003", "is_disabled": 0, "rental_uris": {"android": "https://dc.lft.to/lastmile_qr_scan", "ios": "https://dc.lft.to/lastmile_qr_scan"}, "lon": -77.09014766666667, "fusion_lat": 0.0}, {"name": "42c1dd24fae728ce86bd85d1ee410fb7", "fusion_lon": 0.0, "lat": 38.831411, "is_reserved": 0, "type": "electric_scooter", "bike_id": "42c1dd24fae728ce86bd85d1ee410fb7", "is_disabled": 0, "rental_uris": {"android": "https://dc.lft.to/lastmile_qr_scan", "ios": "https://dc.lft.to/lastmile_qr_scan"}, "lon": -77.05122033333333, "fusion_lat": 0.0}, {"name": "f5b8438b82d8b28e2650332314dc1c62", "fusion_lon": 0.0, "lat": 38.929016, "is_reserved": 0, "type": "electric_scooter", "bike_id": "f5b8438b82d8b28e2650332314dc1c62", "is_disabled": 0, "rental_uris": {"android": "https://dc.lft.to/lastmile_qr_scan", "ios": "https://dc.lft.to/lastmile_qr_scan"}, "lon": -77.02613366666667, "fusion_lat": 0.0}, {"name": "3073b09051497f57cf041bedb2968d3d", "fusion_lon": 0.0, "lat": 38.928741333333335, "is_reserved": 0, "type": "electric_scooter", "bike_id": "3073b09051497f57cf041bedb2968d3d", "is_disabled": 0, "rental_uris": {"android": "https://dc.lft.to/lastmile_qr_scan", "ios": "https://dc.lft.to/lastmile_qr_scan"}, "lon": -77.014224, "fusion_lat": 0.0}, {"name": "d1fbbcbc106291407f44f9002d9f3a1f", "fusion_lon": 0.0, "lat": 38.94511333333333, "is_reserved": 0, "type": "electric_bike", "bike_id": "d1fbbcbc106291407f44f9002d9f3a1f", "is_disabled": 0, "rental_uris": {"android": "https://dc.lft.to/lastmile_qr_scan", "ios": "https://dc.lft.to/lastmile_qr_scan"}, "lon": -77.00668716666667, "fusion_lat": 0.0}, {"name": "960d999345e825451854539e485f04ad", "fusion_lon": 0.0, "lat": 38.879212833333334, "is_reserved": 0, "type": "electric_scooter", "bike_id": "960d999345e825451854539e485f04ad", "is_disabled": 0, "rental_uris": {"android": "https://dc.lft.to/lastmile_qr_scan", "ios": "https://dc.lft.to/lastmile_qr_scan"}, "lon": -77.00535666666667, "fusion_lat": 0.0}, {"name": "7f58bc0310b93079c3294ebfc473e9dd", "fusion_lon": 0.0, "lat": 38.915480333333335, "is_reserved": 0, "type": "electric_scooter", "bike_id": "7f58bc0310b93079c3294ebfc473e9dd", "is_disabled": 0, "rental_uris": {"android": "https://dc.lft.to/lastmile_qr_scan", "ios": "https://dc.lft.to/lastmile_qr_scan"}, "lon": -77.03852416666666, "fusion_lat": 0.0}, {"name": "5bfef3ef2941c41ee7910f6abfe21776", "fusion_lon": 0.0, "lat": 38.879377166666664, "is_reserved": 0, "type": "electric_scooter", "bike_id": "5bfef3ef2941c41ee7910f6abfe21776", "is_disabled": 0, "rental_uris": {"android": "https://dc.lft.to/lastmile_qr_scan", "ios": "https://dc.lft.to/lastmile_qr_scan"}, "lon": -77.00064283333333, "fusion_lat": 0.0}, {"name": "73b3b5274ba86cd2eb0330820077a91c", "fusion_lon": 0.0, "lat": 38.93593516666667, "is_reserved": 0, "type": "electric_bike", "bike_id": "73b3b5274ba86cd2eb0330820077a91c", "is_disabled": 0, "rental_uris": {"android": "https://dc.lft.to/lastmile_qr_scan", "ios": "https://dc.lft.to/lastmile_qr_scan"}, "lon": -77.0355435, "fusion_lat": 0.0}, {"name": "7ba47c9724c1635a7c0e427f188feda3", "fusion_lon": 0.0, "lat": 38.923437, "is_reserved": 0, "type": "electric_scooter", "bike_id": "7ba47c9724c1635a7c0e427f188feda3", "is_disabled": 0, "rental_uris": {"android": "https://dc.lft.to/lastmile_qr_scan", "ios": "https://dc.lft.to/lastmile_qr_scan"}, "lon": -77.0507925, "fusion_lat": 0.0}, {"name": "ed6a2bf25f265b7fc9bbddb13cefe733", "fusion_lon": 0.0, "lat": 38.807091166666666, "is_reserved": 0, "type": "electric_bike", "bike_id": "ed6a2bf25f265b7fc9bbddb13cefe733", "is_disabled": 0, "rental_uris": {"android": "https://dc.lft.to/lastmile_qr_scan", "ios": "https://dc.lft.to/lastmile_qr_scan"}, "lon": -77.0617805, "fusion_lat": 0.0}, {"name": "0ddc78e66a96f985e433e7ee8949ac4e", "fusion_lon": 0.0, "lat": 38.8985625, "is_reserved": 0, "type": "electric_scooter", "bike_id": "0ddc78e66a96f985e433e7ee8949ac4e", "is_disabled": 0, "rental_uris": {"android": "https://dc.lft.to/lastmile_qr_scan", "ios": "https://dc.lft.to/lastmile_qr_scan"}, "lon": -76.981684, "fusion_lat": 0.0}, {"name": "593ff9e1c0a602456e3fce874c84a3f3", "fusion_lon": 0.0, "lat": 38.86518016666667, "is_reserved": 0, "type": "electric_scooter", "bike_id": "593ff9e1c0a602456e3fce874c84a3f3", "is_disabled": 0, "rental_uris": {"android": "https://dc.lft.to/lastmile_qr_scan", "ios": "https://dc.lft.to/lastmile_qr_scan"}, "lon": -76.9901715, "fusion_lat": 0.0}, {"name": "192e71212d22ab8ec5b97a24f6f3a912", "fusion_lon": 0.0, "lat": 38.9078825, "is_reserved": 0, "type": "electric_scooter", "bike_id": "192e71212d22ab8ec5b97a24f6f3a912", "is_disabled": 0, "rental_uris": {"android": "https://dc.lft.to/lastmile_qr_scan", "ios": "https://dc.lft.to/lastmile_qr_scan"}, "lon": -77.03861583333334, "fusion_lat": 0.0}, {"name": "bff61589fca80a5f63696f205b293e01", "fusion_lon": 0.0, "lat": 38.8874665, "is_reserved": 0, "type": "electric_scooter", "bike_id": "bff61589fca80a5f63696f205b293e01", "is_disabled": 0, "rental_uris": {"android": "https://dc.lft.to/lastmile_qr_scan", "ios": "https://dc.lft.to/lastmile_qr_scan"}, "lon": -77.02725866666667, "fusion_lat": 0.0}, {"name": "eb021dd6f0022fc2d7309b106c5e06b1", "fusion_lon": 0.0, "lat": 38.91728783333333, "is_reserved": 0, "type": "electric_scooter", "bike_id": "eb021dd6f0022fc2d7309b106c5e06b1", "is_disabled": 0, "rental_uris": {"android": "https://dc.lft.to/lastmile_qr_scan", "ios": "https://dc.lft.to/lastmile_qr_scan"}, "lon": -77.036595, "fusion_lat": 0.0}, {"name": "d670dee45b5917bc65fe7ee355e6b95d", "fusion_lon": 0.0, "lat": 38.919298166666664, "is_reserved": 0, "type": "electric_scooter", "bike_id": "d670dee45b5917bc65fe7ee355e6b95d", "is_disabled": 0, "rental_uris": {"android": "https://dc.lft.to/lastmile_qr_scan", "ios": "https://dc.lft.to/lastmile_qr_scan"}, "lon": -77.032249, "fusion_lat": 0.0}, {"name": "20b43dbf32a5201a5071e110e03cbca9", "fusion_lon": 0.0, "lat": 38.92218333333334, "is_reserved": 0, "type": "electric_scooter", "bike_id": "20b43dbf32a5201a5071e110e03cbca9", "is_disabled": 0, "rental_uris": {"android": "https://dc.lft.to/lastmile_qr_scan", "ios": "https://dc.lft.to/lastmile_qr_scan"}, "lon": -77.0345835, "fusion_lat": 0.0}, {"name": "0d157454f001d5f2ce3d4e6cf4264336", "fusion_lon": 0.0, "lat": 38.809133333333335, "is_reserved": 0, "type": "electric_bike", "bike_id": "0d157454f001d5f2ce3d4e6cf4264336", "is_disabled": 0, "rental_uris": {"android": "https://dc.lft.to/lastmile_qr_scan", "ios": "https://dc.lft.to/lastmile_qr_scan"}, "lon": -77.08657966666667, "fusion_lat": 0.0}, {"name": "9b1d895ae7911b0ed4f63c9bf50afa02", "fusion_lon": 0.0, "lat": 38.928489166666665, "is_reserved": 0, "type": "electric_scooter", "bike_id": "9b1d895ae7911b0ed4f63c9bf50afa02", "is_disabled": 0, "rental_uris": {"android": "https://dc.lft.to/lastmile_qr_scan", "ios": "https://dc.lft.to/lastmile_qr_scan"}, "lon": -77.01410883333334, "fusion_lat": 0.0}, {"name": "d105f3c7e28c3023e07a530cf9e5e763", "fusion_lon": 0.0, "lat": 38.863907833333336, "is_reserved": 0, "type": "electric_scooter", "bike_id": "d105f3c7e28c3023e07a530cf9e5e763", "is_disabled": 0, "rental_uris": {"android": "https://dc.lft.to/lastmile_qr_scan", "ios": "https://dc.lft.to/lastmile_qr_scan"}, "lon": -76.99042166666666, "fusion_lat": 0.0}, {"name": "177cfe4d014372d57e4cf4faa393acbd", "fusion_lon": 0.0, "lat": 38.8862, "is_reserved": 0, "type": "electric_scooter", "bike_id": "177cfe4d014372d57e4cf4faa393acbd", "is_disabled": 0, "rental_uris": {"android": "https://dc.lft.to/lastmile_qr_scan", "ios": "https://dc.lft.to/lastmile_qr_scan"}, "lon": -76.955801, "fusion_lat": 0.0}, {"name": "1cb0822b98826b1899fbcafd07d58e22", "fusion_lon": 0.0, "lat": 38.884727833333336, "is_reserved": 0, "type": "electric_scooter", "bike_id": "1cb0822b98826b1899fbcafd07d58e22", "is_disabled": 0, "rental_uris": {"android": "https://dc.lft.to/lastmile_qr_scan", "ios": "https://dc.lft.to/lastmile_qr_scan"}, "lon": -77.03214016666666, "fusion_lat": 0.0}, {"name": "1a48d717a281ff57e5add36d8c97007e", "fusion_lon": 0.0, "lat": 38.91211916666666, "is_reserved": 0, "type": "electric_scooter", "bike_id": "1a48d717a281ff57e5add36d8c97007e", "is_disabled": 0, "rental_uris": {"android": "https://dc.lft.to/lastmile_qr_scan", "ios": "https://dc.lft.to/lastmile_qr_scan"}, "lon": -77.0383925, "fusion_lat": 0.0}, {"name": "4036dd24240d7a192515e9243b500e39", "fusion_lon": 0.0, "lat": 38.90026983333333, "is_reserved": 0, "type": "electric_scooter", "bike_id": "4036dd24240d7a192515e9243b500e39", "is_disabled": 0, "rental_uris": {"android": "https://dc.lft.to/lastmile_qr_scan", "ios": "https://dc.lft.to/lastmile_qr_scan"}, "lon": -77.044875, "fusion_lat": 0.0}, {"name": "dfdeed1f0d4fbe00b807e72951e18ec9", "fusion_lon": 0.0, "lat": 38.90322333333334, "is_reserved": 0, "type": "electric_scooter", "bike_id": "dfdeed1f0d4fbe00b807e72951e18ec9", "is_disabled": 0, "rental_uris": {"android": "https://dc.lft.to/lastmile_qr_scan", "ios": "https://dc.lft.to/lastmile_qr_scan"}, "lon": -76.97545616666666, "fusion_lat": 0.0}, {"name": "c10c6f72c8e002d9f513387341e4e4f1", "fusion_lon": 0.0, "lat": 38.87639866666667, "is_reserved": 0, "type": "electric_scooter", "bike_id": "c10c6f72c8e002d9f513387341e4e4f1", "is_disabled": 0, "rental_uris": {"android": "https://dc.lft.to/lastmile_qr_scan", "ios": "https://dc.lft.to/lastmile_qr_scan"}, "lon": -77.00454183333333, "fusion_lat": 0.0}, {"name": "24d78f812e713d596fe7461fab7f7842", "fusion_lon": 0.0, "lat": 38.8995515, "is_reserved": 0, "type": "electric_scooter", "bike_id": "24d78f812e713d596fe7461fab7f7842", "is_disabled": 0, "rental_uris": {"android": "https://dc.lft.to/lastmile_qr_scan", "ios": "https://dc.lft.to/lastmile_qr_scan"}, "lon": -77.01608166666666, "fusion_lat": 0.0}, {"name": "628feb509b3ce0ad5f872af58330cadd", "fusion_lon": 0.0, "lat": 38.9309955, "is_reserved": 0, "type": "electric_scooter", "bike_id": "628feb509b3ce0ad5f872af58330cadd", "is_disabled": 0, "rental_uris": {"android": "https://dc.lft.to/lastmile_qr_scan", "ios": "https://dc.lft.to/lastmile_qr_scan"}, "lon": -77.03438633333333, "fusion_lat": 0.0}, {"name": "e16e729006cc18ec84a31529ed6e28ff", "fusion_lon": 0.0, "lat": 38.9168455, "is_reserved": 0, "type": "electric_scooter", "bike_id": "e16e729006cc18ec84a31529ed6e28ff", "is_disabled": 0, "rental_uris": {"android": "https://dc.lft.to/lastmile_qr_scan", "ios": "https://dc.lft.to/lastmile_qr_scan"}, "lon": -77.025273, "fusion_lat": 0.0}, {"name": "79ae0dd5e4108cc2529c4efd4c452794", "fusion_lon": 0.0, "lat": 38.89363016666667, "is_reserved": 0, "type": "electric_scooter", "bike_id": "79ae0dd5e4108cc2529c4efd4c452794", "is_disabled": 0, "rental_uris": {"android": "https://dc.lft.to/lastmile_qr_scan", "ios": "https://dc.lft.to/lastmile_qr_scan"}, "lon": -77.00338033333334, "fusion_lat": 0.0}, {"name": "b50905ac759a8c9016675841e6efa946", "fusion_lon": 0.0, "lat": 38.90390983333333, "is_reserved": 0, "type": "electric_scooter", "bike_id": "b50905ac759a8c9016675841e6efa946", "is_disabled": 0, "rental_uris": {"android": "https://dc.lft.to/lastmile_qr_scan", "ios": "https://dc.lft.to/lastmile_qr_scan"}, "lon": -77.03823966666667, "fusion_lat": 0.0}, {"name": "f3dc3ed8431cf31523915170af587714", "fusion_lon": 0.0, "lat": 38.905477166666664, "is_reserved": 0, "type": "electric_scooter", "bike_id": "f3dc3ed8431cf31523915170af587714", "is_disabled": 0, "rental_uris": {"android": "https://dc.lft.to/lastmile_qr_scan", "ios": "https://dc.lft.to/lastmile_qr_scan"}, "lon": -77.00577016666666, "fusion_lat": 0.0}, {"name": "af84bdc455d87505ffc30951a037ad70", "fusion_lon": 0.0, "lat": 38.88785383333333, "is_reserved": 0, "type": "electric_scooter", "bike_id": "af84bdc455d87505ffc30951a037ad70", "is_disabled": 0, "rental_uris": {"android": "https://dc.lft.to/lastmile_qr_scan", "ios": "https://dc.lft.to/lastmile_qr_scan"}, "lon": -76.9553275, "fusion_lat": 0.0}, {"name": "c4c3f4258af2f1c47019e494e1aec2c7", "fusion_lon": 0.0, "lat": 38.8624185, "is_reserved": 0, "type": "electric_scooter", "bike_id": "c4c3f4258af2f1c47019e494e1aec2c7", "is_disabled": 0, "rental_uris": {"android": "https://dc.lft.to/lastmile_qr_scan", "ios": "https://dc.lft.to/lastmile_qr_scan"}, "lon": -76.99491716666667, "fusion_lat": 0.0}, {"name": "ef9a4a5effbbaf03a74c3c9c689da810", "fusion_lon": 0.0, "lat": 38.92445283333333, "is_reserved": 0, "type": "electric_scooter", "bike_id": "ef9a4a5effbbaf03a74c3c9c689da810", "is_disabled": 0, "rental_uris": {"android": "https://dc.lft.to/lastmile_qr_scan", "ios": "https://dc.lft.to/lastmile_qr_scan"}, "lon": -77.0400535, "fusion_lat": 0.0}, {"name": "cb6f8502b034fb064314a4f28dd5df65", "fusion_lon": 0.0, "lat": 38.893718666666665, "is_reserved": 0, "type": "electric_scooter", "bike_id": "cb6f8502b034fb064314a4f28dd5df65", "is_disabled": 0, "rental_uris": {"android": "https://dc.lft.to/lastmile_qr_scan", "ios": "https://dc.lft.to/lastmile_qr_scan"}, "lon": -77.03149066666667, "fusion_lat": 0.0}, {"name": "7ea468c730e6a15bf3d5899866610056", "fusion_lon": 0.0, "lat": 38.894837833333334, "is_reserved": 0, "type": "electric_scooter", "bike_id": "7ea468c730e6a15bf3d5899866610056", "is_disabled": 0, "rental_uris": {"android": "https://dc.lft.to/lastmile_qr_scan", "ios": "https://dc.lft.to/lastmile_qr_scan"}, "lon": -77.0281445, "fusion_lat": 0.0}, {"name": "a05c8c7cb54febdfca42b2e826a7297f", "fusion_lon": 0.0, "lat": 38.905361166666665, "is_reserved": 0, "type": "electric_scooter", "bike_id": "a05c8c7cb54febdfca42b2e826a7297f", "is_disabled": 0, "rental_uris": {"android": "https://dc.lft.to/lastmile_qr_scan", "ios": "https://dc.lft.to/lastmile_qr_scan"}, "lon": -76.98107716666667, "fusion_lat": 0.0}, {"name": "e702ffb02181051425181fcdb11774a8", "fusion_lon": 0.0, "lat": 38.91887033333333, "is_reserved": 0, "type": "electric_scooter", "bike_id": "e702ffb02181051425181fcdb11774a8", "is_disabled": 0, "rental_uris": {"android": "https://dc.lft.to/lastmile_qr_scan", "ios": "https://dc.lft.to/lastmile_qr_scan"}, "lon": -77.03497983333334, "fusion_lat": 0.0}, {"name": "14fc139851e75d32397408de811395a5", "fusion_lon": 0.0, "lat": 38.860612333333336, "is_reserved": 0, "type": "electric_scooter", "bike_id": "14fc139851e75d32397408de811395a5", "is_disabled": 0, "rental_uris": {"android": "https://dc.lft.to/lastmile_qr_scan", "ios": "https://dc.lft.to/lastmile_qr_scan"}, "lon": -76.984188, "fusion_lat": 0.0}, {"name": "09af49a2c8aee8b9639617950e720760", "fusion_lon": 0.0, "lat": 38.875742833333334, "is_reserved": 0, "type": "electric_scooter", "bike_id": "09af49a2c8aee8b9639617950e720760", "is_disabled": 0, "rental_uris": {"android": "https://dc.lft.to/lastmile_qr_scan", "ios": "https://dc.lft.to/lastmile_qr_scan"}, "lon": -77.00589583333333, "fusion_lat": 0.0}, {"name": "45893d481667e82f6c419861bb5b2904", "fusion_lon": 0.0, "lat": 38.84432016666667, "is_reserved": 0, "type": "electric_scooter", "bike_id": "45893d481667e82f6c419861bb5b2904", "is_disabled": 0, "rental_uris": {"android": "https://dc.lft.to/lastmile_qr_scan", "ios": "https://dc.lft.to/lastmile_qr_scan"}, "lon": -76.9978045, "fusion_lat": 0.0}, {"name": "8a58450d5e7c3b8b71be2abbc9167c6f", "fusion_lon": 0.0, "lat": 38.9166935, "is_reserved": 0, "type": "electric_scooter", "bike_id": "8a58450d5e7c3b8b71be2abbc9167c6f", "is_disabled": 0, "rental_uris": {"android": "https://dc.lft.to/lastmile_qr_scan", "ios": "https://dc.lft.to/lastmile_qr_scan"}, "lon": -77.034066, "fusion_lat": 0.0}, {"name": "284c45923f4b308519473aaa865dab5a", "fusion_lon": 0.0, "lat": 38.908394666666666, "is_reserved": 0, "type": "electric_scooter", "bike_id": "284c45923f4b308519473aaa865dab5a", "is_disabled": 0, "rental_uris": {"android": "https://dc.lft.to/lastmile_qr_scan", "ios": "https://dc.lft.to/lastmile_qr_scan"}, "lon": -77.03317083333333, "fusion_lat": 0.0}, {"name": "cb28cdfea258771080aa461a314bfeb6", "fusion_lon": 0.0, "lat": 38.891170333333335, "is_reserved": 0, "type": "electric_scooter", "bike_id": "cb28cdfea258771080aa461a314bfeb6", "is_disabled": 0, "rental_uris": {"android": "https://dc.lft.to/lastmile_qr_scan", "ios": "https://dc.lft.to/lastmile_qr_scan"}, "lon": -76.99160116666667, "fusion_lat": 0.0}, {"name": "5f180cc83ca3f4f7699551b4e1dc90ed", "fusion_lon": 0.0, "lat": 38.92281116666667, "is_reserved": 0, "type": "electric_scooter", "bike_id": "5f180cc83ca3f4f7699551b4e1dc90ed", "is_disabled": 0, "rental_uris": {"android": "https://dc.lft.to/lastmile_qr_scan", "ios": "https://dc.lft.to/lastmile_qr_scan"}, "lon": -77.04462683333334, "fusion_lat": 0.0}, {"name": "3765fa8f967001ecec001dcf3d488b8d", "fusion_lon": 0.0, "lat": 38.88744116666667, "is_reserved": 0, "type": "electric_scooter", "bike_id": "3765fa8f967001ecec001dcf3d488b8d", "is_disabled": 0, "rental_uris": {"android": "https://dc.lft.to/lastmile_qr_scan", "ios": "https://dc.lft.to/lastmile_qr_scan"}, "lon": -77.02572583333334, "fusion_lat": 0.0}, {"name": "672b995f756bbb270e00cae5d210e2e8", "fusion_lon": 0.0, "lat": 38.89536983333333, "is_reserved": 0, "type": "electric_scooter", "bike_id": "672b995f756bbb270e00cae5d210e2e8", "is_disabled": 0, "rental_uris": {"android": "https://dc.lft.to/lastmile_qr_scan", "ios": "https://dc.lft.to/lastmile_qr_scan"}, "lon": -76.94912516666666, "fusion_lat": 0.0}, {"name": "f433d10ab166ed0583d2b126e902b5c5", "fusion_lon": 0.0, "lat": 38.900229, "is_reserved": 0, "type": "electric_scooter", "bike_id": "f433d10ab166ed0583d2b126e902b5c5", "is_disabled": 0, "rental_uris": {"android": "https://dc.lft.to/lastmile_qr_scan", "ios": "https://dc.lft.to/lastmile_qr_scan"}, "lon": -76.99901933333334, "fusion_lat": 0.0}, {"name": "84be1119b67473b8529a9b3a5f59db5f", "fusion_lon": 0.0, "lat": 38.836890833333335, "is_reserved": 0, "type": "electric_scooter", "bike_id": "84be1119b67473b8529a9b3a5f59db5f", "is_disabled": 0, "rental_uris": {"android": "https://dc.lft.to/lastmile_qr_scan", "ios": "https://dc.lft.to/lastmile_qr_scan"}, "lon": -77.00565783333333, "fusion_lat": 0.0}, {"name": "0647c06ff6bb95a04d1e6025ce4058b9", "fusion_lon": 0.0, "lat": 38.892252666666664, "is_reserved": 0, "type": "electric_scooter", "bike_id": "0647c06ff6bb95a04d1e6025ce4058b9", "is_disabled": 0, "rental_uris": {"android": "https://dc.lft.to/lastmile_qr_scan", "ios": "https://dc.lft.to/lastmile_qr_scan"}, "lon": -77.04800266666666, "fusion_lat": 0.0}, {"name": "124069f55f8fecba0507d374971f65dd", "fusion_lon": 0.0, "lat": 38.9584865, "is_reserved": 0, "type": "electric_scooter", "bike_id": "124069f55f8fecba0507d374971f65dd", "is_disabled": 0, "rental_uris": {"android": "https://dc.lft.to/lastmile_qr_scan", "ios": "https://dc.lft.to/lastmile_qr_scan"}, "lon": -77.0700155, "fusion_lat": 0.0}, {"name": "e6c8162f466e1b249b31af82c0fbc208", "fusion_lon": 0.0, "lat": 38.92569116666667, "is_reserved": 0, "type": "electric_bike", "bike_id": "e6c8162f466e1b249b31af82c0fbc208", "is_disabled": 0, "rental_uris": {"android": "https://dc.lft.to/lastmile_qr_scan", "ios": "https://dc.lft.to/lastmile_qr_scan"}, "lon": -77.00171416666667, "fusion_lat": 0.0}, {"name": "22ec3fc4da10becf514531ea02e2dca0", "fusion_lon": 0.0, "lat": 38.9225085, "is_reserved": 0, "type": "electric_bike", "bike_id": "22ec3fc4da10becf514531ea02e2dca0", "is_disabled": 0, "rental_uris": {"android": "https://dc.lft.to/lastmile_qr_scan", "ios": "https://dc.lft.to/lastmile_qr_scan"}, "lon": -77.01946616666666, "fusion_lat": 0.0}, {"name": "30af66dbebcfa04ecc9668c5e829da12", "fusion_lon": 0.0, "lat": 38.904570666666665, "is_reserved": 0, "type": "electric_scooter", "bike_id": "30af66dbebcfa04ecc9668c5e829da12", "is_disabled": 0, "rental_uris": {"android": "https://dc.lft.to/lastmile_qr_scan", "ios": "https://dc.lft.to/lastmile_qr_scan"}, "lon": -77.048121, "fusion_lat": 0.0}, {"name": "c47326bb5f6ae8dda070eadc54a8427c", "fusion_lon": 0.0, "lat": 38.8760205, "is_reserved": 0, "type": "electric_scooter", "bike_id": "c47326bb5f6ae8dda070eadc54a8427c", "is_disabled": 0, "rental_uris": {"android": "https://dc.lft.to/lastmile_qr_scan", "ios": "https://dc.lft.to/lastmile_qr_scan"}, "lon": -77.00056333333333, "fusion_lat": 0.0}, {"name": "49f2c40177c3620494654f060e4245c7", "fusion_lon": 0.0, "lat": 38.94206583333333, "is_reserved": 0, "type": "electric_scooter", "bike_id": "49f2c40177c3620494654f060e4245c7", "is_disabled": 0, "rental_uris": {"android": "https://dc.lft.to/lastmile_qr_scan", "ios": "https://dc.lft.to/lastmile_qr_scan"}, "lon": -77.02511683333333, "fusion_lat": 0.0}, {"name": "005e742cb7a29bf919b2f915fd9bde24", "fusion_lon": 0.0, "lat": 38.872793333333334, "is_reserved": 0, "type": "electric_bike", "bike_id": "005e742cb7a29bf919b2f915fd9bde24", "is_disabled": 0, "rental_uris": {"android": "https://dc.lft.to/lastmile_qr_scan", "ios": "https://dc.lft.to/lastmile_qr_scan"}, "lon": -77.23316333333334, "fusion_lat": 0.0}, {"name": "85e0bbb3606b95a2285e5568e5873e03", "fusion_lon": 0.0, "lat": 38.8983325, "is_reserved": 0, "type": "electric_scooter", "bike_id": "85e0bbb3606b95a2285e5568e5873e03", "is_disabled": 0, "rental_uris": {"android": "https://dc.lft.to/lastmile_qr_scan", "ios": "https://dc.lft.to/lastmile_qr_scan"}, "lon": -77.03345083333333, "fusion_lat": 0.0}, {"name": "53ffe876a432bfd54d6f10bb712a374e", "fusion_lon": 0.0, "lat": 38.903920166666666, "is_reserved": 0, "type": "electric_scooter", "bike_id": "53ffe876a432bfd54d6f10bb712a374e", "is_disabled": 0, "rental_uris": {"android": "https://dc.lft.to/lastmile_qr_scan", "ios": "https://dc.lft.to/lastmile_qr_scan"}, "lon": -77.03820083333333, "fusion_lat": 0.0}, {"name": "340b42e34461b1d4295e9ff3c26edbd1", "fusion_lon": 0.0, "lat": 38.863519333333336, "is_reserved": 0, "type": "electric_scooter", "bike_id": "340b42e34461b1d4295e9ff3c26edbd1", "is_disabled": 0, "rental_uris": {"android": "https://dc.lft.to/lastmile_qr_scan", "ios": "https://dc.lft.to/lastmile_qr_scan"}, "lon": -76.98702183333333, "fusion_lat": 0.0}, {"name": "0f4e07bd016a63163825a2af4bd262f2", "fusion_lon": 0.0, "lat": 38.900383, "is_reserved": 0, "type": "electric_scooter", "bike_id": "0f4e07bd016a63163825a2af4bd262f2", "is_disabled": 0, "rental_uris": {"android": "https://dc.lft.to/lastmile_qr_scan", "ios": "https://dc.lft.to/lastmile_qr_scan"}, "lon": -77.011838, "fusion_lat": 0.0}, {"name": "ce653ae378886128875a0c5c8e84c7c2", "fusion_lon": 0.0, "lat": 38.887299666666664, "is_reserved": 0, "type": "electric_scooter", "bike_id": "ce653ae378886128875a0c5c8e84c7c2", "is_disabled": 0, "rental_uris": {"android": "https://dc.lft.to/lastmile_qr_scan", "ios": "https://dc.lft.to/lastmile_qr_scan"}, "lon": -77.0282755, "fusion_lat": 0.0}, {"name": "326fc3f5ab5a2cc43387ab8c0b4ecc87", "fusion_lon": 0.0, "lat": 38.9151935, "is_reserved": 0, "type": "electric_scooter", "bike_id": "326fc3f5ab5a2cc43387ab8c0b4ecc87", "is_disabled": 0, "rental_uris": {"android": "https://dc.lft.to/lastmile_qr_scan", "ios": "https://dc.lft.to/lastmile_qr_scan"}, "lon": -77.03187816666667, "fusion_lat": 0.0}, {"name": "cf78a63fd0da172457efb8d55025cf66", "fusion_lon": 0.0, "lat": 38.880588333333336, "is_reserved": 0, "type": "electric_bike", "bike_id": "cf78a63fd0da172457efb8d55025cf66", "is_disabled": 0, "rental_uris": {"android": "https://dc.lft.to/lastmile_qr_scan", "ios": "https://dc.lft.to/lastmile_qr_scan"}, "lon": -76.96233633333334, "fusion_lat": 0.0}, {"name": "0b54b895c0d6d270bde38720adf8f20e", "fusion_lon": 0.0, "lat": 38.90607466666667, "is_reserved": 0, "type": "electric_scooter", "bike_id": "0b54b895c0d6d270bde38720adf8f20e", "is_disabled": 0, "rental_uris": {"android": "https://dc.lft.to/lastmile_qr_scan", "ios": "https://dc.lft.to/lastmile_qr_scan"}, "lon": -77.05688333333333, "fusion_lat": 0.0}, {"name": "b69de70e35771b962299185b2c935123", "fusion_lon": 0.0, "lat": 38.88509033333333, "is_reserved": 0, "type": "electric_scooter", "bike_id": "b69de70e35771b962299185b2c935123", "is_disabled": 0, "rental_uris": {"android": "https://dc.lft.to/lastmile_qr_scan", "ios": "https://dc.lft.to/lastmile_qr_scan"}, "lon": -77.00567116666667, "fusion_lat": 0.0}, {"name": "03dda1ebcd82546b2c169b2a81cb672c", "fusion_lon": 0.0, "lat": 38.869470666666665, "is_reserved": 0, "type": "electric_scooter", "bike_id": "03dda1ebcd82546b2c169b2a81cb672c", "is_disabled": 0, "rental_uris": {"android": "https://dc.lft.to/lastmile_qr_scan", "ios": "https://dc.lft.to/lastmile_qr_scan"}, "lon": -76.98170366666666, "fusion_lat": 0.0}, {"name": "69cd48d48ee5a8c779852e5a97848a5b", "fusion_lon": 0.0, "lat": 38.893232833333336, "is_reserved": 0, "type": "electric_scooter", "bike_id": "69cd48d48ee5a8c779852e5a97848a5b", "is_disabled": 0, "rental_uris": {"android": "https://dc.lft.to/lastmile_qr_scan", "ios": "https://dc.lft.to/lastmile_qr_scan"}, "lon": -77.0487605, "fusion_lat": 0.0}, {"name": "25cab0c80fd9d72abe5fb4d9875a9262", "fusion_lon": 0.0, "lat": 38.92399833333333, "is_reserved": 0, "type": "electric_scooter", "bike_id": "25cab0c80fd9d72abe5fb4d9875a9262", "is_disabled": 0, "rental_uris": {"android": "https://dc.lft.to/lastmile_qr_scan", "ios": "https://dc.lft.to/lastmile_qr_scan"}, "lon": -77.02145616666667, "fusion_lat": 0.0}, {"name": "b8c695659dc34e2f36f11b670fc4a664", "fusion_lon": 0.0, "lat": 38.91620233333333, "is_reserved": 0, "type": "electric_scooter", "bike_id": "b8c695659dc34e2f36f11b670fc4a664", "is_disabled": 0, "rental_uris": {"android": "https://dc.lft.to/lastmile_qr_scan", "ios": "https://dc.lft.to/lastmile_qr_scan"}, "lon": -77.04854966666667, "fusion_lat": 0.0}, {"name": "c9625b3627f4615667b68e96c22f41ac", "fusion_lon": 0.0, "lat": 38.910131, "is_reserved": 0, "type": "electric_bike", "bike_id": "c9625b3627f4615667b68e96c22f41ac", "is_disabled": 0, "rental_uris": {"android": "https://dc.lft.to/lastmile_qr_scan", "ios": "https://dc.lft.to/lastmile_qr_scan"}, "lon": -77.227966, "fusion_lat": 0.0}, {"name": "ed056e52273f1d405d8b4b7378607c37", "fusion_lon": 0.0, "lat": 38.923118, "is_reserved": 0, "type": "electric_scooter", "bike_id": "ed056e52273f1d405d8b4b7378607c37", "is_disabled": 0, "rental_uris": {"android": "https://dc.lft.to/lastmile_qr_scan", "ios": "https://dc.lft.to/lastmile_qr_scan"}, "lon": -77.02757783333334, "fusion_lat": 0.0}, {"name": "dcc83db89106b6d8c239cb7cfb53eeb2", "fusion_lon": 0.0, "lat": 38.92487283333333, "is_reserved": 0, "type": "electric_scooter", "bike_id": "dcc83db89106b6d8c239cb7cfb53eeb2", "is_disabled": 0, "rental_uris": {"android": "https://dc.lft.to/lastmile_qr_scan", "ios": "https://dc.lft.to/lastmile_qr_scan"}, "lon": -77.03179033333333, "fusion_lat": 0.0}, {"name": "32cc6ff617d7d50f1e72630d5a8910b7", "fusion_lon": 0.0, "lat": 38.92460916666667, "is_reserved": 0, "type": "electric_scooter", "bike_id": "32cc6ff617d7d50f1e72630d5a8910b7", "is_disabled": 0, "rental_uris": {"android": "https://dc.lft.to/lastmile_qr_scan", "ios": "https://dc.lft.to/lastmile_qr_scan"}, "lon": -77.02713933333334, "fusion_lat": 0.0}, {"name": "09c901538bdcb65ce432b2932a04fc39", "fusion_lon": 0.0, "lat": 38.91838766666667, "is_reserved": 0, "type": "electric_scooter", "bike_id": "09c901538bdcb65ce432b2932a04fc39", "is_disabled": 0, "rental_uris": {"android": "https://dc.lft.to/lastmile_qr_scan", "ios": "https://dc.lft.to/lastmile_qr_scan"}, "lon": -77.02321233333333, "fusion_lat": 0.0}, {"name": "e35ddf9a7842a6fe15c76eac31cb930a", "fusion_lon": 0.0, "lat": 38.892231833333334, "is_reserved": 0, "type": "electric_scooter", "bike_id": "e35ddf9a7842a6fe15c76eac31cb930a", "is_disabled": 0, "rental_uris": {"android": "https://dc.lft.to/lastmile_qr_scan", "ios": "https://dc.lft.to/lastmile_qr_scan"}, "lon": -77.0485815, "fusion_lat": 0.0}, {"name": "e0dbb2c4aa2cb6d997e51de9d522b928", "fusion_lon": 0.0, "lat": 38.9095885, "is_reserved": 0, "type": "electric_scooter", "bike_id": "e0dbb2c4aa2cb6d997e51de9d522b928", "is_disabled": 0, "rental_uris": {"android": "https://dc.lft.to/lastmile_qr_scan", "ios": "https://dc.lft.to/lastmile_qr_scan"}, "lon": -77.03289716666667, "fusion_lat": 0.0}, {"name": "e443c6f460bd2679d30f6406556c76ae", "fusion_lon": 0.0, "lat": 38.94516266666667, "is_reserved": 0, "type": "electric_scooter", "bike_id": "e443c6f460bd2679d30f6406556c76ae", "is_disabled": 0, "rental_uris": {"android": "https://dc.lft.to/lastmile_qr_scan", "ios": "https://dc.lft.to/lastmile_qr_scan"}, "lon": -77.03360133333334, "fusion_lat": 0.0}, {"name": "b7ca85fc2d354f6ff139fa55d4853c04", "fusion_lon": 0.0, "lat": 38.870079, "is_reserved": 0, "type": "electric_scooter", "bike_id": "b7ca85fc2d354f6ff139fa55d4853c04", "is_disabled": 0, "rental_uris": {"android": "https://dc.lft.to/lastmile_qr_scan", "ios": "https://dc.lft.to/lastmile_qr_scan"}, "lon": -76.9808035, "fusion_lat": 0.0}, {"name": "66a871147bea36818f988276c600f5c5", "fusion_lon": 0.0, "lat": 38.9098305, "is_reserved": 0, "type": "electric_scooter", "bike_id": "66a871147bea36818f988276c600f5c5", "is_disabled": 0, "rental_uris": {"android": "https://dc.lft.to/lastmile_qr_scan", "ios": "https://dc.lft.to/lastmile_qr_scan"}, "lon": -77.03840166666667, "fusion_lat": 0.0}, {"name": "13e5db16698ddd627e67f4e448ff5238", "fusion_lon": 0.0, "lat": 38.876587, "is_reserved": 0, "type": "electric_scooter", "bike_id": "13e5db16698ddd627e67f4e448ff5238", "is_disabled": 0, "rental_uris": {"android": "https://dc.lft.to/lastmile_qr_scan", "ios": "https://dc.lft.to/lastmile_qr_scan"}, "lon": -77.00312533333333, "fusion_lat": 0.0}, {"name": "4662025aa28d34cc7b6ebe0c02a121f5", "fusion_lon": 0.0, "lat": 38.927724, "is_reserved": 0, "type": "electric_scooter", "bike_id": "4662025aa28d34cc7b6ebe0c02a121f5", "is_disabled": 0, "rental_uris": {"android": "https://dc.lft.to/lastmile_qr_scan", "ios": "https://dc.lft.to/lastmile_qr_scan"}, "lon": -77.02711233333333, "fusion_lat": 0.0}, {"name": "46496e2073a35a7829072143786b9e9c", "fusion_lon": 0.0, "lat": 38.9198505, "is_reserved": 0, "type": "electric_scooter", "bike_id": "46496e2073a35a7829072143786b9e9c", "is_disabled": 0, "rental_uris": {"android": "https://dc.lft.to/lastmile_qr_scan", "ios": "https://dc.lft.to/lastmile_qr_scan"}, "lon": -77.04165333333333, "fusion_lat": 0.0}, {"name": "f53b29e32088e17b44a54e17725cd4c7", "fusion_lon": 0.0, "lat": 38.9063255, "is_reserved": 0, "type": "electric_scooter", "bike_id": "f53b29e32088e17b44a54e17725cd4c7", "is_disabled": 0, "rental_uris": {"android": "https://dc.lft.to/lastmile_qr_scan", "ios": "https://dc.lft.to/lastmile_qr_scan"}, "lon": -77.06909116666667, "fusion_lat": 0.0}, {"name": "9cda25b84ceb0483c333e2047c3547da", "fusion_lon": 0.0, "lat": 38.882437333333336, "is_reserved": 0, "type": "electric_scooter", "bike_id": "9cda25b84ceb0483c333e2047c3547da", "is_disabled": 0, "rental_uris": {"android": "https://dc.lft.to/lastmile_qr_scan", "ios": "https://dc.lft.to/lastmile_qr_scan"}, "lon": -76.99118033333333, "fusion_lat": 0.0}, {"name": "4557e83446d31563275eaeafa566bf73", "fusion_lon": 0.0, "lat": 38.908012166666666, "is_reserved": 0, "type": "electric_scooter", "bike_id": "4557e83446d31563275eaeafa566bf73", "is_disabled": 0, "rental_uris": {"android": "https://dc.lft.to/lastmile_qr_scan", "ios": "https://dc.lft.to/lastmile_qr_scan"}, "lon": -77.034187, "fusion_lat": 0.0}, {"name": "41db857a3a116f2306d5047708d88a8c", "fusion_lon": 0.0, "lat": 38.918713833333335, "is_reserved": 0, "type": "electric_scooter", "bike_id": "41db857a3a116f2306d5047708d88a8c", "is_disabled": 0, "rental_uris": {"android": "https://dc.lft.to/lastmile_qr_scan", "ios": "https://dc.lft.to/lastmile_qr_scan"}, "lon": -77.04755766666666, "fusion_lat": 0.0}, {"name": "c57203e405b7022156c6a17d1d445fed", "fusion_lon": 0.0, "lat": 38.92559933333333, "is_reserved": 0, "type": "electric_scooter", "bike_id": "c57203e405b7022156c6a17d1d445fed", "is_disabled": 0, "rental_uris": {"android": "https://dc.lft.to/lastmile_qr_scan", "ios": "https://dc.lft.to/lastmile_qr_scan"}, "lon": -77.03784583333334, "fusion_lat": 0.0}, {"name": "781d76a2e450b3bdc580e2b7c3f5fd36", "fusion_lon": 0.0, "lat": 38.89615333333333, "is_reserved": 0, "type": "electric_scooter", "bike_id": "781d76a2e450b3bdc580e2b7c3f5fd36", "is_disabled": 0, "rental_uris": {"android": "https://dc.lft.to/lastmile_qr_scan", "ios": "https://dc.lft.to/lastmile_qr_scan"}, "lon": -77.04559433333333, "fusion_lat": 0.0}, {"name": "ae394618b3e15454cb4be9beeb3230cb", "fusion_lon": 0.0, "lat": 38.9208545, "is_reserved": 0, "type": "electric_scooter", "bike_id": "ae394618b3e15454cb4be9beeb3230cb", "is_disabled": 0, "rental_uris": {"android": "https://dc.lft.to/lastmile_qr_scan", "ios": "https://dc.lft.to/lastmile_qr_scan"}, "lon": -77.02290216666667, "fusion_lat": 0.0}, {"name": "85ada695cd250e51d5465d880a1ab5bf", "fusion_lon": 0.0, "lat": 38.904122666666666, "is_reserved": 0, "type": "electric_scooter", "bike_id": "85ada695cd250e51d5465d880a1ab5bf", "is_disabled": 0, "rental_uris": {"android": "https://dc.lft.to/lastmile_qr_scan", "ios": "https://dc.lft.to/lastmile_qr_scan"}, "lon": -76.973342, "fusion_lat": 0.0}, {"name": "88bf82209dac82dc0f79bb47e3627636", "fusion_lon": 0.0, "lat": 38.88606083333333, "is_reserved": 0, "type": "electric_scooter", "bike_id": "88bf82209dac82dc0f79bb47e3627636", "is_disabled": 0, "rental_uris": {"android": "https://dc.lft.to/lastmile_qr_scan", "ios": "https://dc.lft.to/lastmile_qr_scan"}, "lon": -76.99099716666667, "fusion_lat": 0.0}, {"name": "8fb04ef935ac5cc981d0a2500ae9f903", "fusion_lon": 0.0, "lat": 38.91549933333334, "is_reserved": 0, "type": "electric_scooter", "bike_id": "8fb04ef935ac5cc981d0a2500ae9f903", "is_disabled": 0, "rental_uris": {"android": "https://dc.lft.to/lastmile_qr_scan", "ios": "https://dc.lft.to/lastmile_qr_scan"}, "lon": -77.04176583333333, "fusion_lat": 0.0}, {"name": "75ee80a77de041663d55ed27d5cebdc3", "fusion_lon": 0.0, "lat": 38.90628433333333, "is_reserved": 0, "type": "electric_scooter", "bike_id": "75ee80a77de041663d55ed27d5cebdc3", "is_disabled": 0, "rental_uris": {"android": "https://dc.lft.to/lastmile_qr_scan", "ios": "https://dc.lft.to/lastmile_qr_scan"}, "lon": -77.04129433333334, "fusion_lat": 0.0}, {"name": "5fcdcf24d8ad455145a14c966a891904", "fusion_lon": 0.0, "lat": 38.907393666666664, "is_reserved": 0, "type": "electric_scooter", "bike_id": "5fcdcf24d8ad455145a14c966a891904", "is_disabled": 0, "rental_uris": {"android": "https://dc.lft.to/lastmile_qr_scan", "ios": "https://dc.lft.to/lastmile_qr_scan"}, "lon": -77.04521616666666, "fusion_lat": 0.0}, {"name": "c867b45e537ec1208802749f9915fb45", "fusion_lon": 0.0, "lat": 38.93375416666667, "is_reserved": 0, "type": "electric_scooter", "bike_id": "c867b45e537ec1208802749f9915fb45", "is_disabled": 0, "rental_uris": {"android": "https://dc.lft.to/lastmile_qr_scan", "ios": "https://dc.lft.to/lastmile_qr_scan"}, "lon": -77.03255166666666, "fusion_lat": 0.0}, {"name": "f9c79f58f8e938bd4a4c490d00ba324b", "fusion_lon": 0.0, "lat": 38.95731583333333, "is_reserved": 0, "type": "electric_scooter", "bike_id": "f9c79f58f8e938bd4a4c490d00ba324b", "is_disabled": 0, "rental_uris": {"android": "https://dc.lft.to/lastmile_qr_scan", "ios": "https://dc.lft.to/lastmile_qr_scan"}, "lon": -77.02400133333333, "fusion_lat": 0.0}, {"name": "6d22a8c59db26e5a6639095b474140f0", "fusion_lon": 0.0, "lat": 38.903772833333335, "is_reserved": 0, "type": "electric_scooter", "bike_id": "6d22a8c59db26e5a6639095b474140f0", "is_disabled": 0, "rental_uris": {"android": "https://dc.lft.to/lastmile_qr_scan", "ios": "https://dc.lft.to/lastmile_qr_scan"}, "lon": -77.03981483333334, "fusion_lat": 0.0}, {"name": "5727f4a62ff89a6b5f0860b5e8722a3c", "fusion_lon": 0.0, "lat": 38.84926733333333, "is_reserved": 0, "type": "electric_bike", "bike_id": "5727f4a62ff89a6b5f0860b5e8722a3c", "is_disabled": 0, "rental_uris": {"android": "https://dc.lft.to/lastmile_qr_scan", "ios": "https://dc.lft.to/lastmile_qr_scan"}, "lon": -77.07784716666667, "fusion_lat": 0.0}, {"name": "cbffed07da22e2997a2e09bfd9428a07", "fusion_lon": 0.0, "lat": 38.956501333333335, "is_reserved": 0, "type": "electric_bike", "bike_id": "cbffed07da22e2997a2e09bfd9428a07", "is_disabled": 0, "rental_uris": {"android": "https://dc.lft.to/lastmile_qr_scan", "ios": "https://dc.lft.to/lastmile_qr_scan"}, "lon": -77.01276416666667, "fusion_lat": 0.0}, {"name": "3e3e206bdf4bf8fc252d7b69ef6cd1f3", "fusion_lon": 0.0, "lat": 38.893713, "is_reserved": 0, "type": "electric_scooter", "bike_id": "3e3e206bdf4bf8fc252d7b69ef6cd1f3", "is_disabled": 0, "rental_uris": {"android": "https://dc.lft.to/lastmile_qr_scan", "ios": "https://dc.lft.to/lastmile_qr_scan"}, "lon": -77.0155115, "fusion_lat": 0.0}, {"name": "48bf9356e93d80cf44972cb342b519e3", "fusion_lon": 0.0, "lat": 38.90510616666667, "is_reserved": 0, "type": "electric_scooter", "bike_id": "48bf9356e93d80cf44972cb342b519e3", "is_disabled": 0, "rental_uris": {"android": "https://dc.lft.to/lastmile_qr_scan", "ios": "https://dc.lft.to/lastmile_qr_scan"}, "lon": -77.00126883333333, "fusion_lat": 0.0}, {"name": "5d7b5391c7e862a43c8446e782b01118", "fusion_lon": 0.0, "lat": 38.916813, "is_reserved": 0, "type": "electric_scooter", "bike_id": "5d7b5391c7e862a43c8446e782b01118", "is_disabled": 0, "rental_uris": {"android": "https://dc.lft.to/lastmile_qr_scan", "ios": "https://dc.lft.to/lastmile_qr_scan"}, "lon": -77.04143266666667, "fusion_lat": 0.0}, {"name": "4d8e164d49716a1ba9e004094e5b6082", "fusion_lon": 0.0, "lat": 38.90671666666667, "is_reserved": 0, "type": "electric_scooter", "bike_id": "4d8e164d49716a1ba9e004094e5b6082", "is_disabled": 0, "rental_uris": {"android": "https://dc.lft.to/lastmile_qr_scan", "ios": "https://dc.lft.to/lastmile_qr_scan"}, "lon": -77.07134216666667, "fusion_lat": 0.0}, {"name": "e317e561241714704ee41d4597dc0d43", "fusion_lon": 0.0, "lat": 38.9901095, "is_reserved": 0, "type": "electric_bike", "bike_id": "e317e561241714704ee41d4597dc0d43", "is_disabled": 0, "rental_uris": {"android": "https://dc.lft.to/lastmile_qr_scan", "ios": "https://dc.lft.to/lastmile_qr_scan"}, "lon": -77.00439266666666, "fusion_lat": 0.0}, {"name": "f11d824104057fa07b26a11a93903aec", "fusion_lon": 0.0, "lat": 38.866610666666666, "is_reserved": 0, "type": "electric_scooter", "bike_id": "f11d824104057fa07b26a11a93903aec", "is_disabled": 0, "rental_uris": {"android": "https://dc.lft.to/lastmile_qr_scan", "ios": "https://dc.lft.to/lastmile_qr_scan"}, "lon": -76.988831, "fusion_lat": 0.0}, {"name": "33656153dc59a93724a80ac4f6520a91", "fusion_lon": 0.0, "lat": 38.902111833333336, "is_reserved": 0, "type": "electric_scooter", "bike_id": "33656153dc59a93724a80ac4f6520a91", "is_disabled": 0, "rental_uris": {"android": "https://dc.lft.to/lastmile_qr_scan", "ios": "https://dc.lft.to/lastmile_qr_scan"}, "lon": -77.02169583333334, "fusion_lat": 0.0}, {"name": "cce59cdbb89682db1e2d83be0d46096f", "fusion_lon": 0.0, "lat": 38.925493833333334, "is_reserved": 0, "type": "electric_scooter", "bike_id": "cce59cdbb89682db1e2d83be0d46096f", "is_disabled": 0, "rental_uris": {"android": "https://dc.lft.to/lastmile_qr_scan", "ios": "https://dc.lft.to/lastmile_qr_scan"}, "lon": -77.03300783333333, "fusion_lat": 0.0}, {"name": "6ef93f5e13ae35f59c2c5a710406fb8a", "fusion_lon": 0.0, "lat": 38.86521116666667, "is_reserved": 0, "type": "electric_scooter", "bike_id": "6ef93f5e13ae35f59c2c5a710406fb8a", "is_disabled": 0, "rental_uris": {"android": "https://dc.lft.to/lastmile_qr_scan", "ios": "https://dc.lft.to/lastmile_qr_scan"}, "lon": -76.97348883333333, "fusion_lat": 0.0}, {"name": "4f0a95af3ed7109441d815dd6853799e", "fusion_lon": 0.0, "lat": 38.92495983333333, "is_reserved": 0, "type": "electric_scooter", "bike_id": "4f0a95af3ed7109441d815dd6853799e", "is_disabled": 0, "rental_uris": {"android": "https://dc.lft.to/lastmile_qr_scan", "ios": "https://dc.lft.to/lastmile_qr_scan"}, "lon": -77.03496366666667, "fusion_lat": 0.0}, {"name": "7260526a7e65056b46f7a0a004523976", "fusion_lon": 0.0, "lat": 38.86242216666667, "is_reserved": 0, "type": "electric_scooter", "bike_id": "7260526a7e65056b46f7a0a004523976", "is_disabled": 0, "rental_uris": {"android": "https://dc.lft.to/lastmile_qr_scan", "ios": "https://dc.lft.to/lastmile_qr_scan"}, "lon": -76.994931, "fusion_lat": 0.0}, {"name": "dec2a9490249b1999a660ed721f09971", "fusion_lon": 0.0, "lat": 38.925051, "is_reserved": 0, "type": "electric_scooter", "bike_id": "dec2a9490249b1999a660ed721f09971", "is_disabled": 0, "rental_uris": {"android": "https://dc.lft.to/lastmile_qr_scan", "ios": "https://dc.lft.to/lastmile_qr_scan"}, "lon": -77.02328483333334, "fusion_lat": 0.0}, {"name": "072f04868798cf84b80430fde83547b7", "fusion_lon": 0.0, "lat": 38.8634935, "is_reserved": 0, "type": "electric_scooter", "bike_id": "072f04868798cf84b80430fde83547b7", "is_disabled": 0, "rental_uris": {"android": "https://dc.lft.to/lastmile_qr_scan", "ios": "https://dc.lft.to/lastmile_qr_scan"}, "lon": -76.98706283333334, "fusion_lat": 0.0}, {"name": "2c74548fb28c1f2652130d2de9168ef6", "fusion_lon": 0.0, "lat": 38.91756433333333, "is_reserved": 0, "type": "electric_scooter", "bike_id": "2c74548fb28c1f2652130d2de9168ef6", "is_disabled": 0, "rental_uris": {"android": "https://dc.lft.to/lastmile_qr_scan", "ios": "https://dc.lft.to/lastmile_qr_scan"}, "lon": -77.02264216666667, "fusion_lat": 0.0}, {"name": "c1e3c10064ff0912c465a9bae46abd3a", "fusion_lon": 0.0, "lat": 38.909749166666664, "is_reserved": 0, "type": "electric_scooter", "bike_id": "c1e3c10064ff0912c465a9bae46abd3a", "is_disabled": 0, "rental_uris": {"android": "https://dc.lft.to/lastmile_qr_scan", "ios": "https://dc.lft.to/lastmile_qr_scan"}, "lon": -77.03985666666667, "fusion_lat": 0.0}, {"name": "baeb5e25d1afaf175fd2f13b1f5b3a7e", "fusion_lon": 0.0, "lat": 38.920029166666666, "is_reserved": 0, "type": "electric_scooter", "bike_id": "baeb5e25d1afaf175fd2f13b1f5b3a7e", "is_disabled": 0, "rental_uris": {"android": "https://dc.lft.to/lastmile_qr_scan", "ios": "https://dc.lft.to/lastmile_qr_scan"}, "lon": -77.0331185, "fusion_lat": 0.0}, {"name": "132f1a0b52a943dedc0f6def25d1d775", "fusion_lon": 0.0, "lat": 38.89239283333333, "is_reserved": 0, "type": "electric_scooter", "bike_id": "132f1a0b52a943dedc0f6def25d1d775", "is_disabled": 0, "rental_uris": {"android": "https://dc.lft.to/lastmile_qr_scan", "ios": "https://dc.lft.to/lastmile_qr_scan"}, "lon": -77.03134533333333, "fusion_lat": 0.0}, {"name": "db1ac43ba1157be0f01e64770f8e1af3", "fusion_lon": 0.0, "lat": 38.91707516666666, "is_reserved": 0, "type": "electric_scooter", "bike_id": "db1ac43ba1157be0f01e64770f8e1af3", "is_disabled": 0, "rental_uris": {"android": "https://dc.lft.to/lastmile_qr_scan", "ios": "https://dc.lft.to/lastmile_qr_scan"}, "lon": -77.02453916666667, "fusion_lat": 0.0}, {"name": "a63ad4ffacf21b723bf16861276a6be8", "fusion_lon": 0.0, "lat": 38.9154305, "is_reserved": 0, "type": "electric_scooter", "bike_id": "a63ad4ffacf21b723bf16861276a6be8", "is_disabled": 0, "rental_uris": {"android": "https://dc.lft.to/lastmile_qr_scan", "ios": "https://dc.lft.to/lastmile_qr_scan"}, "lon": -77.03849716666667, "fusion_lat": 0.0}, {"name": "3551a645050edb4ba99c512f7b044346", "fusion_lon": 0.0, "lat": 38.920900833333334, "is_reserved": 0, "type": "electric_scooter", "bike_id": "3551a645050edb4ba99c512f7b044346", "is_disabled": 0, "rental_uris": {"android": "https://dc.lft.to/lastmile_qr_scan", "ios": "https://dc.lft.to/lastmile_qr_scan"}, "lon": -77.01685333333333, "fusion_lat": 0.0}, {"name": "47fbafb7a2403e57926ca2e09e00d8b7", "fusion_lon": 0.0, "lat": 38.92506733333333, "is_reserved": 0, "type": "electric_scooter", "bike_id": "47fbafb7a2403e57926ca2e09e00d8b7", "is_disabled": 0, "rental_uris": {"android": "https://dc.lft.to/lastmile_qr_scan", "ios": "https://dc.lft.to/lastmile_qr_scan"}, "lon": -77.02164116666667, "fusion_lat": 0.0}, {"name": "3fbb02f76667e435be15cf3f2dc75136", "fusion_lon": 0.0, "lat": 38.920990333333336, "is_reserved": 0, "type": "electric_scooter", "bike_id": "3fbb02f76667e435be15cf3f2dc75136", "is_disabled": 0, "rental_uris": {"android": "https://dc.lft.to/lastmile_qr_scan", "ios": "https://dc.lft.to/lastmile_qr_scan"}, "lon": -77.0317355, "fusion_lat": 0.0}, {"name": "06785e5646b09fd64cf2e9913c53e72e", "fusion_lon": 0.0, "lat": 38.876345, "is_reserved": 0, "type": "electric_scooter", "bike_id": "06785e5646b09fd64cf2e9913c53e72e", "is_disabled": 0, "rental_uris": {"android": "https://dc.lft.to/lastmile_qr_scan", "ios": "https://dc.lft.to/lastmile_qr_scan"}, "lon": -77.0045705, "fusion_lat": 0.0}, {"name": "c79127fcefc7cb8b8f91b1171fbf3c51", "fusion_lon": 0.0, "lat": 38.90346566666667, "is_reserved": 0, "type": "electric_scooter", "bike_id": "c79127fcefc7cb8b8f91b1171fbf3c51", "is_disabled": 0, "rental_uris": {"android": "https://dc.lft.to/lastmile_qr_scan", "ios": "https://dc.lft.to/lastmile_qr_scan"}, "lon": -76.98506666666667, "fusion_lat": 0.0}, {"name": "debf0ef40c69c7f99251519f9f1d7321", "fusion_lon": 0.0, "lat": 38.907245, "is_reserved": 0, "type": "electric_scooter", "bike_id": "debf0ef40c69c7f99251519f9f1d7321", "is_disabled": 0, "rental_uris": {"android": "https://dc.lft.to/lastmile_qr_scan", "ios": "https://dc.lft.to/lastmile_qr_scan"}, "lon": -76.98462366666666, "fusion_lat": 0.0}, {"name": "bc6186c1719f2a439949a3adb8c5075a", "fusion_lon": 0.0, "lat": 38.870883166666665, "is_reserved": 0, "type": "electric_scooter", "bike_id": "bc6186c1719f2a439949a3adb8c5075a", "is_disabled": 0, "rental_uris": {"android": "https://dc.lft.to/lastmile_qr_scan", "ios": "https://dc.lft.to/lastmile_qr_scan"}, "lon": -77.0072515, "fusion_lat": 0.0}, {"name": "02cb0a2cbf30497d9480965e5256af60", "fusion_lon": 0.0, "lat": 38.88744666666667, "is_reserved": 0, "type": "electric_scooter", "bike_id": "02cb0a2cbf30497d9480965e5256af60", "is_disabled": 0, "rental_uris": {"android": "https://dc.lft.to/lastmile_qr_scan", "ios": "https://dc.lft.to/lastmile_qr_scan"}, "lon": -77.0284155, "fusion_lat": 0.0}, {"name": "dd53d2b912065e66a07ad9e3049105f0", "fusion_lon": 0.0, "lat": 38.893113, "is_reserved": 0, "type": "electric_scooter", "bike_id": "dd53d2b912065e66a07ad9e3049105f0", "is_disabled": 0, "rental_uris": {"android": "https://dc.lft.to/lastmile_qr_scan", "ios": "https://dc.lft.to/lastmile_qr_scan"}, "lon": -77.05002466666667, "fusion_lat": 0.0}, {"name": "3da26959eef499f2551fdb8801473ff5", "fusion_lon": 0.0, "lat": 38.93578616666667, "is_reserved": 0, "type": "electric_scooter", "bike_id": "3da26959eef499f2551fdb8801473ff5", "is_disabled": 0, "rental_uris": {"android": "https://dc.lft.to/lastmile_qr_scan", "ios": "https://dc.lft.to/lastmile_qr_scan"}, "lon": -77.02122033333333, "fusion_lat": 0.0}, {"name": "e3e47fb6d24060bba196df9342b8c35f", "fusion_lon": 0.0, "lat": 38.936563, "is_reserved": 0, "type": "electric_scooter", "bike_id": "e3e47fb6d24060bba196df9342b8c35f", "is_disabled": 0, "rental_uris": {"android": "https://dc.lft.to/lastmile_qr_scan", "ios": "https://dc.lft.to/lastmile_qr_scan"}, "lon": -77.02641983333334, "fusion_lat": 0.0}, {"name": "84aa2b989af638218eaf03315f252446", "fusion_lon": 0.0, "lat": 38.884312, "is_reserved": 0, "type": "electric_scooter", "bike_id": "84aa2b989af638218eaf03315f252446", "is_disabled": 0, "rental_uris": {"android": "https://dc.lft.to/lastmile_qr_scan", "ios": "https://dc.lft.to/lastmile_qr_scan"}, "lon": -76.95744866666666, "fusion_lat": 0.0}, {"name": "3373242e045a8fd520a1156b3c3652bc", "fusion_lon": 0.0, "lat": 38.9287125, "is_reserved": 0, "type": "electric_scooter", "bike_id": "3373242e045a8fd520a1156b3c3652bc", "is_disabled": 0, "rental_uris": {"android": "https://dc.lft.to/lastmile_qr_scan", "ios": "https://dc.lft.to/lastmile_qr_scan"}, "lon": -77.02848816666666, "fusion_lat": 0.0}, {"name": "455eea39b8d61227117e6ba0d2b9dc5a", "fusion_lon": 0.0, "lat": 38.88849166666667, "is_reserved": 0, "type": "electric_scooter", "bike_id": "455eea39b8d61227117e6ba0d2b9dc5a", "is_disabled": 0, "rental_uris": {"android": "https://dc.lft.to/lastmile_qr_scan", "ios": "https://dc.lft.to/lastmile_qr_scan"}, "lon": -76.9268675, "fusion_lat": 0.0}, {"name": "38c54592a512bcf7383015a2d05c4cad", "fusion_lon": 0.0, "lat": 38.9091075, "is_reserved": 0, "type": "electric_scooter", "bike_id": "38c54592a512bcf7383015a2d05c4cad", "is_disabled": 0, "rental_uris": {"android": "https://dc.lft.to/lastmile_qr_scan", "ios": "https://dc.lft.to/lastmile_qr_scan"}, "lon": -77.027131, "fusion_lat": 0.0}, {"name": "901b99636a930c64a87d067a82800d74", "fusion_lon": 0.0, "lat": 38.92842916666667, "is_reserved": 0, "type": "electric_scooter", "bike_id": "901b99636a930c64a87d067a82800d74", "is_disabled": 0, "rental_uris": {"android": "https://dc.lft.to/lastmile_qr_scan", "ios": "https://dc.lft.to/lastmile_qr_scan"}, "lon": -77.03276866666667, "fusion_lat": 0.0}, {"name": "7a0d170c12fb04d6ad305392f843ca61", "fusion_lon": 0.0, "lat": 38.927825, "is_reserved": 0, "type": "electric_scooter", "bike_id": "7a0d170c12fb04d6ad305392f843ca61", "is_disabled": 0, "rental_uris": {"android": "https://dc.lft.to/lastmile_qr_scan", "ios": "https://dc.lft.to/lastmile_qr_scan"}, "lon": -77.03165266666667, "fusion_lat": 0.0}, {"name": "667c2fc4f01781c85bf18fbd8dcf03dd", "fusion_lon": 0.0, "lat": 38.86939316666667, "is_reserved": 0, "type": "electric_bike", "bike_id": "667c2fc4f01781c85bf18fbd8dcf03dd", "is_disabled": 0, "rental_uris": {"android": "https://dc.lft.to/lastmile_qr_scan", "ios": "https://dc.lft.to/lastmile_qr_scan"}, "lon": -77.09465116666667, "fusion_lat": 0.0}, {"name": "eaf6478b493ab99c91969bdc92abbc27", "fusion_lon": 0.0, "lat": 38.87178083333333, "is_reserved": 0, "type": "electric_scooter", "bike_id": "eaf6478b493ab99c91969bdc92abbc27", "is_disabled": 0, "rental_uris": {"android": "https://dc.lft.to/lastmile_qr_scan", "ios": "https://dc.lft.to/lastmile_qr_scan"}, "lon": -77.0061115, "fusion_lat": 0.0}, {"name": "8ea78d14d3f4fe02b7c2eddedb57c089", "fusion_lon": 0.0, "lat": 38.9162845, "is_reserved": 0, "type": "electric_scooter", "bike_id": "8ea78d14d3f4fe02b7c2eddedb57c089", "is_disabled": 0, "rental_uris": {"android": "https://dc.lft.to/lastmile_qr_scan", "ios": "https://dc.lft.to/lastmile_qr_scan"}, "lon": -77.031851, "fusion_lat": 0.0}, {"name": "570cff4c0770664c68a2b9f897f53d2c", "fusion_lon": 0.0, "lat": 38.88119416666667, "is_reserved": 0, "type": "electric_scooter", "bike_id": "570cff4c0770664c68a2b9f897f53d2c", "is_disabled": 0, "rental_uris": {"android": "https://dc.lft.to/lastmile_qr_scan", "ios": "https://dc.lft.to/lastmile_qr_scan"}, "lon": -77.01657733333333, "fusion_lat": 0.0}, {"name": "832541f42a88ff4aab0212395efc9436", "fusion_lon": 0.0, "lat": 38.929029, "is_reserved": 0, "type": "electric_scooter", "bike_id": "832541f42a88ff4aab0212395efc9436", "is_disabled": 0, "rental_uris": {"android": "https://dc.lft.to/lastmile_qr_scan", "ios": "https://dc.lft.to/lastmile_qr_scan"}, "lon": -77.01628166666667, "fusion_lat": 0.0}, {"name": "5b8a5a2cb1146327c8b5d83f650a0b85", "fusion_lon": 0.0, "lat": 38.90201883333334, "is_reserved": 0, "type": "electric_scooter", "bike_id": "5b8a5a2cb1146327c8b5d83f650a0b85", "is_disabled": 0, "rental_uris": {"android": "https://dc.lft.to/lastmile_qr_scan", "ios": "https://dc.lft.to/lastmile_qr_scan"}, "lon": -77.0129955, "fusion_lat": 0.0}, {"name": "8502cfd117b474ed653f79b18d2211c4", "fusion_lon": 0.0, "lat": 38.90446633333333, "is_reserved": 0, "type": "electric_scooter", "bike_id": "8502cfd117b474ed653f79b18d2211c4", "is_disabled": 0, "rental_uris": {"android": "https://dc.lft.to/lastmile_qr_scan", "ios": "https://dc.lft.to/lastmile_qr_scan"}, "lon": -77.062882, "fusion_lat": 0.0}, {"name": "2334e35d768bb61d043031913ea7a89d", "fusion_lon": 0.0, "lat": 38.934151166666666, "is_reserved": 0, "type": "electric_scooter", "bike_id": "2334e35d768bb61d043031913ea7a89d", "is_disabled": 0, "rental_uris": {"android": "https://dc.lft.to/lastmile_qr_scan", "ios": "https://dc.lft.to/lastmile_qr_scan"}, "lon": -77.042647, "fusion_lat": 0.0}, {"name": "a5caa17f0977bd291365a2d8689a6da8", "fusion_lon": 0.0, "lat": 38.928512833333336, "is_reserved": 0, "type": "electric_scooter", "bike_id": "a5caa17f0977bd291365a2d8689a6da8", "is_disabled": 0, "rental_uris": {"android": "https://dc.lft.to/lastmile_qr_scan", "ios": "https://dc.lft.to/lastmile_qr_scan"}, "lon": -77.03302783333334, "fusion_lat": 0.0}, {"name": "1fa97181f8a013df03317966c8d574b2", "fusion_lon": 0.0, "lat": 38.93408566666667, "is_reserved": 0, "type": "electric_bike", "bike_id": "1fa97181f8a013df03317966c8d574b2", "is_disabled": 0, "rental_uris": {"android": "https://dc.lft.to/lastmile_qr_scan", "ios": "https://dc.lft.to/lastmile_qr_scan"}, "lon": -77.02893633333333, "fusion_lat": 0.0}, {"name": "482edc4419af1bd692ba4bc1c815bd26", "fusion_lon": 0.0, "lat": 38.9013675, "is_reserved": 0, "type": "electric_scooter", "bike_id": "482edc4419af1bd692ba4bc1c815bd26", "is_disabled": 0, "rental_uris": {"android": "https://dc.lft.to/lastmile_qr_scan", "ios": "https://dc.lft.to/lastmile_qr_scan"}, "lon": -77.013126, "fusion_lat": 0.0}, {"name": "5691168167c63f8790006a7bbe67310e", "fusion_lon": 0.0, "lat": 38.9288285, "is_reserved": 0, "type": "electric_scooter", "bike_id": "5691168167c63f8790006a7bbe67310e", "is_disabled": 0, "rental_uris": {"android": "https://dc.lft.to/lastmile_qr_scan", "ios": "https://dc.lft.to/lastmile_qr_scan"}, "lon": -77.040491, "fusion_lat": 0.0}, {"name": "bdc384ac88f6bf45347db9e9b890edb1", "fusion_lon": 0.0, "lat": 38.92859933333333, "is_reserved": 0, "type": "electric_scooter", "bike_id": "bdc384ac88f6bf45347db9e9b890edb1", "is_disabled": 0, "rental_uris": {"android": "https://dc.lft.to/lastmile_qr_scan", "ios": "https://dc.lft.to/lastmile_qr_scan"}, "lon": -77.03190483333333, "fusion_lat": 0.0}, {"name": "096cb3592380d106adef5c6b5485b2aa", "fusion_lon": 0.0, "lat": 38.934527, "is_reserved": 0, "type": "electric_scooter", "bike_id": "096cb3592380d106adef5c6b5485b2aa", "is_disabled": 0, "rental_uris": {"android": "https://dc.lft.to/lastmile_qr_scan", "ios": "https://dc.lft.to/lastmile_qr_scan"}, "lon": -77.02729616666667, "fusion_lat": 0.0}, {"name": "76ba7ea4a1c6afcc1f05c6b11ed7f0ae", "fusion_lon": 0.0, "lat": 38.850706, "is_reserved": 0, "type": "electric_scooter", "bike_id": "76ba7ea4a1c6afcc1f05c6b11ed7f0ae", "is_disabled": 0, "rental_uris": {"android": "https://dc.lft.to/lastmile_qr_scan", "ios": "https://dc.lft.to/lastmile_qr_scan"}, "lon": -76.97014766666666, "fusion_lat": 0.0}, {"name": "72f250b70e442031b13237b1be0924b5", "fusion_lon": 0.0, "lat": 38.915985, "is_reserved": 0, "type": "electric_scooter", "bike_id": "72f250b70e442031b13237b1be0924b5", "is_disabled": 0, "rental_uris": {"android": "https://dc.lft.to/lastmile_qr_scan", "ios": "https://dc.lft.to/lastmile_qr_scan"}, "lon": -76.98378833333334, "fusion_lat": 0.0}, {"name": "e21f927097409b95a8f5da57d3ce8a22", "fusion_lon": 0.0, "lat": 38.893147, "is_reserved": 0, "type": "electric_scooter", "bike_id": "e21f927097409b95a8f5da57d3ce8a22", "is_disabled": 0, "rental_uris": {"android": "https://dc.lft.to/lastmile_qr_scan", "ios": "https://dc.lft.to/lastmile_qr_scan"}, "lon": -76.93974683333333, "fusion_lat": 0.0}, {"name": "71a8f485547c13d3cc360ebad77ea630", "fusion_lon": 0.0, "lat": 38.90505983333333, "is_reserved": 0, "type": "electric_scooter", "bike_id": "71a8f485547c13d3cc360ebad77ea630", "is_disabled": 0, "rental_uris": {"android": "https://dc.lft.to/lastmile_qr_scan", "ios": "https://dc.lft.to/lastmile_qr_scan"}, "lon": -77.02945233333334, "fusion_lat": 0.0}, {"name": "fea50b74714386cb2066434ef761af06", "fusion_lon": 0.0, "lat": 38.907815, "is_reserved": 0, "type": "electric_scooter", "bike_id": "fea50b74714386cb2066434ef761af06", "is_disabled": 0, "rental_uris": {"android": "https://dc.lft.to/lastmile_qr_scan", "ios": "https://dc.lft.to/lastmile_qr_scan"}, "lon": -77.02384783333333, "fusion_lat": 0.0}, {"name": "99cd94003d2ac86f5988ee3a0c09822d", "fusion_lon": 0.0, "lat": 38.9230725, "is_reserved": 0, "type": "electric_scooter", "bike_id": "99cd94003d2ac86f5988ee3a0c09822d", "is_disabled": 0, "rental_uris": {"android": "https://dc.lft.to/lastmile_qr_scan", "ios": "https://dc.lft.to/lastmile_qr_scan"}, "lon": -77.04102766666666, "fusion_lat": 0.0}, {"name": "bb1e242ff3dbcb26e4abc01df6a3deeb", "fusion_lon": 0.0, "lat": 38.916987, "is_reserved": 0, "type": "electric_scooter", "bike_id": "bb1e242ff3dbcb26e4abc01df6a3deeb", "is_disabled": 0, "rental_uris": {"android": "https://dc.lft.to/lastmile_qr_scan", "ios": "https://dc.lft.to/lastmile_qr_scan"}, "lon": -77.03157066666667, "fusion_lat": 0.0}, {"name": "8ddfbec6163817876006cfdb5ff4df06", "fusion_lon": 0.0, "lat": 38.864658, "is_reserved": 0, "type": "electric_scooter", "bike_id": "8ddfbec6163817876006cfdb5ff4df06", "is_disabled": 0, "rental_uris": {"android": "https://dc.lft.to/lastmile_qr_scan", "ios": "https://dc.lft.to/lastmile_qr_scan"}, "lon": -76.9773285, "fusion_lat": 0.0}, {"name": "3f00f0eb55153191a709ba63f70e0f86", "fusion_lon": 0.0, "lat": 38.911925833333335, "is_reserved": 0, "type": "electric_scooter", "bike_id": "3f00f0eb55153191a709ba63f70e0f86", "is_disabled": 0, "rental_uris": {"android": "https://dc.lft.to/lastmile_qr_scan", "ios": "https://dc.lft.to/lastmile_qr_scan"}, "lon": -77.01017783333333, "fusion_lat": 0.0}, {"name": "3fec646d3d8892615c1a22c6cdef8a0b", "fusion_lon": 0.0, "lat": 38.9696095, "is_reserved": 0, "type": "electric_bike", "bike_id": "3fec646d3d8892615c1a22c6cdef8a0b", "is_disabled": 0, "rental_uris": {"android": "https://dc.lft.to/lastmile_qr_scan", "ios": "https://dc.lft.to/lastmile_qr_scan"}, "lon": -76.95750283333334, "fusion_lat": 0.0}, {"name": "843e180d616343973d99179440c997b6", "fusion_lon": 0.0, "lat": 38.93164783333334, "is_reserved": 0, "type": "electric_bike", "bike_id": "843e180d616343973d99179440c997b6", "is_disabled": 0, "rental_uris": {"android": "https://dc.lft.to/lastmile_qr_scan", "ios": "https://dc.lft.to/lastmile_qr_scan"}, "lon": -76.97631566666666, "fusion_lat": 0.0}, {"name": "66e1064b4a1ef87faaedbb3a3d95b9f1", "fusion_lon": 0.0, "lat": 38.93533933333333, "is_reserved": 0, "type": "electric_scooter", "bike_id": "66e1064b4a1ef87faaedbb3a3d95b9f1", "is_disabled": 0, "rental_uris": {"android": "https://dc.lft.to/lastmile_qr_scan", "ios": "https://dc.lft.to/lastmile_qr_scan"}, "lon": -77.02346283333334, "fusion_lat": 0.0}, {"name": "5fc8854c1bd5353694013d298a2d940f", "fusion_lon": 0.0, "lat": 38.92857033333333, "is_reserved": 0, "type": "electric_scooter", "bike_id": "5fc8854c1bd5353694013d298a2d940f", "is_disabled": 0, "rental_uris": {"android": "https://dc.lft.to/lastmile_qr_scan", "ios": "https://dc.lft.to/lastmile_qr_scan"}, "lon": -77.02793983333333, "fusion_lat": 0.0}, {"name": "6f2b26e77c59e98b0b70e68450d06b92", "fusion_lon": 0.0, "lat": 38.91683116666667, "is_reserved": 0, "type": "electric_scooter", "bike_id": "6f2b26e77c59e98b0b70e68450d06b92", "is_disabled": 0, "rental_uris": {"android": "https://dc.lft.to/lastmile_qr_scan", "ios": "https://dc.lft.to/lastmile_qr_scan"}, "lon": -77.0270005, "fusion_lat": 0.0}, {"name": "478b6892d5f6cd78ab14c5a814a054bb", "fusion_lon": 0.0, "lat": 38.921812833333334, "is_reserved": 0, "type": "electric_scooter", "bike_id": "478b6892d5f6cd78ab14c5a814a054bb", "is_disabled": 0, "rental_uris": {"android": "https://dc.lft.to/lastmile_qr_scan", "ios": "https://dc.lft.to/lastmile_qr_scan"}, "lon": -77.02669216666666, "fusion_lat": 0.0}, {"name": "48dcb66537b237325ce267e9bf380b0d", "fusion_lon": 0.0, "lat": 38.9110745, "is_reserved": 0, "type": "electric_bike", "bike_id": "48dcb66537b237325ce267e9bf380b0d", "is_disabled": 0, "rental_uris": {"android": "https://dc.lft.to/lastmile_qr_scan", "ios": "https://dc.lft.to/lastmile_qr_scan"}, "lon": -77.01500216666666, "fusion_lat": 0.0}, {"name": "0045dbfc04d446e0bb800461f7c145b2", "fusion_lon": 0.0, "lat": 38.9354955, "is_reserved": 0, "type": "electric_scooter", "bike_id": "0045dbfc04d446e0bb800461f7c145b2", "is_disabled": 0, "rental_uris": {"android": "https://dc.lft.to/lastmile_qr_scan", "ios": "https://dc.lft.to/lastmile_qr_scan"}, "lon": -77.05856583333333, "fusion_lat": 0.0}, {"name": "0d5bc2fa498e8482fa64b869830f66e0", "fusion_lon": 0.0, "lat": 38.9308555, "is_reserved": 0, "type": "electric_scooter", "bike_id": "0d5bc2fa498e8482fa64b869830f66e0", "is_disabled": 0, "rental_uris": {"android": "https://dc.lft.to/lastmile_qr_scan", "ios": "https://dc.lft.to/lastmile_qr_scan"}, "lon": -76.99612583333334, "fusion_lat": 0.0}, {"name": "aa00a75872d30a70b314be817d3e21a8", "fusion_lon": 0.0, "lat": 38.91574716666667, "is_reserved": 0, "type": "electric_scooter", "bike_id": "aa00a75872d30a70b314be817d3e21a8", "is_disabled": 0, "rental_uris": {"android": "https://dc.lft.to/lastmile_qr_scan", "ios": "https://dc.lft.to/lastmile_qr_scan"}, "lon": -77.02288266666666, "fusion_lat": 0.0}, {"name": "fc450b34adda1f02c9723c2acb59040f", "fusion_lon": 0.0, "lat": 38.89359683333333, "is_reserved": 0, "type": "electric_scooter", "bike_id": "fc450b34adda1f02c9723c2acb59040f", "is_disabled": 0, "rental_uris": {"android": "https://dc.lft.to/lastmile_qr_scan", "ios": "https://dc.lft.to/lastmile_qr_scan"}, "lon": -76.94933983333334, "fusion_lat": 0.0}, {"name": "0916c2c1e0665cb8b534a9a8ede65080", "fusion_lon": 0.0, "lat": 38.922088, "is_reserved": 0, "type": "electric_bike", "bike_id": "0916c2c1e0665cb8b534a9a8ede65080", "is_disabled": 0, "rental_uris": {"android": "https://dc.lft.to/lastmile_qr_scan", "ios": "https://dc.lft.to/lastmile_qr_scan"}, "lon": -76.98796316666666, "fusion_lat": 0.0}, {"name": "9fad31bb9019eb10bc000f9fa0592446", "fusion_lon": 0.0, "lat": 38.9209455, "is_reserved": 0, "type": "electric_scooter", "bike_id": "9fad31bb9019eb10bc000f9fa0592446", "is_disabled": 0, "rental_uris": {"android": "https://dc.lft.to/lastmile_qr_scan", "ios": "https://dc.lft.to/lastmile_qr_scan"}, "lon": -77.00433733333334, "fusion_lat": 0.0}, {"name": "c932ecb378213b43d24d10440c3339aa", "fusion_lon": 0.0, "lat": 38.90284616666667, "is_reserved": 0, "type": "electric_scooter", "bike_id": "c932ecb378213b43d24d10440c3339aa", "is_disabled": 0, "rental_uris": {"android": "https://dc.lft.to/lastmile_qr_scan", "ios": "https://dc.lft.to/lastmile_qr_scan"}, "lon": -77.03938616666667, "fusion_lat": 0.0}, {"name": "64f1a96808a9256933dbaf0fa64b8f03", "fusion_lon": 0.0, "lat": 38.914124666666666, "is_reserved": 0, "type": "electric_scooter", "bike_id": "64f1a96808a9256933dbaf0fa64b8f03", "is_disabled": 0, "rental_uris": {"android": "https://dc.lft.to/lastmile_qr_scan", "ios": "https://dc.lft.to/lastmile_qr_scan"}, "lon": -77.02142816666667, "fusion_lat": 0.0}, {"name": "717cf23fd06aa53f4ae86989c90d6dc3", "fusion_lon": 0.0, "lat": 38.92042883333333, "is_reserved": 0, "type": "electric_scooter", "bike_id": "717cf23fd06aa53f4ae86989c90d6dc3", "is_disabled": 0, "rental_uris": {"android": "https://dc.lft.to/lastmile_qr_scan", "ios": "https://dc.lft.to/lastmile_qr_scan"}, "lon": -77.04178933333333, "fusion_lat": 0.0}, {"name": "1abfc76d8e94c5ed519e07762aa6f19c", "fusion_lon": 0.0, "lat": 38.9120195, "is_reserved": 0, "type": "electric_scooter", "bike_id": "1abfc76d8e94c5ed519e07762aa6f19c", "is_disabled": 0, "rental_uris": {"android": "https://dc.lft.to/lastmile_qr_scan", "ios": "https://dc.lft.to/lastmile_qr_scan"}, "lon": -77.03843, "fusion_lat": 0.0}, {"name": "db6aa59147c282d635c4905835610e62", "fusion_lon": 0.0, "lat": 38.86088916666667, "is_reserved": 0, "type": "electric_bike", "bike_id": "db6aa59147c282d635c4905835610e62", "is_disabled": 0, "rental_uris": {"android": "https://dc.lft.to/lastmile_qr_scan", "ios": "https://dc.lft.to/lastmile_qr_scan"}, "lon": -77.0959455, "fusion_lat": 0.0}, {"name": "f572b1ce2a3a89c50ff711501e3ff7da", "fusion_lon": 0.0, "lat": 38.93683633333333, "is_reserved": 0, "type": "electric_scooter", "bike_id": "f572b1ce2a3a89c50ff711501e3ff7da", "is_disabled": 0, "rental_uris": {"android": "https://dc.lft.to/lastmile_qr_scan", "ios": "https://dc.lft.to/lastmile_qr_scan"}, "lon": -77.0362995, "fusion_lat": 0.0}, {"name": "58b0349cd633ee59488f27442f3d5a77", "fusion_lon": 0.0, "lat": 38.881219, "is_reserved": 0, "type": "electric_scooter", "bike_id": "58b0349cd633ee59488f27442f3d5a77", "is_disabled": 0, "rental_uris": {"android": "https://dc.lft.to/lastmile_qr_scan", "ios": "https://dc.lft.to/lastmile_qr_scan"}, "lon": -77.01689516666667, "fusion_lat": 0.0}, {"name": "f01920c7dd039fcb887da9e4483b6328", "fusion_lon": 0.0, "lat": 38.917180333333334, "is_reserved": 0, "type": "electric_scooter", "bike_id": "f01920c7dd039fcb887da9e4483b6328", "is_disabled": 0, "rental_uris": {"android": "https://dc.lft.to/lastmile_qr_scan", "ios": "https://dc.lft.to/lastmile_qr_scan"}, "lon": -77.0385535, "fusion_lat": 0.0}, {"name": "200a8fa5eb4a10228cd4d14b92ee9968", "fusion_lon": 0.0, "lat": 38.918222166666666, "is_reserved": 0, "type": "electric_scooter", "bike_id": "200a8fa5eb4a10228cd4d14b92ee9968", "is_disabled": 0, "rental_uris": {"android": "https://dc.lft.to/lastmile_qr_scan", "ios": "https://dc.lft.to/lastmile_qr_scan"}, "lon": -77.03169466666667, "fusion_lat": 0.0}, {"name": "586a4a19e412eda47f1cdccc15e61892", "fusion_lon": 0.0, "lat": 38.888119, "is_reserved": 0, "type": "electric_scooter", "bike_id": "586a4a19e412eda47f1cdccc15e61892", "is_disabled": 0, "rental_uris": {"android": "https://dc.lft.to/lastmile_qr_scan", "ios": "https://dc.lft.to/lastmile_qr_scan"}, "lon": -76.933437, "fusion_lat": 0.0}, {"name": "33c50081f013a3007d28fb350786f066", "fusion_lon": 0.0, "lat": 38.92465266666667, "is_reserved": 0, "type": "electric_scooter", "bike_id": "33c50081f013a3007d28fb350786f066", "is_disabled": 0, "rental_uris": {"android": "https://dc.lft.to/lastmile_qr_scan", "ios": "https://dc.lft.to/lastmile_qr_scan"}, "lon": -77.0220575, "fusion_lat": 0.0}, {"name": "39f566d8c15aa45d6cf58740fc49cd83", "fusion_lon": 0.0, "lat": 38.916380833333335, "is_reserved": 0, "type": "electric_scooter", "bike_id": "39f566d8c15aa45d6cf58740fc49cd83", "is_disabled": 0, "rental_uris": {"android": "https://dc.lft.to/lastmile_qr_scan", "ios": "https://dc.lft.to/lastmile_qr_scan"}, "lon": -77.00195016666666, "fusion_lat": 0.0}, {"name": "4fd032a01d3ac5ddffbff4e6e12de0dc", "fusion_lon": 0.0, "lat": 38.89616383333333, "is_reserved": 0, "type": "electric_scooter", "bike_id": "4fd032a01d3ac5ddffbff4e6e12de0dc", "is_disabled": 0, "rental_uris": {"android": "https://dc.lft.to/lastmile_qr_scan", "ios": "https://dc.lft.to/lastmile_qr_scan"}, "lon": -76.98120883333333, "fusion_lat": 0.0}, {"name": "d80f26dc282e466a31fdfae69a315fce", "fusion_lon": 0.0, "lat": 38.921817, "is_reserved": 0, "type": "electric_scooter", "bike_id": "d80f26dc282e466a31fdfae69a315fce", "is_disabled": 0, "rental_uris": {"android": "https://dc.lft.to/lastmile_qr_scan", "ios": "https://dc.lft.to/lastmile_qr_scan"}, "lon": -77.04703683333334, "fusion_lat": 0.0}, {"name": "c38b2b96c30bea0eee79ad60fa5b8efa", "fusion_lon": 0.0, "lat": 38.934398333333334, "is_reserved": 0, "type": "electric_scooter", "bike_id": "c38b2b96c30bea0eee79ad60fa5b8efa", "is_disabled": 0, "rental_uris": {"android": "https://dc.lft.to/lastmile_qr_scan", "ios": "https://dc.lft.to/lastmile_qr_scan"}, "lon": -77.03274266666666, "fusion_lat": 0.0}, {"name": "b4f7c365776550e1cd48dcb625e4520f", "fusion_lon": 0.0, "lat": 38.91289583333333, "is_reserved": 0, "type": "electric_scooter", "bike_id": "b4f7c365776550e1cd48dcb625e4520f", "is_disabled": 0, "rental_uris": {"android": "https://dc.lft.to/lastmile_qr_scan", "ios": "https://dc.lft.to/lastmile_qr_scan"}, "lon": -77.023849, "fusion_lat": 0.0}, {"name": "58db947c81bc631770180cb89170aa42", "fusion_lon": 0.0, "lat": 38.89614316666667, "is_reserved": 0, "type": "electric_scooter", "bike_id": "58db947c81bc631770180cb89170aa42", "is_disabled": 0, "rental_uris": {"android": "https://dc.lft.to/lastmile_qr_scan", "ios": "https://dc.lft.to/lastmile_qr_scan"}, "lon": -77.01593816666667, "fusion_lat": 0.0}, {"name": "67ceb321ecc01208874d50814fb99b4c", "fusion_lon": 0.0, "lat": 38.896126833333334, "is_reserved": 0, "type": "electric_scooter", "bike_id": "67ceb321ecc01208874d50814fb99b4c", "is_disabled": 0, "rental_uris": {"android": "https://dc.lft.to/lastmile_qr_scan", "ios": "https://dc.lft.to/lastmile_qr_scan"}, "lon": -77.02208883333333, "fusion_lat": 0.0}, {"name": "315f1bd5fda4a77b0e710e785d00beee", "fusion_lon": 0.0, "lat": 38.9211985, "is_reserved": 0, "type": "electric_bike", "bike_id": "315f1bd5fda4a77b0e710e785d00beee", "is_disabled": 0, "rental_uris": {"android": "https://dc.lft.to/lastmile_qr_scan", "ios": "https://dc.lft.to/lastmile_qr_scan"}, "lon": -77.01210966666666, "fusion_lat": 0.0}, {"name": "811e6b64c735d086d2638f4d1805cecd", "fusion_lon": 0.0, "lat": 38.91016033333333, "is_reserved": 0, "type": "electric_scooter", "bike_id": "811e6b64c735d086d2638f4d1805cecd", "is_disabled": 0, "rental_uris": {"android": "https://dc.lft.to/lastmile_qr_scan", "ios": "https://dc.lft.to/lastmile_qr_scan"}, "lon": -77.0526815, "fusion_lat": 0.0}, {"name": "be14d8be3b7879d9335ff21109ac432a", "fusion_lon": 0.0, "lat": 38.897194, "is_reserved": 0, "type": "electric_scooter", "bike_id": "be14d8be3b7879d9335ff21109ac432a", "is_disabled": 0, "rental_uris": {"android": "https://dc.lft.to/lastmile_qr_scan", "ios": "https://dc.lft.to/lastmile_qr_scan"}, "lon": -77.02160283333333, "fusion_lat": 0.0}, {"name": "95b5613cba4de53097294d6db9f93666", "fusion_lon": 0.0, "lat": 38.8744525, "is_reserved": 0, "type": "electric_scooter", "bike_id": "95b5613cba4de53097294d6db9f93666", "is_disabled": 0, "rental_uris": {"android": "https://dc.lft.to/lastmile_qr_scan", "ios": "https://dc.lft.to/lastmile_qr_scan"}, "lon": -77.00565916666666, "fusion_lat": 0.0}, {"name": "7cce3e0a705454200c0b4f7fd9dedf2a", "fusion_lon": 0.0, "lat": 38.94200133333333, "is_reserved": 0, "type": "electric_scooter", "bike_id": "7cce3e0a705454200c0b4f7fd9dedf2a", "is_disabled": 0, "rental_uris": {"android": "https://dc.lft.to/lastmile_qr_scan", "ios": "https://dc.lft.to/lastmile_qr_scan"}, "lon": -77.02510016666666, "fusion_lat": 0.0}, {"name": "1f021e68aac16ddafe020f5df37986c3", "fusion_lon": 0.0, "lat": 38.90936216666667, "is_reserved": 0, "type": "electric_scooter", "bike_id": "1f021e68aac16ddafe020f5df37986c3", "is_disabled": 0, "rental_uris": {"android": "https://dc.lft.to/lastmile_qr_scan", "ios": "https://dc.lft.to/lastmile_qr_scan"}, "lon": -77.03456933333334, "fusion_lat": 0.0}, {"name": "bed50ac0a695d78c705e3f65a84d9711", "fusion_lon": 0.0, "lat": 38.90004033333334, "is_reserved": 0, "type": "electric_scooter", "bike_id": "bed50ac0a695d78c705e3f65a84d9711", "is_disabled": 0, "rental_uris": {"android": "https://dc.lft.to/lastmile_qr_scan", "ios": "https://dc.lft.to/lastmile_qr_scan"}, "lon": -76.99614783333334, "fusion_lat": 0.0}, {"name": "6bd0922bb0ff3655a4aa5e2133d9fe73", "fusion_lon": 0.0, "lat": 38.9170845, "is_reserved": 0, "type": "electric_scooter", "bike_id": "6bd0922bb0ff3655a4aa5e2133d9fe73", "is_disabled": 0, "rental_uris": {"android": "https://dc.lft.to/lastmile_qr_scan", "ios": "https://dc.lft.to/lastmile_qr_scan"}, "lon": -77.01332566666666, "fusion_lat": 0.0}, {"name": "78d33a6e95bc98ace6b8d1908d6fc8cc", "fusion_lon": 0.0, "lat": 38.92235483333333, "is_reserved": 0, "type": "electric_scooter", "bike_id": "78d33a6e95bc98ace6b8d1908d6fc8cc", "is_disabled": 0, "rental_uris": {"android": "https://dc.lft.to/lastmile_qr_scan", "ios": "https://dc.lft.to/lastmile_qr_scan"}, "lon": -77.03900166666666, "fusion_lat": 0.0}, {"name": "44dd3a3bdeaad440043913e93173f72f", "fusion_lon": 0.0, "lat": 38.90829266666667, "is_reserved": 0, "type": "electric_bike", "bike_id": "44dd3a3bdeaad440043913e93173f72f", "is_disabled": 0, "rental_uris": {"android": "https://dc.lft.to/lastmile_qr_scan", "ios": "https://dc.lft.to/lastmile_qr_scan"}, "lon": -76.941575, "fusion_lat": 0.0}, {"name": "2f1670dff4c002766d6d8319f67a704c", "fusion_lon": 0.0, "lat": 38.8807505, "is_reserved": 0, "type": "electric_scooter", "bike_id": "2f1670dff4c002766d6d8319f67a704c", "is_disabled": 0, "rental_uris": {"android": "https://dc.lft.to/lastmile_qr_scan", "ios": "https://dc.lft.to/lastmile_qr_scan"}, "lon": -77.005703, "fusion_lat": 0.0}, {"name": "3957f18eb9eab842e02a20138d7fbe11", "fusion_lon": 0.0, "lat": 38.90268666666667, "is_reserved": 0, "type": "electric_scooter", "bike_id": "3957f18eb9eab842e02a20138d7fbe11", "is_disabled": 0, "rental_uris": {"android": "https://dc.lft.to/lastmile_qr_scan", "ios": "https://dc.lft.to/lastmile_qr_scan"}, "lon": -77.0339745, "fusion_lat": 0.0}, {"name": "6061b5439e919f5cdf844c6efa8b73d8", "fusion_lon": 0.0, "lat": 38.9415385, "is_reserved": 0, "type": "electric_bike", "bike_id": "6061b5439e919f5cdf844c6efa8b73d8", "is_disabled": 0, "rental_uris": {"android": "https://dc.lft.to/lastmile_qr_scan", "ios": "https://dc.lft.to/lastmile_qr_scan"}, "lon": -77.00200216666667, "fusion_lat": 0.0}, {"name": "f5dad2de4c7fd404544f29e569a84632", "fusion_lon": 0.0, "lat": 38.9136325, "is_reserved": 0, "type": "electric_scooter", "bike_id": "f5dad2de4c7fd404544f29e569a84632", "is_disabled": 0, "rental_uris": {"android": "https://dc.lft.to/lastmile_qr_scan", "ios": "https://dc.lft.to/lastmile_qr_scan"}, "lon": -77.045585, "fusion_lat": 0.0}, {"name": "14166d9534df67b5f0120713d835824c", "fusion_lon": 0.0, "lat": 38.897615333333334, "is_reserved": 0, "type": "electric_scooter", "bike_id": "14166d9534df67b5f0120713d835824c", "is_disabled": 0, "rental_uris": {"android": "https://dc.lft.to/lastmile_qr_scan", "ios": "https://dc.lft.to/lastmile_qr_scan"}, "lon": -77.026719, "fusion_lat": 0.0}, {"name": "5c710e9cc9e92cb9963f42e3736be43b", "fusion_lon": 0.0, "lat": 38.90414616666666, "is_reserved": 0, "type": "electric_scooter", "bike_id": "5c710e9cc9e92cb9963f42e3736be43b", "is_disabled": 0, "rental_uris": {"android": "https://dc.lft.to/lastmile_qr_scan", "ios": "https://dc.lft.to/lastmile_qr_scan"}, "lon": -77.03260766666666, "fusion_lat": 0.0}, {"name": "86e247271c470f636e99a46678fa1ea0", "fusion_lon": 0.0, "lat": 38.91418266666667, "is_reserved": 0, "type": "electric_scooter", "bike_id": "86e247271c470f636e99a46678fa1ea0", "is_disabled": 0, "rental_uris": {"android": "https://dc.lft.to/lastmile_qr_scan", "ios": "https://dc.lft.to/lastmile_qr_scan"}, "lon": -77.04377, "fusion_lat": 0.0}, {"name": "c77cbdd5d3d3357970780242069e91a3", "fusion_lon": 0.0, "lat": 38.920927166666665, "is_reserved": 0, "type": "electric_scooter", "bike_id": "c77cbdd5d3d3357970780242069e91a3", "is_disabled": 0, "rental_uris": {"android": "https://dc.lft.to/lastmile_qr_scan", "ios": "https://dc.lft.to/lastmile_qr_scan"}, "lon": -77.0237665, "fusion_lat": 0.0}, {"name": "f2c3e9e0d9221813c2901668dff33c00", "fusion_lon": 0.0, "lat": 38.892201666666665, "is_reserved": 0, "type": "electric_scooter", "bike_id": "f2c3e9e0d9221813c2901668dff33c00", "is_disabled": 0, "rental_uris": {"android": "https://dc.lft.to/lastmile_qr_scan", "ios": "https://dc.lft.to/lastmile_qr_scan"}, "lon": -77.02221816666666, "fusion_lat": 0.0}, {"name": "fbe0e4882d1c0f023b43d38606f4a728", "fusion_lon": 0.0, "lat": 38.9172985, "is_reserved": 0, "type": "electric_scooter", "bike_id": "fbe0e4882d1c0f023b43d38606f4a728", "is_disabled": 0, "rental_uris": {"android": "https://dc.lft.to/lastmile_qr_scan", "ios": "https://dc.lft.to/lastmile_qr_scan"}, "lon": -77.0317475, "fusion_lat": 0.0}, {"name": "9f1ae0473f3412f7ee95c00505228b3d", "fusion_lon": 0.0, "lat": 38.9172405, "is_reserved": 0, "type": "electric_scooter", "bike_id": "9f1ae0473f3412f7ee95c00505228b3d", "is_disabled": 0, "rental_uris": {"android": "https://dc.lft.to/lastmile_qr_scan", "ios": "https://dc.lft.to/lastmile_qr_scan"}, "lon": -77.02502416666667, "fusion_lat": 0.0}, {"name": "34a28b573244c37290bbe6fd89f2be43", "fusion_lon": 0.0, "lat": 38.92098566666667, "is_reserved": 0, "type": "electric_scooter", "bike_id": "34a28b573244c37290bbe6fd89f2be43", "is_disabled": 0, "rental_uris": {"android": "https://dc.lft.to/lastmile_qr_scan", "ios": "https://dc.lft.to/lastmile_qr_scan"}, "lon": -77.031639, "fusion_lat": 0.0}, {"name": "2f81307fa541fb0f20ec8c01ad45b2bc", "fusion_lon": 0.0, "lat": 38.9072185, "is_reserved": 0, "type": "electric_scooter", "bike_id": "2f81307fa541fb0f20ec8c01ad45b2bc", "is_disabled": 0, "rental_uris": {"android": "https://dc.lft.to/lastmile_qr_scan", "ios": "https://dc.lft.to/lastmile_qr_scan"}, "lon": -77.01481133333333, "fusion_lat": 0.0}, {"name": "5b80f1c6779d7b944d565758a5e5c2ae", "fusion_lon": 0.0, "lat": 38.89560433333333, "is_reserved": 0, "type": "electric_bike", "bike_id": "5b80f1c6779d7b944d565758a5e5c2ae", "is_disabled": 0, "rental_uris": {"android": "https://dc.lft.to/lastmile_qr_scan", "ios": "https://dc.lft.to/lastmile_qr_scan"}, "lon": -77.12728933333334, "fusion_lat": 0.0}, {"name": "e66df68eae8c2733fd9e884f36b15e49", "fusion_lon": 0.0, "lat": 38.900706166666666, "is_reserved": 0, "type": "electric_scooter", "bike_id": "e66df68eae8c2733fd9e884f36b15e49", "is_disabled": 0, "rental_uris": {"android": "https://dc.lft.to/lastmile_qr_scan", "ios": "https://dc.lft.to/lastmile_qr_scan"}, "lon": -77.04842216666667, "fusion_lat": 0.0}, {"name": "70c34a87ba42de7c214a8eb1b5697292", "fusion_lon": 0.0, "lat": 38.892215666666665, "is_reserved": 0, "type": "electric_scooter", "bike_id": "70c34a87ba42de7c214a8eb1b5697292", "is_disabled": 0, "rental_uris": {"android": "https://dc.lft.to/lastmile_qr_scan", "ios": "https://dc.lft.to/lastmile_qr_scan"}, "lon": -77.03337966666666, "fusion_lat": 0.0}, {"name": "0f4a3d43121942859d43cd2053eeede9", "fusion_lon": 0.0, "lat": 38.88500783333333, "is_reserved": 0, "type": "electric_scooter", "bike_id": "0f4a3d43121942859d43cd2053eeede9", "is_disabled": 0, "rental_uris": {"android": "https://dc.lft.to/lastmile_qr_scan", "ios": "https://dc.lft.to/lastmile_qr_scan"}, "lon": -76.97706366666667, "fusion_lat": 0.0}, {"name": "5359901969627ba61a2c158674a61b56", "fusion_lon": 0.0, "lat": 38.92323583333334, "is_reserved": 0, "type": "electric_scooter", "bike_id": "5359901969627ba61a2c158674a61b56", "is_disabled": 0, "rental_uris": {"android": "https://dc.lft.to/lastmile_qr_scan", "ios": "https://dc.lft.to/lastmile_qr_scan"}, "lon": -77.035701, "fusion_lat": 0.0}, {"name": "731565da236021a87f18d2ed939dcf31", "fusion_lon": 0.0, "lat": 38.90164683333333, "is_reserved": 0, "type": "electric_scooter", "bike_id": "731565da236021a87f18d2ed939dcf31", "is_disabled": 0, "rental_uris": {"android": "https://dc.lft.to/lastmile_qr_scan", "ios": "https://dc.lft.to/lastmile_qr_scan"}, "lon": -77.0159615, "fusion_lat": 0.0}, {"name": "674cdc78cc5f9ad0192fb6a8cf45b351", "fusion_lon": 0.0, "lat": 38.910273333333336, "is_reserved": 0, "type": "electric_scooter", "bike_id": "674cdc78cc5f9ad0192fb6a8cf45b351", "is_disabled": 0, "rental_uris": {"android": "https://dc.lft.to/lastmile_qr_scan", "ios": "https://dc.lft.to/lastmile_qr_scan"}, "lon": -77.00758716666667, "fusion_lat": 0.0}, {"name": "377be532e32db0beb362d5a06f796dce", "fusion_lon": 0.0, "lat": 38.8669535, "is_reserved": 0, "type": "electric_scooter", "bike_id": "377be532e32db0beb362d5a06f796dce", "is_disabled": 0, "rental_uris": {"android": "https://dc.lft.to/lastmile_qr_scan", "ios": "https://dc.lft.to/lastmile_qr_scan"}, "lon": -76.987067, "fusion_lat": 0.0}, {"name": "a2cad97a2fa78e0ae12b53853870654f", "fusion_lon": 0.0, "lat": 38.9113135, "is_reserved": 0, "type": "electric_scooter", "bike_id": "a2cad97a2fa78e0ae12b53853870654f", "is_disabled": 0, "rental_uris": {"android": "https://dc.lft.to/lastmile_qr_scan", "ios": "https://dc.lft.to/lastmile_qr_scan"}, "lon": -77.02811216666667, "fusion_lat": 0.0}, {"name": "d2d6238d5dba7cc2cf1654ed2c0512f1", "fusion_lon": 0.0, "lat": 38.920536, "is_reserved": 0, "type": "electric_scooter", "bike_id": "d2d6238d5dba7cc2cf1654ed2c0512f1", "is_disabled": 0, "rental_uris": {"android": "https://dc.lft.to/lastmile_qr_scan", "ios": "https://dc.lft.to/lastmile_qr_scan"}, "lon": -77.0340665, "fusion_lat": 0.0}, {"name": "352858f98f3c5e5e5150f6492cf25a30", "fusion_lon": 0.0, "lat": 38.8637235, "is_reserved": 0, "type": "electric_bike", "bike_id": "352858f98f3c5e5e5150f6492cf25a30", "is_disabled": 0, "rental_uris": {"android": "https://dc.lft.to/lastmile_qr_scan", "ios": "https://dc.lft.to/lastmile_qr_scan"}, "lon": -76.97003516666666, "fusion_lat": 0.0}, {"name": "8667d8603f59642737732011bb376b8d", "fusion_lon": 0.0, "lat": 38.91836133333334, "is_reserved": 0, "type": "electric_scooter", "bike_id": "8667d8603f59642737732011bb376b8d", "is_disabled": 0, "rental_uris": {"android": "https://dc.lft.to/lastmile_qr_scan", "ios": "https://dc.lft.to/lastmile_qr_scan"}, "lon": -77.02310583333333, "fusion_lat": 0.0}, {"name": "1257077613d4a6ac8fc0b7d35c879386", "fusion_lon": 0.0, "lat": 38.918809333333336, "is_reserved": 0, "type": "electric_scooter", "bike_id": "1257077613d4a6ac8fc0b7d35c879386", "is_disabled": 0, "rental_uris": {"android": "https://dc.lft.to/lastmile_qr_scan", "ios": "https://dc.lft.to/lastmile_qr_scan"}, "lon": -77.02949316666667, "fusion_lat": 0.0}, {"name": "050a56f589c9680c5af2993b1cc5b747", "fusion_lon": 0.0, "lat": 38.8899345, "is_reserved": 0, "type": "electric_scooter", "bike_id": "050a56f589c9680c5af2993b1cc5b747", "is_disabled": 0, "rental_uris": {"android": "https://dc.lft.to/lastmile_qr_scan", "ios": "https://dc.lft.to/lastmile_qr_scan"}, "lon": -76.93106816666666, "fusion_lat": 0.0}, {"name": "c65aafce5ea06d8e0fcca5cfbb151f24", "fusion_lon": 0.0, "lat": 38.924341166666665, "is_reserved": 0, "type": "electric_scooter", "bike_id": "c65aafce5ea06d8e0fcca5cfbb151f24", "is_disabled": 0, "rental_uris": {"android": "https://dc.lft.to/lastmile_qr_scan", "ios": "https://dc.lft.to/lastmile_qr_scan"}, "lon": -77.04248533333333, "fusion_lat": 0.0}, {"name": "a1ebe4fb4f850a4c4fa269d8ea9c9de6", "fusion_lon": 0.0, "lat": 38.89736216666667, "is_reserved": 0, "type": "electric_scooter", "bike_id": "a1ebe4fb4f850a4c4fa269d8ea9c9de6", "is_disabled": 0, "rental_uris": {"android": "https://dc.lft.to/lastmile_qr_scan", "ios": "https://dc.lft.to/lastmile_qr_scan"}, "lon": -77.05526783333333, "fusion_lat": 0.0}, {"name": "c1c0d60e652fc6de6cf015b52e8e5aaa", "fusion_lon": 0.0, "lat": 38.918220833333336, "is_reserved": 0, "type": "electric_scooter", "bike_id": "c1c0d60e652fc6de6cf015b52e8e5aaa", "is_disabled": 0, "rental_uris": {"android": "https://dc.lft.to/lastmile_qr_scan", "ios": "https://dc.lft.to/lastmile_qr_scan"}, "lon": -77.02714566666667, "fusion_lat": 0.0}, {"name": "5c3da9c860a2211dd813e963a25b848c", "fusion_lon": 0.0, "lat": 38.913251, "is_reserved": 0, "type": "electric_scooter", "bike_id": "5c3da9c860a2211dd813e963a25b848c", "is_disabled": 0, "rental_uris": {"android": "https://dc.lft.to/lastmile_qr_scan", "ios": "https://dc.lft.to/lastmile_qr_scan"}, "lon": -77.03164933333333, "fusion_lat": 0.0}, {"name": "f01b3d0ee43b6657b9fe3137e2f395ff", "fusion_lon": 0.0, "lat": 38.888664166666665, "is_reserved": 0, "type": "electric_scooter", "bike_id": "f01b3d0ee43b6657b9fe3137e2f395ff", "is_disabled": 0, "rental_uris": {"android": "https://dc.lft.to/lastmile_qr_scan", "ios": "https://dc.lft.to/lastmile_qr_scan"}, "lon": -77.00001366666666, "fusion_lat": 0.0},