{"data": {"bikes": [{"rental_uris": {"ios": "https://dc.lft.to/lastmile_qr_scan", "android": "https://dc.lft.to/lastmile_qr_scan"}, "type": "electric_scooter", "name": "55e05afc235b5777964a7abe791279ef", "is_reserved": 0, "lon": -77.03643083333333, "is_disabled": 0, "fusion_lat": 0.0, "lat": 38.92488483333333, "bike_id": "55e05afc235b5777964a7abe791279ef", "fusion_lon": 0.0}, {"rental_uris": {"ios": "https://dc.lft.to/lastmile_qr_scan", "android": "https://dc.lft.to/lastmile_qr_scan"}, "type": "electric_scooter", "name": "3f8d2028e0007521e85dd07e9db04a11", "is_reserved": 0, "lon": -77.020179, "is_disabled": 0, "fusion_lat": 0.0, "lat": 38.92326583333333, "bike_id": "3f8d2028e0007521e85dd07e9db04a11", "fusion_lon": 0.0}, {"rental_uris": {"ios": "https://dc.lft.to/lastmile_qr_scan", "android": "https://dc.lft.to/lastmile_qr_scan"}, "type": "electric_scooter", "name": "cb5a9ba62654fed24105e3692dd5a91f", "is_reserved": 0, "lon": -77.00283366666666, "is_disabled": 0, "fusion_lat": 0.0, "lat": 38.909024333333335, "bike_id": "cb5a9ba62654fed24105e3692dd5a91f", "fusion_lon": 0.0}, {"rental_uris": {"ios": "https://dc.lft.to/lastmile_qr_scan", "android": "https://dc.lft.to/lastmile_qr_scan"}, "type": "electric_scooter", "name": "f4d2728a04f8560eb0456609ad5e467d", "is_reserved": 0, "lon": -77.00561316666666, "is_disabled": 0, "fusion_lat": 0.0, "lat": 38.9118985, "bike_id": "f4d2728a04f8560eb0456609ad5e467d", "fusion_lon": 0.0}, {"rental_uris": {"ios": "https://dc.lft.to/lastmile_qr_scan", "android": "https://dc.lft.to/lastmile_qr_scan"}, "type": "electric_scooter", "name": "fb9aec14f35e5fc2f66346e51a45235a", "is_reserved": 0, "lon": -77.03346433333333, "is_disabled": 0, "fusion_lat": 0.0, "lat": 38.928792333333334, "bike_id": "fb9aec14f35e5fc2f66346e51a45235a", "fusion_lon": 0.0}, {"rental_uris": {"ios": "https://dc.lft.to/lastmile_qr_scan", "android": "https://dc.lft.to/lastmile_qr_scan"}, "type": "electric_scooter", "name": "a375d0b482dd2a38acaab5111a69344d", "is_reserved": 0, "lon": -77.01059366666667, "is_disabled": 0, "fusion_lat": 0.0, "lat": 38.911979333333335, "bike_id": "a375d0b482dd2a38acaab5111a69344d", "fusion_lon": 0.0}, {"rental_uris": {"ios": "https://dc.lft.to/lastmile_qr_scan", "android": "https://dc.lft.to/lastmile_qr_scan"}, "type": "electric_scooter", "name": "68b7b355a339f2f4a1ee016f2b4060f3", "is_reserved": 0, "lon": -77.01324283333334, "is_disabled": 0, "fusion_lat": 0.0, "lat": 38.92031383333333, "bike_id": "68b7b355a339f2f4a1ee016f2b4060f3", "fusion_lon": 0.0}, {"rental_uris": {"ios": "https://dc.lft.to/lastmile_qr_scan", "android": "https://dc.lft.to/lastmile_qr_scan"}, "type": "electric_scooter", "name": "2f9100dd2ff5a60ae11c5d9e391824a5", "is_reserved": 0, "lon": -77.043576, "is_disabled": 0, "fusion_lat": 0.0, "lat": 38.92175683333333, "bike_id": "2f9100dd2ff5a60ae11c5d9e391824a5", "fusion_lon": 0.0}, {"rental_uris": {"ios": "https://dc.lft.to/lastmile_qr_scan", "android": "https://dc.lft.to/lastmile_qr_scan"}, "type": "electric_scooter", "name": "29c420cc5861b64fcaf6b99319b9a0d5", "is_reserved": 0, "lon": -76.99097766666667, "is_disabled": 0, "fusion_lat": 0.0, "lat": 38.857371666666666, "bike_id": "29c420cc5861b64fcaf6b99319b9a0d5", "fusion_lon": 0.0}, {"rental_uris": {"ios": "https://dc.lft.to/lastmile_qr_scan", "android": "https://dc.lft.to/lastmile_qr_scan"}, "type": "electric_scooter", "name": "3f3d511431ca7ccee6248634e6db31b0", "is_reserved": 0, "lon": -77.01574833333333, "is_disabled": 0, "fusion_lat": 0.0, "lat": 38.90258516666667, "bike_id": "3f3d511431ca7ccee6248634e6db31b0", "fusion_lon": 0.0}, {"rental_uris": {"ios": "https://dc.lft.to/lastmile_qr_scan", "android": "https://dc.lft.to/lastmile_qr_scan"}, "type": "electric_scooter", "name": "bb1bb51352bab1049caa508c7bb647ee", "is_reserved": 0, "lon": -77.0712515, "is_disabled": 0, "fusion_lat": 0.0, "lat": 38.905901166666666, "bike_id": "bb1bb51352bab1049caa508c7bb647ee", "fusion_lon": 0.0}, {"rental_uris": {"ios": "https://dc.lft.to/lastmile_qr_scan", "android": "https://dc.lft.to/lastmile_qr_scan"}, "type": "electric_scooter", "name": "e24e84897fe60ca56f010710ebcd4ec0", "is_reserved": 0, "lon": -76.98887083333334, "is_disabled": 0, "fusion_lat": 0.0, "lat": 38.89954266666667, "bike_id": "e24e84897fe60ca56f010710ebcd4ec0", "fusion_lon": 0.0}, {"rental_uris": {"ios": "https://dc.lft.to/lastmile_qr_scan", "android": "https://dc.lft.to/lastmile_qr_scan"}, "type": "electric_scooter", "name": "6926e1054a972807b891aeae394fe235", "is_reserved": 0, "lon": -77.04150866666667, "is_disabled": 0, "fusion_lat": 0.0, "lat": 38.901529333333336, "bike_id": "6926e1054a972807b891aeae394fe235", "fusion_lon": 0.0}, {"rental_uris": {"ios": "https://dc.lft.to/lastmile_qr_scan", "android": "https://dc.lft.to/lastmile_qr_scan"}, "type": "electric_scooter", "name": "562751b46521dce96e143ec7ededa2bb", "is_reserved": 0, "lon": -77.0221295, "is_disabled": 0, "fusion_lat": 0.0, "lat": 38.91414616666667, "bike_id": "562751b46521dce96e143ec7ededa2bb", "fusion_lon": 0.0}, {"rental_uris": {"ios": "https://dc.lft.to/lastmile_qr_scan", "android": "https://dc.lft.to/lastmile_qr_scan"}, "type": "electric_scooter", "name": "e97c43fd4cc6b3b4816fa67ff19d1bb1", "is_reserved": 0, "lon": -77.0231585, "is_disabled": 0, "fusion_lat": 0.0, "lat": 38.918414166666665, "bike_id": "e97c43fd4cc6b3b4816fa67ff19d1bb1", "fusion_lon": 0.0}, {"rental_uris": {"ios": "https://dc.lft.to/lastmile_qr_scan", "android": "https://dc.lft.to/lastmile_qr_scan"}, "type": "electric_bike", "name": "e763952c78251ca919015ed4c124ccaf", "is_reserved": 0, "lon": -76.96263466666667, "is_disabled": 0, "fusion_lat": 0.0, "lat": 38.88249866666666, "bike_id": "e763952c78251ca919015ed4c124ccaf", "fusion_lon": 0.0}, {"rental_uris": {"ios": "https://dc.lft.to/lastmile_qr_scan", "android": "https://dc.lft.to/lastmile_qr_scan"}, "type": "electric_scooter", "name": "6b4941e09ae4dbdbcf125683fda3fdeb", "is_reserved": 0, "lon": -76.94867133333334, "is_disabled": 0, "fusion_lat": 0.0, "lat": 38.895743833333334, "bike_id": "6b4941e09ae4dbdbcf125683fda3fdeb", "fusion_lon": 0.0}, {"rental_uris": {"ios": "https://dc.lft.to/lastmile_qr_scan", "android": "https://dc.lft.to/lastmile_qr_scan"}, "type": "electric_scooter", "name": "1409af2480af60b246e6fac8c13a9f74", "is_reserved": 0, "lon": -77.043412, "is_disabled": 0, "fusion_lat": 0.0, "lat": 38.9223125, "bike_id": "1409af2480af60b246e6fac8c13a9f74", "fusion_lon": 0.0}, {"rental_uris": {"ios": "https://dc.lft.to/lastmile_qr_scan", "android": "https://dc.lft.to/lastmile_qr_scan"}, "type": "electric_scooter", "name": "c5835a8f3e1d6a8b4523510335899456", "is_reserved": 0, "lon": -77.06174016666667, "is_disabled": 0, "fusion_lat": 0.0, "lat": 38.90282666666667, "bike_id": "c5835a8f3e1d6a8b4523510335899456", "fusion_lon": 0.0}, {"rental_uris": {"ios": "https://dc.lft.to/lastmile_qr_scan", "android": "https://dc.lft.to/lastmile_qr_scan"}, "type": "electric_scooter", "name": "075704dd797a0ed5a656fe5390ea6e2c", "is_reserved": 0, "lon": -77.0231055, "is_disabled": 0, "fusion_lat": 0.0, "lat": 38.91842533333333, "bike_id": "075704dd797a0ed5a656fe5390ea6e2c", "fusion_lon": 0.0}, {"rental_uris": {"ios": "https://dc.lft.to/lastmile_qr_scan", "android": "https://dc.lft.to/lastmile_qr_scan"}, "type": "electric_scooter", "name": "bf4e6f580a74db7ac6e5623562568051", "is_reserved": 0, "lon": -76.99758433333334, "is_disabled": 0, "fusion_lat": 0.0, "lat": 38.88507516666667, "bike_id": "bf4e6f580a74db7ac6e5623562568051", "fusion_lon": 0.0}, {"rental_uris": {"ios": "https://dc.lft.to/lastmile_qr_scan", "android": "https://dc.lft.to/lastmile_qr_scan"}, "type": "electric_scooter", "name": "7435aa7cd2b4c6c8c9e384981fb33336", "is_reserved": 0, "lon": -77.0281825, "is_disabled": 0, "fusion_lat": 0.0, "lat": 38.909197, "bike_id": "7435aa7cd2b4c6c8c9e384981fb33336", "fusion_lon": 0.0}, {"rental_uris": {"ios": "https://dc.lft.to/lastmile_qr_scan", "android": "https://dc.lft.to/lastmile_qr_scan"}, "type": "electric_scooter", "name": "1bb223d98abe42ff0cff972aca67fb8a", "is_reserved": 0, "lon": -77.03421983333334, "is_disabled": 0, "fusion_lat": 0.0, "lat": 38.92745716666667, "bike_id": "1bb223d98abe42ff0cff972aca67fb8a", "fusion_lon": 0.0}, {"rental_uris": {"ios": "https://dc.lft.to/lastmile_qr_scan", "android": "https://dc.lft.to/lastmile_qr_scan"}, "type": "electric_scooter", "name": "12bf773d5ccecd3ac317be08f4a003db", "is_reserved": 0, "lon": -77.04344566666667, "is_disabled": 0, "fusion_lat": 0.0, "lat": 38.90729566666667, "bike_id": "12bf773d5ccecd3ac317be08f4a003db", "fusion_lon": 0.0}, {"rental_uris": {"ios": "https://dc.lft.to/lastmile_qr_scan", "android": "https://dc.lft.to/lastmile_qr_scan"}, "type": "electric_scooter", "name": "23a1966bb540841a04fc0718be14284f", "is_reserved": 0, "lon": -77.04284666666666, "is_disabled": 0, "fusion_lat": 0.0, "lat": 38.906501666666664, "bike_id": "23a1966bb540841a04fc0718be14284f", "fusion_lon": 0.0}, {"rental_uris": {"ios": "https://dc.lft.to/lastmile_qr_scan", "android": "https://dc.lft.to/lastmile_qr_scan"}, "type": "electric_scooter", "name": "d20ece9dd5e572f5d6688b3cd4f22901", "is_reserved": 0, "lon": -77.06522816666667, "is_disabled": 0, "fusion_lat": 0.0, "lat": 38.91110783333333, "bike_id": "d20ece9dd5e572f5d6688b3cd4f22901", "fusion_lon": 0.0}, {"rental_uris": {"ios": "https://dc.lft.to/lastmile_qr_scan", "android": "https://dc.lft.to/lastmile_qr_scan"}, "type": "electric_bike", "name": "dde951549b71b5c49a346f87cbd56b73", "is_reserved": 0, "lon": -76.96154916666667, "is_disabled": 0, "fusion_lat": 0.0, "lat": 38.856198, "bike_id": "dde951549b71b5c49a346f87cbd56b73", "fusion_lon": 0.0}, {"rental_uris": {"ios": "https://dc.lft.to/lastmile_qr_scan", "android": "https://dc.lft.to/lastmile_qr_scan"}, "type": "electric_scooter", "name": "532ada592936df042ead625fd86644a2", "is_reserved": 0, "lon": -77.03849033333333, "is_disabled": 0, "fusion_lat": 0.0, "lat": 38.915465833333336, "bike_id": "532ada592936df042ead625fd86644a2", "fusion_lon": 0.0}, {"rental_uris": {"ios": "https://dc.lft.to/lastmile_qr_scan", "android": "https://dc.lft.to/lastmile_qr_scan"}, "type": "electric_scooter", "name": "bf21e0217375ea49dcad6318622b2d45", "is_reserved": 0, "lon": -77.04099216666667, "is_disabled": 0, "fusion_lat": 0.0, "lat": 38.925311666666666, "bike_id": "bf21e0217375ea49dcad6318622b2d45", "fusion_lon": 0.0}, {"rental_uris": {"ios": "https://dc.lft.to/lastmile_qr_scan", "android": "https://dc.lft.to/lastmile_qr_scan"}, "type": "electric_scooter", "name": "6d2a6ee2e608fc0597e192de400d2999", "is_reserved": 0, "lon": -77.03458583333334, "is_disabled": 0, "fusion_lat": 0.0, "lat": 38.9028375, "bike_id": "6d2a6ee2e608fc0597e192de400d2999", "fusion_lon": 0.0}, {"rental_uris": {"ios": "https://dc.lft.to/lastmile_qr_scan", "android": "https://dc.lft.to/lastmile_qr_scan"}, "type": "electric_scooter", "name": "70dc10a2a750eae56235c3ac5ee3b22b", "is_reserved": 0, "lon": -77.02822666666667, "is_disabled": 0, "fusion_lat": 0.0, "lat": 38.911226, "bike_id": "70dc10a2a750eae56235c3ac5ee3b22b", "fusion_lon": 0.0}, {"rental_uris": {"ios": "https://dc.lft.to/lastmile_qr_scan", "android": "https://dc.lft.to/lastmile_qr_scan"}, "type": "electric_scooter", "name": "63b679726337160d81ba5f01b56c0790", "is_reserved": 0, "lon": -77.034686, "is_disabled": 0, "fusion_lat": 0.0, "lat": 38.91274333333333, "bike_id": "63b679726337160d81ba5f01b56c0790", "fusion_lon": 0.0}, {"rental_uris": {"ios": "https://dc.lft.to/lastmile_qr_scan", "android": "https://dc.lft.to/lastmile_qr_scan"}, "type": "electric_bike", "name": "13367b27767d5e90314b901a79f783d1", "is_reserved": 0, "lon": -77.07655516666667, "is_disabled": 0, "fusion_lat": 0.0, "lat": 38.888569333333336, "bike_id": "13367b27767d5e90314b901a79f783d1", "fusion_lon": 0.0}, {"rental_uris": {"ios": "https://dc.lft.to/lastmile_qr_scan", "android": "https://dc.lft.to/lastmile_qr_scan"}, "type": "electric_scooter", "name": "e7ed0c7ca896d76c0592d990722b539d", "is_reserved": 0, "lon": -77.021163, "is_disabled": 0, "fusion_lat": 0.0, "lat": 38.91419833333333, "bike_id": "e7ed0c7ca896d76c0592d990722b539d", "fusion_lon": 0.0}, {"rental_uris": {"ios": "https://dc.lft.to/lastmile_qr_scan", "android": "https://dc.lft.to/lastmile_qr_scan"}, "type": "electric_scooter", "name": "30f40bd4cf720969dd091d0d5ff0706a", "is_reserved": 0, "lon": -77.01864516666667, "is_disabled": 0, "fusion_lat": 0.0, "lat": 38.951549166666666, "bike_id": "30f40bd4cf720969dd091d0d5ff0706a", "fusion_lon": 0.0}, {"rental_uris": {"ios": "https://dc.lft.to/lastmile_qr_scan", "android": "https://dc.lft.to/lastmile_qr_scan"}, "type": "electric_scooter", "name": "01d9276ec477429c5fc22973b0a39d7c", "is_reserved": 0, "lon": -77.02991433333334, "is_disabled": 0, "fusion_lat": 0.0, "lat": 38.924271833333336, "bike_id": "01d9276ec477429c5fc22973b0a39d7c", "fusion_lon": 0.0}, {"rental_uris": {"ios": "https://dc.lft.to/lastmile_qr_scan", "android": "https://dc.lft.to/lastmile_qr_scan"}, "type": "electric_scooter", "name": "a259477cb0b4f23c3e71bee7b72e57a9", "is_reserved": 0, "lon": -76.9904545, "is_disabled": 0, "fusion_lat": 0.0, "lat": 38.924749, "bike_id": "a259477cb0b4f23c3e71bee7b72e57a9", "fusion_lon": 0.0}, {"rental_uris": {"ios": "https://dc.lft.to/lastmile_qr_scan", "android": "https://dc.lft.to/lastmile_qr_scan"}, "type": "electric_scooter", "name": "b602c5bff72dceff9ed2da69f2906da2", "is_reserved": 0, "lon": -77.0413495, "is_disabled": 0, "fusion_lat": 0.0, "lat": 38.9141095, "bike_id": "b602c5bff72dceff9ed2da69f2906da2", "fusion_lon": 0.0}, {"rental_uris": {"ios": "https://dc.lft.to/lastmile_qr_scan", "android": "https://dc.lft.to/lastmile_qr_scan"}, "type": "electric_scooter", "name": "6da180d04355770e092464172d226c00", "is_reserved": 0, "lon": -77.05907733333333, "is_disabled": 0, "fusion_lat": 0.0, "lat": 38.905094166666665, "bike_id": "6da180d04355770e092464172d226c00", "fusion_lon": 0.0}, {"rental_uris": {"ios": "https://dc.lft.to/lastmile_qr_scan", "android": "https://dc.lft.to/lastmile_qr_scan"}, "type": "electric_scooter", "name": "f7667fa1f8971c871e7391e992bcd1e2", "is_reserved": 0, "lon": -77.02098783333334, "is_disabled": 0, "fusion_lat": 0.0, "lat": 38.94313533333333, "bike_id": "f7667fa1f8971c871e7391e992bcd1e2", "fusion_lon": 0.0}, {"rental_uris": {"ios": "https://dc.lft.to/lastmile_qr_scan", "android": "https://dc.lft.to/lastmile_qr_scan"}, "type": "electric_scooter", "name": "3300aea27cfd463bfebc000362a0887f", "is_reserved": 0, "lon": -77.020026, "is_disabled": 0, "fusion_lat": 0.0, "lat": 38.881374, "bike_id": "3300aea27cfd463bfebc000362a0887f", "fusion_lon": 0.0}, {"rental_uris": {"ios": "https://dc.lft.to/lastmile_qr_scan", "android": "https://dc.lft.to/lastmile_qr_scan"}, "type": "electric_scooter", "name": "6afeafd45dcc11ab6c47e23511cfb6c9", "is_reserved": 0, "lon": -77.04231366666667, "is_disabled": 0, "fusion_lat": 0.0, "lat": 38.911132333333335, "bike_id": "6afeafd45dcc11ab6c47e23511cfb6c9", "fusion_lon": 0.0}, {"rental_uris": {"ios": "https://dc.lft.to/lastmile_qr_scan", "android": "https://dc.lft.to/lastmile_qr_scan"}, "type": "electric_scooter", "name": "6d6778814eb16282d287087b94fd69b0", "is_reserved": 0, "lon": -77.003788, "is_disabled": 0, "fusion_lat": 0.0, "lat": 38.8795065, "bike_id": "6d6778814eb16282d287087b94fd69b0", "fusion_lon": 0.0}, {"rental_uris": {"ios": "https://dc.lft.to/lastmile_qr_scan", "android": "https://dc.lft.to/lastmile_qr_scan"}, "type": "electric_bike", "name": "36754552e4393326ba131d8f06ccb4b9", "is_reserved": 0, "lon": -77.00416016666667, "is_disabled": 0, "fusion_lat": 0.0, "lat": 38.98529416666667, "bike_id": "36754552e4393326ba131d8f06ccb4b9", "fusion_lon": 0.0}, {"rental_uris": {"ios": "https://dc.lft.to/lastmile_qr_scan", "android": "https://dc.lft.to/lastmile_qr_scan"}, "type": "electric_scooter", "name": "7b71c4c4a16af4229d434e7b06a51837", "is_reserved": 0, "lon": -77.01090633333334, "is_disabled": 0, "fusion_lat": 0.0, "lat": 38.9112475, "bike_id": "7b71c4c4a16af4229d434e7b06a51837", "fusion_lon": 0.0}, {"rental_uris": {"ios": "https://dc.lft.to/lastmile_qr_scan", "android": "https://dc.lft.to/lastmile_qr_scan"}, "type": "electric_scooter", "name": "96cd64d07ea37f122c37b8719e1b5eee", "is_reserved": 0, "lon": -77.05718583333334, "is_disabled": 0, "fusion_lat": 0.0, "lat": 38.933588, "bike_id": "96cd64d07ea37f122c37b8719e1b5eee", "fusion_lon": 0.0}, {"rental_uris": {"ios": "https://dc.lft.to/lastmile_qr_scan", "android": "https://dc.lft.to/lastmile_qr_scan"}, "type": "electric_scooter", "name": "d8c72f272ad9c06114609d1be035208d", "is_reserved": 0, "lon": -77.04377583333333, "is_disabled": 0, "fusion_lat": 0.0, "lat": 38.93502733333333, "bike_id": "d8c72f272ad9c06114609d1be035208d", "fusion_lon": 0.0}, {"rental_uris": {"ios": "https://dc.lft.to/lastmile_qr_scan", "android": "https://dc.lft.to/lastmile_qr_scan"}, "type": "electric_scooter", "name": "4e17cd6695a7114086c892533d64d9ca", "is_reserved": 0, "lon": -77.03293566666666, "is_disabled": 0, "fusion_lat": 0.0, "lat": 38.91707016666667, "bike_id": "4e17cd6695a7114086c892533d64d9ca", "fusion_lon": 0.0}, {"rental_uris": {"ios": "https://dc.lft.to/lastmile_qr_scan", "android": "https://dc.lft.to/lastmile_qr_scan"}, "type": "electric_scooter", "name": "9508c828122dd84103579a3a9a42fa09", "is_reserved": 0, "lon": -77.04656416666667, "is_disabled": 0, "fusion_lat": 0.0, "lat": 38.903995, "bike_id": "9508c828122dd84103579a3a9a42fa09", "fusion_lon": 0.0}, {"rental_uris": {"ios": "https://dc.lft.to/lastmile_qr_scan", "android": "https://dc.lft.to/lastmile_qr_scan"}, "type": "electric_scooter", "name": "b34f9bd3ad9ce6b4634f2f5975b9e95f", "is_reserved": 0, "lon": -77.03128166666667, "is_disabled": 0, "fusion_lat": 0.0, "lat": 38.896084333333334, "bike_id": "b34f9bd3ad9ce6b4634f2f5975b9e95f", "fusion_lon": 0.0}, {"rental_uris": {"ios": "https://dc.lft.to/lastmile_qr_scan", "android": "https://dc.lft.to/lastmile_qr_scan"}, "type": "electric_bike", "name": "6e5be58f3623e691154ddf7a1b3a64a2", "is_reserved": 0, "lon": -76.99913366666667, "is_disabled": 0, "fusion_lat": 0.0, "lat": 38.8645265, "bike_id": "6e5be58f3623e691154ddf7a1b3a64a2", "fusion_lon": 0.0}, {"rental_uris": {"ios": "https://dc.lft.to/lastmile_qr_scan", "android": "https://dc.lft.to/lastmile_qr_scan"}, "type": "electric_scooter", "name": "682f58379d1f4a984061f418f9f139fb", "is_reserved": 0, "lon": -77.04923116666667, "is_disabled": 0, "fusion_lat": 0.0, "lat": 38.9008495, "bike_id": "682f58379d1f4a984061f418f9f139fb", "fusion_lon": 0.0}, {"rental_uris": {"ios": "https://dc.lft.to/lastmile_qr_scan", "android": "https://dc.lft.to/lastmile_qr_scan"}, "type": "electric_scooter", "name": "996dfc4ead2461a1b75a8a7e0e41ec8b", "is_reserved": 0, "lon": -77.02840933333333, "is_disabled": 0, "fusion_lat": 0.0, "lat": 38.90279016666667, "bike_id": "996dfc4ead2461a1b75a8a7e0e41ec8b", "fusion_lon": 0.0}, {"rental_uris": {"ios": "https://dc.lft.to/lastmile_qr_scan", "android": "https://dc.lft.to/lastmile_qr_scan"}, "type": "electric_bike", "name": "7694d8a5f7fefc7b80af331ab0fa05c2", "is_reserved": 0, "lon": -76.99998166666667, "is_disabled": 0, "fusion_lat": 0.0, "lat": 38.92395233333333, "bike_id": "7694d8a5f7fefc7b80af331ab0fa05c2", "fusion_lon": 0.0}, {"rental_uris": {"ios": "https://dc.lft.to/lastmile_qr_scan", "android": "https://dc.lft.to/lastmile_qr_scan"}, "type": "electric_scooter", "name": "46b91f8c83114b63f07a8b0a56a43914", "is_reserved": 0, "lon": -77.02353516666666, "is_disabled": 0, "fusion_lat": 0.0, "lat": 38.9452875, "bike_id": "46b91f8c83114b63f07a8b0a56a43914", "fusion_lon": 0.0}, {"rental_uris": {"ios": "https://dc.lft.to/lastmile_qr_scan", "android": "https://dc.lft.to/lastmile_qr_scan"}, "type": "electric_scooter", "name": "a56ff4ee091aae892c4d51ca9c3c6f3d", "is_reserved": 0, "lon": -76.985746, "is_disabled": 0, "fusion_lat": 0.0, "lat": 38.85452633333333, "bike_id": "a56ff4ee091aae892c4d51ca9c3c6f3d", "fusion_lon": 0.0}, {"rental_uris": {"ios": "https://dc.lft.to/lastmile_qr_scan", "android": "https://dc.lft.to/lastmile_qr_scan"}, "type": "electric_scooter", "name": "00a8a88ae72ff0004be2857f3d2c429f", "is_reserved": 0, "lon": -77.04121366666666, "is_disabled": 0, "fusion_lat": 0.0, "lat": 38.9310815, "bike_id": "00a8a88ae72ff0004be2857f3d2c429f", "fusion_lon": 0.0}, {"rental_uris": {"ios": "https://dc.lft.to/lastmile_qr_scan", "android": "https://dc.lft.to/lastmile_qr_scan"}, "type": "electric_scooter", "name": "285a52140a4e5bc5bde82bd666755708", "is_reserved": 0, "lon": -77.02417516666667, "is_disabled": 0, "fusion_lat": 0.0, "lat": 38.905762833333334, "bike_id": "285a52140a4e5bc5bde82bd666755708", "fusion_lon": 0.0}, {"rental_uris": {"ios": "https://dc.lft.to/lastmile_qr_scan", "android": "https://dc.lft.to/lastmile_qr_scan"}, "type": "electric_scooter", "name": "a9fcfab5ad39d611aa0bb128d3ca4126", "is_reserved": 0, "lon": -77.03034483333333, "is_disabled": 0, "fusion_lat": 0.0, "lat": 38.922478, "bike_id": "a9fcfab5ad39d611aa0bb128d3ca4126", "fusion_lon": 0.0}, {"rental_uris": {"ios": "https://dc.lft.to/lastmile_qr_scan", "android": "https://dc.lft.to/lastmile_qr_scan"}, "type": "electric_scooter", "name": "4430d98a2730b2d9d0be059cba633f68", "is_reserved": 0, "lon": -77.02709983333334, "is_disabled": 0, "fusion_lat": 0.0, "lat": 38.90597316666667, "bike_id": "4430d98a2730b2d9d0be059cba633f68", "fusion_lon": 0.0}, {"rental_uris": {"ios": "https://dc.lft.to/lastmile_qr_scan", "android": "https://dc.lft.to/lastmile_qr_scan"}, "type": "electric_bike", "name": "b2ba8e19a311916cea18ddb169f311cf", "is_reserved": 0, "lon": -77.012327, "is_disabled": 0, "fusion_lat": 0.0, "lat": 38.95098016666667, "bike_id": "b2ba8e19a311916cea18ddb169f311cf", "fusion_lon": 0.0}, {"rental_uris": {"ios": "https://dc.lft.to/lastmile_qr_scan", "android": "https://dc.lft.to/lastmile_qr_scan"}, "type": "electric_scooter", "name": "6467f8cc1bff9e0667ab9ac8f11ba02f", "is_reserved": 0, "lon": -77.03867383333333, "is_disabled": 0, "fusion_lat": 0.0, "lat": 38.921528333333335, "bike_id": "6467f8cc1bff9e0667ab9ac8f11ba02f", "fusion_lon": 0.0}, {"rental_uris": {"ios": "https://dc.lft.to/lastmile_qr_scan", "android": "https://dc.lft.to/lastmile_qr_scan"}, "type": "electric_scooter", "name": "e57d3240cb97fb7b98fe9a93269cc3c7", "is_reserved": 0, "lon": -76.99871033333334, "is_disabled": 0, "fusion_lat": 0.0, "lat": 38.90032383333333, "bike_id": "e57d3240cb97fb7b98fe9a93269cc3c7", "fusion_lon": 0.0}, {"rental_uris": {"ios": "https://dc.lft.to/lastmile_qr_scan", "android": "https://dc.lft.to/lastmile_qr_scan"}, "type": "electric_scooter", "name": "f45250e01ab23278d899427b9474d595", "is_reserved": 0, "lon": -77.0362935, "is_disabled": 0, "fusion_lat": 0.0, "lat": 38.9034415, "bike_id": "f45250e01ab23278d899427b9474d595", "fusion_lon": 0.0}, {"rental_uris": {"ios": "https://dc.lft.to/lastmile_qr_scan", "android": "https://dc.lft.to/lastmile_qr_scan"}, "type": "electric_bike", "name": "2d037b298e75d157eca708ffdd557ada", "is_reserved": 0, "lon": -77.08971633333333, "is_disabled": 0, "fusion_lat": 0.0, "lat": 38.91170733333333, "bike_id": "2d037b298e75d157eca708ffdd557ada", "fusion_lon": 0.0}, {"rental_uris": {"ios": "https://dc.lft.to/lastmile_qr_scan", "android": "https://dc.lft.to/lastmile_qr_scan"}, "type": "electric_scooter", "name": "e8fe31960ace15f0b9323af94e03fe8b", "is_reserved": 0, "lon": -77.03882333333334, "is_disabled": 0, "fusion_lat": 0.0, "lat": 38.93314433333333, "bike_id": "e8fe31960ace15f0b9323af94e03fe8b", "fusion_lon": 0.0}, {"rental_uris": {"ios": "https://dc.lft.to/lastmile_qr_scan", "android": "https://dc.lft.to/lastmile_qr_scan"}, "type": "electric_scooter", "name": "3a5733e3244b869a4635d5eb42a35822", "is_reserved": 0, "lon": -77.01079166666666, "is_disabled": 0, "fusion_lat": 0.0, "lat": 38.90337566666667, "bike_id": "3a5733e3244b869a4635d5eb42a35822", "fusion_lon": 0.0}, {"rental_uris": {"ios": "https://dc.lft.to/lastmile_qr_scan", "android": "https://dc.lft.to/lastmile_qr_scan"}, "type": "electric_scooter", "name": "092d7eb86f4b1008b6bea38ae10629ec", "is_reserved": 0, "lon": -77.043238, "is_disabled": 0, "fusion_lat": 0.0, "lat": 38.917882166666665, "bike_id": "092d7eb86f4b1008b6bea38ae10629ec", "fusion_lon": 0.0}, {"rental_uris": {"ios": "https://dc.lft.to/lastmile_qr_scan", "android": "https://dc.lft.to/lastmile_qr_scan"}, "type": "electric_scooter", "name": "c46e731eb8c287e0744bbdb8cd6e2b22", "is_reserved": 0, "lon": -77.0164805, "is_disabled": 0, "fusion_lat": 0.0, "lat": 38.90386766666666, "bike_id": "c46e731eb8c287e0744bbdb8cd6e2b22", "fusion_lon": 0.0}, {"rental_uris": {"ios": "https://dc.lft.to/lastmile_qr_scan", "android": "https://dc.lft.to/lastmile_qr_scan"}, "type": "electric_scooter", "name": "12305e1696f4d2545fff82901aaae0fa", "is_reserved": 0, "lon": -77.03565716666667, "is_disabled": 0, "fusion_lat": 0.0, "lat": 38.90470833333333, "bike_id": "12305e1696f4d2545fff82901aaae0fa", "fusion_lon": 0.0}, {"rental_uris": {"ios": "https://dc.lft.to/lastmile_qr_scan", "android": "https://dc.lft.to/lastmile_qr_scan"}, "type": "electric_scooter", "name": "3cdb94b125bb9245e0692f7312896c15", "is_reserved": 0, "lon": -77.05922583333333, "is_disabled": 0, "fusion_lat": 0.0, "lat": 38.902852833333334, "bike_id": "3cdb94b125bb9245e0692f7312896c15", "fusion_lon": 0.0}, {"rental_uris": {"ios": "https://dc.lft.to/lastmile_qr_scan", "android": "https://dc.lft.to/lastmile_qr_scan"}, "type": "electric_bike", "name": "b3dff1654ae50782efdb9243d1524aaa", "is_reserved": 0, "lon": -77.12650466666666, "is_disabled": 0, "fusion_lat": 0.0, "lat": 38.8191405, "bike_id": "b3dff1654ae50782efdb9243d1524aaa", "fusion_lon": 0.0}, {"rental_uris": {"ios": "https://dc.lft.to/lastmile_qr_scan", "android": "https://dc.lft.to/lastmile_qr_scan"}, "type": "electric_scooter", "name": "a5f5f0ba6ec581c9f62afc600d15ae14", "is_reserved": 0, "lon": -77.06629916666667, "is_disabled": 0, "fusion_lat": 0.0, "lat": 38.905234666666665, "bike_id": "a5f5f0ba6ec581c9f62afc600d15ae14", "fusion_lon": 0.0}, {"rental_uris": {"ios": "https://dc.lft.to/lastmile_qr_scan", "android": "https://dc.lft.to/lastmile_qr_scan"}, "type": "electric_bike", "name": "913554a04849da941c5f271ffd88982a", "is_reserved": 0, "lon": -77.08528116666666, "is_disabled": 0, "fusion_lat": 0.0, "lat": 38.856544166666666, "bike_id": "913554a04849da941c5f271ffd88982a", "fusion_lon": 0.0}, {"rental_uris": {"ios": "https://dc.lft.to/lastmile_qr_scan", "android": "https://dc.lft.to/lastmile_qr_scan"}, "type": "electric_scooter", "name": "d7a5c682d7b40cd4c006157d2dcba3ac", "is_reserved": 0, "lon": -77.05120516666666, "is_disabled": 0, "fusion_lat": 0.0, "lat": 38.90145, "bike_id": "d7a5c682d7b40cd4c006157d2dcba3ac", "fusion_lon": 0.0}, {"rental_uris": {"ios": "https://dc.lft.to/lastmile_qr_scan", "android": "https://dc.lft.to/lastmile_qr_scan"}, "type": "electric_scooter", "name": "0039ea8dd5c058cf8b725e2dc389c6a5", "is_reserved": 0, "lon": -77.034226, "is_disabled": 0, "fusion_lat": 0.0, "lat": 38.922048333333336, "bike_id": "0039ea8dd5c058cf8b725e2dc389c6a5", "fusion_lon": 0.0}, {"rental_uris": {"ios": "https://dc.lft.to/lastmile_qr_scan", "android": "https://dc.lft.to/lastmile_qr_scan"}, "type": "electric_scooter", "name": "236abae36a5327ae525ca69a36b7d665", "is_reserved": 0, "lon": -76.985013, "is_disabled": 0, "fusion_lat": 0.0, "lat": 38.879994333333336, "bike_id": "236abae36a5327ae525ca69a36b7d665", "fusion_lon": 0.0}, {"rental_uris": {"ios": "https://dc.lft.to/lastmile_qr_scan", "android": "https://dc.lft.to/lastmile_qr_scan"}, "type": "electric_scooter", "name": "ff236b443585a2a76980318982894003", "is_reserved": 0, "lon": -77.00551666666667, "is_disabled": 0, "fusion_lat": 0.0, "lat": 38.876423833333334, "bike_id": "ff236b443585a2a76980318982894003", "fusion_lon": 0.0}, {"rental_uris": {"ios": "https://dc.lft.to/lastmile_qr_scan", "android": "https://dc.lft.to/lastmile_qr_scan"}, "type": "electric_scooter", "name": "30a41ae0b681c2879f8a2fd55f23c41e", "is_reserved": 0, "lon": -77.03261566666667, "is_disabled": 0, "fusion_lat": 0.0, "lat": 38.933087, "bike_id": "30a41ae0b681c2879f8a2fd55f23c41e", "fusion_lon": 0.0}, {"rental_uris": {"ios": "https://dc.lft.to/lastmile_qr_scan", "android": "https://dc.lft.to/lastmile_qr_scan"}, "type": "electric_scooter", "name": "e102edf5b8f6a02a6e8d04d367cd9bd8", "is_reserved": 0, "lon": -77.025043, "is_disabled": 0, "fusion_lat": 0.0, "lat": 38.935527666666665, "bike_id": "e102edf5b8f6a02a6e8d04d367cd9bd8", "fusion_lon": 0.0}, {"rental_uris": {"ios": "https://dc.lft.to/lastmile_qr_scan", "android": "https://dc.lft.to/lastmile_qr_scan"}, "type": "electric_scooter", "name": "4ea58023007edc76e24128a01d083af9", "is_reserved": 0, "lon": -77.04331533333334, "is_disabled": 0, "fusion_lat": 0.0, "lat": 38.90727783333333, "bike_id": "4ea58023007edc76e24128a01d083af9", "fusion_lon": 0.0}, {"rental_uris": {"ios": "https://dc.lft.to/lastmile_qr_scan", "android": "https://dc.lft.to/lastmile_qr_scan"}, "type": "electric_scooter", "name": "cac86b8570b05c469c9b4c131c1d54cf", "is_reserved": 0, "lon": -77.04476633333333, "is_disabled": 0, "fusion_lat": 0.0, "lat": 38.90374333333333, "bike_id": "cac86b8570b05c469c9b4c131c1d54cf", "fusion_lon": 0.0}, {"rental_uris": {"ios": "https://dc.lft.to/lastmile_qr_scan", "android": "https://dc.lft.to/lastmile_qr_scan"}, "type": "electric_scooter", "name": "7244fdf0b327f05fa398e7260701065e", "is_reserved": 0, "lon": -77.03861483333333, "is_disabled": 0, "fusion_lat": 0.0, "lat": 38.91179016666667, "bike_id": "7244fdf0b327f05fa398e7260701065e", "fusion_lon": 0.0}, {"rental_uris": {"ios": "https://dc.lft.to/lastmile_qr_scan", "android": "https://dc.lft.to/lastmile_qr_scan"}, "type": "electric_bike", "name": "e14980bf4ea048756d4286a930228488", "is_reserved": 0, "lon": -76.962657, "is_disabled": 0, "fusion_lat": 0.0, "lat": 38.96786566666667, "bike_id": "e14980bf4ea048756d4286a930228488", "fusion_lon": 0.0}, {"rental_uris": {"ios": "https://dc.lft.to/lastmile_qr_scan", "android": "https://dc.lft.to/lastmile_qr_scan"}, "type": "electric_scooter", "name": "c65a2703fd074816b55befabe061cf1c", "is_reserved": 0, "lon": -76.99626883333333, "is_disabled": 0, "fusion_lat": 0.0, "lat": 38.889667, "bike_id": "c65a2703fd074816b55befabe061cf1c", "fusion_lon": 0.0}, {"rental_uris": {"ios": "https://dc.lft.to/lastmile_qr_scan", "android": "https://dc.lft.to/lastmile_qr_scan"}, "type": "electric_scooter", "name": "dd09d9d6e8937125ee74bdff9e6ee21b", "is_reserved": 0, "lon": -77.02588016666667, "is_disabled": 0, "fusion_lat": 0.0, "lat": 38.9581755, "bike_id": "dd09d9d6e8937125ee74bdff9e6ee21b", "fusion_lon": 0.0}, {"rental_uris": {"ios": "https://dc.lft.to/lastmile_qr_scan", "android": "https://dc.lft.to/lastmile_qr_scan"}, "type": "electric_scooter", "name": "5105a898e4100eefdd45ffd42328e11d", "is_reserved": 0, "lon": -76.99984083333334, "is_disabled": 0, "fusion_lat": 0.0, "lat": 38.875058333333335, "bike_id": "5105a898e4100eefdd45ffd42328e11d", "fusion_lon": 0.0}, {"rental_uris": {"ios": "https://dc.lft.to/lastmile_qr_scan", "android": "https://dc.lft.to/lastmile_qr_scan"}, "type": "electric_bike", "name": "0f1bb00b109ce6905886466529911481", "is_reserved": 0, "lon": -76.98689933333333, "is_disabled": 0, "fusion_lat": 0.0, "lat": 38.9447535, "bike_id": "0f1bb00b109ce6905886466529911481", "fusion_lon": 0.0}, {"rental_uris": {"ios": "https://dc.lft.to/lastmile_qr_scan", "android": "https://dc.lft.to/lastmile_qr_scan"}, "type": "electric_scooter", "name": "faa256212e73c69bd35010444ef844da", "is_reserved": 0, "lon": -77.0034805, "is_disabled": 0, "fusion_lat": 0.0, "lat": 38.91776483333334, "bike_id": "faa256212e73c69bd35010444ef844da", "fusion_lon": 0.0}, {"rental_uris": {"ios": "https://dc.lft.to/lastmile_qr_scan", "android": "https://dc.lft.to/lastmile_qr_scan"}, "type": "electric_bike", "name": "7ac8de9a6ecd345a7d8209e1c4329b3d", "is_reserved": 0, "lon": -77.10213466666667, "is_disabled": 0, "fusion_lat": 0.0, "lat": 38.919996833333336, "bike_id": "7ac8de9a6ecd345a7d8209e1c4329b3d", "fusion_lon": 0.0}, {"rental_uris": {"ios": "https://dc.lft.to/lastmile_qr_scan", "android": "https://dc.lft.to/lastmile_qr_scan"}, "type": "electric_scooter", "name": "3b5ff2efc5cf1d45b27eced97d4d2ad0", "is_reserved": 0, "lon": -76.98842983333333, "is_disabled": 0, "fusion_lat": 0.0, "lat": 38.84298016666666, "bike_id": "3b5ff2efc5cf1d45b27eced97d4d2ad0", "fusion_lon": 0.0}, {"rental_uris": {"ios": "https://dc.lft.to/lastmile_qr_scan", "android": "https://dc.lft.to/lastmile_qr_scan"}, "type": "electric_scooter", "name": "ab9db9686fce0f5562c4cff240f45e4d", "is_reserved": 0, "lon": -77.00456583333333, "is_disabled": 0, "fusion_lat": 0.0, "lat": 38.920801, "bike_id": "ab9db9686fce0f5562c4cff240f45e4d", "fusion_lon": 0.0}, {"rental_uris": {"ios": "https://dc.lft.to/lastmile_qr_scan", "android": "https://dc.lft.to/lastmile_qr_scan"}, "type": "electric_scooter", "name": "fb044c13bd5a566b5b2b2141a93369e3", "is_reserved": 0, "lon": -77.05384666666667, "is_disabled": 0, "fusion_lat": 0.0, "lat": 38.898379166666665, "bike_id": "fb044c13bd5a566b5b2b2141a93369e3", "fusion_lon": 0.0}, {"rental_uris": {"ios": "https://dc.lft.to/lastmile_qr_scan", "android": "https://dc.lft.to/lastmile_qr_scan"}, "type": "electric_scooter", "name": "47978928282a2647b6d5ab8ed5fe3627", "is_reserved": 0, "lon": -77.047619, "is_disabled": 0, "fusion_lat": 0.0, "lat": 38.912538, "bike_id": "47978928282a2647b6d5ab8ed5fe3627", "fusion_lon": 0.0}, {"rental_uris": {"ios": "https://dc.lft.to/lastmile_qr_scan", "android": "https://dc.lft.to/lastmile_qr_scan"}, "type": "electric_scooter", "name": "211de3ec90734dba23aa36190eec695e", "is_reserved": 0, "lon": -77.03454833333333, "is_disabled": 0, "fusion_lat": 0.0, "lat": 38.9083765, "bike_id": "211de3ec90734dba23aa36190eec695e", "fusion_lon": 0.0}, {"rental_uris": {"ios": "https://dc.lft.to/lastmile_qr_scan", "android": "https://dc.lft.to/lastmile_qr_scan"}, "type": "electric_bike", "name": "d7d00c0bde2b431128fecdc101c61aad", "is_reserved": 0, "lon": -76.99069883333334, "is_disabled": 0, "fusion_lat": 0.0, "lat": 38.930595, "bike_id": "d7d00c0bde2b431128fecdc101c61aad", "fusion_lon": 0.0}, {"rental_uris": {"ios": "https://dc.lft.to/lastmile_qr_scan", "android": "https://dc.lft.to/lastmile_qr_scan"}, "type": "electric_scooter", "name": "74e1e2b6de42e27599ca0af6302c04d5", "is_reserved": 0, "lon": -77.03484266666666, "is_disabled": 0, "fusion_lat": 0.0, "lat": 38.924821666666666, "bike_id": "74e1e2b6de42e27599ca0af6302c04d5", "fusion_lon": 0.0}, {"rental_uris": {"ios": "https://dc.lft.to/lastmile_qr_scan", "android": "https://dc.lft.to/lastmile_qr_scan"}, "type": "electric_scooter", "name": "51b070edcd612f603ae2739aa249745c", "is_reserved": 0, "lon": -77.028218, "is_disabled": 0, "fusion_lat": 0.0, "lat": 38.892418666666664, "bike_id": "51b070edcd612f603ae2739aa249745c", "fusion_lon": 0.0}, {"rental_uris": {"ios": "https://dc.lft.to/lastmile_qr_scan", "android": "https://dc.lft.to/lastmile_qr_scan"}, "type": "electric_scooter", "name": "6d6966141de4f9866e69fae01bfca66a", "is_reserved": 0, "lon": -77.0324285, "is_disabled": 0, "fusion_lat": 0.0, "lat": 38.910472166666665, "bike_id": "6d6966141de4f9866e69fae01bfca66a", "fusion_lon": 0.0}, {"rental_uris": {"ios": "https://dc.lft.to/lastmile_qr_scan", "android": "https://dc.lft.to/lastmile_qr_scan"}, "type": "electric_scooter", "name": "8c45d4a4d849b5502c1c9275a2ad073d", "is_reserved": 0, "lon": -77.06650033333334, "is_disabled": 0, "fusion_lat": 0.0, "lat": 38.93735983333333, "bike_id": "8c45d4a4d849b5502c1c9275a2ad073d", "fusion_lon": 0.0}, {"rental_uris": {"ios": "https://dc.lft.to/lastmile_qr_scan", "android": "https://dc.lft.to/lastmile_qr_scan"}, "type": "electric_scooter", "name": "b56b337e66d6730fe4e7a09a93528c59", "is_reserved": 0, "lon": -77.02801383333333, "is_disabled": 0, "fusion_lat": 0.0, "lat": 38.892312, "bike_id": "b56b337e66d6730fe4e7a09a93528c59", "fusion_lon": 0.0}, {"rental_uris": {"ios": "https://dc.lft.to/lastmile_qr_scan", "android": "https://dc.lft.to/lastmile_qr_scan"}, "type": "electric_scooter", "name": "9d2f3b38607edc1cc6158cb49cdc9809", "is_reserved": 0, "lon": -77.03276783333334, "is_disabled": 0, "fusion_lat": 0.0, "lat": 38.91999783333333, "bike_id": "9d2f3b38607edc1cc6158cb49cdc9809", "fusion_lon": 0.0}, {"rental_uris": {"ios": "https://dc.lft.to/lastmile_qr_scan", "android": "https://dc.lft.to/lastmile_qr_scan"}, "type": "electric_scooter", "name": "3c838f71c17cf5d1394213d78f41e03f", "is_reserved": 0, "lon": -77.0452695, "is_disabled": 0, "fusion_lat": 0.0, "lat": 38.919113833333334, "bike_id": "3c838f71c17cf5d1394213d78f41e03f", "fusion_lon": 0.0}, {"rental_uris": {"ios": "https://dc.lft.to/lastmile_qr_scan", "android": "https://dc.lft.to/lastmile_qr_scan"}, "type": "electric_scooter", "name": "5dc9a8866a6884e66a8326a8256d48fa", "is_reserved": 0, "lon": -77.03267016666666, "is_disabled": 0, "fusion_lat": 0.0, "lat": 38.910390166666666, "bike_id": "5dc9a8866a6884e66a8326a8256d48fa", "fusion_lon": 0.0}, {"rental_uris": {"ios": "https://dc.lft.to/lastmile_qr_scan", "android": "https://dc.lft.to/lastmile_qr_scan"}, "type": "electric_scooter", "name": "ff39a7127351c51c987b4e0b8701e52d", "is_reserved": 0, "lon": -77.03906266666667, "is_disabled": 0, "fusion_lat": 0.0, "lat": 38.914229, "bike_id": "ff39a7127351c51c987b4e0b8701e52d", "fusion_lon": 0.0}, {"rental_uris": {"ios": "https://dc.lft.to/lastmile_qr_scan", "android": "https://dc.lft.to/lastmile_qr_scan"}, "type": "electric_scooter", "name": "7ac1b460667327dd3aa666893f5043f8", "is_reserved": 0, "lon": -77.03185866666666, "is_disabled": 0, "fusion_lat": 0.0, "lat": 38.918248, "bike_id": "7ac1b460667327dd3aa666893f5043f8", "fusion_lon": 0.0}, {"rental_uris": {"ios": "https://dc.lft.to/lastmile_qr_scan", "android": "https://dc.lft.to/lastmile_qr_scan"}, "type": "electric_scooter", "name": "da852db73557c6b7e1dcc0145c77189a", "is_reserved": 0, "lon": -77.0437275, "is_disabled": 0, "fusion_lat": 0.0, "lat": 38.931572833333334, "bike_id": "da852db73557c6b7e1dcc0145c77189a", "fusion_lon": 0.0}, {"rental_uris": {"ios": "https://dc.lft.to/lastmile_qr_scan", "android": "https://dc.lft.to/lastmile_qr_scan"}, "type": "electric_scooter", "name": "57400eb5746bf60a7297622f913bd537", "is_reserved": 0, "lon": -77.0363735, "is_disabled": 0, "fusion_lat": 0.0, "lat": 38.926004666666664, "bike_id": "57400eb5746bf60a7297622f913bd537", "fusion_lon": 0.0}, {"rental_uris": {"ios": "https://dc.lft.to/lastmile_qr_scan", "android": "https://dc.lft.to/lastmile_qr_scan"}, "type": "electric_scooter", "name": "05c4d7ce7d3bc2bfbe004f4f8bc5c3aa", "is_reserved": 0, "lon": -77.05637766666666, "is_disabled": 0, "fusion_lat": 0.0, "lat": 38.936002, "bike_id": "05c4d7ce7d3bc2bfbe004f4f8bc5c3aa", "fusion_lon": 0.0}, {"rental_uris": {"ios": "https://dc.lft.to/lastmile_qr_scan", "android": "https://dc.lft.to/lastmile_qr_scan"}, "type": "electric_scooter", "name": "e0c2fdeb60a7c6b08a6cd3654cf25786", "is_reserved": 0, "lon": -77.014335, "is_disabled": 0, "fusion_lat": 0.0, "lat": 38.887467, "bike_id": "e0c2fdeb60a7c6b08a6cd3654cf25786", "fusion_lon": 0.0}, {"rental_uris": {"ios": "https://dc.lft.to/lastmile_qr_scan", "android": "https://dc.lft.to/lastmile_qr_scan"}, "type": "electric_scooter", "name": "b9bfcee9919a52d0d52d0543e2b18460", "is_reserved": 0, "lon": -77.03721816666666, "is_disabled": 0, "fusion_lat": 0.0, "lat": 38.92651133333333, "bike_id": "b9bfcee9919a52d0d52d0543e2b18460", "fusion_lon": 0.0}, {"rental_uris": {"ios": "https://dc.lft.to/lastmile_qr_scan", "android": "https://dc.lft.to/lastmile_qr_scan"}, "type": "electric_scooter", "name": "5675d72e7cdb0c96b5cacc02cdd0fb57", "is_reserved": 0, "lon": -77.0057845, "is_disabled": 0, "fusion_lat": 0.0, "lat": 38.90916883333333, "bike_id": "5675d72e7cdb0c96b5cacc02cdd0fb57", "fusion_lon": 0.0}, {"rental_uris": {"ios": "https://dc.lft.to/lastmile_qr_scan", "android": "https://dc.lft.to/lastmile_qr_scan"}, "type": "electric_scooter", "name": "67f039d69740d1126047a86097bee0ef", "is_reserved": 0, "lon": -76.99412433333333, "is_disabled": 0, "fusion_lat": 0.0, "lat": 38.87787933333333, "bike_id": "67f039d69740d1126047a86097bee0ef", "fusion_lon": 0.0}, {"rental_uris": {"ios": "https://dc.lft.to/lastmile_qr_scan", "android": "https://dc.lft.to/lastmile_qr_scan"}, "type": "electric_scooter", "name": "3112a7f990ce512137d1e65b3daa6a01", "is_reserved": 0, "lon": -77.03474033333333, "is_disabled": 0, "fusion_lat": 0.0, "lat": 38.9302425, "bike_id": "3112a7f990ce512137d1e65b3daa6a01", "fusion_lon": 0.0}, {"rental_uris": {"ios": "https://dc.lft.to/lastmile_qr_scan", "android": "https://dc.lft.to/lastmile_qr_scan"}, "type": "electric_bike", "name": "4a238632799cda03183dc48712982acf", "is_reserved": 0, "lon": -76.90307, "is_disabled": 0, "fusion_lat": 0.0, "lat": 39.002966666666666, "bike_id": "4a238632799cda03183dc48712982acf", "fusion_lon": 0.0}, {"rental_uris": {"ios": "https://dc.lft.to/lastmile_qr_scan", "android": "https://dc.lft.to/lastmile_qr_scan"}, "type": "electric_scooter", "name": "d1dfc68a3ec0757d2abb12b8712b172b", "is_reserved": 0, "lon": -77.00877, "is_disabled": 0, "fusion_lat": 0.0, "lat": 38.912602666666665, "bike_id": "d1dfc68a3ec0757d2abb12b8712b172b", "fusion_lon": 0.0}, {"rental_uris": {"ios": "https://dc.lft.to/lastmile_qr_scan", "android": "https://dc.lft.to/lastmile_qr_scan"}, "type": "electric_scooter", "name": "4a9d4e1625a60e8b3f2ba70ae39d2db5", "is_reserved": 0, "lon": -77.02862683333333, "is_disabled": 0, "fusion_lat": 0.0, "lat": 38.907309833333336, "bike_id": "4a9d4e1625a60e8b3f2ba70ae39d2db5", "fusion_lon": 0.0}, {"rental_uris": {"ios": "https://dc.lft.to/lastmile_qr_scan", "android": "https://dc.lft.to/lastmile_qr_scan"}, "type": "electric_scooter", "name": "8f2af46ddc068b35a9ddb7b30a6c34de", "is_reserved": 0, "lon": -77.04727916666667, "is_disabled": 0, "fusion_lat": 0.0, "lat": 38.8960765, "bike_id": "8f2af46ddc068b35a9ddb7b30a6c34de", "fusion_lon": 0.0}, {"rental_uris": {"ios": "https://dc.lft.to/lastmile_qr_scan", "android": "https://dc.lft.to/lastmile_qr_scan"}, "type": "electric_scooter", "name": "d412e73363ab9e985a79325743ba88d1", "is_reserved": 0, "lon": -77.03512966666666, "is_disabled": 0, "fusion_lat": 0.0, "lat": 38.922214333333336, "bike_id": "d412e73363ab9e985a79325743ba88d1", "fusion_lon": 0.0}, {"rental_uris": {"ios": "https://dc.lft.to/lastmile_qr_scan", "android": "https://dc.lft.to/lastmile_qr_scan"}, "type": "electric_scooter", "name": "4f6813da4509269dc02c4e82daa12eb4", "is_reserved": 0, "lon": -76.99839933333334, "is_disabled": 0, "fusion_lat": 0.0, "lat": 38.90300333333333, "bike_id": "4f6813da4509269dc02c4e82daa12eb4", "fusion_lon": 0.0}, {"rental_uris": {"ios": "https://dc.lft.to/lastmile_qr_scan", "android": "https://dc.lft.to/lastmile_qr_scan"}, "type": "electric_scooter", "name": "9fe4679748458591c1f8a94121479482", "is_reserved": 0, "lon": -77.050625, "is_disabled": 0, "fusion_lat": 0.0, "lat": 38.923572166666666, "bike_id": "9fe4679748458591c1f8a94121479482", "fusion_lon": 0.0}, {"rental_uris": {"ios": "https://dc.lft.to/lastmile_qr_scan", "android": "https://dc.lft.to/lastmile_qr_scan"}, "type": "electric_scooter", "name": "7ae4fd524a3342c90476ec6f5f5826a0", "is_reserved": 0, "lon": -77.04602516666667, "is_disabled": 0, "fusion_lat": 0.0, "lat": 38.92335116666667, "bike_id": "7ae4fd524a3342c90476ec6f5f5826a0", "fusion_lon": 0.0}, {"rental_uris": {"ios": "https://dc.lft.to/lastmile_qr_scan", "android": "https://dc.lft.to/lastmile_qr_scan"}, "type": "electric_scooter", "name": "bf8b8c9223990466a1ff2c5978089c60", "is_reserved": 0, "lon": -77.03274783333333, "is_disabled": 0, "fusion_lat": 0.0, "lat": 38.90451983333333, "bike_id": "bf8b8c9223990466a1ff2c5978089c60", "fusion_lon": 0.0}, {"rental_uris": {"ios": "https://dc.lft.to/lastmile_qr_scan", "android": "https://dc.lft.to/lastmile_qr_scan"}, "type": "electric_bike", "name": "b748b753fb0261ab0f1eb89978e86b54", "is_reserved": 0, "lon": -76.99926833333333, "is_disabled": 0, "fusion_lat": 0.0, "lat": 38.99471966666667, "bike_id": "b748b753fb0261ab0f1eb89978e86b54", "fusion_lon": 0.0}, {"rental_uris": {"ios": "https://dc.lft.to/lastmile_qr_scan", "android": "https://dc.lft.to/lastmile_qr_scan"}, "type": "electric_scooter", "name": "65e6b691438eb99d42dddc84f4b79733", "is_reserved": 0, "lon": -77.04753683333334, "is_disabled": 0, "fusion_lat": 0.0, "lat": 38.89591133333333, "bike_id": "65e6b691438eb99d42dddc84f4b79733", "fusion_lon": 0.0}, {"rental_uris": {"ios": "https://dc.lft.to/lastmile_qr_scan", "android": "https://dc.lft.to/lastmile_qr_scan"}, "type": "electric_scooter", "name": "0d63106272eea5f4905f89bba08cc3f5", "is_reserved": 0, "lon": -77.06609383333333, "is_disabled": 0, "fusion_lat": 0.0, "lat": 38.91118316666667, "bike_id": "0d63106272eea5f4905f89bba08cc3f5", "fusion_lon": 0.0}, {"rental_uris": {"ios": "https://dc.lft.to/lastmile_qr_scan", "android": "https://dc.lft.to/lastmile_qr_scan"}, "type": "electric_scooter", "name": "2a9ac8a93ab257c94e1109b17f23c834", "is_reserved": 0, "lon": -77.05121666666666, "is_disabled": 0, "fusion_lat": 0.0, "lat": 38.92530133333333, "bike_id": "2a9ac8a93ab257c94e1109b17f23c834", "fusion_lon": 0.0}, {"rental_uris": {"ios": "https://dc.lft.to/lastmile_qr_scan", "android": "https://dc.lft.to/lastmile_qr_scan"}, "type": "electric_scooter", "name": "34fb161dc7d02d13b9c3cd2ef3e7f7df", "is_reserved": 0, "lon": -77.04670666666667, "is_disabled": 0, "fusion_lat": 0.0, "lat": 38.8928215, "bike_id": "34fb161dc7d02d13b9c3cd2ef3e7f7df", "fusion_lon": 0.0}, {"rental_uris": {"ios": "https://dc.lft.to/lastmile_qr_scan", "android": "https://dc.lft.to/lastmile_qr_scan"}, "type": "electric_scooter", "name": "17c075d1a0870e38754ef2ce846b2e5f", "is_reserved": 0, "lon": -77.0174985, "is_disabled": 0, "fusion_lat": 0.0, "lat": 38.9141935, "bike_id": "17c075d1a0870e38754ef2ce846b2e5f", "fusion_lon": 0.0}, {"rental_uris": {"ios": "https://dc.lft.to/lastmile_qr_scan", "android": "https://dc.lft.to/lastmile_qr_scan"}, "type": "electric_scooter", "name": "56b88310a5411010bb6298aa3182ddb1", "is_reserved": 0, "lon": -77.06853766666667, "is_disabled": 0, "fusion_lat": 0.0, "lat": 38.9527255, "bike_id": "56b88310a5411010bb6298aa3182ddb1", "fusion_lon": 0.0}, {"rental_uris": {"ios": "https://dc.lft.to/lastmile_qr_scan", "android": "https://dc.lft.to/lastmile_qr_scan"}, "type": "electric_scooter", "name": "ed18b27ce97df7628e0f158d2c5007a7", "is_reserved": 0, "lon": -77.04157333333333, "is_disabled": 0, "fusion_lat": 0.0, "lat": 38.91085233333333, "bike_id": "ed18b27ce97df7628e0f158d2c5007a7", "fusion_lon": 0.0}, {"rental_uris": {"ios": "https://dc.lft.to/lastmile_qr_scan", "android": "https://dc.lft.to/lastmile_qr_scan"}, "type": "electric_scooter", "name": "908ecb00edc02b8028f88c492ae0db07", "is_reserved": 0, "lon": -76.99486133333333, "is_disabled": 0, "fusion_lat": 0.0, "lat": 38.89975116666667, "bike_id": "908ecb00edc02b8028f88c492ae0db07", "fusion_lon": 0.0}, {"rental_uris": {"ios": "https://dc.lft.to/lastmile_qr_scan", "android": "https://dc.lft.to/lastmile_qr_scan"}, "type": "electric_scooter", "name": "af2ad616c6eabe8efe7f966ac9208413", "is_reserved": 0, "lon": -77.0386515, "is_disabled": 0, "fusion_lat": 0.0, "lat": 38.912649, "bike_id": "af2ad616c6eabe8efe7f966ac9208413", "fusion_lon": 0.0}, {"rental_uris": {"ios": "https://dc.lft.to/lastmile_qr_scan", "android": "https://dc.lft.to/lastmile_qr_scan"}, "type": "electric_bike", "name": "58b7de89e2bce21f48bd2116ddaadecb", "is_reserved": 0, "lon": -77.12840233333333, "is_disabled": 0, "fusion_lat": 0.0, "lat": 38.80057266666667, "bike_id": "58b7de89e2bce21f48bd2116ddaadecb", "fusion_lon": 0.0}, {"rental_uris": {"ios": "https://dc.lft.to/lastmile_qr_scan", "android": "https://dc.lft.to/lastmile_qr_scan"}, "type": "electric_scooter", "name": "185e91d3a0cbf477a1143449f4d2aeda", "is_reserved": 0, "lon": -77.0272805, "is_disabled": 0, "fusion_lat": 0.0, "lat": 38.934639, "bike_id": "185e91d3a0cbf477a1143449f4d2aeda", "fusion_lon": 0.0}, {"rental_uris": {"ios": "https://dc.lft.to/lastmile_qr_scan", "android": "https://dc.lft.to/lastmile_qr_scan"}, "type": "electric_scooter", "name": "4e1d533121eaa611210c3a474ecee74c", "is_reserved": 0, "lon": -77.01989733333333, "is_disabled": 0, "fusion_lat": 0.0, "lat": 38.8760775, "bike_id": "4e1d533121eaa611210c3a474ecee74c", "fusion_lon": 0.0}, {"rental_uris": {"ios": "https://dc.lft.to/lastmile_qr_scan", "android": "https://dc.lft.to/lastmile_qr_scan"}, "type": "electric_scooter", "name": "74f27b88bb4c765691277fa4cea49524", "is_reserved": 0, "lon": -77.00224083333333, "is_disabled": 0, "fusion_lat": 0.0, "lat": 38.9005665, "bike_id": "74f27b88bb4c765691277fa4cea49524", "fusion_lon": 0.0}, {"rental_uris": {"ios": "https://dc.lft.to/lastmile_qr_scan", "android": "https://dc.lft.to/lastmile_qr_scan"}, "type": "electric_scooter", "name": "619a7a56eff1bf6ee24f5dbc527642af", "is_reserved": 0, "lon": -77.047037, "is_disabled": 0, "fusion_lat": 0.0, "lat": 38.8960695, "bike_id": "619a7a56eff1bf6ee24f5dbc527642af", "fusion_lon": 0.0}, {"rental_uris": {"ios": "https://dc.lft.to/lastmile_qr_scan", "android": "https://dc.lft.to/lastmile_qr_scan"}, "type": "electric_scooter", "name": "596d2e97b16b0eadb8746a5e00d1bc0b", "is_reserved": 0, "lon": -77.02963366666667, "is_disabled": 0, "fusion_lat": 0.0, "lat": 38.90282466666667, "bike_id": "596d2e97b16b0eadb8746a5e00d1bc0b", "fusion_lon": 0.0}, {"rental_uris": {"ios": "https://dc.lft.to/lastmile_qr_scan", "android": "https://dc.lft.to/lastmile_qr_scan"}, "type": "electric_scooter", "name": "94b6eb9ad456e197d4ef62fdb8c2aca2", "is_reserved": 0, "lon": -76.99104933333334, "is_disabled": 0, "fusion_lat": 0.0, "lat": 38.90899066666667, "bike_id": "94b6eb9ad456e197d4ef62fdb8c2aca2", "fusion_lon": 0.0}, {"rental_uris": {"ios": "https://dc.lft.to/lastmile_qr_scan", "android": "https://dc.lft.to/lastmile_qr_scan"}, "type": "electric_scooter", "name": "7b085391ebe9a0e2fc09e3d563672a6f", "is_reserved": 0, "lon": -76.986592, "is_disabled": 0, "fusion_lat": 0.0, "lat": 38.906233666666665, "bike_id": "7b085391ebe9a0e2fc09e3d563672a6f", "fusion_lon": 0.0}, {"rental_uris": {"ios": "https://dc.lft.to/lastmile_qr_scan", "android": "https://dc.lft.to/lastmile_qr_scan"}, "type": "electric_scooter", "name": "8cfa04056f7776cccd186a2fbcb1d5cb", "is_reserved": 0, "lon": -77.03980033333333, "is_disabled": 0, "fusion_lat": 0.0, "lat": 38.90270983333333, "bike_id": "8cfa04056f7776cccd186a2fbcb1d5cb", "fusion_lon": 0.0}, {"rental_uris": {"ios": "https://dc.lft.to/lastmile_qr_scan", "android": "https://dc.lft.to/lastmile_qr_scan"}, "type": "electric_scooter", "name": "b1c3e206e759f36169261ec06b9daa9e", "is_reserved": 0, "lon": -77.05221816666666, "is_disabled": 0, "fusion_lat": 0.0, "lat": 38.90334516666667, "bike_id": "b1c3e206e759f36169261ec06b9daa9e", "fusion_lon": 0.0}, {"rental_uris": {"ios": "https://dc.lft.to/lastmile_qr_scan", "android": "https://dc.lft.to/lastmile_qr_scan"}, "type": "electric_scooter", "name": "ae493c34541e37b0e66e4fc36d2d1e66", "is_reserved": 0, "lon": -77.02319833333334, "is_disabled": 0, "fusion_lat": 0.0, "lat": 38.94014416666667, "bike_id": "ae493c34541e37b0e66e4fc36d2d1e66", "fusion_lon": 0.0}, {"rental_uris": {"ios": "https://dc.lft.to/lastmile_qr_scan", "android": "https://dc.lft.to/lastmile_qr_scan"}, "type": "electric_scooter", "name": "1609409d27b9e05a2c885099ade5e0f2", "is_reserved": 0, "lon": -77.012611, "is_disabled": 0, "fusion_lat": 0.0, "lat": 38.897209, "bike_id": "1609409d27b9e05a2c885099ade5e0f2", "fusion_lon": 0.0}, {"rental_uris": {"ios": "https://dc.lft.to/lastmile_qr_scan", "android": "https://dc.lft.to/lastmile_qr_scan"}, "type": "electric_scooter", "name": "f2423631c173522907fb77e855ce817a", "is_reserved": 0, "lon": -77.0721515, "is_disabled": 0, "fusion_lat": 0.0, "lat": 38.90689783333333, "bike_id": "f2423631c173522907fb77e855ce817a", "fusion_lon": 0.0}, {"rental_uris": {"ios": "https://dc.lft.to/lastmile_qr_scan", "android": "https://dc.lft.to/lastmile_qr_scan"}, "type": "electric_scooter", "name": "181300a4f1f020d0c19eb7966c3d1986", "is_reserved": 0, "lon": -76.9934385, "is_disabled": 0, "fusion_lat": 0.0, "lat": 38.876924333333335, "bike_id": "181300a4f1f020d0c19eb7966c3d1986", "fusion_lon": 0.0}, {"rental_uris": {"ios": "https://dc.lft.to/lastmile_qr_scan", "android": "https://dc.lft.to/lastmile_qr_scan"}, "type": "electric_bike", "name": "369313962835938647f2060a60919e86", "is_reserved": 0, "lon": -77.1135765, "is_disabled": 0, "fusion_lat": 0.0, "lat": 38.84198133333334, "bike_id": "369313962835938647f2060a60919e86", "fusion_lon": 0.0}, {"rental_uris": {"ios": "https://dc.lft.to/lastmile_qr_scan", "android": "https://dc.lft.to/lastmile_qr_scan"}, "type": "electric_scooter", "name": "cc09cdbf67c9c956eb8e4efa7e73a9b8", "is_reserved": 0, "lon": -76.93129716666667, "is_disabled": 0, "fusion_lat": 0.0, "lat": 38.87645466666667, "bike_id": "cc09cdbf67c9c956eb8e4efa7e73a9b8", "fusion_lon": 0.0}, {"rental_uris": {"ios": "https://dc.lft.to/lastmile_qr_scan", "android": "https://dc.lft.to/lastmile_qr_scan"}, "type": "electric_scooter", "name": "654b8c21447f0daddb0dc3e4f7d41e78", "is_reserved": 0, "lon": -77.0321485, "is_disabled": 0, "fusion_lat": 0.0, "lat": 38.90725366666667, "bike_id": "654b8c21447f0daddb0dc3e4f7d41e78", "fusion_lon": 0.0}, {"rental_uris": {"ios": "https://dc.lft.to/lastmile_qr_scan", "android": "https://dc.lft.to/lastmile_qr_scan"}, "type": "electric_scooter", "name": "ca2f3d79a68b809556fe3aa44af1d804", "is_reserved": 0, "lon": -77.00115, "is_disabled": 0, "fusion_lat": 0.0, "lat": 38.90840266666667, "bike_id": "ca2f3d79a68b809556fe3aa44af1d804", "fusion_lon": 0.0}, {"rental_uris": {"ios": "https://dc.lft.to/lastmile_qr_scan", "android": "https://dc.lft.to/lastmile_qr_scan"}, "type": "electric_scooter", "name": "47acdcef88c5ed2eb6bab7f69fefcf66", "is_reserved": 0, "lon": -77.00518516666666, "is_disabled": 0, "fusion_lat": 0.0, "lat": 38.879251333333336, "bike_id": "47acdcef88c5ed2eb6bab7f69fefcf66", "fusion_lon": 0.0}, {"rental_uris": {"ios": "https://dc.lft.to/lastmile_qr_scan", "android": "https://dc.lft.to/lastmile_qr_scan"}, "type": "electric_scooter", "name": "21ad3b1ba64cdf48938f4d5a90b1c7bf", "is_reserved": 0, "lon": -77.03288566666667, "is_disabled": 0, "fusion_lat": 0.0, "lat": 38.932618833333336, "bike_id": "21ad3b1ba64cdf48938f4d5a90b1c7bf", "fusion_lon": 0.0}, {"rental_uris": {"ios": "https://dc.lft.to/lastmile_qr_scan", "android": "https://dc.lft.to/lastmile_qr_scan"}, "type": "electric_scooter", "name": "3848392302bcda603f7fd3689f3b4d26", "is_reserved": 0, "lon": -76.97378716666667, "is_disabled": 0, "fusion_lat": 0.0, "lat": 38.8499595, "bike_id": "3848392302bcda603f7fd3689f3b4d26", "fusion_lon": 0.0}, {"rental_uris": {"ios": "https://dc.lft.to/lastmile_qr_scan", "android": "https://dc.lft.to/lastmile_qr_scan"}, "type": "electric_bike", "name": "870dac6bdc00b7cfc340d81aa7be7ac2", "is_reserved": 0, "lon": -77.04314833333333, "is_disabled": 0, "fusion_lat": 0.0, "lat": 39.0342845, "bike_id": "870dac6bdc00b7cfc340d81aa7be7ac2", "fusion_lon": 0.0}, {"rental_uris": {"ios": "https://dc.lft.to/lastmile_qr_scan", "android": "https://dc.lft.to/lastmile_qr_scan"}, "type": "electric_scooter", "name": "8c3fcdd1d33fd1f86c4d5cf1e4163646", "is_reserved": 0, "lon": -77.0448425, "is_disabled": 0, "fusion_lat": 0.0, "lat": 38.9078745, "bike_id": "8c3fcdd1d33fd1f86c4d5cf1e4163646", "fusion_lon": 0.0}, {"rental_uris": {"ios": "https://dc.lft.to/lastmile_qr_scan", "android": "https://dc.lft.to/lastmile_qr_scan"}, "type": "electric_scooter", "name": "71882a3c51fb7b301652a06334f22a3b", "is_reserved": 0, "lon": -77.03642883333333, "is_disabled": 0, "fusion_lat": 0.0, "lat": 38.918332, "bike_id": "71882a3c51fb7b301652a06334f22a3b", "fusion_lon": 0.0}, {"rental_uris": {"ios": "https://dc.lft.to/lastmile_qr_scan", "android": "https://dc.lft.to/lastmile_qr_scan"}, "type": "electric_scooter", "name": "625049b880caca838a5e4c8cbaf17348", "is_reserved": 0, "lon": -76.98112016666667, "is_disabled": 0, "fusion_lat": 0.0, "lat": 38.9025555, "bike_id": "625049b880caca838a5e4c8cbaf17348", "fusion_lon": 0.0}, {"rental_uris": {"ios": "https://dc.lft.to/lastmile_qr_scan", "android": "https://dc.lft.to/lastmile_qr_scan"}, "type": "electric_scooter", "name": "472412f6a1342e90114a170af0b97b7c", "is_reserved": 0, "lon": -77.002107, "is_disabled": 0, "fusion_lat": 0.0, "lat": 38.914633, "bike_id": "472412f6a1342e90114a170af0b97b7c", "fusion_lon": 0.0}, {"rental_uris": {"ios": "https://dc.lft.to/lastmile_qr_scan", "android": "https://dc.lft.to/lastmile_qr_scan"}, "type": "electric_scooter", "name": "2a2eb25d502bba5f3906b847ab78ecbc", "is_reserved": 0, "lon": -77.074534, "is_disabled": 0, "fusion_lat": 0.0, "lat": 38.93785166666667, "bike_id": "2a2eb25d502bba5f3906b847ab78ecbc", "fusion_lon": 0.0}, {"rental_uris": {"ios": "https://dc.lft.to/lastmile_qr_scan", "android": "https://dc.lft.to/lastmile_qr_scan"}, "type": "electric_scooter", "name": "59a2c60dc5ffeb5e4dc5cae932c73c43", "is_reserved": 0, "lon": -77.010213, "is_disabled": 0, "fusion_lat": 0.0, "lat": 38.906428166666664, "bike_id": "59a2c60dc5ffeb5e4dc5cae932c73c43", "fusion_lon": 0.0}, {"rental_uris": {"ios": "https://dc.lft.to/lastmile_qr_scan", "android": "https://dc.lft.to/lastmile_qr_scan"}, "type": "electric_scooter", "name": "86badd4452e2eb75cbd20c0e7cf004f1", "is_reserved": 0, "lon": -77.01776783333334, "is_disabled": 0, "fusion_lat": 0.0, "lat": 38.900353833333334, "bike_id": "86badd4452e2eb75cbd20c0e7cf004f1", "fusion_lon": 0.0}, {"rental_uris": {"ios": "https://dc.lft.to/lastmile_qr_scan", "android": "https://dc.lft.to/lastmile_qr_scan"}, "type": "electric_scooter", "name": "80157c09908b872ddd3de6156d4ebd3b", "is_reserved": 0, "lon": -77.04002166666666, "is_disabled": 0, "fusion_lat": 0.0, "lat": 38.91816133333333, "bike_id": "80157c09908b872ddd3de6156d4ebd3b", "fusion_lon": 0.0}, {"rental_uris": {"ios": "https://dc.lft.to/lastmile_qr_scan", "android": "https://dc.lft.to/lastmile_qr_scan"}, "type": "electric_scooter", "name": "71ca61086db3321efd95018d9079bc43", "is_reserved": 0, "lon": -77.04607516666667, "is_disabled": 0, "fusion_lat": 0.0, "lat": 38.920636, "bike_id": "71ca61086db3321efd95018d9079bc43", "fusion_lon": 0.0}, {"rental_uris": {"ios": "https://dc.lft.to/lastmile_qr_scan", "android": "https://dc.lft.to/lastmile_qr_scan"}, "type": "electric_scooter", "name": "4cf9dd2dcf8858fcfca2ff47a551ec4d", "is_reserved": 0, "lon": -77.0334495, "is_disabled": 0, "fusion_lat": 0.0, "lat": 38.899655833333334, "bike_id": "4cf9dd2dcf8858fcfca2ff47a551ec4d", "fusion_lon": 0.0}, {"rental_uris": {"ios": "https://dc.lft.to/lastmile_qr_scan", "android": "https://dc.lft.to/lastmile_qr_scan"}, "type": "electric_scooter", "name": "398a6357153b1222cd5f19088e6bae40", "is_reserved": 0, "lon": -77.002802, "is_disabled": 0, "fusion_lat": 0.0, "lat": 38.87715333333333, "bike_id": "398a6357153b1222cd5f19088e6bae40", "fusion_lon": 0.0}, {"rental_uris": {"ios": "https://dc.lft.to/lastmile_qr_scan", "android": "https://dc.lft.to/lastmile_qr_scan"}, "type": "electric_scooter", "name": "ebefe792de1cd48f131b294e341ce0c5", "is_reserved": 0, "lon": -77.0395565, "is_disabled": 0, "fusion_lat": 0.0, "lat": 38.898301833333335, "bike_id": "ebefe792de1cd48f131b294e341ce0c5", "fusion_lon": 0.0}, {"rental_uris": {"ios": "https://dc.lft.to/lastmile_qr_scan", "android": "https://dc.lft.to/lastmile_qr_scan"}, "type": "electric_scooter", "name": "ea0dd3fa40c0c2231a74ec03521d2628", "is_reserved": 0, "lon": -77.08402916666667, "is_disabled": 0, "fusion_lat": 0.0, "lat": 38.908085, "bike_id": "ea0dd3fa40c0c2231a74ec03521d2628", "fusion_lon": 0.0}, {"rental_uris": {"ios": "https://dc.lft.to/lastmile_qr_scan", "android": "https://dc.lft.to/lastmile_qr_scan"}, "type": "electric_bike", "name": "3f6b33ad790cd9e4df60fa9d93404c1e", "is_reserved": 0, "lon": -77.00759166666667, "is_disabled": 0, "fusion_lat": 0.0, "lat": 38.99785966666666, "bike_id": "3f6b33ad790cd9e4df60fa9d93404c1e", "fusion_lon": 0.0}, {"rental_uris": {"ios": "https://dc.lft.to/lastmile_qr_scan", "android": "https://dc.lft.to/lastmile_qr_scan"}, "type": "electric_bike", "name": "6026573bed7ae9c99a62e01a20413fc5", "is_reserved": 0, "lon": -76.94546483333333, "is_disabled": 0, "fusion_lat": 0.0, "lat": 38.9830375, "bike_id": "6026573bed7ae9c99a62e01a20413fc5", "fusion_lon": 0.0}, {"rental_uris": {"ios": "https://dc.lft.to/lastmile_qr_scan", "android": "https://dc.lft.to/lastmile_qr_scan"}, "type": "electric_scooter", "name": "9d39c17f379cc8ed4e45f5f6411b420d", "is_reserved": 0, "lon": -77.00073866666666, "is_disabled": 0, "fusion_lat": 0.0, "lat": 38.8768905, "bike_id": "9d39c17f379cc8ed4e45f5f6411b420d", "fusion_lon": 0.0}, {"rental_uris": {"ios": "https://dc.lft.to/lastmile_qr_scan", "android": "https://dc.lft.to/lastmile_qr_scan"}, "type": "electric_bike", "name": "6112e532b6ed6b6b622ef4312216f87e", "is_reserved": 0, "lon": -76.95242966666666, "is_disabled": 0, "fusion_lat": 0.0, "lat": 38.884707, "bike_id": "6112e532b6ed6b6b622ef4312216f87e", "fusion_lon": 0.0}, {"rental_uris": {"ios": "https://dc.lft.to/lastmile_qr_scan", "android": "https://dc.lft.to/lastmile_qr_scan"}, "type": "electric_scooter", "name": "b46cfd4cc9dc8344ec3f940e315efc4e", "is_reserved": 0, "lon": -77.0389225, "is_disabled": 0, "fusion_lat": 0.0, "lat": 38.92246683333333, "bike_id": "b46cfd4cc9dc8344ec3f940e315efc4e", "fusion_lon": 0.0}, {"rental_uris": {"ios": "https://dc.lft.to/lastmile_qr_scan", "android": "https://dc.lft.to/lastmile_qr_scan"}, "type": "electric_scooter", "name": "952853b35e1cf95d6282efc75e8279b4", "is_reserved": 0, "lon": -77.044621, "is_disabled": 0, "fusion_lat": 0.0, "lat": 38.924802666666665, "bike_id": "952853b35e1cf95d6282efc75e8279b4", "fusion_lon": 0.0}, {"rental_uris": {"ios": "https://dc.lft.to/lastmile_qr_scan", "android": "https://dc.lft.to/lastmile_qr_scan"}, "type": "electric_bike", "name": "000901c04821f0e9c200a98a7a0cd424", "is_reserved": 0, "lon": -76.98772833333334, "is_disabled": 0, "fusion_lat": 0.0, "lat": 38.85772083333333, "bike_id": "000901c04821f0e9c200a98a7a0cd424", "fusion_lon": 0.0}, {"rental_uris": {"ios": "https://dc.lft.to/lastmile_qr_scan", "android": "https://dc.lft.to/lastmile_qr_scan"}, "type": "electric_scooter", "name": "f57f8f610f1627c14d0574a0118f168f", "is_reserved": 0, "lon": -77.03437216666667, "is_disabled": 0, "fusion_lat": 0.0, "lat": 38.90844933333333, "bike_id": "f57f8f610f1627c14d0574a0118f168f", "fusion_lon": 0.0}, {"rental_uris": {"ios": "https://dc.lft.to/lastmile_qr_scan", "android": "https://dc.lft.to/lastmile_qr_scan"}, "type": "electric_scooter", "name": "6d69049f9aeeb37ac1ca4d0ca9111701", "is_reserved": 0, "lon": -77.04842433333333, "is_disabled": 0, "fusion_lat": 0.0, "lat": 38.90976333333333, "bike_id": "6d69049f9aeeb37ac1ca4d0ca9111701", "fusion_lon": 0.0}, {"rental_uris": {"ios": "https://dc.lft.to/lastmile_qr_scan", "android": "https://dc.lft.to/lastmile_qr_scan"}, "type": "electric_scooter", "name": "6ee45e85f3c43355b7a4271a57713947", "is_reserved": 0, "lon": -77.03191633333333, "is_disabled": 0, "fusion_lat": 0.0, "lat": 38.894671, "bike_id": "6ee45e85f3c43355b7a4271a57713947", "fusion_lon": 0.0}, {"rental_uris": {"ios": "https://dc.lft.to/lastmile_qr_scan", "android": "https://dc.lft.to/lastmile_qr_scan"}, "type": "electric_scooter", "name": "b562ecfa81aa8bc228fa9ae447b8581a", "is_reserved": 0, "lon": -77.04872, "is_disabled": 0, "fusion_lat": 0.0, "lat": 38.906588, "bike_id": "b562ecfa81aa8bc228fa9ae447b8581a", "fusion_lon": 0.0}, {"rental_uris": {"ios": "https://dc.lft.to/lastmile_qr_scan", "android": "https://dc.lft.to/lastmile_qr_scan"}, "type": "electric_bike", "name": "55a81b4e892b28b154c492322f79a0a6", "is_reserved": 0, "lon": -76.9453655, "is_disabled": 0, "fusion_lat": 0.0, "lat": 38.867567333333334, "bike_id": "55a81b4e892b28b154c492322f79a0a6", "fusion_lon": 0.0}, {"rental_uris": {"ios": "https://dc.lft.to/lastmile_qr_scan", "android": "https://dc.lft.to/lastmile_qr_scan"}, "type": "electric_scooter", "name": "4e305ec1be1cd6cfffde8def8de750ea", "is_reserved": 0, "lon": -77.023669, "is_disabled": 0, "fusion_lat": 0.0, "lat": 38.902199, "bike_id": "4e305ec1be1cd6cfffde8def8de750ea", "fusion_lon": 0.0}, {"rental_uris": {"ios": "https://dc.lft.to/lastmile_qr_scan", "android": "https://dc.lft.to/lastmile_qr_scan"}, "type": "electric_bike", "name": "84e0297aa993966c0295f89258071068", "is_reserved": 0, "lon": -77.01741016666666, "is_disabled": 0, "fusion_lat": 0.0, "lat": 38.94606, "bike_id": "84e0297aa993966c0295f89258071068", "fusion_lon": 0.0}, {"rental_uris": {"ios": "https://dc.lft.to/lastmile_qr_scan", "android": "https://dc.lft.to/lastmile_qr_scan"}, "type": "electric_scooter", "name": "98a6844d923f52a8e5827569961e291a", "is_reserved": 0, "lon": -77.03734916666667, "is_disabled": 0, "fusion_lat": 0.0, "lat": 38.92648166666667, "bike_id": "98a6844d923f52a8e5827569961e291a", "fusion_lon": 0.0}, {"rental_uris": {"ios": "https://dc.lft.to/lastmile_qr_scan", "android": "https://dc.lft.to/lastmile_qr_scan"}, "type": "electric_scooter", "name": "4fc4f31b6d3c49a71edcb1e22c07c503", "is_reserved": 0, "lon": -77.0270745, "is_disabled": 0, "fusion_lat": 0.0, "lat": 38.8957175, "bike_id": "4fc4f31b6d3c49a71edcb1e22c07c503", "fusion_lon": 0.0}, {"rental_uris": {"ios": "https://dc.lft.to/lastmile_qr_scan", "android": "https://dc.lft.to/lastmile_qr_scan"}, "type": "electric_scooter", "name": "61bf3748403ed7699f2f8855b0aabd6a", "is_reserved": 0, "lon": -77.03560966666667, "is_disabled": 0, "fusion_lat": 0.0, "lat": 38.92743733333333, "bike_id": "61bf3748403ed7699f2f8855b0aabd6a", "fusion_lon": 0.0}, {"rental_uris": {"ios": "https://dc.lft.to/lastmile_qr_scan", "android": "https://dc.lft.to/lastmile_qr_scan"}, "type": "electric_scooter", "name": "26038198ba48898b31f7133305148045", "is_reserved": 0, "lon": -76.9854495, "is_disabled": 0, "fusion_lat": 0.0, "lat": 38.87973, "bike_id": "26038198ba48898b31f7133305148045", "fusion_lon": 0.0}, {"rental_uris": {"ios": "https://dc.lft.to/lastmile_qr_scan", "android": "https://dc.lft.to/lastmile_qr_scan"}, "type": "electric_scooter", "name": "6c224bde5d9dcb5eb448417dd5c9ef90", "is_reserved": 0, "lon": -77.0238175, "is_disabled": 0, "fusion_lat": 0.0, "lat": 38.90311233333333, "bike_id": "6c224bde5d9dcb5eb448417dd5c9ef90", "fusion_lon": 0.0}, {"rental_uris": {"ios": "https://dc.lft.to/lastmile_qr_scan", "android": "https://dc.lft.to/lastmile_qr_scan"}, "type": "electric_scooter", "name": "27f35dd89e981ec8b691f05089801f88", "is_reserved": 0, "lon": -77.0189565, "is_disabled": 0, "fusion_lat": 0.0, "lat": 38.87481, "bike_id": "27f35dd89e981ec8b691f05089801f88", "fusion_lon": 0.0}, {"rental_uris": {"ios": "https://dc.lft.to/lastmile_qr_scan", "android": "https://dc.lft.to/lastmile_qr_scan"}, "type": "electric_scooter", "name": "abc5d44112aff4ac03c7b8b49c42fd3a", "is_reserved": 0, "lon": -77.040016, "is_disabled": 0, "fusion_lat": 0.0, "lat": 38.934295166666665, "bike_id": "abc5d44112aff4ac03c7b8b49c42fd3a", "fusion_lon": 0.0}, {"rental_uris": {"ios": "https://dc.lft.to/lastmile_qr_scan", "android": "https://dc.lft.to/lastmile_qr_scan"}, "type": "electric_scooter", "name": "0c5502619fc7cda6ceb13be8d4e28776", "is_reserved": 0, "lon": -77.0531665, "is_disabled": 0, "fusion_lat": 0.0, "lat": 38.94101783333333, "bike_id": "0c5502619fc7cda6ceb13be8d4e28776", "fusion_lon": 0.0}, {"rental_uris": {"ios": "https://dc.lft.to/lastmile_qr_scan", "android": "https://dc.lft.to/lastmile_qr_scan"}, "type": "electric_bike", "name": "ea3b8a85c9553c12604aac6bc8bd494f", "is_reserved": 0, "lon": -76.968866, "is_disabled": 0, "fusion_lat": 0.0, "lat": 38.86987883333333, "bike_id": "ea3b8a85c9553c12604aac6bc8bd494f", "fusion_lon": 0.0}, {"rental_uris": {"ios": "https://dc.lft.to/lastmile_qr_scan", "android": "https://dc.lft.to/lastmile_qr_scan"}, "type": "electric_scooter", "name": "a5b8a198b0af4663f6b6c0fa56394684", "is_reserved": 0, "lon": -77.06718716666667, "is_disabled": 0, "fusion_lat": 0.0, "lat": 38.91453583333333, "bike_id": "a5b8a198b0af4663f6b6c0fa56394684", "fusion_lon": 0.0}, {"rental_uris": {"ios": "https://dc.lft.to/lastmile_qr_scan", "android": "https://dc.lft.to/lastmile_qr_scan"}, "type": "electric_scooter", "name": "672c58102889c29f5ea45d957022b444", "is_reserved": 0, "lon": -77.02081033333333, "is_disabled": 0, "fusion_lat": 0.0, "lat": 38.91260283333333, "bike_id": "672c58102889c29f5ea45d957022b444", "fusion_lon": 0.0}, {"rental_uris": {"ios": "https://dc.lft.to/lastmile_qr_scan", "android": "https://dc.lft.to/lastmile_qr_scan"}, "type": "electric_bike", "name": "11e05314250c061ba6fda01ed5fd1318", "is_reserved": 0, "lon": -77.12887666666667, "is_disabled": 0, "fusion_lat": 0.0, "lat": 38.906007833333334, "bike_id": "11e05314250c061ba6fda01ed5fd1318", "fusion_lon": 0.0}, {"rental_uris": {"ios": "https://dc.lft.to/lastmile_qr_scan", "android": "https://dc.lft.to/lastmile_qr_scan"}, "type": "electric_scooter", "name": "b9e394bd3221395752d7d26c1d80447d", "is_reserved": 0, "lon": -76.9914255, "is_disabled": 0, "fusion_lat": 0.0, "lat": 38.873396, "bike_id": "b9e394bd3221395752d7d26c1d80447d", "fusion_lon": 0.0}, {"rental_uris": {"ios": "https://dc.lft.to/lastmile_qr_scan", "android": "https://dc.lft.to/lastmile_qr_scan"}, "type": "electric_scooter", "name": "81a8781d6d750abe9c3dbe79e8f3b8d6", "is_reserved": 0, "lon": -77.06386266666667, "is_disabled": 0, "fusion_lat": 0.0, "lat": 38.908621833333335, "bike_id": "81a8781d6d750abe9c3dbe79e8f3b8d6", "fusion_lon": 0.0}, {"rental_uris": {"ios": "https://dc.lft.to/lastmile_qr_scan", "android": "https://dc.lft.to/lastmile_qr_scan"}, "type": "electric_scooter", "name": "8f37134907210d42e476880455dd606d", "is_reserved": 0, "lon": -77.02466983333333, "is_disabled": 0, "fusion_lat": 0.0, "lat": 38.90326816666666, "bike_id": "8f37134907210d42e476880455dd606d", "fusion_lon": 0.0}, {"rental_uris": {"ios": "https://dc.lft.to/lastmile_qr_scan", "android": "https://dc.lft.to/lastmile_qr_scan"}, "type": "electric_scooter", "name": "79fcfa491631e179a1e249d53373e2fd", "is_reserved": 0, "lon": -77.02182083333334, "is_disabled": 0, "fusion_lat": 0.0, "lat": 38.928332833333336, "bike_id": "79fcfa491631e179a1e249d53373e2fd", "fusion_lon": 0.0}, {"rental_uris": {"ios": "https://dc.lft.to/lastmile_qr_scan", "android": "https://dc.lft.to/lastmile_qr_scan"}, "type": "electric_scooter", "name": "e46cbc1674748228bf497045be534248", "is_reserved": 0, "lon": -77.03847183333333, "is_disabled": 0, "fusion_lat": 0.0, "lat": 38.9084195, "bike_id": "e46cbc1674748228bf497045be534248", "fusion_lon": 0.0}, {"rental_uris": {"ios": "https://dc.lft.to/lastmile_qr_scan", "android": "https://dc.lft.to/lastmile_qr_scan"}, "type": "electric_scooter", "name": "d22b72b2d5b4539f253292c18a76d0b7", "is_reserved": 0, "lon": -77.02073633333333, "is_disabled": 0, "fusion_lat": 0.0, "lat": 38.93023683333333, "bike_id": "d22b72b2d5b4539f253292c18a76d0b7", "fusion_lon": 0.0}, {"rental_uris": {"ios": "https://dc.lft.to/lastmile_qr_scan", "android": "https://dc.lft.to/lastmile_qr_scan"}, "type": "electric_scooter", "name": "90c13cbe894316cef928d6c00da2a884", "is_reserved": 0, "lon": -77.02096116666667, "is_disabled": 0, "fusion_lat": 0.0, "lat": 38.93120716666667, "bike_id": "90c13cbe894316cef928d6c00da2a884", "fusion_lon": 0.0}, {"rental_uris": {"ios": "https://dc.lft.to/lastmile_qr_scan", "android": "https://dc.lft.to/lastmile_qr_scan"}, "type": "electric_bike", "name": "afdabd95bb5b9112167a29e2e6024e72", "is_reserved": 0, "lon": -77.00379333333333, "is_disabled": 0, "fusion_lat": 0.0, "lat": 38.8360715, "bike_id": "afdabd95bb5b9112167a29e2e6024e72", "fusion_lon": 0.0}, {"rental_uris": {"ios": "https://dc.lft.to/lastmile_qr_scan", "android": "https://dc.lft.to/lastmile_qr_scan"}, "type": "electric_scooter", "name": "b065bfdd5ffcf085d962a9da5d8d9d02", "is_reserved": 0, "lon": -77.0283675, "is_disabled": 0, "fusion_lat": 0.0, "lat": 38.8873715, "bike_id": "b065bfdd5ffcf085d962a9da5d8d9d02", "fusion_lon": 0.0}, {"rental_uris": {"ios": "https://dc.lft.to/lastmile_qr_scan", "android": "https://dc.lft.to/lastmile_qr_scan"}, "type": "electric_scooter", "name": "f5366a5c2bb7f1b85927967d0ba356df", "is_reserved": 0, "lon": -77.0021315, "is_disabled": 0, "fusion_lat": 0.0, "lat": 38.9076475, "bike_id": "f5366a5c2bb7f1b85927967d0ba356df", "fusion_lon": 0.0}, {"rental_uris": {"ios": "https://dc.lft.to/lastmile_qr_scan", "android": "https://dc.lft.to/lastmile_qr_scan"}, "type": "electric_bike", "name": "9bdfadd41b3746a079a41de82a1f5ab3", "is_reserved": 0, "lon": -76.9631855, "is_disabled": 0, "fusion_lat": 0.0, "lat": 38.938934, "bike_id": "9bdfadd41b3746a079a41de82a1f5ab3", "fusion_lon": 0.0}, {"rental_uris": {"ios": "https://dc.lft.to/lastmile_qr_scan", "android": "https://dc.lft.to/lastmile_qr_scan"}, "type": "electric_scooter", "name": "3dd2a850e5cfa44f95acb7f26d3f02a7", "is_reserved": 0, "lon": -77.02743383333333, "is_disabled": 0, "fusion_lat": 0.0, "lat": 38.92970316666667, "bike_id": "3dd2a850e5cfa44f95acb7f26d3f02a7", "fusion_lon": 0.0}, {"rental_uris": {"ios": "https://dc.lft.to/lastmile_qr_scan", "android": "https://dc.lft.to/lastmile_qr_scan"}, "type": "electric_scooter", "name": "61e4e82e86a4aa39c6eed8fce942fd08", "is_reserved": 0, "lon": -77.04120866666666, "is_disabled": 0, "fusion_lat": 0.0, "lat": 38.9340145, "bike_id": "61e4e82e86a4aa39c6eed8fce942fd08", "fusion_lon": 0.0}, {"rental_uris": {"ios": "https://dc.lft.to/lastmile_qr_scan", "android": "https://dc.lft.to/lastmile_qr_scan"}, "type": "electric_bike", "name": "0e0ed68c534375b070090ee07f3cef7c", "is_reserved": 0, "lon": -77.08137466666666, "is_disabled": 0, "fusion_lat": 0.0, "lat": 38.8230335, "bike_id": "0e0ed68c534375b070090ee07f3cef7c", "fusion_lon": 0.0}, {"rental_uris": {"ios": "https://dc.lft.to/lastmile_qr_scan", "android": "https://dc.lft.to/lastmile_qr_scan"}, "type": "electric_scooter", "name": "92fe9cd0624bdae326b4abab788901c1", "is_reserved": 0, "lon": -77.01645433333333, "is_disabled": 0, "fusion_lat": 0.0, "lat": 38.90275783333333, "bike_id": "92fe9cd0624bdae326b4abab788901c1", "fusion_lon": 0.0}, {"rental_uris": {"ios": "https://dc.lft.to/lastmile_qr_scan", "android": "https://dc.lft.to/lastmile_qr_scan"}, "type": "electric_scooter", "name": "6fe4fe1221e1b2ac1cbe50e9b7b65773", "is_reserved": 0, "lon": -77.03463833333333, "is_disabled": 0, "fusion_lat": 0.0, "lat": 38.90801616666667, "bike_id": "6fe4fe1221e1b2ac1cbe50e9b7b65773", "fusion_lon": 0.0}, {"rental_uris": {"ios": "https://dc.lft.to/lastmile_qr_scan", "android": "https://dc.lft.to/lastmile_qr_scan"}, "type": "electric_scooter", "name": "9b7236602fe4d370c891ba27d84dd73f", "is_reserved": 0, "lon": -76.99964, "is_disabled": 0, "fusion_lat": 0.0, "lat": 38.90855216666667, "bike_id": "9b7236602fe4d370c891ba27d84dd73f", "fusion_lon": 0.0}, {"rental_uris": {"ios": "https://dc.lft.to/lastmile_qr_scan", "android": "https://dc.lft.to/lastmile_qr_scan"}, "type": "electric_scooter", "name": "dd14218e10176566258ee7e227d86b9a", "is_reserved": 0, "lon": -77.04511116666667, "is_disabled": 0, "fusion_lat": 0.0, "lat": 38.907906, "bike_id": "dd14218e10176566258ee7e227d86b9a", "fusion_lon": 0.0}, {"rental_uris": {"ios": "https://dc.lft.to/lastmile_qr_scan", "android": "https://dc.lft.to/lastmile_qr_scan"}, "type": "electric_scooter", "name": "f23b6888a8acdabb5d4723dca98ac4a6", "is_reserved": 0, "lon": -77.03129933333334, "is_disabled": 0, "fusion_lat": 0.0, "lat": 38.913383, "bike_id": "f23b6888a8acdabb5d4723dca98ac4a6", "fusion_lon": 0.0}, {"rental_uris": {"ios": "https://dc.lft.to/lastmile_qr_scan", "android": "https://dc.lft.to/lastmile_qr_scan"}, "type": "electric_bike", "name": "b218173788e3a56ee6dbce250bdfbd4b", "is_reserved": 0, "lon": -76.960872, "is_disabled": 0, "fusion_lat": 0.0, "lat": 38.9185775, "bike_id": "b218173788e3a56ee6dbce250bdfbd4b", "fusion_lon": 0.0}, {"rental_uris": {"ios": "https://dc.lft.to/lastmile_qr_scan", "android": "https://dc.lft.to/lastmile_qr_scan"}, "type": "electric_scooter", "name": "5d725e21309774d006abb4d437a48926", "is_reserved": 0, "lon": -77.04467516666666, "is_disabled": 0, "fusion_lat": 0.0, "lat": 38.90139516666667, "bike_id": "5d725e21309774d006abb4d437a48926", "fusion_lon": 0.0}, {"rental_uris": {"ios": "https://dc.lft.to/lastmile_qr_scan", "android": "https://dc.lft.to/lastmile_qr_scan"}, "type": "electric_bike", "name": "2cb1a86f8dfffd6047c1b1542ac7014f", "is_reserved": 0, "lon": -77.077543, "is_disabled": 0, "fusion_lat": 0.0, "lat": 38.8419465, "bike_id": "2cb1a86f8dfffd6047c1b1542ac7014f", "fusion_lon": 0.0}, {"rental_uris": {"ios": "https://dc.lft.to/lastmile_qr_scan", "android": "https://dc.lft.to/lastmile_qr_scan"}, "type": "electric_scooter", "name": "4f5e4d72d5dd944816db440d410b576e", "is_reserved": 0, "lon": -77.03633383333333, "is_disabled": 0, "fusion_lat": 0.0, "lat": 38.91651183333333, "bike_id": "4f5e4d72d5dd944816db440d410b576e", "fusion_lon": 0.0}, {"rental_uris": {"ios": "https://dc.lft.to/lastmile_qr_scan", "android": "https://dc.lft.to/lastmile_qr_scan"}, "type": "electric_scooter", "name": "efc075775d5d2d800df0f77ff31d391a", "is_reserved": 0, "lon": -77.00525966666666, "is_disabled": 0, "fusion_lat": 0.0, "lat": 38.87936166666667, "bike_id": "efc075775d5d2d800df0f77ff31d391a", "fusion_lon": 0.0}, {"rental_uris": {"ios": "https://dc.lft.to/lastmile_qr_scan", "android": "https://dc.lft.to/lastmile_qr_scan"}, "type": "electric_scooter", "name": "76f4f9c9b7c438ba2663e099103bdb5a", "is_reserved": 0, "lon": -77.02559483333333, "is_disabled": 0, "fusion_lat": 0.0, "lat": 38.95395416666667, "bike_id": "76f4f9c9b7c438ba2663e099103bdb5a", "fusion_lon": 0.0}, {"rental_uris": {"ios": "https://dc.lft.to/lastmile_qr_scan", "android": "https://dc.lft.to/lastmile_qr_scan"}, "type": "electric_scooter", "name": "fd0c2fc4464333cd306fd46f9764054c", "is_reserved": 0, "lon": -76.99246283333333, "is_disabled": 0, "fusion_lat": 0.0, "lat": 38.940662333333336, "bike_id": "fd0c2fc4464333cd306fd46f9764054c", "fusion_lon": 0.0}, {"rental_uris": {"ios": "https://dc.lft.to/lastmile_qr_scan", "android": "https://dc.lft.to/lastmile_qr_scan"}, "type": "electric_bike", "name": "88906903c0028ee213d78be702a7fae5", "is_reserved": 0, "lon": -76.97314016666667, "is_disabled": 0, "fusion_lat": 0.0, "lat": 38.917635833333335, "bike_id": "88906903c0028ee213d78be702a7fae5", "fusion_lon": 0.0}, {"rental_uris": {"ios": "https://dc.lft.to/lastmile_qr_scan", "android": "https://dc.lft.to/lastmile_qr_scan"}, "type": "electric_scooter", "name": "32be44f780452fde1e7345eac874a781", "is_reserved": 0, "lon": -77.001014, "is_disabled": 0, "fusion_lat": 0.0, "lat": 38.919645333333335, "bike_id": "32be44f780452fde1e7345eac874a781", "fusion_lon": 0.0}, {"rental_uris": {"ios": "https://dc.lft.to/lastmile_qr_scan", "android": "https://dc.lft.to/lastmile_qr_scan"}, "type": "electric_scooter", "name": "83e32af658512b3e0cb924e068121cd3", "is_reserved": 0, "lon": -77.02112066666666, "is_disabled": 0, "fusion_lat": 0.0, "lat": 38.90602666666667, "bike_id": "83e32af658512b3e0cb924e068121cd3", "fusion_lon": 0.0}, {"rental_uris": {"ios": "https://dc.lft.to/lastmile_qr_scan", "android": "https://dc.lft.to/lastmile_qr_scan"}, "type": "electric_scooter", "name": "922f6aac9311828afe30b79db40eaeeb", "is_reserved": 0, "lon": -77.02122416666667, "is_disabled": 0, "fusion_lat": 0.0, "lat": 38.924059666666665, "bike_id": "922f6aac9311828afe30b79db40eaeeb", "fusion_lon": 0.0}, {"rental_uris": {"ios": "https://dc.lft.to/lastmile_qr_scan", "android": "https://dc.lft.to/lastmile_qr_scan"}, "type": "electric_scooter", "name": "7ac424e1a4b173b2ad8d081439bb56c8", "is_reserved": 0, "lon": -77.061241, "is_disabled": 0, "fusion_lat": 0.0, "lat": 38.9044265, "bike_id": "7ac424e1a4b173b2ad8d081439bb56c8", "fusion_lon": 0.0}, {"rental_uris": {"ios": "https://dc.lft.to/lastmile_qr_scan", "android": "https://dc.lft.to/lastmile_qr_scan"}, "type": "electric_scooter", "name": "683790e9792d82ccbed48b9339acacf0", "is_reserved": 0, "lon": -76.988414, "is_disabled": 0, "fusion_lat": 0.0, "lat": 38.8429555, "bike_id": "683790e9792d82ccbed48b9339acacf0", "fusion_lon": 0.0}, {"rental_uris": {"ios": "https://dc.lft.to/lastmile_qr_scan", "android": "https://dc.lft.to/lastmile_qr_scan"}, "type": "electric_scooter", "name": "4d7416c2909384ec415b501c2f926e44", "is_reserved": 0, "lon": -77.02686916666667, "is_disabled": 0, "fusion_lat": 0.0, "lat": 38.92576833333333, "bike_id": "4d7416c2909384ec415b501c2f926e44", "fusion_lon": 0.0}, {"rental_uris": {"ios": "https://dc.lft.to/lastmile_qr_scan", "android": "https://dc.lft.to/lastmile_qr_scan"}, "type": "electric_scooter", "name": "54d5f35a0e9fb311d9ba2219ed78add6", "is_reserved": 0, "lon": -77.02388683333334, "is_disabled": 0, "fusion_lat": 0.0, "lat": 38.92078766666667, "bike_id": "54d5f35a0e9fb311d9ba2219ed78add6", "fusion_lon": 0.0}, {"rental_uris": {"ios": "https://dc.lft.to/lastmile_qr_scan", "android": "https://dc.lft.to/lastmile_qr_scan"}, "type": "electric_scooter", "name": "e644e931ee832f84f0260a790bb695c3", "is_reserved": 0, "lon": -76.9903255, "is_disabled": 0, "fusion_lat": 0.0, "lat": 38.89848383333333, "bike_id": "e644e931ee832f84f0260a790bb695c3", "fusion_lon": 0.0}, {"rental_uris": {"ios": "https://dc.lft.to/lastmile_qr_scan", "android": "https://dc.lft.to/lastmile_qr_scan"}, "type": "electric_scooter", "name": "ff3648160fa09c36624d8c4785e4cfda", "is_reserved": 0, "lon": -77.03246383333334, "is_disabled": 0, "fusion_lat": 0.0, "lat": 38.90482333333333, "bike_id": "ff3648160fa09c36624d8c4785e4cfda", "fusion_lon": 0.0}, {"rental_uris": {"ios": "https://dc.lft.to/lastmile_qr_scan", "android": "https://dc.lft.to/lastmile_qr_scan"}, "type": "electric_scooter", "name": "bc5aa383e80a2b674f2d3e9b7b182780", "is_reserved": 0, "lon": -76.983743, "is_disabled": 0, "fusion_lat": 0.0, "lat": 38.86033366666667, "bike_id": "bc5aa383e80a2b674f2d3e9b7b182780", "fusion_lon": 0.0}, {"rental_uris": {"ios": "https://dc.lft.to/lastmile_qr_scan", "android": "https://dc.lft.to/lastmile_qr_scan"}, "type": "electric_scooter", "name": "922cf9fb71cccc830b93ab13190f8767", "is_reserved": 0, "lon": -77.0390625, "is_disabled": 0, "fusion_lat": 0.0, "lat": 38.9142105, "bike_id": "922cf9fb71cccc830b93ab13190f8767", "fusion_lon": 0.0}, {"rental_uris": {"ios": "https://dc.lft.to/lastmile_qr_scan", "android": "https://dc.lft.to/lastmile_qr_scan"}, "type": "electric_scooter", "name": "d5b377d4470f9b69270187a87cc98165", "is_reserved": 0, "lon": -77.03218283333334, "is_disabled": 0, "fusion_lat": 0.0, "lat": 38.892245833333334, "bike_id": "d5b377d4470f9b69270187a87cc98165", "fusion_lon": 0.0}, {"rental_uris": {"ios": "https://dc.lft.to/lastmile_qr_scan", "android": "https://dc.lft.to/lastmile_qr_scan"}, "type": "electric_scooter", "name": "156cf5b215eb21df54d5f9d5800a95ec", "is_reserved": 0, "lon": -77.0241205, "is_disabled": 0, "fusion_lat": 0.0, "lat": 38.93561, "bike_id": "156cf5b215eb21df54d5f9d5800a95ec", "fusion_lon": 0.0}, {"rental_uris": {"ios": "https://dc.lft.to/lastmile_qr_scan", "android": "https://dc.lft.to/lastmile_qr_scan"}, "type": "electric_scooter", "name": "905524d206e0006cf7aecb82b08b007e", "is_reserved": 0, "lon": -77.021544, "is_disabled": 0, "fusion_lat": 0.0, "lat": 38.88748366666667, "bike_id": "905524d206e0006cf7aecb82b08b007e", "fusion_lon": 0.0}, {"rental_uris": {"ios": "https://dc.lft.to/lastmile_qr_scan", "android": "https://dc.lft.to/lastmile_qr_scan"}, "type": "electric_scooter", "name": "fd8eb0c783b954ab5aadcd29170c5cdd", "is_reserved": 0, "lon": -77.0325975, "is_disabled": 0, "fusion_lat": 0.0, "lat": 38.928513, "bike_id": "fd8eb0c783b954ab5aadcd29170c5cdd", "fusion_lon": 0.0}, {"rental_uris": {"ios": "https://dc.lft.to/lastmile_qr_scan", "android": "https://dc.lft.to/lastmile_qr_scan"}, "type": "electric_scooter", "name": "62c8283920f14fe77d2973097f531810", "is_reserved": 0, "lon": -76.99627433333333, "is_disabled": 0, "fusion_lat": 0.0, "lat": 38.8773935, "bike_id": "62c8283920f14fe77d2973097f531810", "fusion_lon": 0.0}, {"rental_uris": {"ios": "https://dc.lft.to/lastmile_qr_scan", "android": "https://dc.lft.to/lastmile_qr_scan"}, "type": "electric_scooter", "name": "eb69852fa1ffcae22cb2aee296d652cb", "is_reserved": 0, "lon": -77.03269483333334, "is_disabled": 0, "fusion_lat": 0.0, "lat": 38.90453516666667, "bike_id": "eb69852fa1ffcae22cb2aee296d652cb", "fusion_lon": 0.0}, {"rental_uris": {"ios": "https://dc.lft.to/lastmile_qr_scan", "android": "https://dc.lft.to/lastmile_qr_scan"}, "type": "electric_scooter", "name": "f6cdf7af601411f2cc3e51de0b715f68", "is_reserved": 0, "lon": -77.02353766666667, "is_disabled": 0, "fusion_lat": 0.0, "lat": 38.94197416666667, "bike_id": "f6cdf7af601411f2cc3e51de0b715f68", "fusion_lon": 0.0}, {"rental_uris": {"ios": "https://dc.lft.to/lastmile_qr_scan", "android": "https://dc.lft.to/lastmile_qr_scan"}, "type": "electric_scooter", "name": "fcb2ce7c1a9dfb88a9783cd3979f64fe", "is_reserved": 0, "lon": -76.9289385, "is_disabled": 0, "fusion_lat": 0.0, "lat": 38.8794615, "bike_id": "fcb2ce7c1a9dfb88a9783cd3979f64fe", "fusion_lon": 0.0}, {"rental_uris": {"ios": "https://dc.lft.to/lastmile_qr_scan", "android": "https://dc.lft.to/lastmile_qr_scan"}, "type": "electric_scooter", "name": "0443e0a268e3394e92dbdff160c73d37", "is_reserved": 0, "lon": -77.040222, "is_disabled": 0, "fusion_lat": 0.0, "lat": 38.9245505, "bike_id": "0443e0a268e3394e92dbdff160c73d37", "fusion_lon": 0.0}, {"rental_uris": {"ios": "https://dc.lft.to/lastmile_qr_scan", "android": "https://dc.lft.to/lastmile_qr_scan"}, "type": "electric_scooter", "name": "75f34e1be60ef0e16818c1cfca0336df", "is_reserved": 0, "lon": -77.00577983333334, "is_disabled": 0, "fusion_lat": 0.0, "lat": 38.90669033333333, "bike_id": "75f34e1be60ef0e16818c1cfca0336df", "fusion_lon": 0.0}, {"rental_uris": {"ios": "https://dc.lft.to/lastmile_qr_scan", "android": "https://dc.lft.to/lastmile_qr_scan"}, "type": "electric_scooter", "name": "adb1c1e78ab7fe2559f92f6e2f62d70f", "is_reserved": 0, "lon": -77.036661, "is_disabled": 0, "fusion_lat": 0.0, "lat": 38.923594666666666, "bike_id": "adb1c1e78ab7fe2559f92f6e2f62d70f", "fusion_lon": 0.0}, {"rental_uris": {"ios": "https://dc.lft.to/lastmile_qr_scan", "android": "https://dc.lft.to/lastmile_qr_scan"}, "type": "electric_scooter", "name": "9f069f90e62ce96116d8762e18f1666a", "is_reserved": 0, "lon": -77.0004155, "is_disabled": 0, "fusion_lat": 0.0, "lat": 38.900221, "bike_id": "9f069f90e62ce96116d8762e18f1666a", "fusion_lon": 0.0}, {"rental_uris": {"ios": "https://dc.lft.to/lastmile_qr_scan", "android": "https://dc.lft.to/lastmile_qr_scan"}, "type": "electric_scooter", "name": "9608cce2f104bda9cd5369352b749f68", "is_reserved": 0, "lon": -77.026215, "is_disabled": 0, "fusion_lat": 0.0, "lat": 38.93343566666667, "bike_id": "9608cce2f104bda9cd5369352b749f68", "fusion_lon": 0.0}, {"rental_uris": {"ios": "https://dc.lft.to/lastmile_qr_scan", "android": "https://dc.lft.to/lastmile_qr_scan"}, "type": "electric_scooter", "name": "bc9a59908232152904ba5fd083ee82f6", "is_reserved": 0, "lon": -76.98496183333333, "is_disabled": 0, "fusion_lat": 0.0, "lat": 38.90362566666667, "bike_id": "bc9a59908232152904ba5fd083ee82f6", "fusion_lon": 0.0}, {"rental_uris": {"ios": "https://dc.lft.to/lastmile_qr_scan", "android": "https://dc.lft.to/lastmile_qr_scan"}, "type": "electric_scooter", "name": "c318a7030b9167453e3826d0601bd597", "is_reserved": 0, "lon": -77.01142433333334, "is_disabled": 0, "fusion_lat": 0.0, "lat": 38.906440833333335, "bike_id": "c318a7030b9167453e3826d0601bd597", "fusion_lon": 0.0}, {"rental_uris": {"ios": "https://dc.lft.to/lastmile_qr_scan", "android": "https://dc.lft.to/lastmile_qr_scan"}, "type": "electric_scooter", "name": "c593852616910d45c24e5850bcb56c6a", "is_reserved": 0, "lon": -77.0144805, "is_disabled": 0, "fusion_lat": 0.0, "lat": 38.91776566666667, "bike_id": "c593852616910d45c24e5850bcb56c6a", "fusion_lon": 0.0}, {"rental_uris": {"ios": "https://dc.lft.to/lastmile_qr_scan", "android": "https://dc.lft.to/lastmile_qr_scan"}, "type": "electric_scooter", "name": "c4f98fd3be959aab52785be10aa2ac34", "is_reserved": 0, "lon": -77.03867583333333, "is_disabled": 0, "fusion_lat": 0.0, "lat": 38.915640333333336, "bike_id": "c4f98fd3be959aab52785be10aa2ac34", "fusion_lon": 0.0}, {"rental_uris": {"ios": "https://dc.lft.to/lastmile_qr_scan", "android": "https://dc.lft.to/lastmile_qr_scan"}, "type": "electric_scooter", "name": "2de9c9819d0948bc47c63584c8ff26c5", "is_reserved": 0, "lon": -77.01586133333333, "is_disabled": 0, "fusion_lat": 0.0, "lat": 38.916471, "bike_id": "2de9c9819d0948bc47c63584c8ff26c5", "fusion_lon": 0.0}, {"rental_uris": {"ios": "https://dc.lft.to/lastmile_qr_scan", "android": "https://dc.lft.to/lastmile_qr_scan"}, "type": "electric_scooter", "name": "7dd2527be8f0c32c1c5c9df503c438bc", "is_reserved": 0, "lon": -77.01612783333333, "is_disabled": 0, "fusion_lat": 0.0, "lat": 38.906094833333334, "bike_id": "7dd2527be8f0c32c1c5c9df503c438bc", "fusion_lon": 0.0}, {"rental_uris": {"ios": "https://dc.lft.to/lastmile_qr_scan", "android": "https://dc.lft.to/lastmile_qr_scan"}, "type": "electric_scooter", "name": "d707073796a0bbc7e2238d9da47bb9a3", "is_reserved": 0, "lon": -77.03472416666666, "is_disabled": 0, "fusion_lat": 0.0, "lat": 38.9097295, "bike_id": "d707073796a0bbc7e2238d9da47bb9a3", "fusion_lon": 0.0}, {"rental_uris": {"ios": "https://dc.lft.to/lastmile_qr_scan", "android": "https://dc.lft.to/lastmile_qr_scan"}, "type": "electric_scooter", "name": "92176bcf0cfbc6e724ee203d1842a6dc", "is_reserved": 0, "lon": -76.98992916666667, "is_disabled": 0, "fusion_lat": 0.0, "lat": 38.8642815, "bike_id": "92176bcf0cfbc6e724ee203d1842a6dc", "fusion_lon": 0.0}, {"rental_uris": {"ios": "https://dc.lft.to/lastmile_qr_scan", "android": "https://dc.lft.to/lastmile_qr_scan"}, "type": "electric_scooter", "name": "538a6dc502334b919284e6a6a6f368c4", "is_reserved": 0, "lon": -76.99209916666666, "is_disabled": 0, "fusion_lat": 0.0, "lat": 38.889709, "bike_id": "538a6dc502334b919284e6a6a6f368c4", "fusion_lon": 0.0}, {"rental_uris": {"ios": "https://dc.lft.to/lastmile_qr_scan", "android": "https://dc.lft.to/lastmile_qr_scan"}, "type": "electric_scooter", "name": "e892bae3db03a8b560cfcb79c91b3ca6", "is_reserved": 0, "lon": -77.01748766666667, "is_disabled": 0, "fusion_lat": 0.0, "lat": 38.880225833333334, "bike_id": "e892bae3db03a8b560cfcb79c91b3ca6", "fusion_lon": 0.0}, {"rental_uris": {"ios": "https://dc.lft.to/lastmile_qr_scan", "android": "https://dc.lft.to/lastmile_qr_scan"}, "type": "electric_scooter", "name": "9a234d32a3e782192ea958b178f0d3b1", "is_reserved": 0, "lon": -77.03472966666666, "is_disabled": 0, "fusion_lat": 0.0, "lat": 38.90233383333333, "bike_id": "9a234d32a3e782192ea958b178f0d3b1", "fusion_lon": 0.0}, {"rental_uris": {"ios": "https://dc.lft.to/lastmile_qr_scan", "android": "https://dc.lft.to/lastmile_qr_scan"}, "type": "electric_scooter", "name": "44cf0f835b52fba22ad6c99c6d891bfb", "is_reserved": 0, "lon": -76.94066633333334, "is_disabled": 0, "fusion_lat": 0.0, "lat": 38.885914, "bike_id": "44cf0f835b52fba22ad6c99c6d891bfb", "fusion_lon": 0.0}, {"rental_uris": {"ios": "https://dc.lft.to/lastmile_qr_scan", "android": "https://dc.lft.to/lastmile_qr_scan"}, "type": "electric_scooter", "name": "cf3a5d3a90a6140b27d68fe45463d4b2", "is_reserved": 0, "lon": -77.023044, "is_disabled": 0, "fusion_lat": 0.0, "lat": 38.94936166666667, "bike_id": "cf3a5d3a90a6140b27d68fe45463d4b2", "fusion_lon": 0.0}, {"rental_uris": {"ios": "https://dc.lft.to/lastmile_qr_scan", "android": "https://dc.lft.to/lastmile_qr_scan"}, "type": "electric_scooter", "name": "06caaae7b8fb29933d32a0271ab63770", "is_reserved": 0, "lon": -77.07227016666667, "is_disabled": 0, "fusion_lat": 0.0, "lat": 38.93421, "bike_id": "06caaae7b8fb29933d32a0271ab63770", "fusion_lon": 0.0}, {"rental_uris": {"ios": "https://dc.lft.to/lastmile_qr_scan", "android": "https://dc.lft.to/lastmile_qr_scan"}, "type": "electric_scooter", "name": "ab7f436c4cae91bd38cf32f721f06b51", "is_reserved": 0, "lon": -77.0047545, "is_disabled": 0, "fusion_lat": 0.0, "lat": 38.885155833333336, "bike_id": "ab7f436c4cae91bd38cf32f721f06b51", "fusion_lon": 0.0}, {"rental_uris": {"ios": "https://dc.lft.to/lastmile_qr_scan", "android": "https://dc.lft.to/lastmile_qr_scan"}, "type": "electric_scooter", "name": "569687b7f2f90b67043523b81cc9d706", "is_reserved": 0, "lon": -77.0232495, "is_disabled": 0, "fusion_lat": 0.0, "lat": 38.93807366666667, "bike_id": "569687b7f2f90b67043523b81cc9d706", "fusion_lon": 0.0}, {"rental_uris": {"ios": "https://dc.lft.to/lastmile_qr_scan", "android": "https://dc.lft.to/lastmile_qr_scan"}, "type": "electric_scooter", "name": "38b161aa96c484bdcd963ac9d3be8e6c", "is_reserved": 0, "lon": -77.0385895, "is_disabled": 0, "fusion_lat": 0.0, "lat": 38.91283466666667, "bike_id": "38b161aa96c484bdcd963ac9d3be8e6c", "fusion_lon": 0.0}, {"rental_uris": {"ios": "https://dc.lft.to/lastmile_qr_scan", "android": "https://dc.lft.to/lastmile_qr_scan"}, "type": "electric_scooter", "name": "024a1cc949a1bf24a668d605c2686bb2", "is_reserved": 0, "lon": -76.9950785, "is_disabled": 0, "fusion_lat": 0.0, "lat": 38.9098015, "bike_id": "024a1cc949a1bf24a668d605c2686bb2", "fusion_lon": 0.0}, {"rental_uris": {"ios": "https://dc.lft.to/lastmile_qr_scan", "android": "https://dc.lft.to/lastmile_qr_scan"}, "type": "electric_scooter", "name": "468a91345785263014951a12f9ffab2e", "is_reserved": 0, "lon": -77.00191816666667, "is_disabled": 0, "fusion_lat": 0.0, "lat": 38.9080095, "bike_id": "468a91345785263014951a12f9ffab2e", "fusion_lon": 0.0}, {"rental_uris": {"ios": "https://dc.lft.to/lastmile_qr_scan", "android": "https://dc.lft.to/lastmile_qr_scan"}, "type": "electric_scooter", "name": "93b4aefca08d3d7d0897f219493b4abd", "is_reserved": 0, "lon": -77.00190666666667, "is_disabled": 0, "fusion_lat": 0.0, "lat": 38.90046566666667, "bike_id": "93b4aefca08d3d7d0897f219493b4abd", "fusion_lon": 0.0}, {"rental_uris": {"ios": "https://dc.lft.to/lastmile_qr_scan", "android": "https://dc.lft.to/lastmile_qr_scan"}, "type": "electric_scooter", "name": "db07ed9eb47d60e833e969547e233253", "is_reserved": 0, "lon": -76.99354033333333, "is_disabled": 0, "fusion_lat": 0.0, "lat": 38.88268883333333, "bike_id": "db07ed9eb47d60e833e969547e233253", "fusion_lon": 0.0}, {"rental_uris": {"ios": "https://dc.lft.to/lastmile_qr_scan", "android": "https://dc.lft.to/lastmile_qr_scan"}, "type": "electric_scooter", "name": "52934ca2600c737b2efd0a0f06d413d8", "is_reserved": 0, "lon": -77.03144383333333, "is_disabled": 0, "fusion_lat": 0.0, "lat": 38.9063525, "bike_id": "52934ca2600c737b2efd0a0f06d413d8", "fusion_lon": 0.0}, {"rental_uris": {"ios": "https://dc.lft.to/lastmile_qr_scan", "android": "https://dc.lft.to/lastmile_qr_scan"}, "type": "electric_bike", "name": "85018ada3e396f71d2dcb6d65819db65", "is_reserved": 0, "lon": -77.05110416666666, "is_disabled": 0, "fusion_lat": 0.0, "lat": 38.8592945, "bike_id": "85018ada3e396f71d2dcb6d65819db65", "fusion_lon": 0.0}, {"rental_uris": {"ios": "https://dc.lft.to/lastmile_qr_scan", "android": "https://dc.lft.to/lastmile_qr_scan"}, "type": "electric_scooter", "name": "0fc8b48b3b906cbb1fa115c12d353316", "is_reserved": 0, "lon": -77.03152466666667, "is_disabled": 0, "fusion_lat": 0.0, "lat": 38.9025735, "bike_id": "0fc8b48b3b906cbb1fa115c12d353316", "fusion_lon": 0.0}, {"rental_uris": {"ios": "https://dc.lft.to/lastmile_qr_scan", "android": "https://dc.lft.to/lastmile_qr_scan"}, "type": "electric_scooter", "name": "ff9d64dce6c57da1cced62310c03ea93", "is_reserved": 0, "lon": -77.0293805, "is_disabled": 0, "fusion_lat": 0.0, "lat": 38.9051015, "bike_id": "ff9d64dce6c57da1cced62310c03ea93", "fusion_lon": 0.0}, {"rental_uris": {"ios": "https://dc.lft.to/lastmile_qr_scan", "android": "https://dc.lft.to/lastmile_qr_scan"}, "type": "electric_bike", "name": "6641dac1711a9453bba07a1902850466", "is_reserved": 0, "lon": -76.95738683333333, "is_disabled": 0, "fusion_lat": 0.0, "lat": 38.8886225, "bike_id": "6641dac1711a9453bba07a1902850466", "fusion_lon": 0.0}, {"rental_uris": {"ios": "https://dc.lft.to/lastmile_qr_scan", "android": "https://dc.lft.to/lastmile_qr_scan"}, "type": "electric_scooter", "name": "9d25728220513563c76ab885e7d17042", "is_reserved": 0, "lon": -76.9472055, "is_disabled": 0, "fusion_lat": 0.0, "lat": 38.8908645, "bike_id": "9d25728220513563c76ab885e7d17042", "fusion_lon": 0.0}, {"rental_uris": {"ios": "https://dc.lft.to/lastmile_qr_scan", "android": "https://dc.lft.to/lastmile_qr_scan"}, "type": "electric_scooter", "name": "4a1bd8ebb49ced6dcecafe08f17c47e6", "is_reserved": 0, "lon": -77.01649583333334, "is_disabled": 0, "fusion_lat": 0.0, "lat": 38.90396783333333, "bike_id": "4a1bd8ebb49ced6dcecafe08f17c47e6", "fusion_lon": 0.0}, {"rental_uris": {"ios": "https://dc.lft.to/lastmile_qr_scan", "android": "https://dc.lft.to/lastmile_qr_scan"}, "type": "electric_scooter", "name": "4a4820b8d1edc7580f1c437611949bde", "is_reserved": 0, "lon": -77.04352116666666, "is_disabled": 0, "fusion_lat": 0.0, "lat": 38.911215, "bike_id": "4a4820b8d1edc7580f1c437611949bde", "fusion_lon": 0.0}, {"rental_uris": {"ios": "https://dc.lft.to/lastmile_qr_scan", "android": "https://dc.lft.to/lastmile_qr_scan"}, "type": "electric_scooter", "name": "2f6728ff60019c754ba98376adf91a03", "is_reserved": 0, "lon": -77.061718, "is_disabled": 0, "fusion_lat": 0.0, "lat": 38.943296833333335, "bike_id": "2f6728ff60019c754ba98376adf91a03", "fusion_lon": 0.0}, {"rental_uris": {"ios": "https://dc.lft.to/lastmile_qr_scan", "android": "https://dc.lft.to/lastmile_qr_scan"}, "type": "electric_scooter", "name": "2f2da67afe74c6baba81bf29839b90ff", "is_reserved": 0, "lon": -77.03249, "is_disabled": 0, "fusion_lat": 0.0, "lat": 38.911239, "bike_id": "2f2da67afe74c6baba81bf29839b90ff", "fusion_lon": 0.0}, {"rental_uris": {"ios": "https://dc.lft.to/lastmile_qr_scan", "android": "https://dc.lft.to/lastmile_qr_scan"}, "type": "electric_scooter", "name": "b82491d9f5ee52e42cec47c895add8b6", "is_reserved": 0, "lon": -77.046552, "is_disabled": 0, "fusion_lat": 0.0, "lat": 38.90278716666667, "bike_id": "b82491d9f5ee52e42cec47c895add8b6", "fusion_lon": 0.0}, {"rental_uris": {"ios": "https://dc.lft.to/lastmile_qr_scan", "android": "https://dc.lft.to/lastmile_qr_scan"}, "type": "electric_bike", "name": "50e817c3d55a56e3719a1da515fdcd69", "is_reserved": 0, "lon": -77.12730883333333, "is_disabled": 0, "fusion_lat": 0.0, "lat": 38.895650333333336, "bike_id": "50e817c3d55a56e3719a1da515fdcd69", "fusion_lon": 0.0}, {"rental_uris": {"ios": "https://dc.lft.to/lastmile_qr_scan", "android": "https://dc.lft.to/lastmile_qr_scan"}, "type": "electric_scooter", "name": "d68f37216ca56137a5ff3e816d76cb0d", "is_reserved": 0, "lon": -77.03806383333334, "is_disabled": 0, "fusion_lat": 0.0, "lat": 38.91048083333333, "bike_id": "d68f37216ca56137a5ff3e816d76cb0d", "fusion_lon": 0.0}, {"rental_uris": {"ios": "https://dc.lft.to/lastmile_qr_scan", "android": "https://dc.lft.to/lastmile_qr_scan"}, "type": "electric_scooter", "name": "a7bbc406e60ce3edfb64939383b7ec71", "is_reserved": 0, "lon": -76.9486185, "is_disabled": 0, "fusion_lat": 0.0, "lat": 38.894785166666665, "bike_id": "a7bbc406e60ce3edfb64939383b7ec71", "fusion_lon": 0.0}, {"rental_uris": {"ios": "https://dc.lft.to/lastmile_qr_scan", "android": "https://dc.lft.to/lastmile_qr_scan"}, "type": "electric_scooter", "name": "256208cd1d4d84cf5f1b408c3dc2f36f", "is_reserved": 0, "lon": -77.02960016666667, "is_disabled": 0, "fusion_lat": 0.0, "lat": 38.923360833333334, "bike_id": "256208cd1d4d84cf5f1b408c3dc2f36f", "fusion_lon": 0.0}, {"rental_uris": {"ios": "https://dc.lft.to/lastmile_qr_scan", "android": "https://dc.lft.to/lastmile_qr_scan"}, "type": "electric_scooter", "name": "c2785180cc49f64c7f4b43349e98442b", "is_reserved": 0, "lon": -77.031965, "is_disabled": 0, "fusion_lat": 0.0, "lat": 38.920012666666665, "bike_id": "c2785180cc49f64c7f4b43349e98442b", "fusion_lon": 0.0}, {"rental_uris": {"ios": "https://dc.lft.to/lastmile_qr_scan", "android": "https://dc.lft.to/lastmile_qr_scan"},