{"data": {"bikes": [{"lat": 38.96019166666667, "is_disabled": 0, "type": "electric_bike", "lon": -77.01723866666667, "bike_id": "a30c5b33d2a26ab7aec5043f430444fd", "fusion_lat": 0.0, "name": "a30c5b33d2a26ab7aec5043f430444fd", "is_reserved": 0, "rental_uris": {"android": "https://dc.lft.to/lastmile_qr_scan", "ios": "https://dc.lft.to/lastmile_qr_scan"}, "fusion_lon": 0.0}, {"lat": 38.884690666666664, "is_disabled": 0, "type": "electric_scooter", "lon": -76.99259616666667, "bike_id": "69deb0f3e6ebab3c020d68a220ae2b5e", "fusion_lat": 0.0, "name": "69deb0f3e6ebab3c020d68a220ae2b5e", "is_reserved": 0, "rental_uris": {"android": "https://dc.lft.to/lastmile_qr_scan", "ios": "https://dc.lft.to/lastmile_qr_scan"}, "fusion_lon": 0.0}, {"lat": 38.903143166666666, "is_disabled": 0, "type": "electric_scooter", "lon": -76.993621, "bike_id": "812a296f9057e99b5d00aa97eead61f4", "fusion_lat": 0.0, "name": "812a296f9057e99b5d00aa97eead61f4", "is_reserved": 0, "rental_uris": {"android": "https://dc.lft.to/lastmile_qr_scan", "ios": "https://dc.lft.to/lastmile_qr_scan"}, "fusion_lon": 0.0}, {"lat": 38.921527833333336, "is_disabled": 0, "type": "electric_scooter", "lon": -77.03506, "bike_id": "b1818b813204e5745b73920a5e42c6e8", "fusion_lat": 0.0, "name": "b1818b813204e5745b73920a5e42c6e8", "is_reserved": 0, "rental_uris": {"android": "https://dc.lft.to/lastmile_qr_scan", "ios": "https://dc.lft.to/lastmile_qr_scan"}, "fusion_lon": 0.0}, {"lat": 38.884920666666666, "is_disabled": 0, "type": "electric_scooter", "lon": -77.00716483333333, "bike_id": "5aeea0d36beb324388ceb2b9680e5938", "fusion_lat": 0.0, "name": "5aeea0d36beb324388ceb2b9680e5938", "is_reserved": 0, "rental_uris": {"android": "https://dc.lft.to/lastmile_qr_scan", "ios": "https://dc.lft.to/lastmile_qr_scan"}, "fusion_lon": 0.0}, {"lat": 38.9533015, "is_disabled": 0, "type": "electric_scooter", "lon": -77.027553, "bike_id": "68c62ccb58ea6a22b79469daec562786", "fusion_lat": 0.0, "name": "68c62ccb58ea6a22b79469daec562786", "is_reserved": 0, "rental_uris": {"android": "https://dc.lft.to/lastmile_qr_scan", "ios": "https://dc.lft.to/lastmile_qr_scan"}, "fusion_lon": 0.0}, {"lat": 39.029327, "is_disabled": 0, "type": "electric_bike", "lon": -77.04927016666667, "bike_id": "fc7a625c2f5fa2636f9a9588b2fbebb4", "fusion_lat": 0.0, "name": "fc7a625c2f5fa2636f9a9588b2fbebb4", "is_reserved": 0, "rental_uris": {"android": "https://dc.lft.to/lastmile_qr_scan", "ios": "https://dc.lft.to/lastmile_qr_scan"}, "fusion_lon": 0.0}, {"lat": 38.87291333333334, "is_disabled": 0, "type": "electric_scooter", "lon": -77.009308, "bike_id": "e16e80e46f8c3b64bae7d0a78eb7990e", "fusion_lat": 0.0, "name": "e16e80e46f8c3b64bae7d0a78eb7990e", "is_reserved": 0, "rental_uris": {"android": "https://dc.lft.to/lastmile_qr_scan", "ios": "https://dc.lft.to/lastmile_qr_scan"}, "fusion_lon": 0.0}, {"lat": 38.935343333333336, "is_disabled": 0, "type": "electric_bike", "lon": -77.05694266666667, "bike_id": "ec56bf113a1b05821307a23ffbd3c353", "fusion_lat": 0.0, "name": "ec56bf113a1b05821307a23ffbd3c353", "is_reserved": 0, "rental_uris": {"android": "https://dc.lft.to/lastmile_qr_scan", "ios": "https://dc.lft.to/lastmile_qr_scan"}, "fusion_lon": 0.0}, {"lat": 38.905613, "is_disabled": 0, "type": "electric_scooter", "lon": -77.02983016666667, "bike_id": "953a9cd23ce8bcd94e472d0a1f4480d1", "fusion_lat": 0.0, "name": "953a9cd23ce8bcd94e472d0a1f4480d1", "is_reserved": 0, "rental_uris": {"android": "https://dc.lft.to/lastmile_qr_scan", "ios": "https://dc.lft.to/lastmile_qr_scan"}, "fusion_lon": 0.0}, {"lat": 38.9343125, "is_disabled": 0, "type": "electric_scooter", "lon": -77.0344285, "bike_id": "a4bccf00692a5e9646341f82979837c7", "fusion_lat": 0.0, "name": "a4bccf00692a5e9646341f82979837c7", "is_reserved": 0, "rental_uris": {"android": "https://dc.lft.to/lastmile_qr_scan", "ios": "https://dc.lft.to/lastmile_qr_scan"}, "fusion_lon": 0.0}, {"lat": 38.9278935, "is_disabled": 0, "type": "electric_scooter", "lon": -77.05527266666667, "bike_id": "67ec84499c1e18bcd58bcba8e8e950c9", "fusion_lat": 0.0, "name": "67ec84499c1e18bcd58bcba8e8e950c9", "is_reserved": 0, "rental_uris": {"android": "https://dc.lft.to/lastmile_qr_scan", "ios": "https://dc.lft.to/lastmile_qr_scan"}, "fusion_lon": 0.0}, {"lat": 38.9387675, "is_disabled": 0, "type": "electric_scooter", "lon": -77.02010816666666, "bike_id": "4650ba020d5c29f436885359ed1987af", "fusion_lat": 0.0, "name": "4650ba020d5c29f436885359ed1987af", "is_reserved": 0, "rental_uris": {"android": "https://dc.lft.to/lastmile_qr_scan", "ios": "https://dc.lft.to/lastmile_qr_scan"}, "fusion_lon": 0.0}, {"lat": 38.90280883333333, "is_disabled": 0, "type": "electric_scooter", "lon": -77.03318616666667, "bike_id": "14602c7a401953a6bb36b736c9ce1ced", "fusion_lat": 0.0, "name": "14602c7a401953a6bb36b736c9ce1ced", "is_reserved": 0, "rental_uris": {"android": "https://dc.lft.to/lastmile_qr_scan", "ios": "https://dc.lft.to/lastmile_qr_scan"}, "fusion_lon": 0.0}, {"lat": 38.93374, "is_disabled": 0, "type": "electric_scooter", "lon": -77.02395983333334, "bike_id": "570609d90de175d0c49822fadec74508", "fusion_lat": 0.0, "name": "570609d90de175d0c49822fadec74508", "is_reserved": 0, "rental_uris": {"android": "https://dc.lft.to/lastmile_qr_scan", "ios": "https://dc.lft.to/lastmile_qr_scan"}, "fusion_lon": 0.0}, {"lat": 38.953346333333336, "is_disabled": 0, "type": "electric_bike", "lon": -76.97364833333333, "bike_id": "47ed81aef6fd64489022ded8eacd96b2", "fusion_lat": 0.0, "name": "47ed81aef6fd64489022ded8eacd96b2", "is_reserved": 0, "rental_uris": {"android": "https://dc.lft.to/lastmile_qr_scan", "ios": "https://dc.lft.to/lastmile_qr_scan"}, "fusion_lon": 0.0}, {"lat": 38.92581466666667, "is_disabled": 0, "type": "electric_scooter", "lon": -77.02828183333334, "bike_id": "a6fd51f23e31cf1d0b1c9ca3e7cad260", "fusion_lat": 0.0, "name": "a6fd51f23e31cf1d0b1c9ca3e7cad260", "is_reserved": 0, "rental_uris": {"android": "https://dc.lft.to/lastmile_qr_scan", "ios": "https://dc.lft.to/lastmile_qr_scan"}, "fusion_lon": 0.0}, {"lat": 39.00015716666667, "is_disabled": 0, "type": "electric_bike", "lon": -76.91079283333333, "bike_id": "a8f0473d703b41b6f87c587f7679918c", "fusion_lat": 0.0, "name": "a8f0473d703b41b6f87c587f7679918c", "is_reserved": 0, "rental_uris": {"android": "https://dc.lft.to/lastmile_qr_scan", "ios": "https://dc.lft.to/lastmile_qr_scan"}, "fusion_lon": 0.0}, {"lat": 38.8655895, "is_disabled": 0, "type": "electric_scooter", "lon": -76.97418333333333, "bike_id": "7445990db36faceae9ffbf43e35c77db", "fusion_lat": 0.0, "name": "7445990db36faceae9ffbf43e35c77db", "is_reserved": 0, "rental_uris": {"android": "https://dc.lft.to/lastmile_qr_scan", "ios": "https://dc.lft.to/lastmile_qr_scan"}, "fusion_lon": 0.0}, {"lat": 38.932967833333336, "is_disabled": 0, "type": "electric_scooter", "lon": -77.0285125, "bike_id": "7b9b5f70e0500fb78c64aa9b433684e2", "fusion_lat": 0.0, "name": "7b9b5f70e0500fb78c64aa9b433684e2", "is_reserved": 0, "rental_uris": {"android": "https://dc.lft.to/lastmile_qr_scan", "ios": "https://dc.lft.to/lastmile_qr_scan"}, "fusion_lon": 0.0}, {"lat": 38.900895166666665, "is_disabled": 0, "type": "electric_scooter", "lon": -77.04922483333333, "bike_id": "44ddff1cb317c125df35e09e32a19b0a", "fusion_lat": 0.0, "name": "44ddff1cb317c125df35e09e32a19b0a", "is_reserved": 0, "rental_uris": {"android": "https://dc.lft.to/lastmile_qr_scan", "ios": "https://dc.lft.to/lastmile_qr_scan"}, "fusion_lon": 0.0}, {"lat": 38.863845166666664, "is_disabled": 0, "type": "electric_bike", "lon": -76.98989033333334, "bike_id": "1709653af77f74afad97c1743f1ef5b3", "fusion_lat": 0.0, "name": "1709653af77f74afad97c1743f1ef5b3", "is_reserved": 0, "rental_uris": {"android": "https://dc.lft.to/lastmile_qr_scan", "ios": "https://dc.lft.to/lastmile_qr_scan"}, "fusion_lon": 0.0}, {"lat": 38.948356833333335, "is_disabled": 0, "type": "electric_scooter", "lon": -77.025773, "bike_id": "9b9ba241cc862e53b4d39fb489d3c3d2", "fusion_lat": 0.0, "name": "9b9ba241cc862e53b4d39fb489d3c3d2", "is_reserved": 0, "rental_uris": {"android": "https://dc.lft.to/lastmile_qr_scan", "ios": "https://dc.lft.to/lastmile_qr_scan"}, "fusion_lon": 0.0}, {"lat": 38.93580016666667, "is_disabled": 0, "type": "electric_bike", "lon": -77.10685566666666, "bike_id": "68f17bfb3170d8a82cd2c9c9c307b890", "fusion_lat": 0.0, "name": "68f17bfb3170d8a82cd2c9c9c307b890", "is_reserved": 0, "rental_uris": {"android": "https://dc.lft.to/lastmile_qr_scan", "ios": "https://dc.lft.to/lastmile_qr_scan"}, "fusion_lon": 0.0}, {"lat": 38.92780916666667, "is_disabled": 0, "type": "electric_scooter", "lon": -77.026823, "bike_id": "d2b18abc227c6c492eec8177eda157ce", "fusion_lat": 0.0, "name": "d2b18abc227c6c492eec8177eda157ce", "is_reserved": 0, "rental_uris": {"android": "https://dc.lft.to/lastmile_qr_scan", "ios": "https://dc.lft.to/lastmile_qr_scan"}, "fusion_lon": 0.0}, {"lat": 38.9099925, "is_disabled": 0, "type": "electric_scooter", "lon": -77.040075, "bike_id": "d265933df6fd525fd9136415ace9c9cf", "fusion_lat": 0.0, "name": "d265933df6fd525fd9136415ace9c9cf", "is_reserved": 0, "rental_uris": {"android": "https://dc.lft.to/lastmile_qr_scan", "ios": "https://dc.lft.to/lastmile_qr_scan"}, "fusion_lon": 0.0}, {"lat": 38.908527166666666, "is_disabled": 0, "type": "electric_scooter", "lon": -77.03845433333333, "bike_id": "6cd62071ac838b95cc54e37ec215967b", "fusion_lat": 0.0, "name": "6cd62071ac838b95cc54e37ec215967b", "is_reserved": 0, "rental_uris": {"android": "https://dc.lft.to/lastmile_qr_scan", "ios": "https://dc.lft.to/lastmile_qr_scan"}, "fusion_lon": 0.0}, {"lat": 38.944976, "is_disabled": 0, "type": "electric_bike", "lon": -77.0068225, "bike_id": "e5d74c8463e3a61b9d6e20dd82f175cd", "fusion_lat": 0.0, "name": "e5d74c8463e3a61b9d6e20dd82f175cd", "is_reserved": 0, "rental_uris": {"android": "https://dc.lft.to/lastmile_qr_scan", "ios": "https://dc.lft.to/lastmile_qr_scan"}, "fusion_lon": 0.0}, {"lat": 38.902975833333336, "is_disabled": 0, "type": "electric_scooter", "lon": -77.0530525, "bike_id": "01e0b74bb8ffdc12887be459e38fbecc", "fusion_lat": 0.0, "name": "01e0b74bb8ffdc12887be459e38fbecc", "is_reserved": 0, "rental_uris": {"android": "https://dc.lft.to/lastmile_qr_scan", "ios": "https://dc.lft.to/lastmile_qr_scan"}, "fusion_lon": 0.0}, {"lat": 38.96621433333333, "is_disabled": 0, "type": "electric_bike", "lon": -76.97669416666666, "bike_id": "95ec7a74805bba9e8f049b1047f306a6", "fusion_lat": 0.0, "name": "95ec7a74805bba9e8f049b1047f306a6", "is_reserved": 0, "rental_uris": {"android": "https://dc.lft.to/lastmile_qr_scan", "ios": "https://dc.lft.to/lastmile_qr_scan"}, "fusion_lon": 0.0}, {"lat": 38.90281266666667, "is_disabled": 0, "type": "electric_scooter", "lon": -77.0365405, "bike_id": "dc91bfbb1994524a3c25935b53ce7bd6", "fusion_lat": 0.0, "name": "dc91bfbb1994524a3c25935b53ce7bd6", "is_reserved": 0, "rental_uris": {"android": "https://dc.lft.to/lastmile_qr_scan", "ios": "https://dc.lft.to/lastmile_qr_scan"}, "fusion_lon": 0.0}, {"lat": 38.900159, "is_disabled": 0, "type": "electric_scooter", "lon": -77.03318516666667, "bike_id": "1c379581a18bf66256fba3af4625bcf6", "fusion_lat": 0.0, "name": "1c379581a18bf66256fba3af4625bcf6", "is_reserved": 0, "rental_uris": {"android": "https://dc.lft.to/lastmile_qr_scan", "ios": "https://dc.lft.to/lastmile_qr_scan"}, "fusion_lon": 0.0}, {"lat": 38.896448, "is_disabled": 0, "type": "electric_scooter", "lon": -77.009128, "bike_id": "ade563eea116d4c4f4b791a26f24f31d", "fusion_lat": 0.0, "name": "ade563eea116d4c4f4b791a26f24f31d", "is_reserved": 0, "rental_uris": {"android": "https://dc.lft.to/lastmile_qr_scan", "ios": "https://dc.lft.to/lastmile_qr_scan"}, "fusion_lon": 0.0}, {"lat": 38.871467333333335, "is_disabled": 0, "type": "electric_bike", "lon": -76.93671416666666, "bike_id": "bf8fcef75b1491407d905689e5df0da3", "fusion_lat": 0.0, "name": "bf8fcef75b1491407d905689e5df0da3", "is_reserved": 0, "rental_uris": {"android": "https://dc.lft.to/lastmile_qr_scan", "ios": "https://dc.lft.to/lastmile_qr_scan"}, "fusion_lon": 0.0}, {"lat": 38.941348166666664, "is_disabled": 0, "type": "electric_scooter", "lon": -77.07616083333333, "bike_id": "f9aaa8a12b4c21e91a41575d35c1ab83", "fusion_lat": 0.0, "name": "f9aaa8a12b4c21e91a41575d35c1ab83", "is_reserved": 0, "rental_uris": {"android": "https://dc.lft.to/lastmile_qr_scan", "ios": "https://dc.lft.to/lastmile_qr_scan"}, "fusion_lon": 0.0}, {"lat": 38.916390666666665, "is_disabled": 0, "type": "electric_scooter", "lon": -77.0269445, "bike_id": "bbd248d3df9521aee12b2c5f32bedc53", "fusion_lat": 0.0, "name": "bbd248d3df9521aee12b2c5f32bedc53", "is_reserved": 0, "rental_uris": {"android": "https://dc.lft.to/lastmile_qr_scan", "ios": "https://dc.lft.to/lastmile_qr_scan"}, "fusion_lon": 0.0}, {"lat": 38.9094625, "is_disabled": 0, "type": "electric_scooter", "lon": -77.04659233333334, "bike_id": "237e0923df728c00c1df6c70484b471c", "fusion_lat": 0.0, "name": "237e0923df728c00c1df6c70484b471c", "is_reserved": 0, "rental_uris": {"android": "https://dc.lft.to/lastmile_qr_scan", "ios": "https://dc.lft.to/lastmile_qr_scan"}, "fusion_lon": 0.0}, {"lat": 38.9000635, "is_disabled": 0, "type": "electric_scooter", "lon": -77.03356383333333, "bike_id": "a846e4f124cf8183f77de95f381c18e9", "fusion_lat": 0.0, "name": "a846e4f124cf8183f77de95f381c18e9", "is_reserved": 0, "rental_uris": {"android": "https://dc.lft.to/lastmile_qr_scan", "ios": "https://dc.lft.to/lastmile_qr_scan"}, "fusion_lon": 0.0}, {"lat": 38.9025515, "is_disabled": 0, "type": "electric_scooter", "lon": -77.0117235, "bike_id": "3e46f8800759a049c241b94a386fb851", "fusion_lat": 0.0, "name": "3e46f8800759a049c241b94a386fb851", "is_reserved": 0, "rental_uris": {"android": "https://dc.lft.to/lastmile_qr_scan", "ios": "https://dc.lft.to/lastmile_qr_scan"}, "fusion_lon": 0.0}, {"lat": 38.86367383333334, "is_disabled": 0, "type": "electric_scooter", "lon": -76.990335, "bike_id": "71cb5ccec6b58bdbfe9e3b02103347b6", "fusion_lat": 0.0, "name": "71cb5ccec6b58bdbfe9e3b02103347b6", "is_reserved": 0, "rental_uris": {"android": "https://dc.lft.to/lastmile_qr_scan", "ios": "https://dc.lft.to/lastmile_qr_scan"}, "fusion_lon": 0.0}, {"lat": 38.95224233333333, "is_disabled": 0, "type": "electric_scooter", "lon": -77.00265266666666, "bike_id": "dde62d0631b88677f7ee3640362e33df", "fusion_lat": 0.0, "name": "dde62d0631b88677f7ee3640362e33df", "is_reserved": 0, "rental_uris": {"android": "https://dc.lft.to/lastmile_qr_scan", "ios": "https://dc.lft.to/lastmile_qr_scan"}, "fusion_lon": 0.0}, {"lat": 38.89522733333333, "is_disabled": 0, "type": "electric_scooter", "lon": -77.00061033333333, "bike_id": "826b3480db0832e1cf0b010108c6cffc", "fusion_lat": 0.0, "name": "826b3480db0832e1cf0b010108c6cffc", "is_reserved": 0, "rental_uris": {"android": "https://dc.lft.to/lastmile_qr_scan", "ios": "https://dc.lft.to/lastmile_qr_scan"}, "fusion_lon": 0.0}, {"lat": 38.92853366666667, "is_disabled": 0, "type": "electric_bike", "lon": -77.10675516666667, "bike_id": "8097019bbfc6f46aa74a5396f73f82e7", "fusion_lat": 0.0, "name": "8097019bbfc6f46aa74a5396f73f82e7", "is_reserved": 0, "rental_uris": {"android": "https://dc.lft.to/lastmile_qr_scan", "ios": "https://dc.lft.to/lastmile_qr_scan"}, "fusion_lon": 0.0}, {"lat": 38.935331166666664, "is_disabled": 0, "type": "electric_scooter", "lon": -77.03419983333333, "bike_id": "468a134dd5beb21040b71e2a66242ded", "fusion_lat": 0.0, "name": "468a134dd5beb21040b71e2a66242ded", "is_reserved": 0, "rental_uris": {"android": "https://dc.lft.to/lastmile_qr_scan", "ios": "https://dc.lft.to/lastmile_qr_scan"}, "fusion_lon": 0.0}, {"lat": 38.947066, "is_disabled": 0, "type": "electric_scooter", "lon": -77.01941183333334, "bike_id": "5ab66f90a143394dcc618a05c993fd23", "fusion_lat": 0.0, "name": "5ab66f90a143394dcc618a05c993fd23", "is_reserved": 0, "rental_uris": {"android": "https://dc.lft.to/lastmile_qr_scan", "ios": "https://dc.lft.to/lastmile_qr_scan"}, "fusion_lon": 0.0}, {"lat": 38.92193183333333, "is_disabled": 0, "type": "electric_scooter", "lon": -77.04135016666666, "bike_id": "e23a82cb13726c0c35d15060223007a2", "fusion_lat": 0.0, "name": "e23a82cb13726c0c35d15060223007a2", "is_reserved": 0, "rental_uris": {"android": "https://dc.lft.to/lastmile_qr_scan", "ios": "https://dc.lft.to/lastmile_qr_scan"}, "fusion_lon": 0.0}, {"lat": 38.807460166666665, "is_disabled": 0, "type": "electric_bike", "lon": -77.09427633333334, "bike_id": "7e5a98376011d284f15a456cf700451c", "fusion_lat": 0.0, "name": "7e5a98376011d284f15a456cf700451c", "is_reserved": 0, "rental_uris": {"android": "https://dc.lft.to/lastmile_qr_scan", "ios": "https://dc.lft.to/lastmile_qr_scan"}, "fusion_lon": 0.0}, {"lat": 38.936420166666664, "is_disabled": 0, "type": "electric_scooter", "lon": -77.02499, "bike_id": "5395bb4b6c3a993fa39a9a8b236248b5", "fusion_lat": 0.0, "name": "5395bb4b6c3a993fa39a9a8b236248b5", "is_reserved": 0, "rental_uris": {"android": "https://dc.lft.to/lastmile_qr_scan", "ios": "https://dc.lft.to/lastmile_qr_scan"}, "fusion_lon": 0.0}, {"lat": 38.9080595, "is_disabled": 0, "type": "electric_scooter", "lon": -77.06355883333333, "bike_id": "21f20cbfb7a46fd0feb1440ca6c8469f", "fusion_lat": 0.0, "name": "21f20cbfb7a46fd0feb1440ca6c8469f", "is_reserved": 0, "rental_uris": {"android": "https://dc.lft.to/lastmile_qr_scan", "ios": "https://dc.lft.to/lastmile_qr_scan"}, "fusion_lon": 0.0}, {"lat": 38.8848665, "is_disabled": 0, "type": "electric_scooter", "lon": -77.0347565, "bike_id": "4acc768e4ceaa3ba93ab6f0a6b8792f8", "fusion_lat": 0.0, "name": "4acc768e4ceaa3ba93ab6f0a6b8792f8", "is_reserved": 0, "rental_uris": {"android": "https://dc.lft.to/lastmile_qr_scan", "ios": "https://dc.lft.to/lastmile_qr_scan"}, "fusion_lon": 0.0}, {"lat": 38.925301166666664, "is_disabled": 0, "type": "electric_scooter", "lon": -77.04421616666667, "bike_id": "dcd2f4e3bfaa33265f0f654fcf78c189", "fusion_lat": 0.0, "name": "dcd2f4e3bfaa33265f0f654fcf78c189", "is_reserved": 0, "rental_uris": {"android": "https://dc.lft.to/lastmile_qr_scan", "ios": "https://dc.lft.to/lastmile_qr_scan"}, "fusion_lon": 0.0}, {"lat": 38.900298166666666, "is_disabled": 0, "type": "electric_scooter", "lon": -76.99375, "bike_id": "8c5f0d01431d4d77edcb44e1676ea407", "fusion_lat": 0.0, "name": "8c5f0d01431d4d77edcb44e1676ea407", "is_reserved": 0, "rental_uris": {"android": "https://dc.lft.to/lastmile_qr_scan", "ios": "https://dc.lft.to/lastmile_qr_scan"}, "fusion_lon": 0.0}, {"lat": 38.91482666666667, "is_disabled": 0, "type": "electric_scooter", "lon": -77.03255366666667, "bike_id": "041567a75e0770c6bd1130cf01b11739", "fusion_lat": 0.0, "name": "041567a75e0770c6bd1130cf01b11739", "is_reserved": 0, "rental_uris": {"android": "https://dc.lft.to/lastmile_qr_scan", "ios": "https://dc.lft.to/lastmile_qr_scan"}, "fusion_lon": 0.0}, {"lat": 38.9031865, "is_disabled": 0, "type": "electric_scooter", "lon": -76.99004483333333, "bike_id": "ea7d2d1df2244e486d9e51353c2e9d48", "fusion_lat": 0.0, "name": "ea7d2d1df2244e486d9e51353c2e9d48", "is_reserved": 0, "rental_uris": {"android": "https://dc.lft.to/lastmile_qr_scan", "ios": "https://dc.lft.to/lastmile_qr_scan"}, "fusion_lon": 0.0}, {"lat": 38.92082716666667, "is_disabled": 0, "type": "electric_bike", "lon": -76.99187116666667, "bike_id": "898fe4e98f5c92058eb22075baf582b7", "fusion_lat": 0.0, "name": "898fe4e98f5c92058eb22075baf582b7", "is_reserved": 0, "rental_uris": {"android": "https://dc.lft.to/lastmile_qr_scan", "ios": "https://dc.lft.to/lastmile_qr_scan"}, "fusion_lon": 0.0}, {"lat": 38.904537, "is_disabled": 0, "type": "electric_scooter", "lon": -76.99459566666667, "bike_id": "aa38271c132643b072f4326a2232c4f8", "fusion_lat": 0.0, "name": "aa38271c132643b072f4326a2232c4f8", "is_reserved": 0, "rental_uris": {"android": "https://dc.lft.to/lastmile_qr_scan", "ios": "https://dc.lft.to/lastmile_qr_scan"}, "fusion_lon": 0.0}, {"lat": 38.90987916666667, "is_disabled": 0, "type": "electric_scooter", "lon": -77.04495733333333, "bike_id": "d45583cfbf8436a0952ce1178799c268", "fusion_lat": 0.0, "name": "d45583cfbf8436a0952ce1178799c268", "is_reserved": 0, "rental_uris": {"android": "https://dc.lft.to/lastmile_qr_scan", "ios": "https://dc.lft.to/lastmile_qr_scan"}, "fusion_lon": 0.0}, {"lat": 38.930732666666664, "is_disabled": 0, "type": "electric_scooter", "lon": -77.025661, "bike_id": "df3507598413588d9d98f86e3309fea0", "fusion_lat": 0.0, "name": "df3507598413588d9d98f86e3309fea0", "is_reserved": 0, "rental_uris": {"android": "https://dc.lft.to/lastmile_qr_scan", "ios": "https://dc.lft.to/lastmile_qr_scan"}, "fusion_lon": 0.0}, {"lat": 38.87450483333333, "is_disabled": 0, "type": "electric_scooter", "lon": -77.0092575, "bike_id": "410e341665c3523b8b706f6eca11544b", "fusion_lat": 0.0, "name": "410e341665c3523b8b706f6eca11544b", "is_reserved": 0, "rental_uris": {"android": "https://dc.lft.to/lastmile_qr_scan", "ios": "https://dc.lft.to/lastmile_qr_scan"}, "fusion_lon": 0.0}, {"lat": 38.9693035, "is_disabled": 0, "type": "electric_bike", "lon": -77.02622133333334, "bike_id": "16d12f3640c5d70a66331b48108e5eb6", "fusion_lat": 0.0, "name": "16d12f3640c5d70a66331b48108e5eb6", "is_reserved": 0, "rental_uris": {"android": "https://dc.lft.to/lastmile_qr_scan", "ios": "https://dc.lft.to/lastmile_qr_scan"}, "fusion_lon": 0.0}, {"lat": 38.933589, "is_disabled": 0, "type": "electric_scooter", "lon": -77.073655, "bike_id": "89865543a1e9bd206c8daabe37ea31cf", "fusion_lat": 0.0, "name": "89865543a1e9bd206c8daabe37ea31cf", "is_reserved": 0, "rental_uris": {"android": "https://dc.lft.to/lastmile_qr_scan", "ios": "https://dc.lft.to/lastmile_qr_scan"}, "fusion_lon": 0.0}, {"lat": 38.908644333333335, "is_disabled": 0, "type": "electric_bike", "lon": -76.93164316666666, "bike_id": "64ebce72dd73610046ea0475ade464fd", "fusion_lat": 0.0, "name": "64ebce72dd73610046ea0475ade464fd", "is_reserved": 0, "rental_uris": {"android": "https://dc.lft.to/lastmile_qr_scan", "ios": "https://dc.lft.to/lastmile_qr_scan"}, "fusion_lon": 0.0}, {"lat": 38.892476333333335, "is_disabled": 0, "type": "electric_scooter", "lon": -77.048935, "bike_id": "84405b01b2a5933e1d124e1888100e9f", "fusion_lat": 0.0, "name": "84405b01b2a5933e1d124e1888100e9f", "is_reserved": 0, "rental_uris": {"android": "https://dc.lft.to/lastmile_qr_scan", "ios": "https://dc.lft.to/lastmile_qr_scan"}, "fusion_lon": 0.0}, {"lat": 38.89838866666667, "is_disabled": 0, "type": "electric_scooter", "lon": -76.9310325, "bike_id": "60072dc6e1112300bfc60e0c585ce717", "fusion_lat": 0.0, "name": "60072dc6e1112300bfc60e0c585ce717", "is_reserved": 0, "rental_uris": {"android": "https://dc.lft.to/lastmile_qr_scan", "ios": "https://dc.lft.to/lastmile_qr_scan"}, "fusion_lon": 0.0}, {"lat": 38.9205445, "is_disabled": 0, "type": "electric_scooter", "lon": -77.04235783333333, "bike_id": "f1261303cc46ebeb97f9fe750c082f8c", "fusion_lat": 0.0, "name": "f1261303cc46ebeb97f9fe750c082f8c", "is_reserved": 0, "rental_uris": {"android": "https://dc.lft.to/lastmile_qr_scan", "ios": "https://dc.lft.to/lastmile_qr_scan"}, "fusion_lon": 0.0}, {"lat": 38.91671916666667, "is_disabled": 0, "type": "electric_scooter", "lon": -77.03071066666666, "bike_id": "d6e792d3ae1e6e2393460c68ce0d586a", "fusion_lat": 0.0, "name": "d6e792d3ae1e6e2393460c68ce0d586a", "is_reserved": 0, "rental_uris": {"android": "https://dc.lft.to/lastmile_qr_scan", "ios": "https://dc.lft.to/lastmile_qr_scan"}, "fusion_lon": 0.0}, {"lat": 38.901750666666665, "is_disabled": 0, "type": "electric_scooter", "lon": -77.02163766666666, "bike_id": "1749b71cb9ff8c94acc9aac4017a3048", "fusion_lat": 0.0, "name": "1749b71cb9ff8c94acc9aac4017a3048", "is_reserved": 0, "rental_uris": {"android": "https://dc.lft.to/lastmile_qr_scan", "ios": "https://dc.lft.to/lastmile_qr_scan"}, "fusion_lon": 0.0}, {"lat": 38.91995516666667, "is_disabled": 0, "type": "electric_scooter", "lon": -77.023968, "bike_id": "42d7b58725dba71cfb61dd91dc4cf815", "fusion_lat": 0.0, "name": "42d7b58725dba71cfb61dd91dc4cf815", "is_reserved": 0, "rental_uris": {"android": "https://dc.lft.to/lastmile_qr_scan", "ios": "https://dc.lft.to/lastmile_qr_scan"}, "fusion_lon": 0.0}, {"lat": 38.944367166666666, "is_disabled": 0, "type": "electric_scooter", "lon": -77.0234085, "bike_id": "258567fd785f9db2fa2c65d570acb534", "fusion_lat": 0.0, "name": "258567fd785f9db2fa2c65d570acb534", "is_reserved": 0, "rental_uris": {"android": "https://dc.lft.to/lastmile_qr_scan", "ios": "https://dc.lft.to/lastmile_qr_scan"}, "fusion_lon": 0.0}, {"lat": 38.85732766666667, "is_disabled": 0, "type": "electric_scooter", "lon": -76.9943425, "bike_id": "2333a84557b5a9f9f0d2f775d2fb27ca", "fusion_lat": 0.0, "name": "2333a84557b5a9f9f0d2f775d2fb27ca", "is_reserved": 0, "rental_uris": {"android": "https://dc.lft.to/lastmile_qr_scan", "ios": "https://dc.lft.to/lastmile_qr_scan"}, "fusion_lon": 0.0}, {"lat": 38.909616, "is_disabled": 0, "type": "electric_scooter", "lon": -77.03421716666666, "bike_id": "8f1c55ea52038e4bbf0be928cf70efde", "fusion_lat": 0.0, "name": "8f1c55ea52038e4bbf0be928cf70efde", "is_reserved": 0, "rental_uris": {"android": "https://dc.lft.to/lastmile_qr_scan", "ios": "https://dc.lft.to/lastmile_qr_scan"}, "fusion_lon": 0.0}, {"lat": 38.90865466666666, "is_disabled": 0, "type": "electric_bike", "lon": -77.00139016666667, "bike_id": "309c14e72dd2d85884c12b35c3a64033", "fusion_lat": 0.0, "name": "309c14e72dd2d85884c12b35c3a64033", "is_reserved": 0, "rental_uris": {"android": "https://dc.lft.to/lastmile_qr_scan", "ios": "https://dc.lft.to/lastmile_qr_scan"}, "fusion_lon": 0.0}, {"lat": 38.877324, "is_disabled": 0, "type": "electric_bike", "lon": -77.11851733333333, "bike_id": "680c87d1869ebe0bfe40ed4d78aa6732", "fusion_lat": 0.0, "name": "680c87d1869ebe0bfe40ed4d78aa6732", "is_reserved": 0, "rental_uris": {"android": "https://dc.lft.to/lastmile_qr_scan", "ios": "https://dc.lft.to/lastmile_qr_scan"}, "fusion_lon": 0.0}, {"lat": 38.862528166666664, "is_disabled": 0, "type": "electric_scooter", "lon": -76.98699, "bike_id": "1c7ee9101bab85e5134fd532a564e8c2", "fusion_lat": 0.0, "name": "1c7ee9101bab85e5134fd532a564e8c2", "is_reserved": 0, "rental_uris": {"android": "https://dc.lft.to/lastmile_qr_scan", "ios": "https://dc.lft.to/lastmile_qr_scan"}, "fusion_lon": 0.0}, {"lat": 38.912165, "is_disabled": 0, "type": "electric_scooter", "lon": -77.0759345, "bike_id": "f6fbe2fe4a37c2bbf2830f6098e9a07b", "fusion_lat": 0.0, "name": "f6fbe2fe4a37c2bbf2830f6098e9a07b", "is_reserved": 0, "rental_uris": {"android": "https://dc.lft.to/lastmile_qr_scan", "ios": "https://dc.lft.to/lastmile_qr_scan"}, "fusion_lon": 0.0}, {"lat": 38.95185566666667, "is_disabled": 0, "type": "electric_bike", "lon": -76.93545733333333, "bike_id": "85b2cea51781202e6a920513e11ce639", "fusion_lat": 0.0, "name": "85b2cea51781202e6a920513e11ce639", "is_reserved": 0, "rental_uris": {"android": "https://dc.lft.to/lastmile_qr_scan", "ios": "https://dc.lft.to/lastmile_qr_scan"}, "fusion_lon": 0.0}, {"lat": 38.906610666666666, "is_disabled": 0, "type": "electric_scooter", "lon": -77.01536316666666, "bike_id": "d791baf9da100e63bb0bd2920e852e1c", "fusion_lat": 0.0, "name": "d791baf9da100e63bb0bd2920e852e1c", "is_reserved": 0, "rental_uris": {"android": "https://dc.lft.to/lastmile_qr_scan", "ios": "https://dc.lft.to/lastmile_qr_scan"}, "fusion_lon": 0.0}, {"lat": 38.903721, "is_disabled": 0, "type": "electric_scooter", "lon": -77.0163495, "bike_id": "826fdfab3721366bee3b8e18f144894c", "fusion_lat": 0.0, "name": "826fdfab3721366bee3b8e18f144894c", "is_reserved": 0, "rental_uris": {"android": "https://dc.lft.to/lastmile_qr_scan", "ios": "https://dc.lft.to/lastmile_qr_scan"}, "fusion_lon": 0.0}, {"lat": 38.907348, "is_disabled": 0, "type": "electric_scooter", "lon": -77.04211416666666, "bike_id": "7ef14fdc6c19604e313862d5bf8a6ed4", "fusion_lat": 0.0, "name": "7ef14fdc6c19604e313862d5bf8a6ed4", "is_reserved": 0, "rental_uris": {"android": "https://dc.lft.to/lastmile_qr_scan", "ios": "https://dc.lft.to/lastmile_qr_scan"}, "fusion_lon": 0.0}, {"lat": 38.86749416666667, "is_disabled": 0, "type": "electric_scooter", "lon": -76.97664833333333, "bike_id": "8ea98ce24457281237ac509c1887e1c1", "fusion_lat": 0.0, "name": "8ea98ce24457281237ac509c1887e1c1", "is_reserved": 0, "rental_uris": {"android": "https://dc.lft.to/lastmile_qr_scan", "ios": "https://dc.lft.to/lastmile_qr_scan"}, "fusion_lon": 0.0}, {"lat": 38.91052033333333, "is_disabled": 0, "type": "electric_scooter", "lon": -77.01522683333333, "bike_id": "88cfa65de7c2ed7478fe0a68b1f3e837", "fusion_lat": 0.0, "name": "88cfa65de7c2ed7478fe0a68b1f3e837", "is_reserved": 0, "rental_uris": {"android": "https://dc.lft.to/lastmile_qr_scan", "ios": "https://dc.lft.to/lastmile_qr_scan"}, "fusion_lon": 0.0}, {"lat": 38.939122, "is_disabled": 0, "type": "electric_scooter", "lon": -77.024751, "bike_id": "2efdc88d48f54956ec3093677e389a1c", "fusion_lat": 0.0, "name": "2efdc88d48f54956ec3093677e389a1c", "is_reserved": 0, "rental_uris": {"android": "https://dc.lft.to/lastmile_qr_scan", "ios": "https://dc.lft.to/lastmile_qr_scan"}, "fusion_lon": 0.0}, {"lat": 38.918363666666664, "is_disabled": 0, "type": "electric_scooter", "lon": -77.0230765, "bike_id": "fcc898a2af949c2c5202a501337d2925", "fusion_lat": 0.0, "name": "fcc898a2af949c2c5202a501337d2925", "is_reserved": 0, "rental_uris": {"android": "https://dc.lft.to/lastmile_qr_scan", "ios": "https://dc.lft.to/lastmile_qr_scan"}, "fusion_lon": 0.0}, {"lat": 38.937474333333334, "is_disabled": 0, "type": "electric_scooter", "lon": -77.03456, "bike_id": "e4e70d7991faffe7231e1c059a53c4b8", "fusion_lat": 0.0, "name": "e4e70d7991faffe7231e1c059a53c4b8", "is_reserved": 0, "rental_uris": {"android": "https://dc.lft.to/lastmile_qr_scan", "ios": "https://dc.lft.to/lastmile_qr_scan"}, "fusion_lon": 0.0}, {"lat": 38.9064345, "is_disabled": 0, "type": "electric_scooter", "lon": -76.99025866666666, "bike_id": "0c2907148cf606a95ec6109638b9fa3a", "fusion_lat": 0.0, "name": "0c2907148cf606a95ec6109638b9fa3a", "is_reserved": 0, "rental_uris": {"android": "https://dc.lft.to/lastmile_qr_scan", "ios": "https://dc.lft.to/lastmile_qr_scan"}, "fusion_lon": 0.0}, {"lat": 38.84428666666667, "is_disabled": 0, "type": "electric_scooter", "lon": -76.99780983333333, "bike_id": "21a4ee22cc8b16b2d4f043fdd235f4a0", "fusion_lat": 0.0, "name": "21a4ee22cc8b16b2d4f043fdd235f4a0", "is_reserved": 0, "rental_uris": {"android": "https://dc.lft.to/lastmile_qr_scan", "ios": "https://dc.lft.to/lastmile_qr_scan"}, "fusion_lon": 0.0}, {"lat": 38.91865266666667, "is_disabled": 0, "type": "electric_scooter", "lon": -77.04156433333333, "bike_id": "366347480e0f299f0737dfa1a70fb963", "fusion_lat": 0.0, "name": "366347480e0f299f0737dfa1a70fb963", "is_reserved": 0, "rental_uris": {"android": "https://dc.lft.to/lastmile_qr_scan", "ios": "https://dc.lft.to/lastmile_qr_scan"}, "fusion_lon": 0.0}, {"lat": 38.956049666666665, "is_disabled": 0, "type": "electric_scooter", "lon": -77.010176, "bike_id": "971d71522b3b254d11132bd2d87406f3", "fusion_lat": 0.0, "name": "971d71522b3b254d11132bd2d87406f3", "is_reserved": 0, "rental_uris": {"android": "https://dc.lft.to/lastmile_qr_scan", "ios": "https://dc.lft.to/lastmile_qr_scan"}, "fusion_lon": 0.0}, {"lat": 38.92095066666667, "is_disabled": 0, "type": "electric_scooter", "lon": -77.0392415, "bike_id": "187cd83dfb7079031cabb0498bb8aca1", "fusion_lat": 0.0, "name": "187cd83dfb7079031cabb0498bb8aca1", "is_reserved": 0, "rental_uris": {"android": "https://dc.lft.to/lastmile_qr_scan", "ios": "https://dc.lft.to/lastmile_qr_scan"}, "fusion_lon": 0.0}, {"lat": 38.952949333333336, "is_disabled": 0, "type": "electric_bike", "lon": -76.982073, "bike_id": "bcfb4dbd7d3a48f459ca8c4478514a60", "fusion_lat": 0.0, "name": "bcfb4dbd7d3a48f459ca8c4478514a60", "is_reserved": 0, "rental_uris": {"android": "https://dc.lft.to/lastmile_qr_scan", "ios": "https://dc.lft.to/lastmile_qr_scan"}, "fusion_lon": 0.0}, {"lat": 38.8767515, "is_disabled": 0, "type": "electric_scooter", "lon": -77.00418816666667, "bike_id": "e848bb26c8ae01d02641d7c991a23c2c", "fusion_lat": 0.0, "name": "e848bb26c8ae01d02641d7c991a23c2c", "is_reserved": 0, "rental_uris": {"android": "https://dc.lft.to/lastmile_qr_scan", "ios": "https://dc.lft.to/lastmile_qr_scan"}, "fusion_lon": 0.0}, {"lat": 38.90790466666667, "is_disabled": 0, "type": "electric_scooter", "lon": -77.00197366666667, "bike_id": "e57d0e8fd5d8347a1b90968453468355", "fusion_lat": 0.0, "name": "e57d0e8fd5d8347a1b90968453468355", "is_reserved": 0, "rental_uris": {"android": "https://dc.lft.to/lastmile_qr_scan", "ios": "https://dc.lft.to/lastmile_qr_scan"}, "fusion_lon": 0.0}, {"lat": 38.852121833333335, "is_disabled": 0, "type": "electric_bike", "lon": -76.99583066666666, "bike_id": "4d1ac78b049dc295cb35d6136e1e0888", "fusion_lat": 0.0, "name": "4d1ac78b049dc295cb35d6136e1e0888", "is_reserved": 0, "rental_uris": {"android": "https://dc.lft.to/lastmile_qr_scan", "ios": "https://dc.lft.to/lastmile_qr_scan"}, "fusion_lon": 0.0}, {"lat": 38.9212075, "is_disabled": 0, "type": "electric_scooter", "lon": -77.0412625, "bike_id": "f02bb64a906f2dacb406910b87058871", "fusion_lat": 0.0, "name": "f02bb64a906f2dacb406910b87058871", "is_reserved": 0, "rental_uris": {"android": "https://dc.lft.to/lastmile_qr_scan", "ios": "https://dc.lft.to/lastmile_qr_scan"}, "fusion_lon": 0.0}, {"lat": 38.804984166666664, "is_disabled": 0, "type": "electric_bike", "lon": -77.04123516666667, "bike_id": "493cd6d02f34a0463c5b30f649f27ad8", "fusion_lat": 0.0, "name": "493cd6d02f34a0463c5b30f649f27ad8", "is_reserved": 0, "rental_uris": {"android": "https://dc.lft.to/lastmile_qr_scan", "ios": "https://dc.lft.to/lastmile_qr_scan"}, "fusion_lon": 0.0}, {"lat": 38.9333965, "is_disabled": 0, "type": "electric_scooter", "lon": -76.99307233333333, "bike_id": "536760c972094ddc2dc616c586872616", "fusion_lat": 0.0, "name": "536760c972094ddc2dc616c586872616", "is_reserved": 0, "rental_uris": {"android": "https://dc.lft.to/lastmile_qr_scan", "ios": "https://dc.lft.to/lastmile_qr_scan"}, "fusion_lon": 0.0}, {"lat": 38.866197666666665, "is_disabled": 0, "type": "electric_scooter", "lon": -76.98643, "bike_id": "189f106fcfa878e244b759864359c304", "fusion_lat": 0.0, "name": "189f106fcfa878e244b759864359c304", "is_reserved": 0, "rental_uris": {"android": "https://dc.lft.to/lastmile_qr_scan", "ios": "https://dc.lft.to/lastmile_qr_scan"}, "fusion_lon": 0.0}, {"lat": 38.91036533333333, "is_disabled": 0, "type": "electric_scooter", "lon": -77.04888866666667, "bike_id": "a34201db0637add9bcc51cd0eb5e025e", "fusion_lat": 0.0, "name": "a34201db0637add9bcc51cd0eb5e025e", "is_reserved": 0, "rental_uris": {"android": "https://dc.lft.to/lastmile_qr_scan", "ios": "https://dc.lft.to/lastmile_qr_scan"}, "fusion_lon": 0.0}, {"lat": 38.96606533333333, "is_disabled": 0, "type": "electric_scooter", "lon": -77.02056566666667, "bike_id": "a28a58c20b7ce0aa694d3262829da9b7", "fusion_lat": 0.0, "name": "a28a58c20b7ce0aa694d3262829da9b7", "is_reserved": 0, "rental_uris": {"android": "https://dc.lft.to/lastmile_qr_scan", "ios": "https://dc.lft.to/lastmile_qr_scan"}, "fusion_lon": 0.0}, {"lat": 38.915609833333335, "is_disabled": 0, "type": "electric_scooter", "lon": -77.03846083333333, "bike_id": "a7ceb4eb2bfcd8da69ea08cff02cec78", "fusion_lat": 0.0, "name": "a7ceb4eb2bfcd8da69ea08cff02cec78", "is_reserved": 0, "rental_uris": {"android": "https://dc.lft.to/lastmile_qr_scan", "ios": "https://dc.lft.to/lastmile_qr_scan"}, "fusion_lon": 0.0}, {"lat": 38.85807583333333, "is_disabled": 0, "type": "electric_scooter", "lon": -76.98652683333333, "bike_id": "9545c6cd2b618c3cee0b2fc88caf08ab", "fusion_lat": 0.0, "name": "9545c6cd2b618c3cee0b2fc88caf08ab", "is_reserved": 0, "rental_uris": {"android": "https://dc.lft.to/lastmile_qr_scan", "ios": "https://dc.lft.to/lastmile_qr_scan"}, "fusion_lon": 0.0}, {"lat": 38.906788166666665, "is_disabled": 0, "type": "electric_scooter", "lon": -77.0606805, "bike_id": "a7c78967836903dd70b2b13738453de3", "fusion_lat": 0.0, "name": "a7c78967836903dd70b2b13738453de3", "is_reserved": 0, "rental_uris": {"android": "https://dc.lft.to/lastmile_qr_scan", "ios": "https://dc.lft.to/lastmile_qr_scan"}, "fusion_lon": 0.0}, {"lat": 38.9211885, "is_disabled": 0, "type": "electric_scooter", "lon": -77.0181375, "bike_id": "17971c5dbccf8b43a9cf9ae8290f957d", "fusion_lat": 0.0, "name": "17971c5dbccf8b43a9cf9ae8290f957d", "is_reserved": 0, "rental_uris": {"android": "https://dc.lft.to/lastmile_qr_scan", "ios": "https://dc.lft.to/lastmile_qr_scan"}, "fusion_lon": 0.0}, {"lat": 38.925835166666666, "is_disabled": 0, "type": "electric_scooter", "lon": -77.05749183333333, "bike_id": "8a8ee03d44f655f29f8d87823f1b6532", "fusion_lat": 0.0, "name": "8a8ee03d44f655f29f8d87823f1b6532", "is_reserved": 0, "rental_uris": {"android": "https://dc.lft.to/lastmile_qr_scan", "ios": "https://dc.lft.to/lastmile_qr_scan"}, "fusion_lon": 0.0}, {"lat": 38.90259133333333, "is_disabled": 0, "type": "electric_scooter", "lon": -77.01764133333333, "bike_id": "7763c5ecbf53de7f33077d591d8dcf06", "fusion_lat": 0.0, "name": "7763c5ecbf53de7f33077d591d8dcf06", "is_reserved": 0, "rental_uris": {"android": "https://dc.lft.to/lastmile_qr_scan", "ios": "https://dc.lft.to/lastmile_qr_scan"}, "fusion_lon": 0.0}, {"lat": 38.961168666666666, "is_disabled": 0, "type": "electric_scooter", "lon": -77.028133, "bike_id": "44253a0ff42e341660830432b405c1df", "fusion_lat": 0.0, "name": "44253a0ff42e341660830432b405c1df", "is_reserved": 0, "rental_uris": {"android": "https://dc.lft.to/lastmile_qr_scan", "ios": "https://dc.lft.to/lastmile_qr_scan"}, "fusion_lon": 0.0}, {"lat": 38.90563733333333, "is_disabled": 0, "type": "electric_scooter", "lon": -77.01794066666666, "bike_id": "8ff93cd88693f7afd88d112678928e53", "fusion_lat": 0.0, "name": "8ff93cd88693f7afd88d112678928e53", "is_reserved": 0, "rental_uris": {"android": "https://dc.lft.to/lastmile_qr_scan", "ios": "https://dc.lft.to/lastmile_qr_scan"}, "fusion_lon": 0.0}, {"lat": 38.929096333333334, "is_disabled": 0, "type": "electric_scooter", "lon": -77.0218895, "bike_id": "f8d84c0092bcae0353627c9dab60e300", "fusion_lat": 0.0, "name": "f8d84c0092bcae0353627c9dab60e300", "is_reserved": 0, "rental_uris": {"android": "https://dc.lft.to/lastmile_qr_scan", "ios": "https://dc.lft.to/lastmile_qr_scan"}, "fusion_lon": 0.0}, {"lat": 38.8921795, "is_disabled": 0, "type": "electric_scooter", "lon": -77.02116166666667, "bike_id": "e2a8d18bcb611d4c9f9cfe662e0d0091", "fusion_lat": 0.0, "name": "e2a8d18bcb611d4c9f9cfe662e0d0091", "is_reserved": 0, "rental_uris": {"android": "https://dc.lft.to/lastmile_qr_scan", "ios": "https://dc.lft.to/lastmile_qr_scan"}, "fusion_lon": 0.0}, {"lat": 38.982805666666664, "is_disabled": 0, "type": "electric_bike", "lon": -77.01772016666666, "bike_id": "675648c065dd051e3402683595dcf5dd", "fusion_lat": 0.0, "name": "675648c065dd051e3402683595dcf5dd", "is_reserved": 0, "rental_uris": {"android": "https://dc.lft.to/lastmile_qr_scan", "ios": "https://dc.lft.to/lastmile_qr_scan"}, "fusion_lon": 0.0}, {"lat": 38.895447, "is_disabled": 0, "type": "electric_scooter", "lon": -77.022757, "bike_id": "b1fe6d93cab18f5de31ae3766199186d", "fusion_lat": 0.0, "name": "b1fe6d93cab18f5de31ae3766199186d", "is_reserved": 0, "rental_uris": {"android": "https://dc.lft.to/lastmile_qr_scan", "ios": "https://dc.lft.to/lastmile_qr_scan"}, "fusion_lon": 0.0}, {"lat": 38.9205395, "is_disabled": 0, "type": "electric_scooter", "lon": -77.0243145, "bike_id": "23eeff786c40e54012604a5e8d72ebc6", "fusion_lat": 0.0, "name": "23eeff786c40e54012604a5e8d72ebc6", "is_reserved": 0, "rental_uris": {"android": "https://dc.lft.to/lastmile_qr_scan", "ios": "https://dc.lft.to/lastmile_qr_scan"}, "fusion_lon": 0.0}, {"lat": 38.985050666666666, "is_disabled": 0, "type": "electric_bike", "lon": -76.9819845, "bike_id": "5efaa2c0469e529bf3eb94c6e68c7424", "fusion_lat": 0.0, "name": "5efaa2c0469e529bf3eb94c6e68c7424", "is_reserved": 0, "rental_uris": {"android": "https://dc.lft.to/lastmile_qr_scan", "ios": "https://dc.lft.to/lastmile_qr_scan"}, "fusion_lon": 0.0}, {"lat": 38.805777666666664, "is_disabled": 0, "type": "electric_bike", "lon": -77.06859616666667, "bike_id": "46d7633cef8ba35e1a2275c1fefc4224", "fusion_lat": 0.0, "name": "46d7633cef8ba35e1a2275c1fefc4224", "is_reserved": 0, "rental_uris": {"android": "https://dc.lft.to/lastmile_qr_scan", "ios": "https://dc.lft.to/lastmile_qr_scan"}, "fusion_lon": 0.0}, {"lat": 38.90201316666667, "is_disabled": 0, "type": "electric_scooter", "lon": -77.02377816666667, "bike_id": "b0a61e374d728b311e9d70d33655f28e", "fusion_lat": 0.0, "name": "b0a61e374d728b311e9d70d33655f28e", "is_reserved": 0, "rental_uris": {"android": "https://dc.lft.to/lastmile_qr_scan", "ios": "https://dc.lft.to/lastmile_qr_scan"}, "fusion_lon": 0.0}, {"lat": 38.864086666666665, "is_disabled": 0, "type": "electric_bike", "lon": -76.974551, "bike_id": "50fb0df078c87a82f5d3205aeb83bc09", "fusion_lat": 0.0, "name": "50fb0df078c87a82f5d3205aeb83bc09", "is_reserved": 0, "rental_uris": {"android": "https://dc.lft.to/lastmile_qr_scan", "ios": "https://dc.lft.to/lastmile_qr_scan"}, "fusion_lon": 0.0}, {"lat": 38.900241, "is_disabled": 0, "type": "electric_scooter", "lon": -76.99574116666666, "bike_id": "d0fe72b73caf409238c472b7fc0cb053", "fusion_lat": 0.0, "name": "d0fe72b73caf409238c472b7fc0cb053", "is_reserved": 0, "rental_uris": {"android": "https://dc.lft.to/lastmile_qr_scan", "ios": "https://dc.lft.to/lastmile_qr_scan"}, "fusion_lon": 0.0}, {"lat": 38.93075183333333, "is_disabled": 0, "type": "electric_scooter", "lon": -77.03410633333333, "bike_id": "26a8246cea25bd96be99dacd45aa8367", "fusion_lat": 0.0, "name": "26a8246cea25bd96be99dacd45aa8367", "is_reserved": 0, "rental_uris": {"android": "https://dc.lft.to/lastmile_qr_scan", "ios": "https://dc.lft.to/lastmile_qr_scan"}, "fusion_lon": 0.0}, {"lat": 38.91438083333333, "is_disabled": 0, "type": "electric_scooter", "lon": -77.03639733333333, "bike_id": "2972379a33ccafbf2d878c045e497cbc", "fusion_lat": 0.0, "name": "2972379a33ccafbf2d878c045e497cbc", "is_reserved": 0, "rental_uris": {"android": "https://dc.lft.to/lastmile_qr_scan", "ios": "https://dc.lft.to/lastmile_qr_scan"}, "fusion_lon": 0.0}, {"lat": 38.923419333333335, "is_disabled": 0, "type": "electric_scooter", "lon": -77.03415333333334, "bike_id": "e3c1d0c2e1735753dc16bc081d1b00c8", "fusion_lat": 0.0, "name": "e3c1d0c2e1735753dc16bc081d1b00c8", "is_reserved": 0, "rental_uris": {"android": "https://dc.lft.to/lastmile_qr_scan", "ios": "https://dc.lft.to/lastmile_qr_scan"}, "fusion_lon": 0.0}, {"lat": 38.9011325, "is_disabled": 0, "type": "electric_scooter", "lon": -77.0499805, "bike_id": "df1e6793ccc980c0b4415e9861054eaf", "fusion_lat": 0.0, "name": "df1e6793ccc980c0b4415e9861054eaf", "is_reserved": 0, "rental_uris": {"android": "https://dc.lft.to/lastmile_qr_scan", "ios": "https://dc.lft.to/lastmile_qr_scan"}, "fusion_lon": 0.0}, {"lat": 38.894761, "is_disabled": 0, "type": "electric_scooter", "lon": -77.02121316666667, "bike_id": "603ee8f67a9f09e68b71122fcafa0dfa", "fusion_lat": 0.0, "name": "603ee8f67a9f09e68b71122fcafa0dfa", "is_reserved": 0, "rental_uris": {"android": "https://dc.lft.to/lastmile_qr_scan", "ios": "https://dc.lft.to/lastmile_qr_scan"}, "fusion_lon": 0.0}, {"lat": 38.9034945, "is_disabled": 0, "type": "electric_scooter", "lon": -77.03992416666667, "bike_id": "62981744ad3dccb152ff15c3b1ad9a23", "fusion_lat": 0.0, "name": "62981744ad3dccb152ff15c3b1ad9a23", "is_reserved": 0, "rental_uris": {"android": "https://dc.lft.to/lastmile_qr_scan", "ios": "https://dc.lft.to/lastmile_qr_scan"}, "fusion_lon": 0.0}, {"lat": 38.907987, "is_disabled": 0, "type": "electric_scooter", "lon": -77.04345916666666, "bike_id": "8dd6e24e0043020fd509f984b50248b6", "fusion_lat": 0.0, "name": "8dd6e24e0043020fd509f984b50248b6", "is_reserved": 0, "rental_uris": {"android": "https://dc.lft.to/lastmile_qr_scan", "ios": "https://dc.lft.to/lastmile_qr_scan"}, "fusion_lon": 0.0}, {"lat": 38.909818333333334, "is_disabled": 0, "type": "electric_bike", "lon": -76.98520383333333, "bike_id": "c1674dba0a5c828ecadfe85cabd17850", "fusion_lat": 0.0, "name": "c1674dba0a5c828ecadfe85cabd17850", "is_reserved": 0, "rental_uris": {"android": "https://dc.lft.to/lastmile_qr_scan", "ios": "https://dc.lft.to/lastmile_qr_scan"}, "fusion_lon": 0.0}, {"lat": 38.90351183333333, "is_disabled": 0, "type": "electric_scooter", "lon": -77.04264016666667, "bike_id": "8efc8e442a5d7eb976898787fd7cf68b", "fusion_lat": 0.0, "name": "8efc8e442a5d7eb976898787fd7cf68b", "is_reserved": 0, "rental_uris": {"android": "https://dc.lft.to/lastmile_qr_scan", "ios": "https://dc.lft.to/lastmile_qr_scan"}, "fusion_lon": 0.0}, {"lat": 38.9257605, "is_disabled": 0, "type": "electric_scooter", "lon": -77.035325, "bike_id": "46ee4b8fadaedcb52b33de262fa849b1", "fusion_lat": 0.0, "name": "46ee4b8fadaedcb52b33de262fa849b1", "is_reserved": 0, "rental_uris": {"android": "https://dc.lft.to/lastmile_qr_scan", "ios": "https://dc.lft.to/lastmile_qr_scan"}, "fusion_lon": 0.0}, {"lat": 38.90811166666667, "is_disabled": 0, "type": "electric_scooter", "lon": -76.982803, "bike_id": "8b3d4122dbeccffbdbd71995507c6a3e", "fusion_lat": 0.0, "name": "8b3d4122dbeccffbdbd71995507c6a3e", "is_reserved": 0, "rental_uris": {"android": "https://dc.lft.to/lastmile_qr_scan", "ios": "https://dc.lft.to/lastmile_qr_scan"}, "fusion_lon": 0.0}, {"lat": 38.90269, "is_disabled": 0, "type": "electric_scooter", "lon": -77.0337235, "bike_id": "c2a5b04c03c6899917a9e0979795c52b", "fusion_lat": 0.0, "name": "c2a5b04c03c6899917a9e0979795c52b", "is_reserved": 0, "rental_uris": {"android": "https://dc.lft.to/lastmile_qr_scan", "ios": "https://dc.lft.to/lastmile_qr_scan"}, "fusion_lon": 0.0}, {"lat": 38.905506833333334, "is_disabled": 0, "type": "electric_scooter", "lon": -77.03417516666667, "bike_id": "3f633f0757fc70bf7bed74980450cf57", "fusion_lat": 0.0, "name": "3f633f0757fc70bf7bed74980450cf57", "is_reserved": 0, "rental_uris": {"android": "https://dc.lft.to/lastmile_qr_scan", "ios": "https://dc.lft.to/lastmile_qr_scan"}, "fusion_lon": 0.0}, {"lat": 38.88070416666667, "is_disabled": 0, "type": "electric_bike", "lon": -77.10903583333334, "bike_id": "16550c071913267d3b3706b6012ec963", "fusion_lat": 0.0, "name": "16550c071913267d3b3706b6012ec963", "is_reserved": 0, "rental_uris": {"android": "https://dc.lft.to/lastmile_qr_scan", "ios": "https://dc.lft.to/lastmile_qr_scan"}, "fusion_lon": 0.0}, {"lat": 38.8934545, "is_disabled": 0, "type": "electric_scooter", "lon": -76.94935166666667, "bike_id": "07eae81897a0f871c8371bb9ef5c2529", "fusion_lat": 0.0, "name": "07eae81897a0f871c8371bb9ef5c2529", "is_reserved": 0, "rental_uris": {"android": "https://dc.lft.to/lastmile_qr_scan", "ios": "https://dc.lft.to/lastmile_qr_scan"}, "fusion_lon": 0.0}, {"lat": 38.9142025, "is_disabled": 0, "type": "electric_scooter", "lon": -77.0220395, "bike_id": "22ae3b14fe4166b33d6cfee85e825197", "fusion_lat": 0.0, "name": "22ae3b14fe4166b33d6cfee85e825197", "is_reserved": 0, "rental_uris": {"android": "https://dc.lft.to/lastmile_qr_scan", "ios": "https://dc.lft.to/lastmile_qr_scan"}, "fusion_lon": 0.0}, {"lat": 38.972755666666664, "is_disabled": 0, "type": "electric_bike", "lon": -77.03621583333333, "bike_id": "50264067bd07b798d63da12780375335", "fusion_lat": 0.0, "name": "50264067bd07b798d63da12780375335", "is_reserved": 0, "rental_uris": {"android": "https://dc.lft.to/lastmile_qr_scan", "ios": "https://dc.lft.to/lastmile_qr_scan"}, "fusion_lon": 0.0}, {"lat": 38.918122, "is_disabled": 0, "type": "electric_scooter", "lon": -77.03914066666667, "bike_id": "5ea039d58ba74c921829a86b0dd02f12", "fusion_lat": 0.0, "name": "5ea039d58ba74c921829a86b0dd02f12", "is_reserved": 0, "rental_uris": {"android": "https://dc.lft.to/lastmile_qr_scan", "ios": "https://dc.lft.to/lastmile_qr_scan"}, "fusion_lon": 0.0}, {"lat": 38.9111365, "is_disabled": 0, "type": "electric_scooter", "lon": -77.0481645, "bike_id": "8291d14a56c6fe7827959270077fb34c", "fusion_lat": 0.0, "name": "8291d14a56c6fe7827959270077fb34c", "is_reserved": 0, "rental_uris": {"android": "https://dc.lft.to/lastmile_qr_scan", "ios": "https://dc.lft.to/lastmile_qr_scan"}, "fusion_lon": 0.0}, {"lat": 38.813464833333335, "is_disabled": 0, "type": "electric_bike", "lon": -77.04924333333334, "bike_id": "411a9e5db93afbf77bff521d07645711", "fusion_lat": 0.0, "name": "411a9e5db93afbf77bff521d07645711", "is_reserved": 0, "rental_uris": {"android": "https://dc.lft.to/lastmile_qr_scan", "ios": "https://dc.lft.to/lastmile_qr_scan"}, "fusion_lon": 0.0}, {"lat": 38.890193833333335, "is_disabled": 0, "type": "electric_scooter", "lon": -77.00053133333333, "bike_id": "a8e04bd86413436a80c33b27450f38e3", "fusion_lat": 0.0, "name": "a8e04bd86413436a80c33b27450f38e3", "is_reserved": 0, "rental_uris": {"android": "https://dc.lft.to/lastmile_qr_scan", "ios": "https://dc.lft.to/lastmile_qr_scan"}, "fusion_lon": 0.0}, {"lat": 38.936959333333334, "is_disabled": 0, "type": "electric_scooter", "lon": -77.03262966666667, "bike_id": "22a52e13bdbd09d13c697c3dafd81f9a", "fusion_lat": 0.0, "name": "22a52e13bdbd09d13c697c3dafd81f9a", "is_reserved": 0, "rental_uris": {"android": "https://dc.lft.to/lastmile_qr_scan", "ios": "https://dc.lft.to/lastmile_qr_scan"}, "fusion_lon": 0.0}, {"lat": 38.90268966666667, "is_disabled": 0, "type": "electric_scooter", "lon": -77.03645383333334, "bike_id": "41486fc792e2937b948d07d9bee47b90", "fusion_lat": 0.0, "name": "41486fc792e2937b948d07d9bee47b90", "is_reserved": 0, "rental_uris": {"android": "https://dc.lft.to/lastmile_qr_scan", "ios": "https://dc.lft.to/lastmile_qr_scan"}, "fusion_lon": 0.0}, {"lat": 38.90748083333333, "is_disabled": 0, "type": "electric_scooter", "lon": -77.04189233333334, "bike_id": "c58699fc5f597eaaf81db52114fe694a", "fusion_lat": 0.0, "name": "c58699fc5f597eaaf81db52114fe694a", "is_reserved": 0, "rental_uris": {"android": "https://dc.lft.to/lastmile_qr_scan", "ios": "https://dc.lft.to/lastmile_qr_scan"}, "fusion_lon": 0.0}, {"lat": 38.8975535, "is_disabled": 0, "type": "electric_scooter", "lon": -76.94183683333333, "bike_id": "eedeb7c6bb5d1bf899f6b03b6041cd54", "fusion_lat": 0.0, "name": "eedeb7c6bb5d1bf899f6b03b6041cd54", "is_reserved": 0, "rental_uris": {"android": "https://dc.lft.to/lastmile_qr_scan", "ios": "https://dc.lft.to/lastmile_qr_scan"}, "fusion_lon": 0.0}, {"lat": 38.92372966666667, "is_disabled": 0, "type": "electric_scooter", "lon": -77.030545, "bike_id": "b8c7b9cbfdf07df014bb7a26793310c1", "fusion_lat": 0.0, "name": "b8c7b9cbfdf07df014bb7a26793310c1", "is_reserved": 0, "rental_uris": {"android": "https://dc.lft.to/lastmile_qr_scan", "ios": "https://dc.lft.to/lastmile_qr_scan"}, "fusion_lon": 0.0}, {"lat": 38.905327, "is_disabled": 0, "type": "electric_scooter", "lon": -77.05677316666667, "bike_id": "f808201605773e7506d647715002f5c5", "fusion_lat": 0.0, "name": "f808201605773e7506d647715002f5c5", "is_reserved": 0, "rental_uris": {"android": "https://dc.lft.to/lastmile_qr_scan", "ios": "https://dc.lft.to/lastmile_qr_scan"}, "fusion_lon": 0.0}, {"lat": 38.91480166666667, "is_disabled": 0, "type": "electric_scooter", "lon": -77.01378516666666, "bike_id": "ca76245490fa9cef234ab767cbb07a15", "fusion_lat": 0.0, "name": "ca76245490fa9cef234ab767cbb07a15", "is_reserved": 0, "rental_uris": {"android": "https://dc.lft.to/lastmile_qr_scan", "ios": "https://dc.lft.to/lastmile_qr_scan"}, "fusion_lon": 0.0}, {"lat": 38.855117166666666, "is_disabled": 0, "type": "electric_bike", "lon": -76.984103, "bike_id": "1a86ea49b69bdcf23dc77a713fe10456", "fusion_lat": 0.0, "name": "1a86ea49b69bdcf23dc77a713fe10456", "is_reserved": 0, "rental_uris": {"android": "https://dc.lft.to/lastmile_qr_scan", "ios": "https://dc.lft.to/lastmile_qr_scan"}, "fusion_lon": 0.0}, {"lat": 38.90011666666667, "is_disabled": 0, "type": "electric_scooter", "lon": -76.92232816666667, "bike_id": "68c14042ed919bad2c6e42d47b7d7e72", "fusion_lat": 0.0, "name": "68c14042ed919bad2c6e42d47b7d7e72", "is_reserved": 0, "rental_uris": {"android": "https://dc.lft.to/lastmile_qr_scan", "ios": "https://dc.lft.to/lastmile_qr_scan"}, "fusion_lon": 0.0}, {"lat": 38.90064433333333, "is_disabled": 0, "type": "electric_scooter", "lon": -77.02582133333334, "bike_id": "ee2f2fee918d717101121d4b195efee6", "fusion_lat": 0.0, "name": "ee2f2fee918d717101121d4b195efee6", "is_reserved": 0, "rental_uris": {"android": "https://dc.lft.to/lastmile_qr_scan", "ios": "https://dc.lft.to/lastmile_qr_scan"}, "fusion_lon": 0.0}, {"lat": 38.90104516666667, "is_disabled": 0, "type": "electric_scooter", "lon": -76.98639116666666, "bike_id": "21ae3ffa0f57edcf4f07b10f700c6c52", "fusion_lat": 0.0, "name": "21ae3ffa0f57edcf4f07b10f700c6c52", "is_reserved": 0, "rental_uris": {"android": "https://dc.lft.to/lastmile_qr_scan", "ios": "https://dc.lft.to/lastmile_qr_scan"}, "fusion_lon": 0.0}, {"lat": 38.927500333333334, "is_disabled": 0, "type": "electric_scooter", "lon": -77.029606, "bike_id": "19b0fd717d8d16e1b64398a78d98fa2f", "fusion_lat": 0.0, "name": "19b0fd717d8d16e1b64398a78d98fa2f", "is_reserved": 0, "rental_uris": {"android": "https://dc.lft.to/lastmile_qr_scan", "ios": "https://dc.lft.to/lastmile_qr_scan"}, "fusion_lon": 0.0}, {"lat": 38.91548483333333, "is_disabled": 0, "type": "electric_scooter", "lon": -77.02426, "bike_id": "1a6a5c5bb7559b619e8b6ff0cf3b11f0", "fusion_lat": 0.0, "name": "1a6a5c5bb7559b619e8b6ff0cf3b11f0", "is_reserved": 0, "rental_uris": {"android": "https://dc.lft.to/lastmile_qr_scan", "ios": "https://dc.lft.to/lastmile_qr_scan"}, "fusion_lon": 0.0}, {"lat": 38.914467, "is_disabled": 0, "type": "electric_scooter", "lon": -77.02970283333333, "bike_id": "0ed7d1f5b64da85053d7435f0394cad8", "fusion_lat": 0.0, "name": "0ed7d1f5b64da85053d7435f0394cad8", "is_reserved": 0, "rental_uris": {"android": "https://dc.lft.to/lastmile_qr_scan", "ios": "https://dc.lft.to/lastmile_qr_scan"}, "fusion_lon": 0.0}, {"lat": 38.8849405, "is_disabled": 0, "type": "electric_scooter", "lon": -77.00726216666666, "bike_id": "6c9caf7e5be908b9c974bf0650229f54", "fusion_lat": 0.0, "name": "6c9caf7e5be908b9c974bf0650229f54", "is_reserved": 0, "rental_uris": {"android": "https://dc.lft.to/lastmile_qr_scan", "ios": "https://dc.lft.to/lastmile_qr_scan"}, "fusion_lon": 0.0}, {"lat": 38.93338266666667, "is_disabled": 0, "type": "electric_scooter", "lon": -76.99309333333333, "bike_id": "01e8bd475a87efcd73b4cc767254450f", "fusion_lat": 0.0, "name": "01e8bd475a87efcd73b4cc767254450f", "is_reserved": 0, "rental_uris": {"android": "https://dc.lft.to/lastmile_qr_scan", "ios": "https://dc.lft.to/lastmile_qr_scan"}, "fusion_lon": 0.0}, {"lat": 38.931458, "is_disabled": 0, "type": "electric_scooter", "lon": -77.02145883333333, "bike_id": "8dc29d5ce298a2477e2d27b66ed90717", "fusion_lat": 0.0, "name": "8dc29d5ce298a2477e2d27b66ed90717", "is_reserved": 0, "rental_uris": {"android": "https://dc.lft.to/lastmile_qr_scan", "ios": "https://dc.lft.to/lastmile_qr_scan"}, "fusion_lon": 0.0}, {"lat": 38.924197, "is_disabled": 0, "type": "electric_scooter", "lon": -77.02971916666667, "bike_id": "cc162aa5665483175645984e0cad450d", "fusion_lat": 0.0, "name": "cc162aa5665483175645984e0cad450d", "is_reserved": 0, "rental_uris": {"android": "https://dc.lft.to/lastmile_qr_scan", "ios": "https://dc.lft.to/lastmile_qr_scan"}, "fusion_lon": 0.0}, {"lat": 38.899567166666664, "is_disabled": 0, "type": "electric_scooter", "lon": -77.03374933333333, "bike_id": "11ece4b080c454d6e7ba7651863000e7", "fusion_lat": 0.0, "name": "11ece4b080c454d6e7ba7651863000e7", "is_reserved": 0, "rental_uris": {"android": "https://dc.lft.to/lastmile_qr_scan", "ios": "https://dc.lft.to/lastmile_qr_scan"}, "fusion_lon": 0.0}, {"lat": 38.90092633333333, "is_disabled": 0, "type": "electric_scooter", "lon": -77.015602, "bike_id": "b43115660e8106f31e6e6b7ac44296a2", "fusion_lat": 0.0, "name": "b43115660e8106f31e6e6b7ac44296a2", "is_reserved": 0, "rental_uris": {"android": "https://dc.lft.to/lastmile_qr_scan", "ios": "https://dc.lft.to/lastmile_qr_scan"}, "fusion_lon": 0.0}, {"lat": 38.952549166666664, "is_disabled": 0, "type": "electric_bike", "lon": -77.02397233333333, "bike_id": "39b998fcbd7f0b397f5e8ee4139bf82d", "fusion_lat": 0.0, "name": "39b998fcbd7f0b397f5e8ee4139bf82d", "is_reserved": 0, "rental_uris": {"android": "https://dc.lft.to/lastmile_qr_scan", "ios": "https://dc.lft.to/lastmile_qr_scan"}, "fusion_lon": 0.0}, {"lat": 38.930936833333334, "is_disabled": 0, "type": "electric_scooter", "lon": -77.0775565, "bike_id": "382fb9bf838b4ec3091a8776c578be51", "fusion_lat": 0.0, "name": "382fb9bf838b4ec3091a8776c578be51", "is_reserved": 0, "rental_uris": {"android": "https://dc.lft.to/lastmile_qr_scan", "ios": "https://dc.lft.to/lastmile_qr_scan"}, "fusion_lon": 0.0}, {"lat": 38.894328333333334, "is_disabled": 0, "type": "electric_scooter", "lon": -77.03166566666667, "bike_id": "ae2a7fc4c2494da536017bec0033618d", "fusion_lat": 0.0, "name": "ae2a7fc4c2494da536017bec0033618d", "is_reserved": 0, "rental_uris": {"android": "https://dc.lft.to/lastmile_qr_scan", "ios": "https://dc.lft.to/lastmile_qr_scan"}, "fusion_lon": 0.0}, {"lat": 38.86698066666666, "is_disabled": 0, "type": "electric_scooter", "lon": -76.98709583333333, "bike_id": "312a2cab0713a81b906ed3b8ed31ac4a", "fusion_lat": 0.0, "name": "312a2cab0713a81b906ed3b8ed31ac4a", "is_reserved": 0, "rental_uris": {"android": "https://dc.lft.to/lastmile_qr_scan", "ios": "https://dc.lft.to/lastmile_qr_scan"}, "fusion_lon": 0.0}, {"lat": 38.909443, "is_disabled": 0, "type": "electric_scooter", "lon": -76.98963866666666, "bike_id": "287fe2f4d9cb22496b21535cddf2b2a8", "fusion_lat": 0.0, "name": "287fe2f4d9cb22496b21535cddf2b2a8", "is_reserved": 0, "rental_uris": {"android": "https://dc.lft.to/lastmile_qr_scan", "ios": "https://dc.lft.to/lastmile_qr_scan"}, "fusion_lon": 0.0}, {"lat": 38.916787666666664, "is_disabled": 0, "type": "electric_scooter", "lon": -77.02968133333333, "bike_id": "0b6c2b590e198bcdc9cdf56ca6b9812a", "fusion_lat": 0.0, "name": "0b6c2b590e198bcdc9cdf56ca6b9812a", "is_reserved": 0, "rental_uris": {"android": "https://dc.lft.to/lastmile_qr_scan", "ios": "https://dc.lft.to/lastmile_qr_scan"}, "fusion_lon": 0.0}, {"lat": 38.9160775, "is_disabled": 0, "type": "electric_scooter", "lon": -77.03639933333334, "bike_id": "9dfea1f71aeb67a3f4fc7ab93ca2e56b", "fusion_lat": 0.0, "name": "9dfea1f71aeb67a3f4fc7ab93ca2e56b", "is_reserved": 0, "rental_uris": {"android": "https://dc.lft.to/lastmile_qr_scan", "ios": "https://dc.lft.to/lastmile_qr_scan"}, "fusion_lon": 0.0}, {"lat": 38.91560233333333, "is_disabled": 0, "type": "electric_scooter", "lon": -77.0384295, "bike_id": "a40498734674daca208437c078fee8cc", "fusion_lat": 0.0, "name": "a40498734674daca208437c078fee8cc", "is_reserved": 0, "rental_uris": {"android": "https://dc.lft.to/lastmile_qr_scan", "ios": "https://dc.lft.to/lastmile_qr_scan"}, "fusion_lon": 0.0}, {"lat": 38.95496083333333, "is_disabled": 0, "type": "electric_scooter", "lon": -77.06564416666667, "bike_id": "7972a579571bc43f0788a8390d6ba1b9", "fusion_lat": 0.0, "name": "7972a579571bc43f0788a8390d6ba1b9", "is_reserved": 0, "rental_uris": {"android": "https://dc.lft.to/lastmile_qr_scan", "ios": "https://dc.lft.to/lastmile_qr_scan"}, "fusion_lon": 0.0}, {"lat": 38.911999, "is_disabled": 0, "type": "electric_scooter", "lon": -77.01467233333334, "bike_id": "1a23a0d284a1f17cb3f9912abf1e16bd", "fusion_lat": 0.0, "name": "1a23a0d284a1f17cb3f9912abf1e16bd", "is_reserved": 0, "rental_uris": {"android": "https://dc.lft.to/lastmile_qr_scan", "ios": "https://dc.lft.to/lastmile_qr_scan"}, "fusion_lon": 0.0}, {"lat": 38.95259516666667, "is_disabled": 0, "type": "electric_scooter", "lon": -77.0697985, "bike_id": "edb07c4bd98aec44b30e07635c6a8968", "fusion_lat": 0.0, "name": "edb07c4bd98aec44b30e07635c6a8968", "is_reserved": 0, "rental_uris": {"android": "https://dc.lft.to/lastmile_qr_scan", "ios": "https://dc.lft.to/lastmile_qr_scan"}, "fusion_lon": 0.0}, {"lat": 38.923822333333334, "is_disabled": 0, "type": "electric_scooter", "lon": -77.0575065, "bike_id": "ccdbeee2e2b7e84912fc56f7cd3ea024", "fusion_lat": 0.0, "name": "ccdbeee2e2b7e84912fc56f7cd3ea024", "is_reserved": 0, "rental_uris": {"android": "https://dc.lft.to/lastmile_qr_scan", "ios": "https://dc.lft.to/lastmile_qr_scan"}, "fusion_lon": 0.0}, {"lat": 38.9069185, "is_disabled": 0, "type": "electric_scooter", "lon": -77.03668716666667, "bike_id": "f3466366e1fb36adbf4113ce59e5b7de", "fusion_lat": 0.0, "name": "f3466366e1fb36adbf4113ce59e5b7de", "is_reserved": 0, "rental_uris": {"android": "https://dc.lft.to/lastmile_qr_scan", "ios": "https://dc.lft.to/lastmile_qr_scan"}, "fusion_lon": 0.0}, {"lat": 38.9168705, "is_disabled": 0, "type": "electric_scooter", "lon": -77.029512, "bike_id": "4d69673778922bf6e25c04c564bde155", "fusion_lat": 0.0, "name": "4d69673778922bf6e25c04c564bde155", "is_reserved": 0, "rental_uris": {"android": "https://dc.lft.to/lastmile_qr_scan", "ios": "https://dc.lft.to/lastmile_qr_scan"}, "fusion_lon": 0.0}, {"lat": 38.949054, "is_disabled": 0, "type": "electric_bike", "lon": -76.97237366666667, "bike_id": "f54cf768525a5a4c93f683f1a6fcb28c", "fusion_lat": 0.0, "name": "f54cf768525a5a4c93f683f1a6fcb28c", "is_reserved": 0, "rental_uris": {"android": "https://dc.lft.to/lastmile_qr_scan", "ios": "https://dc.lft.to/lastmile_qr_scan"}, "fusion_lon": 0.0}, {"lat": 38.907303, "is_disabled": 0, "type": "electric_scooter", "lon": -77.00357333333334, "bike_id": "6ed65dd10f43d18c92590c0b75e8dd2e", "fusion_lat": 0.0, "name": "6ed65dd10f43d18c92590c0b75e8dd2e", "is_reserved": 0, "rental_uris": {"android": "https://dc.lft.to/lastmile_qr_scan", "ios": "https://dc.lft.to/lastmile_qr_scan"}, "fusion_lon": 0.0}, {"lat": 38.926844833333334, "is_disabled": 0, "type": "electric_scooter", "lon": -77.01572466666667, "bike_id": "39e35136b06597195383344c45877f3b", "fusion_lat": 0.0, "name": "39e35136b06597195383344c45877f3b", "is_reserved": 0, "rental_uris": {"android": "https://dc.lft.to/lastmile_qr_scan", "ios": "https://dc.lft.to/lastmile_qr_scan"}, "fusion_lon": 0.0}, {"lat": 38.883363833333334, "is_disabled": 0, "type": "electric_scooter", "lon": -77.0093255, "bike_id": "8da38ee9735f95a713e41a91cdc53b70", "fusion_lat": 0.0, "name": "8da38ee9735f95a713e41a91cdc53b70", "is_reserved": 0, "rental_uris": {"android": "https://dc.lft.to/lastmile_qr_scan", "ios": "https://dc.lft.to/lastmile_qr_scan"}, "fusion_lon": 0.0}, {"lat": 38.92177316666667, "is_disabled": 0, "type": "electric_scooter", "lon": -77.0434705, "bike_id": "0ca20d053ee9607bddd8ff929f799d66", "fusion_lat": 0.0, "name": "0ca20d053ee9607bddd8ff929f799d66", "is_reserved": 0, "rental_uris": {"android": "https://dc.lft.to/lastmile_qr_scan", "ios": "https://dc.lft.to/lastmile_qr_scan"}, "fusion_lon": 0.0}, {"lat": 38.940876333333335, "is_disabled": 0, "type": "electric_scooter", "lon": -77.061373, "bike_id": "4abd1aa8d9fdbaf0a965d5830e0cbf04", "fusion_lat": 0.0, "name": "4abd1aa8d9fdbaf0a965d5830e0cbf04", "is_reserved": 0, "rental_uris": {"android": "https://dc.lft.to/lastmile_qr_scan", "ios": "https://dc.lft.to/lastmile_qr_scan"}, "fusion_lon": 0.0}, {"lat": 38.89812966666667, "is_disabled": 0, "type": "electric_scooter", "lon": -77.05028616666667, "bike_id": "8f6f0e377a981c76ba795b709164eae9", "fusion_lat": 0.0, "name": "8f6f0e377a981c76ba795b709164eae9", "is_reserved": 0, "rental_uris": {"android": "https://dc.lft.to/lastmile_qr_scan", "ios": "https://dc.lft.to/lastmile_qr_scan"}, "fusion_lon": 0.0}, {"lat": 38.939772833333336, "is_disabled": 0, "type": "electric_scooter", "lon": -77.02889533333334, "bike_id": "d406607a18807011fa7647d11b143750", "fusion_lat": 0.0, "name": "d406607a18807011fa7647d11b143750", "is_reserved": 0, "rental_uris": {"android": "https://dc.lft.to/lastmile_qr_scan", "ios": "https://dc.lft.to/lastmile_qr_scan"}, "fusion_lon": 0.0}, {"lat": 38.90862533333333, "is_disabled": 0, "type": "electric_scooter", "lon": -77.00375166666667, "bike_id": "fb3fc11deccaa0ba84a74d1365069d1c", "fusion_lat": 0.0, "name": "fb3fc11deccaa0ba84a74d1365069d1c", "is_reserved": 0, "rental_uris": {"android": "https://dc.lft.to/lastmile_qr_scan", "ios": "https://dc.lft.to/lastmile_qr_scan"}, "fusion_lon": 0.0}, {"lat": 38.905984833333335, "is_disabled": 0, "type": "electric_scooter", "lon": -77.0340355, "bike_id": "51038ca66e208d71db04c0736249525b", "fusion_lat": 0.0, "name": "51038ca66e208d71db04c0736249525b", "is_reserved": 0, "rental_uris": {"android": "https://dc.lft.to/lastmile_qr_scan", "ios": "https://dc.lft.to/lastmile_qr_scan"}, "fusion_lon": 0.0}, {"lat": 38.914115, "is_disabled": 0, "type": "electric_scooter", "lon": -77.02021383333333, "bike_id": "32c204727e09fb1deaaba5b06d5fb2c6", "fusion_lat": 0.0, "name": "32c204727e09fb1deaaba5b06d5fb2c6", "is_reserved": 0, "rental_uris": {"android": "https://dc.lft.to/lastmile_qr_scan", "ios": "https://dc.lft.to/lastmile_qr_scan"}, "fusion_lon": 0.0}, {"lat": 38.91803933333333, "is_disabled": 0, "type": "electric_bike", "lon": -77.22331533333333, "bike_id": "d7930e03713e643a374adb6538828618", "fusion_lat": 0.0, "name": "d7930e03713e643a374adb6538828618", "is_reserved": 0, "rental_uris": {"android": "https://dc.lft.to/lastmile_qr_scan", "ios": "https://dc.lft.to/lastmile_qr_scan"}, "fusion_lon": 0.0}, {"lat": 38.896763666666665, "is_disabled": 0, "type": "electric_scooter", "lon": -77.051272, "bike_id": "e929554147bb645335d66351fce92b08", "fusion_lat": 0.0, "name": "e929554147bb645335d66351fce92b08", "is_reserved": 0, "rental_uris": {"android": "https://dc.lft.to/lastmile_qr_scan", "ios": "https://dc.lft.to/lastmile_qr_scan"}, "fusion_lon": 0.0}, {"lat": 38.926415, "is_disabled": 0, "type": "electric_scooter", "lon": -77.04310716666667, "bike_id": "50da243a2bccb0a151aee853e10a2169", "fusion_lat": 0.0, "name": "50da243a2bccb0a151aee853e10a2169", "is_reserved": 0, "rental_uris": {"android": "https://dc.lft.to/lastmile_qr_scan", "ios": "https://dc.lft.to/lastmile_qr_scan"}, "fusion_lon": 0.0}, {"lat": 38.928981666666665, "is_disabled": 0, "type": "electric_bike", "lon": -77.05777766666667, "bike_id": "5be577748335744b9f2b488d78f13117", "fusion_lat": 0.0, "name": "5be577748335744b9f2b488d78f13117", "is_reserved": 0, "rental_uris": {"android": "https://dc.lft.to/lastmile_qr_scan", "ios": "https://dc.lft.to/lastmile_qr_scan"}, "fusion_lon": 0.0}, {"lat": 38.930301, "is_disabled": 0, "type": "electric_scooter", "lon": -77.0295865, "bike_id": "71428889e7ad8e945b153fee1f17dbdf", "fusion_lat": 0.0, "name": "71428889e7ad8e945b153fee1f17dbdf", "is_reserved": 0, "rental_uris": {"android": "https://dc.lft.to/lastmile_qr_scan", "ios": "https://dc.lft.to/lastmile_qr_scan"}, "fusion_lon": 0.0}, {"lat": 38.937977833333335, "is_disabled": 0, "type": "electric_scooter", "lon": -77.02470166666667, "bike_id": "fd24787b25e4af3f44809ea6303de28b", "fusion_lat": 0.0, "name": "fd24787b25e4af3f44809ea6303de28b", "is_reserved": 0, "rental_uris": {"android": "https://dc.lft.to/lastmile_qr_scan", "ios": "https://dc.lft.to/lastmile_qr_scan"}, "fusion_lon": 0.0}, {"lat": 38.908535, "is_disabled": 0, "type": "electric_scooter", "lon": -77.00626966666667, "bike_id": "417192758206fd0ab270ae933e152efd", "fusion_lat": 0.0, "name": "417192758206fd0ab270ae933e152efd", "is_reserved": 0, "rental_uris": {"android": "https://dc.lft.to/lastmile_qr_scan", "ios": "https://dc.lft.to/lastmile_qr_scan"}, "fusion_lon": 0.0}, {"lat": 38.90221833333333, "is_disabled": 0, "type": "electric_scooter", "lon": -77.05311516666667, "bike_id": "3e164c2c6fc8b6892170e331eb7afa5e", "fusion_lat": 0.0, "name": "3e164c2c6fc8b6892170e331eb7afa5e", "is_reserved": 0, "rental_uris": {"android": "https://dc.lft.to/lastmile_qr_scan", "ios": "https://dc.lft.to/lastmile_qr_scan"}, "fusion_lon": 0.0}, {"lat": 38.87627783333333, "is_disabled": 0, "type": "electric_scooter", "lon": -76.96528466666666, "bike_id": "928f9d1f3d988736219a6a5675535769", "fusion_lat": 0.0, "name": "928f9d1f3d988736219a6a5675535769", "is_reserved": 0, "rental_uris": {"android": "https://dc.lft.to/lastmile_qr_scan", "ios": "https://dc.lft.to/lastmile_qr_scan"}, "fusion_lon": 0.0}, {"lat": 38.9053865, "is_disabled": 0, "type": "electric_scooter", "lon": -77.00541416666667, "bike_id": "d93b62b7095bb324f3457f880617af57", "fusion_lat": 0.0, "name": "d93b62b7095bb324f3457f880617af57", "is_reserved": 0, "rental_uris": {"android": "https://dc.lft.to/lastmile_qr_scan", "ios": "https://dc.lft.to/lastmile_qr_scan"}, "fusion_lon": 0.0}, {"lat": 38.93253633333333, "is_disabled": 0, "type": "electric_scooter", "lon": -77.03280716666667, "bike_id": "14f164f59de2ce53fb7cde248e742fd1", "fusion_lat": 0.0, "name": "14f164f59de2ce53fb7cde248e742fd1", "is_reserved": 0, "rental_uris": {"android": "https://dc.lft.to/lastmile_qr_scan", "ios": "https://dc.lft.to/lastmile_qr_scan"}, "fusion_lon": 0.0}, {"lat": 38.94064383333333, "is_disabled": 0, "type": "electric_scooter", "lon": -77.0613165, "bike_id": "d216774a05394009f21b917a3f37b3d1", "fusion_lat": 0.0, "name": "d216774a05394009f21b917a3f37b3d1", "is_reserved": 0, "rental_uris": {"android": "https://dc.lft.to/lastmile_qr_scan", "ios": "https://dc.lft.to/lastmile_qr_scan"}, "fusion_lon": 0.0}, {"lat": 38.93109033333333, "is_disabled": 0, "type": "electric_scooter", "lon": -77.03517366666667, "bike_id": "a62d108e247425033fc9232366d1d936", "fusion_lat": 0.0, "name": "a62d108e247425033fc9232366d1d936", "is_reserved": 0, "rental_uris": {"android": "https://dc.lft.to/lastmile_qr_scan", "ios": "https://dc.lft.to/lastmile_qr_scan"}, "fusion_lon": 0.0}, {"lat": 38.9328585, "is_disabled": 0, "type": "electric_scooter", "lon": -77.02821466666667, "bike_id": "c93612e6a79f365fb7fdf2e1a66a1f7c", "fusion_lat": 0.0, "name": "c93612e6a79f365fb7fdf2e1a66a1f7c", "is_reserved": 0, "rental_uris": {"android": "https://dc.lft.to/lastmile_qr_scan", "ios": "https://dc.lft.to/lastmile_qr_scan"}, "fusion_lon": 0.0}, {"lat": 38.9365535, "is_disabled": 0, "type": "electric_scooter", "lon": -77.03655533333334, "bike_id": "9ed4a0f96ca631b766f2375d4e243bcc", "fusion_lat": 0.0, "name": "9ed4a0f96ca631b766f2375d4e243bcc", "is_reserved": 0, "rental_uris": {"android": "https://dc.lft.to/lastmile_qr_scan", "ios": "https://dc.lft.to/lastmile_qr_scan"}, "fusion_lon": 0.0}, {"lat": 38.91484766666667, "is_disabled": 0, "type": "electric_scooter", "lon": -76.9836525, "bike_id": "d58d1f6c3728c827619ff24a098e260b", "fusion_lat": 0.0, "name": "d58d1f6c3728c827619ff24a098e260b", "is_reserved": 0, "rental_uris": {"android": "https://dc.lft.to/lastmile_qr_scan", "ios": "https://dc.lft.to/lastmile_qr_scan"}, "fusion_lon": 0.0}, {"lat": 38.931971833333336, "is_disabled": 0, "type": "electric_scooter", "lon": -77.04422783333334, "bike_id": "367ceb364d9cddb7f339cd182f862aca", "fusion_lat": 0.0, "name": "367ceb364d9cddb7f339cd182f862aca", "is_reserved": 0, "rental_uris": {"android": "https://dc.lft.to/lastmile_qr_scan", "ios": "https://dc.lft.to/lastmile_qr_scan"}, "fusion_lon": 0.0}, {"lat": 38.900425166666665, "is_disabled": 0, "type": "electric_scooter", "lon": -76.99499333333333, "bike_id": "2756f3773c1ad81c8013937c115c3692", "fusion_lat": 0.0, "name": "2756f3773c1ad81c8013937c115c3692", "is_reserved": 0, "rental_uris": {"android": "https://dc.lft.to/lastmile_qr_scan", "ios": "https://dc.lft.to/lastmile_qr_scan"}, "fusion_lon": 0.0}, {"lat": 38.92917383333333, "is_disabled": 0, "type": "electric_scooter", "lon": -77.036315, "bike_id": "986338ff6c376da5e8fcdb0edb82cce5", "fusion_lat": 0.0, "name": "986338ff6c376da5e8fcdb0edb82cce5", "is_reserved": 0, "rental_uris": {"android": "https://dc.lft.to/lastmile_qr_scan", "ios": "https://dc.lft.to/lastmile_qr_scan"}, "fusion_lon": 0.0}, {"lat": 38.9100395, "is_disabled": 0, "type": "electric_scooter", "lon": -76.984645, "bike_id": "447d86d6d8733363f6395890b7e8a4ef", "fusion_lat": 0.0, "name": "447d86d6d8733363f6395890b7e8a4ef", "is_reserved": 0, "rental_uris": {"android": "https://dc.lft.to/lastmile_qr_scan", "ios": "https://dc.lft.to/lastmile_qr_scan"}, "fusion_lon": 0.0}, {"lat": 38.923999333333335, "is_disabled": 0, "type": "electric_scooter", "lon": -77.0255415, "bike_id": "957866ba77c5919f783e1bab84db07bb", "fusion_lat": 0.0, "name": "957866ba77c5919f783e1bab84db07bb", "is_reserved": 0, "rental_uris": {"android": "https://dc.lft.to/lastmile_qr_scan", "ios": "https://dc.lft.to/lastmile_qr_scan"}, "fusion_lon": 0.0}, {"lat": 38.9081835, "is_disabled": 0, "type": "electric_scooter", "lon": -76.941473, "bike_id": "b4e5fafd5eed4078ed152e00c3cb0595", "fusion_lat": 0.0, "name": "b4e5fafd5eed4078ed152e00c3cb0595", "is_reserved": 0, "rental_uris": {"android": "https://dc.lft.to/lastmile_qr_scan", "ios": "https://dc.lft.to/lastmile_qr_scan"}, "fusion_lon": 0.0}, {"lat": 38.839844, "is_disabled": 0, "type": "electric_bike", "lon": -77.00570733333333, "bike_id": "969e434144cb4defeda278bb554d6cf0", "fusion_lat": 0.0, "name": "969e434144cb4defeda278bb554d6cf0", "is_reserved": 0, "rental_uris": {"android": "https://dc.lft.to/lastmile_qr_scan", "ios": "https://dc.lft.to/lastmile_qr_scan"}, "fusion_lon": 0.0}, {"lat": 38.936301, "is_disabled": 0, "type": "electric_scooter", "lon": -77.03652783333334, "bike_id": "cba11b4ef3790168e4d36d97eec90cfa", "fusion_lat": 0.0, "name": "cba11b4ef3790168e4d36d97eec90cfa", "is_reserved": 0, "rental_uris": {"android": "https://dc.lft.to/lastmile_qr_scan", "ios": "https://dc.lft.to/lastmile_qr_scan"}, "fusion_lon": 0.0}, {"lat": 38.880229666666665, "is_disabled": 0, "type": "electric_scooter", "lon": -77.02495316666666, "bike_id": "47ea0ab11365495664cca2c65bbec434", "fusion_lat": 0.0, "name": "47ea0ab11365495664cca2c65bbec434", "is_reserved": 0, "rental_uris": {"android": "https://dc.lft.to/lastmile_qr_scan", "ios": "https://dc.lft.to/lastmile_qr_scan"}, "fusion_lon": 0.0}, {"lat": 38.929575166666666, "is_disabled": 0, "type": "electric_scooter", "lon": -77.03153783333333, "bike_id": "c3fb63e444804409d7d0b03fbc4c3263", "fusion_lat": 0.0, "name": "c3fb63e444804409d7d0b03fbc4c3263", "is_reserved": 0, "rental_uris": {"android": "https://dc.lft.to/lastmile_qr_scan", "ios": "https://dc.lft.to/lastmile_qr_scan"}, "fusion_lon": 0.0}, {"lat": 38.923993833333334, "is_disabled": 0, "type": "electric_scooter", "lon": -77.05255116666666, "bike_id": "9e81d7fc47c5ac58626b88099f37048f", "fusion_lat": 0.0, "name": "9e81d7fc47c5ac58626b88099f37048f", "is_reserved": 0, "rental_uris": {"android": "https://dc.lft.to/lastmile_qr_scan", "ios": "https://dc.lft.to/lastmile_qr_scan"}, "fusion_lon": 0.0}, {"lat": 38.91253916666667, "is_disabled": 0, "type": "electric_scooter", "lon": -77.03855466666667, "bike_id": "a434667cd1a0535dff78e8fd34891dd7", "fusion_lat": 0.0, "name": "a434667cd1a0535dff78e8fd34891dd7", "is_reserved": 0, "rental_uris": {"android": "https://dc.lft.to/lastmile_qr_scan", "ios": "https://dc.lft.to/lastmile_qr_scan"}, "fusion_lon": 0.0}, {"lat": 38.904080666666665, "is_disabled": 0, "type": "electric_scooter", "lon": -77.02503633333333, "bike_id": "f1a57cd9a4aa114ab31522b5bb367db3", "fusion_lat": 0.0, "name": "f1a57cd9a4aa114ab31522b5bb367db3", "is_reserved": 0, "rental_uris": {"android": "https://dc.lft.to/lastmile_qr_scan", "ios": "https://dc.lft.to/lastmile_qr_scan"}, "fusion_lon": 0.0}, {"lat": 38.9119605, "is_disabled": 0, "type": "electric_scooter", "lon": -77.00428816666667, "bike_id": "90907615bde8c706218f506e9bbd6b6a", "fusion_lat": 0.0, "name": "90907615bde8c706218f506e9bbd6b6a", "is_reserved": 0, "rental_uris": {"android": "https://dc.lft.to/lastmile_qr_scan", "ios": "https://dc.lft.to/lastmile_qr_scan"}, "fusion_lon": 0.0}, {"lat": 38.932370666666664, "is_disabled": 0, "type": "electric_bike", "lon": -76.97427316666666, "bike_id": "ea15a616550758da0f29b9bb8a4124f1", "fusion_lat": 0.0, "name": "ea15a616550758da0f29b9bb8a4124f1", "is_reserved": 0, "rental_uris": {"android": "https://dc.lft.to/lastmile_qr_scan", "ios": "https://dc.lft.to/lastmile_qr_scan"}, "fusion_lon": 0.0}, {"lat": 38.916865333333334, "is_disabled": 0, "type": "electric_scooter", "lon": -77.032364, "bike_id": "f43ae537feaaa3a017131e3083e249df", "fusion_lat": 0.0, "name": "f43ae537feaaa3a017131e3083e249df", "is_reserved": 0, "rental_uris": {"android": "https://dc.lft.to/lastmile_qr_scan", "ios": "https://dc.lft.to/lastmile_qr_scan"}, "fusion_lon": 0.0}, {"lat": 38.87635266666667, "is_disabled": 0, "type": "electric_scooter", "lon": -77.0055525, "bike_id": "33eed55ca54478abae41dbb9d98e07ab", "fusion_lat": 0.0, "name": "33eed55ca54478abae41dbb9d98e07ab", "is_reserved": 0, "rental_uris": {"android": "https://dc.lft.to/lastmile_qr_scan", "ios": "https://dc.lft.to/lastmile_qr_scan"}, "fusion_lon": 0.0}, {"lat": 38.89673966666667, "is_disabled": 0, "type": "electric_scooter", "lon": -77.00514783333334, "bike_id": "cb0d0ae5fd955d510eddd5fd16d1ad7a", "fusion_lat": 0.0, "name": "cb0d0ae5fd955d510eddd5fd16d1ad7a", "is_reserved": 0, "rental_uris": {"android": "https://dc.lft.to/lastmile_qr_scan", "ios": "https://dc.lft.to/lastmile_qr_scan"}, "fusion_lon": 0.0}, {"lat": 38.916226333333334, "is_disabled": 0, "type": "electric_scooter", "lon": -77.03743066666667, "bike_id": "7868e91d1f6a448f9d728a356ad02176", "fusion_lat": 0.0, "name": "7868e91d1f6a448f9d728a356ad02176", "is_reserved": 0, "rental_uris": {"android": "https://dc.lft.to/lastmile_qr_scan", "ios": "https://dc.lft.to/lastmile_qr_scan"}, "fusion_lon": 0.0}, {"lat": 38.921010833333334, "is_disabled": 0, "type": "electric_scooter", "lon": -77.02534583333333, "bike_id": "5e33b80aac07cb169a93f71b3587a24d", "fusion_lat": 0.0, "name": "5e33b80aac07cb169a93f71b3587a24d", "is_reserved": 0, "rental_uris": {"android": "https://dc.lft.to/lastmile_qr_scan", "ios": "https://dc.lft.to/lastmile_qr_scan"}, "fusion_lon": 0.0}, {"lat": 38.870720166666665, "is_disabled": 0, "type": "electric_scooter", "lon": -77.01131133333334, "bike_id": "db68e1cd9f1dd51f8d7fa7c66d46549e", "fusion_lat": 0.0, "name": "db68e1cd9f1dd51f8d7fa7c66d46549e", "is_reserved": 0, "rental_uris": {"android": "https://dc.lft.to/lastmile_qr_scan", "ios": "https://dc.lft.to/lastmile_qr_scan"}, "fusion_lon": 0.0}, {"lat": 38.87918033333333, "is_disabled": 0, "type": "electric_scooter", "lon": -76.99510216666667, "bike_id": "23ab5eefda95c693d3d774e01d15bc2c", "fusion_lat": 0.0, "name": "23ab5eefda95c693d3d774e01d15bc2c", "is_reserved": 0, "rental_uris": {"android": "https://dc.lft.to/lastmile_qr_scan", "ios": "https://dc.lft.to/lastmile_qr_scan"}, "fusion_lon": 0.0}, {"lat": 38.962062833333334, "is_disabled": 0, "type": "electric_bike", "lon": -77.0262355, "bike_id": "9e3f25731479f39f6d6ad8f0cb1f054a", "fusion_lat": 0.0, "name": "9e3f25731479f39f6d6ad8f0cb1f054a", "is_reserved": 0, "rental_uris": {"android": "https://dc.lft.to/lastmile_qr_scan", "ios": "https://dc.lft.to/lastmile_qr_scan"}, "fusion_lon": 0.0}, {"lat": 38.94819783333333, "is_disabled": 0, "type": "electric_scooter", "lon": -76.99906483333334, "bike_id": "18d0469ebecb4b0c3500cb6d67e1ad16", "fusion_lat": 0.0, "name": "18d0469ebecb4b0c3500cb6d67e1ad16", "is_reserved": 0, "rental_uris": {"android": "https://dc.lft.to/lastmile_qr_scan", "ios": "https://dc.lft.to/lastmile_qr_scan"}, "fusion_lon": 0.0}, {"lat": 38.923317, "is_disabled": 0, "type": "electric_scooter", "lon": -77.02694616666666, "bike_id": "e78a0a9b69edc5ac0c58422f7e4d1f40", "fusion_lat": 0.0, "name": "e78a0a9b69edc5ac0c58422f7e4d1f40", "is_reserved": 0, "rental_uris": {"android": "https://dc.lft.to/lastmile_qr_scan", "ios": "https://dc.lft.to/lastmile_qr_scan"}, "fusion_lon": 0.0}, {"lat": 38.9169905, "is_disabled": 0, "type": "electric_scooter", "lon": -77.03856866666666, "bike_id": "a7bafd996c2676b459fd876ba8801337", "fusion_lat": 0.0, "name": "a7bafd996c2676b459fd876ba8801337", "is_reserved": 0, "rental_uris": {"android": "https://dc.lft.to/lastmile_qr_scan", "ios": "https://dc.lft.to/lastmile_qr_scan"}, "fusion_lon": 0.0}, {"lat": 38.90203566666667, "is_disabled": 0, "type": "electric_scooter", "lon": -77.02375383333333, "bike_id": "ad6334826c5056a69175f6352f7be13e", "fusion_lat": 0.0, "name": "ad6334826c5056a69175f6352f7be13e", "is_reserved": 0, "rental_uris": {"android": "https://dc.lft.to/lastmile_qr_scan", "ios": "https://dc.lft.to/lastmile_qr_scan"}, "fusion_lon": 0.0}, {"lat": 38.92306383333333, "is_disabled": 0, "type": "electric_scooter", "lon": -77.03858716666667, "bike_id": "8188fa087a35c22c8af53d1e7ba13717", "fusion_lat": 0.0, "name": "8188fa087a35c22c8af53d1e7ba13717", "is_reserved": 0, "rental_uris": {"android": "https://dc.lft.to/lastmile_qr_scan", "ios": "https://dc.lft.to/lastmile_qr_scan"}, "fusion_lon": 0.0}, {"lat": 38.899669, "is_disabled": 0, "type": "electric_scooter", "lon": -76.92660716666667, "bike_id": "ef430e9aeb27ddd9989524d9d26b9502", "fusion_lat": 0.0, "name": "ef430e9aeb27ddd9989524d9d26b9502", "is_reserved": 0, "rental_uris": {"android": "https://dc.lft.to/lastmile_qr_scan", "ios": "https://dc.lft.to/lastmile_qr_scan"}, "fusion_lon": 0.0}, {"lat": 38.9049995, "is_disabled": 0, "type": "electric_scooter", "lon": -77.02951683333333, "bike_id": "b9eee84be8cb0e3c5fedd7fbc4f276b0", "fusion_lat": 0.0, "name": "b9eee84be8cb0e3c5fedd7fbc4f276b0", "is_reserved": 0, "rental_uris": {"android": "https://dc.lft.to/lastmile_qr_scan", "ios": "https://dc.lft.to/lastmile_qr_scan"}, "fusion_lon": 0.0}, {"lat": 38.90715083333333, "is_disabled": 0, "type": "electric_scooter", "lon": -77.04820133333334, "bike_id": "45dcf9dd311eaa72012842a7ef58ae3f", "fusion_lat": 0.0, "name": "45dcf9dd311eaa72012842a7ef58ae3f", "is_reserved": 0, "rental_uris": {"android": "https://dc.lft.to/lastmile_qr_scan", "ios": "https://dc.lft.to/lastmile_qr_scan"}, "fusion_lon": 0.0}, {"lat": 38.900625166666664, "is_disabled": 0, "type": "electric_scooter", "lon": -77.0019835, "bike_id": "b4b8a2d684d5ac3733ca3b5fbb3a9027", "fusion_lat": 0.0, "name": "b4b8a2d684d5ac3733ca3b5fbb3a9027", "is_reserved": 0, "rental_uris": {"android": "https://dc.lft.to/lastmile_qr_scan", "ios": "https://dc.lft.to/lastmile_qr_scan"}, "fusion_lon": 0.0}, {"lat": 39.05201516666666, "is_disabled": 0, "type": "electric_bike", "lon": -77.10916883333333, "bike_id": "f7d06f9d6cbd3e03b30727d0fa7d934c", "fusion_lat": 0.0, "name": "f7d06f9d6cbd3e03b30727d0fa7d934c", "is_reserved": 0, "rental_uris": {"android": "https://dc.lft.to/lastmile_qr_scan", "ios": "https://dc.lft.to/lastmile_qr_scan"}, "fusion_lon": 0.0}, {"lat": 38.89232066666667, "is_disabled": 0, "type": "electric_scooter", "lon": -77.05002916666666, "bike_id": "a4abf3ce246dd978e1ded4a80c065c78", "fusion_lat": 0.0, "name": "a4abf3ce246dd978e1ded4a80c065c78", "is_reserved": 0, "rental_uris": {"android": "https://dc.lft.to/lastmile_qr_scan", "ios": "https://dc.lft.to/lastmile_qr_scan"}, "fusion_lon": 0.0}, {"lat": 38.929857, "is_disabled": 0, "type": "electric_scooter", "lon": -77.03207516666667, "bike_id": "1f746ca1a77c9cae7d9494a0de163541", "fusion_lat": 0.0, "name": "1f746ca1a77c9cae7d9494a0de163541", "is_reserved": 0, "rental_uris": {"android": "https://dc.lft.to/lastmile_qr_scan", "ios": "https://dc.lft.to/lastmile_qr_scan"}, "fusion_lon": 0.0}, {"lat": 38.86662583333333, "is_disabled": 0, "type": "electric_scooter", "lon": -76.98905383333333, "bike_id": "e7bd3ce6cbc5b55c3cc5bf401c5feeca", "fusion_lat": 0.0, "name": "e7bd3ce6cbc5b55c3cc5bf401c5feeca", "is_reserved": 0, "rental_uris": {"android": "https://dc.lft.to/lastmile_qr_scan", "ios": "https://dc.lft.to/lastmile_qr_scan"}, "fusion_lon": 0.0}, {"lat": 38.924328333333335, "is_disabled": 0, "type": "electric_scooter", "lon": -77.03423, "bike_id": "6b39783a252e13486737603f163f79a8", "fusion_lat": 0.0, "name": "6b39783a252e13486737603f163f79a8", "is_reserved": 0, "rental_uris": {"android": "https://dc.lft.to/lastmile_qr_scan", "ios": "https://dc.lft.to/lastmile_qr_scan"}, "fusion_lon": 0.0}, {"lat": 38.92442666666667, "is_disabled": 0, "type": "electric_scooter", "lon": -77.03356033333333, "bike_id": "daeda778a3c501dd72faf2e7ab92c4cd", "fusion_lat": 0.0, "name": "daeda778a3c501dd72faf2e7ab92c4cd", "is_reserved": 0, "rental_uris": {"android": "https://dc.lft.to/lastmile_qr_scan", "ios": "https://dc.lft.to/lastmile_qr_scan"}, "fusion_lon": 0.0}, {"lat": 38.91468616666667, "is_disabled": 0, "type": "electric_scooter", "lon": -77.06688583333333, "bike_id": "261b8bf8b7dbb9e4095e69471d1bfe75", "fusion_lat": 0.0, "name": "261b8bf8b7dbb9e4095e69471d1bfe75", "is_reserved": 0, "rental_uris": {"android": "https://dc.lft.to/lastmile_qr_scan", "ios": "https://dc.lft.to/lastmile_qr_scan"}, "fusion_lon": 0.0}, {"lat": 38.90992116666666, "is_disabled": 0, "type": "electric_scooter", "lon": -76.99737333333333, "bike_id": "63e043cf85a7c2e426f9ac736e254edb", "fusion_lat": 0.0, "name": "63e043cf85a7c2e426f9ac736e254edb", "is_reserved": 0, "rental_uris": {"android": "https://dc.lft.to/lastmile_qr_scan", "ios": "https://dc.lft.to/lastmile_qr_scan"}, "fusion_lon": 0.0}, {"lat": 38.908399333333335, "is_disabled": 0, "type": "electric_scooter", "lon": -77.0353465, "bike_id": "42fd1ae772b0b22ebb041695d4175314", "fusion_lat": 0.0, "name": "42fd1ae772b0b22ebb041695d4175314", "is_reserved": 0, "rental_uris": {"android": "https://dc.lft.to/lastmile_qr_scan", "ios": "https://dc.lft.to/lastmile_qr_scan"}, "fusion_lon": 0.0}, {"lat": 38.9240715, "is_disabled": 0, "type": "electric_scooter", "lon": -77.034094, "bike_id": "d22446cbd786b1702c9be11c04a83aa5", "fusion_lat": 0.0, "name": "d22446cbd786b1702c9be11c04a83aa5", "is_reserved": 0, "rental_uris": {"android": "https://dc.lft.to/lastmile_qr_scan", "ios": "https://dc.lft.to/lastmile_qr_scan"}, "fusion_lon": 0.0}, {"lat": 38.94891666666667, "is_disabled": 0, "type": "electric_scooter", "lon": -77.03045616666667, "bike_id": "b54eb773c4794efd4accc62347b496e4", "fusion_lat": 0.0, "name": "b54eb773c4794efd4accc62347b496e4", "is_reserved": 0, "rental_uris": {"android": "https://dc.lft.to/lastmile_qr_scan", "ios": "https://dc.lft.to/lastmile_qr_scan"}, "fusion_lon": 0.0}, {"lat": 38.972308, "is_disabled": 0, "type": "electric_bike", "lon": -76.99342183333333, "bike_id": "2a6c04aae402657cc39a116dd36f94a3", "fusion_lat": 0.0, "name": "2a6c04aae402657cc39a116dd36f94a3", "is_reserved": 0, "rental_uris": {"android": "https://dc.lft.to/lastmile_qr_scan", "ios": "https://dc.lft.to/lastmile_qr_scan"}, "fusion_lon": 0.0}, {"lat": 38.93320466666667, "is_disabled": 0, "type": "electric_scooter", "lon": -77.0452745, "bike_id": "77e15c24d8903876894d23afc2242fe4", "fusion_lat": 0.0, "name": "77e15c24d8903876894d23afc2242fe4", "is_reserved": 0, "rental_uris": {"android": "https://dc.lft.to/lastmile_qr_scan", "ios": "https://dc.lft.to/lastmile_qr_scan"}, "fusion_lon": 0.0}, {"lat": 38.892183333333335, "is_disabled": 0, "type": "electric_scooter", "lon": -77.02096983333334, "bike_id": "a9339be94564e8ff5b33998c40714289", "fusion_lat": 0.0, "name": "a9339be94564e8ff5b33998c40714289", "is_reserved": 0, "rental_uris": {"android": "https://dc.lft.to/lastmile_qr_scan", "ios": "https://dc.lft.to/lastmile_qr_scan"}, "fusion_lon": 0.0}, {"lat": 38.9223545, "is_disabled": 0, "type": "electric_scooter", "lon": -77.04574283333334, "bike_id": "c81e821cf33799d3ea0b980325fe97f0", "fusion_lat": 0.0, "name": "c81e821cf33799d3ea0b980325fe97f0", "is_reserved": 0, "rental_uris": {"android": "https://dc.lft.to/lastmile_qr_scan", "ios": "https://dc.lft.to/lastmile_qr_scan"}, "fusion_lon": 0.0}, {"lat": 38.903371, "is_disabled": 0, "type": "electric_scooter", "lon": -77.03788183333333, "bike_id": "e491b0265428126042d40603da07a46e", "fusion_lat": 0.0, "name": "e491b0265428126042d40603da07a46e", "is_reserved": 0, "rental_uris": {"android": "https://dc.lft.to/lastmile_qr_scan", "ios": "https://dc.lft.to/lastmile_qr_scan"}, "fusion_lon": 0.0}, {"lat": 38.903461166666666, "is_disabled": 0, "type": "electric_scooter", "lon": -77.0252295, "bike_id": "8c0ba0abdaf641d52fe3bec62329d173", "fusion_lat": 0.0, "name": "8c0ba0abdaf641d52fe3bec62329d173", "is_reserved": 0, "rental_uris": {"android": "https://dc.lft.to/lastmile_qr_scan", "ios": "https://dc.lft.to/lastmile_qr_scan"}, "fusion_lon": 0.0}, {"lat": 38.931892833333336, "is_disabled": 0, "type": "electric_scooter", "lon": -77.03745033333334, "bike_id": "dd9c524d2c8e30ba43adc235f37722ee", "fusion_lat": 0.0, "name": "dd9c524d2c8e30ba43adc235f37722ee", "is_reserved": 0, "rental_uris": {"android": "https://dc.lft.to/lastmile_qr_scan", "ios": "https://dc.lft.to/lastmile_qr_scan"}, "fusion_lon": 0.0}, {"lat": 38.939954, "is_disabled": 0, "type": "electric_scooter", "lon": -77.0717795, "bike_id": "920e39609ddf160cf147b17f53b55b08", "fusion_lat": 0.0, "name": "920e39609ddf160cf147b17f53b55b08", "is_reserved": 0, "rental_uris": {"android": "https://dc.lft.to/lastmile_qr_scan", "ios": "https://dc.lft.to/lastmile_qr_scan"}, "fusion_lon": 0.0}, {"lat": 38.911270333333334, "is_disabled": 0, "type": "electric_scooter", "lon": -77.04423733333333, "bike_id": "610d0f8015fcfb76365c1c7e155537c3", "fusion_lat": 0.0, "name": "610d0f8015fcfb76365c1c7e155537c3", "is_reserved": 0, "rental_uris": {"android": "https://dc.lft.to/lastmile_qr_scan", "ios": "https://dc.lft.to/lastmile_qr_scan"}, "fusion_lon": 0.0}, {"lat": 38.8741285, "is_disabled": 0, "type": "electric_scooter", "lon": -76.97305816666666, "bike_id": "bfb032d237b003f2e08d72f4e9eedaa0", "fusion_lat": 0.0, "name": "bfb032d237b003f2e08d72f4e9eedaa0", "is_reserved": 0, "rental_uris": {"android": "https://dc.lft.to/lastmile_qr_scan", "ios": "https://dc.lft.to/lastmile_qr_scan"}, "fusion_lon": 0.0}, {"lat": 38.806845833333334, "is_disabled": 0, "type": "electric_bike", "lon": -77.0812515, "bike_id": "3a2988ee1c31d96e780d5bde3ff0db9c", "fusion_lat": 0.0, "name": "3a2988ee1c31d96e780d5bde3ff0db9c", "is_reserved": 0, "rental_uris": {"android": "https://dc.lft.to/lastmile_qr_scan", "ios": "https://dc.lft.to/lastmile_qr_scan"}, "fusion_lon": 0.0}, {"lat": 38.8973415, "is_disabled": 0, "type": "electric_scooter", "lon": -77.04532483333334, "bike_id": "4926265a83a3dfab44b17ec73b259cb6", "fusion_lat": 0.0, "name": "4926265a83a3dfab44b17ec73b259cb6", "is_reserved": 0, "rental_uris": {"android": "https://dc.lft.to/lastmile_qr_scan", "ios": "https://dc.lft.to/lastmile_qr_scan"}, "fusion_lon": 0.0}, {"lat": 38.8990245, "is_disabled": 0, "type": "electric_scooter", "lon": -76.933442, "bike_id": "308ecb93da24d4ee1a4fea819004b11c", "fusion_lat": 0.0, "name": "308ecb93da24d4ee1a4fea819004b11c", "is_reserved": 0, "rental_uris": {"android": "https://dc.lft.to/lastmile_qr_scan", "ios": "https://dc.lft.to/lastmile_qr_scan"}, "fusion_lon": 0.0}, {"lat": 38.9127055, "is_disabled": 0, "type": "electric_bike", "lon": -77.012205, "bike_id": "a4f751cd106d39bf78b9f7181aeb0af5", "fusion_lat": 0.0, "name": "a4f751cd106d39bf78b9f7181aeb0af5", "is_reserved": 0, "rental_uris": {"android": "https://dc.lft.to/lastmile_qr_scan", "ios": "https://dc.lft.to/lastmile_qr_scan"}, "fusion_lon": 0.0}, {"lat": 38.866589166666664, "is_disabled": 0, "type": "electric_scooter", "lon": -76.98884983333333, "bike_id": "59380ad38f049d87651b38af2453cb60", "fusion_lat": 0.0, "name": "59380ad38f049d87651b38af2453cb60", "is_reserved": 0, "rental_uris": {"android": "https://dc.lft.to/lastmile_qr_scan", "ios": "https://dc.lft.to/lastmile_qr_scan"}, "fusion_lon": 0.0}, {"lat": 38.9177415, "is_disabled": 0, "type": "electric_scooter", "lon": -77.04337416666667, "bike_id": "fe9a1d21fa64b600be7fd68ee47058c8", "fusion_lat": 0.0, "name": "fe9a1d21fa64b600be7fd68ee47058c8", "is_reserved": 0, "rental_uris": {"android": "https://dc.lft.to/lastmile_qr_scan", "ios": "https://dc.lft.to/lastmile_qr_scan"}, "fusion_lon": 0.0}, {"lat": 38.925626, "is_disabled": 0, "type": "electric_scooter", "lon": -77.05749833333333, "bike_id": "e523427ae44bf682f677723aad45202a", "fusion_lat": 0.0, "name": "e523427ae44bf682f677723aad45202a", "is_reserved": 0, "rental_uris": {"android": "https://dc.lft.to/lastmile_qr_scan", "ios": "https://dc.lft.to/lastmile_qr_scan"}, "fusion_lon": 0.0}, {"lat": 38.92140633333333, "is_disabled": 0, "type": "electric_scooter", "lon": -77.04351466666667, "bike_id": "f0701d92a7b33889659a42ef76f8ec76", "fusion_lat": 0.0, "name": "f0701d92a7b33889659a42ef76f8ec76", "is_reserved": 0, "rental_uris": {"android": "https://dc.lft.to/lastmile_qr_scan", "ios": "https://dc.lft.to/lastmile_qr_scan"}, "fusion_lon": 0.0}, {"lat": 38.903336833333334, "is_disabled": 0, "type": "electric_scooter", "lon": -76.97594433333333, "bike_id": "0ba9d572da336e5b282319e350994d64", "fusion_lat": 0.0, "name": "0ba9d572da336e5b282319e350994d64", "is_reserved": 0, "rental_uris": {"android": "https://dc.lft.to/lastmile_qr_scan", "ios": "https://dc.lft.to/lastmile_qr_scan"}, "fusion_lon": 0.0}, {"lat": 38.892621, "is_disabled": 0, "type": "electric_scooter", "lon": -76.94156916666667, "bike_id": "bbbc6b69ebb72ba5e2860d37999bab90", "fusion_lat": 0.0, "name": "bbbc6b69ebb72ba5e2860d37999bab90", "is_reserved": 0, "rental_uris": {"android": "https://dc.lft.to/lastmile_qr_scan", "ios": "https://dc.lft.to/lastmile_qr_scan"}, "fusion_lon": 0.0}, {"lat": 38.922363, "is_disabled": 0, "type": "electric_scooter", "lon": -77.0457215, "bike_id": "87c4e15df9bbe68a9de104c5ee54d898", "fusion_lat": 0.0, "name": "87c4e15df9bbe68a9de104c5ee54d898", "is_reserved": 0, "rental_uris": {"android": "https://dc.lft.to/lastmile_qr_scan", "ios": "https://dc.lft.to/lastmile_qr_scan"}, "fusion_lon": 0.0}, {"lat": 38.932297166666665, "is_disabled": 0, "type": "electric_scooter", "lon": -76.99601616666666, "bike_id": "33678de650c7713e93a85042413bbfff", "fusion_lat": 0.0, "name": "33678de650c7713e93a85042413bbfff", "is_reserved": 0, "rental_uris": {"android": "https://dc.lft.to/lastmile_qr_scan", "ios": "https://dc.lft.to/lastmile_qr_scan"}, "fusion_lon": 0.0}, {"lat": 38.89043933333333, "is_disabled": 0, "type": "electric_scooter", "lon": -76.93757916666667, "bike_id": "0322c3cc5702aade3aebdb29115fcefa", "fusion_lat": 0.0, "name": "0322c3cc5702aade3aebdb29115fcefa", "is_reserved": 0, "rental_uris": {"android": "https://dc.lft.to/lastmile_qr_scan", "ios": "https://dc.lft.to/lastmile_qr_scan"}, "fusion_lon": 0.0}, {"lat": 38.901483, "is_disabled": 0, "type": "electric_scooter", "lon": -77.02504983333333, "bike_id": "e76c059dbec2a4a951fce3badac89119", "fusion_lat": 0.0, "name": "e76c059dbec2a4a951fce3badac89119", "is_reserved": 0, "rental_uris": {"android": "https://dc.lft.to/lastmile_qr_scan", "ios": "https://dc.lft.to/lastmile_qr_scan"}, "fusion_lon": 0.0}, {"lat": 38.91388766666667, "is_disabled": 0, "type": "electric_scooter", "lon": -77.04165383333333, "bike_id": "2944361523d0d537e19c8806ecaf95c4", "fusion_lat": 0.0, "name": "2944361523d0d537e19c8806ecaf95c4", "is_reserved": 0, "rental_uris": {"android": "https://dc.lft.to/lastmile_qr_scan", "ios": "https://dc.lft.to/lastmile_qr_scan"}, "fusion_lon": 0.0}, {"lat": 38.89716133333334, "is_disabled": 0, "type": "electric_scooter", "lon": -77.007952, "bike_id": "6356bc4543ea17d7e1cd0e4492de77a1", "fusion_lat": 0.0, "name": "6356bc4543ea17d7e1cd0e4492de77a1", "is_reserved": 0, "rental_uris": {"android": "https://dc.lft.to/lastmile_qr_scan", "ios": "https://dc.lft.to/lastmile_qr_scan"}, "fusion_lon": 0.0}, {"lat": 38.90669783333333, "is_disabled": 0, "type": "electric_scooter", "lon": -77.02698083333334, "bike_id": "3f2de5f0c99f154fc0352e34813d1a4c", "fusion_lat": 0.0, "name": "3f2de5f0c99f154fc0352e34813d1a4c", "is_reserved": 0, "rental_uris": {"android": "https://dc.lft.to/lastmile_qr_scan", "ios": "https://dc.lft.to/lastmile_qr_scan"}, "fusion_lon": 0.0}, {"lat": 38.85050283333333, "is_disabled": 0, "type": "electric_bike", "lon": -76.973228, "bike_id": "d86b6690d87e761f10f01f7ac3d1424b", "fusion_lat": 0.0, "name": "d86b6690d87e761f10f01f7ac3d1424b", "is_reserved": 0, "rental_uris": {"android": "https://dc.lft.to/lastmile_qr_scan", "ios": "https://dc.lft.to/lastmile_qr_scan"}, "fusion_lon": 0.0}, {"lat": 38.91931866666667, "is_disabled": 0, "type": "electric_scooter", "lon": -77.02304983333333, "bike_id": "1ff09a2f6139b04efd533c1b87005c63", "fusion_lat": 0.0, "name": "1ff09a2f6139b04efd533c1b87005c63", "is_reserved": 0, "rental_uris": {"android": "https://dc.lft.to/lastmile_qr_scan", "ios": "https://dc.lft.to/lastmile_qr_scan"}, "fusion_lon": 0.0}, {"lat": 38.90823366666667, "is_disabled": 0, "type": "electric_scooter", "lon": -77.06380516666667, "bike_id": "b12f36d56db05da88d906003f906c8af", "fusion_lat": 0.0, "name": "b12f36d56db05da88d906003f906c8af", "is_reserved": 0, "rental_uris": {"android": "https://dc.lft.to/lastmile_qr_scan", "ios": "https://dc.lft.to/lastmile_qr_scan"}, "fusion_lon": 0.0}, {"lat": 38.89741216666667, "is_disabled": 0, "type": "electric_scooter", "lon": -77.04778133333333, "bike_id": "192f5478406eae38e4066c569f1c2fed", "fusion_lat": 0.0, "name": "192f5478406eae38e4066c569f1c2fed", "is_reserved": 0, "rental_uris": {"android": "https://dc.lft.to/lastmile_qr_scan", "ios": "https://dc.lft.to/lastmile_qr_scan"}, "fusion_lon": 0.0}, {"lat": 38.906797166666664, "is_disabled": 0, "type": "electric_scooter", "lon": -77.03761133333333, "bike_id": "6a7a3dc429c43031a23e33763ed2fc7d", "fusion_lat": 0.0, "name": "6a7a3dc429c43031a23e33763ed2fc7d", "is_reserved": 0, "rental_uris": {"android": "https://dc.lft.to/lastmile_qr_scan", "ios": "https://dc.lft.to/lastmile_qr_scan"}, "fusion_lon": 0.0}, {"lat": 38.907166, "is_disabled": 0, "type": "electric_scooter", "lon": -76.99825016666666, "bike_id": "8108810c46bfef47acbaee90fbf9f388", "fusion_lat": 0.0, "name": "8108810c46bfef47acbaee90fbf9f388", "is_reserved": 0, "rental_uris": {"android": "https://dc.lft.to/lastmile_qr_scan", "ios": "https://dc.lft.to/lastmile_qr_scan"}, "fusion_lon": 0.0}, {"lat": 38.92142233333333, "is_disabled": 0, "type": "electric_scooter", "lon": -77.03380816666666, "bike_id": "d749efe1070bb2de21747ba7d1ae8736", "fusion_lat": 0.0, "name": "d749efe1070bb2de21747ba7d1ae8736", "is_reserved": 0, "rental_uris": {"android": "https://dc.lft.to/lastmile_qr_scan", "ios": "https://dc.lft.to/lastmile_qr_scan"}, "fusion_lon": 0.0}, {"lat": 38.866961, "is_disabled": 0, "type": "electric_scooter", "lon": -76.98710616666666, "bike_id": "77414ec1ccb4235de86e286598ac85de", "fusion_lat": 0.0, "name": "77414ec1ccb4235de86e286598ac85de", "is_reserved": 0, "rental_uris": {"android": "https://dc.lft.to/lastmile_qr_scan", "ios": "https://dc.lft.to/lastmile_qr_scan"}, "fusion_lon": 0.0}, {"lat": 38.91690766666667, "is_disabled": 0, "type": "electric_scooter", "lon": -77.03212133333334, "bike_id": "c0df283ad94532b1f78668703039710b", "fusion_lat": 0.0, "name": "c0df283ad94532b1f78668703039710b", "is_reserved": 0, "rental_uris": {"android": "https://dc.lft.to/lastmile_qr_scan", "ios": "https://dc.lft.to/lastmile_qr_scan"}, "fusion_lon": 0.0}, {"lat": 38.924133499999996, "is_disabled": 0, "type": "electric_bike", "lon": -77.05047383333333, "bike_id": "3e780a7238013dcd0d8e6983a255b6a0", "fusion_lat": 0.0, "name": "3e780a7238013dcd0d8e6983a255b6a0", "is_reserved": 0, "rental_uris": {"android": "https://dc.lft.to/lastmile_qr_scan", "ios": "https://dc.lft.to/lastmile_qr_scan"}, "fusion_lon": 0.0}, {"lat": 38.9179075, "is_disabled": 0, "type": "electric_bike", "lon": -76.97190233333333, "bike_id": "059e4091bfed26aa3f85aab96f99b6b2", "fusion_lat": 0.0, "name": "059e4091bfed26aa3f85aab96f99b6b2", "is_reserved": 0, "rental_uris": {"android": "https://dc.lft.to/lastmile_qr_scan", "ios": "https://dc.lft.to/lastmile_qr_scan"}, "fusion_lon": 0.0}, {"lat": 38.90575, "is_disabled": 0, "type": "electric_scooter", "lon": -77.048704, "bike_id": "e2fdaed5c38dda7cec6d058c66d9c101", "fusion_lat": 0.0, "name": "e2fdaed5c38dda7cec6d058c66d9c101", "is_reserved": 0, "rental_uris": {"android": "https://dc.lft.to/lastmile_qr_scan", "ios": "https://dc.lft.to/lastmile_qr_scan"}, "fusion_lon": 0.0}, {"lat": 38.861677, "is_disabled": 0, "type": "electric_bike", "lon": -77.13145533333334, "bike_id": "44f9dc9158ad8ec1c632dee12ebf4898", "fusion_lat": 0.0, "name": "44f9dc9158ad8ec1c632dee12ebf4898", "is_reserved": 0, "rental_uris": {"android": "https://dc.lft.to/lastmile_qr_scan", "ios": "https://dc.lft.to/lastmile_qr_scan"}, "fusion_lon": 0.0},