{"data": {"bikes": [{"is_reserved": 0, "type": "electric_scooter", "bike_id": "7786b64dd45742284044ec1b4a2f954e", "lat": 38.91878916666667, "lon": -77.0431715, "rental_uris": {"android": "https://dc.lft.to/lastmile_qr_scan", "ios": "https://dc.lft.to/lastmile_qr_scan"}, "is_disabled": 0, "fusion_lat": 0.0, "name": "7786b64dd45742284044ec1b4a2f954e", "fusion_lon": 0.0}, {"is_reserved": 0, "type": "electric_scooter", "bike_id": "13b310b771edbb14adb74d8bb8cd94db", "lat": 38.910216, "lon": -76.993746, "rental_uris": {"android": "https://dc.lft.to/lastmile_qr_scan", "ios": "https://dc.lft.to/lastmile_qr_scan"}, "is_disabled": 0, "fusion_lat": 0.0, "name": "13b310b771edbb14adb74d8bb8cd94db", "fusion_lon": 0.0}, {"is_reserved": 0, "type": "electric_scooter", "bike_id": "c7fc08cb62b19c1b9402cbbe220e0307", "lat": 38.874758666666665, "lon": -77.00336233333333, "rental_uris": {"android": "https://dc.lft.to/lastmile_qr_scan", "ios": "https://dc.lft.to/lastmile_qr_scan"}, "is_disabled": 0, "fusion_lat": 0.0, "name": "c7fc08cb62b19c1b9402cbbe220e0307", "fusion_lon": 0.0}, {"is_reserved": 0, "type": "electric_scooter", "bike_id": "349265754f3ad8510c5a2f4e05609f58", "lat": 38.90273083333334, "lon": -77.03194766666667, "rental_uris": {"android": "https://dc.lft.to/lastmile_qr_scan", "ios": "https://dc.lft.to/lastmile_qr_scan"}, "is_disabled": 0, "fusion_lat": 0.0, "name": "349265754f3ad8510c5a2f4e05609f58", "fusion_lon": 0.0}, {"is_reserved": 0, "type": "electric_scooter", "bike_id": "045fb09444409845007c08508a79d95f", "lat": 38.922058, "lon": -77.02038983333334, "rental_uris": {"android": "https://dc.lft.to/lastmile_qr_scan", "ios": "https://dc.lft.to/lastmile_qr_scan"}, "is_disabled": 0, "fusion_lat": 0.0, "name": "045fb09444409845007c08508a79d95f", "fusion_lon": 0.0}, {"is_reserved": 0, "type": "electric_scooter", "bike_id": "bd584f5017d947d9f2ef6bc061c29be2", "lat": 38.91885833333333, "lon": -77.043069, "rental_uris": {"android": "https://dc.lft.to/lastmile_qr_scan", "ios": "https://dc.lft.to/lastmile_qr_scan"}, "is_disabled": 0, "fusion_lat": 0.0, "name": "bd584f5017d947d9f2ef6bc061c29be2", "fusion_lon": 0.0}, {"is_reserved": 0, "type": "electric_scooter", "bike_id": "4a8f18be1519f7e1163e99741b50d8ab", "lat": 38.91185016666667, "lon": -77.0025595, "rental_uris": {"android": "https://dc.lft.to/lastmile_qr_scan", "ios": "https://dc.lft.to/lastmile_qr_scan"}, "is_disabled": 0, "fusion_lat": 0.0, "name": "4a8f18be1519f7e1163e99741b50d8ab", "fusion_lon": 0.0}, {"is_reserved": 0, "type": "electric_scooter", "bike_id": "b27d978172ccf20d049afabcb2b6a374", "lat": 38.917062666666666, "lon": -77.024111, "rental_uris": {"android": "https://dc.lft.to/lastmile_qr_scan", "ios": "https://dc.lft.to/lastmile_qr_scan"}, "is_disabled": 0, "fusion_lat": 0.0, "name": "b27d978172ccf20d049afabcb2b6a374", "fusion_lon": 0.0}, {"is_reserved": 0, "type": "electric_scooter", "bike_id": "73b3cc3958e690e0b209d5c7cc15d727", "lat": 38.92485416666667, "lon": -77.0319345, "rental_uris": {"android": "https://dc.lft.to/lastmile_qr_scan", "ios": "https://dc.lft.to/lastmile_qr_scan"}, "is_disabled": 0, "fusion_lat": 0.0, "name": "73b3cc3958e690e0b209d5c7cc15d727", "fusion_lon": 0.0}, {"is_reserved": 0, "type": "electric_bike", "bike_id": "5c6dae3c282039a6d18f865739bd255f", "lat": 38.9333675, "lon": -77.03984466666667, "rental_uris": {"android": "https://dc.lft.to/lastmile_qr_scan", "ios": "https://dc.lft.to/lastmile_qr_scan"}, "is_disabled": 0, "fusion_lat": 0.0, "name": "5c6dae3c282039a6d18f865739bd255f", "fusion_lon": 0.0}, {"is_reserved": 0, "type": "electric_scooter", "bike_id": "1529a7ea56168e1b8266ed542bb4953e", "lat": 38.90147983333333, "lon": -77.0514085, "rental_uris": {"android": "https://dc.lft.to/lastmile_qr_scan", "ios": "https://dc.lft.to/lastmile_qr_scan"}, "is_disabled": 0, "fusion_lat": 0.0, "name": "1529a7ea56168e1b8266ed542bb4953e", "fusion_lon": 0.0}, {"is_reserved": 0, "type": "electric_scooter", "bike_id": "a136401ec4594bb70d3a6b0093c649d4", "lat": 38.917134, "lon": -77.03216766666667, "rental_uris": {"android": "https://dc.lft.to/lastmile_qr_scan", "ios": "https://dc.lft.to/lastmile_qr_scan"}, "is_disabled": 0, "fusion_lat": 0.0, "name": "a136401ec4594bb70d3a6b0093c649d4", "fusion_lon": 0.0}, {"is_reserved": 0, "type": "electric_scooter", "bike_id": "34891d501ba996ac82d772fb7a78721f", "lat": 38.924878, "lon": -77.022734, "rental_uris": {"android": "https://dc.lft.to/lastmile_qr_scan", "ios": "https://dc.lft.to/lastmile_qr_scan"}, "is_disabled": 0, "fusion_lat": 0.0, "name": "34891d501ba996ac82d772fb7a78721f", "fusion_lon": 0.0}, {"is_reserved": 0, "type": "electric_scooter", "bike_id": "9f1f45c36600353fac6a63c30b642715", "lat": 38.9178555, "lon": -77.02970683333334, "rental_uris": {"android": "https://dc.lft.to/lastmile_qr_scan", "ios": "https://dc.lft.to/lastmile_qr_scan"}, "is_disabled": 0, "fusion_lat": 0.0, "name": "9f1f45c36600353fac6a63c30b642715", "fusion_lon": 0.0}, {"is_reserved": 0, "type": "electric_bike", "bike_id": "96b40defde6daa8811da9d9d6e521eab", "lat": 38.845375833333335, "lon": -77.076341, "rental_uris": {"android": "https://dc.lft.to/lastmile_qr_scan", "ios": "https://dc.lft.to/lastmile_qr_scan"}, "is_disabled": 0, "fusion_lat": 0.0, "name": "96b40defde6daa8811da9d9d6e521eab", "fusion_lon": 0.0}, {"is_reserved": 0, "type": "electric_scooter", "bike_id": "01de6b1d7cae3797ce727a7ab320ad5e", "lat": 38.89969966666666, "lon": -76.990351, "rental_uris": {"android": "https://dc.lft.to/lastmile_qr_scan", "ios": "https://dc.lft.to/lastmile_qr_scan"}, "is_disabled": 0, "fusion_lat": 0.0, "name": "01de6b1d7cae3797ce727a7ab320ad5e", "fusion_lon": 0.0}, {"is_reserved": 0, "type": "electric_scooter", "bike_id": "a095989e7ee6eaa99fc26d63e3af0f1d", "lat": 38.9201085, "lon": -77.03205816666667, "rental_uris": {"android": "https://dc.lft.to/lastmile_qr_scan", "ios": "https://dc.lft.to/lastmile_qr_scan"}, "is_disabled": 0, "fusion_lat": 0.0, "name": "a095989e7ee6eaa99fc26d63e3af0f1d", "fusion_lon": 0.0}, {"is_reserved": 0, "type": "electric_bike", "bike_id": "a8ae1c895733485f5818c6f60e6632ef", "lat": 38.96128916666667, "lon": -77.03278366666666, "rental_uris": {"android": "https://dc.lft.to/lastmile_qr_scan", "ios": "https://dc.lft.to/lastmile_qr_scan"}, "is_disabled": 0, "fusion_lat": 0.0, "name": "a8ae1c895733485f5818c6f60e6632ef", "fusion_lon": 0.0}, {"is_reserved": 0, "type": "electric_scooter", "bike_id": "e243ec2eaa041f1330c3b28a5b8f576b", "lat": 38.926952166666666, "lon": -77.025785, "rental_uris": {"android": "https://dc.lft.to/lastmile_qr_scan", "ios": "https://dc.lft.to/lastmile_qr_scan"}, "is_disabled": 0, "fusion_lat": 0.0, "name": "e243ec2eaa041f1330c3b28a5b8f576b", "fusion_lon": 0.0}, {"is_reserved": 0, "type": "electric_scooter", "bike_id": "6d20b0c6db1931d41846a3e7ad460392", "lat": 38.90110116666666, "lon": -77.03185033333334, "rental_uris": {"android": "https://dc.lft.to/lastmile_qr_scan", "ios": "https://dc.lft.to/lastmile_qr_scan"}, "is_disabled": 0, "fusion_lat": 0.0, "name": "6d20b0c6db1931d41846a3e7ad460392", "fusion_lon": 0.0}, {"is_reserved": 0, "type": "electric_scooter", "bike_id": "6d8462892c9afb1b02a0da3769ca7386", "lat": 38.91051483333333, "lon": -77.015072, "rental_uris": {"android": "https://dc.lft.to/lastmile_qr_scan", "ios": "https://dc.lft.to/lastmile_qr_scan"}, "is_disabled": 0, "fusion_lat": 0.0, "name": "6d8462892c9afb1b02a0da3769ca7386", "fusion_lon": 0.0}, {"is_reserved": 0, "type": "electric_scooter", "bike_id": "798f879d48f13a3d91ea220343352400", "lat": 38.9266905, "lon": -77.007815, "rental_uris": {"android": "https://dc.lft.to/lastmile_qr_scan", "ios": "https://dc.lft.to/lastmile_qr_scan"}, "is_disabled": 0, "fusion_lat": 0.0, "name": "798f879d48f13a3d91ea220343352400", "fusion_lon": 0.0}, {"is_reserved": 0, "type": "electric_scooter", "bike_id": "941dd44e40b677b7502b32e107112460", "lat": 38.899202833333334, "lon": -77.03203466666666, "rental_uris": {"android": "https://dc.lft.to/lastmile_qr_scan", "ios": "https://dc.lft.to/lastmile_qr_scan"}, "is_disabled": 0, "fusion_lat": 0.0, "name": "941dd44e40b677b7502b32e107112460", "fusion_lon": 0.0}, {"is_reserved": 0, "type": "electric_scooter", "bike_id": "d5a2059c88c8c33cfa0e6edadedf6387", "lat": 38.931510333333335, "lon": -77.02966583333334, "rental_uris": {"android": "https://dc.lft.to/lastmile_qr_scan", "ios": "https://dc.lft.to/lastmile_qr_scan"}, "is_disabled": 0, "fusion_lat": 0.0, "name": "d5a2059c88c8c33cfa0e6edadedf6387", "fusion_lon": 0.0}, {"is_reserved": 0, "type": "electric_scooter", "bike_id": "8c874fdd7595aefe94cdae50ad0b163a", "lat": 38.92365866666667, "lon": -77.03641016666667, "rental_uris": {"android": "https://dc.lft.to/lastmile_qr_scan", "ios": "https://dc.lft.to/lastmile_qr_scan"}, "is_disabled": 0, "fusion_lat": 0.0, "name": "8c874fdd7595aefe94cdae50ad0b163a", "fusion_lon": 0.0}, {"is_reserved": 0, "type": "electric_bike", "bike_id": "92f928c197d8d8ef7a97d728679c0819", "lat": 38.840548166666665, "lon": -77.05601633333333, "rental_uris": {"android": "https://dc.lft.to/lastmile_qr_scan", "ios": "https://dc.lft.to/lastmile_qr_scan"}, "is_disabled": 0, "fusion_lat": 0.0, "name": "92f928c197d8d8ef7a97d728679c0819", "fusion_lon": 0.0}, {"is_reserved": 0, "type": "electric_scooter", "bike_id": "5efff9ee71d321f5de7de9e3ab36767c", "lat": 38.920316, "lon": -77.0270875, "rental_uris": {"android": "https://dc.lft.to/lastmile_qr_scan", "ios": "https://dc.lft.to/lastmile_qr_scan"}, "is_disabled": 0, "fusion_lat": 0.0, "name": "5efff9ee71d321f5de7de9e3ab36767c", "fusion_lon": 0.0}, {"is_reserved": 0, "type": "electric_scooter", "bike_id": "1bd4a4b2389cbf050b5bb0565d5e9c40", "lat": 38.919770166666666, "lon": -77.02706933333333, "rental_uris": {"android": "https://dc.lft.to/lastmile_qr_scan", "ios": "https://dc.lft.to/lastmile_qr_scan"}, "is_disabled": 0, "fusion_lat": 0.0, "name": "1bd4a4b2389cbf050b5bb0565d5e9c40", "fusion_lon": 0.0}, {"is_reserved": 0, "type": "electric_scooter", "bike_id": "ac3cfd84bc6a663299c7629aaf06108b", "lat": 38.90840583333333, "lon": -77.00275533333334, "rental_uris": {"android": "https://dc.lft.to/lastmile_qr_scan", "ios": "https://dc.lft.to/lastmile_qr_scan"}, "is_disabled": 0, "fusion_lat": 0.0, "name": "ac3cfd84bc6a663299c7629aaf06108b", "fusion_lon": 0.0}, {"is_reserved": 0, "type": "electric_scooter", "bike_id": "00b0c213a32cbe43a80ee8b8dad30bde", "lat": 38.905978, "lon": -77.06420666666666, "rental_uris": {"android": "https://dc.lft.to/lastmile_qr_scan", "ios": "https://dc.lft.to/lastmile_qr_scan"}, "is_disabled": 0, "fusion_lat": 0.0, "name": "00b0c213a32cbe43a80ee8b8dad30bde", "fusion_lon": 0.0}, {"is_reserved": 0, "type": "electric_scooter", "bike_id": "473944a719f1f1e9760f0f7932584eea", "lat": 38.89393, "lon": -77.0297445, "rental_uris": {"android": "https://dc.lft.to/lastmile_qr_scan", "ios": "https://dc.lft.to/lastmile_qr_scan"}, "is_disabled": 0, "fusion_lat": 0.0, "name": "473944a719f1f1e9760f0f7932584eea", "fusion_lon": 0.0}, {"is_reserved": 0, "type": "electric_scooter", "bike_id": "5d0fd39ca013c58ce32e043ace01837b", "lat": 38.91038283333334, "lon": -77.03093566666666, "rental_uris": {"android": "https://dc.lft.to/lastmile_qr_scan", "ios": "https://dc.lft.to/lastmile_qr_scan"}, "is_disabled": 0, "fusion_lat": 0.0, "name": "5d0fd39ca013c58ce32e043ace01837b", "fusion_lon": 0.0}, {"is_reserved": 0, "type": "electric_scooter", "bike_id": "0105e197bf91ad6a9747efecb3085c4f", "lat": 38.920964833333336, "lon": -77.07178966666666, "rental_uris": {"android": "https://dc.lft.to/lastmile_qr_scan", "ios": "https://dc.lft.to/lastmile_qr_scan"}, "is_disabled": 0, "fusion_lat": 0.0, "name": "0105e197bf91ad6a9747efecb3085c4f", "fusion_lon": 0.0}, {"is_reserved": 0, "type": "electric_scooter", "bike_id": "d3e2dee69f28c587e342053ea8b24b86", "lat": 38.87761783333333, "lon": -76.99537916666667, "rental_uris": {"android": "https://dc.lft.to/lastmile_qr_scan", "ios": "https://dc.lft.to/lastmile_qr_scan"}, "is_disabled": 0, "fusion_lat": 0.0, "name": "d3e2dee69f28c587e342053ea8b24b86", "fusion_lon": 0.0}, {"is_reserved": 0, "type": "electric_scooter", "bike_id": "f9febb68eba7a9780ea061f869cff3c9", "lat": 38.95295566666667, "lon": -77.06859283333333, "rental_uris": {"android": "https://dc.lft.to/lastmile_qr_scan", "ios": "https://dc.lft.to/lastmile_qr_scan"}, "is_disabled": 0, "fusion_lat": 0.0, "name": "f9febb68eba7a9780ea061f869cff3c9", "fusion_lon": 0.0}, {"is_reserved": 0, "type": "electric_scooter", "bike_id": "abdfed8be2fc5abe3cb635213dc30436", "lat": 38.924593, "lon": -77.0088965, "rental_uris": {"android": "https://dc.lft.to/lastmile_qr_scan", "ios": "https://dc.lft.to/lastmile_qr_scan"}, "is_disabled": 0, "fusion_lat": 0.0, "name": "abdfed8be2fc5abe3cb635213dc30436", "fusion_lon": 0.0}, {"is_reserved": 0, "type": "electric_scooter", "bike_id": "f921d74dedc498115cbdb753e307a5c6", "lat": 38.8969205, "lon": -77.012047, "rental_uris": {"android": "https://dc.lft.to/lastmile_qr_scan", "ios": "https://dc.lft.to/lastmile_qr_scan"}, "is_disabled": 0, "fusion_lat": 0.0, "name": "f921d74dedc498115cbdb753e307a5c6", "fusion_lon": 0.0}, {"is_reserved": 0, "type": "electric_scooter", "bike_id": "fc2c3f3bef365bd61a61c2013862e2bb", "lat": 38.90871716666667, "lon": -77.0641875, "rental_uris": {"android": "https://dc.lft.to/lastmile_qr_scan", "ios": "https://dc.lft.to/lastmile_qr_scan"}, "is_disabled": 0, "fusion_lat": 0.0, "name": "fc2c3f3bef365bd61a61c2013862e2bb", "fusion_lon": 0.0}, {"is_reserved": 0, "type": "electric_scooter", "bike_id": "d91fea0917c66b060ab90e134bf060b8", "lat": 38.920149333333335, "lon": -77.03187316666667, "rental_uris": {"android": "https://dc.lft.to/lastmile_qr_scan", "ios": "https://dc.lft.to/lastmile_qr_scan"}, "is_disabled": 0, "fusion_lat": 0.0, "name": "d91fea0917c66b060ab90e134bf060b8", "fusion_lon": 0.0}, {"is_reserved": 0, "type": "electric_scooter", "bike_id": "d36bb1c24c2ad6f556e41a4b41a2ff16", "lat": 38.925504, "lon": -76.99953483333333, "rental_uris": {"android": "https://dc.lft.to/lastmile_qr_scan", "ios": "https://dc.lft.to/lastmile_qr_scan"}, "is_disabled": 0, "fusion_lat": 0.0, "name": "d36bb1c24c2ad6f556e41a4b41a2ff16", "fusion_lon": 0.0}, {"is_reserved": 0, "type": "electric_scooter", "bike_id": "4608c5d9ea858d87d0651f2541232b6b", "lat": 38.90382366666667, "lon": -77.031587, "rental_uris": {"android": "https://dc.lft.to/lastmile_qr_scan", "ios": "https://dc.lft.to/lastmile_qr_scan"}, "is_disabled": 0, "fusion_lat": 0.0, "name": "4608c5d9ea858d87d0651f2541232b6b", "fusion_lon": 0.0}, {"is_reserved": 0, "type": "electric_scooter", "bike_id": "4712cdfbe95eb585cce7401acb494e39", "lat": 38.890019, "lon": -77.04892783333334, "rental_uris": {"android": "https://dc.lft.to/lastmile_qr_scan", "ios": "https://dc.lft.to/lastmile_qr_scan"}, "is_disabled": 0, "fusion_lat": 0.0, "name": "4712cdfbe95eb585cce7401acb494e39", "fusion_lon": 0.0}, {"is_reserved": 0, "type": "electric_scooter", "bike_id": "9374756a5a11f8dd79d2210883038f60", "lat": 38.93114216666667, "lon": -77.03839933333333, "rental_uris": {"android": "https://dc.lft.to/lastmile_qr_scan", "ios": "https://dc.lft.to/lastmile_qr_scan"}, "is_disabled": 0, "fusion_lat": 0.0, "name": "9374756a5a11f8dd79d2210883038f60", "fusion_lon": 0.0}, {"is_reserved": 0, "type": "electric_scooter", "bike_id": "e76f44a3d2003d06abae6b993681d0d3", "lat": 38.900862333333336, "lon": -77.01622183333333, "rental_uris": {"android": "https://dc.lft.to/lastmile_qr_scan", "ios": "https://dc.lft.to/lastmile_qr_scan"}, "is_disabled": 0, "fusion_lat": 0.0, "name": "e76f44a3d2003d06abae6b993681d0d3", "fusion_lon": 0.0}, {"is_reserved": 0, "type": "electric_scooter", "bike_id": "6e289e984ba2df861479c5d8f169a1e1", "lat": 38.90733133333333, "lon": -77.01133566666667, "rental_uris": {"android": "https://dc.lft.to/lastmile_qr_scan", "ios": "https://dc.lft.to/lastmile_qr_scan"}, "is_disabled": 0, "fusion_lat": 0.0, "name": "6e289e984ba2df861479c5d8f169a1e1", "fusion_lon": 0.0}, {"is_reserved": 0, "type": "electric_scooter", "bike_id": "38943442f1d87f22a446e6913a895c91", "lat": 38.9188065, "lon": -77.04249, "rental_uris": {"android": "https://dc.lft.to/lastmile_qr_scan", "ios": "https://dc.lft.to/lastmile_qr_scan"}, "is_disabled": 0, "fusion_lat": 0.0, "name": "38943442f1d87f22a446e6913a895c91", "fusion_lon": 0.0}, {"is_reserved": 0, "type": "electric_scooter", "bike_id": "c1424823209b760681217b95658fd52c", "lat": 38.91118483333333, "lon": -77.01817883333334, "rental_uris": {"android": "https://dc.lft.to/lastmile_qr_scan", "ios": "https://dc.lft.to/lastmile_qr_scan"}, "is_disabled": 0, "fusion_lat": 0.0, "name": "c1424823209b760681217b95658fd52c", "fusion_lon": 0.0}, {"is_reserved": 0, "type": "electric_scooter", "bike_id": "c161727576bda4842027ab4130acab03", "lat": 38.9306915, "lon": -77.02840883333333, "rental_uris": {"android": "https://dc.lft.to/lastmile_qr_scan", "ios": "https://dc.lft.to/lastmile_qr_scan"}, "is_disabled": 0, "fusion_lat": 0.0, "name": "c161727576bda4842027ab4130acab03", "fusion_lon": 0.0}, {"is_reserved": 0, "type": "electric_scooter", "bike_id": "dd3c6780e963032ec3b5f24ff5b90e23", "lat": 38.935128, "lon": -77.033452, "rental_uris": {"android": "https://dc.lft.to/lastmile_qr_scan", "ios": "https://dc.lft.to/lastmile_qr_scan"}, "is_disabled": 0, "fusion_lat": 0.0, "name": "dd3c6780e963032ec3b5f24ff5b90e23", "fusion_lon": 0.0}, {"is_reserved": 0, "type": "electric_bike", "bike_id": "9fdf8d7549fb2f301b0b69b8c411ead5", "lat": 38.974217333333335, "lon": -77.01256166666667, "rental_uris": {"android": "https://dc.lft.to/lastmile_qr_scan", "ios": "https://dc.lft.to/lastmile_qr_scan"}, "is_disabled": 0, "fusion_lat": 0.0, "name": "9fdf8d7549fb2f301b0b69b8c411ead5", "fusion_lon": 0.0}, {"is_reserved": 0, "type": "electric_bike", "bike_id": "dbd0f5535fa9bee06d70e26b918eed3b", "lat": 38.89192933333333, "lon": -76.98558, "rental_uris": {"android": "https://dc.lft.to/lastmile_qr_scan", "ios": "https://dc.lft.to/lastmile_qr_scan"}, "is_disabled": 0, "fusion_lat": 0.0, "name": "dbd0f5535fa9bee06d70e26b918eed3b", "fusion_lon": 0.0}, {"is_reserved": 0, "type": "electric_bike", "bike_id": "1c7657a8dbe27e1e87c580e9212fa9c6", "lat": 38.921363166666666, "lon": -77.00401916666667, "rental_uris": {"android": "https://dc.lft.to/lastmile_qr_scan", "ios": "https://dc.lft.to/lastmile_qr_scan"}, "is_disabled": 0, "fusion_lat": 0.0, "name": "1c7657a8dbe27e1e87c580e9212fa9c6", "fusion_lon": 0.0}, {"is_reserved": 0, "type": "electric_scooter", "bike_id": "ac237076c2c6a3447e37026502d95423", "lat": 38.90792033333334, "lon": -77.0095785, "rental_uris": {"android": "https://dc.lft.to/lastmile_qr_scan", "ios": "https://dc.lft.to/lastmile_qr_scan"}, "is_disabled": 0, "fusion_lat": 0.0, "name": "ac237076c2c6a3447e37026502d95423", "fusion_lon": 0.0}, {"is_reserved": 0, "type": "electric_scooter", "bike_id": "434d95959c3c1fbdd082d10951330d52", "lat": 38.90799783333333, "lon": -77.03190816666667, "rental_uris": {"android": "https://dc.lft.to/lastmile_qr_scan", "ios": "https://dc.lft.to/lastmile_qr_scan"}, "is_disabled": 0, "fusion_lat": 0.0, "name": "434d95959c3c1fbdd082d10951330d52", "fusion_lon": 0.0}, {"is_reserved": 0, "type": "electric_scooter", "bike_id": "bd4d57d4a71f750f0286cd23f80fbf0e", "lat": 38.9176595, "lon": -77.00450583333334, "rental_uris": {"android": "https://dc.lft.to/lastmile_qr_scan", "ios": "https://dc.lft.to/lastmile_qr_scan"}, "is_disabled": 0, "fusion_lat": 0.0, "name": "bd4d57d4a71f750f0286cd23f80fbf0e", "fusion_lon": 0.0}, {"is_reserved": 0, "type": "electric_scooter", "bike_id": "9dfde27c31a11b8cf29e5ba7648dd6df", "lat": 38.9497735, "lon": -77.02450633333333, "rental_uris": {"android": "https://dc.lft.to/lastmile_qr_scan", "ios": "https://dc.lft.to/lastmile_qr_scan"}, "is_disabled": 0, "fusion_lat": 0.0, "name": "9dfde27c31a11b8cf29e5ba7648dd6df", "fusion_lon": 0.0}, {"is_reserved": 0, "type": "electric_scooter", "bike_id": "329e042d97cbc49302e6339613b4f011", "lat": 38.9333095, "lon": -77.029121, "rental_uris": {"android": "https://dc.lft.to/lastmile_qr_scan", "ios": "https://dc.lft.to/lastmile_qr_scan"}, "is_disabled": 0, "fusion_lat": 0.0, "name": "329e042d97cbc49302e6339613b4f011", "fusion_lon": 0.0}, {"is_reserved": 0, "type": "electric_scooter", "bike_id": "7c93a7a3fa44db49e85aad85a3540479", "lat": 38.908101, "lon": -77.04885233333333, "rental_uris": {"android": "https://dc.lft.to/lastmile_qr_scan", "ios": "https://dc.lft.to/lastmile_qr_scan"}, "is_disabled": 0, "fusion_lat": 0.0, "name": "7c93a7a3fa44db49e85aad85a3540479", "fusion_lon": 0.0}, {"is_reserved": 0, "type": "electric_scooter", "bike_id": "572138e4c0769c56f438511a6c205d83", "lat": 38.905213, "lon": -77.05999883333334, "rental_uris": {"android": "https://dc.lft.to/lastmile_qr_scan", "ios": "https://dc.lft.to/lastmile_qr_scan"}, "is_disabled": 0, "fusion_lat": 0.0, "name": "572138e4c0769c56f438511a6c205d83", "fusion_lon": 0.0}, {"is_reserved": 0, "type": "electric_scooter", "bike_id": "49530ff96c6ea2d35e6e0685f4451442", "lat": 38.902413333333335, "lon": -77.0164055, "rental_uris": {"android": "https://dc.lft.to/lastmile_qr_scan", "ios": "https://dc.lft.to/lastmile_qr_scan"}, "is_disabled": 0, "fusion_lat": 0.0, "name": "49530ff96c6ea2d35e6e0685f4451442", "fusion_lon": 0.0}, {"is_reserved": 0, "type": "electric_scooter", "bike_id": "9e740055fd08b9cae0abeabdddf740ed", "lat": 38.879779166666665, "lon": -77.0086265, "rental_uris": {"android": "https://dc.lft.to/lastmile_qr_scan", "ios": "https://dc.lft.to/lastmile_qr_scan"}, "is_disabled": 0, "fusion_lat": 0.0, "name": "9e740055fd08b9cae0abeabdddf740ed", "fusion_lon": 0.0}, {"is_reserved": 0, "type": "electric_scooter", "bike_id": "c8719dc1da4620452d2f6010f034dae8", "lat": 38.900042666666664, "lon": -77.02724883333333, "rental_uris": {"android": "https://dc.lft.to/lastmile_qr_scan", "ios": "https://dc.lft.to/lastmile_qr_scan"}, "is_disabled": 0, "fusion_lat": 0.0, "name": "c8719dc1da4620452d2f6010f034dae8", "fusion_lon": 0.0}, {"is_reserved": 0, "type": "electric_scooter", "bike_id": "b1db1e15da530215f11aff7b1248ff36", "lat": 38.87477233333333, "lon": -77.00334183333334, "rental_uris": {"android": "https://dc.lft.to/lastmile_qr_scan", "ios": "https://dc.lft.to/lastmile_qr_scan"}, "is_disabled": 0, "fusion_lat": 0.0, "name": "b1db1e15da530215f11aff7b1248ff36", "fusion_lon": 0.0}, {"is_reserved": 0, "type": "electric_scooter", "bike_id": "96f66ebd44235979238e1f94f683e3c5", "lat": 38.897403, "lon": -77.04424233333333, "rental_uris": {"android": "https://dc.lft.to/lastmile_qr_scan", "ios": "https://dc.lft.to/lastmile_qr_scan"}, "is_disabled": 0, "fusion_lat": 0.0, "name": "96f66ebd44235979238e1f94f683e3c5", "fusion_lon": 0.0}, {"is_reserved": 0, "type": "electric_scooter", "bike_id": "f2a576d877e8d8e144642952c5cd6241", "lat": 38.915846, "lon": -77.01232366666666, "rental_uris": {"android": "https://dc.lft.to/lastmile_qr_scan", "ios": "https://dc.lft.to/lastmile_qr_scan"}, "is_disabled": 0, "fusion_lat": 0.0, "name": "f2a576d877e8d8e144642952c5cd6241", "fusion_lon": 0.0}, {"is_reserved": 0, "type": "electric_scooter", "bike_id": "d696985dec711633a6b05d7cd03c299c", "lat": 38.90669583333333, "lon": -77.041811, "rental_uris": {"android": "https://dc.lft.to/lastmile_qr_scan", "ios": "https://dc.lft.to/lastmile_qr_scan"}, "is_disabled": 0, "fusion_lat": 0.0, "name": "d696985dec711633a6b05d7cd03c299c", "fusion_lon": 0.0}, {"is_reserved": 0, "type": "electric_bike", "bike_id": "8e3822cbe899ded93b33b4140259a7ac", "lat": 38.999355, "lon": -77.0513935, "rental_uris": {"android": "https://dc.lft.to/lastmile_qr_scan", "ios": "https://dc.lft.to/lastmile_qr_scan"}, "is_disabled": 0, "fusion_lat": 0.0, "name": "8e3822cbe899ded93b33b4140259a7ac", "fusion_lon": 0.0}, {"is_reserved": 0, "type": "electric_bike", "bike_id": "a3418a4c67c9871ee8d7ef667baa0c44", "lat": 38.9726755, "lon": -77.14967466666667, "rental_uris": {"android": "https://dc.lft.to/lastmile_qr_scan", "ios": "https://dc.lft.to/lastmile_qr_scan"}, "is_disabled": 0, "fusion_lat": 0.0, "name": "a3418a4c67c9871ee8d7ef667baa0c44", "fusion_lon": 0.0}, {"is_reserved": 0, "type": "electric_scooter", "bike_id": "d7b212839fd61dcb27c9757ea325f88b", "lat": 38.90038783333333, "lon": -76.9915595, "rental_uris": {"android": "https://dc.lft.to/lastmile_qr_scan", "ios": "https://dc.lft.to/lastmile_qr_scan"}, "is_disabled": 0, "fusion_lat": 0.0, "name": "d7b212839fd61dcb27c9757ea325f88b", "fusion_lon": 0.0}, {"is_reserved": 0, "type": "electric_scooter", "bike_id": "f76d72f47942a2175b01c749e3a5be92", "lat": 38.8984585, "lon": -77.01296383333333, "rental_uris": {"android": "https://dc.lft.to/lastmile_qr_scan", "ios": "https://dc.lft.to/lastmile_qr_scan"}, "is_disabled": 0, "fusion_lat": 0.0, "name": "f76d72f47942a2175b01c749e3a5be92", "fusion_lon": 0.0}, {"is_reserved": 0, "type": "electric_scooter", "bike_id": "1f4f2bb90e285f9ddfb445b9b3ff1d90", "lat": 38.92351, "lon": -77.01892683333334, "rental_uris": {"android": "https://dc.lft.to/lastmile_qr_scan", "ios": "https://dc.lft.to/lastmile_qr_scan"}, "is_disabled": 0, "fusion_lat": 0.0, "name": "1f4f2bb90e285f9ddfb445b9b3ff1d90", "fusion_lon": 0.0}, {"is_reserved": 0, "type": "electric_scooter", "bike_id": "db416c27dac0d93bad4ef5bc3e34171f", "lat": 38.907245333333336, "lon": -77.03878416666667, "rental_uris": {"android": "https://dc.lft.to/lastmile_qr_scan", "ios": "https://dc.lft.to/lastmile_qr_scan"}, "is_disabled": 0, "fusion_lat": 0.0, "name": "db416c27dac0d93bad4ef5bc3e34171f", "fusion_lon": 0.0}, {"is_reserved": 0, "type": "electric_scooter", "bike_id": "9922aa75f62aaf242a8200ddcb0709b8", "lat": 38.918925, "lon": -77.03454466666666, "rental_uris": {"android": "https://dc.lft.to/lastmile_qr_scan", "ios": "https://dc.lft.to/lastmile_qr_scan"}, "is_disabled": 0, "fusion_lat": 0.0, "name": "9922aa75f62aaf242a8200ddcb0709b8", "fusion_lon": 0.0}, {"is_reserved": 0, "type": "electric_bike", "bike_id": "c675046f09838c8ae3259639764effe8", "lat": 38.93181216666667, "lon": -77.028534, "rental_uris": {"android": "https://dc.lft.to/lastmile_qr_scan", "ios": "https://dc.lft.to/lastmile_qr_scan"}, "is_disabled": 0, "fusion_lat": 0.0, "name": "c675046f09838c8ae3259639764effe8", "fusion_lon": 0.0}, {"is_reserved": 0, "type": "electric_scooter", "bike_id": "39f4f4d3e0a2ac2f16f2ff69b758af45", "lat": 38.90473266666667, "lon": -77.0072135, "rental_uris": {"android": "https://dc.lft.to/lastmile_qr_scan", "ios": "https://dc.lft.to/lastmile_qr_scan"}, "is_disabled": 0, "fusion_lat": 0.0, "name": "39f4f4d3e0a2ac2f16f2ff69b758af45", "fusion_lon": 0.0}, {"is_reserved": 0, "type": "electric_scooter", "bike_id": "047d9900f69209fbb690b8a95bd25b71", "lat": 38.91416566666667, "lon": -77.0221385, "rental_uris": {"android": "https://dc.lft.to/lastmile_qr_scan", "ios": "https://dc.lft.to/lastmile_qr_scan"}, "is_disabled": 0, "fusion_lat": 0.0, "name": "047d9900f69209fbb690b8a95bd25b71", "fusion_lon": 0.0}, {"is_reserved": 0, "type": "electric_scooter", "bike_id": "529b32c00de6d9f7e5b3c5d0d120c850", "lat": 38.893649833333335, "lon": -76.98680516666667, "rental_uris": {"android": "https://dc.lft.to/lastmile_qr_scan", "ios": "https://dc.lft.to/lastmile_qr_scan"}, "is_disabled": 0, "fusion_lat": 0.0, "name": "529b32c00de6d9f7e5b3c5d0d120c850", "fusion_lon": 0.0}, {"is_reserved": 0, "type": "electric_scooter", "bike_id": "389b54c02b819ed016b54a674e197304", "lat": 38.9350055, "lon": -77.04458616666666, "rental_uris": {"android": "https://dc.lft.to/lastmile_qr_scan", "ios": "https://dc.lft.to/lastmile_qr_scan"}, "is_disabled": 0, "fusion_lat": 0.0, "name": "389b54c02b819ed016b54a674e197304", "fusion_lon": 0.0}, {"is_reserved": 0, "type": "electric_scooter", "bike_id": "2dcc39bc2ccc91e1d4453e95af81469b", "lat": 38.908155666666666, "lon": -77.03447616666666, "rental_uris": {"android": "https://dc.lft.to/lastmile_qr_scan", "ios": "https://dc.lft.to/lastmile_qr_scan"}, "is_disabled": 0, "fusion_lat": 0.0, "name": "2dcc39bc2ccc91e1d4453e95af81469b", "fusion_lon": 0.0}, {"is_reserved": 0, "type": "electric_scooter", "bike_id": "55d0eacb69d48aca8269145b450d7b4b", "lat": 38.907324, "lon": -77.00709633333334, "rental_uris": {"android": "https://dc.lft.to/lastmile_qr_scan", "ios": "https://dc.lft.to/lastmile_qr_scan"}, "is_disabled": 0, "fusion_lat": 0.0, "name": "55d0eacb69d48aca8269145b450d7b4b", "fusion_lon": 0.0}, {"is_reserved": 0, "type": "electric_scooter", "bike_id": "2327f79e7091959bf61412c7dbf930c6", "lat": 38.894906666666664, "lon": -76.9279195, "rental_uris": {"android": "https://dc.lft.to/lastmile_qr_scan", "ios": "https://dc.lft.to/lastmile_qr_scan"}, "is_disabled": 0, "fusion_lat": 0.0, "name": "2327f79e7091959bf61412c7dbf930c6", "fusion_lon": 0.0}, {"is_reserved": 0, "type": "electric_scooter", "bike_id": "1b1bd39097f9699b16d66002cd3918da", "lat": 38.98993566666667, "lon": -77.03360766666667, "rental_uris": {"android": "https://dc.lft.to/lastmile_qr_scan", "ios": "https://dc.lft.to/lastmile_qr_scan"}, "is_disabled": 0, "fusion_lat": 0.0, "name": "1b1bd39097f9699b16d66002cd3918da", "fusion_lon": 0.0}, {"is_reserved": 0, "type": "electric_scooter", "bike_id": "a951c631ab14f5bb2a295366d2337b67", "lat": 38.89877333333333, "lon": -76.93183616666667, "rental_uris": {"android": "https://dc.lft.to/lastmile_qr_scan", "ios": "https://dc.lft.to/lastmile_qr_scan"}, "is_disabled": 0, "fusion_lat": 0.0, "name": "a951c631ab14f5bb2a295366d2337b67", "fusion_lon": 0.0}, {"is_reserved": 0, "type": "electric_scooter", "bike_id": "1f3d9059fb66b8d11fb6ebfb107f853e", "lat": 38.92292, "lon": -77.0365985, "rental_uris": {"android": "https://dc.lft.to/lastmile_qr_scan", "ios": "https://dc.lft.to/lastmile_qr_scan"}, "is_disabled": 0, "fusion_lat": 0.0, "name": "1f3d9059fb66b8d11fb6ebfb107f853e", "fusion_lon": 0.0}, {"is_reserved": 0, "type": "electric_scooter", "bike_id": "e03ffdab652b67659ae6a45b233e2072", "lat": 38.90617366666667, "lon": -77.00903033333333, "rental_uris": {"android": "https://dc.lft.to/lastmile_qr_scan", "ios": "https://dc.lft.to/lastmile_qr_scan"}, "is_disabled": 0, "fusion_lat": 0.0, "name": "e03ffdab652b67659ae6a45b233e2072", "fusion_lon": 0.0}, {"is_reserved": 0, "type": "electric_scooter", "bike_id": "e2741cc839c83e0ad8b860efebbe5439", "lat": 38.88742, "lon": -77.01353333333333, "rental_uris": {"android": "https://dc.lft.to/lastmile_qr_scan", "ios": "https://dc.lft.to/lastmile_qr_scan"}, "is_disabled": 0, "fusion_lat": 0.0, "name": "e2741cc839c83e0ad8b860efebbe5439", "fusion_lon": 0.0}, {"is_reserved": 0, "type": "electric_bike", "bike_id": "e87312e917882f5e71b25978a3f8f2dc", "lat": 38.961356333333335, "lon": -77.029825, "rental_uris": {"android": "https://dc.lft.to/lastmile_qr_scan", "ios": "https://dc.lft.to/lastmile_qr_scan"}, "is_disabled": 0, "fusion_lat": 0.0, "name": "e87312e917882f5e71b25978a3f8f2dc", "fusion_lon": 0.0}, {"is_reserved": 0, "type": "electric_scooter", "bike_id": "11b174ed05900f30f2b1867b79725f86", "lat": 38.91690033333333, "lon": -77.02600233333334, "rental_uris": {"android": "https://dc.lft.to/lastmile_qr_scan", "ios": "https://dc.lft.to/lastmile_qr_scan"}, "is_disabled": 0, "fusion_lat": 0.0, "name": "11b174ed05900f30f2b1867b79725f86", "fusion_lon": 0.0}, {"is_reserved": 0, "type": "electric_scooter", "bike_id": "e9a68e579ac71fb64671c837b4050554", "lat": 38.89611166666667, "lon": -77.03216516666667, "rental_uris": {"android": "https://dc.lft.to/lastmile_qr_scan", "ios": "https://dc.lft.to/lastmile_qr_scan"}, "is_disabled": 0, "fusion_lat": 0.0, "name": "e9a68e579ac71fb64671c837b4050554", "fusion_lon": 0.0}, {"is_reserved": 0, "type": "electric_scooter", "bike_id": "3cd7fd2a6b4742e11a8518d41eda0ab9", "lat": 38.884327166666665, "lon": -77.02504183333333, "rental_uris": {"android": "https://dc.lft.to/lastmile_qr_scan", "ios": "https://dc.lft.to/lastmile_qr_scan"}, "is_disabled": 0, "fusion_lat": 0.0, "name": "3cd7fd2a6b4742e11a8518d41eda0ab9", "fusion_lon": 0.0}, {"is_reserved": 0, "type": "electric_scooter", "bike_id": "db6769588b0fb42999ea7b129e64ef2a", "lat": 38.917475833333334, "lon": -77.0170955, "rental_uris": {"android": "https://dc.lft.to/lastmile_qr_scan", "ios": "https://dc.lft.to/lastmile_qr_scan"}, "is_disabled": 0, "fusion_lat": 0.0, "name": "db6769588b0fb42999ea7b129e64ef2a", "fusion_lon": 0.0}, {"is_reserved": 0, "type": "electric_scooter", "bike_id": "ea51692dae226f32cc55185b60ffa46e", "lat": 38.90293883333333, "lon": -77.0364165, "rental_uris": {"android": "https://dc.lft.to/lastmile_qr_scan", "ios": "https://dc.lft.to/lastmile_qr_scan"}, "is_disabled": 0, "fusion_lat": 0.0, "name": "ea51692dae226f32cc55185b60ffa46e", "fusion_lon": 0.0}, {"is_reserved": 0, "type": "electric_scooter", "bike_id": "dc05c5b6387164bf4769aab630cfd643", "lat": 38.92741566666667, "lon": -77.05364816666666, "rental_uris": {"android": "https://dc.lft.to/lastmile_qr_scan", "ios": "https://dc.lft.to/lastmile_qr_scan"}, "is_disabled": 0, "fusion_lat": 0.0, "name": "dc05c5b6387164bf4769aab630cfd643", "fusion_lon": 0.0}, {"is_reserved": 0, "type": "electric_scooter", "bike_id": "400151d82175bc8a90c2248f4fc25e0d", "lat": 38.91815366666667, "lon": -77.031214, "rental_uris": {"android": "https://dc.lft.to/lastmile_qr_scan", "ios": "https://dc.lft.to/lastmile_qr_scan"}, "is_disabled": 0, "fusion_lat": 0.0, "name": "400151d82175bc8a90c2248f4fc25e0d", "fusion_lon": 0.0}, {"is_reserved": 0, "type": "electric_scooter", "bike_id": "1ce8eae89588eb4c4e0c5bd2704ebd58", "lat": 38.87504033333333, "lon": -77.003293, "rental_uris": {"android": "https://dc.lft.to/lastmile_qr_scan", "ios": "https://dc.lft.to/lastmile_qr_scan"}, "is_disabled": 0, "fusion_lat": 0.0, "name": "1ce8eae89588eb4c4e0c5bd2704ebd58", "fusion_lon": 0.0}, {"is_reserved": 0, "type": "electric_scooter", "bike_id": "03c6bc1b3c6733dc684fa22807112ef8", "lat": 38.900460333333335, "lon": -77.01761883333333, "rental_uris": {"android": "https://dc.lft.to/lastmile_qr_scan", "ios": "https://dc.lft.to/lastmile_qr_scan"}, "is_disabled": 0, "fusion_lat": 0.0, "name": "03c6bc1b3c6733dc684fa22807112ef8", "fusion_lon": 0.0}, {"is_reserved": 0, "type": "electric_scooter", "bike_id": "4307e73fc817af12531f4622889c67b6", "lat": 38.91696816666666, "lon": -77.05304183333334, "rental_uris": {"android": "https://dc.lft.to/lastmile_qr_scan", "ios": "https://dc.lft.to/lastmile_qr_scan"}, "is_disabled": 0, "fusion_lat": 0.0, "name": "4307e73fc817af12531f4622889c67b6", "fusion_lon": 0.0}, {"is_reserved": 0, "type": "electric_scooter", "bike_id": "43a5e8da24149f4e6cbb2bace3a23b70", "lat": 38.95155483333333, "lon": -77.01864183333333, "rental_uris": {"android": "https://dc.lft.to/lastmile_qr_scan", "ios": "https://dc.lft.to/lastmile_qr_scan"}, "is_disabled": 0, "fusion_lat": 0.0, "name": "43a5e8da24149f4e6cbb2bace3a23b70", "fusion_lon": 0.0}, {"is_reserved": 0, "type": "electric_scooter", "bike_id": "e42f4c76427b93fa4b39fa573496de7f", "lat": 38.911202333333335, "lon": -77.04458683333333, "rental_uris": {"android": "https://dc.lft.to/lastmile_qr_scan", "ios": "https://dc.lft.to/lastmile_qr_scan"}, "is_disabled": 0, "fusion_lat": 0.0, "name": "e42f4c76427b93fa4b39fa573496de7f", "fusion_lon": 0.0}, {"is_reserved": 0, "type": "electric_scooter", "bike_id": "cd648f4b6f947196430bbed8dc4df78a", "lat": 38.943201, "lon": -77.07583066666666, "rental_uris": {"android": "https://dc.lft.to/lastmile_qr_scan", "ios": "https://dc.lft.to/lastmile_qr_scan"}, "is_disabled": 0, "fusion_lat": 0.0, "name": "cd648f4b6f947196430bbed8dc4df78a", "fusion_lon": 0.0}, {"is_reserved": 0, "type": "electric_scooter", "bike_id": "0e0cfc0cf570fd0e81f1b43c6d8857af", "lat": 38.894782, "lon": -77.05006866666666, "rental_uris": {"android": "https://dc.lft.to/lastmile_qr_scan", "ios": "https://dc.lft.to/lastmile_qr_scan"}, "is_disabled": 0, "fusion_lat": 0.0, "name": "0e0cfc0cf570fd0e81f1b43c6d8857af", "fusion_lon": 0.0}, {"is_reserved": 0, "type": "electric_scooter", "bike_id": "6fecca67a8f1be0d11ec6cbae0e960eb", "lat": 38.90399333333333, "lon": -77.02736233333333, "rental_uris": {"android": "https://dc.lft.to/lastmile_qr_scan", "ios": "https://dc.lft.to/lastmile_qr_scan"}, "is_disabled": 0, "fusion_lat": 0.0, "name": "6fecca67a8f1be0d11ec6cbae0e960eb", "fusion_lon": 0.0}, {"is_reserved": 0, "type": "electric_scooter", "bike_id": "f36c2019664ca8910a5e58cac5439275", "lat": 38.901738333333334, "lon": -77.018661, "rental_uris": {"android": "https://dc.lft.to/lastmile_qr_scan", "ios": "https://dc.lft.to/lastmile_qr_scan"}, "is_disabled": 0, "fusion_lat": 0.0, "name": "f36c2019664ca8910a5e58cac5439275", "fusion_lon": 0.0}, {"is_reserved": 0, "type": "electric_scooter", "bike_id": "05b0047108b84b12172da1730cfae998", "lat": 38.907901333333335, "lon": -77.00943016666666, "rental_uris": {"android": "https://dc.lft.to/lastmile_qr_scan", "ios": "https://dc.lft.to/lastmile_qr_scan"}, "is_disabled": 0, "fusion_lat": 0.0, "name": "05b0047108b84b12172da1730cfae998", "fusion_lon": 0.0}, {"is_reserved": 0, "type": "electric_scooter", "bike_id": "182be257e87e2e72b39e1c494b191ed6", "lat": 38.933720666666666, "lon": -77.02026433333333, "rental_uris": {"android": "https://dc.lft.to/lastmile_qr_scan", "ios": "https://dc.lft.to/lastmile_qr_scan"}, "is_disabled": 0, "fusion_lat": 0.0, "name": "182be257e87e2e72b39e1c494b191ed6", "fusion_lon": 0.0}, {"is_reserved": 0, "type": "electric_scooter", "bike_id": "87c076600ef6f6cb7f5a63986fde7581", "lat": 38.92664666666667, "lon": -77.03618783333333, "rental_uris": {"android": "https://dc.lft.to/lastmile_qr_scan", "ios": "https://dc.lft.to/lastmile_qr_scan"}, "is_disabled": 0, "fusion_lat": 0.0, "name": "87c076600ef6f6cb7f5a63986fde7581", "fusion_lon": 0.0}, {"is_reserved": 0, "type": "electric_scooter", "bike_id": "434d0376497cd0f8650d02fbd6fb0ecd", "lat": 38.911184666666664, "lon": -77.04360983333333, "rental_uris": {"android": "https://dc.lft.to/lastmile_qr_scan", "ios": "https://dc.lft.to/lastmile_qr_scan"}, "is_disabled": 0, "fusion_lat": 0.0, "name": "434d0376497cd0f8650d02fbd6fb0ecd", "fusion_lon": 0.0}, {"is_reserved": 0, "type": "electric_scooter", "bike_id": "e278df0bb92de8100867f1d6c410726b", "lat": 38.8727105, "lon": -77.0171255, "rental_uris": {"android": "https://dc.lft.to/lastmile_qr_scan", "ios": "https://dc.lft.to/lastmile_qr_scan"}, "is_disabled": 0, "fusion_lat": 0.0, "name": "e278df0bb92de8100867f1d6c410726b", "fusion_lon": 0.0}, {"is_reserved": 0, "type": "electric_scooter", "bike_id": "106f57aa9f4f81963ee1b19e181b8f68", "lat": 38.8715925, "lon": -77.0131445, "rental_uris": {"android": "https://dc.lft.to/lastmile_qr_scan", "ios": "https://dc.lft.to/lastmile_qr_scan"}, "is_disabled": 0, "fusion_lat": 0.0, "name": "106f57aa9f4f81963ee1b19e181b8f68", "fusion_lon": 0.0}, {"is_reserved": 0, "type": "electric_bike", "bike_id": "4a742101636251179bcb6ef29d11d66d", "lat": 38.900537166666666, "lon": -76.977931, "rental_uris": {"android": "https://dc.lft.to/lastmile_qr_scan", "ios": "https://dc.lft.to/lastmile_qr_scan"}, "is_disabled": 0, "fusion_lat": 0.0, "name": "4a742101636251179bcb6ef29d11d66d", "fusion_lon": 0.0}, {"is_reserved": 0, "type": "electric_scooter", "bike_id": "9e0286420327d132bec5308ed0d20ccb", "lat": 38.90683583333333, "lon": -77.05623366666667, "rental_uris": {"android": "https://dc.lft.to/lastmile_qr_scan", "ios": "https://dc.lft.to/lastmile_qr_scan"}, "is_disabled": 0, "fusion_lat": 0.0, "name": "9e0286420327d132bec5308ed0d20ccb", "fusion_lon": 0.0}, {"is_reserved": 0, "type": "electric_scooter", "bike_id": "bbb5efae2438a292916b25d5777ce15a", "lat": 38.91718183333333, "lon": -77.0386175, "rental_uris": {"android": "https://dc.lft.to/lastmile_qr_scan", "ios": "https://dc.lft.to/lastmile_qr_scan"}, "is_disabled": 0, "fusion_lat": 0.0, "name": "bbb5efae2438a292916b25d5777ce15a", "fusion_lon": 0.0}, {"is_reserved": 0, "type": "electric_scooter", "bike_id": "f708ef0a0297cdcdb786dd6dd1d8ffff", "lat": 38.900141833333336, "lon": -76.998071, "rental_uris": {"android": "https://dc.lft.to/lastmile_qr_scan", "ios": "https://dc.lft.to/lastmile_qr_scan"}, "is_disabled": 0, "fusion_lat": 0.0, "name": "f708ef0a0297cdcdb786dd6dd1d8ffff", "fusion_lon": 0.0}, {"is_reserved": 0, "type": "electric_scooter", "bike_id": "46633423a6e06f51a125ab83e3f8e85d", "lat": 38.90686483333333, "lon": -77.06255366666667, "rental_uris": {"android": "https://dc.lft.to/lastmile_qr_scan", "ios": "https://dc.lft.to/lastmile_qr_scan"}, "is_disabled": 0, "fusion_lat": 0.0, "name": "46633423a6e06f51a125ab83e3f8e85d", "fusion_lon": 0.0}, {"is_reserved": 0, "type": "electric_bike", "bike_id": "59aa6e76903cb996c93b6239ad45803c", "lat": 38.808684666666664, "lon": -77.11257866666666, "rental_uris": {"android": "https://dc.lft.to/lastmile_qr_scan", "ios": "https://dc.lft.to/lastmile_qr_scan"}, "is_disabled": 0, "fusion_lat": 0.0, "name": "59aa6e76903cb996c93b6239ad45803c", "fusion_lon": 0.0}, {"is_reserved": 0, "type": "electric_scooter", "bike_id": "eb42425ef5ef52016c8f352ae505e73e", "lat": 38.904016, "lon": -77.01848333333334, "rental_uris": {"android": "https://dc.lft.to/lastmile_qr_scan", "ios": "https://dc.lft.to/lastmile_qr_scan"}, "is_disabled": 0, "fusion_lat": 0.0, "name": "eb42425ef5ef52016c8f352ae505e73e", "fusion_lon": 0.0}, {"is_reserved": 0, "type": "electric_bike", "bike_id": "ce73aaf90d4760d79d511365cbc93364", "lat": 38.949682, "lon": -76.9610435, "rental_uris": {"android": "https://dc.lft.to/lastmile_qr_scan", "ios": "https://dc.lft.to/lastmile_qr_scan"}, "is_disabled": 0, "fusion_lat": 0.0, "name": "ce73aaf90d4760d79d511365cbc93364", "fusion_lon": 0.0}, {"is_reserved": 0, "type": "electric_scooter", "bike_id": "d51b3d6c5e051c265f905ec4bf1eb8dc", "lat": 38.90519116666667, "lon": -77.05667533333333, "rental_uris": {"android": "https://dc.lft.to/lastmile_qr_scan", "ios": "https://dc.lft.to/lastmile_qr_scan"}, "is_disabled": 0, "fusion_lat": 0.0, "name": "d51b3d6c5e051c265f905ec4bf1eb8dc", "fusion_lon": 0.0}, {"is_reserved": 0, "type": "electric_scooter", "bike_id": "952082f3f0ae4b39e254eece24f098b7", "lat": 38.91696916666667, "lon": -77.02852566666667, "rental_uris": {"android": "https://dc.lft.to/lastmile_qr_scan", "ios": "https://dc.lft.to/lastmile_qr_scan"}, "is_disabled": 0, "fusion_lat": 0.0, "name": "952082f3f0ae4b39e254eece24f098b7", "fusion_lon": 0.0}, {"is_reserved": 0, "type": "electric_scooter", "bike_id": "19c5c6e439e7c0826bac1f75ccbe7ce7", "lat": 38.932559833333336, "lon": -77.03272383333334, "rental_uris": {"android": "https://dc.lft.to/lastmile_qr_scan", "ios": "https://dc.lft.to/lastmile_qr_scan"}, "is_disabled": 0, "fusion_lat": 0.0, "name": "19c5c6e439e7c0826bac1f75ccbe7ce7", "fusion_lon": 0.0}, {"is_reserved": 0, "type": "electric_scooter", "bike_id": "7a3935507be867fbf2e1a7515095fa35", "lat": 38.900904, "lon": -77.05737166666667, "rental_uris": {"android": "https://dc.lft.to/lastmile_qr_scan", "ios": "https://dc.lft.to/lastmile_qr_scan"}, "is_disabled": 0, "fusion_lat": 0.0, "name": "7a3935507be867fbf2e1a7515095fa35", "fusion_lon": 0.0}, {"is_reserved": 0, "type": "electric_scooter", "bike_id": "6f5748780493000f7e9600db40196e29", "lat": 38.8936025, "lon": -77.028051, "rental_uris": {"android": "https://dc.lft.to/lastmile_qr_scan", "ios": "https://dc.lft.to/lastmile_qr_scan"}, "is_disabled": 0, "fusion_lat": 0.0, "name": "6f5748780493000f7e9600db40196e29", "fusion_lon": 0.0}, {"is_reserved": 0, "type": "electric_bike", "bike_id": "4f95556d66995a540e50c798a6caf726", "lat": 38.9122735, "lon": -77.06597666666667, "rental_uris": {"android": "https://dc.lft.to/lastmile_qr_scan", "ios": "https://dc.lft.to/lastmile_qr_scan"}, "is_disabled": 0, "fusion_lat": 0.0, "name": "4f95556d66995a540e50c798a6caf726", "fusion_lon": 0.0}, {"is_reserved": 0, "type": "electric_scooter", "bike_id": "2774950f96354f26fdb3330e67642bfd", "lat": 38.95622783333334, "lon": -77.02782166666667, "rental_uris": {"android": "https://dc.lft.to/lastmile_qr_scan", "ios": "https://dc.lft.to/lastmile_qr_scan"}, "is_disabled": 0, "fusion_lat": 0.0, "name": "2774950f96354f26fdb3330e67642bfd", "fusion_lon": 0.0}, {"is_reserved": 0, "type": "electric_scooter", "bike_id": "aef2b50545bcb63c47e9c923989e46d0", "lat": 38.90748816666667, "lon": -77.04477866666667, "rental_uris": {"android": "https://dc.lft.to/lastmile_qr_scan", "ios": "https://dc.lft.to/lastmile_qr_scan"}, "is_disabled": 0, "fusion_lat": 0.0, "name": "aef2b50545bcb63c47e9c923989e46d0", "fusion_lon": 0.0}, {"is_reserved": 0, "type": "electric_scooter", "bike_id": "e27ce5488957a59e8b433487f3665663", "lat": 38.8987015, "lon": -77.0197225, "rental_uris": {"android": "https://dc.lft.to/lastmile_qr_scan", "ios": "https://dc.lft.to/lastmile_qr_scan"}, "is_disabled": 0, "fusion_lat": 0.0, "name": "e27ce5488957a59e8b433487f3665663", "fusion_lon": 0.0}, {"is_reserved": 0, "type": "electric_scooter", "bike_id": "e8b16d05712eff5b2527b5a8192eec71", "lat": 38.91466483333333, "lon": -77.00207783333333, "rental_uris": {"android": "https://dc.lft.to/lastmile_qr_scan", "ios": "https://dc.lft.to/lastmile_qr_scan"}, "is_disabled": 0, "fusion_lat": 0.0, "name": "e8b16d05712eff5b2527b5a8192eec71", "fusion_lon": 0.0}, {"is_reserved": 0, "type": "electric_scooter", "bike_id": "94aae3fcd92c5b8748a05e4e96c73e86", "lat": 38.907276333333336, "lon": -77.0476, "rental_uris": {"android": "https://dc.lft.to/lastmile_qr_scan", "ios": "https://dc.lft.to/lastmile_qr_scan"}, "is_disabled": 0, "fusion_lat": 0.0, "name": "94aae3fcd92c5b8748a05e4e96c73e86", "fusion_lon": 0.0}, {"is_reserved": 0, "type": "electric_scooter", "bike_id": "09b5200e25ea576b5ca0f2124bd5a7c3", "lat": 38.919169833333335, "lon": -77.03580916666667, "rental_uris": {"android": "https://dc.lft.to/lastmile_qr_scan", "ios": "https://dc.lft.to/lastmile_qr_scan"}, "is_disabled": 0, "fusion_lat": 0.0, "name": "09b5200e25ea576b5ca0f2124bd5a7c3", "fusion_lon": 0.0}, {"is_reserved": 0, "type": "electric_scooter", "bike_id": "84010253ca3cde0317f562dd645c2334", "lat": 38.89892866666667, "lon": -77.03326116666666, "rental_uris": {"android": "https://dc.lft.to/lastmile_qr_scan", "ios": "https://dc.lft.to/lastmile_qr_scan"}, "is_disabled": 0, "fusion_lat": 0.0, "name": "84010253ca3cde0317f562dd645c2334", "fusion_lon": 0.0}, {"is_reserved": 0, "type": "electric_scooter", "bike_id": "ec8c6c0969690ffdaa96bda70afcba5a", "lat": 38.88989333333333, "lon": -77.00151183333334, "rental_uris": {"android": "https://dc.lft.to/lastmile_qr_scan", "ios": "https://dc.lft.to/lastmile_qr_scan"}, "is_disabled": 0, "fusion_lat": 0.0, "name": "ec8c6c0969690ffdaa96bda70afcba5a", "fusion_lon": 0.0}, {"is_reserved": 0, "type": "electric_scooter", "bike_id": "3a07245c1eae50c5a65f34ca29eded9d", "lat": 38.893833, "lon": -76.97815866666667, "rental_uris": {"android": "https://dc.lft.to/lastmile_qr_scan", "ios": "https://dc.lft.to/lastmile_qr_scan"}, "is_disabled": 0, "fusion_lat": 0.0, "name": "3a07245c1eae50c5a65f34ca29eded9d", "fusion_lon": 0.0}, {"is_reserved": 0, "type": "electric_scooter", "bike_id": "4c8f9ea4945e5cfcd2c7a55f253dc9f9", "lat": 38.897361333333336, "lon": -77.02374066666667, "rental_uris": {"android": "https://dc.lft.to/lastmile_qr_scan", "ios": "https://dc.lft.to/lastmile_qr_scan"}, "is_disabled": 0, "fusion_lat": 0.0, "name": "4c8f9ea4945e5cfcd2c7a55f253dc9f9", "fusion_lon": 0.0}, {"is_reserved": 0, "type": "electric_scooter", "bike_id": "b34c4fbf2806b529ddb9c372fb41a70a", "lat": 38.9199485, "lon": -77.031842, "rental_uris": {"android": "https://dc.lft.to/lastmile_qr_scan", "ios": "https://dc.lft.to/lastmile_qr_scan"}, "is_disabled": 0, "fusion_lat": 0.0, "name": "b34c4fbf2806b529ddb9c372fb41a70a", "fusion_lon": 0.0}, {"is_reserved": 0, "type": "electric_scooter", "bike_id": "87236539b6b4dd38133c102cdfa67f4a", "lat": 38.92084066666666, "lon": -77.076998, "rental_uris": {"android": "https://dc.lft.to/lastmile_qr_scan", "ios": "https://dc.lft.to/lastmile_qr_scan"}, "is_disabled": 0, "fusion_lat": 0.0, "name": "87236539b6b4dd38133c102cdfa67f4a", "fusion_lon": 0.0}, {"is_reserved": 0, "type": "electric_scooter", "bike_id": "6bf100ad672599626c228dff1afed3aa", "lat": 38.926511, "lon": -77.04059516666666, "rental_uris": {"android": "https://dc.lft.to/lastmile_qr_scan", "ios": "https://dc.lft.to/lastmile_qr_scan"}, "is_disabled": 0, "fusion_lat": 0.0, "name": "6bf100ad672599626c228dff1afed3aa", "fusion_lon": 0.0}, {"is_reserved": 0, "type": "electric_scooter", "bike_id": "da019a72e92de15878ed448b552ed894", "lat": 38.917121, "lon": -77.03895, "rental_uris": {"android": "https://dc.lft.to/lastmile_qr_scan", "ios": "https://dc.lft.to/lastmile_qr_scan"}, "is_disabled": 0, "fusion_lat": 0.0, "name": "da019a72e92de15878ed448b552ed894", "fusion_lon": 0.0}, {"is_reserved": 0, "type": "electric_scooter", "bike_id": "747c2bf571cb0be2f2a2b27dc9f33972", "lat": 38.876031833333336, "lon": -77.00056466666666, "rental_uris": {"android": "https://dc.lft.to/lastmile_qr_scan", "ios": "https://dc.lft.to/lastmile_qr_scan"}, "is_disabled": 0, "fusion_lat": 0.0, "name": "747c2bf571cb0be2f2a2b27dc9f33972", "fusion_lon": 0.0}, {"is_reserved": 0, "type": "electric_scooter", "bike_id": "8b0a06965a79816dd9fbd5574f17b541", "lat": 38.94080533333333, "lon": -77.029118, "rental_uris": {"android": "https://dc.lft.to/lastmile_qr_scan", "ios": "https://dc.lft.to/lastmile_qr_scan"}, "is_disabled": 0, "fusion_lat": 0.0, "name": "8b0a06965a79816dd9fbd5574f17b541", "fusion_lon": 0.0}, {"is_reserved": 0, "type": "electric_scooter", "bike_id": "8bede045c2af0bfc2a58f9a87adfb195", "lat": 38.87625383333334, "lon": -77.01247183333334, "rental_uris": {"android": "https://dc.lft.to/lastmile_qr_scan", "ios": "https://dc.lft.to/lastmile_qr_scan"}, "is_disabled": 0, "fusion_lat": 0.0, "name": "8bede045c2af0bfc2a58f9a87adfb195", "fusion_lon": 0.0}, {"is_reserved": 0, "type": "electric_bike", "bike_id": "3c3d7523699ef79adc5a8fd26140457b", "lat": 38.8456465, "lon": -76.9705905, "rental_uris": {"android": "https://dc.lft.to/lastmile_qr_scan", "ios": "https://dc.lft.to/lastmile_qr_scan"}, "is_disabled": 0, "fusion_lat": 0.0, "name": "3c3d7523699ef79adc5a8fd26140457b", "fusion_lon": 0.0}, {"is_reserved": 0, "type": "electric_scooter", "bike_id": "dffacaeffc5d5f6ca5feeafad3d2a962", "lat": 38.9350675, "lon": -77.02008166666667, "rental_uris": {"android": "https://dc.lft.to/lastmile_qr_scan", "ios": "https://dc.lft.to/lastmile_qr_scan"}, "is_disabled": 0, "fusion_lat": 0.0, "name": "dffacaeffc5d5f6ca5feeafad3d2a962", "fusion_lon": 0.0}, {"is_reserved": 0, "type": "electric_scooter", "bike_id": "d7dbce1d52785189c7fcb3f60d82f348", "lat": 38.91589616666667, "lon": -77.0208745, "rental_uris": {"android": "https://dc.lft.to/lastmile_qr_scan", "ios": "https://dc.lft.to/lastmile_qr_scan"}, "is_disabled": 0, "fusion_lat": 0.0, "name": "d7dbce1d52785189c7fcb3f60d82f348", "fusion_lon": 0.0}, {"is_reserved": 0, "type": "electric_bike", "bike_id": "d030bf9dc4ad5777e2537b75300995da", "lat": 38.83810616666667, "lon": -77.09525866666667, "rental_uris": {"android": "https://dc.lft.to/lastmile_qr_scan", "ios": "https://dc.lft.to/lastmile_qr_scan"}, "is_disabled": 0, "fusion_lat": 0.0, "name": "d030bf9dc4ad5777e2537b75300995da", "fusion_lon": 0.0}, {"is_reserved": 0, "type": "electric_scooter", "bike_id": "16e15b2c14971f5ce940cc7b0a13aa83", "lat": 38.9013595, "lon": -77.0320045, "rental_uris": {"android": "https://dc.lft.to/lastmile_qr_scan", "ios": "https://dc.lft.to/lastmile_qr_scan"}, "is_disabled": 0, "fusion_lat": 0.0, "name": "16e15b2c14971f5ce940cc7b0a13aa83", "fusion_lon": 0.0}, {"is_reserved": 0, "type": "electric_scooter", "bike_id": "826902b0ab5c14f12bf4368830e2269c", "lat": 38.92665983333333, "lon": -77.00845133333333, "rental_uris": {"android": "https://dc.lft.to/lastmile_qr_scan", "ios": "https://dc.lft.to/lastmile_qr_scan"}, "is_disabled": 0, "fusion_lat": 0.0, "name": "826902b0ab5c14f12bf4368830e2269c", "fusion_lon": 0.0}, {"is_reserved": 0, "type": "electric_scooter", "bike_id": "c58eb64d3b9e2ff8afde8b29800c6ac4", "lat": 38.899021, "lon": -77.0160715, "rental_uris": {"android": "https://dc.lft.to/lastmile_qr_scan", "ios": "https://dc.lft.to/lastmile_qr_scan"}, "is_disabled": 0, "fusion_lat": 0.0, "name": "c58eb64d3b9e2ff8afde8b29800c6ac4", "fusion_lon": 0.0}, {"is_reserved": 0, "type": "electric_scooter", "bike_id": "7ef882d4eaff800857f9ef7687ab61cd", "lat": 38.91585366666666, "lon": -77.04632633333334, "rental_uris": {"android": "https://dc.lft.to/lastmile_qr_scan", "ios": "https://dc.lft.to/lastmile_qr_scan"}, "is_disabled": 0, "fusion_lat": 0.0, "name": "7ef882d4eaff800857f9ef7687ab61cd", "fusion_lon": 0.0}, {"is_reserved": 0, "type": "electric_scooter", "bike_id": "c207157e4efef5734aa71b77e2730a18", "lat": 38.93482916666667, "lon": -77.05645183333333, "rental_uris": {"android": "https://dc.lft.to/lastmile_qr_scan", "ios": "https://dc.lft.to/lastmile_qr_scan"}, "is_disabled": 0, "fusion_lat": 0.0, "name": "c207157e4efef5734aa71b77e2730a18", "fusion_lon": 0.0}, {"is_reserved": 0, "type": "electric_scooter", "bike_id": "1fd010e56c8c7e3999f878e90f96ba62", "lat": 38.925906166666664, "lon": -77.04103116666667, "rental_uris": {"android": "https://dc.lft.to/lastmile_qr_scan", "ios": "https://dc.lft.to/lastmile_qr_scan"}, "is_disabled": 0, "fusion_lat": 0.0, "name": "1fd010e56c8c7e3999f878e90f96ba62", "fusion_lon": 0.0}, {"is_reserved": 0, "type": "electric_scooter", "bike_id": "0b48214b7f177f37ad701e466993cddf", "lat": 38.91601216666667, "lon": -77.02137116666667, "rental_uris": {"android": "https://dc.lft.to/lastmile_qr_scan", "ios": "https://dc.lft.to/lastmile_qr_scan"}, "is_disabled": 0, "fusion_lat": 0.0, "name": "0b48214b7f177f37ad701e466993cddf", "fusion_lon": 0.0}, {"is_reserved": 0, "type": "electric_scooter", "bike_id": "eee3e35c641419e9f03a2c942e04e5ac", "lat": 38.900256166666665, "lon": -76.9740145, "rental_uris": {"android": "https://dc.lft.to/lastmile_qr_scan", "ios": "https://dc.lft.to/lastmile_qr_scan"}, "is_disabled": 0, "fusion_lat": 0.0, "name": "eee3e35c641419e9f03a2c942e04e5ac", "fusion_lon": 0.0}, {"is_reserved": 0, "type": "electric_scooter", "bike_id": "9a80e83e680a221c5ba6260439d96e20", "lat": 38.9264315, "lon": -77.0532295, "rental_uris": {"android": "https://dc.lft.to/lastmile_qr_scan", "ios": "https://dc.lft.to/lastmile_qr_scan"}, "is_disabled": 0, "fusion_lat": 0.0, "name": "9a80e83e680a221c5ba6260439d96e20", "fusion_lon": 0.0}, {"is_reserved": 0, "type": "electric_scooter", "bike_id": "4353e37a1f25294dd417100baec016f5", "lat": 38.9201205, "lon": -77.0419095, "rental_uris": {"android": "https://dc.lft.to/lastmile_qr_scan", "ios": "https://dc.lft.to/lastmile_qr_scan"}, "is_disabled": 0, "fusion_lat": 0.0, "name": "4353e37a1f25294dd417100baec016f5", "fusion_lon": 0.0}, {"is_reserved": 0, "type": "electric_scooter", "bike_id": "b07d061270f036bdf625f11bde59bd71", "lat": 38.87503483333333, "lon": -77.000498, "rental_uris": {"android": "https://dc.lft.to/lastmile_qr_scan", "ios": "https://dc.lft.to/lastmile_qr_scan"}, "is_disabled": 0, "fusion_lat": 0.0, "name": "b07d061270f036bdf625f11bde59bd71", "fusion_lon": 0.0}, {"is_reserved": 0, "type": "electric_scooter", "bike_id": "b927e76c3ff7d934e3ee267264855acc", "lat": 38.91273616666667, "lon": -77.031389, "rental_uris": {"android": "https://dc.lft.to/lastmile_qr_scan", "ios": "https://dc.lft.to/lastmile_qr_scan"}, "is_disabled": 0, "fusion_lat": 0.0, "name": "b927e76c3ff7d934e3ee267264855acc", "fusion_lon": 0.0}, {"is_reserved": 0, "type": "electric_bike", "bike_id": "769a6be5cd448364a459095600850b50", "lat": 38.906967333333334, "lon": -76.95250733333333, "rental_uris": {"android": "https://dc.lft.to/lastmile_qr_scan", "ios": "https://dc.lft.to/lastmile_qr_scan"}, "is_disabled": 0, "fusion_lat": 0.0, "name": "769a6be5cd448364a459095600850b50", "fusion_lon": 0.0}, {"is_reserved": 0, "type": "electric_scooter", "bike_id": "dc417e01940660f64184704d0c3ee8ca", "lat": 38.89545283333333, "lon": -76.98336833333333, "rental_uris": {"android": "https://dc.lft.to/lastmile_qr_scan", "ios": "https://dc.lft.to/lastmile_qr_scan"}, "is_disabled": 0, "fusion_lat": 0.0, "name": "dc417e01940660f64184704d0c3ee8ca", "fusion_lon": 0.0}, {"is_reserved": 0, "type": "electric_scooter", "bike_id": "5555951a0e926395104a68d36e8ff470", "lat": 38.940357666666664, "lon": -77.02512983333334, "rental_uris": {"android": "https://dc.lft.to/lastmile_qr_scan", "ios": "https://dc.lft.to/lastmile_qr_scan"}, "is_disabled": 0, "fusion_lat": 0.0, "name": "5555951a0e926395104a68d36e8ff470", "fusion_lon": 0.0}, {"is_reserved": 0, "type": "electric_scooter", "bike_id": "2b4b7934d4de99f248ad6b20cc78c552", "lat": 38.92129766666667, "lon": -77.03198066666667, "rental_uris": {"android": "https://dc.lft.to/lastmile_qr_scan", "ios": "https://dc.lft.to/lastmile_qr_scan"}, "is_disabled": 0, "fusion_lat": 0.0, "name": "2b4b7934d4de99f248ad6b20cc78c552", "fusion_lon": 0.0}, {"is_reserved": 0, "type": "electric_scooter", "bike_id": "4509bd1a0ac5fb93c146ad6e27894d75", "lat": 38.93980966666667, "lon": -77.05474, "rental_uris": {"android": "https://dc.lft.to/lastmile_qr_scan", "ios": "https://dc.lft.to/lastmile_qr_scan"}, "is_disabled": 0, "fusion_lat": 0.0, "name": "4509bd1a0ac5fb93c146ad6e27894d75", "fusion_lon": 0.0}, {"is_reserved": 0, "type": "electric_scooter", "bike_id": "a6ec016acdbd285f6092c9edba7d62ca", "lat": 38.926471, "lon": -77.02720483333333, "rental_uris": {"android": "https://dc.lft.to/lastmile_qr_scan", "ios": "https://dc.lft.to/lastmile_qr_scan"}, "is_disabled": 0, "fusion_lat": 0.0, "name": "a6ec016acdbd285f6092c9edba7d62ca", "fusion_lon": 0.0}, {"is_reserved": 0, "type": "electric_scooter", "bike_id": "831332795f7a74fc4de5659fc953288c", "lat": 38.920766666666665, "lon": -77.02389016666666, "rental_uris": {"android": "https://dc.lft.to/lastmile_qr_scan", "ios": "https://dc.lft.to/lastmile_qr_scan"}, "is_disabled": 0, "fusion_lat": 0.0, "name": "831332795f7a74fc4de5659fc953288c", "fusion_lon": 0.0}, {"is_reserved": 0, "type": "electric_scooter", "bike_id": "f83770940d94aebc2f986da2d0507ac6", "lat": 38.92123516666667, "lon": -77.0208285, "rental_uris": {"android": "https://dc.lft.to/lastmile_qr_scan", "ios": "https://dc.lft.to/lastmile_qr_scan"}, "is_disabled": 0, "fusion_lat": 0.0, "name": "f83770940d94aebc2f986da2d0507ac6", "fusion_lon": 0.0}, {"is_reserved": 0, "type": "electric_scooter", "bike_id": "2f7e02d79b14fdca5b16feb7f289c240", "lat": 38.9104065, "lon": -77.04281416666667, "rental_uris": {"android": "https://dc.lft.to/lastmile_qr_scan", "ios": "https://dc.lft.to/lastmile_qr_scan"}, "is_disabled": 0, "fusion_lat": 0.0, "name": "2f7e02d79b14fdca5b16feb7f289c240", "fusion_lon": 0.0}, {"is_reserved": 0, "type": "electric_scooter", "bike_id": "14e292891b366087bc81f99be1cb8177", "lat": 38.915977166666664, "lon": -77.021359, "rental_uris": {"android": "https://dc.lft.to/lastmile_qr_scan", "ios": "https://dc.lft.to/lastmile_qr_scan"}, "is_disabled": 0, "fusion_lat": 0.0, "name": "14e292891b366087bc81f99be1cb8177", "fusion_lon": 0.0}, {"is_reserved": 0, "type": "electric_bike", "bike_id": "588ca7a43b319f1098f32c63c1689dc2", "lat": 38.9204075, "lon": -76.97960716666667, "rental_uris": {"android": "https://dc.lft.to/lastmile_qr_scan", "ios": "https://dc.lft.to/lastmile_qr_scan"}, "is_disabled": 0, "fusion_lat": 0.0, "name": "588ca7a43b319f1098f32c63c1689dc2", "fusion_lon": 0.0}, {"is_reserved": 0, "type": "electric_scooter", "bike_id": "122318477e7acf32ff2b32dcf6589292", "lat": 38.91713766666667, "lon": -77.03088533333333, "rental_uris": {"android": "https://dc.lft.to/lastmile_qr_scan", "ios": "https://dc.lft.to/lastmile_qr_scan"}, "is_disabled": 0, "fusion_lat": 0.0, "name": "122318477e7acf32ff2b32dcf6589292", "fusion_lon": 0.0}, {"is_reserved": 0, "type": "electric_scooter", "bike_id": "ef5d55524f0c836d5afd863b38a7e76f", "lat": 38.874733666666664, "lon": -77.005581, "rental_uris": {"android": "https://dc.lft.to/lastmile_qr_scan", "ios": "https://dc.lft.to/lastmile_qr_scan"}, "is_disabled": 0, "fusion_lat": 0.0, "name": "ef5d55524f0c836d5afd863b38a7e76f", "fusion_lon": 0.0}, {"is_reserved": 0, "type": "electric_bike", "bike_id": "c0fa5acb36283050f8ebef41fe6d785d", "lat": 38.9170545, "lon": -77.057199, "rental_uris": {"android": "https://dc.lft.to/lastmile_qr_scan", "ios": "https://dc.lft.to/lastmile_qr_scan"}, "is_disabled": 0, "fusion_lat": 0.0, "name": "c0fa5acb36283050f8ebef41fe6d785d", "fusion_lon": 0.0}, {"is_reserved": 0, "type": "electric_bike", "bike_id": "d569d6f2a33c936ef8a6975b827fc1c3", "lat": 38.920743333333334, "lon": -76.99582883333333, "rental_uris": {"android": "https://dc.lft.to/lastmile_qr_scan", "ios": "https://dc.lft.to/lastmile_qr_scan"}, "is_disabled": 0, "fusion_lat": 0.0, "name": "d569d6f2a33c936ef8a6975b827fc1c3", "fusion_lon": 0.0}, {"is_reserved": 0, "type": "electric_scooter", "bike_id": "efc0508a4b4dbef9ba6d488ff08de3d5", "lat": 38.91763066666667, "lon": -77.00457, "rental_uris": {"android": "https://dc.lft.to/lastmile_qr_scan", "ios": "https://dc.lft.to/lastmile_qr_scan"}, "is_disabled": 0, "fusion_lat": 0.0, "name": "efc0508a4b4dbef9ba6d488ff08de3d5", "fusion_lon": 0.0}, {"is_reserved": 0, "type": "electric_scooter", "bike_id": "8b7734a59f6e7f8ac63568248df5f00a", "lat": 38.926913166666665, "lon": -77.0323605, "rental_uris": {"android": "https://dc.lft.to/lastmile_qr_scan", "ios": "https://dc.lft.to/lastmile_qr_scan"}, "is_disabled": 0, "fusion_lat": 0.0, "name": "8b7734a59f6e7f8ac63568248df5f00a", "fusion_lon": 0.0}, {"is_reserved": 0, "type": "electric_scooter", "bike_id": "75f3aa4e47a713c4ea051b55aa6241b0", "lat": 38.88313133333333, "lon": -77.02384633333334, "rental_uris": {"android": "https://dc.lft.to/lastmile_qr_scan", "ios": "https://dc.lft.to/lastmile_qr_scan"}, "is_disabled": 0, "fusion_lat": 0.0, "name": "75f3aa4e47a713c4ea051b55aa6241b0", "fusion_lon": 0.0}, {"is_reserved": 0, "type": "electric_scooter", "bike_id": "f2028a9ca12e9e6716fe6bd8a061458c", "lat": 38.90735766666667, "lon": -77.010892, "rental_uris": {"android": "https://dc.lft.to/lastmile_qr_scan", "ios": "https://dc.lft.to/lastmile_qr_scan"}, "is_disabled": 0, "fusion_lat": 0.0, "name": "f2028a9ca12e9e6716fe6bd8a061458c", "fusion_lon": 0.0}, {"is_reserved": 0, "type": "electric_scooter", "bike_id": "a55ab39553443cfba9e6ba5f2511fa3b", "lat": 38.896391, "lon": -76.92801916666667, "rental_uris": {"android": "https://dc.lft.to/lastmile_qr_scan", "ios": "https://dc.lft.to/lastmile_qr_scan"}, "is_disabled": 0, "fusion_lat": 0.0, "name": "a55ab39553443cfba9e6ba5f2511fa3b", "fusion_lon": 0.0}, {"is_reserved": 0, "type": "electric_scooter", "bike_id": "fe6ff5ecbd72bc50ccfbb93fd07bf57d", "lat": 38.946276, "lon": -77.02675033333334, "rental_uris": {"android": "https://dc.lft.to/lastmile_qr_scan", "ios": "https://dc.lft.to/lastmile_qr_scan"}, "is_disabled": 0, "fusion_lat": 0.0, "name": "fe6ff5ecbd72bc50ccfbb93fd07bf57d", "fusion_lon": 0.0}, {"is_reserved": 0, "type": "electric_scooter", "bike_id": "f09f06f3507a954d7a77824bb0ad1344", "lat": 38.91265816666667, "lon": -77.01557633333333, "rental_uris": {"android": "https://dc.lft.to/lastmile_qr_scan", "ios": "https://dc.lft.to/lastmile_qr_scan"}, "is_disabled": 0, "fusion_lat": 0.0, "name": "f09f06f3507a954d7a77824bb0ad1344", "fusion_lon": 0.0}, {"is_reserved": 0, "type": "electric_scooter", "bike_id": "db77b68731179217c0ee789ffe6368b7", "lat": 38.91111566666667, "lon": -77.01152783333333, "rental_uris": {"android": "https://dc.lft.to/lastmile_qr_scan", "ios": "https://dc.lft.to/lastmile_qr_scan"}, "is_disabled": 0, "fusion_lat": 0.0, "name": "db77b68731179217c0ee789ffe6368b7", "fusion_lon": 0.0}, {"is_reserved": 0, "type": "electric_scooter", "bike_id": "0d4bc62f45fafcec2de135219a7fc4d8", "lat": 38.95916283333333, "lon": -77.00024316666666, "rental_uris": {"android": "https://dc.lft.to/lastmile_qr_scan", "ios": "https://dc.lft.to/lastmile_qr_scan"}, "is_disabled": 0, "fusion_lat": 0.0, "name": "0d4bc62f45fafcec2de135219a7fc4d8", "fusion_lon": 0.0}, {"is_reserved": 0, "type": "electric_scooter", "bike_id": "cd2263b0efa7689a3475e04dd5f611c5", "lat": 38.914107333333334, "lon": -77.044728, "rental_uris": {"android": "https://dc.lft.to/lastmile_qr_scan", "ios": "https://dc.lft.to/lastmile_qr_scan"}, "is_disabled": 0, "fusion_lat": 0.0, "name": "cd2263b0efa7689a3475e04dd5f611c5", "fusion_lon": 0.0}, {"is_reserved": 0, "type": "electric_bike", "bike_id": "a5bdce9b932568d5d1b52ac53b27a14a", "lat": 38.942584333333336, "lon": -76.99076216666667, "rental_uris": {"android": "https://dc.lft.to/lastmile_qr_scan", "ios": "https://dc.lft.to/lastmile_qr_scan"}, "is_disabled": 0, "fusion_lat": 0.0, "name": "a5bdce9b932568d5d1b52ac53b27a14a", "fusion_lon": 0.0}, {"is_reserved": 0, "type": "electric_bike", "bike_id": "126d813d014fed54b1e1380d94e14f8d", "lat": 38.92437316666667, "lon": -77.0576145, "rental_uris": {"android": "https://dc.lft.to/lastmile_qr_scan", "ios": "https://dc.lft.to/lastmile_qr_scan"}, "is_disabled": 0, "fusion_lat": 0.0, "name": "126d813d014fed54b1e1380d94e14f8d", "fusion_lon": 0.0}, {"is_reserved": 0, "type": "electric_scooter", "bike_id": "d77654c4d9b01fa92666d1a9a48d3591", "lat": 38.9098895, "lon": -77.031965, "rental_uris": {"android": "https://dc.lft.to/lastmile_qr_scan", "ios": "https://dc.lft.to/lastmile_qr_scan"}, "is_disabled": 0, "fusion_lat": 0.0, "name": "d77654c4d9b01fa92666d1a9a48d3591", "fusion_lon": 0.0}, {"is_reserved": 0, "type": "electric_scooter", "bike_id": "d1ef421b9f3cccd4fa9ff77e7ecf1f11", "lat": 38.90301683333333, "lon": -77.00223233333334, "rental_uris": {"android": "https://dc.lft.to/lastmile_qr_scan", "ios": "https://dc.lft.to/lastmile_qr_scan"}, "is_disabled": 0, "fusion_lat": 0.0, "name": "d1ef421b9f3cccd4fa9ff77e7ecf1f11", "fusion_lon": 0.0}, {"is_reserved": 0, "type": "electric_scooter", "bike_id": "23487e8f2e3ee74b48ac9702ab620475", "lat": 38.90607716666667, "lon": -77.00916366666667, "rental_uris": {"android": "https://dc.lft.to/lastmile_qr_scan", "ios": "https://dc.lft.to/lastmile_qr_scan"}, "is_disabled": 0, "fusion_lat": 0.0, "name": "23487e8f2e3ee74b48ac9702ab620475", "fusion_lon": 0.0}, {"is_reserved": 0, "type": "electric_scooter", "bike_id": "ade17bc3c445ccbc06efd9ccce658d87", "lat": 38.932929, "lon": -77.0361985, "rental_uris": {"android": "https://dc.lft.to/lastmile_qr_scan", "ios": "https://dc.lft.to/lastmile_qr_scan"}, "is_disabled": 0, "fusion_lat": 0.0, "name": "ade17bc3c445ccbc06efd9ccce658d87", "fusion_lon": 0.0}, {"is_reserved": 0, "type": "electric_scooter", "bike_id": "de12ef0a8766e161f49716aa16aaa49e", "lat": 38.89914533333334, "lon": -76.933632, "rental_uris": {"android": "https://dc.lft.to/lastmile_qr_scan", "ios": "https://dc.lft.to/lastmile_qr_scan"}, "is_disabled": 0, "fusion_lat": 0.0, "name": "de12ef0a8766e161f49716aa16aaa49e", "fusion_lon": 0.0}, {"is_reserved": 0, "type": "electric_scooter", "bike_id": "9b6efab2ea38f19b2ea158202f518d30", "lat": 38.912128833333334, "lon": -77.045889, "rental_uris": {"android": "https://dc.lft.to/lastmile_qr_scan", "ios": "https://dc.lft.to/lastmile_qr_scan"}, "is_disabled": 0, "fusion_lat": 0.0, "name": "9b6efab2ea38f19b2ea158202f518d30", "fusion_lon": 0.0}, {"is_reserved": 0, "type": "electric_scooter", "bike_id": "46b6d5aac3f770cd60e7b15a0f868c97", "lat": 38.908523, "lon": -77.063425, "rental_uris": {"android": "https://dc.lft.to/lastmile_qr_scan", "ios": "https://dc.lft.to/lastmile_qr_scan"}, "is_disabled": 0, "fusion_lat": 0.0, "name": "46b6d5aac3f770cd60e7b15a0f868c97", "fusion_lon": 0.0}, {"is_reserved": 0, "type": "electric_scooter", "bike_id": "4f37a06ffe2dbe2ef53c7ab759895c0b", "lat": 38.92142833333333, "lon": -77.04578783333334, "rental_uris": {"android": "https://dc.lft.to/lastmile_qr_scan", "ios": "https://dc.lft.to/lastmile_qr_scan"}, "is_disabled": 0, "fusion_lat": 0.0, "name": "4f37a06ffe2dbe2ef53c7ab759895c0b", "fusion_lon": 0.0}, {"is_reserved": 0, "type": "electric_scooter", "bike_id": "a2fecd155c2d2871430c24d019f5204a", "lat": 38.900450166666666, "lon": -76.99150733333333, "rental_uris": {"android": "https://dc.lft.to/lastmile_qr_scan", "ios": "https://dc.lft.to/lastmile_qr_scan"}, "is_disabled": 0, "fusion_lat": 0.0, "name": "a2fecd155c2d2871430c24d019f5204a", "fusion_lon": 0.0}, {"is_reserved": 0, "type": "electric_scooter", "bike_id": "0475ff4ddc16a9b135480d08656da9dc", "lat": 38.94659266666667, "lon": -77.03282666666667, "rental_uris": {"android": "https://dc.lft.to/lastmile_qr_scan", "ios": "https://dc.lft.to/lastmile_qr_scan"}, "is_disabled": 0, "fusion_lat": 0.0, "name": "0475ff4ddc16a9b135480d08656da9dc", "fusion_lon": 0.0}, {"is_reserved": 0, "type": "electric_scooter", "bike_id": "a7d0c938fb9a8b06e9dd96ccb71a8ebd", "lat": 38.917674, "lon": -77.01494466666666, "rental_uris": {"android": "https://dc.lft.to/lastmile_qr_scan", "ios": "https://dc.lft.to/lastmile_qr_scan"}, "is_disabled": 0, "fusion_lat": 0.0, "name": "a7d0c938fb9a8b06e9dd96ccb71a8ebd", "fusion_lon": 0.0}, {"is_reserved": 0, "type": "electric_scooter", "bike_id": "ff18676526b1affdc1b06720ed6fd836", "lat": 38.943075666666665, "lon": -77.02005966666667, "rental_uris": {"android": "https://dc.lft.to/lastmile_qr_scan", "ios": "https://dc.lft.to/lastmile_qr_scan"}, "is_disabled": 0, "fusion_lat": 0.0, "name": "ff18676526b1affdc1b06720ed6fd836", "fusion_lon": 0.0}, {"is_reserved": 0, "type": "electric_scooter", "bike_id": "d99edcc9e2295b0b8d438860bfd83376", "lat": 38.90429066666667, "lon": -77.025924, "rental_uris": {"android": "https://dc.lft.to/lastmile_qr_scan", "ios": "https://dc.lft.to/lastmile_qr_scan"}, "is_disabled": 0, "fusion_lat": 0.0, "name": "d99edcc9e2295b0b8d438860bfd83376", "fusion_lon": 0.0}, {"is_reserved": 0, "type": "electric_scooter", "bike_id": "166c22ab53c2b1361458db7231ec9559", "lat": 38.887746, "lon": -76.93260216666667, "rental_uris": {"android": "https://dc.lft.to/lastmile_qr_scan", "ios": "https://dc.lft.to/lastmile_qr_scan"}, "is_disabled": 0, "fusion_lat": 0.0, "name": "166c22ab53c2b1361458db7231ec9559", "fusion_lon": 0.0}, {"is_reserved": 0, "type": "electric_scooter", "bike_id": "1eb7d4e8e2e204fb9429a6fcb357fc91", "lat": 38.931872, "lon": -77.02629016666667, "rental_uris": {"android": "https://dc.lft.to/lastmile_qr_scan", "ios": "https://dc.lft.to/lastmile_qr_scan"}, "is_disabled": 0, "fusion_lat": 0.0, "name": "1eb7d4e8e2e204fb9429a6fcb357fc91", "fusion_lon": 0.0}, {"is_reserved": 0, "type": "electric_scooter", "bike_id": "d03d97c14767b7dd0b29d739703eac11", "lat": 38.905185333333336, "lon": -76.99562166666666, "rental_uris": {"android": "https://dc.lft.to/lastmile_qr_scan", "ios": "https://dc.lft.to/lastmile_qr_scan"}, "is_disabled": 0, "fusion_lat": 0.0, "name": "d03d97c14767b7dd0b29d739703eac11", "fusion_lon": 0.0}, {"is_reserved": 0, "type": "electric_scooter", "bike_id": "4c06054a8a379517f1cec62b1d83f84c", "lat": 38.90528583333333, "lon": -77.067018, "rental_uris": {"android": "https://dc.lft.to/lastmile_qr_scan", "ios": "https://dc.lft.to/lastmile_qr_scan"}, "is_disabled": 0, "fusion_lat": 0.0, "name": "4c06054a8a379517f1cec62b1d83f84c", "fusion_lon": 0.0}, {"is_reserved": 0, "type": "electric_scooter", "bike_id": "d892beb51cb8f65d5a2b7a0b07078437", "lat": 38.8864395, "lon": -76.9962555, "rental_uris": {"android": "https://dc.lft.to/lastmile_qr_scan", "ios": "https://dc.lft.to/lastmile_qr_scan"}, "is_disabled": 0, "fusion_lat": 0.0, "name": "d892beb51cb8f65d5a2b7a0b07078437", "fusion_lon": 0.0}, {"is_reserved": 0, "type": "electric_scooter", "bike_id": "49d7f5b7fd814e881cdd8673fd0f2873", "lat": 38.927693166666664, "lon": -77.02784983333333, "rental_uris": {"android": "https://dc.lft.to/lastmile_qr_scan", "ios": "https://dc.lft.to/lastmile_qr_scan"}, "is_disabled": 0, "fusion_lat": 0.0, "name": "49d7f5b7fd814e881cdd8673fd0f2873", "fusion_lon": 0.0}, {"is_reserved": 0, "type": "electric_scooter", "bike_id": "cc51b0af42d0e729d72bda5cf4596b62", "lat": 38.894449, "lon": -76.98082083333334, "rental_uris": {"android": "https://dc.lft.to/lastmile_qr_scan", "ios": "https://dc.lft.to/lastmile_qr_scan"}, "is_disabled": 0, "fusion_lat": 0.0, "name": "cc51b0af42d0e729d72bda5cf4596b62", "fusion_lon": 0.0}, {"is_reserved": 0, "type": "electric_scooter", "bike_id": "1fdd899a4c2e0046fa4e283c5e3e9794", "lat": 38.9057555, "lon": -77.02179966666667, "rental_uris": {"android": "https://dc.lft.to/lastmile_qr_scan", "ios": "https://dc.lft.to/lastmile_qr_scan"}, "is_disabled": 0, "fusion_lat": 0.0, "name": "1fdd899a4c2e0046fa4e283c5e3e9794", "fusion_lon": 0.0}, {"is_reserved": 0, "type": "electric_scooter", "bike_id": "10da6e47a4300a5aeaa5ecc1c64b5a02", "lat": 38.919200833333335, "lon": -77.03434566666667, "rental_uris": {"android": "https://dc.lft.to/lastmile_qr_scan", "ios": "https://dc.lft.to/lastmile_qr_scan"}, "is_disabled": 0, "fusion_lat": 0.0, "name": "10da6e47a4300a5aeaa5ecc1c64b5a02", "fusion_lon": 0.0}, {"is_reserved": 0, "type": "electric_scooter", "bike_id": "d686cfba088a6af740c19e7debde434d", "lat": 38.91424283333333, "lon": -77.04156816666666, "rental_uris": {"android": "https://dc.lft.to/lastmile_qr_scan", "ios": "https://dc.lft.to/lastmile_qr_scan"}, "is_disabled": 0, "fusion_lat": 0.0, "name": "d686cfba088a6af740c19e7debde434d", "fusion_lon": 0.0}, {"is_reserved": 0, "type": "electric_scooter", "bike_id": "a41205b36400031e1b519a9dd84185f3", "lat": 38.91260283333333, "lon": -77.02662116666667, "rental_uris": {"android": "https://dc.lft.to/lastmile_qr_scan", "ios": "https://dc.lft.to/lastmile_qr_scan"}, "is_disabled": 0, "fusion_lat": 0.0, "name": "a41205b36400031e1b519a9dd84185f3", "fusion_lon": 0.0}, {"is_reserved": 0, "type": "electric_scooter", "bike_id": "4c34a510e529dba3aef32cdb98313d03", "lat": 38.89224866666667, "lon": -77.02230283333333, "rental_uris": {"android": "https://dc.lft.to/lastmile_qr_scan", "ios": "https://dc.lft.to/lastmile_qr_scan"}, "is_disabled": 0, "fusion_lat": 0.0, "name": "4c34a510e529dba3aef32cdb98313d03", "fusion_lon": 0.0}, {"is_reserved": 0, "type": "electric_scooter", "bike_id": "486dc0540da2716a6fbbe55f49b3f04e", "lat": 38.86578316666667, "lon": -76.99026983333333, "rental_uris": {"android": "https://dc.lft.to/lastmile_qr_scan", "ios": "https://dc.lft.to/lastmile_qr_scan"}, "is_disabled": 0, "fusion_lat": 0.0, "name": "486dc0540da2716a6fbbe55f49b3f04e", "fusion_lon": 0.0}, {"is_reserved": 0, "type": "electric_scooter", "bike_id": "63c56dbdc3df1e96a3ac01d202cad5ad", "lat": 38.92016783333333, "lon": -77.03209933333333, "rental_uris": {"android": "https://dc.lft.to/lastmile_qr_scan", "ios": "https://dc.lft.to/lastmile_qr_scan"}, "is_disabled": 0, "fusion_lat": 0.0, "name": "63c56dbdc3df1e96a3ac01d202cad5ad", "fusion_lon": 0.0}, {"is_reserved": 0, "type": "electric_scooter", "bike_id": "c198f9afd7a98767ebdfde252a5018de", "lat": 38.90389916666667, "lon": -77.03035283333334, "rental_uris": {"android": "https://dc.lft.to/lastmile_qr_scan", "ios": "https://dc.lft.to/lastmile_qr_scan"}, "is_disabled": 0, "fusion_lat": 0.0, "name": "c198f9afd7a98767ebdfde252a5018de", "fusion_lon": 0.0}, {"is_reserved": 0, "type": "electric_bike", "bike_id": "73c2ed44dde891f747de447729df0071", "lat": 38.863344, "lon": -76.987227, "rental_uris": {"android": "https://dc.lft.to/lastmile_qr_scan", "ios": "https://dc.lft.to/lastmile_qr_scan"}, "is_disabled": 0, "fusion_lat": 0.0, "name": "73c2ed44dde891f747de447729df0071", "fusion_lon": 0.0}, {"is_reserved": 0, "type": "electric_bike", "bike_id": "0f23fab571d1c8ee93d4e3b3e7237049", "lat": 39.000015833333336, "lon": -76.91806666666666, "rental_uris": {"android": "https://dc.lft.to/lastmile_qr_scan", "ios": "https://dc.lft.to/lastmile_qr_scan"}, "is_disabled": 0, "fusion_lat": 0.0, "name": "0f23fab571d1c8ee93d4e3b3e7237049", "fusion_lon": 0.0}, {"is_reserved": 0, "type": "electric_scooter", "bike_id": "15924db440b8f690e7ea03481844607e", "lat": 38.91719583333333, "lon": -77.03836466666667, "rental_uris": {"android": "https://dc.lft.to/lastmile_qr_scan", "ios": "https://dc.lft.to/lastmile_qr_scan"}, "is_disabled": 0, "fusion_lat": 0.0, "name": "15924db440b8f690e7ea03481844607e", "fusion_lon": 0.0}, {"is_reserved": 0, "type": "electric_scooter", "bike_id": "3802fca3f006ee586dd41bc35c0a06dc", "lat": 38.92349816666667, "lon": -77.03294933333333, "rental_uris": {"android": "https://dc.lft.to/lastmile_qr_scan", "ios": "https://dc.lft.to/lastmile_qr_scan"}, "is_disabled": 0, "fusion_lat": 0.0, "name": "3802fca3f006ee586dd41bc35c0a06dc", "fusion_lon": 0.0}, {"is_reserved": 0, "type": "electric_bike", "bike_id": "39984061efba5dc7db803f29063a829f", "lat": 38.9164575, "lon": -77.02138183333334, "rental_uris": {"android": "https://dc.lft.to/lastmile_qr_scan", "ios": "https://dc.lft.to/lastmile_qr_scan"}, "is_disabled": 0, "fusion_lat": 0.0, "name": "39984061efba5dc7db803f29063a829f", "fusion_lon": 0.0}, {"is_reserved": 0, "type": "electric_scooter", "bike_id": "8c1fbdaf6a469265c25a5e0b710408f2", "lat": 38.919152, "lon": -76.97486566666667, "rental_uris": {"android": "https://dc.lft.to/lastmile_qr_scan", "ios": "https://dc.lft.to/lastmile_qr_scan"}, "is_disabled": 0, "fusion_lat": 0.0, "name": "8c1fbdaf6a469265c25a5e0b710408f2", "fusion_lon": 0.0}, {"is_reserved": 0, "type": "electric_bike", "bike_id": "820bf95e1f3872aec8965c1ffcbbb406", "lat": 38.8742875, "lon": -77.085689, "rental_uris": {"android": "https://dc.lft.to/lastmile_qr_scan", "ios": "https://dc.lft.to/lastmile_qr_scan"}, "is_disabled": 0, "fusion_lat": 0.0, "name": "820bf95e1f3872aec8965c1ffcbbb406", "fusion_lon": 0.0}, {"is_reserved": 0, "type": "electric_bike", "bike_id": "f4479d322dfee65ca7d8b145e23c54d0", "lat": 39.01098233333333, "lon": -77.0495925, "rental_uris": {"android": "https://dc.lft.to/lastmile_qr_scan", "ios": "https://dc.lft.to/lastmile_qr_scan"}, "is_disabled": 0, "fusion_lat": 0.0, "name": "f4479d322dfee65ca7d8b145e23c54d0", "fusion_lon": 0.0}, {"is_reserved": 0, "type": "electric_scooter", "bike_id": "05c3a260b0e2b54bf5da87a6cff748c4", "lat": 38.899534333333335, "lon": -77.05393816666667, "rental_uris": {"android": "https://dc.lft.to/lastmile_qr_scan", "ios": "https://dc.lft.to/lastmile_qr_scan"}, "is_disabled": 0, "fusion_lat": 0.0, "name": "05c3a260b0e2b54bf5da87a6cff748c4", "fusion_lon": 0.0}, {"is_reserved": 0, "type": "electric_scooter", "bike_id": "a571df288f3e3468d5c1a6b3ec60c3ce", "lat": 38.9193935, "lon": -77.04617733333333, "rental_uris": {"android": "https://dc.lft.to/lastmile_qr_scan", "ios": "https://dc.lft.to/lastmile_qr_scan"}, "is_disabled": 0, "fusion_lat": 0.0, "name": "a571df288f3e3468d5c1a6b3ec60c3ce", "fusion_lon": 0.0}, {"is_reserved": 0, "type": "electric_bike", "bike_id": "73f599963907af43b76b3a2d0aab9201", "lat": 38.95872683333333, "lon": -76.97049133333333, "rental_uris": {"android": "https://dc.lft.to/lastmile_qr_scan", "ios": "https://dc.lft.to/lastmile_qr_scan"}, "is_disabled": 0, "fusion_lat": 0.0, "name": "73f599963907af43b76b3a2d0aab9201", "fusion_lon": 0.0}, {"is_reserved": 0, "type": "electric_scooter", "bike_id": "b57d01c5c6a2c2a5f0448fb1f8467a38", "lat": 38.89620683333333, "lon": -76.997355, "rental_uris": {"android": "https://dc.lft.to/lastmile_qr_scan", "ios": "https://dc.lft.to/lastmile_qr_scan"}, "is_disabled": 0, "fusion_lat": 0.0, "name": "b57d01c5c6a2c2a5f0448fb1f8467a38", "fusion_lon": 0.0}, {"is_reserved": 0, "type": "electric_scooter", "bike_id": "c0b1fc265e5e2bae16031decc38eb7da", "lat": 38.9025115, "lon": -77.0412615, "rental_uris": {"android": "https://dc.lft.to/lastmile_qr_scan", "ios": "https://dc.lft.to/lastmile_qr_scan"}, "is_disabled": 0, "fusion_lat": 0.0, "name": "c0b1fc265e5e2bae16031decc38eb7da", "fusion_lon": 0.0}, {"is_reserved": 0, "type": "electric_scooter", "bike_id": "bf82a264ce0dbbc83fbb9d7f5b1cd1fe", "lat": 38.92388183333333, "lon": -77.02885966666666, "rental_uris": {"android": "https://dc.lft.to/lastmile_qr_scan", "ios": "https://dc.lft.to/lastmile_qr_scan"}, "is_disabled": 0, "fusion_lat": 0.0, "name": "bf82a264ce0dbbc83fbb9d7f5b1cd1fe", "fusion_lon": 0.0}, {"is_reserved": 0, "type": "electric_scooter", "bike_id": "d864cbcc6a53993a8eba42fb13d91c9e", "lat": 38.8877505, "lon": -76.99158883333334, "rental_uris": {"android": "https://dc.lft.to/lastmile_qr_scan", "ios": "https://dc.lft.to/lastmile_qr_scan"}, "is_disabled": 0, "fusion_lat": 0.0, "name": "d864cbcc6a53993a8eba42fb13d91c9e", "fusion_lon": 0.0}, {"is_reserved": 0, "type": "electric_scooter", "bike_id": "5907f1f37af618705da4ad53e5bb6276", "lat": 38.900984333333334, "lon": -77.01875416666667, "rental_uris": {"android": "https://dc.lft.to/lastmile_qr_scan", "ios": "https://dc.lft.to/lastmile_qr_scan"}, "is_disabled": 0, "fusion_lat": 0.0, "name": "5907f1f37af618705da4ad53e5bb6276", "fusion_lon": 0.0}, {"is_reserved": 0, "type": "electric_bike", "bike_id": "6398154b6137b9fd541a4baf69a84e98", "lat": 38.8410945, "lon": -77.08939133333334, "rental_uris": {"android": "https://dc.lft.to/lastmile_qr_scan", "ios": "https://dc.lft.to/lastmile_qr_scan"}, "is_disabled": 0, "fusion_lat": 0.0, "name": "6398154b6137b9fd541a4baf69a84e98", "fusion_lon": 0.0}, {"is_reserved": 0, "type": "electric_scooter", "bike_id": "e90d1b8ea411582eb76fe15cd39a3910", "lat": 38.9001555, "lon": -76.99170366666667, "rental_uris": {"android": "https://dc.lft.to/lastmile_qr_scan", "ios": "https://dc.lft.to/lastmile_qr_scan"}, "is_disabled": 0, "fusion_lat": 0.0, "name": "e90d1b8ea411582eb76fe15cd39a3910", "fusion_lon": 0.0}, {"is_reserved": 0, "type": "electric_scooter", "bike_id": "17713b8ab20ed9f284246c86cc75c516", "lat": 38.93628866666667, "lon": -77.0589135, "rental_uris": {"android": "https://dc.lft.to/lastmile_qr_scan", "ios": "https://dc.lft.to/lastmile_qr_scan"}, "is_disabled": 0, "fusion_lat": 0.0, "name": "17713b8ab20ed9f284246c86cc75c516", "fusion_lon": 0.0}, {"is_reserved": 0, "type": "electric_scooter", "bike_id": "3761750601d760b95f388a7e39d432d4", "lat": 38.90789766666666, "lon": -77.02816716666666, "rental_uris": {"android": "https://dc.lft.to/lastmile_qr_scan", "ios": "https://dc.lft.to/lastmile_qr_scan"}, "is_disabled": 0, "fusion_lat": 0.0, "name": "3761750601d760b95f388a7e39d432d4", "fusion_lon": 0.0}, {"is_reserved": 0, "type": "electric_scooter", "bike_id": "5e521b5f82cf458fb1812e4a0fbcd257", "lat": 38.916806333333334, "lon": -77.02314983333333, "rental_uris": {"android": "https://dc.lft.to/lastmile_qr_scan", "ios": "https://dc.lft.to/lastmile_qr_scan"}, "is_disabled": 0, "fusion_lat": 0.0, "name": "5e521b5f82cf458fb1812e4a0fbcd257", "fusion_lon": 0.0}, {"is_reserved": 0, "type": "electric_scooter", "bike_id": "e139074c13ab488c89b7cb974a1eb2e4", "lat": 38.930866, "lon": -77.03414466666666, "rental_uris": {"android": "https://dc.lft.to/lastmile_qr_scan", "ios": "https://dc.lft.to/lastmile_qr_scan"}, "is_disabled": 0, "fusion_lat": 0.0, "name": "e139074c13ab488c89b7cb974a1eb2e4", "fusion_lon": 0.0}, {"is_reserved": 0, "type": "electric_scooter", "bike_id": "55161e24637ff541c62210d98a8e3d65", "lat": 38.920113, "lon": -77.03204916666667, "rental_uris": {"android": "https://dc.lft.to/lastmile_qr_scan", "ios": "https://dc.lft.to/lastmile_qr_scan"}, "is_disabled": 0, "fusion_lat": 0.0, "name": "55161e24637ff541c62210d98a8e3d65", "fusion_lon": 0.0}, {"is_reserved": 0, "type": "electric_scooter", "bike_id": "d9060cec187fd5800235b85160270dba", "lat": 38.931199166666666, "lon": -77.02318383333333, "rental_uris": {"android": "https://dc.lft.to/lastmile_qr_scan", "ios": "https://dc.lft.to/lastmile_qr_scan"}, "is_disabled": 0, "fusion_lat": 0.0, "name": "d9060cec187fd5800235b85160270dba", "fusion_lon": 0.0}, {"is_reserved": 0, "type": "electric_scooter", "bike_id": "3650b82c08083fdec816cb4f5bf52eed", "lat": 38.879501, "lon": -77.01653916666666, "rental_uris": {"android": "https://dc.lft.to/lastmile_qr_scan", "ios": "https://dc.lft.to/lastmile_qr_scan"}, "is_disabled": 0, "fusion_lat": 0.0, "name": "3650b82c08083fdec816cb4f5bf52eed", "fusion_lon": 0.0}, {"is_reserved": 0, "type": "electric_bike", "bike_id": "8d41122b45eccae3be52b3ac64357001", "lat": 38.9456645, "lon": -76.95839866666667, "rental_uris": {"android": "https://dc.lft.to/lastmile_qr_scan", "ios": "https://dc.lft.to/lastmile_qr_scan"}, "is_disabled": 0, "fusion_lat": 0.0, "name": "8d41122b45eccae3be52b3ac64357001", "fusion_lon": 0.0}, {"is_reserved": 0, "type": "electric_scooter", "bike_id": "601633ebc8e9a6c1f4670b74e8723ace", "lat": 38.923996833333334, "lon": -77.05052066666667, "rental_uris": {"android": "https://dc.lft.to/lastmile_qr_scan", "ios": "https://dc.lft.to/lastmile_qr_scan"}, "is_disabled": 0, "fusion_lat": 0.0, "name": "601633ebc8e9a6c1f4670b74e8723ace", "fusion_lon": 0.0}, {"is_reserved": 0, "type": "electric_scooter", "bike_id": "52e47e97f9e394f436b4b5723c8df15b", "lat": 38.87472133333333, "lon": -77.00547766666666, "rental_uris": {"android": "https://dc.lft.to/lastmile_qr_scan", "ios": "https://dc.lft.to/lastmile_qr_scan"}, "is_disabled": 0, "fusion_lat": 0.0, "name": "52e47e97f9e394f436b4b5723c8df15b", "fusion_lon": 0.0}, {"is_reserved": 0, "type": "electric_scooter", "bike_id": "3012289266cab593958f68a904c83fa6", "lat": 38.91004916666667, "lon": -76.99417866666667, "rental_uris": {"android": "https://dc.lft.to/lastmile_qr_scan", "ios": "https://dc.lft.to/lastmile_qr_scan"}, "is_disabled": 0, "fusion_lat": 0.0, "name": "3012289266cab593958f68a904c83fa6", "fusion_lon": 0.0}, {"is_reserved": 0, "type": "electric_scooter", "bike_id": "63491c52a15a1500d85a115ce7e3b547", "lat": 38.88302, "lon": -76.94854683333334, "rental_uris": {"android": "https://dc.lft.to/lastmile_qr_scan", "ios": "https://dc.lft.to/lastmile_qr_scan"}, "is_disabled": 0, "fusion_lat": 0.0, "name": "63491c52a15a1500d85a115ce7e3b547", "fusion_lon": 0.0}, {"is_reserved": 0, "type": "electric_scooter", "bike_id": "cfd545c6c7788411a44aeb28b28b8a7d", "lat": 38.91570266666667, "lon": -77.02201166666667, "rental_uris": {"android": "https://dc.lft.to/lastmile_qr_scan", "ios": "https://dc.lft.to/lastmile_qr_scan"}, "is_disabled": 0, "fusion_lat": 0.0, "name": "cfd545c6c7788411a44aeb28b28b8a7d", "fusion_lon": 0.0}, {"is_reserved": 0, "type": "electric_scooter", "bike_id": "1f401c99e6f6ce72d9342169b2431723", "lat": 38.89749583333333, "lon": -77.00773533333333, "rental_uris": {"android": "https://dc.lft.to/lastmile_qr_scan", "ios": "https://dc.lft.to/lastmile_qr_scan"}, "is_disabled": 0, "fusion_lat": 0.0, "name": "1f401c99e6f6ce72d9342169b2431723", "fusion_lon": 0.0}, {"is_reserved": 0, "type": "electric_scooter", "bike_id": "8dc9088135c38ff3e9a3f3202355b61f", "lat": 38.91812783333334, "lon": -77.02881016666667, "rental_uris": {"android": "https://dc.lft.to/lastmile_qr_scan", "ios": "https://dc.lft.to/lastmile_qr_scan"}, "is_disabled": 0, "fusion_lat": 0.0, "name": "8dc9088135c38ff3e9a3f3202355b61f", "fusion_lon": 0.0}, {"is_reserved": 0, "type": "electric_scooter", "bike_id": "a7976b1d4a66102b9a21943851f461ac", "lat": 38.88610083333333, "lon": -76.98821383333333, "rental_uris": {"android": "https://dc.lft.to/lastmile_qr_scan", "ios": "https://dc.lft.to/lastmile_qr_scan"}, "is_disabled": 0, "fusion_lat": 0.0, "name": "a7976b1d4a66102b9a21943851f461ac", "fusion_lon": 0.0}, {"is_reserved": 0, "type": "electric_scooter", "bike_id": "1a6c1ab1e50aeb13a3402cf1884461e9", "lat": 38.900347833333335, "lon": -77.04015, "rental_uris": {"android": "https://dc.lft.to/lastmile_qr_scan", "ios": "https://dc.lft.to/lastmile_qr_scan"}, "is_disabled": 0, "fusion_lat": 0.0, "name": "1a6c1ab1e50aeb13a3402cf1884461e9", "fusion_lon": 0.0}, {"is_reserved": 0, "type": "electric_scooter", "bike_id": "2d86c5888f97be5eebc022c5d4f09932", "lat": 38.916976, "lon": -77.0293475, "rental_uris": {"android": "https://dc.lft.to/lastmile_qr_scan", "ios": "https://dc.lft.to/lastmile_qr_scan"}, "is_disabled": 0, "fusion_lat": 0.0, "name": "2d86c5888f97be5eebc022c5d4f09932", "fusion_lon": 0.0}, {"is_reserved": 0, "type": "electric_bike", "bike_id": "f4b4d1b1e32eff7a8af15ea4d8b8d582", "lat": 38.833013, "lon": -77.084126, "rental_uris": {"android": "https://dc.lft.to/lastmile_qr_scan", "ios": "https://dc.lft.to/lastmile_qr_scan"}, "is_disabled": 0, "fusion_lat": 0.0, "name": "f4b4d1b1e32eff7a8af15ea4d8b8d582", "fusion_lon": 0.0}, {"is_reserved": 0, "type": "electric_scooter", "bike_id": "c94e5fefa67bf445a1ebbdc8cb3ec1df", "lat": 38.88437483333333, "lon": -76.95765733333333, "rental_uris": {"android": "https://dc.lft.to/lastmile_qr_scan", "ios": "https://dc.lft.to/lastmile_qr_scan"}, "is_disabled": 0, "fusion_lat": 0.0, "name": "c94e5fefa67bf445a1ebbdc8cb3ec1df", "fusion_lon": 0.0}, {"is_reserved": 0, "type": "electric_scooter", "bike_id": "a1f0fc0c655f1e9063ef4723962f0226", "lat": 38.929315833333334, "lon": -77.0200425, "rental_uris": {"android": "https://dc.lft.to/lastmile_qr_scan", "ios": "https://dc.lft.to/lastmile_qr_scan"}, "is_disabled": 0, "fusion_lat": 0.0, "name": "a1f0fc0c655f1e9063ef4723962f0226", "fusion_lon": 0.0}, {"is_reserved": 0, "type": "electric_scooter", "bike_id": "fdc09aa3ce9e4fe467725e48da09f6e9", "lat": 38.93524016666667, "lon": -77.01932733333334, "rental_uris": {"android": "https://dc.lft.to/lastmile_qr_scan", "ios": "https://dc.lft.to/lastmile_qr_scan"}, "is_disabled": 0, "fusion_lat": 0.0, "name": "fdc09aa3ce9e4fe467725e48da09f6e9", "fusion_lon": 0.0}, {"is_reserved": 0, "type": "electric_bike", "bike_id": "13d820b145d69032bdbf5eef2808dae4", "lat": 38.95955933333333, "lon": -77.01981416666666, "rental_uris": {"android": "https://dc.lft.to/lastmile_qr_scan", "ios": "https://dc.lft.to/lastmile_qr_scan"}, "is_disabled": 0, "fusion_lat": 0.0, "name": "13d820b145d69032bdbf5eef2808dae4", "fusion_lon": 0.0}, {"is_reserved": 0, "type": "electric_scooter", "bike_id": "34984b1ab0df35db9d71383ad1a6411d", "lat": 38.92836066666667, "lon": -77.00606483333334, "rental_uris": {"android": "https://dc.lft.to/lastmile_qr_scan", "ios": "https://dc.lft.to/lastmile_qr_scan"}, "is_disabled": 0, "fusion_lat": 0.0, "name": "34984b1ab0df35db9d71383ad1a6411d", "fusion_lon": 0.0}, {"is_reserved": 0, "type": "electric_scooter", "bike_id": "63f50253b8d9cede68b08aee76e1ad2c", "lat": 38.86620583333333, "lon": -76.98217216666667, "rental_uris": {"android": "https://dc.lft.to/lastmile_qr_scan", "ios": "https://dc.lft.to/lastmile_qr_scan"}, "is_disabled": 0, "fusion_lat": 0.0, "name": "63f50253b8d9cede68b08aee76e1ad2c", "fusion_lon": 0.0}, {"is_reserved": 0, "type": "electric_scooter", "bike_id": "aacb37f8e7decd3019a5519365babd63", "lat": 38.94244416666667, "lon": -77.0358385, "rental_uris": {"android": "https://dc.lft.to/lastmile_qr_scan", "ios": "https://dc.lft.to/lastmile_qr_scan"}, "is_disabled": 0, "fusion_lat": 0.0, "name": "aacb37f8e7decd3019a5519365babd63", "fusion_lon": 0.0}, {"is_reserved": 0, "type": "electric_scooter", "bike_id": "fd31c4e0203613bc5fcb78554cc8693c", "lat": 38.91583216666667, "lon": -77.0123685, "rental_uris": {"android": "https://dc.lft.to/lastmile_qr_scan", "ios": "https://dc.lft.to/lastmile_qr_scan"}, "is_disabled": 0, "fusion_lat": 0.0, "name": "fd31c4e0203613bc5fcb78554cc8693c", "fusion_lon": 0.0}, {"is_reserved": 0, "type": "electric_scooter", "bike_id": "0d1558b2788cc24ec9c22cb93e0a3a66", "lat": 38.90066683333333, "lon": -76.92745666666667, "rental_uris": {"android": "https://dc.lft.to/lastmile_qr_scan", "ios": "https://dc.lft.to/lastmile_qr_scan"}, "is_disabled": 0, "fusion_lat": 0.0, "name": "0d1558b2788cc24ec9c22cb93e0a3a66", "fusion_lon": 0.0}, {"is_reserved": 0, "type": "electric_scooter", "bike_id": "38828d111317fd3d813d9d68627af19a", "lat": 38.901690333333335, "lon": -77.03173216666667, "rental_uris": {"android": "https://dc.lft.to/lastmile_qr_scan", "ios": "https://dc.lft.to/lastmile_qr_scan"}, "is_disabled": 0, "fusion_lat": 0.0, "name": "38828d111317fd3d813d9d68627af19a", "fusion_lon": 0.0}, {"is_reserved": 0, "type": "electric_scooter", "bike_id": "c2c757593a304a8944c05f8c16e1ee8b", "lat": 38.9408065, "lon": -77.03332633333333, "rental_uris": {"android": "https://dc.lft.to/lastmile_qr_scan", "ios": "https://dc.lft.to/lastmile_qr_scan"}, "is_disabled": 0, "fusion_lat": 0.0, "name": "c2c757593a304a8944c05f8c16e1ee8b", "fusion_lon": 0.0}, {"is_reserved": 0, "type": "electric_scooter", "bike_id": "d7680708a49f5b9bf312abb20ee604ed", "lat": 38.883984833333336, "lon": -76.98982383333333, "rental_uris": {"android": "https://dc.lft.to/lastmile_qr_scan", "ios": "https://dc.lft.to/lastmile_qr_scan"}, "is_disabled": 0, "fusion_lat": 0.0, "name": "d7680708a49f5b9bf312abb20ee604ed", "fusion_lon": 0.0}, {"is_reserved": 0, "type": "electric_scooter", "bike_id": "0b67ffba08e92e627c168bbd7fab88cd", "lat": 38.919938333333334, "lon": -77.02881833333333, "rental_uris": {"android": "https://dc.lft.to/lastmile_qr_scan", "ios": "https://dc.lft.to/lastmile_qr_scan"}, "is_disabled": 0, "fusion_lat": 0.0, "name": "0b67ffba08e92e627c168bbd7fab88cd", "fusion_lon": 0.0}, {"is_reserved": 0, "type": "electric_scooter", "bike_id": "74166f7199a74798b74c70a6c75b69c3", "lat": 38.898851666666665, "lon": -76.93176333333334, "rental_uris": {"android": "https://dc.lft.to/lastmile_qr_scan", "ios": "https://dc.lft.to/lastmile_qr_scan"}, "is_disabled": 0, "fusion_lat": 0.0, "name": "74166f7199a74798b74c70a6c75b69c3", "fusion_lon": 0.0}, {"is_reserved": 0, "type": "electric_scooter", "bike_id": "66a2cf8bf9de85f13aa6435bdd509f84", "lat": 38.931208, "lon": -77.02082233333333, "rental_uris": {"android": "https://dc.lft.to/lastmile_qr_scan", "ios": "https://dc.lft.to/lastmile_qr_scan"}, "is_disabled": 0, "fusion_lat": 0.0, "name": "66a2cf8bf9de85f13aa6435bdd509f84", "fusion_lon": 0.0}, {"is_reserved": 0, "type": "electric_scooter", "bike_id": "6b66cfbe3b7848ab34b1195164bed104", "lat": 38.87766766666667, "lon": -76.99419883333333, "rental_uris": {"android": "https://dc.lft.to/lastmile_qr_scan", "ios": "https://dc.lft.to/lastmile_qr_scan"}, "is_disabled": 0, "fusion_lat": 0.0, "name": "6b66cfbe3b7848ab34b1195164bed104", "fusion_lon": 0.0}, {"is_reserved": 0, "type": "electric_bike", "bike_id": "cf86b94d522f2ccff6f238ddf9868a5c", "lat": 38.911326833333334, "lon": -77.06575916666667, "rental_uris": {"android": "https://dc.lft.to/lastmile_qr_scan", "ios": "https://dc.lft.to/lastmile_qr_scan"}, "is_disabled": 0, "fusion_lat": 0.0, "name": "cf86b94d522f2ccff6f238ddf9868a5c", "fusion_lon": 0.0}, {"is_reserved": 0, "type": "electric_scooter", "bike_id": "9ef81ae2a556bf0dfabfb3138efeb9db", "lat": 38.91002983333333, "lon": -77.04006033333333, "rental_uris": {"android": "https://dc.lft.to/lastmile_qr_scan", "ios": "https://dc.lft.to/lastmile_qr_scan"}, "is_disabled": 0, "fusion_lat": 0.0, "name": "9ef81ae2a556bf0dfabfb3138efeb9db", "fusion_lon": 0.0}, {"is_reserved": 0, "type": "electric_scooter", "bike_id": "9c88a4b07cda8d03d53c2b75d83ab324", "lat": 38.93406516666667, "lon": -77.041226, "rental_uris": {"android": "https://dc.lft.to/lastmile_qr_scan", "ios": "https://dc.lft.to/lastmile_qr_scan"}, "is_disabled": 0, "fusion_lat": 0.0, "name": "9c88a4b07cda8d03d53c2b75d83ab324", "fusion_lon": 0.0}, {"is_reserved": 0, "type": "electric_scooter", "bike_id": "49dbb89a156f6ad0d4fa656ed9787d94", "lat": 38.89860066666667, "lon": -76.97757966666667, "rental_uris": {"android": "https://dc.lft.to/lastmile_qr_scan", "ios": "https://dc.lft.to/lastmile_qr_scan"}, "is_disabled": 0, "fusion_lat": 0.0, "name": "49dbb89a156f6ad0d4fa656ed9787d94", "fusion_lon": 0.0}, {"is_reserved": 0, "type": "electric_bike", "bike_id": "38b567e23b09ca325f40b997c35fb548", "lat": 38.94315983333333, "lon": -76.99011666666667, "rental_uris": {"android": "https://dc.lft.to/lastmile_qr_scan", "ios": "https://dc.lft.to/lastmile_qr_scan"}, "is_disabled": 0, "fusion_lat": 0.0, "name": "38b567e23b09ca325f40b997c35fb548", "fusion_lon": 0.0}, {"is_reserved": 0, "type": "electric_scooter", "bike_id": "c6999a247c56a61db031f1ce86f260ea", "lat": 38.8851255, "lon": -77.01752483333334, "rental_uris": {"android": "https://dc.lft.to/lastmile_qr_scan", "ios": "https://dc.lft.to/lastmile_qr_scan"}, "is_disabled": 0, "fusion_lat": 0.0, "name": "c6999a247c56a61db031f1ce86f260ea", "fusion_lon": 0.0}, {"is_reserved": 0, "type": "electric_bike", "bike_id": "2b63b6504ab97ebf4c709a3fdaae822d", "lat": 38.857853166666665, "lon": -76.98754616666666, "rental_uris": {"android": "https://dc.lft.to/lastmile_qr_scan", "ios": "https://dc.lft.to/lastmile_qr_scan"}, "is_disabled": 0, "fusion_lat": 0.0, "name": "2b63b6504ab97ebf4c709a3fdaae822d", "fusion_lon": 0.0}, {"is_reserved": 0, "type": "electric_scooter", "bike_id": "2910818de2d4f947fbce30b26c7de4c1", "lat": 38.90397183333333, "lon": -76.98948416666667, "rental_uris": {"android": "https://dc.lft.to/lastmile_qr_scan", "ios": "https://dc.lft.to/lastmile_qr_scan"}, "is_disabled": 0, "fusion_lat": 0.0, "name": "2910818de2d4f947fbce30b26c7de4c1", "fusion_lon": 0.0}, {"is_reserved": 0, "type": "electric_bike", "bike_id": "e5b2bf69c4094d4e93fbfef6fbddabb4", "lat": 38.872155, "lon": -77.11739633333333, "rental_uris": {"android": "https://dc.lft.to/lastmile_qr_scan", "ios": "https://dc.lft.to/lastmile_qr_scan"}, "is_disabled": 0, "fusion_lat": 0.0, "name": "e5b2bf69c4094d4e93fbfef6fbddabb4", "fusion_lon": 0.0}, {"is_reserved": 0, "type": "electric_scooter", "bike_id": "29e2739656c319b352e6b563515b63ba", "lat": 38.90015266666666, "lon": -77.01890883333333, "rental_uris": {"android": "https://dc.lft.to/lastmile_qr_scan", "ios": "https://dc.lft.to/lastmile_qr_scan"}, "is_disabled": 0, "fusion_lat": 0.0, "name": "29e2739656c319b352e6b563515b63ba", "fusion_lon": 0.0}, {"is_reserved": 0, "type": "electric_bike", "bike_id": "fe8a99e1a546c08512e9d4e1a640100c", "lat": 38.8645755, "lon": -76.97753733333333, "rental_uris": {"android": "https://dc.lft.to/lastmile_qr_scan", "ios": "https://dc.lft.to/lastmile_qr_scan"}, "is_disabled": 0, "fusion_lat": 0.0, "name": "fe8a99e1a546c08512e9d4e1a640100c", "fusion_lon": 0.0}, {"is_reserved": 0, "type": "electric_scooter", "bike_id": "a7a7ae5df3322d332a6de5e570445d12", "lat": 38.876524333333336, "lon": -77.00650283333333, "rental_uris": {"android": "https://dc.lft.to/lastmile_qr_scan", "ios": "https://dc.lft.to/lastmile_qr_scan"}, "is_disabled": 0, "fusion_lat": 0.0, "name": "a7a7ae5df3322d332a6de5e570445d12", "fusion_lon": 0.0}, {"is_reserved": 0, "type": "electric_scooter", "bike_id": "e9c415523fde60e786ee313cb973477c", "lat": 38.94695816666667, "lon": -77.02248316666666, "rental_uris": {"android": "https://dc.lft.to/lastmile_qr_scan", "ios": "https://dc.lft.to/lastmile_qr_scan"}, "is_disabled": 0, "fusion_lat": 0.0, "name": "e9c415523fde60e786ee313cb973477c", "fusion_lon": 0.0}, {"is_reserved": 0, "type": "electric_scooter", "bike_id": "d3f2d0f0200216c66352bd34f0e7bd02", "lat": 38.905712, "lon": -77.03658316666667, "rental_uris": {"android": "https://dc.lft.to/lastmile_qr_scan", "ios": "https://dc.lft.to/lastmile_qr_scan"}, "is_disabled": 0, "fusion_lat": 0.0, "name": "d3f2d0f0200216c66352bd34f0e7bd02", "fusion_lon": 0.0}, {"is_reserved": 0, "type": "electric_scooter", "bike_id": "f8b72ccb91402362ca00c15a242cfa83", "lat": 38.8987835, "lon": -76.9318125, "rental_uris": {"android": "https://dc.lft.to/lastmile_qr_scan", "ios": "https://dc.lft.to/lastmile_qr_scan"}, "is_disabled": 0, "fusion_lat": 0.0, "name": "f8b72ccb91402362ca00c15a242cfa83", "fusion_lon": 0.0}, {"is_reserved": 0, "type": "electric_scooter", "bike_id": "f110a4319ff12046340c3a799a77c86f", "lat": 38.885257, "lon": -76.99608033333334, "rental_uris": {"android": "https://dc.lft.to/lastmile_qr_scan", "ios": "https://dc.lft.to/lastmile_qr_scan"}, "is_disabled": 0, "fusion_lat": 0.0, "name": "f110a4319ff12046340c3a799a77c86f", "fusion_lon": 0.0}, {"is_reserved": 0, "type": "electric_scooter", "bike_id": "8589758cf164301216dc3df63e3bf45a", "lat": 38.92633083333333, "lon": -77.036332, "rental_uris": {"android": "https://dc.lft.to/lastmile_qr_scan", "ios": "https://dc.lft.to/lastmile_qr_scan"}, "is_disabled": 0, "fusion_lat": 0.0, "name": "8589758cf164301216dc3df63e3bf45a", "fusion_lon": 0.0}, {"is_reserved": 0, "type": "electric_scooter", "bike_id": "98a8958c12d769e27512415df56c7294", "lat": 38.92752083333333, "lon": -77.02455, "rental_uris": {"android": "https://dc.lft.to/lastmile_qr_scan", "ios": "https://dc.lft.to/lastmile_qr_scan"}, "is_disabled": 0, "fusion_lat": 0.0, "name": "98a8958c12d769e27512415df56c7294", "fusion_lon": 0.0},