{"data": {"bikes": [{"fusion_lat": 0.0, "type": "electric_bike", "name": "b0a6216b4addeb627bae74f2d081205a", "is_disabled": 0, "lon": -76.96094616666667, "fusion_lon": 0.0, "rental_uris": {"ios": "https://dc.lft.to/lastmile_qr_scan", "android": "https://dc.lft.to/lastmile_qr_scan"}, "lat": 38.918581, "bike_id": "b0a6216b4addeb627bae74f2d081205a", "is_reserved": 0}, {"fusion_lat": 0.0, "type": "electric_scooter", "name": "6415ba86be78d10dbffc97cd02dc1ef8", "is_disabled": 0, "lon": -77.03863633333333, "fusion_lon": 0.0, "rental_uris": {"ios": "https://dc.lft.to/lastmile_qr_scan", "android": "https://dc.lft.to/lastmile_qr_scan"}, "lat": 38.91261983333333, "bike_id": "6415ba86be78d10dbffc97cd02dc1ef8", "is_reserved": 0}, {"fusion_lat": 0.0, "type": "electric_bike", "name": "568df3f19083f172ec58c96d3e94c927", "is_disabled": 0, "lon": -76.9869025, "fusion_lon": 0.0, "rental_uris": {"ios": "https://dc.lft.to/lastmile_qr_scan", "android": "https://dc.lft.to/lastmile_qr_scan"}, "lat": 38.944722166666665, "bike_id": "568df3f19083f172ec58c96d3e94c927", "is_reserved": 0}, {"fusion_lat": 0.0, "type": "electric_scooter", "name": "54e245459813a4f3491dcd99328e731f", "is_disabled": 0, "lon": -77.03543583333334, "fusion_lon": 0.0, "rental_uris": {"ios": "https://dc.lft.to/lastmile_qr_scan", "android": "https://dc.lft.to/lastmile_qr_scan"}, "lat": 38.91823083333333, "bike_id": "54e245459813a4f3491dcd99328e731f", "is_reserved": 0}, {"fusion_lat": 0.0, "type": "electric_scooter", "name": "afae66b495f215758c7cc9f2c93f99fe", "is_disabled": 0, "lon": -77.02815466666667, "fusion_lon": 0.0, "rental_uris": {"ios": "https://dc.lft.to/lastmile_qr_scan", "android": "https://dc.lft.to/lastmile_qr_scan"}, "lat": 38.90457966666666, "bike_id": "afae66b495f215758c7cc9f2c93f99fe", "is_reserved": 0}, {"fusion_lat": 0.0, "type": "electric_bike", "name": "423ac806c86df93eaa80dd783f0f221e", "is_disabled": 0, "lon": -77.02248433333334, "fusion_lon": 0.0, "rental_uris": {"ios": "https://dc.lft.to/lastmile_qr_scan", "android": "https://dc.lft.to/lastmile_qr_scan"}, "lat": 38.966789166666665, "bike_id": "423ac806c86df93eaa80dd783f0f221e", "is_reserved": 0}, {"fusion_lat": 0.0, "type": "electric_bike", "name": "dec4bf68aa549f27199536f0b9da86d7", "is_disabled": 0, "lon": -77.08620183333333, "fusion_lon": 0.0, "rental_uris": {"ios": "https://dc.lft.to/lastmile_qr_scan", "android": "https://dc.lft.to/lastmile_qr_scan"}, "lat": 38.93125116666667, "bike_id": "dec4bf68aa549f27199536f0b9da86d7", "is_reserved": 0}, {"fusion_lat": 0.0, "type": "electric_scooter", "name": "4bcce656247a4fd1a0136ff22de5a546", "is_disabled": 0, "lon": -77.03524366666667, "fusion_lon": 0.0, "rental_uris": {"ios": "https://dc.lft.to/lastmile_qr_scan", "android": "https://dc.lft.to/lastmile_qr_scan"}, "lat": 38.9225565, "bike_id": "4bcce656247a4fd1a0136ff22de5a546", "is_reserved": 0}, {"fusion_lat": 0.0, "type": "electric_bike", "name": "422e38a960b7e9a17c340e8afa10b922", "is_disabled": 0, "lon": -76.96262433333334, "fusion_lon": 0.0, "rental_uris": {"ios": "https://dc.lft.to/lastmile_qr_scan", "android": "https://dc.lft.to/lastmile_qr_scan"}, "lat": 38.96787283333333, "bike_id": "422e38a960b7e9a17c340e8afa10b922", "is_reserved": 0}, {"fusion_lat": 0.0, "type": "electric_bike", "name": "1e17fd62a249b2a8126c3424f86871a7", "is_disabled": 0, "lon": -77.08414483333334, "fusion_lon": 0.0, "rental_uris": {"ios": "https://dc.lft.to/lastmile_qr_scan", "android": "https://dc.lft.to/lastmile_qr_scan"}, "lat": 38.91302533333333, "bike_id": "1e17fd62a249b2a8126c3424f86871a7", "is_reserved": 0}, {"fusion_lat": 0.0, "type": "electric_scooter", "name": "7a3d88b237cbec383b77c111fff3ceae", "is_disabled": 0, "lon": -77.04588183333334, "fusion_lon": 0.0, "rental_uris": {"ios": "https://dc.lft.to/lastmile_qr_scan", "android": "https://dc.lft.to/lastmile_qr_scan"}, "lat": 38.90857333333334, "bike_id": "7a3d88b237cbec383b77c111fff3ceae", "is_reserved": 0}, {"fusion_lat": 0.0, "type": "electric_scooter", "name": "77424a48df218b4ca0e20976fe369ae8", "is_disabled": 0, "lon": -77.02187733333334, "fusion_lon": 0.0, "rental_uris": {"ios": "https://dc.lft.to/lastmile_qr_scan", "android": "https://dc.lft.to/lastmile_qr_scan"}, "lat": 38.914589, "bike_id": "77424a48df218b4ca0e20976fe369ae8", "is_reserved": 0}, {"fusion_lat": 0.0, "type": "electric_scooter", "name": "c1ac5bac166a08e7c728cb3fa16ba70e", "is_disabled": 0, "lon": -77.00203166666667, "fusion_lon": 0.0, "rental_uris": {"ios": "https://dc.lft.to/lastmile_qr_scan", "android": "https://dc.lft.to/lastmile_qr_scan"}, "lat": 38.90038, "bike_id": "c1ac5bac166a08e7c728cb3fa16ba70e", "is_reserved": 0}, {"fusion_lat": 0.0, "type": "electric_scooter", "name": "f68185dadd5fa6055248db3627b5273a", "is_disabled": 0, "lon": -77.02639566666667, "fusion_lon": 0.0, "rental_uris": {"ios": "https://dc.lft.to/lastmile_qr_scan", "android": "https://dc.lft.to/lastmile_qr_scan"}, "lat": 38.95193483333333, "bike_id": "f68185dadd5fa6055248db3627b5273a", "is_reserved": 0}, {"fusion_lat": 0.0, "type": "electric_bike", "name": "bd9eccdd08a7d068dfb5da937d5179db", "is_disabled": 0, "lon": -77.10217683333333, "fusion_lon": 0.0, "rental_uris": {"ios": "https://dc.lft.to/lastmile_qr_scan", "android": "https://dc.lft.to/lastmile_qr_scan"}, "lat": 38.91997216666667, "bike_id": "bd9eccdd08a7d068dfb5da937d5179db", "is_reserved": 0}, {"fusion_lat": 0.0, "type": "electric_scooter", "name": "57796eabd99ab97680e04f8023f6b636", "is_disabled": 0, "lon": -77.04696466666667, "fusion_lon": 0.0, "rental_uris": {"ios": "https://dc.lft.to/lastmile_qr_scan", "android": "https://dc.lft.to/lastmile_qr_scan"}, "lat": 38.89619366666667, "bike_id": "57796eabd99ab97680e04f8023f6b636", "is_reserved": 0}, {"fusion_lat": 0.0, "type": "electric_scooter", "name": "ab6df7482554827d3c6e383599fdbfed", "is_disabled": 0, "lon": -77.002135, "fusion_lon": 0.0, "rental_uris": {"ios": "https://dc.lft.to/lastmile_qr_scan", "android": "https://dc.lft.to/lastmile_qr_scan"}, "lat": 38.897892, "bike_id": "ab6df7482554827d3c6e383599fdbfed", "is_reserved": 0}, {"fusion_lat": 0.0, "type": "electric_scooter", "name": "213f7fdfca00b5f991eaf39ac1462d67", "is_disabled": 0, "lon": -77.00669166666667, "fusion_lon": 0.0, "rental_uris": {"ios": "https://dc.lft.to/lastmile_qr_scan", "android": "https://dc.lft.to/lastmile_qr_scan"}, "lat": 38.90011616666666, "bike_id": "213f7fdfca00b5f991eaf39ac1462d67", "is_reserved": 0}, {"fusion_lat": 0.0, "type": "electric_scooter", "name": "79aea19c5adbecb808b0c382c0ae35b3", "is_disabled": 0, "lon": -77.0318875, "fusion_lon": 0.0, "rental_uris": {"ios": "https://dc.lft.to/lastmile_qr_scan", "android": "https://dc.lft.to/lastmile_qr_scan"}, "lat": 38.916132833333336, "bike_id": "79aea19c5adbecb808b0c382c0ae35b3", "is_reserved": 0}, {"fusion_lat": 0.0, "type": "electric_scooter", "name": "e04fe619704d5c0daad44265d3d070c4", "is_disabled": 0, "lon": -77.0180435, "fusion_lon": 0.0, "rental_uris": {"ios": "https://dc.lft.to/lastmile_qr_scan", "android": "https://dc.lft.to/lastmile_qr_scan"}, "lat": 38.921564000000004, "bike_id": "e04fe619704d5c0daad44265d3d070c4", "is_reserved": 0}, {"fusion_lat": 0.0, "type": "electric_scooter", "name": "636bd0a6472d9c7bc0209cc89d87471b", "is_disabled": 0, "lon": -77.04076366666666, "fusion_lon": 0.0, "rental_uris": {"ios": "https://dc.lft.to/lastmile_qr_scan", "android": "https://dc.lft.to/lastmile_qr_scan"}, "lat": 38.9170735, "bike_id": "636bd0a6472d9c7bc0209cc89d87471b", "is_reserved": 0}, {"fusion_lat": 0.0, "type": "electric_scooter", "name": "ab1487fa39a83bac5d29d169ba1eb196", "is_disabled": 0, "lon": -77.01203133333334, "fusion_lon": 0.0, "rental_uris": {"ios": "https://dc.lft.to/lastmile_qr_scan", "android": "https://dc.lft.to/lastmile_qr_scan"}, "lat": 38.9119925, "bike_id": "ab1487fa39a83bac5d29d169ba1eb196", "is_reserved": 0}, {"fusion_lat": 0.0, "type": "electric_scooter", "name": "a199c2e6e17fcf2ed2582ae36e128aa7", "is_disabled": 0, "lon": -76.9838375, "fusion_lon": 0.0, "rental_uris": {"ios": "https://dc.lft.to/lastmile_qr_scan", "android": "https://dc.lft.to/lastmile_qr_scan"}, "lat": 38.879569000000004, "bike_id": "a199c2e6e17fcf2ed2582ae36e128aa7", "is_reserved": 0}, {"fusion_lat": 0.0, "type": "electric_scooter", "name": "d2ffae45c6aa34bfd83e0460d838432d", "is_disabled": 0, "lon": -77.04319266666667, "fusion_lon": 0.0, "rental_uris": {"ios": "https://dc.lft.to/lastmile_qr_scan", "android": "https://dc.lft.to/lastmile_qr_scan"}, "lat": 38.9188185, "bike_id": "d2ffae45c6aa34bfd83e0460d838432d", "is_reserved": 0}, {"fusion_lat": 0.0, "type": "electric_scooter", "name": "7f15ac4fa5a2301f0e5d8026dd4e4dce", "is_disabled": 0, "lon": -77.04034116666666, "fusion_lon": 0.0, "rental_uris": {"ios": "https://dc.lft.to/lastmile_qr_scan", "android": "https://dc.lft.to/lastmile_qr_scan"}, "lat": 38.8985335, "bike_id": "7f15ac4fa5a2301f0e5d8026dd4e4dce", "is_reserved": 0}, {"fusion_lat": 0.0, "type": "electric_bike", "name": "3d5292afdfaf6a348dd9275673f5afcc", "is_disabled": 0, "lon": -76.98117266666667, "fusion_lon": 0.0, "rental_uris": {"ios": "https://dc.lft.to/lastmile_qr_scan", "android": "https://dc.lft.to/lastmile_qr_scan"}, "lat": 38.94573283333333, "bike_id": "3d5292afdfaf6a348dd9275673f5afcc", "is_reserved": 0}, {"fusion_lat": 0.0, "type": "electric_scooter", "name": "7585d9af5b6bf633af79ce6321d409af", "is_disabled": 0, "lon": -77.0272885, "fusion_lon": 0.0, "rental_uris": {"ios": "https://dc.lft.to/lastmile_qr_scan", "android": "https://dc.lft.to/lastmile_qr_scan"}, "lat": 38.93250966666667, "bike_id": "7585d9af5b6bf633af79ce6321d409af", "is_reserved": 0}, {"fusion_lat": 0.0, "type": "electric_scooter", "name": "5cae28b0b192033c2fb21c05c6a09d08", "is_disabled": 0, "lon": -77.08250333333334, "fusion_lon": 0.0, "rental_uris": {"ios": "https://dc.lft.to/lastmile_qr_scan", "android": "https://dc.lft.to/lastmile_qr_scan"}, "lat": 38.9073965, "bike_id": "5cae28b0b192033c2fb21c05c6a09d08", "is_reserved": 0}, {"fusion_lat": 0.0, "type": "electric_scooter", "name": "998075f9286d50c04399130f94812d11", "is_disabled": 0, "lon": -77.03179466666667, "fusion_lon": 0.0, "rental_uris": {"ios": "https://dc.lft.to/lastmile_qr_scan", "android": "https://dc.lft.to/lastmile_qr_scan"}, "lat": 38.907305, "bike_id": "998075f9286d50c04399130f94812d11", "is_reserved": 0}, {"fusion_lat": 0.0, "type": "electric_scooter", "name": "9ba4f539e95e524611bf6d182bae64ef", "is_disabled": 0, "lon": -77.0240235, "fusion_lon": 0.0, "rental_uris": {"ios": "https://dc.lft.to/lastmile_qr_scan", "android": "https://dc.lft.to/lastmile_qr_scan"}, "lat": 38.91700933333333, "bike_id": "9ba4f539e95e524611bf6d182bae64ef", "is_reserved": 0}, {"fusion_lat": 0.0, "type": "electric_scooter", "name": "d911feb12e3cd6853c42211ab12b2b57", "is_disabled": 0, "lon": -77.0699055, "fusion_lon": 0.0, "rental_uris": {"ios": "https://dc.lft.to/lastmile_qr_scan", "android": "https://dc.lft.to/lastmile_qr_scan"}, "lat": 38.905875, "bike_id": "d911feb12e3cd6853c42211ab12b2b57", "is_reserved": 0}, {"fusion_lat": 0.0, "type": "electric_scooter", "name": "4dee16f7e58d5957d605366dfc1e4c0d", "is_disabled": 0, "lon": -77.078493, "fusion_lon": 0.0, "rental_uris": {"ios": "https://dc.lft.to/lastmile_qr_scan", "android": "https://dc.lft.to/lastmile_qr_scan"}, "lat": 38.945979333333334, "bike_id": "4dee16f7e58d5957d605366dfc1e4c0d", "is_reserved": 0}, {"fusion_lat": 0.0, "type": "electric_scooter", "name": "03d7d9c315fceddc0c42fd9032b8ddc5", "is_disabled": 0, "lon": -77.0328285, "fusion_lon": 0.0, "rental_uris": {"ios": "https://dc.lft.to/lastmile_qr_scan", "android": "https://dc.lft.to/lastmile_qr_scan"}, "lat": 38.936385, "bike_id": "03d7d9c315fceddc0c42fd9032b8ddc5", "is_reserved": 0}, {"fusion_lat": 0.0, "type": "electric_scooter", "name": "8bbd4ef68b552ced0e3edc04b7558bd9", "is_disabled": 0, "lon": -77.03441116666667, "fusion_lon": 0.0, "rental_uris": {"ios": "https://dc.lft.to/lastmile_qr_scan", "android": "https://dc.lft.to/lastmile_qr_scan"}, "lat": 38.91802883333333, "bike_id": "8bbd4ef68b552ced0e3edc04b7558bd9", "is_reserved": 0}, {"fusion_lat": 0.0, "type": "electric_scooter", "name": "402ee1a8c45f621bff9a422e1c710589", "is_disabled": 0, "lon": -77.02060116666667, "fusion_lon": 0.0, "rental_uris": {"ios": "https://dc.lft.to/lastmile_qr_scan", "android": "https://dc.lft.to/lastmile_qr_scan"}, "lat": 38.92371883333333, "bike_id": "402ee1a8c45f621bff9a422e1c710589", "is_reserved": 0}, {"fusion_lat": 0.0, "type": "electric_scooter", "name": "1bb622faa5e178dfd5fcf324f9cb4285", "is_disabled": 0, "lon": -77.0363535, "fusion_lon": 0.0, "rental_uris": {"ios": "https://dc.lft.to/lastmile_qr_scan", "android": "https://dc.lft.to/lastmile_qr_scan"}, "lat": 38.9270155, "bike_id": "1bb622faa5e178dfd5fcf324f9cb4285", "is_reserved": 0}, {"fusion_lat": 0.0, "type": "electric_scooter", "name": "b312216a2a6f36f5c0c082f3a0070ad3", "is_disabled": 0, "lon": -77.035546, "fusion_lon": 0.0, "rental_uris": {"ios": "https://dc.lft.to/lastmile_qr_scan", "android": "https://dc.lft.to/lastmile_qr_scan"}, "lat": 38.918237, "bike_id": "b312216a2a6f36f5c0c082f3a0070ad3", "is_reserved": 0}, {"fusion_lat": 0.0, "type": "electric_scooter", "name": "cddb60b17eb39a0d1356738a5c49a22d", "is_disabled": 0, "lon": -77.032621, "fusion_lon": 0.0, "rental_uris": {"ios": "https://dc.lft.to/lastmile_qr_scan", "android": "https://dc.lft.to/lastmile_qr_scan"}, "lat": 38.93301133333333, "bike_id": "cddb60b17eb39a0d1356738a5c49a22d", "is_reserved": 0}, {"fusion_lat": 0.0, "type": "electric_scooter", "name": "def5fc3bf9d7454c3127f3049a3a2c42", "is_disabled": 0, "lon": -77.019491, "fusion_lon": 0.0, "rental_uris": {"ios": "https://dc.lft.to/lastmile_qr_scan", "android": "https://dc.lft.to/lastmile_qr_scan"}, "lat": 38.92256016666666, "bike_id": "def5fc3bf9d7454c3127f3049a3a2c42", "is_reserved": 0}, {"fusion_lat": 0.0, "type": "electric_scooter", "name": "5da5aa1c0148adc6de9b6cc3604f7291", "is_disabled": 0, "lon": -77.0469575, "fusion_lon": 0.0, "rental_uris": {"ios": "https://dc.lft.to/lastmile_qr_scan", "android": "https://dc.lft.to/lastmile_qr_scan"}, "lat": 38.90252816666667, "bike_id": "5da5aa1c0148adc6de9b6cc3604f7291", "is_reserved": 0}, {"fusion_lat": 0.0, "type": "electric_scooter", "name": "6c8a50fdc82e7a332e0d672b0c973419", "is_disabled": 0, "lon": -77.03504183333334, "fusion_lon": 0.0, "rental_uris": {"ios": "https://dc.lft.to/lastmile_qr_scan", "android": "https://dc.lft.to/lastmile_qr_scan"}, "lat": 38.91878116666667, "bike_id": "6c8a50fdc82e7a332e0d672b0c973419", "is_reserved": 0}, {"fusion_lat": 0.0, "type": "electric_scooter", "name": "464c99eaa9a92a1f504a1c7c32f0402b", "is_disabled": 0, "lon": -77.0256725, "fusion_lon": 0.0, "rental_uris": {"ios": "https://dc.lft.to/lastmile_qr_scan", "android": "https://dc.lft.to/lastmile_qr_scan"}, "lat": 38.94192816666666, "bike_id": "464c99eaa9a92a1f504a1c7c32f0402b", "is_reserved": 0}, {"fusion_lat": 0.0, "type": "electric_scooter", "name": "4f980e53898cb79844dae285fc800396", "is_disabled": 0, "lon": -77.0532295, "fusion_lon": 0.0, "rental_uris": {"ios": "https://dc.lft.to/lastmile_qr_scan", "android": "https://dc.lft.to/lastmile_qr_scan"}, "lat": 38.915519833333335, "bike_id": "4f980e53898cb79844dae285fc800396", "is_reserved": 0}, {"fusion_lat": 0.0, "type": "electric_bike", "name": "7aaeb6f10f2868b17f2a7202bcd6ed25", "is_disabled": 0, "lon": -77.09699316666666, "fusion_lon": 0.0, "rental_uris": {"ios": "https://dc.lft.to/lastmile_qr_scan", "android": "https://dc.lft.to/lastmile_qr_scan"}, "lat": 38.8867935, "bike_id": "7aaeb6f10f2868b17f2a7202bcd6ed25", "is_reserved": 0}, {"fusion_lat": 0.0, "type": "electric_scooter", "name": "e67c852e98706e03f70eebf953dccd13", "is_disabled": 0, "lon": -77.039655, "fusion_lon": 0.0, "rental_uris": {"ios": "https://dc.lft.to/lastmile_qr_scan", "android": "https://dc.lft.to/lastmile_qr_scan"}, "lat": 38.89891933333333, "bike_id": "e67c852e98706e03f70eebf953dccd13", "is_reserved": 0}, {"fusion_lat": 0.0, "type": "electric_scooter", "name": "5b18d9d14c8fda79fc3f0df69a3df447", "is_disabled": 0, "lon": -76.9381575, "fusion_lon": 0.0, "rental_uris": {"ios": "https://dc.lft.to/lastmile_qr_scan", "android": "https://dc.lft.to/lastmile_qr_scan"}, "lat": 38.89842616666667, "bike_id": "5b18d9d14c8fda79fc3f0df69a3df447", "is_reserved": 0}, {"fusion_lat": 0.0, "type": "electric_scooter", "name": "cea5d1c3ae73d07d7c5ec327049445d8", "is_disabled": 0, "lon": -77.0453095, "fusion_lon": 0.0, "rental_uris": {"ios": "https://dc.lft.to/lastmile_qr_scan", "android": "https://dc.lft.to/lastmile_qr_scan"}, "lat": 38.89956183333334, "bike_id": "cea5d1c3ae73d07d7c5ec327049445d8", "is_reserved": 0}, {"fusion_lat": 0.0, "type": "electric_scooter", "name": "56f4920a306432be11231433ae91c6bf", "is_disabled": 0, "lon": -76.99934866666666, "fusion_lon": 0.0, "rental_uris": {"ios": "https://dc.lft.to/lastmile_qr_scan", "android": "https://dc.lft.to/lastmile_qr_scan"}, "lat": 38.8916565, "bike_id": "56f4920a306432be11231433ae91c6bf", "is_reserved": 0}, {"fusion_lat": 0.0, "type": "electric_bike", "name": "41e87cf15b86162b5d8d6321b32cb3cd", "is_disabled": 0, "lon": -77.004107, "fusion_lon": 0.0, "rental_uris": {"ios": "https://dc.lft.to/lastmile_qr_scan", "android": "https://dc.lft.to/lastmile_qr_scan"}, "lat": 38.98541616666667, "bike_id": "41e87cf15b86162b5d8d6321b32cb3cd", "is_reserved": 0}, {"fusion_lat": 0.0, "type": "electric_scooter", "name": "3751765b447942ea1931bd07245efa1b", "is_disabled": 0, "lon": -77.024011, "fusion_lon": 0.0, "rental_uris": {"ios": "https://dc.lft.to/lastmile_qr_scan", "android": "https://dc.lft.to/lastmile_qr_scan"}, "lat": 38.92397533333333, "bike_id": "3751765b447942ea1931bd07245efa1b", "is_reserved": 0}, {"fusion_lat": 0.0, "type": "electric_bike", "name": "786cc7875d7100b1481c6e076473e7f4", "is_disabled": 0, "lon": -76.99100466666667, "fusion_lon": 0.0, "rental_uris": {"ios": "https://dc.lft.to/lastmile_qr_scan", "android": "https://dc.lft.to/lastmile_qr_scan"}, "lat": 38.804796333333336, "bike_id": "786cc7875d7100b1481c6e076473e7f4", "is_reserved": 0}, {"fusion_lat": 0.0, "type": "electric_scooter", "name": "d198e8453c669b06515b2abdac7044a0", "is_disabled": 0, "lon": -77.03430116666667, "fusion_lon": 0.0, "rental_uris": {"ios": "https://dc.lft.to/lastmile_qr_scan", "android": "https://dc.lft.to/lastmile_qr_scan"}, "lat": 38.907329, "bike_id": "d198e8453c669b06515b2abdac7044a0", "is_reserved": 0}, {"fusion_lat": 0.0, "type": "electric_scooter", "name": "6042b83b55a43741098880ca9950e643", "is_disabled": 0, "lon": -77.031885, "fusion_lon": 0.0, "rental_uris": {"ios": "https://dc.lft.to/lastmile_qr_scan", "android": "https://dc.lft.to/lastmile_qr_scan"}, "lat": 38.916656833333334, "bike_id": "6042b83b55a43741098880ca9950e643", "is_reserved": 0}, {"fusion_lat": 0.0, "type": "electric_scooter", "name": "dffde21ddae3c19efea2c8d5a74b59d1", "is_disabled": 0, "lon": -76.99639566666667, "fusion_lon": 0.0, "rental_uris": {"ios": "https://dc.lft.to/lastmile_qr_scan", "android": "https://dc.lft.to/lastmile_qr_scan"}, "lat": 38.900540666666664, "bike_id": "dffde21ddae3c19efea2c8d5a74b59d1", "is_reserved": 0}, {"fusion_lat": 0.0, "type": "electric_bike", "name": "2f73ea739b6aab9d2aaa1e7543a2f939", "is_disabled": 0, "lon": -77.09826083333333, "fusion_lon": 0.0, "rental_uris": {"ios": "https://dc.lft.to/lastmile_qr_scan", "android": "https://dc.lft.to/lastmile_qr_scan"}, "lat": 38.85022883333333, "bike_id": "2f73ea739b6aab9d2aaa1e7543a2f939", "is_reserved": 0}, {"fusion_lat": 0.0, "type": "electric_scooter", "name": "9e11db36f438b517b15b17b580c0e299", "is_disabled": 0, "lon": -77.03311766666667, "fusion_lon": 0.0, "rental_uris": {"ios": "https://dc.lft.to/lastmile_qr_scan", "android": "https://dc.lft.to/lastmile_qr_scan"}, "lat": 38.9215885, "bike_id": "9e11db36f438b517b15b17b580c0e299", "is_reserved": 0}, {"fusion_lat": 0.0, "type": "electric_scooter", "name": "f485e459e183ca6788073ffbd9589808", "is_disabled": 0, "lon": -77.01332283333333, "fusion_lon": 0.0, "rental_uris": {"ios": "https://dc.lft.to/lastmile_qr_scan", "android": "https://dc.lft.to/lastmile_qr_scan"}, "lat": 38.896151833333334, "bike_id": "f485e459e183ca6788073ffbd9589808", "is_reserved": 0}, {"fusion_lat": 0.0, "type": "electric_scooter", "name": "1f49adfc3698403117be44c814c73994", "is_disabled": 0, "lon": -77.03385333333334, "fusion_lon": 0.0, "rental_uris": {"ios": "https://dc.lft.to/lastmile_qr_scan", "android": "https://dc.lft.to/lastmile_qr_scan"}, "lat": 38.921623333333336, "bike_id": "1f49adfc3698403117be44c814c73994", "is_reserved": 0}, {"fusion_lat": 0.0, "type": "electric_scooter", "name": "f99193994c69dae19fea3fd330bb290b", "is_disabled": 0, "lon": -77.0209, "fusion_lon": 0.0, "rental_uris": {"ios": "https://dc.lft.to/lastmile_qr_scan", "android": "https://dc.lft.to/lastmile_qr_scan"}, "lat": 38.92701733333333, "bike_id": "f99193994c69dae19fea3fd330bb290b", "is_reserved": 0}, {"fusion_lat": 0.0, "type": "electric_bike", "name": "e39d0b7f7b34656a1814ae020da29a26", "is_disabled": 0, "lon": -77.04081516666666, "fusion_lon": 0.0, "rental_uris": {"ios": "https://dc.lft.to/lastmile_qr_scan", "android": "https://dc.lft.to/lastmile_qr_scan"}, "lat": 38.83065116666667, "bike_id": "e39d0b7f7b34656a1814ae020da29a26", "is_reserved": 0}, {"fusion_lat": 0.0, "type": "electric_scooter", "name": "cd27226a3c0914898330226d6f8893cd", "is_disabled": 0, "lon": -77.0581385, "fusion_lon": 0.0, "rental_uris": {"ios": "https://dc.lft.to/lastmile_qr_scan", "android": "https://dc.lft.to/lastmile_qr_scan"}, "lat": 38.9290975, "bike_id": "cd27226a3c0914898330226d6f8893cd", "is_reserved": 0}, {"fusion_lat": 0.0, "type": "electric_scooter", "name": "3cc00e258d7ede25d9f7f538f3cee096", "is_disabled": 0, "lon": -77.03324983333333, "fusion_lon": 0.0, "rental_uris": {"ios": "https://dc.lft.to/lastmile_qr_scan", "android": "https://dc.lft.to/lastmile_qr_scan"}, "lat": 38.89878916666667, "bike_id": "3cc00e258d7ede25d9f7f538f3cee096", "is_reserved": 0}, {"fusion_lat": 0.0, "type": "electric_scooter", "name": "a46869a5fe7dac9c7e16a3cc205b65cc", "is_disabled": 0, "lon": -77.019254, "fusion_lon": 0.0, "rental_uris": {"ios": "https://dc.lft.to/lastmile_qr_scan", "android": "https://dc.lft.to/lastmile_qr_scan"}, "lat": 38.92369333333333, "bike_id": "a46869a5fe7dac9c7e16a3cc205b65cc", "is_reserved": 0}, {"fusion_lat": 0.0, "type": "electric_scooter", "name": "4beaf628394a2902bcb9fdd3a5e1ee9f", "is_disabled": 0, "lon": -77.07172116666666, "fusion_lon": 0.0, "rental_uris": {"ios": "https://dc.lft.to/lastmile_qr_scan", "android": "https://dc.lft.to/lastmile_qr_scan"}, "lat": 38.90772416666667, "bike_id": "4beaf628394a2902bcb9fdd3a5e1ee9f", "is_reserved": 0}, {"fusion_lat": 0.0, "type": "electric_scooter", "name": "ea28405ea6f6e72a11d368324abac59a", "is_disabled": 0, "lon": -77.03261766666667, "fusion_lon": 0.0, "rental_uris": {"ios": "https://dc.lft.to/lastmile_qr_scan", "android": "https://dc.lft.to/lastmile_qr_scan"}, "lat": 38.92899083333333, "bike_id": "ea28405ea6f6e72a11d368324abac59a", "is_reserved": 0}, {"fusion_lat": 0.0, "type": "electric_scooter", "name": "6c2d2b5795a9293742f4e29c0f37ea4f", "is_disabled": 0, "lon": -77.034736, "fusion_lon": 0.0, "rental_uris": {"ios": "https://dc.lft.to/lastmile_qr_scan", "android": "https://dc.lft.to/lastmile_qr_scan"}, "lat": 38.90252066666667, "bike_id": "6c2d2b5795a9293742f4e29c0f37ea4f", "is_reserved": 0}, {"fusion_lat": 0.0, "type": "electric_scooter", "name": "61dee4677b603107ec08040b7f034550", "is_disabled": 0, "lon": -76.99731116666666, "fusion_lon": 0.0, "rental_uris": {"ios": "https://dc.lft.to/lastmile_qr_scan", "android": "https://dc.lft.to/lastmile_qr_scan"}, "lat": 38.84543, "bike_id": "61dee4677b603107ec08040b7f034550", "is_reserved": 0}, {"fusion_lat": 0.0, "type": "electric_scooter", "name": "2f1b7118fd9d8318d8ee88bd17f5bfeb", "is_disabled": 0, "lon": -77.0119345, "fusion_lon": 0.0, "rental_uris": {"ios": "https://dc.lft.to/lastmile_qr_scan", "android": "https://dc.lft.to/lastmile_qr_scan"}, "lat": 38.900136, "bike_id": "2f1b7118fd9d8318d8ee88bd17f5bfeb", "is_reserved": 0}, {"fusion_lat": 0.0, "type": "electric_scooter", "name": "77e29117e13dcffaa5b13eed6343373a", "is_disabled": 0, "lon": -77.01299516666667, "fusion_lon": 0.0, "rental_uris": {"ios": "https://dc.lft.to/lastmile_qr_scan", "android": "https://dc.lft.to/lastmile_qr_scan"}, "lat": 38.87772966666667, "bike_id": "77e29117e13dcffaa5b13eed6343373a", "is_reserved": 0}, {"fusion_lat": 0.0, "type": "electric_scooter", "name": "2d1f1e1319a42297ef1bf99977e577ec", "is_disabled": 0, "lon": -77.0325025, "fusion_lon": 0.0, "rental_uris": {"ios": "https://dc.lft.to/lastmile_qr_scan", "android": "https://dc.lft.to/lastmile_qr_scan"}, "lat": 38.91818516666667, "bike_id": "2d1f1e1319a42297ef1bf99977e577ec", "is_reserved": 0}, {"fusion_lat": 0.0, "type": "electric_scooter", "name": "be9d5c21185c9e17dfd03eb42668c2a3", "is_disabled": 0, "lon": -77.01886866666666, "fusion_lon": 0.0, "rental_uris": {"ios": "https://dc.lft.to/lastmile_qr_scan", "android": "https://dc.lft.to/lastmile_qr_scan"}, "lat": 38.897493, "bike_id": "be9d5c21185c9e17dfd03eb42668c2a3", "is_reserved": 0}, {"fusion_lat": 0.0, "type": "electric_scooter", "name": "00e6d00c6750e1fc509fc0cde2d399d6", "is_disabled": 0, "lon": -77.04996616666666, "fusion_lon": 0.0, "rental_uris": {"ios": "https://dc.lft.to/lastmile_qr_scan", "android": "https://dc.lft.to/lastmile_qr_scan"}, "lat": 38.900577166666665, "bike_id": "00e6d00c6750e1fc509fc0cde2d399d6", "is_reserved": 0}, {"fusion_lat": 0.0, "type": "electric_scooter", "name": "94b810ac1be44b42f7e4465465bdc94a", "is_disabled": 0, "lon": -77.017913, "fusion_lon": 0.0, "rental_uris": {"ios": "https://dc.lft.to/lastmile_qr_scan", "android": "https://dc.lft.to/lastmile_qr_scan"}, "lat": 38.900464166666666, "bike_id": "94b810ac1be44b42f7e4465465bdc94a", "is_reserved": 0}, {"fusion_lat": 0.0, "type": "electric_scooter", "name": "c1105957e2bd7a97f4df6736fe27cb46", "is_disabled": 0, "lon": -77.02073216666666, "fusion_lon": 0.0, "rental_uris": {"ios": "https://dc.lft.to/lastmile_qr_scan", "android": "https://dc.lft.to/lastmile_qr_scan"}, "lat": 38.88188916666667, "bike_id": "c1105957e2bd7a97f4df6736fe27cb46", "is_reserved": 0}, {"fusion_lat": 0.0, "type": "electric_scooter", "name": "c4910c699c33962d099ff2561161eccb", "is_disabled": 0, "lon": -77.0400595, "fusion_lon": 0.0, "rental_uris": {"ios": "https://dc.lft.to/lastmile_qr_scan", "android": "https://dc.lft.to/lastmile_qr_scan"}, "lat": 38.934213, "bike_id": "c4910c699c33962d099ff2561161eccb", "is_reserved": 0}, {"fusion_lat": 0.0, "type": "electric_scooter", "name": "b19b70fb9d630b398e4176cbdc719460", "is_disabled": 0, "lon": -77.038587, "fusion_lon": 0.0, "rental_uris": {"ios": "https://dc.lft.to/lastmile_qr_scan", "android": "https://dc.lft.to/lastmile_qr_scan"}, "lat": 38.909754166666666, "bike_id": "b19b70fb9d630b398e4176cbdc719460", "is_reserved": 0}, {"fusion_lat": 0.0, "type": "electric_scooter", "name": "ddbd0bdbfaaaf6dc9bd63bea5ef2f09b", "is_disabled": 0, "lon": -77.0278305, "fusion_lon": 0.0, "rental_uris": {"ios": "https://dc.lft.to/lastmile_qr_scan", "android": "https://dc.lft.to/lastmile_qr_scan"}, "lat": 38.96189183333333, "bike_id": "ddbd0bdbfaaaf6dc9bd63bea5ef2f09b", "is_reserved": 0}, {"fusion_lat": 0.0, "type": "electric_scooter", "name": "e210a9dd0b3117713b1791d4bb51c802", "is_disabled": 0, "lon": -77.01884283333334, "fusion_lon": 0.0, "rental_uris": {"ios": "https://dc.lft.to/lastmile_qr_scan", "android": "https://dc.lft.to/lastmile_qr_scan"}, "lat": 38.9056185, "bike_id": "e210a9dd0b3117713b1791d4bb51c802", "is_reserved": 0}, {"fusion_lat": 0.0, "type": "electric_scooter", "name": "3ced744c6d6b360029c590515a46a855", "is_disabled": 0, "lon": -77.03175333333333, "fusion_lon": 0.0, "rental_uris": {"ios": "https://dc.lft.to/lastmile_qr_scan", "android": "https://dc.lft.to/lastmile_qr_scan"}, "lat": 38.91026016666667, "bike_id": "3ced744c6d6b360029c590515a46a855", "is_reserved": 0}, {"fusion_lat": 0.0, "type": "electric_scooter", "name": "19e05aef18cbd48fe3e88298120673e2", "is_disabled": 0, "lon": -76.93634783333333, "fusion_lon": 0.0, "rental_uris": {"ios": "https://dc.lft.to/lastmile_qr_scan", "android": "https://dc.lft.to/lastmile_qr_scan"}, "lat": 38.88354266666666, "bike_id": "19e05aef18cbd48fe3e88298120673e2", "is_reserved": 0}, {"fusion_lat": 0.0, "type": "electric_scooter", "name": "9b58c9a6c93a8bf86fe2cb5bd72a73a9", "is_disabled": 0, "lon": -77.00778566666666, "fusion_lon": 0.0, "rental_uris": {"ios": "https://dc.lft.to/lastmile_qr_scan", "android": "https://dc.lft.to/lastmile_qr_scan"}, "lat": 38.875763166666665, "bike_id": "9b58c9a6c93a8bf86fe2cb5bd72a73a9", "is_reserved": 0}, {"fusion_lat": 0.0, "type": "electric_bike", "name": "126f96229f393d9f4d63fcf28a7b0056", "is_disabled": 0, "lon": -76.99374283333333, "fusion_lon": 0.0, "rental_uris": {"ios": "https://dc.lft.to/lastmile_qr_scan", "android": "https://dc.lft.to/lastmile_qr_scan"}, "lat": 38.991009166666664, "bike_id": "126f96229f393d9f4d63fcf28a7b0056", "is_reserved": 0}, {"fusion_lat": 0.0, "type": "electric_scooter", "name": "593477a38fd652f136b087a5d3a72341", "is_disabled": 0, "lon": -77.02679033333334, "fusion_lon": 0.0, "rental_uris": {"ios": "https://dc.lft.to/lastmile_qr_scan", "android": "https://dc.lft.to/lastmile_qr_scan"}, "lat": 38.90216733333333, "bike_id": "593477a38fd652f136b087a5d3a72341", "is_reserved": 0}, {"fusion_lat": 0.0, "type": "electric_scooter", "name": "4ee852726079a36d4aa6801850f5f984", "is_disabled": 0, "lon": -76.9978775, "fusion_lon": 0.0, "rental_uris": {"ios": "https://dc.lft.to/lastmile_qr_scan", "android": "https://dc.lft.to/lastmile_qr_scan"}, "lat": 38.922975666666666, "bike_id": "4ee852726079a36d4aa6801850f5f984", "is_reserved": 0}, {"fusion_lat": 0.0, "type": "electric_scooter", "name": "147df3501538830f8601c354ad990b42", "is_disabled": 0, "lon": -76.9997045, "fusion_lon": 0.0, "rental_uris": {"ios": "https://dc.lft.to/lastmile_qr_scan", "android": "https://dc.lft.to/lastmile_qr_scan"}, "lat": 38.87500033333333, "bike_id": "147df3501538830f8601c354ad990b42", "is_reserved": 0}, {"fusion_lat": 0.0, "type": "electric_scooter", "name": "a9ef2e5b9bda8e648c168e959a645dd7", "is_disabled": 0, "lon": -77.01454083333333, "fusion_lon": 0.0, "rental_uris": {"ios": "https://dc.lft.to/lastmile_qr_scan", "android": "https://dc.lft.to/lastmile_qr_scan"}, "lat": 38.8742995, "bike_id": "a9ef2e5b9bda8e648c168e959a645dd7", "is_reserved": 0}, {"fusion_lat": 0.0, "type": "electric_scooter", "name": "66209dc780817a00b72800d5e2a4dce8", "is_disabled": 0, "lon": -77.01907483333333, "fusion_lon": 0.0, "rental_uris": {"ios": "https://dc.lft.to/lastmile_qr_scan", "android": "https://dc.lft.to/lastmile_qr_scan"}, "lat": 38.92339883333333, "bike_id": "66209dc780817a00b72800d5e2a4dce8", "is_reserved": 0}, {"fusion_lat": 0.0, "type": "electric_scooter", "name": "378b668c4c2ca219e56ddc3b36cfe9c1", "is_disabled": 0, "lon": -77.0211725, "fusion_lon": 0.0, "rental_uris": {"ios": "https://dc.lft.to/lastmile_qr_scan", "android": "https://dc.lft.to/lastmile_qr_scan"}, "lat": 38.9236525, "bike_id": "378b668c4c2ca219e56ddc3b36cfe9c1", "is_reserved": 0}, {"fusion_lat": 0.0, "type": "electric_bike", "name": "266882d567d3433dfbe24f76b73cff9c", "is_disabled": 0, "lon": -76.94231583333334, "fusion_lon": 0.0, "rental_uris": {"ios": "https://dc.lft.to/lastmile_qr_scan", "android": "https://dc.lft.to/lastmile_qr_scan"}, "lat": 38.89061916666667, "bike_id": "266882d567d3433dfbe24f76b73cff9c", "is_reserved": 0}, {"fusion_lat": 0.0, "type": "electric_scooter", "name": "24d88728980fdb21c610bdb106c35769", "is_disabled": 0, "lon": -77.041922, "fusion_lon": 0.0, "rental_uris": {"ios": "https://dc.lft.to/lastmile_qr_scan", "android": "https://dc.lft.to/lastmile_qr_scan"}, "lat": 38.920473, "bike_id": "24d88728980fdb21c610bdb106c35769", "is_reserved": 0}, {"fusion_lat": 0.0, "type": "electric_scooter", "name": "ada2c6da890732e0473b270b9fff2e45", "is_disabled": 0, "lon": -77.014446, "fusion_lon": 0.0, "rental_uris": {"ios": "https://dc.lft.to/lastmile_qr_scan", "android": "https://dc.lft.to/lastmile_qr_scan"}, "lat": 38.90968983333333, "bike_id": "ada2c6da890732e0473b270b9fff2e45", "is_reserved": 0}, {"fusion_lat": 0.0, "type": "electric_scooter", "name": "e0e7507dbaedc02f5acdcaf66d46092f", "is_disabled": 0, "lon": -76.970346, "fusion_lon": 0.0, "rental_uris": {"ios": "https://dc.lft.to/lastmile_qr_scan", "android": "https://dc.lft.to/lastmile_qr_scan"}, "lat": 38.87318466666667, "bike_id": "e0e7507dbaedc02f5acdcaf66d46092f", "is_reserved": 0}, {"fusion_lat": 0.0, "type": "electric_bike", "name": "b6968c23c9b6cf57a1c00c3c634c820e", "is_disabled": 0, "lon": -77.06700733333334, "fusion_lon": 0.0, "rental_uris": {"ios": "https://dc.lft.to/lastmile_qr_scan", "android": "https://dc.lft.to/lastmile_qr_scan"}, "lat": 38.83170783333333, "bike_id": "b6968c23c9b6cf57a1c00c3c634c820e", "is_reserved": 0}, {"fusion_lat": 0.0, "type": "electric_scooter", "name": "63b9d7252cd2a47996571246776b5e7e", "is_disabled": 0, "lon": -77.012623, "fusion_lon": 0.0, "rental_uris": {"ios": "https://dc.lft.to/lastmile_qr_scan", "android": "https://dc.lft.to/lastmile_qr_scan"}, "lat": 38.897232333333335, "bike_id": "63b9d7252cd2a47996571246776b5e7e", "is_reserved": 0}, {"fusion_lat": 0.0, "type": "electric_scooter", "name": "3627b94973b720bdfc5aae74a65b6414", "is_disabled": 0, "lon": -77.02970216666667, "fusion_lon": 0.0, "rental_uris": {"ios": "https://dc.lft.to/lastmile_qr_scan", "android": "https://dc.lft.to/lastmile_qr_scan"}, "lat": 38.9155575, "bike_id": "3627b94973b720bdfc5aae74a65b6414", "is_reserved": 0}, {"fusion_lat": 0.0, "type": "electric_scooter", "name": "13d24dcebe9f62685f1ea4aa47e22ab7", "is_disabled": 0, "lon": -77.031662, "fusion_lon": 0.0, "rental_uris": {"ios": "https://dc.lft.to/lastmile_qr_scan", "android": "https://dc.lft.to/lastmile_qr_scan"}, "lat": 38.923847, "bike_id": "13d24dcebe9f62685f1ea4aa47e22ab7", "is_reserved": 0}, {"fusion_lat": 0.0, "type": "electric_scooter", "name": "754dec926907029730d225992615d146", "is_disabled": 0, "lon": -77.00336133333333, "fusion_lon": 0.0, "rental_uris": {"ios": "https://dc.lft.to/lastmile_qr_scan", "android": "https://dc.lft.to/lastmile_qr_scan"}, "lat": 38.90265933333333, "bike_id": "754dec926907029730d225992615d146", "is_reserved": 0}, {"fusion_lat": 0.0, "type": "electric_scooter", "name": "dd22e1ff192c3e8e6db9aa62be9593a8", "is_disabled": 0, "lon": -77.04010466666666, "fusion_lon": 0.0, "rental_uris": {"ios": "https://dc.lft.to/lastmile_qr_scan", "android": "https://dc.lft.to/lastmile_qr_scan"}, "lat": 38.8988595, "bike_id": "dd22e1ff192c3e8e6db9aa62be9593a8", "is_reserved": 0}, {"fusion_lat": 0.0, "type": "electric_scooter", "name": "e108f2caa476387b72da66de4b0617c1", "is_disabled": 0, "lon": -77.03533666666667, "fusion_lon": 0.0, "rental_uris": {"ios": "https://dc.lft.to/lastmile_qr_scan", "android": "https://dc.lft.to/lastmile_qr_scan"}, "lat": 38.907398, "bike_id": "e108f2caa476387b72da66de4b0617c1", "is_reserved": 0}, {"fusion_lat": 0.0, "type": "electric_scooter", "name": "0bea9aa7102a9f92976d4237ae2bb270", "is_disabled": 0, "lon": -77.07289683333333, "fusion_lon": 0.0, "rental_uris": {"ios": "https://dc.lft.to/lastmile_qr_scan", "android": "https://dc.lft.to/lastmile_qr_scan"}, "lat": 38.922821, "bike_id": "0bea9aa7102a9f92976d4237ae2bb270", "is_reserved": 0}, {"fusion_lat": 0.0, "type": "electric_scooter", "name": "b65220e913ec01372597d720eaf3e20d", "is_disabled": 0, "lon": -76.98895766666666, "fusion_lon": 0.0, "rental_uris": {"ios": "https://dc.lft.to/lastmile_qr_scan", "android": "https://dc.lft.to/lastmile_qr_scan"}, "lat": 38.93471683333333, "bike_id": "b65220e913ec01372597d720eaf3e20d", "is_reserved": 0}, {"fusion_lat": 0.0, "type": "electric_scooter", "name": "cd1ea5792a421bf843defa2c77010a48", "is_disabled": 0, "lon": -77.04663283333333, "fusion_lon": 0.0, "rental_uris": {"ios": "https://dc.lft.to/lastmile_qr_scan", "android": "https://dc.lft.to/lastmile_qr_scan"}, "lat": 38.903818333333334, "bike_id": "cd1ea5792a421bf843defa2c77010a48", "is_reserved": 0}, {"fusion_lat": 0.0, "type": "electric_scooter", "name": "0ab99997ed0e602fba9e22fab73aa02f", "is_disabled": 0, "lon": -77.04162033333333, "fusion_lon": 0.0, "rental_uris": {"ios": "https://dc.lft.to/lastmile_qr_scan", "android": "https://dc.lft.to/lastmile_qr_scan"}, "lat": 38.9094, "bike_id": "0ab99997ed0e602fba9e22fab73aa02f", "is_reserved": 0}, {"fusion_lat": 0.0, "type": "electric_scooter", "name": "11970ca2f09183557c47c2cba050733b", "is_disabled": 0, "lon": -77.0406995, "fusion_lon": 0.0, "rental_uris": {"ios": "https://dc.lft.to/lastmile_qr_scan", "android": "https://dc.lft.to/lastmile_qr_scan"}, "lat": 38.903871333333335, "bike_id": "11970ca2f09183557c47c2cba050733b", "is_reserved": 0}, {"fusion_lat": 0.0, "type": "electric_scooter", "name": "161c9704de58b97f40c362944b018417", "is_disabled": 0, "lon": -77.04875683333333, "fusion_lon": 0.0, "rental_uris": {"ios": "https://dc.lft.to/lastmile_qr_scan", "android": "https://dc.lft.to/lastmile_qr_scan"}, "lat": 38.90644433333333, "bike_id": "161c9704de58b97f40c362944b018417", "is_reserved": 0}, {"fusion_lat": 0.0, "type": "electric_scooter", "name": "3638c44829bfa97525e6fdc01378b273", "is_disabled": 0, "lon": -77.03470966666667, "fusion_lon": 0.0, "rental_uris": {"ios": "https://dc.lft.to/lastmile_qr_scan", "android": "https://dc.lft.to/lastmile_qr_scan"}, "lat": 38.902685166666664, "bike_id": "3638c44829bfa97525e6fdc01378b273", "is_reserved": 0}, {"fusion_lat": 0.0, "type": "electric_scooter", "name": "2c1c8a6690f12e9aaea71e4c47aa6132", "is_disabled": 0, "lon": -77.0326845, "fusion_lon": 0.0, "rental_uris": {"ios": "https://dc.lft.to/lastmile_qr_scan", "android": "https://dc.lft.to/lastmile_qr_scan"}, "lat": 38.93736233333333, "bike_id": "2c1c8a6690f12e9aaea71e4c47aa6132", "is_reserved": 0}, {"fusion_lat": 0.0, "type": "electric_scooter", "name": "33f0f3ed3be3b79f489b356b7c85ee5b", "is_disabled": 0, "lon": -77.0033355, "fusion_lon": 0.0, "rental_uris": {"ios": "https://dc.lft.to/lastmile_qr_scan", "android": "https://dc.lft.to/lastmile_qr_scan"}, "lat": 38.90267, "bike_id": "33f0f3ed3be3b79f489b356b7c85ee5b", "is_reserved": 0}, {"fusion_lat": 0.0, "type": "electric_scooter", "name": "e9fc614011a027eea0662141557a5ca7", "is_disabled": 0, "lon": -77.03179133333333, "fusion_lon": 0.0, "rental_uris": {"ios": "https://dc.lft.to/lastmile_qr_scan", "android": "https://dc.lft.to/lastmile_qr_scan"}, "lat": 38.91924216666666, "bike_id": "e9fc614011a027eea0662141557a5ca7", "is_reserved": 0}, {"fusion_lat": 0.0, "type": "electric_scooter", "name": "206688348a605e5b31133c1bc78101a1", "is_disabled": 0, "lon": -77.0269555, "fusion_lon": 0.0, "rental_uris": {"ios": "https://dc.lft.to/lastmile_qr_scan", "android": "https://dc.lft.to/lastmile_qr_scan"}, "lat": 38.90232733333333, "bike_id": "206688348a605e5b31133c1bc78101a1", "is_reserved": 0}, {"fusion_lat": 0.0, "type": "electric_scooter", "name": "3f2ba92440fa14cb16cdcfee06c29807", "is_disabled": 0, "lon": -76.94084066666667, "fusion_lon": 0.0, "rental_uris": {"ios": "https://dc.lft.to/lastmile_qr_scan", "android": "https://dc.lft.to/lastmile_qr_scan"}, "lat": 38.89123583333333, "bike_id": "3f2ba92440fa14cb16cdcfee06c29807", "is_reserved": 0}, {"fusion_lat": 0.0, "type": "electric_scooter", "name": "b6051ab735a499155d1b74b2256a7267", "is_disabled": 0, "lon": -77.02382766666666, "fusion_lon": 0.0, "rental_uris": {"ios": "https://dc.lft.to/lastmile_qr_scan", "android": "https://dc.lft.to/lastmile_qr_scan"}, "lat": 38.952756, "bike_id": "b6051ab735a499155d1b74b2256a7267", "is_reserved": 0}, {"fusion_lat": 0.0, "type": "electric_scooter", "name": "51712e54984b5e369e806a9266a82edf", "is_disabled": 0, "lon": -77.0380755, "fusion_lon": 0.0, "rental_uris": {"ios": "https://dc.lft.to/lastmile_qr_scan", "android": "https://dc.lft.to/lastmile_qr_scan"}, "lat": 38.930691833333334, "bike_id": "51712e54984b5e369e806a9266a82edf", "is_reserved": 0}, {"fusion_lat": 0.0, "type": "electric_scooter", "name": "263d9763175d5df4ce4c455ab8b45a30", "is_disabled": 0, "lon": -77.05329116666667, "fusion_lon": 0.0, "rental_uris": {"ios": "https://dc.lft.to/lastmile_qr_scan", "android": "https://dc.lft.to/lastmile_qr_scan"}, "lat": 38.90506033333333, "bike_id": "263d9763175d5df4ce4c455ab8b45a30", "is_reserved": 0}, {"fusion_lat": 0.0, "type": "electric_scooter", "name": "87ddd6ce8bc28256d38a1f1d3da76f6e", "is_disabled": 0, "lon": -77.02187083333334, "fusion_lon": 0.0, "rental_uris": {"ios": "https://dc.lft.to/lastmile_qr_scan", "android": "https://dc.lft.to/lastmile_qr_scan"}, "lat": 38.909558, "bike_id": "87ddd6ce8bc28256d38a1f1d3da76f6e", "is_reserved": 0}, {"fusion_lat": 0.0, "type": "electric_scooter", "name": "6e71e90d814f99000e20927ba850ddd5", "is_disabled": 0, "lon": -77.03937883333333, "fusion_lon": 0.0, "rental_uris": {"ios": "https://dc.lft.to/lastmile_qr_scan", "android": "https://dc.lft.to/lastmile_qr_scan"}, "lat": 38.91187683333333, "bike_id": "6e71e90d814f99000e20927ba850ddd5", "is_reserved": 0}, {"fusion_lat": 0.0, "type": "electric_scooter", "name": "b2504b1cfaf432c941fe21f53cd57e19", "is_disabled": 0, "lon": -77.032479, "fusion_lon": 0.0, "rental_uris": {"ios": "https://dc.lft.to/lastmile_qr_scan", "android": "https://dc.lft.to/lastmile_qr_scan"}, "lat": 38.931561, "bike_id": "b2504b1cfaf432c941fe21f53cd57e19", "is_reserved": 0}, {"fusion_lat": 0.0, "type": "electric_scooter", "name": "244db9a2d9df30284179a0944a4f68a8", "is_disabled": 0, "lon": -77.02799516666667, "fusion_lon": 0.0, "rental_uris": {"ios": "https://dc.lft.to/lastmile_qr_scan", "android": "https://dc.lft.to/lastmile_qr_scan"}, "lat": 38.91056916666667, "bike_id": "244db9a2d9df30284179a0944a4f68a8", "is_reserved": 0}, {"fusion_lat": 0.0, "type": "electric_scooter", "name": "738b2fe92bbf0e5d22fc5d210b6daba3", "is_disabled": 0, "lon": -77.043915, "fusion_lon": 0.0, "rental_uris": {"ios": "https://dc.lft.to/lastmile_qr_scan", "android": "https://dc.lft.to/lastmile_qr_scan"}, "lat": 38.916586333333335, "bike_id": "738b2fe92bbf0e5d22fc5d210b6daba3", "is_reserved": 0}, {"fusion_lat": 0.0, "type": "electric_scooter", "name": "4946735297e9624fa43ca36e55c612ab", "is_disabled": 0, "lon": -77.018841, "fusion_lon": 0.0, "rental_uris": {"ios": "https://dc.lft.to/lastmile_qr_scan", "android": "https://dc.lft.to/lastmile_qr_scan"}, "lat": 38.897457333333335, "bike_id": "4946735297e9624fa43ca36e55c612ab", "is_reserved": 0}, {"fusion_lat": 0.0, "type": "electric_scooter", "name": "75b0c5145dfd7e5e9ec0f3a73d41ea9f", "is_disabled": 0, "lon": -77.03091583333334, "fusion_lon": 0.0, "rental_uris": {"ios": "https://dc.lft.to/lastmile_qr_scan", "android": "https://dc.lft.to/lastmile_qr_scan"}, "lat": 38.923808, "bike_id": "75b0c5145dfd7e5e9ec0f3a73d41ea9f", "is_reserved": 0}, {"fusion_lat": 0.0, "type": "electric_scooter", "name": "6fc0b9f1f5322f27445465a8745b7928", "is_disabled": 0, "lon": -77.01948066666667, "fusion_lon": 0.0, "rental_uris": {"ios": "https://dc.lft.to/lastmile_qr_scan", "android": "https://dc.lft.to/lastmile_qr_scan"}, "lat": 38.9232975, "bike_id": "6fc0b9f1f5322f27445465a8745b7928", "is_reserved": 0}, {"fusion_lat": 0.0, "type": "electric_scooter", "name": "9506a2a60629ef985a126d2cbf79542a", "is_disabled": 0, "lon": -77.017017, "fusion_lon": 0.0, "rental_uris": {"ios": "https://dc.lft.to/lastmile_qr_scan", "android": "https://dc.lft.to/lastmile_qr_scan"}, "lat": 38.920428, "bike_id": "9506a2a60629ef985a126d2cbf79542a", "is_reserved": 0}, {"fusion_lat": 0.0, "type": "electric_scooter", "name": "2a68aee4667d6d33a0501c7d54aef6ca", "is_disabled": 0, "lon": -77.04347483333333, "fusion_lon": 0.0, "rental_uris": {"ios": "https://dc.lft.to/lastmile_qr_scan", "android": "https://dc.lft.to/lastmile_qr_scan"}, "lat": 38.910881333333336, "bike_id": "2a68aee4667d6d33a0501c7d54aef6ca", "is_reserved": 0}, {"fusion_lat": 0.0, "type": "electric_scooter", "name": "dcf5281bb7467b23a102e39246bc9d29", "is_disabled": 0, "lon": -77.03989483333334, "fusion_lon": 0.0, "rental_uris": {"ios": "https://dc.lft.to/lastmile_qr_scan", "android": "https://dc.lft.to/lastmile_qr_scan"}, "lat": 38.90176, "bike_id": "dcf5281bb7467b23a102e39246bc9d29", "is_reserved": 0}, {"fusion_lat": 0.0, "type": "electric_scooter", "name": "a96055e44c051edd1e6af701d2559876", "is_disabled": 0, "lon": -77.04463883333334, "fusion_lon": 0.0, "rental_uris": {"ios": "https://dc.lft.to/lastmile_qr_scan", "android": "https://dc.lft.to/lastmile_qr_scan"}, "lat": 38.924675666666666, "bike_id": "a96055e44c051edd1e6af701d2559876", "is_reserved": 0}, {"fusion_lat": 0.0, "type": "electric_scooter", "name": "b978b91d648e34f6667973e0d9013e94", "is_disabled": 0, "lon": -77.012812, "fusion_lon": 0.0, "rental_uris": {"ios": "https://dc.lft.to/lastmile_qr_scan", "android": "https://dc.lft.to/lastmile_qr_scan"}, "lat": 38.95661166666667, "bike_id": "b978b91d648e34f6667973e0d9013e94", "is_reserved": 0}, {"fusion_lat": 0.0, "type": "electric_scooter", "name": "374ebced62f65a84517298c338c39f20", "is_disabled": 0, "lon": -77.015472, "fusion_lon": 0.0, "rental_uris": {"ios": "https://dc.lft.to/lastmile_qr_scan", "android": "https://dc.lft.to/lastmile_qr_scan"}, "lat": 38.89166733333333, "bike_id": "374ebced62f65a84517298c338c39f20", "is_reserved": 0}, {"fusion_lat": 0.0, "type": "electric_scooter", "name": "f655b2f442955e0b7843f043552ddb78", "is_disabled": 0, "lon": -77.029832, "fusion_lon": 0.0, "rental_uris": {"ios": "https://dc.lft.to/lastmile_qr_scan", "android": "https://dc.lft.to/lastmile_qr_scan"}, "lat": 38.94300916666667, "bike_id": "f655b2f442955e0b7843f043552ddb78", "is_reserved": 0}, {"fusion_lat": 0.0, "type": "electric_scooter", "name": "297c1f10d8ea29eede9055b5842251fb", "is_disabled": 0, "lon": -77.02105183333333, "fusion_lon": 0.0, "rental_uris": {"ios": "https://dc.lft.to/lastmile_qr_scan", "android": "https://dc.lft.to/lastmile_qr_scan"}, "lat": 38.923665166666666, "bike_id": "297c1f10d8ea29eede9055b5842251fb", "is_reserved": 0}, {"fusion_lat": 0.0, "type": "electric_scooter", "name": "44f0f76c85a570e0f4296adcef826d6c", "is_disabled": 0, "lon": -77.01780383333333, "fusion_lon": 0.0, "rental_uris": {"ios": "https://dc.lft.to/lastmile_qr_scan", "android": "https://dc.lft.to/lastmile_qr_scan"}, "lat": 38.9199015, "bike_id": "44f0f76c85a570e0f4296adcef826d6c", "is_reserved": 0}, {"fusion_lat": 0.0, "type": "electric_bike", "name": "2d066a190e527d5fe114fcfb43a61b35", "is_disabled": 0, "lon": -77.01209633333333, "fusion_lon": 0.0, "rental_uris": {"ios": "https://dc.lft.to/lastmile_qr_scan", "android": "https://dc.lft.to/lastmile_qr_scan"}, "lat": 38.950756, "bike_id": "2d066a190e527d5fe114fcfb43a61b35", "is_reserved": 0}, {"fusion_lat": 0.0, "type": "electric_scooter", "name": "28f47a5049d250ae9e5dcc0a81223677", "is_disabled": 0, "lon": -77.03548333333333, "fusion_lon": 0.0, "rental_uris": {"ios": "https://dc.lft.to/lastmile_qr_scan", "android": "https://dc.lft.to/lastmile_qr_scan"}, "lat": 38.92418683333333, "bike_id": "28f47a5049d250ae9e5dcc0a81223677", "is_reserved": 0}, {"fusion_lat": 0.0, "type": "electric_scooter", "name": "160ef31ed253d9890a4dd0dac1ec54e5", "is_disabled": 0, "lon": -77.023715, "fusion_lon": 0.0, "rental_uris": {"ios": "https://dc.lft.to/lastmile_qr_scan", "android": "https://dc.lft.to/lastmile_qr_scan"}, "lat": 38.892159666666664, "bike_id": "160ef31ed253d9890a4dd0dac1ec54e5", "is_reserved": 0}, {"fusion_lat": 0.0, "type": "electric_scooter", "name": "f6681693014dc534d107766522c0f373", "is_disabled": 0, "lon": -77.01980666666667, "fusion_lon": 0.0, "rental_uris": {"ios": "https://dc.lft.to/lastmile_qr_scan", "android": "https://dc.lft.to/lastmile_qr_scan"}, "lat": 38.88724166666667, "bike_id": "f6681693014dc534d107766522c0f373", "is_reserved": 0}, {"fusion_lat": 0.0, "type": "electric_scooter", "name": "bc857eb922002c35b10274f3e7f4d61d", "is_disabled": 0, "lon": -77.03191383333333, "fusion_lon": 0.0, "rental_uris": {"ios": "https://dc.lft.to/lastmile_qr_scan", "android": "https://dc.lft.to/lastmile_qr_scan"}, "lat": 38.9019415, "bike_id": "bc857eb922002c35b10274f3e7f4d61d", "is_reserved": 0}, {"fusion_lat": 0.0, "type": "electric_scooter", "name": "675a4d37853338ddcde1836e2fef1dfb", "is_disabled": 0, "lon": -77.01097933333334, "fusion_lon": 0.0, "rental_uris": {"ios": "https://dc.lft.to/lastmile_qr_scan", "android": "https://dc.lft.to/lastmile_qr_scan"}, "lat": 38.89534316666666, "bike_id": "675a4d37853338ddcde1836e2fef1dfb", "is_reserved": 0}, {"fusion_lat": 0.0, "type": "electric_scooter", "name": "fd0c2c39710662f65ccd09c51ae376ab", "is_disabled": 0, "lon": -77.0280075, "fusion_lon": 0.0, "rental_uris": {"ios": "https://dc.lft.to/lastmile_qr_scan", "android": "https://dc.lft.to/lastmile_qr_scan"}, "lat": 38.91749133333333, "bike_id": "fd0c2c39710662f65ccd09c51ae376ab", "is_reserved": 0}, {"fusion_lat": 0.0, "type": "electric_bike", "name": "f03a1f4849238141eff411c63f824542", "is_disabled": 0, "lon": -76.95565316666666, "fusion_lon": 0.0, "rental_uris": {"ios": "https://dc.lft.to/lastmile_qr_scan", "android": "https://dc.lft.to/lastmile_qr_scan"}, "lat": 38.98498166666667, "bike_id": "f03a1f4849238141eff411c63f824542", "is_reserved": 0}, {"fusion_lat": 0.0, "type": "electric_scooter", "name": "6474cdae6a930b76cc312d0f7d4c0fe3", "is_disabled": 0, "lon": -77.04479283333333, "fusion_lon": 0.0, "rental_uris": {"ios": "https://dc.lft.to/lastmile_qr_scan", "android": "https://dc.lft.to/lastmile_qr_scan"}, "lat": 38.911198, "bike_id": "6474cdae6a930b76cc312d0f7d4c0fe3", "is_reserved": 0}, {"fusion_lat": 0.0, "type": "electric_scooter", "name": "7dc08e84f6122e113cec79717b83b758", "is_disabled": 0, "lon": -77.06305383333333, "fusion_lon": 0.0, "rental_uris": {"ios": "https://dc.lft.to/lastmile_qr_scan", "android": "https://dc.lft.to/lastmile_qr_scan"}, "lat": 38.903968166666665, "bike_id": "7dc08e84f6122e113cec79717b83b758", "is_reserved": 0}, {"fusion_lat": 0.0, "type": "electric_scooter", "name": "788c8c2f1df1b62fd07803c589575f4f", "is_disabled": 0, "lon": -77.04125566666667, "fusion_lon": 0.0, "rental_uris": {"ios": "https://dc.lft.to/lastmile_qr_scan", "android": "https://dc.lft.to/lastmile_qr_scan"}, "lat": 38.917088, "bike_id": "788c8c2f1df1b62fd07803c589575f4f", "is_reserved": 0}, {"fusion_lat": 0.0, "type": "electric_scooter", "name": "1aebf5fed6751e8dc2c3c0afdc7d49e0", "is_disabled": 0, "lon": -77.03932016666667, "fusion_lon": 0.0, "rental_uris": {"ios": "https://dc.lft.to/lastmile_qr_scan", "android": "https://dc.lft.to/lastmile_qr_scan"}, "lat": 38.90281983333333, "bike_id": "1aebf5fed6751e8dc2c3c0afdc7d49e0", "is_reserved": 0}, {"fusion_lat": 0.0, "type": "electric_scooter", "name": "a7fdddb570cd0287e77bce968c7fd8f2", "is_disabled": 0, "lon": -77.03707166666666, "fusion_lon": 0.0, "rental_uris": {"ios": "https://dc.lft.to/lastmile_qr_scan", "android": "https://dc.lft.to/lastmile_qr_scan"}, "lat": 38.926400666666666, "bike_id": "a7fdddb570cd0287e77bce968c7fd8f2", "is_reserved": 0}, {"fusion_lat": 0.0, "type": "electric_scooter", "name": "230d55af2a41d06b40891d9d1d06430e", "is_disabled": 0, "lon": -77.026501, "fusion_lon": 0.0, "rental_uris": {"ios": "https://dc.lft.to/lastmile_qr_scan", "android": "https://dc.lft.to/lastmile_qr_scan"}, "lat": 38.90267883333333, "bike_id": "230d55af2a41d06b40891d9d1d06430e", "is_reserved": 0}, {"fusion_lat": 0.0, "type": "electric_scooter", "name": "7e417e4edf14365b76e64eab5c184503", "is_disabled": 0, "lon": -77.03794666666667, "fusion_lon": 0.0, "rental_uris": {"ios": "https://dc.lft.to/lastmile_qr_scan", "android": "https://dc.lft.to/lastmile_qr_scan"}, "lat": 38.9243635, "bike_id": "7e417e4edf14365b76e64eab5c184503", "is_reserved": 0}, {"fusion_lat": 0.0, "type": "electric_bike", "name": "784b00b1bb7b70f3c96dda5665956272", "is_disabled": 0, "lon": -77.14852333333333, "fusion_lon": 0.0, "rental_uris": {"ios": "https://dc.lft.to/lastmile_qr_scan", "android": "https://dc.lft.to/lastmile_qr_scan"}, "lat": 38.87762883333333, "bike_id": "784b00b1bb7b70f3c96dda5665956272", "is_reserved": 0}, {"fusion_lat": 0.0, "type": "electric_scooter", "name": "e0f4549f85f38cc7ab74489696032f87", "is_disabled": 0, "lon": -77.05272533333333, "fusion_lon": 0.0, "rental_uris": {"ios": "https://dc.lft.to/lastmile_qr_scan", "android": "https://dc.lft.to/lastmile_qr_scan"}, "lat": 38.92564766666667, "bike_id": "e0f4549f85f38cc7ab74489696032f87", "is_reserved": 0}, {"fusion_lat": 0.0, "type": "electric_scooter", "name": "40f34c3a8f12542652e28af4b8a2a77f", "is_disabled": 0, "lon": -76.98533516666667, "fusion_lon": 0.0, "rental_uris": {"ios": "https://dc.lft.to/lastmile_qr_scan", "android": "https://dc.lft.to/lastmile_qr_scan"}, "lat": 38.8585065, "bike_id": "40f34c3a8f12542652e28af4b8a2a77f", "is_reserved": 0}, {"fusion_lat": 0.0, "type": "electric_scooter", "name": "a43afca7b968f813c2a4bfe14cbe0895", "is_disabled": 0, "lon": -77.03186566666666, "fusion_lon": 0.0, "rental_uris": {"ios": "https://dc.lft.to/lastmile_qr_scan", "android": "https://dc.lft.to/lastmile_qr_scan"}, "lat": 38.92915216666667, "bike_id": "a43afca7b968f813c2a4bfe14cbe0895", "is_reserved": 0}, {"fusion_lat": 0.0, "type": "electric_scooter", "name": "3b6c511c930acb77aa41b1394099e6fd", "is_disabled": 0, "lon": -77.04039283333333, "fusion_lon": 0.0, "rental_uris": {"ios": "https://dc.lft.to/lastmile_qr_scan", "android": "https://dc.lft.to/lastmile_qr_scan"}, "lat": 38.904000333333336, "bike_id": "3b6c511c930acb77aa41b1394099e6fd", "is_reserved": 0}, {"fusion_lat": 0.0, "type": "electric_bike", "name": "9577d2b51af7e48ac9e8795d2ea9962c", "is_disabled": 0, "lon": -77.037057, "fusion_lon": 0.0, "rental_uris": {"ios": "https://dc.lft.to/lastmile_qr_scan", "android": "https://dc.lft.to/lastmile_qr_scan"}, "lat": 38.93549566666667, "bike_id": "9577d2b51af7e48ac9e8795d2ea9962c", "is_reserved": 0}, {"fusion_lat": 0.0, "type": "electric_scooter", "name": "8d579aa71c7f9cc6b22c0f757416c7c1", "is_disabled": 0, "lon": -77.04140966666667, "fusion_lon": 0.0, "rental_uris": {"ios": "https://dc.lft.to/lastmile_qr_scan", "android": "https://dc.lft.to/lastmile_qr_scan"}, "lat": 38.90006116666667, "bike_id": "8d579aa71c7f9cc6b22c0f757416c7c1", "is_reserved": 0}, {"fusion_lat": 0.0, "type": "electric_scooter", "name": "eaf21cd8e8c528e2c523127aeeef7abe", "is_disabled": 0, "lon": -76.99986316666667, "fusion_lon": 0.0, "rental_uris": {"ios": "https://dc.lft.to/lastmile_qr_scan", "android": "https://dc.lft.to/lastmile_qr_scan"}, "lat": 38.90842883333333, "bike_id": "eaf21cd8e8c528e2c523127aeeef7abe", "is_reserved": 0}, {"fusion_lat": 0.0, "type": "electric_scooter", "name": "b65d0d25caeb3228e31d1f719d87a8ed", "is_disabled": 0, "lon": -77.0415545, "fusion_lon": 0.0, "rental_uris": {"ios": "https://dc.lft.to/lastmile_qr_scan", "android": "https://dc.lft.to/lastmile_qr_scan"}, "lat": 38.90157116666666, "bike_id": "b65d0d25caeb3228e31d1f719d87a8ed", "is_reserved": 0}, {"fusion_lat": 0.0, "type": "electric_scooter", "name": "f27572090fbb8b1cb8538cad9773e99f", "is_disabled": 0, "lon": -76.9950665, "fusion_lon": 0.0, "rental_uris": {"ios": "https://dc.lft.to/lastmile_qr_scan", "android": "https://dc.lft.to/lastmile_qr_scan"}, "lat": 38.882374, "bike_id": "f27572090fbb8b1cb8538cad9773e99f", "is_reserved": 0}, {"fusion_lat": 0.0, "type": "electric_scooter", "name": "f81e90640d57a724edd1a304b77e4987", "is_disabled": 0, "lon": -77.00284916666666, "fusion_lon": 0.0, "rental_uris": {"ios": "https://dc.lft.to/lastmile_qr_scan", "android": "https://dc.lft.to/lastmile_qr_scan"}, "lat": 38.911091166666665, "bike_id": "f81e90640d57a724edd1a304b77e4987", "is_reserved": 0}, {"fusion_lat": 0.0, "type": "electric_scooter", "name": "7c136eeee344d11e33bfd4f65470d75e", "is_disabled": 0, "lon": -77.012165, "fusion_lon": 0.0, "rental_uris": {"ios": "https://dc.lft.to/lastmile_qr_scan", "android": "https://dc.lft.to/lastmile_qr_scan"}, "lat": 38.8709, "bike_id": "7c136eeee344d11e33bfd4f65470d75e", "is_reserved": 0}, {"fusion_lat": 0.0, "type": "electric_scooter", "name": "99f70c091ef31486a85dd45f3cb2312f", "is_disabled": 0, "lon": -77.03238416666667, "fusion_lon": 0.0, "rental_uris": {"ios": "https://dc.lft.to/lastmile_qr_scan", "android": "https://dc.lft.to/lastmile_qr_scan"}, "lat": 38.915631, "bike_id": "99f70c091ef31486a85dd45f3cb2312f", "is_reserved": 0}, {"fusion_lat": 0.0, "type": "electric_scooter", "name": "92f2a82c3cfd9825f8276e8065c8fb2f", "is_disabled": 0, "lon": -77.06871016666666, "fusion_lon": 0.0, "rental_uris": {"ios": "https://dc.lft.to/lastmile_qr_scan", "android": "https://dc.lft.to/lastmile_qr_scan"}, "lat": 38.93017233333333, "bike_id": "92f2a82c3cfd9825f8276e8065c8fb2f", "is_reserved": 0}, {"fusion_lat": 0.0, "type": "electric_scooter", "name": "4439e89d5e096fa26fa9f42b494c73bb", "is_disabled": 0, "lon": -77.0257705, "fusion_lon": 0.0, "rental_uris": {"ios": "https://dc.lft.to/lastmile_qr_scan", "android": "https://dc.lft.to/lastmile_qr_scan"}, "lat": 38.94188916666667, "bike_id": "4439e89d5e096fa26fa9f42b494c73bb", "is_reserved": 0}, {"fusion_lat": 0.0, "type": "electric_bike", "name": "d037171ce6d6d58ea5bc485c25d20e12", "is_disabled": 0, "lon": -77.09623033333334, "fusion_lon": 0.0, "rental_uris": {"ios": "https://dc.lft.to/lastmile_qr_scan", "android": "https://dc.lft.to/lastmile_qr_scan"}, "lat": 38.974432666666665, "bike_id": "d037171ce6d6d58ea5bc485c25d20e12", "is_reserved": 0}, {"fusion_lat": 0.0, "type": "electric_scooter", "name": "919232586b15d440f4672ff8fb46dc9f", "is_disabled": 0, "lon": -77.00045966666667, "fusion_lon": 0.0, "rental_uris": {"ios": "https://dc.lft.to/lastmile_qr_scan", "android": "https://dc.lft.to/lastmile_qr_scan"}, "lat": 38.8747555, "bike_id": "919232586b15d440f4672ff8fb46dc9f", "is_reserved": 0}, {"fusion_lat": 0.0, "type": "electric_bike", "name": "45d2e868aaf971b8a42b53af52f7bd71", "is_disabled": 0, "lon": -76.953511, "fusion_lon": 0.0, "rental_uris": {"ios": "https://dc.lft.to/lastmile_qr_scan", "android": "https://dc.lft.to/lastmile_qr_scan"}, "lat": 38.941730166666666, "bike_id": "45d2e868aaf971b8a42b53af52f7bd71", "is_reserved": 0}, {"fusion_lat": 0.0, "type": "electric_scooter", "name": "c1ec777d6d190294ac9004ad925e7181", "is_disabled": 0, "lon": -77.00963066666667, "fusion_lon": 0.0, "rental_uris": {"ios": "https://dc.lft.to/lastmile_qr_scan", "android": "https://dc.lft.to/lastmile_qr_scan"}, "lat": 38.8746265, "bike_id": "c1ec777d6d190294ac9004ad925e7181", "is_reserved": 0}, {"fusion_lat": 0.0, "type": "electric_scooter", "name": "6b3061b9361a91b14183708ad9ca8a06", "is_disabled": 0, "lon": -77.019759, "fusion_lon": 0.0, "rental_uris": {"ios": "https://dc.lft.to/lastmile_qr_scan", "android": "https://dc.lft.to/lastmile_qr_scan"}, "lat": 38.90505066666667, "bike_id": "6b3061b9361a91b14183708ad9ca8a06", "is_reserved": 0}, {"fusion_lat": 0.0, "type": "electric_scooter", "name": "fddaa0f832e06052cf0e125c21ebf6ca", "is_disabled": 0, "lon": -77.010214, "fusion_lon": 0.0, "rental_uris": {"ios": "https://dc.lft.to/lastmile_qr_scan", "android": "https://dc.lft.to/lastmile_qr_scan"}, "lat": 38.91405966666667, "bike_id": "fddaa0f832e06052cf0e125c21ebf6ca", "is_reserved": 0}, {"fusion_lat": 0.0, "type": "electric_scooter", "name": "29ff10a6fee1faeb2c7e29e601acb2c1", "is_disabled": 0, "lon": -76.99158116666666, "fusion_lon": 0.0, "rental_uris": {"ios": "https://dc.lft.to/lastmile_qr_scan", "android": "https://dc.lft.to/lastmile_qr_scan"}, "lat": 38.888117666666666, "bike_id": "29ff10a6fee1faeb2c7e29e601acb2c1", "is_reserved": 0}, {"fusion_lat": 0.0, "type": "electric_scooter", "name": "61063822b052c76cbdc0cfb27c3279f5", "is_disabled": 0, "lon": -77.05337983333334, "fusion_lon": 0.0, "rental_uris": {"ios": "https://dc.lft.to/lastmile_qr_scan", "android": "https://dc.lft.to/lastmile_qr_scan"}, "lat": 38.89880466666666, "bike_id": "61063822b052c76cbdc0cfb27c3279f5", "is_reserved": 0}, {"fusion_lat": 0.0, "type": "electric_scooter", "name": "a4d113d870ab0660af68c9993a66c9b3", "is_disabled": 0, "lon": -77.04691166666667, "fusion_lon": 0.0, "rental_uris": {"ios": "https://dc.lft.to/lastmile_qr_scan", "android": "https://dc.lft.to/lastmile_qr_scan"}, "lat": 38.899564, "bike_id": "a4d113d870ab0660af68c9993a66c9b3", "is_reserved": 0}, {"fusion_lat": 0.0, "type": "electric_scooter", "name": "78e4cf1584a2b51e3b655dc9593afbc4", "is_disabled": 0, "lon": -77.02393666666667, "fusion_lon": 0.0, "rental_uris": {"ios": "https://dc.lft.to/lastmile_qr_scan", "android": "https://dc.lft.to/lastmile_qr_scan"}, "lat": 38.909691, "bike_id": "78e4cf1584a2b51e3b655dc9593afbc4", "is_reserved": 0}, {"fusion_lat": 0.0, "type": "electric_scooter", "name": "abc90c35a52d2149ec344c5a87694285", "is_disabled": 0, "lon": -77.05146333333333, "fusion_lon": 0.0, "rental_uris": {"ios": "https://dc.lft.to/lastmile_qr_scan", "android": "https://dc.lft.to/lastmile_qr_scan"}, "lat": 38.90533216666667, "bike_id": "abc90c35a52d2149ec344c5a87694285", "is_reserved": 0}, {"fusion_lat": 0.0, "type": "electric_scooter", "name": "cbd68a20c725456b5dd37b64defa9c29", "is_disabled": 0, "lon": -77.00716433333334, "fusion_lon": 0.0, "rental_uris": {"ios": "https://dc.lft.to/lastmile_qr_scan", "android": "https://dc.lft.to/lastmile_qr_scan"}, "lat": 38.884901166666666, "bike_id": "cbd68a20c725456b5dd37b64defa9c29", "is_reserved": 0}, {"fusion_lat": 0.0, "type": "electric_scooter", "name": "7ad717346f1bf111a37ab348a043bb09", "is_disabled": 0, "lon": -77.05692383333333, "fusion_lon": 0.0, "rental_uris": {"ios": "https://dc.lft.to/lastmile_qr_scan", "android": "https://dc.lft.to/lastmile_qr_scan"}, "lat": 38.923328833333336, "bike_id": "7ad717346f1bf111a37ab348a043bb09", "is_reserved": 0}, {"fusion_lat": 0.0, "type": "electric_scooter", "name": "1c55f08c1d99dd7dfb1f8d09d2caae46", "is_disabled": 0, "lon": -77.0025875, "fusion_lon": 0.0, "rental_uris": {"ios": "https://dc.lft.to/lastmile_qr_scan", "android": "https://dc.lft.to/lastmile_qr_scan"}, "lat": 38.894734, "bike_id": "1c55f08c1d99dd7dfb1f8d09d2caae46", "is_reserved": 0}, {"fusion_lat": 0.0, "type": "electric_scooter", "name": "091e6b67c0a84eedb895ac2623d653f5", "is_disabled": 0, "lon": -77.030026, "fusion_lon": 0.0, "rental_uris": {"ios": "https://dc.lft.to/lastmile_qr_scan", "android": "https://dc.lft.to/lastmile_qr_scan"}, "lat": 38.901297, "bike_id": "091e6b67c0a84eedb895ac2623d653f5", "is_reserved": 0}, {"fusion_lat": 0.0, "type": "electric_scooter", "name": "a119e1e081d3271233f489e53db53a0f", "is_disabled": 0, "lon": -77.0534, "fusion_lon": 0.0, "rental_uris": {"ios": "https://dc.lft.to/lastmile_qr_scan", "android": "https://dc.lft.to/lastmile_qr_scan"}, "lat": 38.906477833333334, "bike_id": "a119e1e081d3271233f489e53db53a0f", "is_reserved": 0}, {"fusion_lat": 0.0, "type": "electric_scooter", "name": "9a689bac1525a070e9820c46a5edbf11", "is_disabled": 0, "lon": -77.017542, "fusion_lon": 0.0, "rental_uris": {"ios": "https://dc.lft.to/lastmile_qr_scan", "android": "https://dc.lft.to/lastmile_qr_scan"}, "lat": 38.93994133333333, "bike_id": "9a689bac1525a070e9820c46a5edbf11", "is_reserved": 0}, {"fusion_lat": 0.0, "type": "electric_scooter", "name": "714a614f161929afdb4d68acc8033dc6", "is_disabled": 0, "lon": -76.994942, "fusion_lon": 0.0, "rental_uris": {"ios": "https://dc.lft.to/lastmile_qr_scan", "android": "https://dc.lft.to/lastmile_qr_scan"}, "lat": 38.8939935, "bike_id": "714a614f161929afdb4d68acc8033dc6", "is_reserved": 0}, {"fusion_lat": 0.0, "type": "electric_bike", "name": "cf8342d29267f0c9c0ab0f1b882a1399", "is_disabled": 0, "lon": -76.9808805, "fusion_lon": 0.0, "rental_uris": {"ios": "https://dc.lft.to/lastmile_qr_scan", "android": "https://dc.lft.to/lastmile_qr_scan"}, "lat": 38.95741066666667, "bike_id": "cf8342d29267f0c9c0ab0f1b882a1399", "is_reserved": 0}, {"fusion_lat": 0.0, "type": "electric_scooter", "name": "a87b56d3307b0f40f46878c531796ec9", "is_disabled": 0, "lon": -77.01489016666666, "fusion_lon": 0.0, "rental_uris": {"ios": "https://dc.lft.to/lastmile_qr_scan", "android": "https://dc.lft.to/lastmile_qr_scan"}, "lat": 38.917710666666665, "bike_id": "a87b56d3307b0f40f46878c531796ec9", "is_reserved": 0}, {"fusion_lat": 0.0, "type": "electric_scooter", "name": "980844ae9bdd974eaa3b344babad6e2c", "is_disabled": 0, "lon": -77.040352, "fusion_lon": 0.0, "rental_uris": {"ios": "https://dc.lft.to/lastmile_qr_scan", "android": "https://dc.lft.to/lastmile_qr_scan"}, "lat": 38.90131433333333, "bike_id": "980844ae9bdd974eaa3b344babad6e2c", "is_reserved": 0}, {"fusion_lat": 0.0, "type": "electric_scooter", "name": "c4a442b1b45bfc7141f5e8adf1b67168", "is_disabled": 0, "lon": -77.0020475, "fusion_lon": 0.0, "rental_uris": {"ios": "https://dc.lft.to/lastmile_qr_scan", "android": "https://dc.lft.to/lastmile_qr_scan"}, "lat": 38.902406166666665, "bike_id": "c4a442b1b45bfc7141f5e8adf1b67168", "is_reserved": 0}, {"fusion_lat": 0.0, "type": "electric_bike", "name": "f629d7a8cfbc42af022014f0778f365e", "is_disabled": 0, "lon": -77.10617016666667, "fusion_lon": 0.0, "rental_uris": {"ios": "https://dc.lft.to/lastmile_qr_scan", "android": "https://dc.lft.to/lastmile_qr_scan"}, "lat": 38.83725666666667, "bike_id": "f629d7a8cfbc42af022014f0778f365e", "is_reserved": 0}, {"fusion_lat": 0.0, "type": "electric_scooter", "name": "3a9049870ae620ce1996c1ea07578b45", "is_disabled": 0, "lon": -77.00151633333333, "fusion_lon": 0.0, "rental_uris": {"ios": "https://dc.lft.to/lastmile_qr_scan", "android": "https://dc.lft.to/lastmile_qr_scan"}, "lat": 38.907722666666665, "bike_id": "3a9049870ae620ce1996c1ea07578b45", "is_reserved": 0}, {"fusion_lat": 0.0, "type": "electric_scooter", "name": "eca9a4986d1865f1f311e4c24423970d", "is_disabled": 0, "lon": -77.02478133333334, "fusion_lon": 0.0, "rental_uris": {"ios": "https://dc.lft.to/lastmile_qr_scan", "android": "https://dc.lft.to/lastmile_qr_scan"}, "lat": 38.93638283333333, "bike_id": "eca9a4986d1865f1f311e4c24423970d", "is_reserved": 0}, {"fusion_lat": 0.0, "type": "electric_scooter", "name": "fc65fa783f457f65462018e1af8741bf", "is_disabled": 0, "lon": -77.018386, "fusion_lon": 0.0, "rental_uris": {"ios": "https://dc.lft.to/lastmile_qr_scan", "android": "https://dc.lft.to/lastmile_qr_scan"}, "lat": 38.909598833333334, "bike_id": "fc65fa783f457f65462018e1af8741bf", "is_reserved": 0}, {"fusion_lat": 0.0, "type": "electric_scooter", "name": "77ac0ae91fcb747b5c4e4c1bed487331", "is_disabled": 0, "lon": -77.035531, "fusion_lon": 0.0, "rental_uris": {"ios": "https://dc.lft.to/lastmile_qr_scan", "android": "https://dc.lft.to/lastmile_qr_scan"}, "lat": 38.92352483333333, "bike_id": "77ac0ae91fcb747b5c4e4c1bed487331", "is_reserved": 0}, {"fusion_lat": 0.0, "type": "electric_bike", "name": "b0975258d8ac04abb7d86f26a3f13054", "is_disabled": 0, "lon": -77.03454983333333, "fusion_lon": 0.0, "rental_uris": {"ios": "https://dc.lft.to/lastmile_qr_scan", "android": "https://dc.lft.to/lastmile_qr_scan"}, "lat": 38.919006, "bike_id": "b0975258d8ac04abb7d86f26a3f13054", "is_reserved": 0}, {"fusion_lat": 0.0, "type": "electric_scooter", "name": "9cb2e0de40c8b746909c17ec8b338730", "is_disabled": 0, "lon": -77.02810016666666, "fusion_lon": 0.0, "rental_uris": {"ios": "https://dc.lft.to/lastmile_qr_scan", "android": "https://dc.lft.to/lastmile_qr_scan"}, "lat": 38.88184566666666, "bike_id": "9cb2e0de40c8b746909c17ec8b338730", "is_reserved": 0}, {"fusion_lat": 0.0, "type": "electric_scooter", "name": "f45e867020cfc45d98fa49f9abcaa5d5", "is_disabled": 0, "lon": -77.03452383333334, "fusion_lon": 0.0, "rental_uris": {"ios": "https://dc.lft.to/lastmile_qr_scan", "android": "https://dc.lft.to/lastmile_qr_scan"}, "lat": 38.92221583333333, "bike_id": "f45e867020cfc45d98fa49f9abcaa5d5", "is_reserved": 0}, {"fusion_lat": 0.0, "type": "electric_scooter", "name": "7841fa54cbeb46c3727072c9ef190ac3", "is_disabled": 0, "lon": -77.0098775, "fusion_lon": 0.0, "rental_uris": {"ios": "https://dc.lft.to/lastmile_qr_scan", "android": "https://dc.lft.to/lastmile_qr_scan"}, "lat": 38.87286133333333, "bike_id": "7841fa54cbeb46c3727072c9ef190ac3", "is_reserved": 0}, {"fusion_lat": 0.0, "type": "electric_scooter", "name": "6d1ddac5b2bbc64f8e0907244a3f3684", "is_disabled": 0, "lon": -77.00463516666667, "fusion_lon": 0.0, "rental_uris": {"ios": "https://dc.lft.to/lastmile_qr_scan", "android": "https://dc.lft.to/lastmile_qr_scan"}, "lat": 38.91144366666666, "bike_id": "6d1ddac5b2bbc64f8e0907244a3f3684", "is_reserved": 0}, {"fusion_lat": 0.0, "type": "electric_scooter", "name": "8e20260ac2143431a7dcea438064594e", "is_disabled": 0, "lon": -77.03618133333333, "fusion_lon": 0.0, "rental_uris": {"ios": "https://dc.lft.to/lastmile_qr_scan", "android": "https://dc.lft.to/lastmile_qr_scan"}, "lat": 38.937472166666666, "bike_id": "8e20260ac2143431a7dcea438064594e", "is_reserved": 0}, {"fusion_lat": 0.0, "type": "electric_scooter", "name": "28c20543024ba66459f31be8a6bc9d5c", "is_disabled": 0, "lon": -77.05688316666667, "fusion_lon": 0.0, "rental_uris": {"ios": "https://dc.lft.to/lastmile_qr_scan", "android": "https://dc.lft.to/lastmile_qr_scan"}, "lat": 38.90607833333333, "bike_id": "28c20543024ba66459f31be8a6bc9d5c", "is_reserved": 0}, {"fusion_lat": 0.0, "type": "electric_scooter", "name": "7a1d1eeb226c7cc778d7bd9983079298", "is_disabled": 0, "lon": -76.99519083333334, "fusion_lon": 0.0, "rental_uris": {"ios": "https://dc.lft.to/lastmile_qr_scan", "android": "https://dc.lft.to/lastmile_qr_scan"}, "lat": 38.887898166666666, "bike_id": "7a1d1eeb226c7cc778d7bd9983079298", "is_reserved": 0}, {"fusion_lat": 0.0, "type": "electric_scooter", "name": "b60a3a3500d0d873ee5a670e53e8380f", "is_disabled": 0, "lon": -76.98272233333333, "fusion_lon": 0.0, "rental_uris": {"ios": "https://dc.lft.to/lastmile_qr_scan", "android": "https://dc.lft.to/lastmile_qr_scan"}, "lat": 38.86880033333333, "bike_id": "b60a3a3500d0d873ee5a670e53e8380f", "is_reserved": 0}, {"fusion_lat": 0.0, "type": "electric_scooter", "name": "e64efe1c88311e9bb5b33e032f70f7d6", "is_disabled": 0, "lon": -77.048659, "fusion_lon": 0.0, "rental_uris": {"ios": "https://dc.lft.to/lastmile_qr_scan", "android": "https://dc.lft.to/lastmile_qr_scan"}, "lat": 38.89945916666667, "bike_id": "e64efe1c88311e9bb5b33e032f70f7d6", "is_reserved": 0}, {"fusion_lat": 0.0, "type": "electric_scooter", "name": "f9ee4a13e9885d1b1fdd789d6f988cc8", "is_disabled": 0, "lon": -77.0161445, "fusion_lon": 0.0, "rental_uris": {"ios": "https://dc.lft.to/lastmile_qr_scan", "android": "https://dc.lft.to/lastmile_qr_scan"}, "lat": 38.906071833333336, "bike_id": "f9ee4a13e9885d1b1fdd789d6f988cc8", "is_reserved": 0}, {"fusion_lat": 0.0, "type": "electric_scooter", "name": "2a6d26dc44a03d57a8cf983b5df0e16d", "is_disabled": 0, "lon": -77.034104, "fusion_lon": 0.0, "rental_uris": {"ios": "https://dc.lft.to/lastmile_qr_scan", "android": "https://dc.lft.to/lastmile_qr_scan"}, "lat": 38.9309055, "bike_id": "2a6d26dc44a03d57a8cf983b5df0e16d", "is_reserved": 0}, {"fusion_lat": 0.0, "type": "electric_scooter", "name": "5184760f8e1f2ed39ea5bb2455222346", "is_disabled": 0, "lon": -76.9652685, "fusion_lon": 0.0, "rental_uris": {"ios": "https://dc.lft.to/lastmile_qr_scan", "android": "https://dc.lft.to/lastmile_qr_scan"}, "lat": 38.87627716666667, "bike_id": "5184760f8e1f2ed39ea5bb2455222346", "is_reserved": 0}, {"fusion_lat": 0.0, "type": "electric_bike", "name": "2369b0d8ae99c54a9e0175d566d2940c", "is_disabled": 0, "lon": -77.0546775, "fusion_lon": 0.0, "rental_uris": {"ios": "https://dc.lft.to/lastmile_qr_scan", "android": "https://dc.lft.to/lastmile_qr_scan"}, "lat": 38.86480816666667, "bike_id": "2369b0d8ae99c54a9e0175d566d2940c", "is_reserved": 0}, {"fusion_lat": 0.0, "type": "electric_scooter", "name": "87288dbf2d66929dbb8b713b884270c8", "is_disabled": 0, "lon": -77.04533433333333, "fusion_lon": 0.0, "rental_uris": {"ios": "https://dc.lft.to/lastmile_qr_scan", "android": "https://dc.lft.to/lastmile_qr_scan"}, "lat": 38.91823933333333, "bike_id": "87288dbf2d66929dbb8b713b884270c8", "is_reserved": 0}, {"fusion_lat": 0.0, "type": "electric_scooter", "name": "5fad072273deaf044f72c681968da854", "is_disabled": 0, "lon": -77.05051483333334, "fusion_lon": 0.0, "rental_uris": {"ios": "https://dc.lft.to/lastmile_qr_scan", "android": "https://dc.lft.to/lastmile_qr_scan"}, "lat": 38.9236145, "bike_id": "5fad072273deaf044f72c681968da854", "is_reserved": 0}, {"fusion_lat": 0.0, "type": "electric_scooter", "name": "584d288f4c8a7532a7488a7303e17e0a", "is_disabled": 0, "lon": -76.9908425, "fusion_lon": 0.0, "rental_uris": {"ios": "https://dc.lft.to/lastmile_qr_scan", "android": "https://dc.lft.to/lastmile_qr_scan"}, "lat": 38.85557583333333, "bike_id": "584d288f4c8a7532a7488a7303e17e0a", "is_reserved": 0}, {"fusion_lat": 0.0, "type": "electric_scooter", "name": "858784aa3007aa2df3f93aa0262632af", "is_disabled": 0, "lon": -76.97899783333334, "fusion_lon": 0.0, "rental_uris": {"ios": "https://dc.lft.to/lastmile_qr_scan", "android": "https://dc.lft.to/lastmile_qr_scan"}, "lat": 38.8854655, "bike_id": "858784aa3007aa2df3f93aa0262632af", "is_reserved": 0}, {"fusion_lat": 0.0, "type": "electric_scooter", "name": "11fa139c79f507c8c2af60c56247be1f", "is_disabled": 0, "lon": -77.02679683333334, "fusion_lon": 0.0, "rental_uris": {"ios": "https://dc.lft.to/lastmile_qr_scan", "android": "https://dc.lft.to/lastmile_qr_scan"}, "lat": 38.922373, "bike_id": "11fa139c79f507c8c2af60c56247be1f", "is_reserved": 0}, {"fusion_lat": 0.0, "type": "electric_scooter", "name": "21d9f9289bcf2031ee44fdc7d69cc4b0", "is_disabled": 0, "lon": -77.03060166666667, "fusion_lon": 0.0, "rental_uris": {"ios": "https://dc.lft.to/lastmile_qr_scan", "android": "https://dc.lft.to/lastmile_qr_scan"}, "lat": 38.898306166666664, "bike_id": "21d9f9289bcf2031ee44fdc7d69cc4b0", "is_reserved": 0}, {"fusion_lat": 0.0, "type": "electric_scooter", "name": "ab060fe21dcd7306c438f713dd511206", "is_disabled": 0, "lon": -77.02016283333333, "fusion_lon": 0.0, "rental_uris": {"ios": "https://dc.lft.to/lastmile_qr_scan", "android": "https://dc.lft.to/lastmile_qr_scan"}, "lat": 38.89431, "bike_id": "ab060fe21dcd7306c438f713dd511206", "is_reserved": 0}, {"fusion_lat": 0.0, "type": "electric_scooter", "name": "c9f8e81f2a5351597a28a52ffad8654c", "is_disabled": 0, "lon": -77.00202266666666, "fusion_lon": 0.0, "rental_uris": {"ios": "https://dc.lft.to/lastmile_qr_scan", "android": "https://dc.lft.to/lastmile_qr_scan"}, "lat": 38.902403, "bike_id": "c9f8e81f2a5351597a28a52ffad8654c", "is_reserved": 0}, {"fusion_lat": 0.0, "type": "electric_bike", "name": "152dbcc956aafada285859f2f8fb3f9a", "is_disabled": 0, "lon": -77.08973833333333, "fusion_lon": 0.0, "rental_uris": {"ios": "https://dc.lft.to/lastmile_qr_scan", "android": "https://dc.lft.to/lastmile_qr_scan"}, "lat": 38.84107183333333, "bike_id": "152dbcc956aafada285859f2f8fb3f9a", "is_reserved": 0}, {"fusion_lat": 0.0, "type": "electric_scooter", "name": "cfda31000df534130b871c64f784e413", "is_disabled": 0, "lon": -76.9471465, "fusion_lon": 0.0, "rental_uris": {"ios": "https://dc.lft.to/lastmile_qr_scan", "android": "https://dc.lft.to/lastmile_qr_scan"}, "lat": 38.890871, "bike_id": "cfda31000df534130b871c64f784e413", "is_reserved": 0}, {"fusion_lat": 0.0, "type": "electric_scooter", "name": "634f94c7b7a82db4e2d104ecfa569e72", "is_disabled": 0, "lon": -77.02518133333334, "fusion_lon": 0.0, "rental_uris": {"ios": "https://dc.lft.to/lastmile_qr_scan", "android": "https://dc.lft.to/lastmile_qr_scan"}, "lat": 38.89456233333333, "bike_id": "634f94c7b7a82db4e2d104ecfa569e72", "is_reserved": 0}, {"fusion_lat": 0.0, "type": "electric_scooter", "name": "f86d7c6ac1f888ba8cafc24d231565de", "is_disabled": 0, "lon": -77.03937433333333, "fusion_lon": 0.0, "rental_uris": {"ios": "https://dc.lft.to/lastmile_qr_scan", "android": "https://dc.lft.to/lastmile_qr_scan"}, "lat": 38.9248455, "bike_id": "f86d7c6ac1f888ba8cafc24d231565de", "is_reserved": 0}, {"fusion_lat": 0.0, "type": "electric_bike", "name": "b5170dfba52e90a9de4678156ae40dc3", "is_disabled": 0, "lon": -77.00277266666667, "fusion_lon": 0.0, "rental_uris": {"ios": "https://dc.lft.to/lastmile_qr_scan", "android": "https://dc.lft.to/lastmile_qr_scan"}, "lat": 38.911800166666666, "bike_id": "b5170dfba52e90a9de4678156ae40dc3", "is_reserved": 0}, {"fusion_lat": 0.0, "type": "electric_scooter", "name": "bd1529faa18f675527920c340b418d77", "is_disabled": 0, "lon": -77.02803566666667, "fusion_lon": 0.0, "rental_uris": {"ios": "https://dc.lft.to/lastmile_qr_scan", "android": "https://dc.lft.to/lastmile_qr_scan"}, "lat": 38.910958666666666, "bike_id": "bd1529faa18f675527920c340b418d77", "is_reserved": 0}, {"fusion_lat": 0.0, "type": "electric_scooter", "name": "28b0909aa1858f7134f96c0e16383390", "is_disabled": 0, "lon": -77.04221066666666, "fusion_lon": 0.0, "rental_uris": {"ios": "https://dc.lft.to/lastmile_qr_scan", "android": "https://dc.lft.to/lastmile_qr_scan"}, "lat": 38.921607333333334, "bike_id": "28b0909aa1858f7134f96c0e16383390", "is_reserved": 0}, {"fusion_lat": 0.0, "type": "electric_scooter", "name": "203e0d5cfd4755cdb0da5e94a37a2fba", "is_disabled": 0, "lon": -77.02702283333333, "fusion_lon": 0.0, "rental_uris": {"ios": "https://dc.lft.to/lastmile_qr_scan", "android": "https://dc.lft.to/lastmile_qr_scan"}, "lat": 38.949365666666665, "bike_id": "203e0d5cfd4755cdb0da5e94a37a2fba", "is_reserved": 0}, {"fusion_lat": 0.0, "type": "electric_bike", "name": "265534ecb9abd3ce03d8ef5f340e1144", "is_disabled": 0, "lon": -76.95748, "fusion_lon": 0.0, "rental_uris": {"ios": "https://dc.lft.to/lastmile_qr_scan", "android": "https://dc.lft.to/lastmile_qr_scan"}, "lat": 38.88857016666667, "bike_id": "265534ecb9abd3ce03d8ef5f340e1144", "is_reserved": 0}, {"fusion_lat": 0.0, "type": "electric_scooter", "name": "8097292f29be9813d3b547ebf15ae493", "is_disabled": 0, "lon": -77.04506133333334, "fusion_lon": 0.0, "rental_uris": {"ios": "https://dc.lft.to/lastmile_qr_scan", "android": "https://dc.lft.to/lastmile_qr_scan"}, "lat": 38.919220333333335, "bike_id": "8097292f29be9813d3b547ebf15ae493", "is_reserved": 0}, {"fusion_lat": 0.0, "type": "electric_scooter", "name": "fa40b734fc7402314fa957c78c2ac2da", "is_disabled": 0, "lon": -77.014486, "fusion_lon": 0.0, "rental_uris": {"ios": "https://dc.lft.to/lastmile_qr_scan", "android": "https://dc.lft.to/lastmile_qr_scan"}, "lat": 38.899471166666665, "bike_id": "fa40b734fc7402314fa957c78c2ac2da", "is_reserved": 0}, {"fusion_lat": 0.0, "type": "electric_scooter", "name": "94f69b20f3d4180c6dd99c17cea057ad", "is_disabled": 0, "lon": -77.03844266666667, "fusion_lon": 0.0, "rental_uris": {"ios": "https://dc.lft.to/lastmile_qr_scan", "android": "https://dc.lft.to/lastmile_qr_scan"}, "lat": 38.910050166666664, "bike_id": "94f69b20f3d4180c6dd99c17cea057ad", "is_reserved": 0}, {"fusion_lat": 0.0, "type": "electric_scooter", "name": "81dc53b4eaad957e6be76655512c0998", "is_disabled": 0, "lon": -77.029605, "fusion_lon": 0.0, "rental_uris": {"ios": "https://dc.lft.to/lastmile_qr_scan", "android": "https://dc.lft.to/lastmile_qr_scan"}, "lat": 38.90658366666667, "bike_id": "81dc53b4eaad957e6be76655512c0998", "is_reserved": 0}, {"fusion_lat": 0.0, "type": "electric_scooter", "name": "3ee3021f3a85cb9ba5159fbc332052de", "is_disabled": 0, "lon": -76.99598416666667, "fusion_lon": 0.0, "rental_uris": {"ios": "https://dc.lft.to/lastmile_qr_scan", "android": "https://dc.lft.to/lastmile_qr_scan"}, "lat": 38.88427433333333, "bike_id": "3ee3021f3a85cb9ba5159fbc332052de", "is_reserved": 0}, {"fusion_lat": 0.0, "type": "electric_scooter", "name": "81551cf4a05818611829f0356cc06d45", "is_disabled": 0, "lon": -77.04658933333333, "fusion_lon": 0.0, "rental_uris": {"ios": "https://dc.lft.to/lastmile_qr_scan", "android": "https://dc.lft.to/lastmile_qr_scan"}, "lat": 38.909455333333334, "bike_id": "81551cf4a05818611829f0356cc06d45", "is_reserved": 0}, {"fusion_lat": 0.0, "type": "electric_scooter", "name": "92610f6584c525249e1d9b738bdc7414", "is_disabled": 0, "lon": -77.02656116666667, "fusion_lon": 0.0, "rental_uris": {"ios": "https://dc.lft.to/lastmile_qr_scan", "android": "https://dc.lft.to/lastmile_qr_scan"}, "lat": 38.92382, "bike_id": "92610f6584c525249e1d9b738bdc7414", "is_reserved": 0}, {"fusion_lat": 0.0, "type": "electric_bike", "name": "1c6a160892c9c807d8b4b64518523079", "is_disabled": 0, "lon": -76.98980116666667, "fusion_lon": 0.0, "rental_uris": {"ios": "https://dc.lft.to/lastmile_qr_scan", "android": "https://dc.lft.to/lastmile_qr_scan"}, "lat": 38.937230166666666, "bike_id": "1c6a160892c9c807d8b4b64518523079", "is_reserved": 0}, {"fusion_lat": 0.0, "type": "electric_scooter", "name": "737bdea87fc63a202bb91024cb0c55e3", "is_disabled": 0, "lon": -77.04509816666666, "fusion_lon": 0.0, "rental_uris": {"ios": "https://dc.lft.to/lastmile_qr_scan", "android": "https://dc.lft.to/lastmile_qr_scan"}, "lat": 38.892190666666664, "bike_id": "737bdea87fc63a202bb91024cb0c55e3", "is_reserved": 0}, {"fusion_lat": 0.0, "type": "electric_bike", "name": "b084cb7729ac63c983aedd4cb605d78f", "is_disabled": 0, "lon": -77.0653395, "fusion_lon": 0.0, "rental_uris": {"ios": "https://dc.lft.to/lastmile_qr_scan", "android": "https://dc.lft.to/lastmile_qr_scan"}, "lat": 38.9922865, "bike_id": "b084cb7729ac63c983aedd4cb605d78f", "is_reserved": 0}, {"fusion_lat": 0.0, "type": "electric_bike", "name": "3ea8de90cce081b2a3bc71f879193f0f", "is_disabled": 0, "lon": -77.02956566666667, "fusion_lon": 0.0, "rental_uris": {"ios": "https://dc.lft.to/lastmile_qr_scan", "android": "https://dc.lft.to/lastmile_qr_scan"}, "lat": 38.9267435, "bike_id": "3ea8de90cce081b2a3bc71f879193f0f", "is_reserved": 0}, {"fusion_lat": 0.0, "type": "electric_scooter", "name": "1b98c655f91c4e68e8f64775988cc83f", "is_disabled": 0, "lon": -77.01580716666666, "fusion_lon": 0.0, "rental_uris": {"ios": "https://dc.lft.to/lastmile_qr_scan", "android": "https://dc.lft.to/lastmile_qr_scan"}, "lat": 38.876411, "bike_id": "1b98c655f91c4e68e8f64775988cc83f", "is_reserved": 0}, {"fusion_lat": 0.0, "type": "electric_scooter", "name": "923a876f9d4db32d2e2dccc2fa0759d8", "is_disabled": 0, "lon": -76.98127533333333, "fusion_lon": 0.0, "rental_uris": {"ios": "https://dc.lft.to/lastmile_qr_scan", "android": "https://dc.lft.to/lastmile_qr_scan"}, "lat": 38.91474483333333, "bike_id": "923a876f9d4db32d2e2dccc2fa0759d8", "is_reserved": 0}, {"fusion_lat": 0.0, "type": "electric_scooter", "name": "aa7b24cde5ee5504bcf38334b51e58f4", "is_disabled": 0, "lon": -77.036267, "fusion_lon": 0.0, "rental_uris": {"ios": "https://dc.lft.to/lastmile_qr_scan", "android": "https://dc.lft.to/lastmile_qr_scan"}, "lat": 38.90380566666666, "bike_id": "aa7b24cde5ee5504bcf38334b51e58f4", "is_reserved": 0}, {"fusion_lat": 0.0, "type": "electric_scooter", "name": "b6592c1a0b50908a670d196dfb3bc9a7", "is_disabled": 0, "lon": -77.04197133333334, "fusion_lon": 0.0, "rental_uris": {"ios": "https://dc.lft.to/lastmile_qr_scan", "android": "https://dc.lft.to/lastmile_qr_scan"}, "lat": 38.911311166666664, "bike_id": "b6592c1a0b50908a670d196dfb3bc9a7", "is_reserved": 0}, {"fusion_lat": 0.0, "type": "electric_scooter", "name": "b6410ca74e9fba3c8e96e660fbf89099", "is_disabled": 0, "lon": -76.9250585, "fusion_lon": 0.0, "rental_uris": {"ios": "https://dc.lft.to/lastmile_qr_scan", "android": "https://dc.lft.to/lastmile_qr_scan"}, "lat": 38.8860355, "bike_id": "b6410ca74e9fba3c8e96e660fbf89099", "is_reserved": 0}, {"fusion_lat": 0.0, "type": "electric_scooter", "name": "8895cabcc331400a65593195e287fbb7", "is_disabled": 0, "lon": -77.04677633333333, "fusion_lon": 0.0, "rental_uris": {"ios": "https://dc.lft.to/lastmile_qr_scan", "android": "https://dc.lft.to/lastmile_qr_scan"}, "lat": 38.898248333333335, "bike_id": "8895cabcc331400a65593195e287fbb7", "is_reserved": 0}, {"fusion_lat": 0.0, "type": "electric_scooter", "name": "155344122c38a618f627a0f1825afc7d", "is_disabled": 0, "lon": -76.926297, "fusion_lon": 0.0, "rental_uris": {"ios": "https://dc.lft.to/lastmile_qr_scan", "android": "https://dc.lft.to/lastmile_qr_scan"}, "lat": 38.8837135, "bike_id": "155344122c38a618f627a0f1825afc7d", "is_reserved": 0}, {"fusion_lat": 0.0, "type": "electric_scooter", "name": "02b8f7727fc9072e3f763df18949b571", "is_disabled": 0, "lon": -77.016058, "fusion_lon": 0.0, "rental_uris": {"ios": "https://dc.lft.to/lastmile_qr_scan", "android": "https://dc.lft.to/lastmile_qr_scan"}, "lat": 38.913085, "bike_id": "02b8f7727fc9072e3f763df18949b571", "is_reserved": 0}, {"fusion_lat": 0.0, "type": "electric_scooter", "name": "16ce864caf2f9b57e542f02ea79f99a5", "is_disabled": 0, "lon": -77.01760783333333, "fusion_lon": 0.0, "rental_uris": {"ios": "https://dc.lft.to/lastmile_qr_scan", "android": "https://dc.lft.to/lastmile_qr_scan"}, "lat": 38.87679333333333, "bike_id": "16ce864caf2f9b57e542f02ea79f99a5", "is_reserved": 0}, {"fusion_lat": 0.0, "type": "electric_scooter", "name": "fb9e43c6c1373129755c5a7bc06f0d75", "is_disabled": 0, "lon": -77.01710016666667, "fusion_lon": 0.0, "rental_uris": {"ios": "https://dc.lft.to/lastmile_qr_scan", "android": "https://dc.lft.to/lastmile_qr_scan"}, "lat": 38.872948, "bike_id": "fb9e43c6c1373129755c5a7bc06f0d75", "is_reserved": 0}, {"fusion_lat": 0.0, "type": "electric_scooter", "name": "f447d33d29661aa5932de2413aaf5f51", "is_disabled": 0, "lon": -76.99837116666667, "fusion_lon": 0.0, "rental_uris": {"ios": "https://dc.lft.to/lastmile_qr_scan", "android": "https://dc.lft.to/lastmile_qr_scan"}, "lat": 38.90083816666667, "bike_id": "f447d33d29661aa5932de2413aaf5f51", "is_reserved": 0}, {"fusion_lat": 0.0, "type": "electric_scooter", "name": "1e6e5ec5b1984eb0cb2e0d2d518b8153", "is_disabled": 0, "lon": -77.06618933333333, "fusion_lon": 0.0, "rental_uris": {"ios": "https://dc.lft.to/lastmile_qr_scan", "android": "https://dc.lft.to/lastmile_qr_scan"}, "lat": 38.913655166666665, "bike_id": "1e6e5ec5b1984eb0cb2e0d2d518b8153", "is_reserved": 0}, {"fusion_lat": 0.0, "type": "electric_scooter", "name": "f28a894240c736667ef104d838688871", "is_disabled": 0, "lon": -76.983782, "fusion_lon": 0.0, "rental_uris": {"ios": "https://dc.lft.to/lastmile_qr_scan", "android": "https://dc.lft.to/lastmile_qr_scan"}, "lat": 38.892661, "bike_id": "f28a894240c736667ef104d838688871", "is_reserved": 0}, {"fusion_lat": 0.0, "type": "electric_scooter", "name": "998ce88c3e1aefd870fe373cfcc7a1b7", "is_disabled": 0, "lon": -76.99018483333333, "fusion_lon": 0.0, "rental_uris": {"ios": "https://dc.lft.to/lastmile_qr_scan", "android": "https://dc.lft.to/lastmile_qr_scan"}, "lat": 38.8827135, "bike_id": "998ce88c3e1aefd870fe373cfcc7a1b7", "is_reserved": 0}, {"fusion_lat": 0.0, "type": "electric_scooter", "name": "d2823842e776800894d82a75444187e8", "is_disabled": 0, "lon": -77.06374316666667, "fusion_lon": 0.0, "rental_uris": {"ios": "https://dc.lft.to/lastmile_qr_scan", "android": "https://dc.lft.to/lastmile_qr_scan"}, "lat": 38.9202465, "bike_id": "d2823842e776800894d82a75444187e8", "is_reserved": 0}, {"fusion_lat": 0.0, "type": "electric_scooter", "name": "ddd1c2b1f2130ea8807bfde2ef283f06", "is_disabled": 0, "lon": -76.92894216666667, "fusion_lon": 0.0, "rental_uris": {"ios": "https://dc.lft.to/lastmile_qr_scan", "android": "https://dc.lft.to/lastmile_qr_scan"}, "lat": 38.87944933333333, "bike_id": "ddd1c2b1f2130ea8807bfde2ef283f06", "is_reserved": 0}, {"fusion_lat": 0.0, "type": "electric_scooter", "name": "3d5c0f67c5ac5b9f5703d87b7f106c5a", "is_disabled": 0, "lon": -77.04210483333334, "fusion_lon": 0.0, "rental_uris": {"ios": "https://dc.lft.to/lastmile_qr_scan", "android": "https://dc.lft.to/lastmile_qr_scan"}, "lat": 38.9094035, "bike_id": "3d5c0f67c5ac5b9f5703d87b7f106c5a", "is_reserved": 0}, {"fusion_lat": 0.0, "type": "electric_scooter", "name": "956739b6ac05c4377e019ba0b3b6719b", "is_disabled": 0, "lon": -76.99859016666667, "fusion_lon": 0.0, "rental_uris": {"ios": "https://dc.lft.to/lastmile_qr_scan", "android": "https://dc.lft.to/lastmile_qr_scan"}, "lat": 38.9005655, "bike_id": "956739b6ac05c4377e019ba0b3b6719b", "is_reserved": 0}, {"fusion_lat": 0.0, "type": "electric_scooter", "name": "c8e509570f32e5d92f4a0de70f5b785b", "is_disabled": 0, "lon": -77.04507116666667, "fusion_lon": 0.0, "rental_uris": {"ios": "https://dc.lft.to/lastmile_qr_scan", "android": "https://dc.lft.to/lastmile_qr_scan"}, "lat": 38.899622666666666, "bike_id": "c8e509570f32e5d92f4a0de70f5b785b", "is_reserved": 0}, {"fusion_lat": 0.0, "type": "electric_scooter", "name": "28c40ddcd443315f06f210687fd32244", "is_disabled": 0, "lon": -77.02354283333334, "fusion_lon": 0.0, "rental_uris": {"ios": "https://dc.lft.to/lastmile_qr_scan", "android": "https://dc.lft.to/lastmile_qr_scan"}, "lat": 38.942002333333335, "bike_id": "28c40ddcd443315f06f210687fd32244", "is_reserved": 0}, {"fusion_lat": 0.0, "type": "electric_scooter", "name": "63683d7ae2f49b7dd4429096654f4be0", "is_disabled": 0, "lon": -77.0502065, "fusion_lon": 0.0, "rental_uris": {"ios": "https://dc.lft.to/lastmile_qr_scan", "android": "https://dc.lft.to/lastmile_qr_scan"}, "lat": 38.90316966666666, "bike_id": "63683d7ae2f49b7dd4429096654f4be0", "is_reserved": 0}, {"fusion_lat": 0.0, "type": "electric_scooter", "name": "32e0327772356526bc8b7dd6cabd4ad5", "is_disabled": 0, "lon": -77.02911433333334, "fusion_lon": 0.0, "rental_uris": {"ios": "https://dc.lft.to/lastmile_qr_scan", "android": "https://dc.lft.to/lastmile_qr_scan"}, "lat": 38.897414, "bike_id": "32e0327772356526bc8b7dd6cabd4ad5", "is_reserved": 0}, {"fusion_lat": 0.0, "type": "electric_scooter", "name": "6a4fc1057020ba2bd6d0e11395e6e3df", "is_disabled": 0, "lon": -77.03183933333334, "fusion_lon": 0.0, "rental_uris": {"ios": "https://dc.lft.to/lastmile_qr_scan", "android": "https://dc.lft.to/lastmile_qr_scan"}, "lat": 38.914615833333336, "bike_id": "6a4fc1057020ba2bd6d0e11395e6e3df", "is_reserved": 0}, {"fusion_lat": 0.0, "type": "electric_scooter", "name": "143655b7dbe203fbf148bdfa6552c677", "is_disabled": 0, "lon": -77.0199415, "fusion_lon": 0.0, "rental_uris": {"ios": "https://dc.lft.to/lastmile_qr_scan", "android": "https://dc.lft.to/lastmile_qr_scan"}, "lat": 38.91496433333333, "bike_id": "143655b7dbe203fbf148bdfa6552c677", "is_reserved": 0}, {"fusion_lat": 0.0, "type": "electric_scooter", "name": "e1a3d01470e0e2e5a761f569142635c9", "is_disabled": 0, "lon": -77.007327, "fusion_lon": 0.0, "rental_uris": {"ios": "https://dc.lft.to/lastmile_qr_scan", "android": "https://dc.lft.to/lastmile_qr_scan"}, "lat": 38.912102, "bike_id": "e1a3d01470e0e2e5a761f569142635c9", "is_reserved": 0}, {"fusion_lat": 0.0, "type": "electric_scooter", "name": "a375ba871ffd9915977ea01bac3ff245", "is_disabled": 0, "lon": -77.03806266666666, "fusion_lon": 0.0, "rental_uris": {"ios": "https://dc.lft.to/lastmile_qr_scan", "android": "https://dc.lft.to/lastmile_qr_scan"}, "lat": 38.92074816666667, "bike_id": "a375ba871ffd9915977ea01bac3ff245", "is_reserved": 0}, {"fusion_lat": 0.0, "type": "electric_scooter", "name": "496d502c466248ca27537374b8f6aade", "is_disabled": 0, "lon": -77.0225995, "fusion_lon": 0.0, "rental_uris": {"ios": "https://dc.lft.to/lastmile_qr_scan", "android": "https://dc.lft.to/lastmile_qr_scan"}, "lat": 38.92834283333333, "bike_id": "496d502c466248ca27537374b8f6aade", "is_reserved": 0}, {"fusion_lat": 0.0, "type": "electric_scooter", "name": "05d5db9a03fd95c0f15a14b80d1a7bb6", "is_disabled": 0, "lon": -77.03840983333333, "fusion_lon": 0.0, "rental_uris": {"ios": "https://dc.lft.to/lastmile_qr_scan", "android": "https://dc.lft.to/lastmile_qr_scan"}, "lat": 38.911340833333334, "bike_id": "05d5db9a03fd95c0f15a14b80d1a7bb6", "is_reserved": 0}, {"fusion_lat": 0.0, "type": "electric_scooter", "name": "94f830e71d8938372cca33cb1e835912", "is_disabled": 0, "lon": -77.00345366666667, "fusion_lon": 0.0, "rental_uris": {"ios": "https://dc.lft.to/lastmile_qr_scan", "android": "https://dc.lft.to/lastmile_qr_scan"}, "lat": 38.89264283333333, "bike_id": "94f830e71d8938372cca33cb1e835912", "is_reserved": 0}, {"fusion_lat": 0.0, "type": "electric_scooter", "name": "4e3ca894969269bde7fff593a2fd8279", "is_disabled": 0, "lon": -77.04483716666667, "fusion_lon": 0.0, "rental_uris": {"ios": "https://dc.lft.to/lastmile_qr_scan", "android": "https://dc.lft.to/lastmile_qr_scan"}, "lat": 38.9011275, "bike_id": "4e3ca894969269bde7fff593a2fd8279", "is_reserved": 0}, {"fusion_lat": 0.0, "type": "electric_bike", "name": "b8920b0bfe7be5022e0eb10a35b14053", "is_disabled": 0, "lon": -76.9075065, "fusion_lon": 0.0, "rental_uris": {"ios": "https://dc.lft.to/lastmile_qr_scan", "android": "https://dc.lft.to/lastmile_qr_scan"}, "lat": 38.8962195, "bike_id": "b8920b0bfe7be5022e0eb10a35b14053", "is_reserved": 0}, {"fusion_lat": 0.0, "type": "electric_scooter", "name": "60710bf82e6cb6e51be4aaf3b8416145", "is_disabled": 0, "lon": -77.02938233333333, "fusion_lon": 0.0, "rental_uris": {"ios": "https://dc.lft.to/lastmile_qr_scan", "android": "https://dc.lft.to/lastmile_qr_scan"}, "lat": 38.90718116666667, "bike_id": "60710bf82e6cb6e51be4aaf3b8416145", "is_reserved": 0}, {"fusion_lat": 0.0, "type": "electric_scooter", "name": "dba52abc148aaf1ceab900af2a05978e", "is_disabled": 0, "lon": -77.02953433333333, "fusion_lon": 0.0, "rental_uris": {"ios": "https://dc.lft.to/lastmile_qr_scan", "android": "https://dc.lft.to/lastmile_qr_scan"}, "lat": 38.916815666666665, "bike_id": "dba52abc148aaf1ceab900af2a05978e", "is_reserved": 0}, {"fusion_lat": 0.0, "type": "electric_bike", "name": "97d488be996a52af408697a449246805", "is_disabled": 0, "lon": -77.00614966666667, "fusion_lon": 0.0, "rental_uris": {"ios": "https://dc.lft.to/lastmile_qr_scan", "android": "https://dc.lft.to/lastmile_qr_scan"}, "lat": 38.82399, "bike_id": "97d488be996a52af408697a449246805", "is_reserved": 0}, {"fusion_lat": 0.0, "type": "electric_scooter", "name": "09879d5c4ad844e22c12a695644355b9", "is_disabled": 0, "lon": -77.02788716666667, "fusion_lon": 0.0, "rental_uris": {"ios": "https://dc.lft.to/lastmile_qr_scan", "android": "https://dc.lft.to/lastmile_qr_scan"}, "lat": 38.9028945, "bike_id": "09879d5c4ad844e22c12a695644355b9", "is_reserved": 0}, {"fusion_lat": 0.0, "type": "electric_scooter", "name": "d33689ebb43645796d8d1ccfb9281421", "is_disabled": 0, "lon": -77.0231835, "fusion_lon": 0.0, "rental_uris": {"ios": "https://dc.lft.to/lastmile_qr_scan", "android": "https://dc.lft.to/lastmile_qr_scan"}, "lat": 38.89656766666667, "bike_id": "d33689ebb43645796d8d1ccfb9281421", "is_reserved": 0}, {"fusion_lat": 0.0, "type": "electric_scooter", "name": "ac7a95481697bad170311df26ee052be", "is_disabled": 0, "lon": -76.99974266666666, "fusion_lon": 0.0, "rental_uris": {"ios": "https://dc.lft.to/lastmile_qr_scan", "android": "https://dc.lft.to/lastmile_qr_scan"}, "lat": 38.89903966666667, "bike_id": "ac7a95481697bad170311df26ee052be", "is_reserved": 0}, {"fusion_lat": 0.0, "type": "electric_scooter", "name": "12035c816afc8e4a476ad99d668d8f95", "is_disabled": 0, "lon": -77.015054, "fusion_lon": 0.0, "rental_uris": {"ios": "https://dc.lft.to/lastmile_qr_scan", "android": "https://dc.lft.to/lastmile_qr_scan"}, "lat": 38.89116383333333, "bike_id": "12035c816afc8e4a476ad99d668d8f95", "is_reserved": 0}, {"fusion_lat": 0.0, "type": "electric_scooter", "name": "fb15432c09e296500df0613afe0b129b", "is_disabled": 0, "lon": -77.0316135, "fusion_lon": 0.0, "rental_uris": {"ios": "https://dc.lft.to/lastmile_qr_scan", "android": "https://dc.lft.to/lastmile_qr_scan"}, "lat": 38.9593325, "bike_id": "fb15432c09e296500df0613afe0b129b", "is_reserved": 0}, {"fusion_lat": 0.0, "type": "electric_scooter", "name": "837a3ce79cb81eda802eec2c2e692011", "is_disabled": 0, "lon": -76.991878, "fusion_lon": 0.0, "rental_uris": {"ios": "https://dc.lft.to/lastmile_qr_scan", "android": "https://dc.lft.to/lastmile_qr_scan"}, "lat": 38.9090705, "bike_id": "837a3ce79cb81eda802eec2c2e692011", "is_reserved": 0}, {"fusion_lat": 0.0, "type": "electric_scooter", "name": "322d13765e4ccb905d732d726d6021ac", "is_disabled": 0, "lon": -77.01359783333334, "fusion_lon": 0.0, "rental_uris": {"ios": "https://dc.lft.to/lastmile_qr_scan", "android": "https://dc.lft.to/lastmile_qr_scan"}, "lat": 38.89815766666667, "bike_id": "322d13765e4ccb905d732d726d6021ac", "is_reserved": 0}, {"fusion_lat": 0.0, "type": "electric_scooter", "name": "bc70ea19ec3acf8d2ccd69e3e766d582", "is_disabled": 0, "lon": -77.044793, "fusion_lon": 0.0, "rental_uris": {"ios": "https://dc.lft.to/lastmile_qr_scan", "android": "https://dc.lft.to/lastmile_qr_scan"}, "lat": 38.900190333333335, "bike_id": "bc70ea19ec3acf8d2ccd69e3e766d582", "is_reserved": 0}, {"fusion_lat": 0.0, "type": "electric_scooter", "name": "eb1ab1c98d7cd892e9f008645c184fd0", "is_disabled": 0, "lon": -77.01103716666667, "fusion_lon": 0.0, "rental_uris": {"ios": "https://dc.lft.to/lastmile_qr_scan", "android": "https://dc.lft.to/lastmile_qr_scan"}, "lat": 38.9097315, "bike_id": "eb1ab1c98d7cd892e9f008645c184fd0", "is_reserved": 0}, {"fusion_lat": 0.0, "type": "electric_scooter", "name": "022141c7100e1b95455610eb2efe8e47", "is_disabled": 0, "lon": -77.06143083333333, "fusion_lon": 0.0, "rental_uris": {"ios": "https://dc.lft.to/lastmile_qr_scan", "android": "https://dc.lft.to/lastmile_qr_scan"}, "lat": 38.9434365, "bike_id": "022141c7100e1b95455610eb2efe8e47", "is_reserved": 0}, {"fusion_lat": 0.0, "type": "electric_scooter", "name": "b2daf52f6f217257382ab79d7786fc52", "is_disabled": 0, "lon": -77.038538, "fusion_lon": 0.0, "rental_uris": {"ios": "https://dc.lft.to/lastmile_qr_scan", "android": "https://dc.lft.to/lastmile_qr_scan"}, "lat": 38.9251985, "bike_id": "b2daf52f6f217257382ab79d7786fc52", "is_reserved": 0}, {"fusion_lat": 0.0, "type": "electric_scooter", "name": "91c88ca302fd696bb36d2472a84fed11", "is_disabled": 0, "lon": -77.03837183333333, "fusion_lon": 0.0, "rental_uris": {"ios": "https://dc.lft.to/lastmile_qr_scan", "android": "https://dc.lft.to/lastmile_qr_scan"}, "lat": 38.921701166666665, "bike_id": "91c88ca302fd696bb36d2472a84fed11", "is_reserved": 0}, {"fusion_lat": 0.0, "type": "electric_scooter", "name": "8b313a7bfa553fe4d2d9060e118e0155", "is_disabled": 0, "lon": -77.0432005, "fusion_lon": 0.0, "rental_uris": {"ios": "https://dc.lft.to/lastmile_qr_scan", "android": "https://dc.lft.to/lastmile_qr_scan"}, "lat": 38.905156, "bike_id": "8b313a7bfa553fe4d2d9060e118e0155", "is_reserved": 0}, {"fusion_lat": 0.0, "type": "electric_scooter", "name": "07732438d364e20fa08837f2911add90", "is_disabled": 0, "lon": -77.02607583333334, "fusion_lon": 0.0, "rental_uris": {"ios": "https://dc.lft.to/lastmile_qr_scan", "android": "https://dc.lft.to/lastmile_qr_scan"}, "lat": 38.92037933333334, "bike_id": "07732438d364e20fa08837f2911add90", "is_reserved": 0}, {"fusion_lat": 0.0, "type": "electric_scooter", "name": "fe834aa7362ddc5919ebc0c35614890b", "is_disabled": 0, "lon": -77.03386116666667, "fusion_lon": 0.0, "rental_uris": {"ios": "https://dc.lft.to/lastmile_qr_scan", "android": "https://dc.lft.to/lastmile_qr_scan"}, "lat": 38.899615833333336, "bike_id": "fe834aa7362ddc5919ebc0c35614890b", "is_reserved": 0}, {"fusion_lat": 0.0, "type": "electric_scooter", "name": "e095b967bac5858471011afb54f2c15b", "is_disabled": 0, "lon": -77.03484233333333, "fusion_lon": 0.0, "rental_uris": {"ios": "https://dc.lft.to/lastmile_qr_scan", "android": "https://dc.lft.to/lastmile_qr_scan"}, "lat": 38.90567466666667, "bike_id": "e095b967bac5858471011afb54f2c15b", "is_reserved": 0}, {"fusion_lat": 0.0, "type": "electric_scooter", "name": "eba04a7d529c0c27689eb1ca505db60a", "is_disabled": 0, "lon": -77.00195616666667, "fusion_lon": 0.0, "rental_uris": {"ios": "https://dc.lft.to/lastmile_qr_scan", "android": "https://dc.lft.to/lastmile_qr_scan"}, "lat": 38.911813333333335, "bike_id": "eba04a7d529c0c27689eb1ca505db60a", "is_reserved": 0}, {"fusion_lat": 0.0, "type": "electric_scooter", "name": "76816ee7e9e46881ab7b04f710852e1e", "is_disabled": 0, "lon": -77.053604, "fusion_lon": 0.0, "rental_uris": {"ios": "https://dc.lft.to/lastmile_qr_scan", "android": "https://dc.lft.to/lastmile_qr_scan"}, "lat": 38.90365116666667, "bike_id": "76816ee7e9e46881ab7b04f710852e1e", "is_reserved": 0}, {"fusion_lat": 0.0, "type": "electric_bike", "name": "7be8b64394fa450577c35bac72118d28", "is_disabled": 0, "lon": -76.95457083333334, "fusion_lon": 0.0, "rental_uris": {"ios": "https://dc.lft.to/lastmile_qr_scan", "android": "https://dc.lft.to/lastmile_qr_scan"},