{"data": {"bikes": [{"name": "d6316ed88d8157d09121d253562bbace", "is_reserved": 0, "type": "electric_bike", "rental_uris": {"ios": "https://dc.lft.to/lastmile_qr_scan", "android": "https://dc.lft.to/lastmile_qr_scan"}, "lat": 39.02891833333333, "lon": -77.0959755, "bike_id": "d6316ed88d8157d09121d253562bbace", "fusion_lat": 0.0, "is_disabled": 0, "fusion_lon": 0.0}, {"name": "bde227f498d610bda3890124a1fd6b85", "is_reserved": 0, "type": "electric_scooter", "rental_uris": {"ios": "https://dc.lft.to/lastmile_qr_scan", "android": "https://dc.lft.to/lastmile_qr_scan"}, "lat": 38.88263933333333, "lon": -76.99506666666667, "bike_id": "bde227f498d610bda3890124a1fd6b85", "fusion_lat": 0.0, "is_disabled": 0, "fusion_lon": 0.0}, {"name": "debec34015566cdb460d60fcf82d2a36", "is_reserved": 0, "type": "electric_scooter", "rental_uris": {"ios": "https://dc.lft.to/lastmile_qr_scan", "android": "https://dc.lft.to/lastmile_qr_scan"}, "lat": 38.92240366666667, "lon": -77.03093233333334, "bike_id": "debec34015566cdb460d60fcf82d2a36", "fusion_lat": 0.0, "is_disabled": 0, "fusion_lon": 0.0}, {"name": "62a388c576867a1086755e4798eaf6bd", "is_reserved": 0, "type": "electric_scooter", "rental_uris": {"ios": "https://dc.lft.to/lastmile_qr_scan", "android": "https://dc.lft.to/lastmile_qr_scan"}, "lat": 38.92365783333333, "lon": -77.0429285, "bike_id": "62a388c576867a1086755e4798eaf6bd", "fusion_lat": 0.0, "is_disabled": 0, "fusion_lon": 0.0}, {"name": "4211ee743f88cc13ed2f2817b2869ff1", "is_reserved": 0, "type": "electric_scooter", "rental_uris": {"ios": "https://dc.lft.to/lastmile_qr_scan", "android": "https://dc.lft.to/lastmile_qr_scan"}, "lat": 38.942272333333335, "lon": -77.02553333333333, "bike_id": "4211ee743f88cc13ed2f2817b2869ff1", "fusion_lat": 0.0, "is_disabled": 0, "fusion_lon": 0.0}, {"name": "51a2ba1a8a0112ac8f19e639e2f7db4b", "is_reserved": 0, "type": "electric_scooter", "rental_uris": {"ios": "https://dc.lft.to/lastmile_qr_scan", "android": "https://dc.lft.to/lastmile_qr_scan"}, "lat": 38.9235515, "lon": -76.9995705, "bike_id": "51a2ba1a8a0112ac8f19e639e2f7db4b", "fusion_lat": 0.0, "is_disabled": 0, "fusion_lon": 0.0}, {"name": "751bd8622a9884a4fca567cae45d9afc", "is_reserved": 0, "type": "electric_scooter", "rental_uris": {"ios": "https://dc.lft.to/lastmile_qr_scan", "android": "https://dc.lft.to/lastmile_qr_scan"}, "lat": 38.93706916666667, "lon": -77.02432216666666, "bike_id": "751bd8622a9884a4fca567cae45d9afc", "fusion_lat": 0.0, "is_disabled": 0, "fusion_lon": 0.0}, {"name": "5ca92509a754796dad703059c42e163b", "is_reserved": 0, "type": "electric_scooter", "rental_uris": {"ios": "https://dc.lft.to/lastmile_qr_scan", "android": "https://dc.lft.to/lastmile_qr_scan"}, "lat": 38.9077645, "lon": -77.0034145, "bike_id": "5ca92509a754796dad703059c42e163b", "fusion_lat": 0.0, "is_disabled": 0, "fusion_lon": 0.0}, {"name": "3ab92a420e2672103a27ba7d4985a9b1", "is_reserved": 0, "type": "electric_scooter", "rental_uris": {"ios": "https://dc.lft.to/lastmile_qr_scan", "android": "https://dc.lft.to/lastmile_qr_scan"}, "lat": 38.887336833333336, "lon": -77.01389366666666, "bike_id": "3ab92a420e2672103a27ba7d4985a9b1", "fusion_lat": 0.0, "is_disabled": 0, "fusion_lon": 0.0}, {"name": "ab585e330f77550423a19db20c5b72c5", "is_reserved": 0, "type": "electric_bike", "rental_uris": {"ios": "https://dc.lft.to/lastmile_qr_scan", "android": "https://dc.lft.to/lastmile_qr_scan"}, "lat": 39.024423166666665, "lon": -77.1310115, "bike_id": "ab585e330f77550423a19db20c5b72c5", "fusion_lat": 0.0, "is_disabled": 0, "fusion_lon": 0.0}, {"name": "4f96e295b82f45140d22015192385d03", "is_reserved": 0, "type": "electric_bike", "rental_uris": {"ios": "https://dc.lft.to/lastmile_qr_scan", "android": "https://dc.lft.to/lastmile_qr_scan"}, "lat": 38.885879833333334, "lon": -77.0607725, "bike_id": "4f96e295b82f45140d22015192385d03", "fusion_lat": 0.0, "is_disabled": 0, "fusion_lon": 0.0}, {"name": "07292661d3c20905ea6f61c062a7b72a", "is_reserved": 0, "type": "electric_scooter", "rental_uris": {"ios": "https://dc.lft.to/lastmile_qr_scan", "android": "https://dc.lft.to/lastmile_qr_scan"}, "lat": 38.9014615, "lon": -77.00075366666667, "bike_id": "07292661d3c20905ea6f61c062a7b72a", "fusion_lat": 0.0, "is_disabled": 0, "fusion_lon": 0.0}, {"name": "87db2971e5e922bb98ea508e714c66d0", "is_reserved": 0, "type": "electric_scooter", "rental_uris": {"ios": "https://dc.lft.to/lastmile_qr_scan", "android": "https://dc.lft.to/lastmile_qr_scan"}, "lat": 38.924189166666665, "lon": -77.03556033333334, "bike_id": "87db2971e5e922bb98ea508e714c66d0", "fusion_lat": 0.0, "is_disabled": 0, "fusion_lon": 0.0}, {"name": "a4d1169354a5181f48486f13312c70ca", "is_reserved": 0, "type": "electric_bike", "rental_uris": {"ios": "https://dc.lft.to/lastmile_qr_scan", "android": "https://dc.lft.to/lastmile_qr_scan"}, "lat": 38.83177116666667, "lon": -77.06698583333333, "bike_id": "a4d1169354a5181f48486f13312c70ca", "fusion_lat": 0.0, "is_disabled": 0, "fusion_lon": 0.0}, {"name": "a8c0893047a21952d250fe542b87bfa6", "is_reserved": 0, "type": "electric_scooter", "rental_uris": {"ios": "https://dc.lft.to/lastmile_qr_scan", "android": "https://dc.lft.to/lastmile_qr_scan"}, "lat": 38.926535666666666, "lon": -77.03317583333333, "bike_id": "a8c0893047a21952d250fe542b87bfa6", "fusion_lat": 0.0, "is_disabled": 0, "fusion_lon": 0.0}, {"name": "4d19b26674df5ee1984cc0de476c288b", "is_reserved": 0, "type": "electric_scooter", "rental_uris": {"ios": "https://dc.lft.to/lastmile_qr_scan", "android": "https://dc.lft.to/lastmile_qr_scan"}, "lat": 38.924938166666664, "lon": -77.035005, "bike_id": "4d19b26674df5ee1984cc0de476c288b", "fusion_lat": 0.0, "is_disabled": 0, "fusion_lon": 0.0}, {"name": "232b2cffe080e4c51aa59372510f7822", "is_reserved": 0, "type": "electric_scooter", "rental_uris": {"ios": "https://dc.lft.to/lastmile_qr_scan", "android": "https://dc.lft.to/lastmile_qr_scan"}, "lat": 38.8941665, "lon": -77.02182483333333, "bike_id": "232b2cffe080e4c51aa59372510f7822", "fusion_lat": 0.0, "is_disabled": 0, "fusion_lon": 0.0}, {"name": "54f8106ee4e8befbd3f442e807414da9", "is_reserved": 0, "type": "electric_scooter", "rental_uris": {"ios": "https://dc.lft.to/lastmile_qr_scan", "android": "https://dc.lft.to/lastmile_qr_scan"}, "lat": 38.89096633333333, "lon": -76.91871133333333, "bike_id": "54f8106ee4e8befbd3f442e807414da9", "fusion_lat": 0.0, "is_disabled": 0, "fusion_lon": 0.0}, {"name": "bc12504b439e3654a4c152ed3ec95b1c", "is_reserved": 0, "type": "electric_scooter", "rental_uris": {"ios": "https://dc.lft.to/lastmile_qr_scan", "android": "https://dc.lft.to/lastmile_qr_scan"}, "lat": 38.900264166666666, "lon": -77.0070185, "bike_id": "bc12504b439e3654a4c152ed3ec95b1c", "fusion_lat": 0.0, "is_disabled": 0, "fusion_lon": 0.0}, {"name": "7ecb20f4e96028afdf8cefb6150774db", "is_reserved": 0, "type": "electric_scooter", "rental_uris": {"ios": "https://dc.lft.to/lastmile_qr_scan", "android": "https://dc.lft.to/lastmile_qr_scan"}, "lat": 38.94954583333333, "lon": -77.08026616666666, "bike_id": "7ecb20f4e96028afdf8cefb6150774db", "fusion_lat": 0.0, "is_disabled": 0, "fusion_lon": 0.0}, {"name": "36f3d383c7218d2b3a203a596220a759", "is_reserved": 0, "type": "electric_bike", "rental_uris": {"ios": "https://dc.lft.to/lastmile_qr_scan", "android": "https://dc.lft.to/lastmile_qr_scan"}, "lat": 38.937488333333334, "lon": -76.94585216666667, "bike_id": "36f3d383c7218d2b3a203a596220a759", "fusion_lat": 0.0, "is_disabled": 0, "fusion_lon": 0.0}, {"name": "2134b9600291502e8034ef992a79c649", "is_reserved": 0, "type": "electric_scooter", "rental_uris": {"ios": "https://dc.lft.to/lastmile_qr_scan", "android": "https://dc.lft.to/lastmile_qr_scan"}, "lat": 38.886769, "lon": -77.024049, "bike_id": "2134b9600291502e8034ef992a79c649", "fusion_lat": 0.0, "is_disabled": 0, "fusion_lon": 0.0}, {"name": "03dbe51ba70f319256be94da4a8a50d5", "is_reserved": 0, "type": "electric_scooter", "rental_uris": {"ios": "https://dc.lft.to/lastmile_qr_scan", "android": "https://dc.lft.to/lastmile_qr_scan"}, "lat": 38.93659533333334, "lon": -77.03689583333333, "bike_id": "03dbe51ba70f319256be94da4a8a50d5", "fusion_lat": 0.0, "is_disabled": 0, "fusion_lon": 0.0}, {"name": "5780a0deee2d846f4b1bd3ac70e9df91", "is_reserved": 0, "type": "electric_scooter", "rental_uris": {"ios": "https://dc.lft.to/lastmile_qr_scan", "android": "https://dc.lft.to/lastmile_qr_scan"}, "lat": 38.92470316666667, "lon": -77.00224166666666, "bike_id": "5780a0deee2d846f4b1bd3ac70e9df91", "fusion_lat": 0.0, "is_disabled": 0, "fusion_lon": 0.0}, {"name": "e29b48111cd33e7a9d6e1fed869e7f8e", "is_reserved": 0, "type": "electric_scooter", "rental_uris": {"ios": "https://dc.lft.to/lastmile_qr_scan", "android": "https://dc.lft.to/lastmile_qr_scan"}, "lat": 38.90372883333333, "lon": -77.0269265, "bike_id": "e29b48111cd33e7a9d6e1fed869e7f8e", "fusion_lat": 0.0, "is_disabled": 0, "fusion_lon": 0.0}, {"name": "2b5fffabd49b026ed0d810cc9e660980", "is_reserved": 0, "type": "electric_scooter", "rental_uris": {"ios": "https://dc.lft.to/lastmile_qr_scan", "android": "https://dc.lft.to/lastmile_qr_scan"}, "lat": 38.916687, "lon": -77.03460733333333, "bike_id": "2b5fffabd49b026ed0d810cc9e660980", "fusion_lat": 0.0, "is_disabled": 0, "fusion_lon": 0.0}, {"name": "ef6e763be10b72ba780843fecfac9713", "is_reserved": 0, "type": "electric_scooter", "rental_uris": {"ios": "https://dc.lft.to/lastmile_qr_scan", "android": "https://dc.lft.to/lastmile_qr_scan"}, "lat": 38.909616666666665, "lon": -77.02287883333334, "bike_id": "ef6e763be10b72ba780843fecfac9713", "fusion_lat": 0.0, "is_disabled": 0, "fusion_lon": 0.0}, {"name": "f1838e83947139440d1905315f2dac9b", "is_reserved": 0, "type": "electric_scooter", "rental_uris": {"ios": "https://dc.lft.to/lastmile_qr_scan", "android": "https://dc.lft.to/lastmile_qr_scan"}, "lat": 38.92132183333333, "lon": -77.02534183333333, "bike_id": "f1838e83947139440d1905315f2dac9b", "fusion_lat": 0.0, "is_disabled": 0, "fusion_lon": 0.0}, {"name": "e9f408f7bcaa6fdd538c3ee1053b33d6", "is_reserved": 0, "type": "electric_scooter", "rental_uris": {"ios": "https://dc.lft.to/lastmile_qr_scan", "android": "https://dc.lft.to/lastmile_qr_scan"}, "lat": 38.895606666666666, "lon": -77.0216975, "bike_id": "e9f408f7bcaa6fdd538c3ee1053b33d6", "fusion_lat": 0.0, "is_disabled": 0, "fusion_lon": 0.0}, {"name": "8556080c9350b5f59e4666144fbad346", "is_reserved": 0, "type": "electric_bike", "rental_uris": {"ios": "https://dc.lft.to/lastmile_qr_scan", "android": "https://dc.lft.to/lastmile_qr_scan"}, "lat": 38.936377666666665, "lon": -77.02963133333333, "bike_id": "8556080c9350b5f59e4666144fbad346", "fusion_lat": 0.0, "is_disabled": 0, "fusion_lon": 0.0}, {"name": "cce0679064282ef46d0a4643adb9e19e", "is_reserved": 0, "type": "electric_scooter", "rental_uris": {"ios": "https://dc.lft.to/lastmile_qr_scan", "android": "https://dc.lft.to/lastmile_qr_scan"}, "lat": 38.92416, "lon": -77.05060383333333, "bike_id": "cce0679064282ef46d0a4643adb9e19e", "fusion_lat": 0.0, "is_disabled": 0, "fusion_lon": 0.0}, {"name": "8d855ff96a58f2c0ed65aec2dcf760e8", "is_reserved": 0, "type": "electric_scooter", "rental_uris": {"ios": "https://dc.lft.to/lastmile_qr_scan", "android": "https://dc.lft.to/lastmile_qr_scan"}, "lat": 38.91495833333333, "lon": -77.03126333333333, "bike_id": "8d855ff96a58f2c0ed65aec2dcf760e8", "fusion_lat": 0.0, "is_disabled": 0, "fusion_lon": 0.0}, {"name": "b1eed33252ef08a794163029dacb8f7f", "is_reserved": 0, "type": "electric_scooter", "rental_uris": {"ios": "https://dc.lft.to/lastmile_qr_scan", "android": "https://dc.lft.to/lastmile_qr_scan"}, "lat": 38.8793945, "lon": -77.0170625, "bike_id": "b1eed33252ef08a794163029dacb8f7f", "fusion_lat": 0.0, "is_disabled": 0, "fusion_lon": 0.0}, {"name": "6e622ae1f1cee2106b0d013c15350fb9", "is_reserved": 0, "type": "electric_scooter", "rental_uris": {"ios": "https://dc.lft.to/lastmile_qr_scan", "android": "https://dc.lft.to/lastmile_qr_scan"}, "lat": 38.90038716666667, "lon": -76.991593, "bike_id": "6e622ae1f1cee2106b0d013c15350fb9", "fusion_lat": 0.0, "is_disabled": 0, "fusion_lon": 0.0}, {"name": "0b75946569cc8795462e6fedaaf7c376", "is_reserved": 0, "type": "electric_scooter", "rental_uris": {"ios": "https://dc.lft.to/lastmile_qr_scan", "android": "https://dc.lft.to/lastmile_qr_scan"}, "lat": 38.8903345, "lon": -76.951298, "bike_id": "0b75946569cc8795462e6fedaaf7c376", "fusion_lat": 0.0, "is_disabled": 0, "fusion_lon": 0.0}, {"name": "0549d083172238ca6fe64c78596c3857", "is_reserved": 0, "type": "electric_scooter", "rental_uris": {"ios": "https://dc.lft.to/lastmile_qr_scan", "android": "https://dc.lft.to/lastmile_qr_scan"}, "lat": 38.903652, "lon": -77.05061716666667, "bike_id": "0549d083172238ca6fe64c78596c3857", "fusion_lat": 0.0, "is_disabled": 0, "fusion_lon": 0.0}, {"name": "bebdb7ffafeca2b35bc485259c29d885", "is_reserved": 0, "type": "electric_scooter", "rental_uris": {"ios": "https://dc.lft.to/lastmile_qr_scan", "android": "https://dc.lft.to/lastmile_qr_scan"}, "lat": 38.930631166666664, "lon": -77.03798116666667, "bike_id": "bebdb7ffafeca2b35bc485259c29d885", "fusion_lat": 0.0, "is_disabled": 0, "fusion_lon": 0.0}, {"name": "d0c695fe6a495b51dbfeef434ab9b676", "is_reserved": 0, "type": "electric_bike", "rental_uris": {"ios": "https://dc.lft.to/lastmile_qr_scan", "android": "https://dc.lft.to/lastmile_qr_scan"}, "lat": 38.8429495, "lon": -77.0895555, "bike_id": "d0c695fe6a495b51dbfeef434ab9b676", "fusion_lat": 0.0, "is_disabled": 0, "fusion_lon": 0.0}, {"name": "307b4e9067806e3fc30d55e3a5be5679", "is_reserved": 0, "type": "electric_scooter", "rental_uris": {"ios": "https://dc.lft.to/lastmile_qr_scan", "android": "https://dc.lft.to/lastmile_qr_scan"}, "lat": 38.90562883333333, "lon": -77.0222685, "bike_id": "307b4e9067806e3fc30d55e3a5be5679", "fusion_lat": 0.0, "is_disabled": 0, "fusion_lon": 0.0}, {"name": "a03abd193703359da4d3a53c6a634f3e", "is_reserved": 0, "type": "electric_scooter", "rental_uris": {"ios": "https://dc.lft.to/lastmile_qr_scan", "android": "https://dc.lft.to/lastmile_qr_scan"}, "lat": 38.905004166666664, "lon": -76.94964916666666, "bike_id": "a03abd193703359da4d3a53c6a634f3e", "fusion_lat": 0.0, "is_disabled": 0, "fusion_lon": 0.0}, {"name": "f71c2c3167d5289716437ed05a46bb35", "is_reserved": 0, "type": "electric_scooter", "rental_uris": {"ios": "https://dc.lft.to/lastmile_qr_scan", "android": "https://dc.lft.to/lastmile_qr_scan"}, "lat": 38.890529666666666, "lon": -76.937579, "bike_id": "f71c2c3167d5289716437ed05a46bb35", "fusion_lat": 0.0, "is_disabled": 0, "fusion_lon": 0.0}, {"name": "836f71f16a740150bfc877ef4a194014", "is_reserved": 0, "type": "electric_scooter", "rental_uris": {"ios": "https://dc.lft.to/lastmile_qr_scan", "android": "https://dc.lft.to/lastmile_qr_scan"}, "lat": 38.91444966666667, "lon": -77.0020955, "bike_id": "836f71f16a740150bfc877ef4a194014", "fusion_lat": 0.0, "is_disabled": 0, "fusion_lon": 0.0}, {"name": "fcf360c592e1ef53d41c014c3368a988", "is_reserved": 0, "type": "electric_bike", "rental_uris": {"ios": "https://dc.lft.to/lastmile_qr_scan", "android": "https://dc.lft.to/lastmile_qr_scan"}, "lat": 38.864877666666665, "lon": -77.07310616666666, "bike_id": "fcf360c592e1ef53d41c014c3368a988", "fusion_lat": 0.0, "is_disabled": 0, "fusion_lon": 0.0}, {"name": "f890be1d71979a1e3b0709d0389f9439", "is_reserved": 0, "type": "electric_scooter", "rental_uris": {"ios": "https://dc.lft.to/lastmile_qr_scan", "android": "https://dc.lft.to/lastmile_qr_scan"}, "lat": 38.894412, "lon": -76.9496255, "bike_id": "f890be1d71979a1e3b0709d0389f9439", "fusion_lat": 0.0, "is_disabled": 0, "fusion_lon": 0.0}, {"name": "8529c8db21972c973b7d0e9149db1140", "is_reserved": 0, "type": "electric_bike", "rental_uris": {"ios": "https://dc.lft.to/lastmile_qr_scan", "android": "https://dc.lft.to/lastmile_qr_scan"}, "lat": 38.843760333333336, "lon": -76.97836183333334, "bike_id": "8529c8db21972c973b7d0e9149db1140", "fusion_lat": 0.0, "is_disabled": 0, "fusion_lon": 0.0}, {"name": "e61451f79fc5432614866067709c1177", "is_reserved": 0, "type": "electric_scooter", "rental_uris": {"ios": "https://dc.lft.to/lastmile_qr_scan", "android": "https://dc.lft.to/lastmile_qr_scan"}, "lat": 38.91784083333334, "lon": -77.04335066666667, "bike_id": "e61451f79fc5432614866067709c1177", "fusion_lat": 0.0, "is_disabled": 0, "fusion_lon": 0.0}, {"name": "1024427a921b0e6f1c2d9359a1b8ec92", "is_reserved": 0, "type": "electric_scooter", "rental_uris": {"ios": "https://dc.lft.to/lastmile_qr_scan", "android": "https://dc.lft.to/lastmile_qr_scan"}, "lat": 38.922737166666664, "lon": -77.01984983333334, "bike_id": "1024427a921b0e6f1c2d9359a1b8ec92", "fusion_lat": 0.0, "is_disabled": 0, "fusion_lon": 0.0}, {"name": "402cf82764c115309f84ee1e5f5cdee5", "is_reserved": 0, "type": "electric_scooter", "rental_uris": {"ios": "https://dc.lft.to/lastmile_qr_scan", "android": "https://dc.lft.to/lastmile_qr_scan"}, "lat": 38.89974466666666, "lon": -76.98709183333334, "bike_id": "402cf82764c115309f84ee1e5f5cdee5", "fusion_lat": 0.0, "is_disabled": 0, "fusion_lon": 0.0}, {"name": "ccd68ab0b2c1877059eedba3ae5fc9dc", "is_reserved": 0, "type": "electric_scooter", "rental_uris": {"ios": "https://dc.lft.to/lastmile_qr_scan", "android": "https://dc.lft.to/lastmile_qr_scan"}, "lat": 38.844358166666666, "lon": -76.99778983333333, "bike_id": "ccd68ab0b2c1877059eedba3ae5fc9dc", "fusion_lat": 0.0, "is_disabled": 0, "fusion_lon": 0.0}, {"name": "8708416e5806c82d3eabd54f030c0268", "is_reserved": 0, "type": "electric_scooter", "rental_uris": {"ios": "https://dc.lft.to/lastmile_qr_scan", "android": "https://dc.lft.to/lastmile_qr_scan"}, "lat": 38.89327466666667, "lon": -76.94381183333333, "bike_id": "8708416e5806c82d3eabd54f030c0268", "fusion_lat": 0.0, "is_disabled": 0, "fusion_lon": 0.0}, {"name": "e3f847e09c1bb3e7f9627de50eed0d4d", "is_reserved": 0, "type": "electric_scooter", "rental_uris": {"ios": "https://dc.lft.to/lastmile_qr_scan", "android": "https://dc.lft.to/lastmile_qr_scan"}, "lat": 38.89670383333333, "lon": -77.0322105, "bike_id": "e3f847e09c1bb3e7f9627de50eed0d4d", "fusion_lat": 0.0, "is_disabled": 0, "fusion_lon": 0.0}, {"name": "a963147c1cd6a083f0c9978ddb942ed2", "is_reserved": 0, "type": "electric_bike", "rental_uris": {"ios": "https://dc.lft.to/lastmile_qr_scan", "android": "https://dc.lft.to/lastmile_qr_scan"}, "lat": 38.92092533333334, "lon": -77.0222505, "bike_id": "a963147c1cd6a083f0c9978ddb942ed2", "fusion_lat": 0.0, "is_disabled": 0, "fusion_lon": 0.0}, {"name": "96235c4ea8ae9153045fbe3dbe2d425c", "is_reserved": 0, "type": "electric_scooter", "rental_uris": {"ios": "https://dc.lft.to/lastmile_qr_scan", "android": "https://dc.lft.to/lastmile_qr_scan"}, "lat": 38.902392, "lon": -77.00201183333333, "bike_id": "96235c4ea8ae9153045fbe3dbe2d425c", "fusion_lat": 0.0, "is_disabled": 0, "fusion_lon": 0.0}, {"name": "dd6ebef5457617eba1d05583ab184812", "is_reserved": 0, "type": "electric_scooter", "rental_uris": {"ios": "https://dc.lft.to/lastmile_qr_scan", "android": "https://dc.lft.to/lastmile_qr_scan"}, "lat": 38.90406183333333, "lon": -76.97425083333333, "bike_id": "dd6ebef5457617eba1d05583ab184812", "fusion_lat": 0.0, "is_disabled": 0, "fusion_lon": 0.0}, {"name": "21179dbc6cd03485ebb78c155e0e0cf0", "is_reserved": 0, "type": "electric_scooter", "rental_uris": {"ios": "https://dc.lft.to/lastmile_qr_scan", "android": "https://dc.lft.to/lastmile_qr_scan"}, "lat": 38.9193505, "lon": -77.0190655, "bike_id": "21179dbc6cd03485ebb78c155e0e0cf0", "fusion_lat": 0.0, "is_disabled": 0, "fusion_lon": 0.0}, {"name": "77d05a8e1d7fca0c53cc7c2dc8001588", "is_reserved": 0, "type": "electric_bike", "rental_uris": {"ios": "https://dc.lft.to/lastmile_qr_scan", "android": "https://dc.lft.to/lastmile_qr_scan"}, "lat": 38.903668333333336, "lon": -77.1059555, "bike_id": "77d05a8e1d7fca0c53cc7c2dc8001588", "fusion_lat": 0.0, "is_disabled": 0, "fusion_lon": 0.0}, {"name": "bb9ff79205cb507188603fba11fd7146", "is_reserved": 0, "type": "electric_scooter", "rental_uris": {"ios": "https://dc.lft.to/lastmile_qr_scan", "android": "https://dc.lft.to/lastmile_qr_scan"}, "lat": 38.911101333333335, "lon": -77.03816516666667, "bike_id": "bb9ff79205cb507188603fba11fd7146", "fusion_lat": 0.0, "is_disabled": 0, "fusion_lon": 0.0}, {"name": "50cae0bb53f2405231af4c220c7b110f", "is_reserved": 0, "type": "electric_scooter", "rental_uris": {"ios": "https://dc.lft.to/lastmile_qr_scan", "android": "https://dc.lft.to/lastmile_qr_scan"}, "lat": 38.913535, "lon": -77.04406366666667, "bike_id": "50cae0bb53f2405231af4c220c7b110f", "fusion_lat": 0.0, "is_disabled": 0, "fusion_lon": 0.0}, {"name": "07ecaf31fa89bc0701cee20dc4375c1f", "is_reserved": 0, "type": "electric_scooter", "rental_uris": {"ios": "https://dc.lft.to/lastmile_qr_scan", "android": "https://dc.lft.to/lastmile_qr_scan"}, "lat": 38.9096575, "lon": -77.03373716666667, "bike_id": "07ecaf31fa89bc0701cee20dc4375c1f", "fusion_lat": 0.0, "is_disabled": 0, "fusion_lon": 0.0}, {"name": "a8b6fc2c4cf41939b53e7db9d75ca498", "is_reserved": 0, "type": "electric_scooter", "rental_uris": {"ios": "https://dc.lft.to/lastmile_qr_scan", "android": "https://dc.lft.to/lastmile_qr_scan"}, "lat": 38.915543666666665, "lon": -77.031751, "bike_id": "a8b6fc2c4cf41939b53e7db9d75ca498", "fusion_lat": 0.0, "is_disabled": 0, "fusion_lon": 0.0}, {"name": "85966933924a9bd29f1b6fbdf27553f4", "is_reserved": 0, "type": "electric_scooter", "rental_uris": {"ios": "https://dc.lft.to/lastmile_qr_scan", "android": "https://dc.lft.to/lastmile_qr_scan"}, "lat": 38.934866166666666, "lon": -77.072746, "bike_id": "85966933924a9bd29f1b6fbdf27553f4", "fusion_lat": 0.0, "is_disabled": 0, "fusion_lon": 0.0}, {"name": "54797c098c096a28ffbd3e3cf0f5c40e", "is_reserved": 0, "type": "electric_bike", "rental_uris": {"ios": "https://dc.lft.to/lastmile_qr_scan", "android": "https://dc.lft.to/lastmile_qr_scan"}, "lat": 38.96209733333333, "lon": -77.03516266666666, "bike_id": "54797c098c096a28ffbd3e3cf0f5c40e", "fusion_lat": 0.0, "is_disabled": 0, "fusion_lon": 0.0}, {"name": "759093999af3c3f1efeae42906c31f5d", "is_reserved": 0, "type": "electric_scooter", "rental_uris": {"ios": "https://dc.lft.to/lastmile_qr_scan", "android": "https://dc.lft.to/lastmile_qr_scan"}, "lat": 38.8973305, "lon": -77.05131066666667, "bike_id": "759093999af3c3f1efeae42906c31f5d", "fusion_lat": 0.0, "is_disabled": 0, "fusion_lon": 0.0}, {"name": "c42ca9c050affe80b6efcce80c781382", "is_reserved": 0, "type": "electric_bike", "rental_uris": {"ios": "https://dc.lft.to/lastmile_qr_scan", "android": "https://dc.lft.to/lastmile_qr_scan"}, "lat": 38.950646, "lon": -77.066556, "bike_id": "c42ca9c050affe80b6efcce80c781382", "fusion_lat": 0.0, "is_disabled": 0, "fusion_lon": 0.0}, {"name": "72085acd2404aa7e4bf5caee920e4482", "is_reserved": 0, "type": "electric_scooter", "rental_uris": {"ios": "https://dc.lft.to/lastmile_qr_scan", "android": "https://dc.lft.to/lastmile_qr_scan"}, "lat": 38.90976283333333, "lon": -77.0454295, "bike_id": "72085acd2404aa7e4bf5caee920e4482", "fusion_lat": 0.0, "is_disabled": 0, "fusion_lon": 0.0}, {"name": "ef112bd2eef46a9f6f63995589eed383", "is_reserved": 0, "type": "electric_scooter", "rental_uris": {"ios": "https://dc.lft.to/lastmile_qr_scan", "android": "https://dc.lft.to/lastmile_qr_scan"}, "lat": 38.9199485, "lon": -77.02401166666667, "bike_id": "ef112bd2eef46a9f6f63995589eed383", "fusion_lat": 0.0, "is_disabled": 0, "fusion_lon": 0.0}, {"name": "8835d456416398ae026a51c5f6168c63", "is_reserved": 0, "type": "electric_scooter", "rental_uris": {"ios": "https://dc.lft.to/lastmile_qr_scan", "android": "https://dc.lft.to/lastmile_qr_scan"}, "lat": 38.9071115, "lon": -77.023888, "bike_id": "8835d456416398ae026a51c5f6168c63", "fusion_lat": 0.0, "is_disabled": 0, "fusion_lon": 0.0}, {"name": "9977554f174f2b507a04bea375a4080d", "is_reserved": 0, "type": "electric_scooter", "rental_uris": {"ios": "https://dc.lft.to/lastmile_qr_scan", "android": "https://dc.lft.to/lastmile_qr_scan"}, "lat": 38.93257066666666, "lon": -77.02940116666667, "bike_id": "9977554f174f2b507a04bea375a4080d", "fusion_lat": 0.0, "is_disabled": 0, "fusion_lon": 0.0}, {"name": "3424c495808aad935ce48a05eeb78fb9", "is_reserved": 0, "type": "electric_scooter", "rental_uris": {"ios": "https://dc.lft.to/lastmile_qr_scan", "android": "https://dc.lft.to/lastmile_qr_scan"}, "lat": 38.92372433333333, "lon": -77.0181855, "bike_id": "3424c495808aad935ce48a05eeb78fb9", "fusion_lat": 0.0, "is_disabled": 0, "fusion_lon": 0.0}, {"name": "12a2473d87b6efde9713d3e1df0461d6", "is_reserved": 0, "type": "electric_scooter", "rental_uris": {"ios": "https://dc.lft.to/lastmile_qr_scan", "android": "https://dc.lft.to/lastmile_qr_scan"}, "lat": 38.93484083333333, "lon": -77.0727175, "bike_id": "12a2473d87b6efde9713d3e1df0461d6", "fusion_lat": 0.0, "is_disabled": 0, "fusion_lon": 0.0}, {"name": "5d1c25e6d07db14d1c7a1a986f9783eb", "is_reserved": 0, "type": "electric_scooter", "rental_uris": {"ios": "https://dc.lft.to/lastmile_qr_scan", "android": "https://dc.lft.to/lastmile_qr_scan"}, "lat": 38.873912833333335, "lon": -77.0003535, "bike_id": "5d1c25e6d07db14d1c7a1a986f9783eb", "fusion_lat": 0.0, "is_disabled": 0, "fusion_lon": 0.0}, {"name": "7120af4fc868bd1b33745bf066160783", "is_reserved": 0, "type": "electric_scooter", "rental_uris": {"ios": "https://dc.lft.to/lastmile_qr_scan", "android": "https://dc.lft.to/lastmile_qr_scan"}, "lat": 38.90053733333333, "lon": -77.000648, "bike_id": "7120af4fc868bd1b33745bf066160783", "fusion_lat": 0.0, "is_disabled": 0, "fusion_lon": 0.0}, {"name": "1ef74eb0b81d6af93e8027af31b177bc", "is_reserved": 0, "type": "electric_scooter", "rental_uris": {"ios": "https://dc.lft.to/lastmile_qr_scan", "android": "https://dc.lft.to/lastmile_qr_scan"}, "lat": 38.875567833333335, "lon": -77.006181, "bike_id": "1ef74eb0b81d6af93e8027af31b177bc", "fusion_lat": 0.0, "is_disabled": 0, "fusion_lon": 0.0}, {"name": "61a7ed561c1246834b946751febadd4b", "is_reserved": 0, "type": "electric_scooter", "rental_uris": {"ios": "https://dc.lft.to/lastmile_qr_scan", "android": "https://dc.lft.to/lastmile_qr_scan"}, "lat": 38.93515383333333, "lon": -77.0581035, "bike_id": "61a7ed561c1246834b946751febadd4b", "fusion_lat": 0.0, "is_disabled": 0, "fusion_lon": 0.0}, {"name": "cdabe0d03c903399a20c86c32a7aa2d0", "is_reserved": 0, "type": "electric_bike", "rental_uris": {"ios": "https://dc.lft.to/lastmile_qr_scan", "android": "https://dc.lft.to/lastmile_qr_scan"}, "lat": 39.052842, "lon": -77.080702, "bike_id": "cdabe0d03c903399a20c86c32a7aa2d0", "fusion_lat": 0.0, "is_disabled": 0, "fusion_lon": 0.0}, {"name": "7fbba6b5bf897317f6597de9716edfab", "is_reserved": 0, "type": "electric_scooter", "rental_uris": {"ios": "https://dc.lft.to/lastmile_qr_scan", "android": "https://dc.lft.to/lastmile_qr_scan"}, "lat": 38.912667, "lon": -77.044449, "bike_id": "7fbba6b5bf897317f6597de9716edfab", "fusion_lat": 0.0, "is_disabled": 0, "fusion_lon": 0.0}, {"name": "f30f53b167dcdc341b2b572b67832199", "is_reserved": 0, "type": "electric_scooter", "rental_uris": {"ios": "https://dc.lft.to/lastmile_qr_scan", "android": "https://dc.lft.to/lastmile_qr_scan"}, "lat": 38.90037383333333, "lon": -77.0068135, "bike_id": "f30f53b167dcdc341b2b572b67832199", "fusion_lat": 0.0, "is_disabled": 0, "fusion_lon": 0.0}, {"name": "9ffc5e14bdfc7feb26d7679f515ae44d", "is_reserved": 0, "type": "electric_scooter", "rental_uris": {"ios": "https://dc.lft.to/lastmile_qr_scan", "android": "https://dc.lft.to/lastmile_qr_scan"}, "lat": 38.918623, "lon": -77.040432, "bike_id": "9ffc5e14bdfc7feb26d7679f515ae44d", "fusion_lat": 0.0, "is_disabled": 0, "fusion_lon": 0.0}, {"name": "a186b97a31e247bb7a3594a5b10de10f", "is_reserved": 0, "type": "electric_scooter", "rental_uris": {"ios": "https://dc.lft.to/lastmile_qr_scan", "android": "https://dc.lft.to/lastmile_qr_scan"}, "lat": 38.9181945, "lon": -77.02719766666667, "bike_id": "a186b97a31e247bb7a3594a5b10de10f", "fusion_lat": 0.0, "is_disabled": 0, "fusion_lon": 0.0}, {"name": "0386fd7d150561738dbb191c4c6f052c", "is_reserved": 0, "type": "electric_scooter", "rental_uris": {"ios": "https://dc.lft.to/lastmile_qr_scan", "android": "https://dc.lft.to/lastmile_qr_scan"}, "lat": 38.903525, "lon": -76.9748125, "bike_id": "0386fd7d150561738dbb191c4c6f052c", "fusion_lat": 0.0, "is_disabled": 0, "fusion_lon": 0.0}, {"name": "c1b37df8c09f2e4223b61be12fda0d9a", "is_reserved": 0, "type": "electric_scooter", "rental_uris": {"ios": "https://dc.lft.to/lastmile_qr_scan", "android": "https://dc.lft.to/lastmile_qr_scan"}, "lat": 39.0376125, "lon": -77.02898683333333, "bike_id": "c1b37df8c09f2e4223b61be12fda0d9a", "fusion_lat": 0.0, "is_disabled": 0, "fusion_lon": 0.0}, {"name": "07fea7bcb4bcf47b156b909ede64036d", "is_reserved": 0, "type": "electric_scooter", "rental_uris": {"ios": "https://dc.lft.to/lastmile_qr_scan", "android": "https://dc.lft.to/lastmile_qr_scan"}, "lat": 38.908834, "lon": -77.02690133333333, "bike_id": "07fea7bcb4bcf47b156b909ede64036d", "fusion_lat": 0.0, "is_disabled": 0, "fusion_lon": 0.0}, {"name": "d9e37b1017fb420c9cecd2feff5c7a60", "is_reserved": 0, "type": "electric_scooter", "rental_uris": {"ios": "https://dc.lft.to/lastmile_qr_scan", "android": "https://dc.lft.to/lastmile_qr_scan"}, "lat": 38.91839366666667, "lon": -77.01213933333334, "bike_id": "d9e37b1017fb420c9cecd2feff5c7a60", "fusion_lat": 0.0, "is_disabled": 0, "fusion_lon": 0.0}, {"name": "572921c334158cc4d41a2bbbe2fed4f0", "is_reserved": 0, "type": "electric_scooter", "rental_uris": {"ios": "https://dc.lft.to/lastmile_qr_scan", "android": "https://dc.lft.to/lastmile_qr_scan"}, "lat": 38.90977433333333, "lon": -76.98676916666666, "bike_id": "572921c334158cc4d41a2bbbe2fed4f0", "fusion_lat": 0.0, "is_disabled": 0, "fusion_lon": 0.0}, {"name": "0910d73b69a702cf4a0ecaee6d12e95d", "is_reserved": 0, "type": "electric_scooter", "rental_uris": {"ios": "https://dc.lft.to/lastmile_qr_scan", "android": "https://dc.lft.to/lastmile_qr_scan"}, "lat": 38.9224965, "lon": -77.01975483333334, "bike_id": "0910d73b69a702cf4a0ecaee6d12e95d", "fusion_lat": 0.0, "is_disabled": 0, "fusion_lon": 0.0}, {"name": "0627b7ce1ed1a6b5f6dd1fcaccb1e570", "is_reserved": 0, "type": "electric_bike", "rental_uris": {"ios": "https://dc.lft.to/lastmile_qr_scan", "android": "https://dc.lft.to/lastmile_qr_scan"}, "lat": 38.966223666666664, "lon": -77.03433166666667, "bike_id": "0627b7ce1ed1a6b5f6dd1fcaccb1e570", "fusion_lat": 0.0, "is_disabled": 0, "fusion_lon": 0.0}, {"name": "6eda5e25542695dfac060772cf082dd0", "is_reserved": 0, "type": "electric_scooter", "rental_uris": {"ios": "https://dc.lft.to/lastmile_qr_scan", "android": "https://dc.lft.to/lastmile_qr_scan"}, "lat": 38.92475366666667, "lon": -77.02337016666667, "bike_id": "6eda5e25542695dfac060772cf082dd0", "fusion_lat": 0.0, "is_disabled": 0, "fusion_lon": 0.0}, {"name": "56de1451fc45218e00520eb49cc966b5", "is_reserved": 0, "type": "electric_scooter", "rental_uris": {"ios": "https://dc.lft.to/lastmile_qr_scan", "android": "https://dc.lft.to/lastmile_qr_scan"}, "lat": 38.90451983333333, "lon": -76.974251, "bike_id": "56de1451fc45218e00520eb49cc966b5", "fusion_lat": 0.0, "is_disabled": 0, "fusion_lon": 0.0}, {"name": "0a1bd4e81eb4baa8055fead60d27e6a7", "is_reserved": 0, "type": "electric_scooter", "rental_uris": {"ios": "https://dc.lft.to/lastmile_qr_scan", "android": "https://dc.lft.to/lastmile_qr_scan"}, "lat": 38.933587, "lon": -77.04136033333333, "bike_id": "0a1bd4e81eb4baa8055fead60d27e6a7", "fusion_lat": 0.0, "is_disabled": 0, "fusion_lon": 0.0}, {"name": "38d48d8b65e3862fa8d782d52826a884", "is_reserved": 0, "type": "electric_scooter", "rental_uris": {"ios": "https://dc.lft.to/lastmile_qr_scan", "android": "https://dc.lft.to/lastmile_qr_scan"}, "lat": 38.8771265, "lon": -76.96366933333333, "bike_id": "38d48d8b65e3862fa8d782d52826a884", "fusion_lat": 0.0, "is_disabled": 0, "fusion_lon": 0.0}, {"name": "bf5ee8c277b25ed846f84c6530c2899a", "is_reserved": 0, "type": "electric_bike", "rental_uris": {"ios": "https://dc.lft.to/lastmile_qr_scan", "android": "https://dc.lft.to/lastmile_qr_scan"}, "lat": 38.919279833333334, "lon": -77.03202833333333, "bike_id": "bf5ee8c277b25ed846f84c6530c2899a", "fusion_lat": 0.0, "is_disabled": 0, "fusion_lon": 0.0}, {"name": "27c2511e43efa258eb9539b42ec26952", "is_reserved": 0, "type": "electric_scooter", "rental_uris": {"ios": "https://dc.lft.to/lastmile_qr_scan", "android": "https://dc.lft.to/lastmile_qr_scan"}, "lat": 38.90122133333333, "lon": -77.048799, "bike_id": "27c2511e43efa258eb9539b42ec26952", "fusion_lat": 0.0, "is_disabled": 0, "fusion_lon": 0.0}, {"name": "6841ea3b580201b0103980c76fd617fb", "is_reserved": 0, "type": "electric_scooter", "rental_uris": {"ios": "https://dc.lft.to/lastmile_qr_scan", "android": "https://dc.lft.to/lastmile_qr_scan"}, "lat": 38.91978566666667, "lon": -77.01209833333333, "bike_id": "6841ea3b580201b0103980c76fd617fb", "fusion_lat": 0.0, "is_disabled": 0, "fusion_lon": 0.0}, {"name": "917b3150bab3ddd5720125a5a0b161ea", "is_reserved": 0, "type": "electric_scooter", "rental_uris": {"ios": "https://dc.lft.to/lastmile_qr_scan", "android": "https://dc.lft.to/lastmile_qr_scan"}, "lat": 38.9286335, "lon": -77.02956216666666, "bike_id": "917b3150bab3ddd5720125a5a0b161ea", "fusion_lat": 0.0, "is_disabled": 0, "fusion_lon": 0.0}, {"name": "d12bf8db39fd9e7f8f6f683a3d6c5275", "is_reserved": 0, "type": "electric_scooter", "rental_uris": {"ios": "https://dc.lft.to/lastmile_qr_scan", "android": "https://dc.lft.to/lastmile_qr_scan"}, "lat": 38.91850183333333, "lon": -77.04010766666667, "bike_id": "d12bf8db39fd9e7f8f6f683a3d6c5275", "fusion_lat": 0.0, "is_disabled": 0, "fusion_lon": 0.0}, {"name": "3e394c5e8339f0a55e5ade207bf451ae", "is_reserved": 0, "type": "electric_scooter", "rental_uris": {"ios": "https://dc.lft.to/lastmile_qr_scan", "android": "https://dc.lft.to/lastmile_qr_scan"}, "lat": 38.91766, "lon": -77.03939283333334, "bike_id": "3e394c5e8339f0a55e5ade207bf451ae", "fusion_lat": 0.0, "is_disabled": 0, "fusion_lon": 0.0}, {"name": "081422cbd340d5c3238807daf1f5a984", "is_reserved": 0, "type": "electric_scooter", "rental_uris": {"ios": "https://dc.lft.to/lastmile_qr_scan", "android": "https://dc.lft.to/lastmile_qr_scan"}, "lat": 38.917252500000004, "lon": -77.04397633333333, "bike_id": "081422cbd340d5c3238807daf1f5a984", "fusion_lat": 0.0, "is_disabled": 0, "fusion_lon": 0.0}, {"name": "dbb8a419309aae6e49f109ed9713f3b4", "is_reserved": 0, "type": "electric_scooter", "rental_uris": {"ios": "https://dc.lft.to/lastmile_qr_scan", "android": "https://dc.lft.to/lastmile_qr_scan"}, "lat": 38.9183725, "lon": -77.01210366666666, "bike_id": "dbb8a419309aae6e49f109ed9713f3b4", "fusion_lat": 0.0, "is_disabled": 0, "fusion_lon": 0.0}, {"name": "cf03781ea33c30dc213921b265dd3968", "is_reserved": 0, "type": "electric_scooter", "rental_uris": {"ios": "https://dc.lft.to/lastmile_qr_scan", "android": "https://dc.lft.to/lastmile_qr_scan"}, "lat": 38.9169905, "lon": -77.02890616666667, "bike_id": "cf03781ea33c30dc213921b265dd3968", "fusion_lat": 0.0, "is_disabled": 0, "fusion_lon": 0.0}, {"name": "25cf2fd4de501144d99e8df4b93fae9c", "is_reserved": 0, "type": "electric_scooter", "rental_uris": {"ios": "https://dc.lft.to/lastmile_qr_scan", "android": "https://dc.lft.to/lastmile_qr_scan"}, "lat": 38.90386266666667, "lon": -77.04335333333333, "bike_id": "25cf2fd4de501144d99e8df4b93fae9c", "fusion_lat": 0.0, "is_disabled": 0, "fusion_lon": 0.0}, {"name": "82aa7dce0b6effbb1a4368765341d4ef", "is_reserved": 0, "type": "electric_scooter", "rental_uris": {"ios": "https://dc.lft.to/lastmile_qr_scan", "android": "https://dc.lft.to/lastmile_qr_scan"}, "lat": 38.903937666666664, "lon": -77.042235, "bike_id": "82aa7dce0b6effbb1a4368765341d4ef", "fusion_lat": 0.0, "is_disabled": 0, "fusion_lon": 0.0}, {"name": "bc2e779edf20d079148fef5a67502858", "is_reserved": 0, "type": "electric_scooter", "rental_uris": {"ios": "https://dc.lft.to/lastmile_qr_scan", "android": "https://dc.lft.to/lastmile_qr_scan"}, "lat": 38.88967533333334, "lon": -76.92739166666667, "bike_id": "bc2e779edf20d079148fef5a67502858", "fusion_lat": 0.0, "is_disabled": 0, "fusion_lon": 0.0}, {"name": "b705f9cd76da6ea5392ba91f24da8589", "is_reserved": 0, "type": "electric_scooter", "rental_uris": {"ios": "https://dc.lft.to/lastmile_qr_scan", "android": "https://dc.lft.to/lastmile_qr_scan"}, "lat": 38.898826166666666, "lon": -76.93157683333334, "bike_id": "b705f9cd76da6ea5392ba91f24da8589", "fusion_lat": 0.0, "is_disabled": 0, "fusion_lon": 0.0}, {"name": "6791ea18a6d72813b1aa65b320427fc9", "is_reserved": 0, "type": "electric_scooter", "rental_uris": {"ios": "https://dc.lft.to/lastmile_qr_scan", "android": "https://dc.lft.to/lastmile_qr_scan"}, "lat": 38.92363483333333, "lon": -77.050397, "bike_id": "6791ea18a6d72813b1aa65b320427fc9", "fusion_lat": 0.0, "is_disabled": 0, "fusion_lon": 0.0}, {"name": "ede93454cf92c34386a1d7391b5bcf07", "is_reserved": 0, "type": "electric_scooter", "rental_uris": {"ios": "https://dc.lft.to/lastmile_qr_scan", "android": "https://dc.lft.to/lastmile_qr_scan"}, "lat": 38.88284633333333, "lon": -76.9950995, "bike_id": "ede93454cf92c34386a1d7391b5bcf07", "fusion_lat": 0.0, "is_disabled": 0, "fusion_lon": 0.0}, {"name": "ae607c342e86bc8023948c30e6443d1e", "is_reserved": 0, "type": "electric_scooter", "rental_uris": {"ios": "https://dc.lft.to/lastmile_qr_scan", "android": "https://dc.lft.to/lastmile_qr_scan"}, "lat": 38.92604733333334, "lon": -77.02156483333333, "bike_id": "ae607c342e86bc8023948c30e6443d1e", "fusion_lat": 0.0, "is_disabled": 0, "fusion_lon": 0.0}, {"name": "ae6b3f91913df7df0b4b29c8e2b7c7ca", "is_reserved": 0, "type": "electric_scooter", "rental_uris": {"ios": "https://dc.lft.to/lastmile_qr_scan", "android": "https://dc.lft.to/lastmile_qr_scan"}, "lat": 38.91602733333333, "lon": -77.02307766666667, "bike_id": "ae6b3f91913df7df0b4b29c8e2b7c7ca", "fusion_lat": 0.0, "is_disabled": 0, "fusion_lon": 0.0}, {"name": "b3ac1907527ad7e3c46da2c9ae89796d", "is_reserved": 0, "type": "electric_scooter", "rental_uris": {"ios": "https://dc.lft.to/lastmile_qr_scan", "android": "https://dc.lft.to/lastmile_qr_scan"}, "lat": 38.928921833333334, "lon": -77.023345, "bike_id": "b3ac1907527ad7e3c46da2c9ae89796d", "fusion_lat": 0.0, "is_disabled": 0, "fusion_lon": 0.0}, {"name": "c0e05920ab6ce411aa5d13002d26a7ee", "is_reserved": 0, "type": "electric_scooter", "rental_uris": {"ios": "https://dc.lft.to/lastmile_qr_scan", "android": "https://dc.lft.to/lastmile_qr_scan"}, "lat": 38.933574, "lon": -77.07369283333334, "bike_id": "c0e05920ab6ce411aa5d13002d26a7ee", "fusion_lat": 0.0, "is_disabled": 0, "fusion_lon": 0.0}, {"name": "7f82e5e7eac54257ba9bd6c7f32fd7cf", "is_reserved": 0, "type": "electric_scooter", "rental_uris": {"ios": "https://dc.lft.to/lastmile_qr_scan", "android": "https://dc.lft.to/lastmile_qr_scan"}, "lat": 38.897303, "lon": -77.0476655, "bike_id": "7f82e5e7eac54257ba9bd6c7f32fd7cf", "fusion_lat": 0.0, "is_disabled": 0, "fusion_lon": 0.0}, {"name": "c641e59994e36555dc5fecf99a0cd35e", "is_reserved": 0, "type": "electric_scooter", "rental_uris": {"ios": "https://dc.lft.to/lastmile_qr_scan", "android": "https://dc.lft.to/lastmile_qr_scan"}, "lat": 38.90048483333333, "lon": -76.98289883333334, "bike_id": "c641e59994e36555dc5fecf99a0cd35e", "fusion_lat": 0.0, "is_disabled": 0, "fusion_lon": 0.0}, {"name": "0f01e7d512ee941af28a30dd1b7d2687", "is_reserved": 0, "type": "electric_scooter", "rental_uris": {"ios": "https://dc.lft.to/lastmile_qr_scan", "android": "https://dc.lft.to/lastmile_qr_scan"}, "lat": 38.90671866666667, "lon": -77.00912433333333, "bike_id": "0f01e7d512ee941af28a30dd1b7d2687", "fusion_lat": 0.0, "is_disabled": 0, "fusion_lon": 0.0}, {"name": "0ce117bc454bbdcd6d02f593c8c0cac8", "is_reserved": 0, "type": "electric_scooter", "rental_uris": {"ios": "https://dc.lft.to/lastmile_qr_scan", "android": "https://dc.lft.to/lastmile_qr_scan"}, "lat": 38.946939666666665, "lon": -77.01950183333334, "bike_id": "0ce117bc454bbdcd6d02f593c8c0cac8", "fusion_lat": 0.0, "is_disabled": 0, "fusion_lon": 0.0}, {"name": "bb02da488eb93b176710b72833d25553", "is_reserved": 0, "type": "electric_bike", "rental_uris": {"ios": "https://dc.lft.to/lastmile_qr_scan", "android": "https://dc.lft.to/lastmile_qr_scan"}, "lat": 38.89932833333334, "lon": -77.00909316666667, "bike_id": "bb02da488eb93b176710b72833d25553", "fusion_lat": 0.0, "is_disabled": 0, "fusion_lon": 0.0}, {"name": "9f308338cf3fc953182845b60067c7a4", "is_reserved": 0, "type": "electric_scooter", "rental_uris": {"ios": "https://dc.lft.to/lastmile_qr_scan", "android": "https://dc.lft.to/lastmile_qr_scan"}, "lat": 38.89707416666667, "lon": -77.02172333333333, "bike_id": "9f308338cf3fc953182845b60067c7a4", "fusion_lat": 0.0, "is_disabled": 0, "fusion_lon": 0.0}, {"name": "5e73ff84f93caa3b5afd610454c6dc53", "is_reserved": 0, "type": "electric_scooter", "rental_uris": {"ios": "https://dc.lft.to/lastmile_qr_scan", "android": "https://dc.lft.to/lastmile_qr_scan"}, "lat": 38.9542315, "lon": -77.02770316666667, "bike_id": "5e73ff84f93caa3b5afd610454c6dc53", "fusion_lat": 0.0, "is_disabled": 0, "fusion_lon": 0.0}, {"name": "f51482e37d3c58d9272281d67849ed90", "is_reserved": 0, "type": "electric_scooter", "rental_uris": {"ios": "https://dc.lft.to/lastmile_qr_scan", "android": "https://dc.lft.to/lastmile_qr_scan"}, "lat": 38.91695816666667, "lon": -77.02965216666666, "bike_id": "f51482e37d3c58d9272281d67849ed90", "fusion_lat": 0.0, "is_disabled": 0, "fusion_lon": 0.0}, {"name": "01b61ce218ea133122e76ed1c9ba2bd6", "is_reserved": 0, "type": "electric_scooter", "rental_uris": {"ios": "https://dc.lft.to/lastmile_qr_scan", "android": "https://dc.lft.to/lastmile_qr_scan"}, "lat": 38.862585333333335, "lon": -76.9869625, "bike_id": "01b61ce218ea133122e76ed1c9ba2bd6", "fusion_lat": 0.0, "is_disabled": 0, "fusion_lon": 0.0}, {"name": "28bebc93be2dee4e5fe8133b7519156d", "is_reserved": 0, "type": "electric_scooter", "rental_uris": {"ios": "https://dc.lft.to/lastmile_qr_scan", "android": "https://dc.lft.to/lastmile_qr_scan"}, "lat": 38.92350966666667, "lon": -77.0534675, "bike_id": "28bebc93be2dee4e5fe8133b7519156d", "fusion_lat": 0.0, "is_disabled": 0, "fusion_lon": 0.0}, {"name": "eafd792594248d26e9c8f7ad3851d650", "is_reserved": 0, "type": "electric_scooter", "rental_uris": {"ios": "https://dc.lft.to/lastmile_qr_scan", "android": "https://dc.lft.to/lastmile_qr_scan"}, "lat": 38.92151783333333, "lon": -77.033174, "bike_id": "eafd792594248d26e9c8f7ad3851d650", "fusion_lat": 0.0, "is_disabled": 0, "fusion_lon": 0.0}, {"name": "ec02e4b595b0dde31b6d5b49d02cab58", "is_reserved": 0, "type": "electric_scooter", "rental_uris": {"ios": "https://dc.lft.to/lastmile_qr_scan", "android": "https://dc.lft.to/lastmile_qr_scan"}, "lat": 38.90129966666667, "lon": -76.9973255, "bike_id": "ec02e4b595b0dde31b6d5b49d02cab58", "fusion_lat": 0.0, "is_disabled": 0, "fusion_lon": 0.0}, {"name": "d4e03e65de3cf08a26c899582ed3f074", "is_reserved": 0, "type": "electric_scooter", "rental_uris": {"ios": "https://dc.lft.to/lastmile_qr_scan", "android": "https://dc.lft.to/lastmile_qr_scan"}, "lat": 38.900664166666665, "lon": -77.014083, "bike_id": "d4e03e65de3cf08a26c899582ed3f074", "fusion_lat": 0.0, "is_disabled": 0, "fusion_lon": 0.0}, {"name": "a1102a9fe91dc5e02363a15c1e22db83", "is_reserved": 0, "type": "electric_scooter", "rental_uris": {"ios": "https://dc.lft.to/lastmile_qr_scan", "android": "https://dc.lft.to/lastmile_qr_scan"}, "lat": 38.93671716666667, "lon": -77.0328535, "bike_id": "a1102a9fe91dc5e02363a15c1e22db83", "fusion_lat": 0.0, "is_disabled": 0, "fusion_lon": 0.0}, {"name": "d62d0598bee5b8e34e07196407c16f2b", "is_reserved": 0, "type": "electric_scooter", "rental_uris": {"ios": "https://dc.lft.to/lastmile_qr_scan", "android": "https://dc.lft.to/lastmile_qr_scan"}, "lat": 38.92322816666667, "lon": -77.02143766666667, "bike_id": "d62d0598bee5b8e34e07196407c16f2b", "fusion_lat": 0.0, "is_disabled": 0, "fusion_lon": 0.0}, {"name": "f313cb1cec10b58264a713102d34cc04", "is_reserved": 0, "type": "electric_scooter", "rental_uris": {"ios": "https://dc.lft.to/lastmile_qr_scan", "android": "https://dc.lft.to/lastmile_qr_scan"}, "lat": 38.9283055, "lon": -77.05436683333333, "bike_id": "f313cb1cec10b58264a713102d34cc04", "fusion_lat": 0.0, "is_disabled": 0, "fusion_lon": 0.0}, {"name": "22e7c198c59ed104a75ca0b791b3a586", "is_reserved": 0, "type": "electric_scooter", "rental_uris": {"ios": "https://dc.lft.to/lastmile_qr_scan", "android": "https://dc.lft.to/lastmile_qr_scan"}, "lat": 38.900340166666666, "lon": -77.01164566666667, "bike_id": "22e7c198c59ed104a75ca0b791b3a586", "fusion_lat": 0.0, "is_disabled": 0, "fusion_lon": 0.0}, {"name": "47b0d74524f142d0989f16ae3d4484e2", "is_reserved": 0, "type": "electric_scooter", "rental_uris": {"ios": "https://dc.lft.to/lastmile_qr_scan", "android": "https://dc.lft.to/lastmile_qr_scan"}, "lat": 38.907563333333336, "lon": -77.06339766666666, "bike_id": "47b0d74524f142d0989f16ae3d4484e2", "fusion_lat": 0.0, "is_disabled": 0, "fusion_lon": 0.0}, {"name": "71be146bf4bfa96d03e5b5cf3fbf66cb", "is_reserved": 0, "type": "electric_scooter", "rental_uris": {"ios": "https://dc.lft.to/lastmile_qr_scan", "android": "https://dc.lft.to/lastmile_qr_scan"}, "lat": 38.935805333333334, "lon": -77.02747616666667, "bike_id": "71be146bf4bfa96d03e5b5cf3fbf66cb", "fusion_lat": 0.0, "is_disabled": 0, "fusion_lon": 0.0}, {"name": "64b0424439d06776eb3116db9e919f8d", "is_reserved": 0, "type": "electric_scooter", "rental_uris": {"ios": "https://dc.lft.to/lastmile_qr_scan", "android": "https://dc.lft.to/lastmile_qr_scan"}, "lat": 38.902825666666665, "lon": -76.981963, "bike_id": "64b0424439d06776eb3116db9e919f8d", "fusion_lat": 0.0, "is_disabled": 0, "fusion_lon": 0.0}, {"name": "801327e6c595a99b2cf5c41f75c3e0a2", "is_reserved": 0, "type": "electric_scooter", "rental_uris": {"ios": "https://dc.lft.to/lastmile_qr_scan", "android": "https://dc.lft.to/lastmile_qr_scan"}, "lat": 38.91107733333333, "lon": -77.00388116666667, "bike_id": "801327e6c595a99b2cf5c41f75c3e0a2", "fusion_lat": 0.0, "is_disabled": 0, "fusion_lon": 0.0}, {"name": "6c9c001a734a753faddb507094b4e1ff", "is_reserved": 0, "type": "electric_scooter", "rental_uris": {"ios": "https://dc.lft.to/lastmile_qr_scan", "android": "https://dc.lft.to/lastmile_qr_scan"}, "lat": 38.934819, "lon": -77.072727, "bike_id": "6c9c001a734a753faddb507094b4e1ff", "fusion_lat": 0.0, "is_disabled": 0, "fusion_lon": 0.0}, {"name": "e13ebbdcbbd55175aedd9821194bef2b", "is_reserved": 0, "type": "electric_scooter", "rental_uris": {"ios": "https://dc.lft.to/lastmile_qr_scan", "android": "https://dc.lft.to/lastmile_qr_scan"}, "lat": 38.917069166666664, "lon": -77.03271116666667, "bike_id": "e13ebbdcbbd55175aedd9821194bef2b", "fusion_lat": 0.0, "is_disabled": 0, "fusion_lon": 0.0}, {"name": "d6905427425e2aca62d9278ad4d2c986", "is_reserved": 0, "type": "electric_scooter", "rental_uris": {"ios": "https://dc.lft.to/lastmile_qr_scan", "android": "https://dc.lft.to/lastmile_qr_scan"}, "lat": 38.91455116666667, "lon": -77.0415265, "bike_id": "d6905427425e2aca62d9278ad4d2c986", "fusion_lat": 0.0, "is_disabled": 0, "fusion_lon": 0.0}, {"name": "c1d191bf8a68f808ad56f1cd461ba18f", "is_reserved": 0, "type": "electric_scooter", "rental_uris": {"ios": "https://dc.lft.to/lastmile_qr_scan", "android": "https://dc.lft.to/lastmile_qr_scan"}, "lat": 38.91272466666667, "lon": -77.03469533333333, "bike_id": "c1d191bf8a68f808ad56f1cd461ba18f", "fusion_lat": 0.0, "is_disabled": 0, "fusion_lon": 0.0}, {"name": "721e41d1740f512842db4db4e571c0af", "is_reserved": 0, "type": "electric_scooter", "rental_uris": {"ios": "https://dc.lft.to/lastmile_qr_scan", "android": "https://dc.lft.to/lastmile_qr_scan"}, "lat": 38.93477433333334, "lon": -77.08665216666667, "bike_id": "721e41d1740f512842db4db4e571c0af", "fusion_lat": 0.0, "is_disabled": 0, "fusion_lon": 0.0}, {"name": "f63d896b9eeb5f3c1f5306b98b2b5b66", "is_reserved": 0, "type": "electric_scooter", "rental_uris": {"ios": "https://dc.lft.to/lastmile_qr_scan", "android": "https://dc.lft.to/lastmile_qr_scan"}, "lat": 38.915758833333335, "lon": -77.01997433333334, "bike_id": "f63d896b9eeb5f3c1f5306b98b2b5b66", "fusion_lat": 0.0, "is_disabled": 0, "fusion_lon": 0.0}, {"name": "43a678ba42390a8af1115d721bcf47cb", "is_reserved": 0, "type": "electric_scooter", "rental_uris": {"ios": "https://dc.lft.to/lastmile_qr_scan", "android": "https://dc.lft.to/lastmile_qr_scan"}, "lat": 38.904097666666665, "lon": -77.0465765, "bike_id": "43a678ba42390a8af1115d721bcf47cb", "fusion_lat": 0.0, "is_disabled": 0, "fusion_lon": 0.0}, {"name": "9eedec5855e274f37b383f6aaa71c026", "is_reserved": 0, "type": "electric_scooter", "rental_uris": {"ios": "https://dc.lft.to/lastmile_qr_scan", "android": "https://dc.lft.to/lastmile_qr_scan"}, "lat": 38.92083983333333, "lon": -77.023722, "bike_id": "9eedec5855e274f37b383f6aaa71c026", "fusion_lat": 0.0, "is_disabled": 0, "fusion_lon": 0.0}, {"name": "7ff8f1d9d588ee79cf8e22a6a807dc68", "is_reserved": 0, "type": "electric_scooter", "rental_uris": {"ios": "https://dc.lft.to/lastmile_qr_scan", "android": "https://dc.lft.to/lastmile_qr_scan"}, "lat": 38.919252, "lon": -77.04606866666667, "bike_id": "7ff8f1d9d588ee79cf8e22a6a807dc68", "fusion_lat": 0.0, "is_disabled": 0, "fusion_lon": 0.0}, {"name": "7e5b67231ef3e0a0c496c4d7108c30ce", "is_reserved": 0, "type": "electric_scooter", "rental_uris": {"ios": "https://dc.lft.to/lastmile_qr_scan", "android": "https://dc.lft.to/lastmile_qr_scan"}, "lat": 38.943015333333335, "lon": -77.05925216666667, "bike_id": "7e5b67231ef3e0a0c496c4d7108c30ce", "fusion_lat": 0.0, "is_disabled": 0, "fusion_lon": 0.0}, {"name": "6239cec62d9d8ad76230d117e65082ec", "is_reserved": 0, "type": "electric_scooter", "rental_uris": {"ios": "https://dc.lft.to/lastmile_qr_scan", "android": "https://dc.lft.to/lastmile_qr_scan"}, "lat": 38.86319233333333, "lon": -76.99159033333333, "bike_id": "6239cec62d9d8ad76230d117e65082ec", "fusion_lat": 0.0, "is_disabled": 0, "fusion_lon": 0.0}, {"name": "f6956415b14d821b326e357c7a8ebad0", "is_reserved": 0, "type": "electric_scooter", "rental_uris": {"ios": "https://dc.lft.to/lastmile_qr_scan", "android": "https://dc.lft.to/lastmile_qr_scan"}, "lat": 38.918524166666664, "lon": -77.03195383333333, "bike_id": "f6956415b14d821b326e357c7a8ebad0", "fusion_lat": 0.0, "is_disabled": 0, "fusion_lon": 0.0}, {"name": "eae187a5440a23812654ae205c8d7801", "is_reserved": 0, "type": "electric_scooter", "rental_uris": {"ios": "https://dc.lft.to/lastmile_qr_scan", "android": "https://dc.lft.to/lastmile_qr_scan"}, "lat": 38.88653766666667, "lon": -77.01521016666666, "bike_id": "eae187a5440a23812654ae205c8d7801", "fusion_lat": 0.0, "is_disabled": 0, "fusion_lon": 0.0}, {"name": "9c6cca971bee4d66d4d9a90542128d34", "is_reserved": 0, "type": "electric_scooter", "rental_uris": {"ios": "https://dc.lft.to/lastmile_qr_scan", "android": "https://dc.lft.to/lastmile_qr_scan"}, "lat": 38.90351483333333, "lon": -77.03843583333334, "bike_id": "9c6cca971bee4d66d4d9a90542128d34", "fusion_lat": 0.0, "is_disabled": 0, "fusion_lon": 0.0}, {"name": "9fe0a6b42b82ca28d01baf14421ce05c", "is_reserved": 0, "type": "electric_scooter", "rental_uris": {"ios": "https://dc.lft.to/lastmile_qr_scan", "android": "https://dc.lft.to/lastmile_qr_scan"}, "lat": 38.923242333333334, "lon": -77.046214, "bike_id": "9fe0a6b42b82ca28d01baf14421ce05c", "fusion_lat": 0.0, "is_disabled": 0, "fusion_lon": 0.0}, {"name": "b95b0a7cef81e990e2d281b91aee3c0f", "is_reserved": 0, "type": "electric_scooter", "rental_uris": {"ios": "https://dc.lft.to/lastmile_qr_scan", "android": "https://dc.lft.to/lastmile_qr_scan"}, "lat": 38.90042566666666, "lon": -77.0332965, "bike_id": "b95b0a7cef81e990e2d281b91aee3c0f", "fusion_lat": 0.0, "is_disabled": 0, "fusion_lon": 0.0}, {"name": "44a000b7d2f93ccf53be92e6ce1b2387", "is_reserved": 0, "type": "electric_scooter", "rental_uris": {"ios": "https://dc.lft.to/lastmile_qr_scan", "android": "https://dc.lft.to/lastmile_qr_scan"}, "lat": 38.91130366666667, "lon": -77.04426083333334, "bike_id": "44a000b7d2f93ccf53be92e6ce1b2387", "fusion_lat": 0.0, "is_disabled": 0, "fusion_lon": 0.0}, {"name": "bf8c8d5d3a1fcb383850e78797a4a884", "is_reserved": 0, "type": "electric_scooter", "rental_uris": {"ios": "https://dc.lft.to/lastmile_qr_scan", "android": "https://dc.lft.to/lastmile_qr_scan"}, "lat": 38.91575683333333, "lon": -77.031754, "bike_id": "bf8c8d5d3a1fcb383850e78797a4a884", "fusion_lat": 0.0, "is_disabled": 0, "fusion_lon": 0.0}, {"name": "9d7cc24dfcae9caafd72e0f834d3f7a5", "is_reserved": 0, "type": "electric_scooter", "rental_uris": {"ios": "https://dc.lft.to/lastmile_qr_scan", "android": "https://dc.lft.to/lastmile_qr_scan"}, "lat": 38.9169475, "lon": -77.034424, "bike_id": "9d7cc24dfcae9caafd72e0f834d3f7a5", "fusion_lat": 0.0, "is_disabled": 0, "fusion_lon": 0.0}, {"name": "725d17240392e1ea62b8e8e05e6b8755", "is_reserved": 0, "type": "electric_scooter", "rental_uris": {"ios": "https://dc.lft.to/lastmile_qr_scan", "android": "https://dc.lft.to/lastmile_qr_scan"}, "lat": 38.93675983333333, "lon": -77.0359225, "bike_id": "725d17240392e1ea62b8e8e05e6b8755", "fusion_lat": 0.0, "is_disabled": 0, "fusion_lon": 0.0}, {"name": "93ecb24c1e98e7bb9e4818852722ad6e", "is_reserved": 0, "type": "electric_scooter", "rental_uris": {"ios": "https://dc.lft.to/lastmile_qr_scan", "android": "https://dc.lft.to/lastmile_qr_scan"}, "lat": 38.8970965, "lon": -77.02444466666667, "bike_id": "93ecb24c1e98e7bb9e4818852722ad6e", "fusion_lat": 0.0, "is_disabled": 0, "fusion_lon": 0.0}, {"name": "02b2a8fe1ea83cddf17e04f05457ab84", "is_reserved": 0, "type": "electric_scooter", "rental_uris": {"ios": "https://dc.lft.to/lastmile_qr_scan", "android": "https://dc.lft.to/lastmile_qr_scan"}, "lat": 38.92799433333333, "lon": -77.05409333333333, "bike_id": "02b2a8fe1ea83cddf17e04f05457ab84", "fusion_lat": 0.0, "is_disabled": 0, "fusion_lon": 0.0}, {"name": "cba789645f1ad1718df914b4cf37b4bb", "is_reserved": 0, "type": "electric_bike", "rental_uris": {"ios": "https://dc.lft.to/lastmile_qr_scan", "android": "https://dc.lft.to/lastmile_qr_scan"}, "lat": 38.898496, "lon": -77.05301066666667, "bike_id": "cba789645f1ad1718df914b4cf37b4bb", "fusion_lat": 0.0, "is_disabled": 0, "fusion_lon": 0.0}, {"name": "18417a4652d8fdb7a13531e1669086b4", "is_reserved": 0, "type": "electric_scooter", "rental_uris": {"ios": "https://dc.lft.to/lastmile_qr_scan", "android": "https://dc.lft.to/lastmile_qr_scan"}, "lat": 38.9203565, "lon": -77.031282, "bike_id": "18417a4652d8fdb7a13531e1669086b4", "fusion_lat": 0.0, "is_disabled": 0, "fusion_lon": 0.0}, {"name": "0448aef908635af6341fd11a41142857", "is_reserved": 0, "type": "electric_scooter", "rental_uris": {"ios": "https://dc.lft.to/lastmile_qr_scan", "android": "https://dc.lft.to/lastmile_qr_scan"}, "lat": 38.92387733333333, "lon": -77.0803765, "bike_id": "0448aef908635af6341fd11a41142857", "fusion_lat": 0.0, "is_disabled": 0, "fusion_lon": 0.0}, {"name": "0d4944d3e836076a812a907707ff5717", "is_reserved": 0, "type": "electric_scooter", "rental_uris": {"ios": "https://dc.lft.to/lastmile_qr_scan", "android": "https://dc.lft.to/lastmile_qr_scan"}, "lat": 38.90128766666667, "lon": -76.998799, "bike_id": "0d4944d3e836076a812a907707ff5717", "fusion_lat": 0.0, "is_disabled": 0, "fusion_lon": 0.0}, {"name": "c407320e21593f1f252d67c5cd347fdd", "is_reserved": 0, "type": "electric_scooter", "rental_uris": {"ios": "https://dc.lft.to/lastmile_qr_scan", "android": "https://dc.lft.to/lastmile_qr_scan"}, "lat": 38.92813133333333, "lon": -77.02902183333333, "bike_id": "c407320e21593f1f252d67c5cd347fdd", "fusion_lat": 0.0, "is_disabled": 0, "fusion_lon": 0.0}, {"name": "281d3bb5b0d599bf01fad3cc4dc8301b", "is_reserved": 0, "type": "electric_scooter", "rental_uris": {"ios": "https://dc.lft.to/lastmile_qr_scan", "android": "https://dc.lft.to/lastmile_qr_scan"}, "lat": 38.8949445, "lon": -77.0220665, "bike_id": "281d3bb5b0d599bf01fad3cc4dc8301b", "fusion_lat": 0.0, "is_disabled": 0, "fusion_lon": 0.0}, {"name": "4f675ed2e62bb3c876670e8e28ea2ee0", "is_reserved": 0, "type": "electric_scooter", "rental_uris": {"ios": "https://dc.lft.to/lastmile_qr_scan", "android": "https://dc.lft.to/lastmile_qr_scan"}, "lat": 38.920646833333336, "lon": -77.0425045, "bike_id": "4f675ed2e62bb3c876670e8e28ea2ee0", "fusion_lat": 0.0, "is_disabled": 0, "fusion_lon": 0.0}, {"name": "a3e91e98c64040a4cce8ce193d4ca447", "is_reserved": 0, "type": "electric_scooter", "rental_uris": {"ios": "https://dc.lft.to/lastmile_qr_scan", "android": "https://dc.lft.to/lastmile_qr_scan"}, "lat": 38.92349683333333, "lon": -77.0414635, "bike_id": "a3e91e98c64040a4cce8ce193d4ca447", "fusion_lat": 0.0, "is_disabled": 0, "fusion_lon": 0.0}, {"name": "0868f61f32f3bd067a3b582767ab43c2", "is_reserved": 0, "type": "electric_scooter", "rental_uris": {"ios": "https://dc.lft.to/lastmile_qr_scan", "android": "https://dc.lft.to/lastmile_qr_scan"}, "lat": 38.90295316666667, "lon": -76.98022266666666, "bike_id": "0868f61f32f3bd067a3b582767ab43c2", "fusion_lat": 0.0, "is_disabled": 0, "fusion_lon": 0.0}, {"name": "080978d1e2f76f04660f4cfc396713a6", "is_reserved": 0, "type": "electric_scooter", "rental_uris": {"ios": "https://dc.lft.to/lastmile_qr_scan", "android": "https://dc.lft.to/lastmile_qr_scan"}, "lat": 38.920269166666664, "lon": -77.01798483333333, "bike_id": "080978d1e2f76f04660f4cfc396713a6", "fusion_lat": 0.0, "is_disabled": 0, "fusion_lon": 0.0}, {"name": "9ca4c24b66cf01035082b95d15e606b4", "is_reserved": 0, "type": "electric_scooter", "rental_uris": {"ios": "https://dc.lft.to/lastmile_qr_scan", "android": "https://dc.lft.to/lastmile_qr_scan"}, "lat": 38.90807916666667, "lon": -77.043518, "bike_id": "9ca4c24b66cf01035082b95d15e606b4", "fusion_lat": 0.0, "is_disabled": 0, "fusion_lon": 0.0}, {"name": "a582591ef9ec79d1a69323268ef23983", "is_reserved": 0, "type": "electric_scooter", "rental_uris": {"ios": "https://dc.lft.to/lastmile_qr_scan", "android": "https://dc.lft.to/lastmile_qr_scan"}, "lat": 38.921747, "lon": -77.04225166666667, "bike_id": "a582591ef9ec79d1a69323268ef23983", "fusion_lat": 0.0, "is_disabled": 0, "fusion_lon": 0.0}, {"name": "6c306e24456d686d68db35eaf1cddf7f", "is_reserved": 0, "type": "electric_scooter", "rental_uris": {"ios": "https://dc.lft.to/lastmile_qr_scan", "android": "https://dc.lft.to/lastmile_qr_scan"}, "lat": 38.923538, "lon": -77.03504466666666, "bike_id": "6c306e24456d686d68db35eaf1cddf7f", "fusion_lat": 0.0, "is_disabled": 0, "fusion_lon": 0.0}, {"name": "c59baa849060f7268ca163dbdada5243", "is_reserved": 0, "type": "electric_bike", "rental_uris": {"ios": "https://dc.lft.to/lastmile_qr_scan", "android": "https://dc.lft.to/lastmile_qr_scan"}, "lat": 38.871004666666664, "lon": -77.0121405, "bike_id": "c59baa849060f7268ca163dbdada5243", "fusion_lat": 0.0, "is_disabled": 0, "fusion_lon": 0.0}, {"name": "1386c2c3f59f1168510197aadca4e3c1", "is_reserved": 0, "type": "electric_scooter", "rental_uris": {"ios": "https://dc.lft.to/lastmile_qr_scan", "android": "https://dc.lft.to/lastmile_qr_scan"}, "lat": 38.89916566666667, "lon": -76.93371516666667, "bike_id": "1386c2c3f59f1168510197aadca4e3c1", "fusion_lat": 0.0, "is_disabled": 0, "fusion_lon": 0.0}, {"name": "de05f1723e5f4d9ae2e6730776802349", "is_reserved": 0, "type": "electric_scooter", "rental_uris": {"ios": "https://dc.lft.to/lastmile_qr_scan", "android": "https://dc.lft.to/lastmile_qr_scan"}, "lat": 38.920050833333335, "lon": -77.02408183333333, "bike_id": "de05f1723e5f4d9ae2e6730776802349", "fusion_lat": 0.0, "is_disabled": 0, "fusion_lon": 0.0}, {"name": "f6b6a409c12f93d7127b186bee20c499", "is_reserved": 0, "type": "electric_scooter", "rental_uris": {"ios": "https://dc.lft.to/lastmile_qr_scan", "android": "https://dc.lft.to/lastmile_qr_scan"}, "lat": 38.900497333333334, "lon": -77.0006865, "bike_id": "f6b6a409c12f93d7127b186bee20c499", "fusion_lat": 0.0, "is_disabled": 0, "fusion_lon": 0.0}, {"name": "2db642b13c4bfcafef694db069c19bd9", "is_reserved": 0, "type": "electric_bike", "rental_uris": {"ios": "https://dc.lft.to/lastmile_qr_scan", "android": "https://dc.lft.to/lastmile_qr_scan"}, "lat": 38.840931, "lon": -77.08934033333334, "bike_id": "2db642b13c4bfcafef694db069c19bd9", "fusion_lat": 0.0, "is_disabled": 0, "fusion_lon": 0.0}, {"name": "73293b06246dc7d24a9e076e4740478a", "is_reserved": 0, "type": "electric_scooter", "rental_uris": {"ios": "https://dc.lft.to/lastmile_qr_scan", "android": "https://dc.lft.to/lastmile_qr_scan"}, "lat": 38.9098685, "lon": -77.03263066666666, "bike_id": "73293b06246dc7d24a9e076e4740478a", "fusion_lat": 0.0, "is_disabled": 0, "fusion_lon": 0.0}, {"name": "9ef0ff70d308cb1adff9c8be160ad428", "is_reserved": 0, "type": "electric_scooter", "rental_uris": {"ios": "https://dc.lft.to/lastmile_qr_scan", "android": "https://dc.lft.to/lastmile_qr_scan"}, "lat": 38.88706783333333, "lon": -77.01367066666667, "bike_id": "9ef0ff70d308cb1adff9c8be160ad428", "fusion_lat": 0.0, "is_disabled": 0, "fusion_lon": 0.0}, {"name": "79036f1e004a11e07e3e1432ba1ac33a", "is_reserved": 0, "type": "electric_scooter", "rental_uris": {"ios": "https://dc.lft.to/lastmile_qr_scan", "android": "https://dc.lft.to/lastmile_qr_scan"}, "lat": 38.927224, "lon": -77.02288366666667, "bike_id": "79036f1e004a11e07e3e1432ba1ac33a", "fusion_lat": 0.0, "is_disabled": 0, "fusion_lon": 0.0}, {"name": "fd8ef3a2a6eb9f9f1b68b8bd806b889d", "is_reserved": 0, "type": "electric_scooter", "rental_uris": {"ios": "https://dc.lft.to/lastmile_qr_scan", "android": "https://dc.lft.to/lastmile_qr_scan"}, "lat": 38.88451666666667, "lon": -76.950997, "bike_id": "fd8ef3a2a6eb9f9f1b68b8bd806b889d", "fusion_lat": 0.0, "is_disabled": 0, "fusion_lon": 0.0}, {"name": "2525095f6ba9b6f4ac4d4ad92403638e", "is_reserved": 0, "type": "electric_bike", "rental_uris": {"ios": "https://dc.lft.to/lastmile_qr_scan", "android": "https://dc.lft.to/lastmile_qr_scan"}, "lat": 38.853583666666665, "lon": -77.1347275, "bike_id": "2525095f6ba9b6f4ac4d4ad92403638e", "fusion_lat": 0.0, "is_disabled": 0, "fusion_lon": 0.0}, {"name": "0efb83e250eef057865f48d1aa9a25c7", "is_reserved": 0, "type": "electric_scooter", "rental_uris": {"ios": "https://dc.lft.to/lastmile_qr_scan", "android": "https://dc.lft.to/lastmile_qr_scan"}, "lat": 38.89416283333333, "lon": -77.02152766666667, "bike_id": "0efb83e250eef057865f48d1aa9a25c7", "fusion_lat": 0.0, "is_disabled": 0, "fusion_lon": 0.0}, {"name": "0ecd9ba4415ceb1daa4a84a2e969b27e", "is_reserved": 0, "type": "electric_scooter", "rental_uris": {"ios": "https://dc.lft.to/lastmile_qr_scan", "android": "https://dc.lft.to/lastmile_qr_scan"}, "lat": 38.88042816666667, "lon": -77.011352, "bike_id": "0ecd9ba4415ceb1daa4a84a2e969b27e", "fusion_lat": 0.0, "is_disabled": 0, "fusion_lon": 0.0}, {"name": "8814cfe050e171d33e7ef294e946e2ee", "is_reserved": 0, "type": "electric_scooter", "rental_uris": {"ios": "https://dc.lft.to/lastmile_qr_scan", "android": "https://dc.lft.to/lastmile_qr_scan"}, "lat": 38.904262833333334, "lon": -77.00594883333333, "bike_id": "8814cfe050e171d33e7ef294e946e2ee", "fusion_lat": 0.0, "is_disabled": 0, "fusion_lon": 0.0}, {"name": "cdb01d2bfd6df16ffcbc5afc7e420907", "is_reserved": 0, "type": "electric_scooter", "rental_uris": {"ios": "https://dc.lft.to/lastmile_qr_scan", "android": "https://dc.lft.to/lastmile_qr_scan"}, "lat": 38.8974825, "lon": -77.0308135, "bike_id": "cdb01d2bfd6df16ffcbc5afc7e420907", "fusion_lat": 0.0, "is_disabled": 0, "fusion_lon": 0.0}, {"name": "da422e0cfea2e975a9d0bbad03c7f9c9", "is_reserved": 0, "type": "electric_scooter", "rental_uris": {"ios": "https://dc.lft.to/lastmile_qr_scan", "android": "https://dc.lft.to/lastmile_qr_scan"}, "lat": 38.91915566666667, "lon": -77.04802366666667, "bike_id": "da422e0cfea2e975a9d0bbad03c7f9c9", "fusion_lat": 0.0, "is_disabled": 0, "fusion_lon": 0.0}, {"name": "259b15ef3df9a8eb093b3c6a746b3233", "is_reserved": 0, "type": "electric_scooter", "rental_uris": {"ios": "https://dc.lft.to/lastmile_qr_scan", "android": "https://dc.lft.to/lastmile_qr_scan"}, "lat": 38.9169585, "lon": -77.02675116666667, "bike_id": "259b15ef3df9a8eb093b3c6a746b3233", "fusion_lat": 0.0, "is_disabled": 0, "fusion_lon": 0.0}, {"name": "2427f8ca14ed720cf83ce732f7ffbaa4", "is_reserved": 0, "type": "electric_scooter", "rental_uris": {"ios": "https://dc.lft.to/lastmile_qr_scan", "android": "https://dc.lft.to/lastmile_qr_scan"}, "lat": 38.916726833333335, "lon": -77.027169, "bike_id": "2427f8ca14ed720cf83ce732f7ffbaa4", "fusion_lat": 0.0, "is_disabled": 0, "fusion_lon": 0.0}, {"name": "45a90c416d3772d084f4fd8343f4a538", "is_reserved": 0, "type": "electric_scooter", "rental_uris": {"ios": "https://dc.lft.to/lastmile_qr_scan", "android": "https://dc.lft.to/lastmile_qr_scan"}, "lat": 38.92364933333333, "lon": -77.05127366666666, "bike_id": "45a90c416d3772d084f4fd8343f4a538", "fusion_lat": 0.0, "is_disabled": 0, "fusion_lon": 0.0}, {"name": "b2d669aa0a4195e6499be38160845e8a", "is_reserved": 0, "type": "electric_scooter", "rental_uris": {"ios": "https://dc.lft.to/lastmile_qr_scan", "android": "https://dc.lft.to/lastmile_qr_scan"}, "lat": 38.8924325, "lon": -77.0335065, "bike_id": "b2d669aa0a4195e6499be38160845e8a", "fusion_lat": 0.0, "is_disabled": 0, "fusion_lon": 0.0}, {"name": "ffae5e267455eb643964ccc6c730303c", "is_reserved": 0, "type": "electric_scooter", "rental_uris": {"ios": "https://dc.lft.to/lastmile_qr_scan", "android": "https://dc.lft.to/lastmile_qr_scan"}, "lat": 38.9175825, "lon": -77.03990283333333, "bike_id": "ffae5e267455eb643964ccc6c730303c", "fusion_lat": 0.0, "is_disabled": 0, "fusion_lon": 0.0}, {"name": "64579b9ebe2c8966e0261a1750896f17", "is_reserved": 0, "type": "electric_scooter", "rental_uris": {"ios": "https://dc.lft.to/lastmile_qr_scan", "android": "https://dc.lft.to/lastmile_qr_scan"}, "lat": 38.876641666666664, "lon": -77.00053316666667, "bike_id": "64579b9ebe2c8966e0261a1750896f17", "fusion_lat": 0.0, "is_disabled": 0, "fusion_lon": 0.0}, {"name": "eb8a5cf865091836c221e748846bd5fa", "is_reserved": 0, "type": "electric_scooter", "rental_uris": {"ios": "https://dc.lft.to/lastmile_qr_scan", "android": "https://dc.lft.to/lastmile_qr_scan"}, "lat": 38.91126416666667, "lon": -77.04351283333334, "bike_id": "eb8a5cf865091836c221e748846bd5fa", "fusion_lat": 0.0, "is_disabled": 0, "fusion_lon": 0.0}, {"name": "bbd2f7f2d27effbdbfd488f832910d1e", "is_reserved": 0, "type": "electric_scooter", "rental_uris": {"ios": "https://dc.lft.to/lastmile_qr_scan", "android": "https://dc.lft.to/lastmile_qr_scan"}, "lat": 38.9316615, "lon": -77.03225966666666, "bike_id": "bbd2f7f2d27effbdbfd488f832910d1e", "fusion_lat": 0.0, "is_disabled": 0, "fusion_lon": 0.0}, {"name": "aa1665ee6629a56a90a5704f5800bb57", "is_reserved": 0, "type": "electric_scooter", "rental_uris": {"ios": "https://dc.lft.to/lastmile_qr_scan", "android": "https://dc.lft.to/lastmile_qr_scan"}, "lat": 38.90866116666667, "lon": -76.9995375, "bike_id": "aa1665ee6629a56a90a5704f5800bb57", "fusion_lat": 0.0, "is_disabled": 0, "fusion_lon": 0.0}, {"name": "202bb733df14a4dbc7651416e930d7fc", "is_reserved": 0, "type": "electric_bike", "rental_uris": {"ios": "https://dc.lft.to/lastmile_qr_scan", "android": "https://dc.lft.to/lastmile_qr_scan"}, "lat": 38.956351166666664, "lon": -76.93888016666666, "bike_id": "202bb733df14a4dbc7651416e930d7fc", "fusion_lat": 0.0, "is_disabled": 0, "fusion_lon": 0.0}, {"name": "d1d5c83a94eaad17e6660b2274330fe0", "is_reserved": 0, "type": "electric_scooter", "rental_uris": {"ios": "https://dc.lft.to/lastmile_qr_scan", "android": "https://dc.lft.to/lastmile_qr_scan"}, "lat": 38.896263166666664, "lon": -77.031321, "bike_id": "d1d5c83a94eaad17e6660b2274330fe0", "fusion_lat": 0.0, "is_disabled": 0, "fusion_lon": 0.0}, {"name": "fd63d5d4ee66d7daa988436bb0d316db", "is_reserved": 0, "type": "electric_scooter", "rental_uris": {"ios": "https://dc.lft.to/lastmile_qr_scan", "android": "https://dc.lft.to/lastmile_qr_scan"}, "lat": 38.897309666666665, "lon": -77.003781, "bike_id": "fd63d5d4ee66d7daa988436bb0d316db", "fusion_lat": 0.0, "is_disabled": 0, "fusion_lon": 0.0}, {"name": "6274521fc67c1af5e8501c9509c874c7", "is_reserved": 0, "type": "electric_scooter", "rental_uris": {"ios": "https://dc.lft.to/lastmile_qr_scan", "android": "https://dc.lft.to/lastmile_qr_scan"}, "lat": 38.911274, "lon": -77.02198683333333, "bike_id": "6274521fc67c1af5e8501c9509c874c7", "fusion_lat": 0.0, "is_disabled": 0, "fusion_lon": 0.0}, {"name": "200fbe54a3b2d0ed68ec68a17669c394", "is_reserved": 0, "type": "electric_scooter", "rental_uris": {"ios": "https://dc.lft.to/lastmile_qr_scan", "android": "https://dc.lft.to/lastmile_qr_scan"}, "lat": 38.9170025, "lon": -77.03721933333334, "bike_id": "200fbe54a3b2d0ed68ec68a17669c394", "fusion_lat": 0.0, "is_disabled": 0, "fusion_lon": 0.0}, {"name": "68fa7ac7320b1aaaa49449cfdd491bcd", "is_reserved": 0, "type": "electric_scooter", "rental_uris": {"ios": "https://dc.lft.to/lastmile_qr_scan", "android": "https://dc.lft.to/lastmile_qr_scan"}, "lat": 38.928901833333335, "lon": -77.03296916666666, "bike_id": "68fa7ac7320b1aaaa49449cfdd491bcd", "fusion_lat": 0.0, "is_disabled": 0, "fusion_lon": 0.0}, {"name": "8faa3a492638ab0e7b70380793c65889", "is_reserved": 0, "type": "electric_scooter", "rental_uris": {"ios": "https://dc.lft.to/lastmile_qr_scan", "android": "https://dc.lft.to/lastmile_qr_scan"}, "lat": 38.889617, "lon": -76.93725133333334, "bike_id": "8faa3a492638ab0e7b70380793c65889", "fusion_lat": 0.0, "is_disabled": 0, "fusion_lon": 0.0}, {"name": "c1791d0f8a641412fceeba56f442e496", "is_reserved": 0, "type": "electric_scooter", "rental_uris": {"ios": "https://dc.lft.to/lastmile_qr_scan", "android": "https://dc.lft.to/lastmile_qr_scan"}, "lat": 38.903907, "lon": -77.04219583333334, "bike_id": "c1791d0f8a641412fceeba56f442e496", "fusion_lat": 0.0, "is_disabled": 0, "fusion_lon": 0.0}, {"name": "396894662c13cff3ced48b8ecd6a3a9a", "is_reserved": 0, "type": "electric_scooter", "rental_uris": {"ios": "https://dc.lft.to/lastmile_qr_scan", "android": "https://dc.lft.to/lastmile_qr_scan"}, "lat": 38.900353333333335, "lon": -76.9983505, "bike_id": "396894662c13cff3ced48b8ecd6a3a9a", "fusion_lat": 0.0, "is_disabled": 0, "fusion_lon": 0.0}, {"name": "08a358381683c88236201b12c27c5877", "is_reserved": 0, "type": "electric_scooter", "rental_uris": {"ios": "https://dc.lft.to/lastmile_qr_scan", "android": "https://dc.lft.to/lastmile_qr_scan"}, "lat": 38.876614833333335, "lon": -77.00434383333334, "bike_id": "08a358381683c88236201b12c27c5877", "fusion_lat": 0.0, "is_disabled": 0, "fusion_lon": 0.0}, {"name": "b34da4102743256a6fbd1329738656c9", "is_reserved": 0, "type": "electric_scooter", "rental_uris": {"ios": "https://dc.lft.to/lastmile_qr_scan", "android": "https://dc.lft.to/lastmile_qr_scan"}, "lat": 38.9024, "lon": -77.04714816666667, "bike_id": "b34da4102743256a6fbd1329738656c9", "fusion_lat": 0.0, "is_disabled": 0, "fusion_lon": 0.0}, {"name": "f409dea77703787799c7325db91580bb", "is_reserved": 0, "type": "electric_scooter", "rental_uris": {"ios": "https://dc.lft.to/lastmile_qr_scan", "android": "https://dc.lft.to/lastmile_qr_scan"}, "lat": 38.91135766666667, "lon": -77.0269785, "bike_id": "f409dea77703787799c7325db91580bb", "fusion_lat": 0.0, "is_disabled": 0, "fusion_lon": 0.0}, {"name": "7df91bbfb414b142ce06d47697ae0bd3", "is_reserved": 0, "type": "electric_scooter", "rental_uris": {"ios": "https://dc.lft.to/lastmile_qr_scan", "android": "https://dc.lft.to/lastmile_qr_scan"}, "lat": 38.92381233333333, "lon": -77.03167583333334, "bike_id": "7df91bbfb414b142ce06d47697ae0bd3", "fusion_lat": 0.0, "is_disabled": 0, "fusion_lon": 0.0}, {"name": "4c6d76e1d8b88513bd1f092108bd4a5d", "is_reserved": 0, "type": "electric_bike", "rental_uris": {"ios": "https://dc.lft.to/lastmile_qr_scan", "android": "https://dc.lft.to/lastmile_qr_scan"}, "lat": 38.85765266666667, "lon": -76.98759566666666, "bike_id": "4c6d76e1d8b88513bd1f092108bd4a5d", "fusion_lat": 0.0, "is_disabled": 0, "fusion_lon": 0.0}, {"name": "424f9cc3ac20e1827905eb96679eda6f", "is_reserved": 0, "type": "electric_scooter", "rental_uris": {"ios": "https://dc.lft.to/lastmile_qr_scan", "android": "https://dc.lft.to/lastmile_qr_scan"}, "lat": 38.921434, "lon": -77.04472383333334, "bike_id": "424f9cc3ac20e1827905eb96679eda6f", "fusion_lat": 0.0, "is_disabled": 0, "fusion_lon": 0.0}, {"name": "44585e69b2d322675a356d3431465dce", "is_reserved": 0, "type": "electric_scooter", "rental_uris": {"ios": "https://dc.lft.to/lastmile_qr_scan", "android": "https://dc.lft.to/lastmile_qr_scan"}, "lat": 38.920785, "lon": -77.0044835, "bike_id": "44585e69b2d322675a356d3431465dce", "fusion_lat": 0.0, "is_disabled": 0, "fusion_lon": 0.0}, {"name": "aaddd2a883669fbcdfc4dba9763a46b3", "is_reserved": 0, "type": "electric_scooter", "rental_uris": {"ios": "https://dc.lft.to/lastmile_qr_scan", "android": "https://dc.lft.to/lastmile_qr_scan"}, "lat": 38.931596666666664, "lon": -77.03955216666667, "bike_id": "aaddd2a883669fbcdfc4dba9763a46b3", "fusion_lat": 0.0, "is_disabled": 0, "fusion_lon": 0.0}, {"name": "5b540ccd57d5215b3d3d797b1d78974b", "is_reserved": 0, "type": "electric_scooter", "rental_uris": {"ios": "https://dc.lft.to/lastmile_qr_scan", "android": "https://dc.lft.to/lastmile_qr_scan"}, "lat": 38.8631365, "lon": -76.98274083333334, "bike_id": "5b540ccd57d5215b3d3d797b1d78974b", "fusion_lat": 0.0, "is_disabled": 0, "fusion_lon": 0.0}, {"name": "52abf4acc2630005a2559f6b3bec8157", "is_reserved": 0, "type": "electric_scooter", "rental_uris": {"ios": "https://dc.lft.to/lastmile_qr_scan", "android": "https://dc.lft.to/lastmile_qr_scan"}, "lat": 38.88675766666667, "lon": -76.936147, "bike_id": "52abf4acc2630005a2559f6b3bec8157", "fusion_lat": 0.0, "is_disabled": 0, "fusion_lon": 0.0}, {"name": "b76e0072e4b737f3c9f32bc337bb5a74", "is_reserved": 0, "type": "electric_scooter", "rental_uris": {"ios": "https://dc.lft.to/lastmile_qr_scan", "android": "https://dc.lft.to/lastmile_qr_scan"}, "lat": 38.92725383333333, "lon": -77.03667333333334, "bike_id": "b76e0072e4b737f3c9f32bc337bb5a74", "fusion_lat": 0.0, "is_disabled": 0, "fusion_lon": 0.0}, {"name": "01bb906f08533c57182158e6b433bb20", "is_reserved": 0, "type": "electric_scooter", "rental_uris": {"ios": "https://dc.lft.to/lastmile_qr_scan", "android": "https://dc.lft.to/lastmile_qr_scan"}, "lat": 38.910763833333334, "lon": -77.02292866666667, "bike_id": "01bb906f08533c57182158e6b433bb20", "fusion_lat": 0.0, "is_disabled": 0, "fusion_lon": 0.0}, {"name": "88b344a1153f915be5aea086b145ed9e", "is_reserved": 0, "type": "electric_scooter", "rental_uris": {"ios": "https://dc.lft.to/lastmile_qr_scan", "android": "https://dc.lft.to/lastmile_qr_scan"}, "lat": 38.9251485, "lon": -77.03814866666667, "bike_id": "88b344a1153f915be5aea086b145ed9e", "fusion_lat": 0.0, "is_disabled": 0, "fusion_lon": 0.0}, {"name": "07c5db71378cd6239614ff8f8ffb7bc0", "is_reserved": 0, "type": "electric_scooter", "rental_uris": {"ios": "https://dc.lft.to/lastmile_qr_scan", "android": "https://dc.lft.to/lastmile_qr_scan"}, "lat": 38.89733616666667, "lon": -77.02689483333333, "bike_id": "07c5db71378cd6239614ff8f8ffb7bc0", "fusion_lat": 0.0, "is_disabled": 0, "fusion_lon": 0.0}, {"name": "800d84e263973f67422c45468b146861", "is_reserved": 0, "type": "electric_scooter", "rental_uris": {"ios": "https://dc.lft.to/lastmile_qr_scan", "android": "https://dc.lft.to/lastmile_qr_scan"}, "lat": 38.9138895, "lon": -77.0045555, "bike_id": "800d84e263973f67422c45468b146861", "fusion_lat": 0.0, "is_disabled": 0, "fusion_lon": 0.0}, {"name": "68727b64aa146bf4019a56122a0e84b3", "is_reserved": 0, "type": "electric_scooter", "rental_uris": {"ios": "https://dc.lft.to/lastmile_qr_scan", "android": "https://dc.lft.to/lastmile_qr_scan"}, "lat": 38.928904, "lon": -77.03318983333334, "bike_id": "68727b64aa146bf4019a56122a0e84b3", "fusion_lat": 0.0, "is_disabled": 0, "fusion_lon": 0.0}, {"name": "78634619ebf6ecaafab3d09045fae240", "is_reserved": 0, "type": "electric_scooter", "rental_uris": {"ios": "https://dc.lft.to/lastmile_qr_scan", "android": "https://dc.lft.to/lastmile_qr_scan"}, "lat": 38.94962066666667, "lon": -77.0272175, "bike_id": "78634619ebf6ecaafab3d09045fae240", "fusion_lat": 0.0, "is_disabled": 0, "fusion_lon": 0.0}, {"name": "53d8414970dfcbfcb3e8b59876c744b2", "is_reserved": 0, "type": "electric_scooter", "rental_uris": {"ios": "https://dc.lft.to/lastmile_qr_scan", "android": "https://dc.lft.to/lastmile_qr_scan"}, "lat": 38.90258983333333, "lon": -77.00887683333333, "bike_id": "53d8414970dfcbfcb3e8b59876c744b2", "fusion_lat": 0.0, "is_disabled": 0, "fusion_lon": 0.0}, {"name": "17b2e591cfe9b0f5c431cb6eb399d29f", "is_reserved": 0, "type": "electric_scooter", "rental_uris": {"ios": "https://dc.lft.to/lastmile_qr_scan", "android": "https://dc.lft.to/lastmile_qr_scan"}, "lat": 38.91569716666667, "lon": -77.05217666666667, "bike_id": "17b2e591cfe9b0f5c431cb6eb399d29f", "fusion_lat": 0.0, "is_disabled": 0, "fusion_lon": 0.0}, {"name": "e32d7a0aae15b423b90187923a6db21a", "is_reserved": 0, "type": "electric_scooter", "rental_uris": {"ios": "https://dc.lft.to/lastmile_qr_scan", "android": "https://dc.lft.to/lastmile_qr_scan"}, "lat": 38.8961215, "lon": -77.03033033333334, "bike_id": "e32d7a0aae15b423b90187923a6db21a", "fusion_lat": 0.0, "is_disabled": 0, "fusion_lon": 0.0}, {"name": "715995dd361b5bddff7d1f58788b1ca4", "is_reserved": 0, "type": "electric_scooter", "rental_uris": {"ios": "https://dc.lft.to/lastmile_qr_scan", "android": "https://dc.lft.to/lastmile_qr_scan"}, "lat": 38.93810416666667, "lon": -77.02417466666667, "bike_id": "715995dd361b5bddff7d1f58788b1ca4", "fusion_lat": 0.0, "is_disabled": 0, "fusion_lon": 0.0}, {"name": "00d8cf7274d5257d0285da2e14e77fc6", "is_reserved": 0, "type": "electric_scooter", "rental_uris": {"ios": "https://dc.lft.to/lastmile_qr_scan", "android": "https://dc.lft.to/lastmile_qr_scan"}, "lat": 38.90640883333333, "lon": -77.03468016666666, "bike_id": "00d8cf7274d5257d0285da2e14e77fc6", "fusion_lat": 0.0, "is_disabled": 0, "fusion_lon": 0.0}, {"name": "077c435f5a0abd34cdc68e0a2e3fb628", "is_reserved": 0, "type": "electric_scooter", "rental_uris": {"ios": "https://dc.lft.to/lastmile_qr_scan", "android": "https://dc.lft.to/lastmile_qr_scan"}, "lat": 38.95427683333333, "lon": -77.02775066666666, "bike_id": "077c435f5a0abd34cdc68e0a2e3fb628", "fusion_lat": 0.0, "is_disabled": 0, "fusion_lon": 0.0}, {"name": "4af4b3ab27a1028e4edc6f4ef49c1a87", "is_reserved": 0, "type": "electric_scooter", "rental_uris": {"ios": "https://dc.lft.to/lastmile_qr_scan", "android": "https://dc.lft.to/lastmile_qr_scan"}, "lat": 38.921278, "lon": -77.03212216666667, "bike_id": "4af4b3ab27a1028e4edc6f4ef49c1a87", "fusion_lat": 0.0, "is_disabled": 0, "fusion_lon": 0.0}, {"name": "69039a375f608aeb5c301798e7466608", "is_reserved": 0, "type": "electric_scooter", "rental_uris": {"ios": "https://dc.lft.to/lastmile_qr_scan", "android": "https://dc.lft.to/lastmile_qr_scan"}, "lat": 38.9180775, "lon": -77.0093045, "bike_id": "69039a375f608aeb5c301798e7466608", "fusion_lat": 0.0, "is_disabled": 0, "fusion_lon": 0.0}, {"name": "8fddeaf76d42bb42370cfd2441acd1b7", "is_reserved": 0, "type": "electric_scooter", "rental_uris": {"ios": "https://dc.lft.to/lastmile_qr_scan", "android": "https://dc.lft.to/lastmile_qr_scan"}, "lat": 38.903165333333334, "lon": -76.97804533333333, "bike_id": "8fddeaf76d42bb42370cfd2441acd1b7", "fusion_lat": 0.0, "is_disabled": 0, "fusion_lon": 0.0}, {"name": "83c8c02979ddb4d9e83f98c9a336e703", "is_reserved": 0, "type": "electric_scooter", "rental_uris": {"ios": "https://dc.lft.to/lastmile_qr_scan", "android": "https://dc.lft.to/lastmile_qr_scan"}, "lat": 38.95636233333333, "lon": -77.03309616666667, "bike_id": "83c8c02979ddb4d9e83f98c9a336e703", "fusion_lat": 0.0, "is_disabled": 0, "fusion_lon": 0.0}, {"name": "404edbf7e58712769efc76efcd7d1c85", "is_reserved": 0, "type": "electric_scooter", "rental_uris": {"ios": "https://dc.lft.to/lastmile_qr_scan", "android": "https://dc.lft.to/lastmile_qr_scan"}, "lat": 38.91706083333333, "lon": -77.02633766666666, "bike_id": "404edbf7e58712769efc76efcd7d1c85", "fusion_lat": 0.0, "is_disabled": 0, "fusion_lon": 0.0}, {"name": "94e0f4c19cf382169e3a2112d4915930", "is_reserved": 0, "type": "electric_scooter", "rental_uris": {"ios": "https://dc.lft.to/lastmile_qr_scan", "android": "https://dc.lft.to/lastmile_qr_scan"}, "lat": 38.9429735, "lon": -77.05877466666666, "bike_id": "94e0f4c19cf382169e3a2112d4915930", "fusion_lat": 0.0, "is_disabled": 0, "fusion_lon": 0.0}, {"name": "e1ee4815a3704968dfe4372856dbd45c", "is_reserved": 0, "type": "electric_bike", "rental_uris": {"ios": "https://dc.lft.to/lastmile_qr_scan", "android": "https://dc.lft.to/lastmile_qr_scan"}, "lat": 38.86236483333333, "lon": -76.99073, "bike_id": "e1ee4815a3704968dfe4372856dbd45c", "fusion_lat": 0.0, "is_disabled": 0, "fusion_lon": 0.0}, {"name": "b0c9f46103a2c31eeb216182abd25e5b", "is_reserved": 0, "type": "electric_scooter", "rental_uris": {"ios": "https://dc.lft.to/lastmile_qr_scan", "android": "https://dc.lft.to/lastmile_qr_scan"}, "lat": 38.894778, "lon": -77.021888, "bike_id": "b0c9f46103a2c31eeb216182abd25e5b", "fusion_lat": 0.0, "is_disabled": 0, "fusion_lon": 0.0}, {"name": "e4f69f167713f7fa2b77c9ed5b26e0c9", "is_reserved": 0, "type": "electric_scooter", "rental_uris": {"ios": "https://dc.lft.to/lastmile_qr_scan", "android": "https://dc.lft.to/lastmile_qr_scan"}, "lat": 38.92791883333334, "lon": -77.03257566666667, "bike_id": "e4f69f167713f7fa2b77c9ed5b26e0c9", "fusion_lat": 0.0, "is_disabled": 0, "fusion_lon": 0.0}, {"name": "2ac3ba31ee504a43d3d1afdd90087d2a", "is_reserved": 0, "type": "electric_scooter", "rental_uris": {"ios": "https://dc.lft.to/lastmile_qr_scan", "android": "https://dc.lft.to/lastmile_qr_scan"}, "lat": 38.89252416666667, "lon": -77.0239985, "bike_id": "2ac3ba31ee504a43d3d1afdd90087d2a", "fusion_lat": 0.0, "is_disabled": 0, "fusion_lon": 0.0}, {"name": "9c78c1e2556f37ba31a12245234e5f67", "is_reserved": 0, "type": "electric_scooter", "rental_uris": {"ios": "https://dc.lft.to/lastmile_qr_scan", "android": "https://dc.lft.to/lastmile_qr_scan"}, "lat": 38.907293333333335, "lon": -77.03358333333334, "bike_id": "9c78c1e2556f37ba31a12245234e5f67", "fusion_lat": 0.0, "is_disabled": 0, "fusion_lon": 0.0}, {"name": "73f98ba29c5a524563008e51cb399f08", "is_reserved": 0, "type": "electric_scooter", "rental_uris": {"ios": "https://dc.lft.to/lastmile_qr_scan", "android": "https://dc.lft.to/lastmile_qr_scan"}, "lat": 38.93597166666667, "lon": -77.0233155, "bike_id": "73f98ba29c5a524563008e51cb399f08", "fusion_lat": 0.0, "is_disabled": 0, "fusion_lon": 0.0}, {"name": "f586b3bc4fe72fb2abeeb3849ec47b9d", "is_reserved": 0, "type": "electric_scooter", "rental_uris": {"ios": "https://dc.lft.to/lastmile_qr_scan", "android": "https://dc.lft.to/lastmile_qr_scan"}, "lat": 38.91770266666666, "lon": -77.04553416666667, "bike_id": "f586b3bc4fe72fb2abeeb3849ec47b9d", "fusion_lat": 0.0, "is_disabled": 0, "fusion_lon": 0.0}, {"name": "7878e619b0a99896488a120d6e3b1698", "is_reserved": 0, "type": "electric_scooter", "rental_uris": {"ios": "https://dc.lft.to/lastmile_qr_scan", "android": "https://dc.lft.to/lastmile_qr_scan"}, "lat": 38.896377666666666, "lon": -77.02414266666666, "bike_id": "7878e619b0a99896488a120d6e3b1698", "fusion_lat": 0.0, "is_disabled": 0, "fusion_lon": 0.0}, {"name": "b3c40322c38eab9f6fd371d17e8026c6", "is_reserved": 0, "type": "electric_scooter", "rental_uris": {"ios": "https://dc.lft.to/lastmile_qr_scan", "android": "https://dc.lft.to/lastmile_qr_scan"}, "lat": 38.933057, "lon": -77.0247035, "bike_id": "b3c40322c38eab9f6fd371d17e8026c6", "fusion_lat": 0.0, "is_disabled": 0, "fusion_lon": 0.0}, {"name": "75a426569d08fee7cf5505fcee91d647", "is_reserved": 0, "type": "electric_scooter", "rental_uris": {"ios": "https://dc.lft.to/lastmile_qr_scan", "android": "https://dc.lft.to/lastmile_qr_scan"}, "lat": 38.916189833333334, "lon": -77.02279416666667, "bike_id": "75a426569d08fee7cf5505fcee91d647", "fusion_lat": 0.0, "is_disabled": 0, "fusion_lon": 0.0}, {"name": "9391403f4f9698a0219adc1a43f25dc2", "is_reserved": 0, "type": "electric_scooter", "rental_uris": {"ios": "https://dc.lft.to/lastmile_qr_scan", "android": "https://dc.lft.to/lastmile_qr_scan"}, "lat": 38.92800366666667, "lon": -77.04105, "bike_id": "9391403f4f9698a0219adc1a43f25dc2", "fusion_lat": 0.0, "is_disabled": 0, "fusion_lon": 0.0}, {"name": "3a79ea0fb2090517d135074a8f421f82", "is_reserved": 0, "type": "electric_scooter", "rental_uris": {"ios": "https://dc.lft.to/lastmile_qr_scan", "android": "https://dc.lft.to/lastmile_qr_scan"}, "lat": 38.89557816666667, "lon": -77.00917666666666, "bike_id": "3a79ea0fb2090517d135074a8f421f82", "fusion_lat": 0.0, "is_disabled": 0, "fusion_lon": 0.0}, {"name": "89717de114fee193859b8ec28861f729", "is_reserved": 0, "type": "electric_scooter", "rental_uris": {"ios": "https://dc.lft.to/lastmile_qr_scan", "android": "https://dc.lft.to/lastmile_qr_scan"}, "lat": 38.92416983333333, "lon": -77.02132233333333, "bike_id": "89717de114fee193859b8ec28861f729", "fusion_lat": 0.0, "is_disabled": 0, "fusion_lon": 0.0}, {"name": "c1b1d8da2cb90a634e5f489930112805", "is_reserved": 0, "type": "electric_scooter", "rental_uris": {"ios": "https://dc.lft.to/lastmile_qr_scan", "android": "https://dc.lft.to/lastmile_qr_scan"}, "lat": 38.90847766666667, "lon": -77.02359916666667, "bike_id": "c1b1d8da2cb90a634e5f489930112805", "fusion_lat": 0.0, "is_disabled": 0, "fusion_lon": 0.0}, {"name": "2e444eeebea3618e6bb4b58f924206dd", "is_reserved": 0, "type": "electric_scooter", "rental_uris": {"ios": "https://dc.lft.to/lastmile_qr_scan", "android": "https://dc.lft.to/lastmile_qr_scan"}, "lat": 38.926437, "lon": -77.03226783333334, "bike_id": "2e444eeebea3618e6bb4b58f924206dd", "fusion_lat": 0.0, "is_disabled": 0, "fusion_lon": 0.0}, {"name": "2cd0a7bbab8fd208ca6b370dfef6e3fc", "is_reserved": 0, "type": "electric_scooter", "rental_uris": {"ios": "https://dc.lft.to/lastmile_qr_scan", "android": "https://dc.lft.to/lastmile_qr_scan"}, "lat": 38.923436, "lon": -77.0511825, "bike_id": "2cd0a7bbab8fd208ca6b370dfef6e3fc", "fusion_lat": 0.0, "is_disabled": 0, "fusion_lon": 0.0}, {"name": "0f787a557b50f08651bad6a0ea248b80", "is_reserved": 0, "type": "electric_scooter", "rental_uris": {"ios": "https://dc.lft.to/lastmile_qr_scan", "android": "https://dc.lft.to/lastmile_qr_scan"}, "lat": 38.90960316666666, "lon": -77.01847116666667, "bike_id": "0f787a557b50f08651bad6a0ea248b80", "fusion_lat": 0.0, "is_disabled": 0, "fusion_lon": 0.0}, {"name": "a32711fa96d19afb178606dd1fd4a87e", "is_reserved": 0, "type": "electric_scooter", "rental_uris": {"ios": "https://dc.lft.to/lastmile_qr_scan", "android": "https://dc.lft.to/lastmile_qr_scan"}, "lat": 38.90952716666666, "lon": -77.02199383333334, "bike_id": "a32711fa96d19afb178606dd1fd4a87e", "fusion_lat": 0.0, "is_disabled": 0, "fusion_lon": 0.0}, {"name": "c80fde2bfd8e0fb3aae34ef3df9f6b20", "is_reserved": 0, "type": "electric_scooter", "rental_uris": {"ios": "https://dc.lft.to/lastmile_qr_scan", "android": "https://dc.lft.to/lastmile_qr_scan"}, "lat": 38.90558083333333, "lon": -77.04517983333334, "bike_id": "c80fde2bfd8e0fb3aae34ef3df9f6b20", "fusion_lat": 0.0, "is_disabled": 0, "fusion_lon": 0.0}, {"name": "57c31f978df18a999fe576c53fe545a5", "is_reserved": 0, "type": "electric_scooter", "rental_uris": {"ios": "https://dc.lft.to/lastmile_qr_scan", "android": "https://dc.lft.to/lastmile_qr_scan"}, "lat": 38.897421, "lon": -77.02453833333334, "bike_id": "57c31f978df18a999fe576c53fe545a5", "fusion_lat": 0.0, "is_disabled": 0, "fusion_lon": 0.0}, {"name": "f99eea8fe01b7d74cb87280989eed29d", "is_reserved": 0, "type": "electric_scooter", "rental_uris": {"ios": "https://dc.lft.to/lastmile_qr_scan", "android": "https://dc.lft.to/lastmile_qr_scan"}, "lat": 38.925386833333334, "lon": -77.034822, "bike_id": "f99eea8fe01b7d74cb87280989eed29d", "fusion_lat": 0.0, "is_disabled": 0, "fusion_lon": 0.0}, {"name": "a4bb0801b83ebcd25c4e0cd7a742c4a3", "is_reserved": 0, "type": "electric_scooter", "rental_uris": {"ios": "https://dc.lft.to/lastmile_qr_scan", "android": "https://dc.lft.to/lastmile_qr_scan"}, "lat": 38.924423166666664, "lon": -77.04027833333333, "bike_id": "a4bb0801b83ebcd25c4e0cd7a742c4a3", "fusion_lat": 0.0, "is_disabled": 0, "fusion_lon": 0.0}, {"name": "7bc212591a9d2e65ce088cc0005bfc50", "is_reserved": 0, "type": "electric_scooter", "rental_uris": {"ios": "https://dc.lft.to/lastmile_qr_scan", "android": "https://dc.lft.to/lastmile_qr_scan"}, "lat": 38.89892016666667, "lon": -76.93272466666667, "bike_id": "7bc212591a9d2e65ce088cc0005bfc50", "fusion_lat": 0.0, "is_disabled": 0, "fusion_lon": 0.0}, {"name": "92ae8a219fedaf212839429c7a1fa243", "is_reserved": 0, "type": "electric_scooter", "rental_uris": {"ios": "https://dc.lft.to/lastmile_qr_scan", "android": "https://dc.lft.to/lastmile_qr_scan"}, "lat": 38.963762333333335, "lon": -77.074796, "bike_id": "92ae8a219fedaf212839429c7a1fa243", "fusion_lat": 0.0, "is_disabled": 0, "fusion_lon": 0.0}, {"name": "f9a9df7f80d231fada86a63222f460be", "is_reserved": 0, "type": "electric_scooter", "rental_uris": {"ios": "https://dc.lft.to/lastmile_qr_scan", "android": "https://dc.lft.to/lastmile_qr_scan"}, "lat": 38.957331833333335, "lon": -77.0240245, "bike_id": "f9a9df7f80d231fada86a63222f460be", "fusion_lat": 0.0, "is_disabled": 0, "fusion_lon": 0.0}, {"name": "4c24abd88b8764f57f563fc617939ca7", "is_reserved": 0, "type": "electric_scooter", "rental_uris": {"ios": "https://dc.lft.to/lastmile_qr_scan", "android": "https://dc.lft.to/lastmile_qr_scan"}, "lat": 38.915087166666666, "lon": -77.032058, "bike_id": "4c24abd88b8764f57f563fc617939ca7", "fusion_lat": 0.0, "is_disabled": 0, "fusion_lon": 0.0}, {"name": "09e721b14ee1f810f71a5987efba2838", "is_reserved": 0, "type": "electric_scooter", "rental_uris": {"ios": "https://dc.lft.to/lastmile_qr_scan", "android": "https://dc.lft.to/lastmile_qr_scan"}, "lat": 38.8955425, "lon": -76.94878783333333, "bike_id": "09e721b14ee1f810f71a5987efba2838", "fusion_lat": 0.0, "is_disabled": 0, "fusion_lon": 0.0}, {"name": "c52caa253bb2fe57b5f8099d427bde4b", "is_reserved": 0, "type": "electric_scooter", "rental_uris": {"ios": "https://dc.lft.to/lastmile_qr_scan", "android": "https://dc.lft.to/lastmile_qr_scan"}, "lat": 38.915352666666664, "lon": -77.03837583333333, "bike_id": "c52caa253bb2fe57b5f8099d427bde4b", "fusion_lat": 0.0, "is_disabled": 0, "fusion_lon": 0.0}, {"name": "d2446a09ff7bb4de02b12cae443ef0ae", "is_reserved": 0, "type": "electric_scooter", "rental_uris": {"ios": "https://dc.lft.to/lastmile_qr_scan", "android": "https://dc.lft.to/lastmile_qr_scan"}, "lat": 38.903928666666665, "lon": -76.98101966666667, "bike_id": "d2446a09ff7bb4de02b12cae443ef0ae", "fusion_lat": 0.0, "is_disabled": 0, "fusion_lon": 0.0}, {"name": "2bcbf7e0dc227609d2c49152644d621c", "is_reserved": 0, "type": "electric_scooter", "rental_uris": {"ios": "https://dc.lft.to/lastmile_qr_scan", "android": "https://dc.lft.to/lastmile_qr_scan"}, "lat": 38.884956, "lon": -77.00730333333334, "bike_id": "2bcbf7e0dc227609d2c49152644d621c", "fusion_lat": 0.0, "is_disabled": 0, "fusion_lon": 0.0}, {"name": "6a9ac4221bb9363d8b52007d4f4fcf03", "is_reserved": 0, "type": "electric_scooter", "rental_uris": {"ios": "https://dc.lft.to/lastmile_qr_scan", "android": "https://dc.lft.to/lastmile_qr_scan"}, "lat": 38.8984615, "lon": -76.94635383333333, "bike_id": "6a9ac4221bb9363d8b52007d4f4fcf03", "fusion_lat": 0.0, "is_disabled": 0, "fusion_lon": 0.0}, {"name": "480863bd25de234add1e67e971f61131", "is_reserved": 0, "type": "electric_scooter", "rental_uris": {"ios": "https://dc.lft.to/lastmile_qr_scan", "android": "https://dc.lft.to/lastmile_qr_scan"}, "lat": 38.91683333333334, "lon": -77.022792, "bike_id": "480863bd25de234add1e67e971f61131", "fusion_lat": 0.0, "is_disabled": 0, "fusion_lon": 0.0}, {"name": "ab30222c3c3808ec8e6c596fa4e8c65f", "is_reserved": 0, "type": "electric_scooter", "rental_uris": {"ios": "https://dc.lft.to/lastmile_qr_scan", "android": "https://dc.lft.to/lastmile_qr_scan"}, "lat": 38.90965933333333, "lon": -77.02439783333334, "bike_id": "ab30222c3c3808ec8e6c596fa4e8c65f", "fusion_lat": 0.0, "is_disabled": 0, "fusion_lon": 0.0}, {"name": "426c2dc8c7bcdd1166129e1a7f98b3a3", "is_reserved": 0, "type": "electric_scooter", "rental_uris": {"ios": "https://dc.lft.to/lastmile_qr_scan", "android": "https://dc.lft.to/lastmile_qr_scan"}, "lat": 38.916621, "lon": -77.03206316666666, "bike_id": "426c2dc8c7bcdd1166129e1a7f98b3a3", "fusion_lat": 0.0, "is_disabled": 0, "fusion_lon": 0.0}, {"name": "8123eac3fdaf547ca8e4d54b1e34cb4a", "is_reserved": 0, "type": "electric_scooter", "rental_uris": {"ios": "https://dc.lft.to/lastmile_qr_scan", "android": "https://dc.lft.to/lastmile_qr_scan"}, "lat": 38.9199325, "lon": -76.97304566666666, "bike_id": "8123eac3fdaf547ca8e4d54b1e34cb4a", "fusion_lat": 0.0, "is_disabled": 0, "fusion_lon": 0.0}, {"name": "a20ca4b543fbcf6004034c4cfc64b5cd", "is_reserved": 0, "type": "electric_scooter", "rental_uris": {"ios": "https://dc.lft.to/lastmile_qr_scan", "android": "https://dc.lft.to/lastmile_qr_scan"}, "lat": 38.93676683333333, "lon": -77.035948, "bike_id": "a20ca4b543fbcf6004034c4cfc64b5cd", "fusion_lat": 0.0, "is_disabled": 0, "fusion_lon": 0.0}, {"name": "66be802e1e526177a67905a6db27925c", "is_reserved": 0, "type": "electric_scooter", "rental_uris": {"ios": "https://dc.lft.to/lastmile_qr_scan", "android": "https://dc.lft.to/lastmile_qr_scan"}, "lat": 38.90571833333333, "lon": -77.03641316666666, "bike_id": "66be802e1e526177a67905a6db27925c", "fusion_lat": 0.0, "is_disabled": 0, "fusion_lon": 0.0}, {"name": "442e48c4694e3f260e9d97e4282d5d7f", "is_reserved": 0, "type": "electric_scooter", "rental_uris": {"ios": "https://dc.lft.to/lastmile_qr_scan", "android": "https://dc.lft.to/lastmile_qr_scan"}, "lat": 38.924108, "lon": -77.0402115, "bike_id": "442e48c4694e3f260e9d97e4282d5d7f", "fusion_lat": 0.0, "is_disabled": 0, "fusion_lon": 0.0}, {"name": "8f184d3df68cebbda3a818fb90275382", "is_reserved": 0, "type": "electric_scooter", "rental_uris": {"ios": "https://dc.lft.to/lastmile_qr_scan", "android": "https://dc.lft.to/lastmile_qr_scan"}, "lat": 38.93491216666666, "lon": -77.07269066666667, "bike_id": "8f184d3df68cebbda3a818fb90275382", "fusion_lat": 0.0, "is_disabled": 0, "fusion_lon": 0.0}, {"name": "36408e49a32e1390da3ec99d974e5310", "is_reserved": 0, "type": "electric_scooter", "rental_uris": {"ios": "https://dc.lft.to/lastmile_qr_scan", "android": "https://dc.lft.to/lastmile_qr_scan"}, "lat": 38.887063833333336, "lon": -76.99609483333333, "bike_id": "36408e49a32e1390da3ec99d974e5310", "fusion_lat": 0.0, "is_disabled": 0, "fusion_lon": 0.0}, {"name": "1ee2358ac889a8f0cb7cb35c38a8f059", "is_reserved": 0, "type": "electric_scooter", "rental_uris": {"ios": "https://dc.lft.to/lastmile_qr_scan", "android": "https://dc.lft.to/lastmile_qr_scan"}, "lat": 38.920297, "lon": -77.07146466666667, "bike_id": "1ee2358ac889a8f0cb7cb35c38a8f059", "fusion_lat": 0.0, "is_disabled": 0, "fusion_lon": 0.0}, {"name": "4f857f52a5aaed20dbae2c36bbd10ed6", "is_reserved": 0, "type": "electric_scooter", "rental_uris": {"ios": "https://dc.lft.to/lastmile_qr_scan", "android": "https://dc.lft.to/lastmile_qr_scan"}, "lat": 38.887219333333334, "lon": -76.99649066666667, "bike_id": "4f857f52a5aaed20dbae2c36bbd10ed6", "fusion_lat": 0.0, "is_disabled": 0, "fusion_lon": 0.0}, {"name": "67f2efcb977668a3e024f37bbec3a6c7", "is_reserved": 0, "type": "electric_scooter", "rental_uris": {"ios": "https://dc.lft.to/lastmile_qr_scan", "android": "https://dc.lft.to/lastmile_qr_scan"}, "lat": 38.911746, "lon": -77.03862966666667, "bike_id": "67f2efcb977668a3e024f37bbec3a6c7", "fusion_lat": 0.0, "is_disabled": 0, "fusion_lon": 0.0}, {"name": "941c142ff2db38e26b23b9cd5bf08319", "is_reserved": 0, "type": "electric_scooter", "rental_uris": {"ios": "https://dc.lft.to/lastmile_qr_scan", "android": "https://dc.lft.to/lastmile_qr_scan"}, "lat": 38.8999415, "lon": -77.0318675, "bike_id": "941c142ff2db38e26b23b9cd5bf08319", "fusion_lat": 0.0, "is_disabled": 0, "fusion_lon": 0.0}, {"name": "d746cbe30fd1aeb82545ba17c4b7a15f", "is_reserved": 0, "type": "electric_scooter", "rental_uris": {"ios": "https://dc.lft.to/lastmile_qr_scan", "android": "https://dc.lft.to/lastmile_qr_scan"}, "lat": 38.86260983333333, "lon": -76.99551016666666, "bike_id": "d746cbe30fd1aeb82545ba17c4b7a15f", "fusion_lat": 0.0, "is_disabled": 0, "fusion_lon": 0.0}, {"name": "8f6b1b71c47d4164b55f5b69a65cafeb", "is_reserved": 0, "type": "electric_scooter", "rental_uris": {"ios": "https://dc.lft.to/lastmile_qr_scan", "android": "https://dc.lft.to/lastmile_qr_scan"}, "lat": 38.923290333333334, "lon": -77.04307733333333, "bike_id": "8f6b1b71c47d4164b55f5b69a65cafeb", "fusion_lat": 0.0, "is_disabled": 0, "fusion_lon": 0.0}, {"name": "e8150adce7d9759a1a95240225c9bc8d", "is_reserved": 0, "type": "electric_scooter", "rental_uris": {"ios": "https://dc.lft.to/lastmile_qr_scan", "android": "https://dc.lft.to/lastmile_qr_scan"}, "lat": 38.8443545, "lon": -76.99813716666667, "bike_id": "e8150adce7d9759a1a95240225c9bc8d", "fusion_lat": 0.0, "is_disabled": 0, "fusion_lon": 0.0}, {"name": "c81846403315a6bab859e111fc18e37c", "is_reserved": 0, "type": "electric_scooter", "rental_uris": {"ios": "https://dc.lft.to/lastmile_qr_scan", "android": "https://dc.lft.to/lastmile_qr_scan"}, "lat": 38.91431466666667, "lon": -77.022054, "bike_id": "c81846403315a6bab859e111fc18e37c", "fusion_lat": 0.0, "is_disabled": 0, "fusion_lon": 0.0}, {"name": "6af6b0f097049442aa777c0c12ea265b", "is_reserved": 0, "type": "electric_bike", "rental_uris": {"ios": "https://dc.lft.to/lastmile_qr_scan", "android": "https://dc.lft.to/lastmile_qr_scan"}, "lat": 38.862516666666664, "lon": -77.08656666666667, "bike_id": "6af6b0f097049442aa777c0c12ea265b", "fusion_lat": 0.0, "is_disabled": 0, "fusion_lon": 0.0}, {"name": "d2f924112b90b482da8e3e025074e86d", "is_reserved": 0, "type": "electric_scooter", "rental_uris": {"ios": "https://dc.lft.to/lastmile_qr_scan", "android": "https://dc.lft.to/lastmile_qr_scan"}, "lat": 38.91679533333333, "lon": -77.02281733333334, "bike_id": "d2f924112b90b482da8e3e025074e86d", "fusion_lat": 0.0, "is_disabled": 0, "fusion_lon": 0.0}, {"name": "e3cdd72f43fbb27c1f931f833c2b7616", "is_reserved": 0, "type": "electric_scooter", "rental_uris": {"ios": "https://dc.lft.to/lastmile_qr_scan", "android": "https://dc.lft.to/lastmile_qr_scan"}, "lat": 38.883313666666666, "lon": -77.0176185, "bike_id": "e3cdd72f43fbb27c1f931f833c2b7616", "fusion_lat": 0.0, "is_disabled": 0, "fusion_lon": 0.0}, {"name": "31c86e6af8d75e5042065a5520822d6d", "is_reserved": 0, "type": "electric_scooter", "rental_uris": {"ios": "https://dc.lft.to/lastmile_qr_scan", "android": "https://dc.lft.to/lastmile_qr_scan"}, "lat": 38.88404, "lon": -77.03047833333333, "bike_id": "31c86e6af8d75e5042065a5520822d6d", "fusion_lat": 0.0, "is_disabled": 0, "fusion_lon": 0.0}, {"name": "2d19eec3ba7db99b277014bf74e3af51", "is_reserved": 0, "type": "electric_scooter", "rental_uris": {"ios": "https://dc.lft.to/lastmile_qr_scan", "android": "https://dc.lft.to/lastmile_qr_scan"}, "lat": 38.9216325, "lon": -77.0469585, "bike_id": "2d19eec3ba7db99b277014bf74e3af51", "fusion_lat": 0.0, "is_disabled": 0, "fusion_lon": 0.0}, {"name": "469c297aa6618aa55d5d80f205267a12", "is_reserved": 0, "type": "electric_scooter", "rental_uris": {"ios": "https://dc.lft.to/lastmile_qr_scan", "android": "https://dc.lft.to/lastmile_qr_scan"}, "lat": 38.9156695, "lon": -77.01169416666667, "bike_id": "469c297aa6618aa55d5d80f205267a12", "fusion_lat": 0.0, "is_disabled": 0, "fusion_lon": 0.0}, {"name": "355b1d3876157f03da53761564496e8e", "is_reserved": 0, "type": "electric_scooter", "rental_uris": {"ios": "https://dc.lft.to/lastmile_qr_scan", "android": "https://dc.lft.to/lastmile_qr_scan"}, "lat": 38.8973505, "lon": -77.00375766666667, "bike_id": "355b1d3876157f03da53761564496e8e", "fusion_lat": 0.0, "is_disabled": 0, "fusion_lon": 0.0},