{"data": {"bikes": [{"type": "electric_scooter", "name": "640e64a01aad7394e31119aee92b74eb", "fusion_lat": 0.0, "fusion_lon": 0.0, "lon": -77.06338416666667, "is_disabled": 0, "bike_id": "640e64a01aad7394e31119aee92b74eb", "is_reserved": 0, "rental_uris": {"android": "https://dc.lft.to/lastmile_qr_scan", "ios": "https://dc.lft.to/lastmile_qr_scan"}, "lat": 38.92151766666667}, {"type": "electric_scooter", "name": "cddf75b7780f1bf354c51785b9db2f16", "fusion_lat": 0.0, "fusion_lon": 0.0, "lon": -77.04166816666667, "is_disabled": 0, "bike_id": "cddf75b7780f1bf354c51785b9db2f16", "is_reserved": 0, "rental_uris": {"android": "https://dc.lft.to/lastmile_qr_scan", "ios": "https://dc.lft.to/lastmile_qr_scan"}, "lat": 38.91821516666667}, {"type": "electric_scooter", "name": "45c6b2a8239797267d86370b5f5c012f", "fusion_lat": 0.0, "fusion_lon": 0.0, "lon": -77.02736166666666, "is_disabled": 0, "bike_id": "45c6b2a8239797267d86370b5f5c012f", "is_reserved": 0, "rental_uris": {"android": "https://dc.lft.to/lastmile_qr_scan", "ios": "https://dc.lft.to/lastmile_qr_scan"}, "lat": 38.92485766666667}, {"type": "electric_scooter", "name": "56a38051930c8211244261077d46b999", "fusion_lat": 0.0, "fusion_lon": 0.0, "lon": -77.04031066666667, "is_disabled": 0, "bike_id": "56a38051930c8211244261077d46b999", "is_reserved": 0, "rental_uris": {"android": "https://dc.lft.to/lastmile_qr_scan", "ios": "https://dc.lft.to/lastmile_qr_scan"}, "lat": 38.91809116666667}, {"type": "electric_scooter", "name": "b9839f50a665178346e35e819d25c63d", "fusion_lat": 0.0, "fusion_lon": 0.0, "lon": -77.02817516666667, "is_disabled": 0, "bike_id": "b9839f50a665178346e35e819d25c63d", "is_reserved": 0, "rental_uris": {"android": "https://dc.lft.to/lastmile_qr_scan", "ios": "https://dc.lft.to/lastmile_qr_scan"}, "lat": 38.90934683333333}, {"type": "electric_scooter", "name": "3e28e2ac992929d8d14eefd5554e8581", "fusion_lat": 0.0, "fusion_lon": 0.0, "lon": -77.0281845, "is_disabled": 0, "bike_id": "3e28e2ac992929d8d14eefd5554e8581", "is_reserved": 0, "rental_uris": {"android": "https://dc.lft.to/lastmile_qr_scan", "ios": "https://dc.lft.to/lastmile_qr_scan"}, "lat": 38.896349}, {"type": "electric_bike", "name": "4101cacc7de976a22635b76ea6c941c1", "fusion_lat": 0.0, "fusion_lon": 0.0, "lon": -77.08982033333334, "is_disabled": 0, "bike_id": "4101cacc7de976a22635b76ea6c941c1", "is_reserved": 0, "rental_uris": {"android": "https://dc.lft.to/lastmile_qr_scan", "ios": "https://dc.lft.to/lastmile_qr_scan"}, "lat": 38.9117495}, {"type": "electric_scooter", "name": "bc89f843ae5a0cc2569c67b6eb412c0d", "fusion_lat": 0.0, "fusion_lon": 0.0, "lon": -77.02684116666667, "is_disabled": 0, "bike_id": "bc89f843ae5a0cc2569c67b6eb412c0d", "is_reserved": 0, "rental_uris": {"android": "https://dc.lft.to/lastmile_qr_scan", "ios": "https://dc.lft.to/lastmile_qr_scan"}, "lat": 38.900898}, {"type": "electric_scooter", "name": "7156b8a50b96b69b74cf7aaa42f6d470", "fusion_lat": 0.0, "fusion_lon": 0.0, "lon": -77.03256466666667, "is_disabled": 0, "bike_id": "7156b8a50b96b69b74cf7aaa42f6d470", "is_reserved": 0, "rental_uris": {"android": "https://dc.lft.to/lastmile_qr_scan", "ios": "https://dc.lft.to/lastmile_qr_scan"}, "lat": 38.914009}, {"type": "electric_scooter", "name": "41c076638eb2deed3e57c169dafca46d", "fusion_lat": 0.0, "fusion_lon": 0.0, "lon": -77.04747116666667, "is_disabled": 0, "bike_id": "41c076638eb2deed3e57c169dafca46d", "is_reserved": 0, "rental_uris": {"android": "https://dc.lft.to/lastmile_qr_scan", "ios": "https://dc.lft.to/lastmile_qr_scan"}, "lat": 38.905210333333336}, {"type": "electric_bike", "name": "02ff986433f847aa66c3afb82a1fe487", "fusion_lat": 0.0, "fusion_lon": 0.0, "lon": -77.03497216666666, "is_disabled": 0, "bike_id": "02ff986433f847aa66c3afb82a1fe487", "is_reserved": 0, "rental_uris": {"android": "https://dc.lft.to/lastmile_qr_scan", "ios": "https://dc.lft.to/lastmile_qr_scan"}, "lat": 38.9315845}, {"type": "electric_scooter", "name": "6e410660bd5a1b337c583c7197e70469", "fusion_lat": 0.0, "fusion_lon": 0.0, "lon": -77.02561616666667, "is_disabled": 0, "bike_id": "6e410660bd5a1b337c583c7197e70469", "is_reserved": 0, "rental_uris": {"android": "https://dc.lft.to/lastmile_qr_scan", "ios": "https://dc.lft.to/lastmile_qr_scan"}, "lat": 38.887509}, {"type": "electric_scooter", "name": "3755df64c5e72e5ad13e1d413f734899", "fusion_lat": 0.0, "fusion_lon": 0.0, "lon": -77.02963283333334, "is_disabled": 0, "bike_id": "3755df64c5e72e5ad13e1d413f734899", "is_reserved": 0, "rental_uris": {"android": "https://dc.lft.to/lastmile_qr_scan", "ios": "https://dc.lft.to/lastmile_qr_scan"}, "lat": 38.9055625}, {"type": "electric_scooter", "name": "2ab4e690a9c1e7a71e47e7fce4861d3b", "fusion_lat": 0.0, "fusion_lon": 0.0, "lon": -77.04233116666667, "is_disabled": 0, "bike_id": "2ab4e690a9c1e7a71e47e7fce4861d3b", "is_reserved": 0, "rental_uris": {"android": "https://dc.lft.to/lastmile_qr_scan", "ios": "https://dc.lft.to/lastmile_qr_scan"}, "lat": 38.921700666666666}, {"type": "electric_scooter", "name": "95f212948a104ba6c29c12cd1d93aeb4", "fusion_lat": 0.0, "fusion_lon": 0.0, "lon": -77.01872733333333, "is_disabled": 0, "bike_id": "95f212948a104ba6c29c12cd1d93aeb4", "is_reserved": 0, "rental_uris": {"android": "https://dc.lft.to/lastmile_qr_scan", "ios": "https://dc.lft.to/lastmile_qr_scan"}, "lat": 38.9142065}, {"type": "electric_scooter", "name": "a76add627a6e1519ae8c7374b1f89370", "fusion_lat": 0.0, "fusion_lon": 0.0, "lon": -77.04236233333333, "is_disabled": 0, "bike_id": "a76add627a6e1519ae8c7374b1f89370", "is_reserved": 0, "rental_uris": {"android": "https://dc.lft.to/lastmile_qr_scan", "ios": "https://dc.lft.to/lastmile_qr_scan"}, "lat": 38.9111685}, {"type": "electric_scooter", "name": "ef2662499c252417ad3f8d9fcdd1053a", "fusion_lat": 0.0, "fusion_lon": 0.0, "lon": -77.02696516666667, "is_disabled": 0, "bike_id": "ef2662499c252417ad3f8d9fcdd1053a", "is_reserved": 0, "rental_uris": {"android": "https://dc.lft.to/lastmile_qr_scan", "ios": "https://dc.lft.to/lastmile_qr_scan"}, "lat": 38.923229166666665}, {"type": "electric_bike", "name": "8f8afa76123d465962111f130d9495b8", "fusion_lat": 0.0, "fusion_lon": 0.0, "lon": -77.02807566666667, "is_disabled": 0, "bike_id": "8f8afa76123d465962111f130d9495b8", "is_reserved": 0, "rental_uris": {"android": "https://dc.lft.to/lastmile_qr_scan", "ios": "https://dc.lft.to/lastmile_qr_scan"}, "lat": 38.96603233333333}, {"type": "electric_scooter", "name": "5cc1943d895e21d656ef1eaeef1a8e25", "fusion_lat": 0.0, "fusion_lon": 0.0, "lon": -77.01996733333333, "is_disabled": 0, "bike_id": "5cc1943d895e21d656ef1eaeef1a8e25", "is_reserved": 0, "rental_uris": {"android": "https://dc.lft.to/lastmile_qr_scan", "ios": "https://dc.lft.to/lastmile_qr_scan"}, "lat": 38.911651166666665}, {"type": "electric_scooter", "name": "1af720276029e7b3b257f561aa8223a8", "fusion_lat": 0.0, "fusion_lon": 0.0, "lon": -77.0318775, "is_disabled": 0, "bike_id": "1af720276029e7b3b257f561aa8223a8", "is_reserved": 0, "rental_uris": {"android": "https://dc.lft.to/lastmile_qr_scan", "ios": "https://dc.lft.to/lastmile_qr_scan"}, "lat": 38.91350716666667}, {"type": "electric_scooter", "name": "6b6c8c0f9035bade97fd193c48e30d6f", "fusion_lat": 0.0, "fusion_lon": 0.0, "lon": -76.948892, "is_disabled": 0, "bike_id": "6b6c8c0f9035bade97fd193c48e30d6f", "is_reserved": 0, "rental_uris": {"android": "https://dc.lft.to/lastmile_qr_scan", "ios": "https://dc.lft.to/lastmile_qr_scan"}, "lat": 38.89539166666667}, {"type": "electric_scooter", "name": "a25ed91429d3ccdabfaeef15a9cc2da1", "fusion_lat": 0.0, "fusion_lon": 0.0, "lon": -76.98569333333333, "is_disabled": 0, "bike_id": "a25ed91429d3ccdabfaeef15a9cc2da1", "is_reserved": 0, "rental_uris": {"android": "https://dc.lft.to/lastmile_qr_scan", "ios": "https://dc.lft.to/lastmile_qr_scan"}, "lat": 38.89621666666667}, {"type": "electric_scooter", "name": "1ef131715e7c8978edfab578510de376", "fusion_lat": 0.0, "fusion_lon": 0.0, "lon": -77.02908216666667, "is_disabled": 0, "bike_id": "1ef131715e7c8978edfab578510de376", "is_reserved": 0, "rental_uris": {"android": "https://dc.lft.to/lastmile_qr_scan", "ios": "https://dc.lft.to/lastmile_qr_scan"}, "lat": 38.952972833333334}, {"type": "electric_scooter", "name": "d6d01518e1faa51bfb5aa31e2b5871fd", "fusion_lat": 0.0, "fusion_lon": 0.0, "lon": -77.02511733333333, "is_disabled": 0, "bike_id": "d6d01518e1faa51bfb5aa31e2b5871fd", "is_reserved": 0, "rental_uris": {"android": "https://dc.lft.to/lastmile_qr_scan", "ios": "https://dc.lft.to/lastmile_qr_scan"}, "lat": 38.92072266666667}, {"type": "electric_scooter", "name": "e5fd07e5fddda7f2a56a34b4afb17c72", "fusion_lat": 0.0, "fusion_lon": 0.0, "lon": -77.0737455, "is_disabled": 0, "bike_id": "e5fd07e5fddda7f2a56a34b4afb17c72", "is_reserved": 0, "rental_uris": {"android": "https://dc.lft.to/lastmile_qr_scan", "ios": "https://dc.lft.to/lastmile_qr_scan"}, "lat": 38.895911166666664}, {"type": "electric_scooter", "name": "deb68e80dec8257f26b405b23c1a41bb", "fusion_lat": 0.0, "fusion_lon": 0.0, "lon": -76.98374833333334, "is_disabled": 0, "bike_id": "deb68e80dec8257f26b405b23c1a41bb", "is_reserved": 0, "rental_uris": {"android": "https://dc.lft.to/lastmile_qr_scan", "ios": "https://dc.lft.to/lastmile_qr_scan"}, "lat": 38.89267183333333}, {"type": "electric_scooter", "name": "3f088bb3da28cfa2a2ab6e5029ad1e33", "fusion_lat": 0.0, "fusion_lon": 0.0, "lon": -77.03622966666667, "is_disabled": 0, "bike_id": "3f088bb3da28cfa2a2ab6e5029ad1e33", "is_reserved": 0, "rental_uris": {"android": "https://dc.lft.to/lastmile_qr_scan", "ios": "https://dc.lft.to/lastmile_qr_scan"}, "lat": 38.903766833333336}, {"type": "electric_scooter", "name": "6b2ca34f7bd346c46aece8034b07073e", "fusion_lat": 0.0, "fusion_lon": 0.0, "lon": -77.05510166666667, "is_disabled": 0, "bike_id": "6b2ca34f7bd346c46aece8034b07073e", "is_reserved": 0, "rental_uris": {"android": "https://dc.lft.to/lastmile_qr_scan", "ios": "https://dc.lft.to/lastmile_qr_scan"}, "lat": 38.928386}, {"type": "electric_scooter", "name": "95b9b762cb8c393e719a37e4e34a6a85", "fusion_lat": 0.0, "fusion_lon": 0.0, "lon": -77.03450533333333, "is_disabled": 0, "bike_id": "95b9b762cb8c393e719a37e4e34a6a85", "is_reserved": 0, "rental_uris": {"android": "https://dc.lft.to/lastmile_qr_scan", "ios": "https://dc.lft.to/lastmile_qr_scan"}, "lat": 38.91605366666667}, {"type": "electric_scooter", "name": "d0cde1a6591d9a2851c6e10b261baf27", "fusion_lat": 0.0, "fusion_lon": 0.0, "lon": -77.039416, "is_disabled": 0, "bike_id": "d0cde1a6591d9a2851c6e10b261baf27", "is_reserved": 0, "rental_uris": {"android": "https://dc.lft.to/lastmile_qr_scan", "ios": "https://dc.lft.to/lastmile_qr_scan"}, "lat": 38.90282916666666}, {"type": "electric_scooter", "name": "2963125919bd9b8e3e10529a9c843f4a", "fusion_lat": 0.0, "fusion_lon": 0.0, "lon": -77.0005285, "is_disabled": 0, "bike_id": "2963125919bd9b8e3e10529a9c843f4a", "is_reserved": 0, "rental_uris": {"android": "https://dc.lft.to/lastmile_qr_scan", "ios": "https://dc.lft.to/lastmile_qr_scan"}, "lat": 38.8788135}, {"type": "electric_scooter", "name": "d4c40464fef6e1edf49d35167b7ebc9d", "fusion_lat": 0.0, "fusion_lon": 0.0, "lon": -76.94468183333333, "is_disabled": 0, "bike_id": "d4c40464fef6e1edf49d35167b7ebc9d", "is_reserved": 0, "rental_uris": {"android": "https://dc.lft.to/lastmile_qr_scan", "ios": "https://dc.lft.to/lastmile_qr_scan"}, "lat": 38.89028}, {"type": "electric_bike", "name": "3256ddd8f3f2ee064a8a761e69ae0867", "fusion_lat": 0.0, "fusion_lon": 0.0, "lon": -77.06056816666667, "is_disabled": 0, "bike_id": "3256ddd8f3f2ee064a8a761e69ae0867", "is_reserved": 0, "rental_uris": {"android": "https://dc.lft.to/lastmile_qr_scan", "ios": "https://dc.lft.to/lastmile_qr_scan"}, "lat": 38.94340916666667}, {"type": "electric_scooter", "name": "01271b62b9f88ff9730852b7d037a465", "fusion_lat": 0.0, "fusion_lon": 0.0, "lon": -77.04608516666667, "is_disabled": 0, "bike_id": "01271b62b9f88ff9730852b7d037a465", "is_reserved": 0, "rental_uris": {"android": "https://dc.lft.to/lastmile_qr_scan", "ios": "https://dc.lft.to/lastmile_qr_scan"}, "lat": 38.9329005}, {"type": "electric_scooter", "name": "c366c7b3d4442720c0678bfc2e2026c0", "fusion_lat": 0.0, "fusion_lon": 0.0, "lon": -77.03670266666667, "is_disabled": 0, "bike_id": "c366c7b3d4442720c0678bfc2e2026c0", "is_reserved": 0, "rental_uris": {"android": "https://dc.lft.to/lastmile_qr_scan", "ios": "https://dc.lft.to/lastmile_qr_scan"}, "lat": 38.91819}, {"type": "electric_scooter", "name": "5a28886b3c7480da21b96982a72335da", "fusion_lat": 0.0, "fusion_lon": 0.0, "lon": -77.07257733333333, "is_disabled": 0, "bike_id": "5a28886b3c7480da21b96982a72335da", "is_reserved": 0, "rental_uris": {"android": "https://dc.lft.to/lastmile_qr_scan", "ios": "https://dc.lft.to/lastmile_qr_scan"}, "lat": 38.9347195}, {"type": "electric_scooter", "name": "b94227d4dccbb939ee44f5793bb2464c", "fusion_lat": 0.0, "fusion_lon": 0.0, "lon": -77.0340475, "is_disabled": 0, "bike_id": "b94227d4dccbb939ee44f5793bb2464c", "is_reserved": 0, "rental_uris": {"android": "https://dc.lft.to/lastmile_qr_scan", "ios": "https://dc.lft.to/lastmile_qr_scan"}, "lat": 38.92439783333333}, {"type": "electric_scooter", "name": "9ff93952d15668de80aef122c1190833", "fusion_lat": 0.0, "fusion_lon": 0.0, "lon": -77.0219195, "is_disabled": 0, "bike_id": "9ff93952d15668de80aef122c1190833", "is_reserved": 0, "rental_uris": {"android": "https://dc.lft.to/lastmile_qr_scan", "ios": "https://dc.lft.to/lastmile_qr_scan"}, "lat": 38.907813833333336}, {"type": "electric_scooter", "name": "90d1b9e360937412bfffb2b7d94d156c", "fusion_lat": 0.0, "fusion_lon": 0.0, "lon": -77.0347915, "is_disabled": 0, "bike_id": "90d1b9e360937412bfffb2b7d94d156c", "is_reserved": 0, "rental_uris": {"android": "https://dc.lft.to/lastmile_qr_scan", "ios": "https://dc.lft.to/lastmile_qr_scan"}, "lat": 38.935331166666664}, {"type": "electric_scooter", "name": "a362b2030d017173192f18db56a8c028", "fusion_lat": 0.0, "fusion_lon": 0.0, "lon": -77.0367865, "is_disabled": 0, "bike_id": "a362b2030d017173192f18db56a8c028", "is_reserved": 0, "rental_uris": {"android": "https://dc.lft.to/lastmile_qr_scan", "ios": "https://dc.lft.to/lastmile_qr_scan"}, "lat": 38.93927583333333}, {"type": "electric_scooter", "name": "de3935aa69649d15a0c6150ee243ba10", "fusion_lat": 0.0, "fusion_lon": 0.0, "lon": -77.00483933333334, "is_disabled": 0, "bike_id": "de3935aa69649d15a0c6150ee243ba10", "is_reserved": 0, "rental_uris": {"android": "https://dc.lft.to/lastmile_qr_scan", "ios": "https://dc.lft.to/lastmile_qr_scan"}, "lat": 38.87460166666666}, {"type": "electric_scooter", "name": "0c960f9050b6698b1860f337ed5ce195", "fusion_lat": 0.0, "fusion_lon": 0.0, "lon": -77.02404083333333, "is_disabled": 0, "bike_id": "0c960f9050b6698b1860f337ed5ce195", "is_reserved": 0, "rental_uris": {"android": "https://dc.lft.to/lastmile_qr_scan", "ios": "https://dc.lft.to/lastmile_qr_scan"}, "lat": 38.92085183333333}, {"type": "electric_scooter", "name": "34a39c8d10edff0285c216f7b36e839d", "fusion_lat": 0.0, "fusion_lon": 0.0, "lon": -77.03995466666667, "is_disabled": 0, "bike_id": "34a39c8d10edff0285c216f7b36e839d", "is_reserved": 0, "rental_uris": {"android": "https://dc.lft.to/lastmile_qr_scan", "ios": "https://dc.lft.to/lastmile_qr_scan"}, "lat": 38.934029}, {"type": "electric_scooter", "name": "a17832d3ad750972304a7fb09ec9cd36", "fusion_lat": 0.0, "fusion_lon": 0.0, "lon": -77.03958266666666, "is_disabled": 0, "bike_id": "a17832d3ad750972304a7fb09ec9cd36", "is_reserved": 0, "rental_uris": {"android": "https://dc.lft.to/lastmile_qr_scan", "ios": "https://dc.lft.to/lastmile_qr_scan"}, "lat": 38.8924695}, {"type": "electric_bike", "name": "e0ac5f2b39b43c5d59bbc7312a7becf8", "fusion_lat": 0.0, "fusion_lon": 0.0, "lon": -76.98059916666666, "is_disabled": 0, "bike_id": "e0ac5f2b39b43c5d59bbc7312a7becf8", "is_reserved": 0, "rental_uris": {"android": "https://dc.lft.to/lastmile_qr_scan", "ios": "https://dc.lft.to/lastmile_qr_scan"}, "lat": 38.97253533333333}, {"type": "electric_scooter", "name": "bb3dfbcc46b0bfea893824d41ae2247d", "fusion_lat": 0.0, "fusion_lon": 0.0, "lon": -77.00733066666666, "is_disabled": 0, "bike_id": "bb3dfbcc46b0bfea893824d41ae2247d", "is_reserved": 0, "rental_uris": {"android": "https://dc.lft.to/lastmile_qr_scan", "ios": "https://dc.lft.to/lastmile_qr_scan"}, "lat": 38.90568416666667}, {"type": "electric_scooter", "name": "df07c1fb3d6856614bdf3056bfd9bbb3", "fusion_lat": 0.0, "fusion_lon": 0.0, "lon": -76.99036616666666, "is_disabled": 0, "bike_id": "df07c1fb3d6856614bdf3056bfd9bbb3", "is_reserved": 0, "rental_uris": {"android": "https://dc.lft.to/lastmile_qr_scan", "ios": "https://dc.lft.to/lastmile_qr_scan"}, "lat": 38.8913955}, {"type": "electric_scooter", "name": "47b5e4f5b5202eff634c2120b6d66b68", "fusion_lat": 0.0, "fusion_lon": 0.0, "lon": -77.04160216666666, "is_disabled": 0, "bike_id": "47b5e4f5b5202eff634c2120b6d66b68", "is_reserved": 0, "rental_uris": {"android": "https://dc.lft.to/lastmile_qr_scan", "ios": "https://dc.lft.to/lastmile_qr_scan"}, "lat": 38.915496166666664}, {"type": "electric_scooter", "name": "9a0fb7b1021b3666984e0b6418fb210f", "fusion_lat": 0.0, "fusion_lon": 0.0, "lon": -77.053042, "is_disabled": 0, "bike_id": "9a0fb7b1021b3666984e0b6418fb210f", "is_reserved": 0, "rental_uris": {"android": "https://dc.lft.to/lastmile_qr_scan", "ios": "https://dc.lft.to/lastmile_qr_scan"}, "lat": 38.90269466666667}, {"type": "electric_scooter", "name": "a316495f8da0449a0f7c9fb1ee35a352", "fusion_lat": 0.0, "fusion_lon": 0.0, "lon": -77.04505583333334, "is_disabled": 0, "bike_id": "a316495f8da0449a0f7c9fb1ee35a352", "is_reserved": 0, "rental_uris": {"android": "https://dc.lft.to/lastmile_qr_scan", "ios": "https://dc.lft.to/lastmile_qr_scan"}, "lat": 38.91274716666667}, {"type": "electric_scooter", "name": "eb0f2c303190bbee8f1e2697e5a2b807", "fusion_lat": 0.0, "fusion_lon": 0.0, "lon": -77.02230066666667, "is_disabled": 0, "bike_id": "eb0f2c303190bbee8f1e2697e5a2b807", "is_reserved": 0, "rental_uris": {"android": "https://dc.lft.to/lastmile_qr_scan", "ios": "https://dc.lft.to/lastmile_qr_scan"}, "lat": 38.912742}, {"type": "electric_scooter", "name": "75a3bb1e583f745e807115f22e7b4f3b", "fusion_lat": 0.0, "fusion_lon": 0.0, "lon": -77.0260495, "is_disabled": 0, "bike_id": "75a3bb1e583f745e807115f22e7b4f3b", "is_reserved": 0, "rental_uris": {"android": "https://dc.lft.to/lastmile_qr_scan", "ios": "https://dc.lft.to/lastmile_qr_scan"}, "lat": 38.91839233333334}, {"type": "electric_scooter", "name": "3067982712e6b11886a6dc39a1154749", "fusion_lat": 0.0, "fusion_lon": 0.0, "lon": -77.0318345, "is_disabled": 0, "bike_id": "3067982712e6b11886a6dc39a1154749", "is_reserved": 0, "rental_uris": {"android": "https://dc.lft.to/lastmile_qr_scan", "ios": "https://dc.lft.to/lastmile_qr_scan"}, "lat": 38.913584666666665}, {"type": "electric_scooter", "name": "3744a396db459dce0de62054874fd009", "fusion_lat": 0.0, "fusion_lon": 0.0, "lon": -77.0682625, "is_disabled": 0, "bike_id": "3744a396db459dce0de62054874fd009", "is_reserved": 0, "rental_uris": {"android": "https://dc.lft.to/lastmile_qr_scan", "ios": "https://dc.lft.to/lastmile_qr_scan"}, "lat": 38.91657633333333}, {"type": "electric_scooter", "name": "bd773f46d3bc87d28ceff4c51454a78c", "fusion_lat": 0.0, "fusion_lon": 0.0, "lon": -77.04872616666667, "is_disabled": 0, "bike_id": "bd773f46d3bc87d28ceff4c51454a78c", "is_reserved": 0, "rental_uris": {"android": "https://dc.lft.to/lastmile_qr_scan", "ios": "https://dc.lft.to/lastmile_qr_scan"}, "lat": 38.89239333333333}, {"type": "electric_scooter", "name": "acab3ab82929dec68ebfc2953e3b6ec9", "fusion_lat": 0.0, "fusion_lon": 0.0, "lon": -76.97133116666667, "is_disabled": 0, "bike_id": "acab3ab82929dec68ebfc2953e3b6ec9", "is_reserved": 0, "rental_uris": {"android": "https://dc.lft.to/lastmile_qr_scan", "ios": "https://dc.lft.to/lastmile_qr_scan"}, "lat": 38.878657}, {"type": "electric_scooter", "name": "f1f780589d3e5f02cd01d74829d4a2c8", "fusion_lat": 0.0, "fusion_lon": 0.0, "lon": -77.0198525, "is_disabled": 0, "bike_id": "f1f780589d3e5f02cd01d74829d4a2c8", "is_reserved": 0, "rental_uris": {"android": "https://dc.lft.to/lastmile_qr_scan", "ios": "https://dc.lft.to/lastmile_qr_scan"}, "lat": 38.87612466666667}, {"type": "electric_scooter", "name": "2c67934e15e68edea9d5aa1659454217", "fusion_lat": 0.0, "fusion_lon": 0.0, "lon": -77.02440266666666, "is_disabled": 0, "bike_id": "2c67934e15e68edea9d5aa1659454217", "is_reserved": 0, "rental_uris": {"android": "https://dc.lft.to/lastmile_qr_scan", "ios": "https://dc.lft.to/lastmile_qr_scan"}, "lat": 38.956352}, {"type": "electric_bike", "name": "c926e06c13ad2bca7afc00053fb370eb", "fusion_lat": 0.0, "fusion_lon": 0.0, "lon": -77.06568333333334, "is_disabled": 0, "bike_id": "c926e06c13ad2bca7afc00053fb370eb", "is_reserved": 0, "rental_uris": {"android": "https://dc.lft.to/lastmile_qr_scan", "ios": "https://dc.lft.to/lastmile_qr_scan"}, "lat": 38.9326485}, {"type": "electric_scooter", "name": "57f8d86747c9f768051321e374be863d", "fusion_lat": 0.0, "fusion_lon": 0.0, "lon": -77.0552245, "is_disabled": 0, "bike_id": "57f8d86747c9f768051321e374be863d", "is_reserved": 0, "rental_uris": {"android": "https://dc.lft.to/lastmile_qr_scan", "ios": "https://dc.lft.to/lastmile_qr_scan"}, "lat": 38.9077705}, {"type": "electric_scooter", "name": "9fb9d58f33793614bb92bf870bd87c18", "fusion_lat": 0.0, "fusion_lon": 0.0, "lon": -76.984008, "is_disabled": 0, "bike_id": "9fb9d58f33793614bb92bf870bd87c18", "is_reserved": 0, "rental_uris": {"android": "https://dc.lft.to/lastmile_qr_scan", "ios": "https://dc.lft.to/lastmile_qr_scan"}, "lat": 38.905089333333336}, {"type": "electric_scooter", "name": "fa937693ba54bcf6521842ddc673622e", "fusion_lat": 0.0, "fusion_lon": 0.0, "lon": -77.0345035, "is_disabled": 0, "bike_id": "fa937693ba54bcf6521842ddc673622e", "is_reserved": 0, "rental_uris": {"android": "https://dc.lft.to/lastmile_qr_scan", "ios": "https://dc.lft.to/lastmile_qr_scan"}, "lat": 38.9071415}, {"type": "electric_bike", "name": "703d5fc4c9d62a1046febe65595286b6", "fusion_lat": 0.0, "fusion_lon": 0.0, "lon": -77.00413616666667, "is_disabled": 0, "bike_id": "703d5fc4c9d62a1046febe65595286b6", "is_reserved": 0, "rental_uris": {"android": "https://dc.lft.to/lastmile_qr_scan", "ios": "https://dc.lft.to/lastmile_qr_scan"}, "lat": 38.98523566666667}, {"type": "electric_scooter", "name": "716c0362e8595e8a57d6a688aac695cf", "fusion_lat": 0.0, "fusion_lon": 0.0, "lon": -77.03263533333333, "is_disabled": 0, "bike_id": "716c0362e8595e8a57d6a688aac695cf", "is_reserved": 0, "rental_uris": {"android": "https://dc.lft.to/lastmile_qr_scan", "ios": "https://dc.lft.to/lastmile_qr_scan"}, "lat": 38.937447666666664}, {"type": "electric_scooter", "name": "8cfd55653e71cda7b4db2831bb1d7da7", "fusion_lat": 0.0, "fusion_lon": 0.0, "lon": -77.00384866666667, "is_disabled": 0, "bike_id": "8cfd55653e71cda7b4db2831bb1d7da7", "is_reserved": 0, "rental_uris": {"android": "https://dc.lft.to/lastmile_qr_scan", "ios": "https://dc.lft.to/lastmile_qr_scan"}, "lat": 38.879410666666665}, {"type": "electric_scooter", "name": "53550e892d2ea5d24d6cab2bc983476c", "fusion_lat": 0.0, "fusion_lon": 0.0, "lon": -77.03265216666667, "is_disabled": 0, "bike_id": "53550e892d2ea5d24d6cab2bc983476c", "is_reserved": 0, "rental_uris": {"android": "https://dc.lft.to/lastmile_qr_scan", "ios": "https://dc.lft.to/lastmile_qr_scan"}, "lat": 38.933086333333335}, {"type": "electric_scooter", "name": "331afef328fc1fe48f4f5f87c39a04be", "fusion_lat": 0.0, "fusion_lon": 0.0, "lon": -77.01461216666667, "is_disabled": 0, "bike_id": "331afef328fc1fe48f4f5f87c39a04be", "is_reserved": 0, "rental_uris": {"android": "https://dc.lft.to/lastmile_qr_scan", "ios": "https://dc.lft.to/lastmile_qr_scan"}, "lat": 38.9177525}, {"type": "electric_scooter", "name": "344f5126fa65b8fa2d6878077cb0acaa", "fusion_lat": 0.0, "fusion_lon": 0.0, "lon": -77.04516883333334, "is_disabled": 0, "bike_id": "344f5126fa65b8fa2d6878077cb0acaa", "is_reserved": 0, "rental_uris": {"android": "https://dc.lft.to/lastmile_qr_scan", "ios": "https://dc.lft.to/lastmile_qr_scan"}, "lat": 38.918168333333334}, {"type": "electric_scooter", "name": "5c073eb0902bbc09ece24e515ae05537", "fusion_lat": 0.0, "fusion_lon": 0.0, "lon": -77.05300333333334, "is_disabled": 0, "bike_id": "5c073eb0902bbc09ece24e515ae05537", "is_reserved": 0, "rental_uris": {"android": "https://dc.lft.to/lastmile_qr_scan", "ios": "https://dc.lft.to/lastmile_qr_scan"}, "lat": 38.902688833333336}, {"type": "electric_scooter", "name": "b015d9d4b8dd1bd844cce83eed501221", "fusion_lat": 0.0, "fusion_lon": 0.0, "lon": -77.02949033333333, "is_disabled": 0, "bike_id": "b015d9d4b8dd1bd844cce83eed501221", "is_reserved": 0, "rental_uris": {"android": "https://dc.lft.to/lastmile_qr_scan", "ios": "https://dc.lft.to/lastmile_qr_scan"}, "lat": 38.9168745}, {"type": "electric_scooter", "name": "39f2c1208d0fab7785c6e168cd210190", "fusion_lat": 0.0, "fusion_lon": 0.0, "lon": -77.0596745, "is_disabled": 0, "bike_id": "39f2c1208d0fab7785c6e168cd210190", "is_reserved": 0, "rental_uris": {"android": "https://dc.lft.to/lastmile_qr_scan", "ios": "https://dc.lft.to/lastmile_qr_scan"}, "lat": 38.92831266666666}, {"type": "electric_scooter", "name": "9c8c3afa68020c5f24dd777132ebf4d7", "fusion_lat": 0.0, "fusion_lon": 0.0, "lon": -76.93394716666667, "is_disabled": 0, "bike_id": "9c8c3afa68020c5f24dd777132ebf4d7", "is_reserved": 0, "rental_uris": {"android": "https://dc.lft.to/lastmile_qr_scan", "ios": "https://dc.lft.to/lastmile_qr_scan"}, "lat": 38.89909816666667}, {"type": "electric_scooter", "name": "e653c360cd22a24baab0b4123891cbc4", "fusion_lat": 0.0, "fusion_lon": 0.0, "lon": -77.031719, "is_disabled": 0, "bike_id": "e653c360cd22a24baab0b4123891cbc4", "is_reserved": 0, "rental_uris": {"android": "https://dc.lft.to/lastmile_qr_scan", "ios": "https://dc.lft.to/lastmile_qr_scan"}, "lat": 38.9287615}, {"type": "electric_bike", "name": "d8912cca69dcbff2ee47879fda80ef66", "fusion_lat": 0.0, "fusion_lon": 0.0, "lon": -76.99913516666666, "is_disabled": 0, "bike_id": "d8912cca69dcbff2ee47879fda80ef66", "is_reserved": 0, "rental_uris": {"android": "https://dc.lft.to/lastmile_qr_scan", "ios": "https://dc.lft.to/lastmile_qr_scan"}, "lat": 38.86450966666666}, {"type": "electric_scooter", "name": "f9180abb2aecf14f2a486ff858e53482", "fusion_lat": 0.0, "fusion_lon": 0.0, "lon": -77.0202795, "is_disabled": 0, "bike_id": "f9180abb2aecf14f2a486ff858e53482", "is_reserved": 0, "rental_uris": {"android": "https://dc.lft.to/lastmile_qr_scan", "ios": "https://dc.lft.to/lastmile_qr_scan"}, "lat": 38.934110833333335}, {"type": "electric_scooter", "name": "fc06e240f4b95bf495f0a5cae5b2d9f7", "fusion_lat": 0.0, "fusion_lon": 0.0, "lon": -77.03488283333333, "is_disabled": 0, "bike_id": "fc06e240f4b95bf495f0a5cae5b2d9f7", "is_reserved": 0, "rental_uris": {"android": "https://dc.lft.to/lastmile_qr_scan", "ios": "https://dc.lft.to/lastmile_qr_scan"}, "lat": 38.923564}, {"type": "electric_bike", "name": "4d7c4632b9c39f4204b6e388d77a2bb4", "fusion_lat": 0.0, "fusion_lon": 0.0, "lon": -76.9524595, "is_disabled": 0, "bike_id": "4d7c4632b9c39f4204b6e388d77a2bb4", "is_reserved": 0, "rental_uris": {"android": "https://dc.lft.to/lastmile_qr_scan", "ios": "https://dc.lft.to/lastmile_qr_scan"}, "lat": 38.88464483333333}, {"type": "electric_scooter", "name": "a473104cfdb92d21f226d456b6523a4a", "fusion_lat": 0.0, "fusion_lon": 0.0, "lon": -77.013482, "is_disabled": 0, "bike_id": "a473104cfdb92d21f226d456b6523a4a", "is_reserved": 0, "rental_uris": {"android": "https://dc.lft.to/lastmile_qr_scan", "ios": "https://dc.lft.to/lastmile_qr_scan"}, "lat": 38.92840016666667}, {"type": "electric_scooter", "name": "a0be487e85cc28150b50a06211bb561c", "fusion_lat": 0.0, "fusion_lon": 0.0, "lon": -77.0966515, "is_disabled": 0, "bike_id": "a0be487e85cc28150b50a06211bb561c", "is_reserved": 0, "rental_uris": {"android": "https://dc.lft.to/lastmile_qr_scan", "ios": "https://dc.lft.to/lastmile_qr_scan"}, "lat": 38.9176185}, {"type": "electric_scooter", "name": "52787a1792250c2398e8a5665fa997a0", "fusion_lat": 0.0, "fusion_lon": 0.0, "lon": -77.00075283333334, "is_disabled": 0, "bike_id": "52787a1792250c2398e8a5665fa997a0", "is_reserved": 0, "rental_uris": {"android": "https://dc.lft.to/lastmile_qr_scan", "ios": "https://dc.lft.to/lastmile_qr_scan"}, "lat": 38.8767745}, {"type": "electric_scooter", "name": "84d34d66c26b68ca690f8f55c368a805", "fusion_lat": 0.0, "fusion_lon": 0.0, "lon": -77.02169116666667, "is_disabled": 0, "bike_id": "84d34d66c26b68ca690f8f55c368a805", "is_reserved": 0, "rental_uris": {"android": "https://dc.lft.to/lastmile_qr_scan", "ios": "https://dc.lft.to/lastmile_qr_scan"}, "lat": 38.89483166666667}, {"type": "electric_scooter", "name": "a0aaf83f618f7c17e7be91ad464dbba8", "fusion_lat": 0.0, "fusion_lon": 0.0, "lon": -76.93755466666667, "is_disabled": 0, "bike_id": "a0aaf83f618f7c17e7be91ad464dbba8", "is_reserved": 0, "rental_uris": {"android": "https://dc.lft.to/lastmile_qr_scan", "ios": "https://dc.lft.to/lastmile_qr_scan"}, "lat": 38.8786225}, {"type": "electric_bike", "name": "4c290453d47487628195fbfd16ac50ad", "fusion_lat": 0.0, "fusion_lon": 0.0, "lon": -76.99623516666666, "is_disabled": 0, "bike_id": "4c290453d47487628195fbfd16ac50ad", "is_reserved": 0, "rental_uris": {"android": "https://dc.lft.to/lastmile_qr_scan", "ios": "https://dc.lft.to/lastmile_qr_scan"}, "lat": 38.88307566666667}, {"type": "electric_bike", "name": "482d1cf3f239318000f417167a25d10a", "fusion_lat": 0.0, "fusion_lon": 0.0, "lon": -77.0075515, "is_disabled": 0, "bike_id": "482d1cf3f239318000f417167a25d10a", "is_reserved": 0, "rental_uris": {"android": "https://dc.lft.to/lastmile_qr_scan", "ios": "https://dc.lft.to/lastmile_qr_scan"}, "lat": 38.997897}, {"type": "electric_scooter", "name": "65f56438a9315dc848c3eb2807712e08", "fusion_lat": 0.0, "fusion_lon": 0.0, "lon": -77.04991816666667, "is_disabled": 0, "bike_id": "65f56438a9315dc848c3eb2807712e08", "is_reserved": 0, "rental_uris": {"android": "https://dc.lft.to/lastmile_qr_scan", "ios": "https://dc.lft.to/lastmile_qr_scan"}, "lat": 38.90081816666667}, {"type": "electric_scooter", "name": "d06c504153df57973632c7fceb2e8da7", "fusion_lat": 0.0, "fusion_lon": 0.0, "lon": -77.003538, "is_disabled": 0, "bike_id": "d06c504153df57973632c7fceb2e8da7", "is_reserved": 0, "rental_uris": {"android": "https://dc.lft.to/lastmile_qr_scan", "ios": "https://dc.lft.to/lastmile_qr_scan"}, "lat": 38.877190166666665}, {"type": "electric_bike", "name": "94dd4342e217b28ee5600f9e45fb5e0d", "fusion_lat": 0.0, "fusion_lon": 0.0, "lon": -76.94552483333334, "is_disabled": 0, "bike_id": "94dd4342e217b28ee5600f9e45fb5e0d", "is_reserved": 0, "rental_uris": {"android": "https://dc.lft.to/lastmile_qr_scan", "ios": "https://dc.lft.to/lastmile_qr_scan"}, "lat": 38.98312166666667}, {"type": "electric_scooter", "name": "5f29d8c7a09e47cd8da11d132b40a17e", "fusion_lat": 0.0, "fusion_lon": 0.0, "lon": -77.0346085, "is_disabled": 0, "bike_id": "5f29d8c7a09e47cd8da11d132b40a17e", "is_reserved": 0, "rental_uris": {"android": "https://dc.lft.to/lastmile_qr_scan", "ios": "https://dc.lft.to/lastmile_qr_scan"}, "lat": 38.908384166666664}, {"type": "electric_scooter", "name": "7580585ff6ccecbd0cd67275cf0e2688", "fusion_lat": 0.0, "fusion_lon": 0.0, "lon": -77.00198683333333, "is_disabled": 0, "bike_id": "7580585ff6ccecbd0cd67275cf0e2688", "is_reserved": 0, "rental_uris": {"android": "https://dc.lft.to/lastmile_qr_scan", "ios": "https://dc.lft.to/lastmile_qr_scan"}, "lat": 38.9023785}, {"type": "electric_scooter", "name": "b65f552d03b62835b108bd1cb2a0b57b", "fusion_lat": 0.0, "fusion_lon": 0.0, "lon": -77.027346, "is_disabled": 0, "bike_id": "b65f552d03b62835b108bd1cb2a0b57b", "is_reserved": 0, "rental_uris": {"android": "https://dc.lft.to/lastmile_qr_scan", "ios": "https://dc.lft.to/lastmile_qr_scan"}, "lat": 38.92481216666667}, {"type": "electric_scooter", "name": "d64c0ee0dd7dafc88b686b461c4258b9", "fusion_lat": 0.0, "fusion_lon": 0.0, "lon": -77.00751916666667, "is_disabled": 0, "bike_id": "d64c0ee0dd7dafc88b686b461c4258b9", "is_reserved": 0, "rental_uris": {"android": "https://dc.lft.to/lastmile_qr_scan", "ios": "https://dc.lft.to/lastmile_qr_scan"}, "lat": 38.90469933333333}, {"type": "electric_scooter", "name": "06752bb045af275efdd631f4afdb29c7", "fusion_lat": 0.0, "fusion_lon": 0.0, "lon": -77.0413115, "is_disabled": 0, "bike_id": "06752bb045af275efdd631f4afdb29c7", "is_reserved": 0, "rental_uris": {"android": "https://dc.lft.to/lastmile_qr_scan", "ios": "https://dc.lft.to/lastmile_qr_scan"}, "lat": 38.92111966666667}, {"type": "electric_scooter", "name": "cd24c66f19d5424b32e88baa121405a2", "fusion_lat": 0.0, "fusion_lon": 0.0, "lon": -76.990367, "is_disabled": 0, "bike_id": "cd24c66f19d5424b32e88baa121405a2", "is_reserved": 0, "rental_uris": {"android": "https://dc.lft.to/lastmile_qr_scan", "ios": "https://dc.lft.to/lastmile_qr_scan"}, "lat": 38.888699333333335}, {"type": "electric_scooter", "name": "469e0d58a1bd6cd8ada3ca9b318e7d75", "fusion_lat": 0.0, "fusion_lon": 0.0, "lon": -77.06289233333334, "is_disabled": 0, "bike_id": "469e0d58a1bd6cd8ada3ca9b318e7d75", "is_reserved": 0, "rental_uris": {"android": "https://dc.lft.to/lastmile_qr_scan", "ios": "https://dc.lft.to/lastmile_qr_scan"}, "lat": 38.904585}, {"type": "electric_scooter", "name": "4f783d34ecf61853c22054b1d2857038", "fusion_lat": 0.0, "fusion_lon": 0.0, "lon": -77.00389183333333, "is_disabled": 0, "bike_id": "4f783d34ecf61853c22054b1d2857038", "is_reserved": 0, "rental_uris": {"android": "https://dc.lft.to/lastmile_qr_scan", "ios": "https://dc.lft.to/lastmile_qr_scan"}, "lat": 38.876072666666666}, {"type": "electric_scooter", "name": "7625697457dfd77cafe35b32cc5bd3bd", "fusion_lat": 0.0, "fusion_lon": 0.0, "lon": -77.03665066666667, "is_disabled": 0, "bike_id": "7625697457dfd77cafe35b32cc5bd3bd", "is_reserved": 0, "rental_uris": {"android": "https://dc.lft.to/lastmile_qr_scan", "ios": "https://dc.lft.to/lastmile_qr_scan"}, "lat": 38.92095033333333}, {"type": "electric_scooter", "name": "43d1015c9f387fc0464ba5854909e37c", "fusion_lat": 0.0, "fusion_lon": 0.0, "lon": -77.016396, "is_disabled": 0, "bike_id": "43d1015c9f387fc0464ba5854909e37c", "is_reserved": 0, "rental_uris": {"android": "https://dc.lft.to/lastmile_qr_scan", "ios": "https://dc.lft.to/lastmile_qr_scan"}, "lat": 38.91590466666667}, {"type": "electric_scooter", "name": "cfc957afd229402e23482de1453ca9d4", "fusion_lat": 0.0, "fusion_lon": 0.0, "lon": -77.004815, "is_disabled": 0, "bike_id": "cfc957afd229402e23482de1453ca9d4", "is_reserved": 0, "rental_uris": {"android": "https://dc.lft.to/lastmile_qr_scan", "ios": "https://dc.lft.to/lastmile_qr_scan"}, "lat": 38.87464933333333}, {"type": "electric_bike", "name": "d4dd8f82574b97036b70185983217bf4", "fusion_lat": 0.0, "fusion_lon": 0.0, "lon": -76.981817, "is_disabled": 0, "bike_id": "d4dd8f82574b97036b70185983217bf4", "is_reserved": 0, "rental_uris": {"android": "https://dc.lft.to/lastmile_qr_scan", "ios": "https://dc.lft.to/lastmile_qr_scan"}, "lat": 38.88410366666667}, {"type": "electric_scooter", "name": "4c4c74facda9568430207cee9be97e86", "fusion_lat": 0.0, "fusion_lon": 0.0, "lon": -77.03174883333334, "is_disabled": 0, "bike_id": "4c4c74facda9568430207cee9be97e86", "is_reserved": 0, "rental_uris": {"android": "https://dc.lft.to/lastmile_qr_scan", "ios": "https://dc.lft.to/lastmile_qr_scan"}, "lat": 38.92493533333333}, {"type": "electric_scooter", "name": "8dd9d8e985fb47e07d734d0d192946c1", "fusion_lat": 0.0, "fusion_lon": 0.0, "lon": -77.0216755, "is_disabled": 0, "bike_id": "8dd9d8e985fb47e07d734d0d192946c1", "is_reserved": 0, "rental_uris": {"android": "https://dc.lft.to/lastmile_qr_scan", "ios": "https://dc.lft.to/lastmile_qr_scan"}, "lat": 38.902141}, {"type": "electric_scooter", "name": "cd64fae8251ea46aad2ab75e4258041f", "fusion_lat": 0.0, "fusion_lon": 0.0, "lon": -77.02343466666666, "is_disabled": 0, "bike_id": "cd64fae8251ea46aad2ab75e4258041f", "is_reserved": 0, "rental_uris": {"android": "https://dc.lft.to/lastmile_qr_scan", "ios": "https://dc.lft.to/lastmile_qr_scan"}, "lat": 38.881356833333335}, {"type": "electric_scooter", "name": "93ca11fd91d0cc79bb3c9b78b14665ca", "fusion_lat": 0.0, "fusion_lon": 0.0, "lon": -77.01299483333334, "is_disabled": 0, "bike_id": "93ca11fd91d0cc79bb3c9b78b14665ca", "is_reserved": 0, "rental_uris": {"android": "https://dc.lft.to/lastmile_qr_scan", "ios": "https://dc.lft.to/lastmile_qr_scan"}, "lat": 38.877759833333336}, {"type": "electric_scooter", "name": "07d14627607ad5508d614671d5d33d74", "fusion_lat": 0.0, "fusion_lon": 0.0, "lon": -77.0209595, "is_disabled": 0, "bike_id": "07d14627607ad5508d614671d5d33d74", "is_reserved": 0, "rental_uris": {"android": "https://dc.lft.to/lastmile_qr_scan", "ios": "https://dc.lft.to/lastmile_qr_scan"}, "lat": 38.92709133333334}, {"type": "electric_scooter", "name": "e1f3865290aecab1e10a3590f25098e0", "fusion_lat": 0.0, "fusion_lon": 0.0, "lon": -76.99728233333333, "is_disabled": 0, "bike_id": "e1f3865290aecab1e10a3590f25098e0", "is_reserved": 0, "rental_uris": {"android": "https://dc.lft.to/lastmile_qr_scan", "ios": "https://dc.lft.to/lastmile_qr_scan"}, "lat": 38.84545966666667}, {"type": "electric_scooter", "name": "87521267c890db6cb24654a5b85cbe5c", "fusion_lat": 0.0, "fusion_lon": 0.0, "lon": -77.01789583333333, "is_disabled": 0, "bike_id": "87521267c890db6cb24654a5b85cbe5c", "is_reserved": 0, "rental_uris": {"android": "https://dc.lft.to/lastmile_qr_scan", "ios": "https://dc.lft.to/lastmile_qr_scan"}, "lat": 38.9005505}, {"type": "electric_scooter", "name": "d4777a629c726fdddd840fcbd9b45266", "fusion_lat": 0.0, "fusion_lon": 0.0, "lon": -77.03607033333333, "is_disabled": 0, "bike_id": "d4777a629c726fdddd840fcbd9b45266", "is_reserved": 0, "rental_uris": {"android": "https://dc.lft.to/lastmile_qr_scan", "ios": "https://dc.lft.to/lastmile_qr_scan"}, "lat": 38.9316435}, {"type": "electric_scooter", "name": "cfd108e3dd21b3e918d27824b39be438", "fusion_lat": 0.0, "fusion_lon": 0.0, "lon": -77.0034915, "is_disabled": 0, "bike_id": "cfd108e3dd21b3e918d27824b39be438", "is_reserved": 0, "rental_uris": {"android": "https://dc.lft.to/lastmile_qr_scan", "ios": "https://dc.lft.to/lastmile_qr_scan"}, "lat": 38.877593166666664}, {"type": "electric_scooter", "name": "ee1059cefaeaab08be34dabacf4bd065", "fusion_lat": 0.0, "fusion_lon": 0.0, "lon": -77.02039483333333, "is_disabled": 0, "bike_id": "ee1059cefaeaab08be34dabacf4bd065", "is_reserved": 0, "rental_uris": {"android": "https://dc.lft.to/lastmile_qr_scan", "ios": "https://dc.lft.to/lastmile_qr_scan"}, "lat": 38.92345533333334}, {"type": "electric_scooter", "name": "dc6a798bd6b3a5112e29a40260628fda", "fusion_lat": 0.0, "fusion_lon": 0.0, "lon": -77.03293, "is_disabled": 0, "bike_id": "dc6a798bd6b3a5112e29a40260628fda", "is_reserved": 0, "rental_uris": {"android": "https://dc.lft.to/lastmile_qr_scan", "ios": "https://dc.lft.to/lastmile_qr_scan"}, "lat": 38.927499}, {"type": "electric_scooter", "name": "cb8ab119860034f3fb3994d01e36bec2", "fusion_lat": 0.0, "fusion_lon": 0.0, "lon": -77.0822015, "is_disabled": 0, "bike_id": "cb8ab119860034f3fb3994d01e36bec2", "is_reserved": 0, "rental_uris": {"android": "https://dc.lft.to/lastmile_qr_scan", "ios": "https://dc.lft.to/lastmile_qr_scan"}, "lat": 38.8914415}, {"type": "electric_bike", "name": "87d4ca24b02cbb1d43053c658190f180", "fusion_lat": 0.0, "fusion_lon": 0.0, "lon": -77.04079483333334, "is_disabled": 0, "bike_id": "87d4ca24b02cbb1d43053c658190f180", "is_reserved": 0, "rental_uris": {"android": "https://dc.lft.to/lastmile_qr_scan", "ios": "https://dc.lft.to/lastmile_qr_scan"}, "lat": 38.830671333333335}, {"type": "electric_scooter", "name": "4f0aba726c3f72244c7906c16f066857", "fusion_lat": 0.0, "fusion_lon": 0.0, "lon": -77.03444433333334, "is_disabled": 0, "bike_id": "4f0aba726c3f72244c7906c16f066857", "is_reserved": 0, "rental_uris": {"android": "https://dc.lft.to/lastmile_qr_scan", "ios": "https://dc.lft.to/lastmile_qr_scan"}, "lat": 38.9103275}, {"type": "electric_scooter", "name": "f6f289840cf214ba404b9d0353a0b0ed", "fusion_lat": 0.0, "fusion_lon": 0.0, "lon": -77.01886466666667, "is_disabled": 0, "bike_id": "f6f289840cf214ba404b9d0353a0b0ed", "is_reserved": 0, "rental_uris": {"android": "https://dc.lft.to/lastmile_qr_scan", "ios": "https://dc.lft.to/lastmile_qr_scan"}, "lat": 38.8974945}, {"type": "electric_scooter", "name": "d819c0e1f05b74bd1f76b342f46e41a7", "fusion_lat": 0.0, "fusion_lon": 0.0, "lon": -77.023093, "is_disabled": 0, "bike_id": "d819c0e1f05b74bd1f76b342f46e41a7", "is_reserved": 0, "rental_uris": {"android": "https://dc.lft.to/lastmile_qr_scan", "ios": "https://dc.lft.to/lastmile_qr_scan"}, "lat": 38.91778633333333}, {"type": "electric_scooter", "name": "43e5647537b1023a9647aba4acaf6dd3", "fusion_lat": 0.0, "fusion_lon": 0.0, "lon": -77.00579783333333, "is_disabled": 0, "bike_id": "43e5647537b1023a9647aba4acaf6dd3", "is_reserved": 0, "rental_uris": {"android": "https://dc.lft.to/lastmile_qr_scan", "ios": "https://dc.lft.to/lastmile_qr_scan"}, "lat": 38.902676166666666}, {"type": "electric_scooter", "name": "f3d490e892f90fcfb89faf7afc97e522", "fusion_lat": 0.0, "fusion_lon": 0.0, "lon": -77.034451, "is_disabled": 0, "bike_id": "f3d490e892f90fcfb89faf7afc97e522", "is_reserved": 0, "rental_uris": {"android": "https://dc.lft.to/lastmile_qr_scan", "ios": "https://dc.lft.to/lastmile_qr_scan"}, "lat": 38.9071225}, {"type": "electric_bike", "name": "b85b7902862a90af473d56e64d798553", "fusion_lat": 0.0, "fusion_lon": 0.0, "lon": -76.9789525, "is_disabled": 0, "bike_id": "b85b7902862a90af473d56e64d798553", "is_reserved": 0, "rental_uris": {"android": "https://dc.lft.to/lastmile_qr_scan", "ios": "https://dc.lft.to/lastmile_qr_scan"}, "lat": 38.92699733333333}, {"type": "electric_scooter", "name": "7bdf48ea75ab41cec3c82124b9a96e19", "fusion_lat": 0.0, "fusion_lon": 0.0, "lon": -77.01030683333333, "is_disabled": 0, "bike_id": "7bdf48ea75ab41cec3c82124b9a96e19", "is_reserved": 0, "rental_uris": {"android": "https://dc.lft.to/lastmile_qr_scan", "ios": "https://dc.lft.to/lastmile_qr_scan"}, "lat": 38.91138383333333}, {"type": "electric_scooter", "name": "e1d98c0411d4de7453fd5436bc81fae7", "fusion_lat": 0.0, "fusion_lon": 0.0, "lon": -77.00926366666667, "is_disabled": 0, "bike_id": "e1d98c0411d4de7453fd5436bc81fae7", "is_reserved": 0, "rental_uris": {"android": "https://dc.lft.to/lastmile_qr_scan", "ios": "https://dc.lft.to/lastmile_qr_scan"}, "lat": 38.9162555}, {"type": "electric_scooter", "name": "775a524e438ee86c8f256098359f7f9d", "fusion_lat": 0.0, "fusion_lon": 0.0, "lon": -77.01058716666667, "is_disabled": 0, "bike_id": "775a524e438ee86c8f256098359f7f9d", "is_reserved": 0, "rental_uris": {"android": "https://dc.lft.to/lastmile_qr_scan", "ios": "https://dc.lft.to/lastmile_qr_scan"}, "lat": 38.911963166666666}, {"type": "electric_scooter", "name": "3d95c28c63037c1b5bcc308263179165", "fusion_lat": 0.0, "fusion_lon": 0.0, "lon": -77.05339566666666, "is_disabled": 0, "bike_id": "3d95c28c63037c1b5bcc308263179165", "is_reserved": 0, "rental_uris": {"android": "https://dc.lft.to/lastmile_qr_scan", "ios": "https://dc.lft.to/lastmile_qr_scan"}, "lat": 38.923436}, {"type": "electric_scooter", "name": "bb64e5a5b6a1166facebf1d07609c64d", "fusion_lat": 0.0, "fusion_lon": 0.0, "lon": -77.0344175, "is_disabled": 0, "bike_id": "bb64e5a5b6a1166facebf1d07609c64d", "is_reserved": 0, "rental_uris": {"android": "https://dc.lft.to/lastmile_qr_scan", "ios": "https://dc.lft.to/lastmile_qr_scan"}, "lat": 38.918089333333334}, {"type": "electric_scooter", "name": "7ff63a90879b496fa26e934519908300", "fusion_lat": 0.0, "fusion_lon": 0.0, "lon": -77.01329833333334, "is_disabled": 0, "bike_id": "7ff63a90879b496fa26e934519908300", "is_reserved": 0, "rental_uris": {"android": "https://dc.lft.to/lastmile_qr_scan", "ios": "https://dc.lft.to/lastmile_qr_scan"}, "lat": 38.88135316666666}, {"type": "electric_scooter", "name": "c5140f2ed8dd4b88a42d1ec30b9c3c55", "fusion_lat": 0.0, "fusion_lon": 0.0, "lon": -77.01803516666666, "is_disabled": 0, "bike_id": "c5140f2ed8dd4b88a42d1ec30b9c3c55", "is_reserved": 0, "rental_uris": {"android": "https://dc.lft.to/lastmile_qr_scan", "ios": "https://dc.lft.to/lastmile_qr_scan"}, "lat": 38.92128733333333}, {"type": "electric_scooter", "name": "8eb224fd215f703659be53d39f9d588e", "fusion_lat": 0.0, "fusion_lon": 0.0, "lon": -77.0379635, "is_disabled": 0, "bike_id": "8eb224fd215f703659be53d39f9d588e", "is_reserved": 0, "rental_uris": {"android": "https://dc.lft.to/lastmile_qr_scan", "ios": "https://dc.lft.to/lastmile_qr_scan"}, "lat": 38.93317533333333}, {"type": "electric_scooter", "name": "3b3f054f5c9348bedc3cbd662c569cb5", "fusion_lat": 0.0, "fusion_lon": 0.0, "lon": -77.019999, "is_disabled": 0, "bike_id": "3b3f054f5c9348bedc3cbd662c569cb5", "is_reserved": 0, "rental_uris": {"android": "https://dc.lft.to/lastmile_qr_scan", "ios": "https://dc.lft.to/lastmile_qr_scan"}, "lat": 38.91494133333333}, {"type": "electric_scooter", "name": "1b19cf3911932dbbaf2bbcdfdb29be29", "fusion_lat": 0.0, "fusion_lon": 0.0, "lon": -77.04823933333333, "is_disabled": 0, "bike_id": "1b19cf3911932dbbaf2bbcdfdb29be29", "is_reserved": 0, "rental_uris": {"android": "https://dc.lft.to/lastmile_qr_scan", "ios": "https://dc.lft.to/lastmile_qr_scan"}, "lat": 38.909593666666666}, {"type": "electric_scooter", "name": "498fc50aa58c750baa1ea0c9f16a6ceb", "fusion_lat": 0.0, "fusion_lon": 0.0, "lon": -77.02952116666667, "is_disabled": 0, "bike_id": "498fc50aa58c750baa1ea0c9f16a6ceb", "is_reserved": 0, "rental_uris": {"android": "https://dc.lft.to/lastmile_qr_scan", "ios": "https://dc.lft.to/lastmile_qr_scan"}, "lat": 38.897441}, {"type": "electric_scooter", "name": "e4ff3306b1ed30f7c5c238851eeeb2a9", "fusion_lat": 0.0, "fusion_lon": 0.0, "lon": -77.03446816666667, "is_disabled": 0, "bike_id": "e4ff3306b1ed30f7c5c238851eeeb2a9", "is_reserved": 0, "rental_uris": {"android": "https://dc.lft.to/lastmile_qr_scan", "ios": "https://dc.lft.to/lastmile_qr_scan"}, "lat": 38.9139185}, {"type": "electric_scooter", "name": "ee043d1e42c0715f6794823f195f1971", "fusion_lat": 0.0, "fusion_lon": 0.0, "lon": -77.02219616666666, "is_disabled": 0, "bike_id": "ee043d1e42c0715f6794823f195f1971", "is_reserved": 0, "rental_uris": {"android": "https://dc.lft.to/lastmile_qr_scan", "ios": "https://dc.lft.to/lastmile_qr_scan"}, "lat": 38.8956885}, {"type": "electric_scooter", "name": "ea0e9c18065aebba23e1a851b4ad5b6e", "fusion_lat": 0.0, "fusion_lon": 0.0, "lon": -76.98281633333333, "is_disabled": 0, "bike_id": "ea0e9c18065aebba23e1a851b4ad5b6e", "is_reserved": 0, "rental_uris": {"android": "https://dc.lft.to/lastmile_qr_scan", "ios": "https://dc.lft.to/lastmile_qr_scan"}, "lat": 38.90344183333333}, {"type": "electric_scooter", "name": "366d13801d23fea7da21f10b0c2cebf8", "fusion_lat": 0.0, "fusion_lon": 0.0, "lon": -77.00727816666667, "is_disabled": 0, "bike_id": "366d13801d23fea7da21f10b0c2cebf8", "is_reserved": 0, "rental_uris": {"android": "https://dc.lft.to/lastmile_qr_scan", "ios": "https://dc.lft.to/lastmile_qr_scan"}, "lat": 38.9119935}, {"type": "electric_scooter", "name": "e058b82425bf59a30024b79db3c491c1", "fusion_lat": 0.0, "fusion_lon": 0.0, "lon": -77.00105966666666, "is_disabled": 0, "bike_id": "e058b82425bf59a30024b79db3c491c1", "is_reserved": 0, "rental_uris": {"android": "https://dc.lft.to/lastmile_qr_scan", "ios": "https://dc.lft.to/lastmile_qr_scan"}, "lat": 38.90024583333334}, {"type": "electric_scooter", "name": "7c4a4ba1762d3e798e9ab335b49fbdc5", "fusion_lat": 0.0, "fusion_lon": 0.0, "lon": -77.04558466666667, "is_disabled": 0, "bike_id": "7c4a4ba1762d3e798e9ab335b49fbdc5", "is_reserved": 0, "rental_uris": {"android": "https://dc.lft.to/lastmile_qr_scan", "ios": "https://dc.lft.to/lastmile_qr_scan"}, "lat": 38.9007715}, {"type": "electric_scooter", "name": "bff442a257119249f7362fcb158250ac", "fusion_lat": 0.0, "fusion_lon": 0.0, "lon": -77.04532366666666, "is_disabled": 0, "bike_id": "bff442a257119249f7362fcb158250ac", "is_reserved": 0, "rental_uris": {"android": "https://dc.lft.to/lastmile_qr_scan", "ios": "https://dc.lft.to/lastmile_qr_scan"}, "lat": 38.911214}, {"type": "electric_bike", "name": "c1b4792e71f6a7fd057973c7c25ebe30", "fusion_lat": 0.0, "fusion_lon": 0.0, "lon": -77.01230666666666, "is_disabled": 0, "bike_id": "c1b4792e71f6a7fd057973c7c25ebe30", "is_reserved": 0, "rental_uris": {"android": "https://dc.lft.to/lastmile_qr_scan", "ios": "https://dc.lft.to/lastmile_qr_scan"}, "lat": 38.9508625}, {"type": "electric_scooter", "name": "6d26b58fc8224744726e8699b3d89264", "fusion_lat": 0.0, "fusion_lon": 0.0, "lon": -77.01572283333333, "is_disabled": 0, "bike_id": "6d26b58fc8224744726e8699b3d89264", "is_reserved": 0, "rental_uris": {"android": "https://dc.lft.to/lastmile_qr_scan", "ios": "https://dc.lft.to/lastmile_qr_scan"}, "lat": 38.87656483333333}, {"type": "electric_scooter", "name": "7fe3d86a5cda855883527d248bfe4526", "fusion_lat": 0.0, "fusion_lon": 0.0, "lon": -77.02205833333333, "is_disabled": 0, "bike_id": "7fe3d86a5cda855883527d248bfe4526", "is_reserved": 0, "rental_uris": {"android": "https://dc.lft.to/lastmile_qr_scan", "ios": "https://dc.lft.to/lastmile_qr_scan"}, "lat": 38.8923195}, {"type": "electric_scooter", "name": "3a52607d97b5ef6cc224605ee186a0aa", "fusion_lat": 0.0, "fusion_lon": 0.0, "lon": -77.03567983333333, "is_disabled": 0, "bike_id": "3a52607d97b5ef6cc224605ee186a0aa", "is_reserved": 0, "rental_uris": {"android": "https://dc.lft.to/lastmile_qr_scan", "ios": "https://dc.lft.to/lastmile_qr_scan"}, "lat": 38.91812783333334}, {"type": "electric_scooter", "name": "9d9fc7c754fe588af8aee2293175f9c3", "fusion_lat": 0.0, "fusion_lon": 0.0, "lon": -77.04747083333334, "is_disabled": 0, "bike_id": "9d9fc7c754fe588af8aee2293175f9c3", "is_reserved": 0, "rental_uris": {"android": "https://dc.lft.to/lastmile_qr_scan", "ios": "https://dc.lft.to/lastmile_qr_scan"}, "lat": 38.912880666666666}, {"type": "electric_scooter", "name": "347ee31327c88ccbcf58017a0d1ea9b3", "fusion_lat": 0.0, "fusion_lon": 0.0, "lon": -77.02354116666666, "is_disabled": 0, "bike_id": "347ee31327c88ccbcf58017a0d1ea9b3", "is_reserved": 0, "rental_uris": {"android": "https://dc.lft.to/lastmile_qr_scan", "ios": "https://dc.lft.to/lastmile_qr_scan"}, "lat": 38.935352}, {"type": "electric_bike", "name": "058623c83991ff404444eaa8b31debc6", "fusion_lat": 0.0, "fusion_lon": 0.0, "lon": -76.96156183333333, "is_disabled": 0, "bike_id": "058623c83991ff404444eaa8b31debc6", "is_reserved": 0, "rental_uris": {"android": "https://dc.lft.to/lastmile_qr_scan", "ios": "https://dc.lft.to/lastmile_qr_scan"}, "lat": 38.85625666666667}, {"type": "electric_scooter", "name": "7b70a021fa43938831a7e3075d164b84", "fusion_lat": 0.0, "fusion_lon": 0.0, "lon": -77.0457485, "is_disabled": 0, "bike_id": "7b70a021fa43938831a7e3075d164b84", "is_reserved": 0, "rental_uris": {"android": "https://dc.lft.to/lastmile_qr_scan", "ios": "https://dc.lft.to/lastmile_qr_scan"}, "lat": 38.90358766666667}, {"type": "electric_scooter", "name": "1ad37a3b4b780ad10c9e58a4ce7972b3", "fusion_lat": 0.0, "fusion_lon": 0.0, "lon": -77.0281545, "is_disabled": 0, "bike_id": "1ad37a3b4b780ad10c9e58a4ce7972b3", "is_reserved": 0, "rental_uris": {"android": "https://dc.lft.to/lastmile_qr_scan", "ios": "https://dc.lft.to/lastmile_qr_scan"}, "lat": 38.909203166666664}, {"type": "electric_scooter", "name": "c0ed6d12b4aa952b129922cd0288e55b", "fusion_lat": 0.0, "fusion_lon": 0.0, "lon": -77.03984016666666, "is_disabled": 0, "bike_id": "c0ed6d12b4aa952b129922cd0288e55b", "is_reserved": 0, "rental_uris": {"android": "https://dc.lft.to/lastmile_qr_scan", "ios": "https://dc.lft.to/lastmile_qr_scan"}, "lat": 38.89547183333333}, {"type": "electric_scooter", "name": "a5ef8b5226625a37ffc23face68e30c8", "fusion_lat": 0.0, "fusion_lon": 0.0, "lon": -77.00741166666667, "is_disabled": 0, "bike_id": "a5ef8b5226625a37ffc23face68e30c8", "is_reserved": 0, "rental_uris": {"android": "https://dc.lft.to/lastmile_qr_scan", "ios": "https://dc.lft.to/lastmile_qr_scan"}, "lat": 38.876678166666665}, {"type": "electric_scooter", "name": "2439783150d9a15c6f63f04b68361d48", "fusion_lat": 0.0, "fusion_lon": 0.0, "lon": -77.02877533333333, "is_disabled": 0, "bike_id": "2439783150d9a15c6f63f04b68361d48", "is_reserved": 0, "rental_uris": {"android": "https://dc.lft.to/lastmile_qr_scan", "ios": "https://dc.lft.to/lastmile_qr_scan"}, "lat": 38.89717433333333}, {"type": "electric_scooter", "name": "56d49f296a8a16d1a46f5fcd03cc523c", "fusion_lat": 0.0, "fusion_lon": 0.0, "lon": -77.02552133333333, "is_disabled": 0, "bike_id": "56d49f296a8a16d1a46f5fcd03cc523c", "is_reserved": 0, "rental_uris": {"android": "https://dc.lft.to/lastmile_qr_scan", "ios": "https://dc.lft.to/lastmile_qr_scan"}, "lat": 38.97003433333333}, {"type": "electric_scooter", "name": "d8fa82445320fc197f39b24eb35a1e8c", "fusion_lat": 0.0, "fusion_lon": 0.0, "lon": -76.99758733333333, "is_disabled": 0, "bike_id": "d8fa82445320fc197f39b24eb35a1e8c", "is_reserved": 0, "rental_uris": {"android": "https://dc.lft.to/lastmile_qr_scan", "ios": "https://dc.lft.to/lastmile_qr_scan"}, "lat": 38.885083333333334}, {"type": "electric_scooter", "name": "082ef55bebc518bb88b4016db17bcf94", "fusion_lat": 0.0, "fusion_lon": 0.0, "lon": -77.04264116666667, "is_disabled": 0, "bike_id": "082ef55bebc518bb88b4016db17bcf94", "is_reserved": 0, "rental_uris": {"android": "https://dc.lft.to/lastmile_qr_scan", "ios": "https://dc.lft.to/lastmile_qr_scan"}, "lat": 38.903405}, {"type": "electric_scooter", "name": "8e24ca9de751beecb39c760c5f195204", "fusion_lat": 0.0, "fusion_lon": 0.0, "lon": -77.043202, "is_disabled": 0, "bike_id": "8e24ca9de751beecb39c760c5f195204", "is_reserved": 0, "rental_uris": {"android": "https://dc.lft.to/lastmile_qr_scan", "ios": "https://dc.lft.to/lastmile_qr_scan"}, "lat": 38.90739766666667}, {"type": "electric_scooter", "name": "c334349790fa55c7397cb260410b7d3a", "fusion_lat": 0.0, "fusion_lon": 0.0, "lon": -77.0385625, "is_disabled": 0, "bike_id": "c334349790fa55c7397cb260410b7d3a", "is_reserved": 0, "rental_uris": {"android": "https://dc.lft.to/lastmile_qr_scan", "ios": "https://dc.lft.to/lastmile_qr_scan"}, "lat": 38.915412333333336}, {"type": "electric_scooter", "name": "2cbd9e4b73d34d0c56e80924af8afbb3", "fusion_lat": 0.0, "fusion_lon": 0.0, "lon": -77.04336466666666, "is_disabled": 0, "bike_id": "2cbd9e4b73d34d0c56e80924af8afbb3", "is_reserved": 0, "rental_uris": {"android": "https://dc.lft.to/lastmile_qr_scan", "ios": "https://dc.lft.to/lastmile_qr_scan"}, "lat": 38.90637816666667}, {"type": "electric_scooter", "name": "b6f8148a46d2e3462f6e9e3a201856c2", "fusion_lat": 0.0, "fusion_lon": 0.0, "lon": -77.019969, "is_disabled": 0, "bike_id": "b6f8148a46d2e3462f6e9e3a201856c2", "is_reserved": 0, "rental_uris": {"android": "https://dc.lft.to/lastmile_qr_scan", "ios": "https://dc.lft.to/lastmile_qr_scan"}, "lat": 38.96629983333333}, {"type": "electric_scooter", "name": "b59993bc362e8740b7a62b4d18646260", "fusion_lat": 0.0, "fusion_lon": 0.0, "lon": -77.03850533333333, "is_disabled": 0, "bike_id": "b59993bc362e8740b7a62b4d18646260", "is_reserved": 0, "rental_uris": {"android": "https://dc.lft.to/lastmile_qr_scan", "ios": "https://dc.lft.to/lastmile_qr_scan"}, "lat": 38.91665366666667}, {"type": "electric_scooter", "name": "58c082ca4bc1c97d62cd7fe5728b58ef", "fusion_lat": 0.0, "fusion_lon": 0.0, "lon": -77.00593016666667, "is_disabled": 0, "bike_id": "58c082ca4bc1c97d62cd7fe5728b58ef", "is_reserved": 0, "rental_uris": {"android": "https://dc.lft.to/lastmile_qr_scan", "ios": "https://dc.lft.to/lastmile_qr_scan"}, "lat": 38.90308666666667}, {"type": "electric_scooter", "name": "a1f59c9094e6c026b43091d91f0d30bf", "fusion_lat": 0.0, "fusion_lon": 0.0, "lon": -77.0392785, "is_disabled": 0, "bike_id": "a1f59c9094e6c026b43091d91f0d30bf", "is_reserved": 0, "rental_uris": {"android": "https://dc.lft.to/lastmile_qr_scan", "ios": "https://dc.lft.to/lastmile_qr_scan"}, "lat": 38.9139425}, {"type": "electric_scooter", "name": "6fbfbf312d8e9f9a9341f4aebddd7282", "fusion_lat": 0.0, "fusion_lon": 0.0, "lon": -77.06298566666666, "is_disabled": 0, "bike_id": "6fbfbf312d8e9f9a9341f4aebddd7282", "is_reserved": 0, "rental_uris": {"android": "https://dc.lft.to/lastmile_qr_scan", "ios": "https://dc.lft.to/lastmile_qr_scan"}, "lat": 38.906030333333334}, {"type": "electric_scooter", "name": "1f2ebf25950e8036c43033575bc6281c", "fusion_lat": 0.0, "fusion_lon": 0.0, "lon": -76.99442233333333, "is_disabled": 0, "bike_id": "1f2ebf25950e8036c43033575bc6281c", "is_reserved": 0, "rental_uris": {"android": "https://dc.lft.to/lastmile_qr_scan", "ios": "https://dc.lft.to/lastmile_qr_scan"}, "lat": 38.82766016666667}, {"type": "electric_scooter", "name": "334004ae99e337cec545e95ea4afb234", "fusion_lat": 0.0, "fusion_lon": 0.0, "lon": -77.02987466666667, "is_disabled": 0, "bike_id": "334004ae99e337cec545e95ea4afb234", "is_reserved": 0, "rental_uris": {"android": "https://dc.lft.to/lastmile_qr_scan", "ios": "https://dc.lft.to/lastmile_qr_scan"}, "lat": 38.907178333333334}, {"type": "electric_bike", "name": "7163f493a2602a909177829fa6d0386c", "fusion_lat": 0.0, "fusion_lon": 0.0, "lon": -76.9732095, "is_disabled": 0, "bike_id": "7163f493a2602a909177829fa6d0386c", "is_reserved": 0, "rental_uris": {"android": "https://dc.lft.to/lastmile_qr_scan", "ios": "https://dc.lft.to/lastmile_qr_scan"}, "lat": 38.8578635}, {"type": "electric_scooter", "name": "fdcb76c601a0f74ddca7b6d22f6be8b0", "fusion_lat": 0.0, "fusion_lon": 0.0, "lon": -77.03666533333333, "is_disabled": 0, "bike_id": "fdcb76c601a0f74ddca7b6d22f6be8b0", "is_reserved": 0, "rental_uris": {"android": "https://dc.lft.to/lastmile_qr_scan", "ios": "https://dc.lft.to/lastmile_qr_scan"}, "lat": 38.9233065}, {"type": "electric_scooter", "name": "ea856d1123830b1da84b2e35999d3596", "fusion_lat": 0.0, "fusion_lon": 0.0, "lon": -77.03571866666667, "is_disabled": 0, "bike_id": "ea856d1123830b1da84b2e35999d3596", "is_reserved": 0, "rental_uris": {"android": "https://dc.lft.to/lastmile_qr_scan", "ios": "https://dc.lft.to/lastmile_qr_scan"}, "lat": 38.91816516666667}, {"type": "electric_scooter", "name": "2359c8620dd689024e9cfc51000fd536", "fusion_lat": 0.0, "fusion_lon": 0.0, "lon": -77.0271425, "is_disabled": 0, "bike_id": "2359c8620dd689024e9cfc51000fd536", "is_reserved": 0, "rental_uris": {"android": "https://dc.lft.to/lastmile_qr_scan", "ios": "https://dc.lft.to/lastmile_qr_scan"}, "lat": 38.918230666666666}, {"type": "electric_scooter", "name": "a123a8880c76f7d749ec105261227c2e", "fusion_lat": 0.0, "fusion_lon": 0.0, "lon": -77.03208716666667, "is_disabled": 0, "bike_id": "a123a8880c76f7d749ec105261227c2e", "is_reserved": 0, "rental_uris": {"android": "https://dc.lft.to/lastmile_qr_scan", "ios": "https://dc.lft.to/lastmile_qr_scan"}, "lat": 38.916951166666664}, {"type": "electric_scooter", "name": "3b4929b4a04d1960e7d1802846754f7a", "fusion_lat": 0.0, "fusion_lon": 0.0, "lon": -77.04343266666666, "is_disabled": 0, "bike_id": "3b4929b4a04d1960e7d1802846754f7a", "is_reserved": 0, "rental_uris": {"android": "https://dc.lft.to/lastmile_qr_scan", "ios": "https://dc.lft.to/lastmile_qr_scan"}, "lat": 38.896968}, {"type": "electric_scooter", "name": "d0ebccbfc3a7fb519b28aaed2c330665", "fusion_lat": 0.0, "fusion_lon": 0.0, "lon": -77.0150435, "is_disabled": 0, "bike_id": "d0ebccbfc3a7fb519b28aaed2c330665", "is_reserved": 0, "rental_uris": {"android": "https://dc.lft.to/lastmile_qr_scan", "ios": "https://dc.lft.to/lastmile_qr_scan"}, "lat": 38.92666466666667}, {"type": "electric_scooter", "name": "08156b0e008893c9844921abcf754745", "fusion_lat": 0.0, "fusion_lon": 0.0, "lon": -76.99033983333334, "is_disabled": 0, "bike_id": "08156b0e008893c9844921abcf754745", "is_reserved": 0, "rental_uris": {"android": "https://dc.lft.to/lastmile_qr_scan", "ios": "https://dc.lft.to/lastmile_qr_scan"}, "lat": 38.88880316666667}, {"type": "electric_scooter", "name": "adfb4285c852ef44bf7b4bab8daef358", "fusion_lat": 0.0, "fusion_lon": 0.0, "lon": -77.035144, "is_disabled": 0, "bike_id": "adfb4285c852ef44bf7b4bab8daef358", "is_reserved": 0, "rental_uris": {"android": "https://dc.lft.to/lastmile_qr_scan", "ios": "https://dc.lft.to/lastmile_qr_scan"}, "lat": 38.900514666666666}, {"type": "electric_scooter", "name": "0d7a3e8fd4d64f125bb5a492a76a23ab", "fusion_lat": 0.0, "fusion_lon": 0.0, "lon": -76.99768283333333, "is_disabled": 0, "bike_id": "0d7a3e8fd4d64f125bb5a492a76a23ab", "is_reserved": 0, "rental_uris": {"android": "https://dc.lft.to/lastmile_qr_scan", "ios": "https://dc.lft.to/lastmile_qr_scan"}, "lat": 38.91120033333333}, {"type": "electric_scooter", "name": "05264bc90cd1abd38117363bf9e875e9", "fusion_lat": 0.0, "fusion_lon": 0.0, "lon": -77.03190783333334, "is_disabled": 0, "bike_id": "05264bc90cd1abd38117363bf9e875e9", "is_reserved": 0, "rental_uris": {"android": "https://dc.lft.to/lastmile_qr_scan", "ios": "https://dc.lft.to/lastmile_qr_scan"}, "lat": 38.8927145}, {"type": "electric_scooter", "name": "dbfc03b3576101af3a8560b6f531e1dc", "fusion_lat": 0.0, "fusion_lon": 0.0, "lon": -77.02335583333333, "is_disabled": 0, "bike_id": "dbfc03b3576101af3a8560b6f531e1dc", "is_reserved": 0, "rental_uris": {"android": "https://dc.lft.to/lastmile_qr_scan", "ios": "https://dc.lft.to/lastmile_qr_scan"}, "lat": 38.92234083333334}, {"type": "electric_scooter", "name": "f4feb43a30fea813e1312aa7d4622ee4", "fusion_lat": 0.0, "fusion_lon": 0.0, "lon": -76.9990935, "is_disabled": 0, "bike_id": "f4feb43a30fea813e1312aa7d4622ee4", "is_reserved": 0, "rental_uris": {"android": "https://dc.lft.to/lastmile_qr_scan", "ios": "https://dc.lft.to/lastmile_qr_scan"}, "lat": 38.93743333333333}, {"type": "electric_scooter", "name": "7adae66a2035d4ef95476d4d5ce114fe", "fusion_lat": 0.0, "fusion_lon": 0.0, "lon": -77.04871316666667, "is_disabled": 0, "bike_id": "7adae66a2035d4ef95476d4d5ce114fe", "is_reserved": 0, "rental_uris": {"android": "https://dc.lft.to/lastmile_qr_scan", "ios": "https://dc.lft.to/lastmile_qr_scan"}, "lat": 38.9110615}, {"type": "electric_bike", "name": "3e0f73cb7de8e24475dc391d9f1c0005", "fusion_lat": 0.0, "fusion_lon": 0.0, "lon": -76.9868875, "is_disabled": 0, "bike_id": "3e0f73cb7de8e24475dc391d9f1c0005", "is_reserved": 0, "rental_uris": {"android": "https://dc.lft.to/lastmile_qr_scan", "ios": "https://dc.lft.to/lastmile_qr_scan"}, "lat": 38.94476316666667}, {"type": "electric_scooter", "name": "5e198d1e6e9240443c4da5da67e778b3", "fusion_lat": 0.0, "fusion_lon": 0.0, "lon": -77.02320783333333, "is_disabled": 0, "bike_id": "5e198d1e6e9240443c4da5da67e778b3", "is_reserved": 0, "rental_uris": {"android": "https://dc.lft.to/lastmile_qr_scan", "ios": "https://dc.lft.to/lastmile_qr_scan"}, "lat": 38.93061066666667}, {"type": "electric_scooter", "name": "f4d07a6829d9a2e7c5091797b17c63a4", "fusion_lat": 0.0, "fusion_lon": 0.0, "lon": -77.03464166666667, "is_disabled": 0, "bike_id": "f4d07a6829d9a2e7c5091797b17c63a4", "is_reserved": 0, "rental_uris": {"android": "https://dc.lft.to/lastmile_qr_scan", "ios": "https://dc.lft.to/lastmile_qr_scan"}, "lat": 38.917206166666666}, {"type": "electric_scooter", "name": "d0c6c1e2012f30bed7e8d60c1d8f98ff", "fusion_lat": 0.0, "fusion_lon": 0.0, "lon": -77.02228, "is_disabled": 0, "bike_id": "d0c6c1e2012f30bed7e8d60c1d8f98ff", "is_reserved": 0, "rental_uris": {"android": "https://dc.lft.to/lastmile_qr_scan", "ios": "https://dc.lft.to/lastmile_qr_scan"}, "lat": 38.912713333333336}, {"type": "electric_scooter", "name": "59a8c549f6c46d6695b043e644c9e66f", "fusion_lat": 0.0, "fusion_lon": 0.0, "lon": -77.0418525, "is_disabled": 0, "bike_id": "59a8c549f6c46d6695b043e644c9e66f", "is_reserved": 0, "rental_uris": {"android": "https://dc.lft.to/lastmile_qr_scan", "ios": "https://dc.lft.to/lastmile_qr_scan"}, "lat": 38.920256333333334}, {"type": "electric_scooter", "name": "33217eb768fc60cbd44c908c68d8e863", "fusion_lat": 0.0, "fusion_lon": 0.0, "lon": -77.01759316666667, "is_disabled": 0, "bike_id": "33217eb768fc60cbd44c908c68d8e863", "is_reserved": 0, "rental_uris": {"android": "https://dc.lft.to/lastmile_qr_scan", "ios": "https://dc.lft.to/lastmile_qr_scan"}, "lat": 38.90266316666667}, {"type": "electric_scooter", "name": "cf0ce99fa6de554b0c031be93e476a30", "fusion_lat": 0.0, "fusion_lon": 0.0, "lon": -76.98356433333333, "is_disabled": 0, "bike_id": "cf0ce99fa6de554b0c031be93e476a30", "is_reserved": 0, "rental_uris": {"android": "https://dc.lft.to/lastmile_qr_scan", "ios": "https://dc.lft.to/lastmile_qr_scan"}, "lat": 38.887495}, {"type": "electric_scooter", "name": "6619eea338e1f8cc301ce39654b63644", "fusion_lat": 0.0, "fusion_lon": 0.0, "lon": -77.03385966666667, "is_disabled": 0, "bike_id": "6619eea338e1f8cc301ce39654b63644", "is_reserved": 0, "rental_uris": {"android": "https://dc.lft.to/lastmile_qr_scan", "ios": "https://dc.lft.to/lastmile_qr_scan"}, "lat": 38.90135883333333}, {"type": "electric_scooter", "name": "efb4f8d6d4dcbf20cb3693133d79582f", "fusion_lat": 0.0, "fusion_lon": 0.0, "lon": -77.022621, "is_disabled": 0, "bike_id": "efb4f8d6d4dcbf20cb3693133d79582f", "is_reserved": 0, "rental_uris": {"android": "https://dc.lft.to/lastmile_qr_scan", "ios": "https://dc.lft.to/lastmile_qr_scan"}, "lat": 38.894698}, {"type": "electric_scooter", "name": "1af9bc3e5f4014345132118e9afa02f6", "fusion_lat": 0.0, "fusion_lon": 0.0, "lon": -77.04326233333333, "is_disabled": 0, "bike_id": "1af9bc3e5f4014345132118e9afa02f6", "is_reserved": 0, "rental_uris": {"android": "https://dc.lft.to/lastmile_qr_scan", "ios": "https://dc.lft.to/lastmile_qr_scan"}, "lat": 38.934013}, {"type": "electric_scooter", "name": "939069504b7f0a9ff1a52ab1cff29725", "fusion_lat": 0.0, "fusion_lon": 0.0, "lon": -77.00622016666667, "is_disabled": 0, "bike_id": "939069504b7f0a9ff1a52ab1cff29725", "is_reserved": 0, "rental_uris": {"android": "https://dc.lft.to/lastmile_qr_scan", "ios": "https://dc.lft.to/lastmile_qr_scan"}, "lat": 38.87198583333333}, {"type": "electric_bike", "name": "c5328d60f11a63994f7c9f5bee7500bc", "fusion_lat": 0.0, "fusion_lon": 0.0, "lon": -77.11413216666666, "is_disabled": 0, "bike_id": "c5328d60f11a63994f7c9f5bee7500bc", "is_reserved": 0, "rental_uris": {"android": "https://dc.lft.to/lastmile_qr_scan", "ios": "https://dc.lft.to/lastmile_qr_scan"}, "lat": 38.873245}, {"type": "electric_scooter", "name": "5da93c4a46ffc0a5cc8207231305cab2", "fusion_lat": 0.0, "fusion_lon": 0.0, "lon": -77.04869716666667, "is_disabled": 0, "bike_id": "5da93c4a46ffc0a5cc8207231305cab2", "is_reserved": 0, "rental_uris": {"android": "https://dc.lft.to/lastmile_qr_scan", "ios": "https://dc.lft.to/lastmile_qr_scan"}, "lat": 38.91062483333333}, {"type": "electric_scooter", "name": "7bb72995e21897e48e945225ae0b1625", "fusion_lat": 0.0, "fusion_lon": 0.0, "lon": -77.0231205, "is_disabled": 0, "bike_id": "7bb72995e21897e48e945225ae0b1625", "is_reserved": 0, "rental_uris": {"android": "https://dc.lft.to/lastmile_qr_scan", "ios": "https://dc.lft.to/lastmile_qr_scan"}, "lat": 38.91693733333334}, {"type": "electric_scooter", "name": "2f5588b8f3b52f5e4432155ac0dfdf74", "fusion_lat": 0.0, "fusion_lon": 0.0, "lon": -77.06690016666667, "is_disabled": 0, "bike_id": "2f5588b8f3b52f5e4432155ac0dfdf74", "is_reserved": 0, "rental_uris": {"android": "https://dc.lft.to/lastmile_qr_scan", "ios": "https://dc.lft.to/lastmile_qr_scan"}, "lat": 38.95020616666667}, {"type": "electric_scooter", "name": "3da9a999adea58fe07832e1fe12cf4f3", "fusion_lat": 0.0, "fusion_lon": 0.0, "lon": -76.98371333333333, "is_disabled": 0, "bike_id": "3da9a999adea58fe07832e1fe12cf4f3", "is_reserved": 0, "rental_uris": {"android": "https://dc.lft.to/lastmile_qr_scan", "ios": "https://dc.lft.to/lastmile_qr_scan"}, "lat": 38.891433666666664}, {"type": "electric_scooter", "name": "c4d4a2e25490575e7c540be47cd865b9", "fusion_lat": 0.0, "fusion_lon": 0.0, "lon": -77.04870916666667, "is_disabled": 0, "bike_id": "c4d4a2e25490575e7c540be47cd865b9", "is_reserved": 0, "rental_uris": {"android": "https://dc.lft.to/lastmile_qr_scan", "ios": "https://dc.lft.to/lastmile_qr_scan"}, "lat": 38.9126165}, {"type": "electric_scooter", "name": "0f4c5bf5ac77d1a282a61ed6cfcedaad", "fusion_lat": 0.0, "fusion_lon": 0.0, "lon": -77.033519, "is_disabled": 0, "bike_id": "0f4c5bf5ac77d1a282a61ed6cfcedaad", "is_reserved": 0, "rental_uris": {"android": "https://dc.lft.to/lastmile_qr_scan", "ios": "https://dc.lft.to/lastmile_qr_scan"}, "lat": 38.923506833333334}, {"type": "electric_bike", "name": "897064af07b1222040bbe22d98286910", "fusion_lat": 0.0, "fusion_lon": 0.0, "lon": -76.98436716666667, "is_disabled": 0, "bike_id": "897064af07b1222040bbe22d98286910", "is_reserved": 0, "rental_uris": {"android": "https://dc.lft.to/lastmile_qr_scan", "ios": "https://dc.lft.to/lastmile_qr_scan"}, "lat": 38.855258}, {"type": "electric_scooter", "name": "c704f3be2527ebc78e98bd17206a7f66", "fusion_lat": 0.0, "fusion_lon": 0.0, "lon": -77.036683, "is_disabled": 0, "bike_id": "c704f3be2527ebc78e98bd17206a7f66", "is_reserved": 0, "rental_uris": {"android": "https://dc.lft.to/lastmile_qr_scan", "ios": "https://dc.lft.to/lastmile_qr_scan"}, "lat": 38.92338183333333}, {"type": "electric_scooter", "name": "bff43beb3967916b462f19de4dc6520f", "fusion_lat": 0.0, "fusion_lon": 0.0, "lon": -77.02208383333334, "is_disabled": 0, "bike_id": "bff43beb3967916b462f19de4dc6520f", "is_reserved": 0, "rental_uris": {"android": "https://dc.lft.to/lastmile_qr_scan", "ios": "https://dc.lft.to/lastmile_qr_scan"}, "lat": 38.905383}, {"type": "electric_scooter", "name": "dcd6b9d30f09302566d3514eabaa9dac", "fusion_lat": 0.0, "fusion_lon": 0.0, "lon": -76.98336266666666, "is_disabled": 0, "bike_id": "dcd6b9d30f09302566d3514eabaa9dac", "is_reserved": 0, "rental_uris": {"android": "https://dc.lft.to/lastmile_qr_scan", "ios": "https://dc.lft.to/lastmile_qr_scan"}, "lat": 38.8955015}, {"type": "electric_scooter", "name": "f888d5407b1007fd7cd40ca4cd2658d2", "fusion_lat": 0.0, "fusion_lon": 0.0, "lon": -77.01818133333333, "is_disabled": 0, "bike_id": "f888d5407b1007fd7cd40ca4cd2658d2", "is_reserved": 0, "rental_uris": {"android": "https://dc.lft.to/lastmile_qr_scan", "ios": "https://dc.lft.to/lastmile_qr_scan"}, "lat": 38.919927666666666}, {"type": "electric_scooter", "name": "a2ee0dec67d790d83a0d9472b0309fda", "fusion_lat": 0.0, "fusion_lon": 0.0, "lon": -77.04999416666666, "is_disabled": 0, "bike_id": "a2ee0dec67d790d83a0d9472b0309fda", "is_reserved": 0, "rental_uris": {"android": "https://dc.lft.to/lastmile_qr_scan", "ios": "https://dc.lft.to/lastmile_qr_scan"}, "lat": 38.90631283333333}, {"type": "electric_scooter", "name": "e8684eecda108732aee99f249b9e52a8", "fusion_lat": 0.0, "fusion_lon": 0.0, "lon": -77.0034575, "is_disabled": 0, "bike_id": "e8684eecda108732aee99f249b9e52a8", "is_reserved": 0, "rental_uris": {"android": "https://dc.lft.to/lastmile_qr_scan", "ios": "https://dc.lft.to/lastmile_qr_scan"}, "lat": 38.91619683333333}, {"type": "electric_scooter", "name": "8d065f1ce02e125722a9d56e9881a858", "fusion_lat": 0.0, "fusion_lon": 0.0, "lon": -77.017965, "is_disabled": 0, "bike_id": "8d065f1ce02e125722a9d56e9881a858", "is_reserved": 0, "rental_uris": {"android": "https://dc.lft.to/lastmile_qr_scan", "ios": "https://dc.lft.to/lastmile_qr_scan"}, "lat": 38.919411333333336}, {"type": "electric_scooter", "name": "99fe836579b83c40549240ad1531034c", "fusion_lat": 0.0, "fusion_lon": 0.0, "lon": -77.0220205, "is_disabled": 0, "bike_id": "99fe836579b83c40549240ad1531034c", "is_reserved": 0, "rental_uris": {"android": "https://dc.lft.to/lastmile_qr_scan", "ios": "https://dc.lft.to/lastmile_qr_scan"}, "lat": 38.9143295}, {"type": "electric_scooter", "name": "b78a48af725b4b87a48890656e5bea3d", "fusion_lat": 0.0, "fusion_lon": 0.0, "lon": -77.02213233333333, "is_disabled": 0, "bike_id": "b78a48af725b4b87a48890656e5bea3d", "is_reserved": 0, "rental_uris": {"android": "https://dc.lft.to/lastmile_qr_scan", "ios": "https://dc.lft.to/lastmile_qr_scan"}, "lat": 38.89780316666667}, {"type": "electric_scooter", "name": "074d6af51909a6340dd41a6599352a1c", "fusion_lat": 0.0, "fusion_lon": 0.0, "lon": -76.94700833333333, "is_disabled": 0, "bike_id": "074d6af51909a6340dd41a6599352a1c", "is_reserved": 0, "rental_uris": {"android": "https://dc.lft.to/lastmile_qr_scan", "ios": "https://dc.lft.to/lastmile_qr_scan"}, "lat": 38.897320666666666}, {"type": "electric_bike", "name": "fa68d39388a7c50a7e65a36773e01499", "fusion_lat": 0.0, "fusion_lon": 0.0, "lon": -77.045013, "is_disabled": 0, "bike_id": "fa68d39388a7c50a7e65a36773e01499", "is_reserved": 0, "rental_uris": {"android": "https://dc.lft.to/lastmile_qr_scan", "ios": "https://dc.lft.to/lastmile_qr_scan"}, "lat": 39.02120033333333}, {"type": "electric_scooter", "name": "b6450054969b503348e681f6d615007b", "fusion_lat": 0.0, "fusion_lon": 0.0, "lon": -77.03220533333334, "is_disabled": 0, "bike_id": "b6450054969b503348e681f6d615007b", "is_reserved": 0, "rental_uris": {"android": "https://dc.lft.to/lastmile_qr_scan", "ios": "https://dc.lft.to/lastmile_qr_scan"}, "lat": 38.91849633333333}, {"type": "electric_scooter", "name": "aa85252f3cf5bcdfbd44435cb5016055", "fusion_lat": 0.0, "fusion_lon": 0.0, "lon": -77.03196966666667, "is_disabled": 0, "bike_id": "aa85252f3cf5bcdfbd44435cb5016055", "is_reserved": 0, "rental_uris": {"android": "https://dc.lft.to/lastmile_qr_scan", "ios": "https://dc.lft.to/lastmile_qr_scan"}, "lat": 38.9181775}, {"type": "electric_scooter", "name": "22cefd172e7e52dc99733e02b686d81e", "fusion_lat": 0.0, "fusion_lon": 0.0, "lon": -77.04880933333334, "is_disabled": 0, "bike_id": "22cefd172e7e52dc99733e02b686d81e", "is_reserved": 0, "rental_uris": {"android": "https://dc.lft.to/lastmile_qr_scan", "ios": "https://dc.lft.to/lastmile_qr_scan"}, "lat": 38.900547}, {"type": "electric_scooter", "name": "ae67b39963f66a6993d33b8bdf6fef96", "fusion_lat": 0.0, "fusion_lon": 0.0, "lon": -77.03855716666666, "is_disabled": 0, "bike_id": "ae67b39963f66a6993d33b8bdf6fef96", "is_reserved": 0, "rental_uris": {"android": "https://dc.lft.to/lastmile_qr_scan", "ios": "https://dc.lft.to/lastmile_qr_scan"}, "lat": 38.919658}, {"type": "electric_scooter", "name": "6034788f9d3cb98b82d1c94528a593a9", "fusion_lat": 0.0, "fusion_lon": 0.0, "lon": -77.038107, "is_disabled": 0, "bike_id": "6034788f9d3cb98b82d1c94528a593a9", "is_reserved": 0, "rental_uris": {"android": "https://dc.lft.to/lastmile_qr_scan", "ios": "https://dc.lft.to/lastmile_qr_scan"}, "lat": 38.910407166666666}, {"type": "electric_scooter", "name": "b58c6af8ace95f750616d4c659ff5aa7", "fusion_lat": 0.0, "fusion_lon": 0.0, "lon": -77.021946, "is_disabled": 0, "bike_id": "b58c6af8ace95f750616d4c659ff5aa7", "is_reserved": 0, "rental_uris": {"android": "https://dc.lft.to/lastmile_qr_scan", "ios": "https://dc.lft.to/lastmile_qr_scan"}, "lat": 38.910599500000004}, {"type": "electric_bike", "name": "e215388751cae3d6574b7bcc8cd9ca10", "fusion_lat": 0.0, "fusion_lon": 0.0, "lon": -77.0430005, "is_disabled": 0, "bike_id": "e215388751cae3d6574b7bcc8cd9ca10", "is_reserved": 0, "rental_uris": {"android": "https://dc.lft.to/lastmile_qr_scan", "ios": "https://dc.lft.to/lastmile_qr_scan"}, "lat": 39.034263}, {"type": "electric_scooter", "name": "9ec3287062f3a3d2b12620de2e78c15b", "fusion_lat": 0.0, "fusion_lon": 0.0, "lon": -77.0175445, "is_disabled": 0, "bike_id": "9ec3287062f3a3d2b12620de2e78c15b", "is_reserved": 0, "rental_uris": {"android": "https://dc.lft.to/lastmile_qr_scan", "ios": "https://dc.lft.to/lastmile_qr_scan"}, "lat": 38.8768725}, {"type": "electric_scooter", "name": "38bdeb8a737c8202b7dbf04ea16cec6f", "fusion_lat": 0.0, "fusion_lon": 0.0, "lon": -77.00148283333333, "is_disabled": 0, "bike_id": "38bdeb8a737c8202b7dbf04ea16cec6f", "is_reserved": 0, "rental_uris": {"android": "https://dc.lft.to/lastmile_qr_scan", "ios": "https://dc.lft.to/lastmile_qr_scan"}, "lat": 38.91909666666667}, {"type": "electric_scooter", "name": "62b7df37e9b2d7f81413623a72592e1d", "fusion_lat": 0.0, "fusion_lon": 0.0, "lon": -77.021919, "is_disabled": 0, "bike_id": "62b7df37e9b2d7f81413623a72592e1d", "is_reserved": 0, "rental_uris": {"android": "https://dc.lft.to/lastmile_qr_scan", "ios": "https://dc.lft.to/lastmile_qr_scan"}, "lat": 38.914836666666666}, {"type": "electric_scooter", "name": "ac215b53e152d084a5b8d9644b229924", "fusion_lat": 0.0, "fusion_lon": 0.0, "lon": -77.02215233333334, "is_disabled": 0, "bike_id": "ac215b53e152d084a5b8d9644b229924", "is_reserved": 0, "rental_uris": {"android": "https://dc.lft.to/lastmile_qr_scan", "ios": "https://dc.lft.to/lastmile_qr_scan"}, "lat": 38.893286}, {"type": "electric_scooter", "name": "52b59697253a82b70f9027e50f402b02", "fusion_lat": 0.0, "fusion_lon": 0.0, "lon": -77.02715833333333, "is_disabled": 0, "bike_id": "52b59697253a82b70f9027e50f402b02", "is_reserved": 0, "rental_uris": {"android": "https://dc.lft.to/lastmile_qr_scan", "ios": "https://dc.lft.to/lastmile_qr_scan"}, "lat": 38.909535166666664}, {"type": "electric_scooter", "name": "1a1427ce00106c1007d2250a053f70e5", "fusion_lat": 0.0, "fusion_lon": 0.0, "lon": -77.04007283333334, "is_disabled": 0, "bike_id": "1a1427ce00106c1007d2250a053f70e5", "is_reserved": 0, "rental_uris": {"android": "https://dc.lft.to/lastmile_qr_scan", "ios": "https://dc.lft.to/lastmile_qr_scan"}, "lat": 38.917005}, {"type": "electric_scooter", "name": "6c39a6f602676326f5a69dc190d3c96b", "fusion_lat": 0.0, "fusion_lon": 0.0, "lon": -77.05326516666666, "is_disabled": 0, "bike_id": "6c39a6f602676326f5a69dc190d3c96b", "is_reserved": 0, "rental_uris": {"android": "https://dc.lft.to/lastmile_qr_scan", "ios": "https://dc.lft.to/lastmile_qr_scan"}, "lat": 38.904426}, {"type": "electric_scooter", "name": "6bc93551f170667804908e9f4e44ac3d", "fusion_lat": 0.0, "fusion_lon": 0.0, "lon": -77.07450216666666, "is_disabled": 0, "bike_id": "6bc93551f170667804908e9f4e44ac3d", "is_reserved": 0, "rental_uris": {"android": "https://dc.lft.to/lastmile_qr_scan", "ios": "https://dc.lft.to/lastmile_qr_scan"}, "lat": 38.9378375}, {"type": "electric_scooter", "name": "19bb7dca8050763a0ee87a59f0a800ca", "fusion_lat": 0.0, "fusion_lon": 0.0, "lon": -77.0644685, "is_disabled": 0, "bike_id": "19bb7dca8050763a0ee87a59f0a800ca", "is_reserved": 0, "rental_uris": {"android": "https://dc.lft.to/lastmile_qr_scan", "ios": "https://dc.lft.to/lastmile_qr_scan"}, "lat": 38.907993166666664}, {"type": "electric_scooter", "name": "bc75193f0b3a48a4ebc041dd20ac3546", "fusion_lat": 0.0, "fusion_lon": 0.0, "lon": -77.036237, "is_disabled": 0, "bike_id": "bc75193f0b3a48a4ebc041dd20ac3546", "is_reserved": 0, "rental_uris": {"android": "https://dc.lft.to/lastmile_qr_scan", "ios": "https://dc.lft.to/lastmile_qr_scan"}, "lat": 38.9368165}, {"type": "electric_scooter", "name": "cd084661dee8015c331351485bcae725", "fusion_lat": 0.0, "fusion_lon": 0.0, "lon": -77.023721, "is_disabled": 0, "bike_id": "cd084661dee8015c331351485bcae725", "is_reserved": 0, "rental_uris": {"android": "https://dc.lft.to/lastmile_qr_scan", "ios": "https://dc.lft.to/lastmile_qr_scan"}, "lat": 38.9096495}, {"type": "electric_scooter", "name": "9fef8590e9726ea40ee1554e0328cc9d", "fusion_lat": 0.0, "fusion_lon": 0.0, "lon": -77.0321425, "is_disabled": 0, "bike_id": "9fef8590e9726ea40ee1554e0328cc9d", "is_reserved": 0, "rental_uris": {"android": "https://dc.lft.to/lastmile_qr_scan", "ios": "https://dc.lft.to/lastmile_qr_scan"}, "lat": 38.907373666666665}, {"type": "electric_scooter", "name": "e902ab8c7c2fb1b642dbf4ed0dbb64b8", "fusion_lat": 0.0, "fusion_lon": 0.0, "lon": -76.980995, "is_disabled": 0, "bike_id": "e902ab8c7c2fb1b642dbf4ed0dbb64b8", "is_reserved": 0, "rental_uris": {"android": "https://dc.lft.to/lastmile_qr_scan", "ios": "https://dc.lft.to/lastmile_qr_scan"}, "lat": 38.90421883333333}, {"type": "electric_scooter", "name": "bbab939f10e73083569c027cee158a76", "fusion_lat": 0.0, "fusion_lon": 0.0, "lon": -77.03896516666667, "is_disabled": 0, "bike_id": "bbab939f10e73083569c027cee158a76", "is_reserved": 0, "rental_uris": {"android": "https://dc.lft.to/lastmile_qr_scan", "ios": "https://dc.lft.to/lastmile_qr_scan"}, "lat": 38.92214033333333}, {"type": "electric_scooter", "name": "0e73df1d33caac7a288abe6a04a946d7", "fusion_lat": 0.0, "fusion_lon": 0.0, "lon": -77.02695933333334, "is_disabled": 0, "bike_id": "0e73df1d33caac7a288abe6a04a946d7", "is_reserved": 0, "rental_uris": {"android": "https://dc.lft.to/lastmile_qr_scan", "ios": "https://dc.lft.to/lastmile_qr_scan"}, "lat": 38.906716333333335}, {"type": "electric_scooter", "name": "2306f94365c44a3d1664da11d0311fab", "fusion_lat": 0.0, "fusion_lon": 0.0, "lon": -76.9984595, "is_disabled": 0, "bike_id": "2306f94365c44a3d1664da11d0311fab", "is_reserved": 0, "rental_uris": {"android": "https://dc.lft.to/lastmile_qr_scan", "ios": "https://dc.lft.to/lastmile_qr_scan"}, "lat": 38.90054033333333}, {"type": "electric_scooter", "name": "8f68d5c6d2415151b8efd5ff4638ca83", "fusion_lat": 0.0, "fusion_lon": 0.0, "lon": -77.02487433333333, "is_disabled": 0, "bike_id": "8f68d5c6d2415151b8efd5ff4638ca83", "is_reserved": 0, "rental_uris": {"android": "https://dc.lft.to/lastmile_qr_scan", "ios": "https://dc.lft.to/lastmile_qr_scan"}, "lat": 38.94184166666667}, {"type": "electric_scooter", "name": "a0c249ef0593f76c3343b7a6449e3ce5", "fusion_lat": 0.0, "fusion_lon": 0.0, "lon": -77.07318716666667, "is_disabled": 0, "bike_id": "a0c249ef0593f76c3343b7a6449e3ce5", "is_reserved": 0, "rental_uris": {"android": "https://dc.lft.to/lastmile_qr_scan", "ios": "https://dc.lft.to/lastmile_qr_scan"}, "lat": 38.92316066666667}, {"type": "electric_scooter", "name": "c2334b34f4c378a340b8068cff12ecd4", "fusion_lat": 0.0, "fusion_lon": 0.0, "lon": -77.02158816666666, "is_disabled": 0, "bike_id": "c2334b34f4c378a340b8068cff12ecd4", "is_reserved": 0, "rental_uris": {"android": "https://dc.lft.to/lastmile_qr_scan", "ios": "https://dc.lft.to/lastmile_qr_scan"}, "lat": 38.902257666666664}, {"type": "electric_scooter", "name": "ac5e85b4ac0314192511e17b603ad6c5", "fusion_lat": 0.0, "fusion_lon": 0.0, "lon": -77.00851033333333, "is_disabled": 0, "bike_id": "ac5e85b4ac0314192511e17b603ad6c5", "is_reserved": 0, "rental_uris": {"android": "https://dc.lft.to/lastmile_qr_scan", "ios": "https://dc.lft.to/lastmile_qr_scan"}, "lat": 38.87898166666667}, {"type": "electric_scooter", "name": "761308a883a0190e7d8efd73727f7f13", "fusion_lat": 0.0, "fusion_lon": 0.0, "lon": -77.02223083333334, "is_disabled": 0, "bike_id": "761308a883a0190e7d8efd73727f7f13", "is_reserved": 0, "rental_uris": {"android": "https://dc.lft.to/lastmile_qr_scan", "ios": "https://dc.lft.to/lastmile_qr_scan"}, "lat": 38.93556566666667}, {"type": "electric_scooter", "name": "077e5184b2a4048e9aa7c712c67cbcd4", "fusion_lat": 0.0, "fusion_lon": 0.0, "lon": -77.03963533333334, "is_disabled": 0, "bike_id": "077e5184b2a4048e9aa7c712c67cbcd4", "is_reserved": 0, "rental_uris": {"android": "https://dc.lft.to/lastmile_qr_scan", "ios": "https://dc.lft.to/lastmile_qr_scan"}, "lat": 38.93149116666667}, {"type": "electric_scooter", "name": "592a72e5e7fba907888c52231c9bb1e5", "fusion_lat": 0.0, "fusion_lon": 0.0, "lon": -77.03477833333334, "is_disabled": 0, "bike_id": "592a72e5e7fba907888c52231c9bb1e5", "is_reserved": 0, "rental_uris": {"android": "https://dc.lft.to/lastmile_qr_scan", "ios": "https://dc.lft.to/lastmile_qr_scan"}, "lat": 38.92886683333333}, {"type": "electric_scooter", "name": "014bbd6ee7fa238e5a85c3751a52038f", "fusion_lat": 0.0, "fusion_lon": 0.0, "lon": -77.03956283333333, "is_disabled": 0, "bike_id": "014bbd6ee7fa238e5a85c3751a52038f", "is_reserved": 0, "rental_uris": {"android": "https://dc.lft.to/lastmile_qr_scan", "ios": "https://dc.lft.to/lastmile_qr_scan"}, "lat": 38.892532}, {"type": "electric_scooter", "name": "6626fbd41c89f9abf37e5c46e88b367c", "fusion_lat": 0.0, "fusion_lon": 0.0, "lon": -77.0591895, "is_disabled": 0, "bike_id": "6626fbd41c89f9abf37e5c46e88b367c", "is_reserved": 0, "rental_uris": {"android": "https://dc.lft.to/lastmile_qr_scan", "ios": "https://dc.lft.to/lastmile_qr_scan"}, "lat": 38.902694333333336}, {"type": "electric_scooter", "name": "df2a21e991a519a6ddba8d57fcf1db47", "fusion_lat": 0.0, "fusion_lon": 0.0, "lon": -77.07864833333333, "is_disabled": 0, "bike_id": "df2a21e991a519a6ddba8d57fcf1db47", "is_reserved": 0, "rental_uris": {"android": "https://dc.lft.to/lastmile_qr_scan", "ios": "https://dc.lft.to/lastmile_qr_scan"}, "lat": 38.924624666666666}, {"type": "electric_scooter", "name": "824ffea52a29454c54f2e464c1ba6e36", "fusion_lat": 0.0, "fusion_lon": 0.0, "lon": -77.03635, "is_disabled": 0, "bike_id": "824ffea52a29454c54f2e464c1ba6e36", "is_reserved": 0, "rental_uris": {"android": "https://dc.lft.to/lastmile_qr_scan", "ios": "https://dc.lft.to/lastmile_qr_scan"}, "lat": 38.92596316666667}, {"type": "electric_scooter", "name": "d2a36d2923b7ab3d98ca2ebd33d0a5b1", "fusion_lat": 0.0, "fusion_lon": 0.0, "lon": -77.02567733333333, "is_disabled": 0, "bike_id": "d2a36d2923b7ab3d98ca2ebd33d0a5b1", "is_reserved": 0, "rental_uris": {"android": "https://dc.lft.to/lastmile_qr_scan", "ios": "https://dc.lft.to/lastmile_qr_scan"}, "lat": 38.941979333333336}, {"type": "electric_scooter", "name": "92b9fdca5ca467ad25e711968092342a", "fusion_lat": 0.0, "fusion_lon": 0.0, "lon": -77.01842766666667, "is_disabled": 0, "bike_id": "92b9fdca5ca467ad25e711968092342a", "is_reserved": 0, "rental_uris": {"android": "https://dc.lft.to/lastmile_qr_scan", "ios": "https://dc.lft.to/lastmile_qr_scan"}, "lat": 38.90968066666667}, {"type": "electric_scooter", "name": "e971887f4ef17dd1b149b4b35db0367f", "fusion_lat": 0.0, "fusion_lon": 0.0, "lon": -77.03860883333333, "is_disabled": 0, "bike_id": "e971887f4ef17dd1b149b4b35db0367f", "is_reserved": 0, "rental_uris": {"android": "https://dc.lft.to/lastmile_qr_scan", "ios": "https://dc.lft.to/lastmile_qr_scan"}, "lat": 38.91654183333333}, {"type": "electric_scooter", "name": "f7d1da5703872290c390b829b67b36a2", "fusion_lat": 0.0, "fusion_lon": 0.0, "lon": -77.025547, "is_disabled": 0, "bike_id": "f7d1da5703872290c390b829b67b36a2", "is_reserved": 0, "rental_uris": {"android": "https://dc.lft.to/lastmile_qr_scan", "ios": "https://dc.lft.to/lastmile_qr_scan"}, "lat": 38.92092133333333}, {"type": "electric_scooter", "name": "807e5395a7dad2d8886cb2cc5bb58469", "fusion_lat": 0.0, "fusion_lon": 0.0, "lon": -77.032794, "is_disabled": 0, "bike_id": "807e5395a7dad2d8886cb2cc5bb58469", "is_reserved": 0, "rental_uris": {"android": "https://dc.lft.to/lastmile_qr_scan", "ios": "https://dc.lft.to/lastmile_qr_scan"}, "lat": 38.919943}, {"type": "electric_scooter", "name": "0610a2e5d12459a613e9a6b46ac3ae3b", "fusion_lat": 0.0, "fusion_lon": 0.0, "lon": -77.012115, "is_disabled": 0, "bike_id": "0610a2e5d12459a613e9a6b46ac3ae3b", "is_reserved": 0, "rental_uris": {"android": "https://dc.lft.to/lastmile_qr_scan", "ios": "https://dc.lft.to/lastmile_qr_scan"}, "lat": 38.918207833333334}, {"type": "electric_scooter", "name": "2dcc1831146cb332ac32846fa86cf3e2", "fusion_lat": 0.0, "fusion_lon": 0.0, "lon": -77.03634783333334, "is_disabled": 0, "bike_id": "2dcc1831146cb332ac32846fa86cf3e2", "is_reserved": 0, "rental_uris": {"android": "https://dc.lft.to/lastmile_qr_scan", "ios": "https://dc.lft.to/lastmile_qr_scan"}, "lat": 38.93687766666667}, {"type": "electric_scooter", "name": "6333ae8f51cbd090a036bd40e8eeec75", "fusion_lat": 0.0, "fusion_lon": 0.0, "lon": -77.0366185, "is_disabled": 0, "bike_id": "6333ae8f51cbd090a036bd40e8eeec75", "is_reserved": 0, "rental_uris": {"android": "https://dc.lft.to/lastmile_qr_scan", "ios": "https://dc.lft.to/lastmile_qr_scan"}, "lat": 38.93179516666667}, {"type": "electric_scooter", "name": "048e40dc6634561ab8ed564049836634", "fusion_lat": 0.0, "fusion_lon": 0.0, "lon": -77.01799716666666, "is_disabled": 0, "bike_id": "048e40dc6634561ab8ed564049836634", "is_reserved": 0, "rental_uris": {"android": "https://dc.lft.to/lastmile_qr_scan", "ios": "https://dc.lft.to/lastmile_qr_scan"}, "lat": 38.919451}, {"type": "electric_scooter", "name": "1ae16b7fa8706bf2487a17e38258faed", "fusion_lat": 0.0, "fusion_lon": 0.0, "lon": -77.046923, "is_disabled": 0, "bike_id": "1ae16b7fa8706bf2487a17e38258faed", "is_reserved": 0, "rental_uris": {"android": "https://dc.lft.to/lastmile_qr_scan", "ios": "https://dc.lft.to/lastmile_qr_scan"}, "lat": 38.8974065}, {"type": "electric_scooter", "name": "4b3799815080d633d78db7e23d13e767", "fusion_lat": 0.0, "fusion_lon": 0.0, "lon": -77.04660016666666, "is_disabled": 0, "bike_id": "4b3799815080d633d78db7e23d13e767", "is_reserved": 0, "rental_uris": {"android": "https://dc.lft.to/lastmile_qr_scan", "ios": "https://dc.lft.to/lastmile_qr_scan"}, "lat": 38.89342716666667}, {"type": "electric_scooter", "name": "ef17c76d42ee61fc73fad976ed4b207d", "fusion_lat": 0.0, "fusion_lon": 0.0, "lon": -77.04668366666667, "is_disabled": 0, "bike_id": "ef17c76d42ee61fc73fad976ed4b207d", "is_reserved": 0, "rental_uris": {"android": "https://dc.lft.to/lastmile_qr_scan", "ios": "https://dc.lft.to/lastmile_qr_scan"}, "lat": 38.90605883333333}, {"type": "electric_scooter", "name": "7f3d5d3fedb3a65ca2cae9e1ebc20c54", "fusion_lat": 0.0, "fusion_lon": 0.0, "lon": -76.96207383333333, "is_disabled": 0, "bike_id": "7f3d5d3fedb3a65ca2cae9e1ebc20c54", "is_reserved": 0, "rental_uris": {"android": "https://dc.lft.to/lastmile_qr_scan", "ios": "https://dc.lft.to/lastmile_qr_scan"}, "lat": 38.932308}, {"type": "electric_scooter", "name": "856695902dc8cdf9bb152466c2421578", "fusion_lat": 0.0, "fusion_lon": 0.0, "lon": -77.02096233333333, "is_disabled": 0, "bike_id": "856695902dc8cdf9bb152466c2421578", "is_reserved": 0, "rental_uris": {"android": "https://dc.lft.to/lastmile_qr_scan", "ios": "https://dc.lft.to/lastmile_qr_scan"}, "lat": 38.92714683333333}, {"type": "electric_scooter", "name": "0047be3af850cd4c869cf0ce8f4d91fe", "fusion_lat": 0.0, "fusion_lon": 0.0, "lon": -77.03208433333333, "is_disabled": 0, "bike_id": "0047be3af850cd4c869cf0ce8f4d91fe", "is_reserved": 0, "rental_uris": {"android": "https://dc.lft.to/lastmile_qr_scan", "ios": "https://dc.lft.to/lastmile_qr_scan"}, "lat": 38.917249}, {"type": "electric_scooter", "name": "f21f703a85657f07196fbbc58668e1ab", "fusion_lat": 0.0, "fusion_lon": 0.0, "lon": -77.015123, "is_disabled": 0, "bike_id": "f21f703a85657f07196fbbc58668e1ab", "is_reserved": 0, "rental_uris": {"android": "https://dc.lft.to/lastmile_qr_scan", "ios": "https://dc.lft.to/lastmile_qr_scan"}, "lat": 38.88736816666667}, {"type": "electric_scooter", "name": "0225bd46c1bb00decd1dfee59326ed59", "fusion_lat": 0.0, "fusion_lon": 0.0, "lon": -76.98615583333333, "is_disabled": 0, "bike_id": "0225bd46c1bb00decd1dfee59326ed59", "is_reserved": 0, "rental_uris": {"android": "https://dc.lft.to/lastmile_qr_scan", "ios": "https://dc.lft.to/lastmile_qr_scan"}, "lat": 38.938265333333334}, {"type": "electric_bike", "name": "430632385170c22617323ce3bac52777", "fusion_lat": 0.0, "fusion_lon": 0.0, "lon": -76.980984, "is_disabled": 0, "bike_id": "430632385170c22617323ce3bac52777", "is_reserved": 0, "rental_uris": {"android": "https://dc.lft.to/lastmile_qr_scan", "ios": "https://dc.lft.to/lastmile_qr_scan"}, "lat": 38.953507333333334}, {"type": "electric_scooter", "name": "e8c2006f2ca922bf8ec65161f089e287", "fusion_lat": 0.0, "fusion_lon": 0.0, "lon": -77.007741, "is_disabled": 0, "bike_id": "e8c2006f2ca922bf8ec65161f089e287", "is_reserved": 0, "rental_uris": {"android": "https://dc.lft.to/lastmile_qr_scan", "ios": "https://dc.lft.to/lastmile_qr_scan"}, "lat": 38.90974083333333}, {"type": "electric_scooter", "name": "3a9172884aa8eb18cd778430e97ba52b", "fusion_lat": 0.0, "fusion_lon": 0.0, "lon": -77.03886366666667, "is_disabled": 0, "bike_id": "3a9172884aa8eb18cd778430e97ba52b", "is_reserved": 0, "rental_uris": {"android": "https://dc.lft.to/lastmile_qr_scan", "ios": "https://dc.lft.to/lastmile_qr_scan"}, "lat": 38.91852}, {"type": "electric_scooter", "name": "37cf96e9c57fcf0baabd594f6db7b986", "fusion_lat": 0.0, "fusion_lon": 0.0, "lon": -77.02572866666667, "is_disabled": 0, "bike_id": "37cf96e9c57fcf0baabd594f6db7b986", "is_reserved": 0, "rental_uris": {"android": "https://dc.lft.to/lastmile_qr_scan", "ios": "https://dc.lft.to/lastmile_qr_scan"}, "lat": 38.9125815}, {"type": "electric_scooter", "name": "861ddc2c2486a881e930b094b7bdf6d6", "fusion_lat": 0.0, "fusion_lon": 0.0, "lon": -77.05508983333333, "is_disabled": 0, "bike_id": "861ddc2c2486a881e930b094b7bdf6d6", "is_reserved": 0, "rental_uris": {"android": "https://dc.lft.to/lastmile_qr_scan", "ios": "https://dc.lft.to/lastmile_qr_scan"}, "lat": 38.928404}, {"type": "electric_scooter", "name": "ce3ce79b8a42c02db71b1d4fe16b3352", "fusion_lat": 0.0, "fusion_lon": 0.0, "lon": -77.036655, "is_disabled": 0, "bike_id": "ce3ce79b8a42c02db71b1d4fe16b3352", "is_reserved": 0, "rental_uris": {"android": "https://dc.lft.to/lastmile_qr_scan", "ios": "https://dc.lft.to/lastmile_qr_scan"}, "lat": 38.936247333333334}, {"type": "electric_scooter", "name": "d5b3811576680995bb8f9645c153b8f4", "fusion_lat": 0.0, "fusion_lon": 0.0, "lon": -77.03091383333333, "is_disabled": 0, "bike_id": "d5b3811576680995bb8f9645c153b8f4", "is_reserved": 0, "rental_uris": {"android": "https://dc.lft.to/lastmile_qr_scan", "ios": "https://dc.lft.to/lastmile_qr_scan"}, "lat": 38.895456333333335}, {"type": "electric_scooter", "name": "1d8989e2d3a41a1149cc156eaaf53d20", "fusion_lat": 0.0, "fusion_lon": 0.0, "lon": -77.02978333333333, "is_disabled": 0, "bike_id": "1d8989e2d3a41a1149cc156eaaf53d20", "is_reserved": 0, "rental_uris": {"android": "https://dc.lft.to/lastmile_qr_scan", "ios": "https://dc.lft.to/lastmile_qr_scan"}, "lat": 38.92636783333333}, {"type": "electric_scooter", "name": "355c885039df4fc3d25fd09bb71377e9", "fusion_lat": 0.0, "fusion_lon": 0.0, "lon": -77.025454, "is_disabled": 0, "bike_id": "355c885039df4fc3d25fd09bb71377e9", "is_reserved": 0, "rental_uris": {"android": "https://dc.lft.to/lastmile_qr_scan", "ios": "https://dc.lft.to/lastmile_qr_scan"}, "lat": 38.935212166666666}, {"type": "electric_scooter", "name": "807415476da4955159d6573c14e8ce7f", "fusion_lat": 0.0, "fusion_lon": 0.0, "lon": -77.0042935, "is_disabled": 0, "bike_id": "807415476da4955159d6573c14e8ce7f", "is_reserved": 0, "rental_uris": {"android": "https://dc.lft.to/lastmile_qr_scan", "ios": "https://dc.lft.to/lastmile_qr_scan"}, "lat": 38.929523333333336}, {"type": "electric_scooter", "name": "1d280bdd19ed602ea0a606f77a0a7787", "fusion_lat": 0.0, "fusion_lon": 0.0, "lon": -77.03664533333334, "is_disabled": 0, "bike_id": "1d280bdd19ed602ea0a606f77a0a7787", "is_reserved": 0, "rental_uris": {"android": "https://dc.lft.to/lastmile_qr_scan", "ios": "https://dc.lft.to/lastmile_qr_scan"}, "lat": 38.910683166666665}, {"type": "electric_scooter", "name": "a549f572dd134a08a97cd4ec3a5289a3", "fusion_lat": 0.0, "fusion_lon": 0.0, "lon": -77.03711816666667, "is_disabled": 0, "bike_id": "a549f572dd134a08a97cd4ec3a5289a3", "is_reserved": 0, "rental_uris": {"android": "https://dc.lft.to/lastmile_qr_scan", "ios": "https://dc.lft.to/lastmile_qr_scan"}, "lat": 38.914841833333334}, {"type": "electric_scooter", "name": "94454d02622508dab6926bbcea1227cb", "fusion_lat": 0.0, "fusion_lon": 0.0, "lon": -76.98381366666666, "is_disabled": 0, "bike_id": "94454d02622508dab6926bbcea1227cb", "is_reserved": 0, "rental_uris": {"android": "https://dc.lft.to/lastmile_qr_scan", "ios": "https://dc.lft.to/lastmile_qr_scan"}, "lat": 38.91277483333333}, {"type": "electric_scooter", "name": "e46968c6780c755735f47d93d6d93c90", "fusion_lat": 0.0, "fusion_lon": 0.0, "lon": -77.0304265, "is_disabled": 0, "bike_id": "e46968c6780c755735f47d93d6d93c90", "is_reserved": 0, "rental_uris": {"android": "https://dc.lft.to/lastmile_qr_scan", "ios": "https://dc.lft.to/lastmile_qr_scan"}, "lat": 38.99031733333333}, {"type": "electric_scooter", "name": "524a2beac51ba631d4c8ce5a0b84c583", "fusion_lat": 0.0, "fusion_lon": 0.0, "lon": -77.031634, "is_disabled": 0, "bike_id": "524a2beac51ba631d4c8ce5a0b84c583", "is_reserved": 0, "rental_uris": {"android": "https://dc.lft.to/lastmile_qr_scan", "ios": "https://dc.lft.to/lastmile_qr_scan"}, "lat": 38.95941116666667}, {"type": "electric_scooter", "name": "c52def0155f8e2cbc73cd9d5ed8e1610", "fusion_lat": 0.0, "fusion_lon": 0.0, "lon": -77.02308316666667, "is_disabled": 0, "bike_id": "c52def0155f8e2cbc73cd9d5ed8e1610", "is_reserved": 0, "rental_uris": {"android": "https://dc.lft.to/lastmile_qr_scan", "ios": "https://dc.lft.to/lastmile_qr_scan"}, "lat": 38.9175775}, {"type": "electric_bike", "name": "85eff2419da70bcc47697428df8cce4f", "fusion_lat": 0.0, "fusion_lon": 0.0, "lon": -77.08520733333333, "is_disabled": 0, "bike_id": "85eff2419da70bcc47697428df8cce4f", "is_reserved": 0, "rental_uris": {"android": "https://dc.lft.to/lastmile_qr_scan", "ios": "https://dc.lft.to/lastmile_qr_scan"}, "lat": 38.858614}, {"type": "electric_scooter", "name": "5fcffeadaa89cd702e14868d873385e3", "fusion_lat": 0.0, "fusion_lon": 0.0, "lon": -76.992284, "is_disabled": 0, "bike_id": "5fcffeadaa89cd702e14868d873385e3", "is_reserved": 0, "rental_uris": {"android": "https://dc.lft.to/lastmile_qr_scan", "ios": "https://dc.lft.to/lastmile_qr_scan"}, "lat": 38.908240666666664}, {"type": "electric_scooter", "name": "e6beda4131734761d1d00c89e7cd7e8b", "fusion_lat": 0.0, "fusion_lon": 0.0, "lon": -77.02942766666666, "is_disabled": 0, "bike_id": "e6beda4131734761d1d00c89e7cd7e8b", "is_reserved": 0, "rental_uris": {"android": "https://dc.lft.to/lastmile_qr_scan", "ios": "https://dc.lft.to/lastmile_qr_scan"}, "lat": 38.9072875}, {"type": "electric_scooter", "name": "98162365d109aa97f25d42761c91fba9", "fusion_lat": 0.0, "fusion_lon": 0.0, "lon": -77.05282533333333, "is_disabled": 0, "bike_id": "98162365d109aa97f25d42761c91fba9", "is_reserved": 0, "rental_uris": {"android": "https://dc.lft.to/lastmile_qr_scan", "ios": "https://dc.lft.to/lastmile_qr_scan"}, "lat": 38.9034235}, {"type": "electric_scooter", "name": "b294bd0cdc3f2e94aabaea7938d64709", "fusion_lat": 0.0, "fusion_lon": 0.0, "lon": -77.06136783333334, "is_disabled": 0, "bike_id": "b294bd0cdc3f2e94aabaea7938d64709", "is_reserved": 0, "rental_uris": {"android": "https://dc.lft.to/lastmile_qr_scan", "ios": "https://dc.lft.to/lastmile_qr_scan"}, "lat": 38.943162666666666}, {"type": "electric_bike", "name": "7a31f0330ec9ccb6ec0fd5c8ac6ef570", "fusion_lat": 0.0, "fusion_lon": 0.0, "lon": -76.9863565, "is_disabled": 0, "bike_id": "7a31f0330ec9ccb6ec0fd5c8ac6ef570", "is_reserved": 0, "rental_uris": {"android": "https://dc.lft.to/lastmile_qr_scan", "ios": "https://dc.lft.to/lastmile_qr_scan"}, "lat": 38.93688233333334}, {"type": "electric_scooter", "name": "755a526ddc269ed9085a0492f7401bcf", "fusion_lat": 0.0, "fusion_lon": 0.0, "lon": -77.0334505, "is_disabled": 0, "bike_id": "755a526ddc269ed9085a0492f7401bcf", "is_reserved": 0, "rental_uris": {"android": "https://dc.lft.to/lastmile_qr_scan", "ios": "https://dc.lft.to/lastmile_qr_scan"}, "lat": 38.930281}, {"type": "electric_scooter", "name": "62948ea9da6f8d85298bb262f3f0f6b5", "fusion_lat": 0.0, "fusion_lon": 0.0, "lon": -77.0075555, "is_disabled": 0, "bike_id": "62948ea9da6f8d85298bb262f3f0f6b5", "is_reserved": 0, "rental_uris": {"android": "https://dc.lft.to/lastmile_qr_scan", "ios": "https://dc.lft.to/lastmile_qr_scan"}, "lat": 38.904716666666666}, {"type": "electric_scooter", "name": "de1f04d93567714253edd84ce1a0aaff", "fusion_lat": 0.0, "fusion_lon": 0.0, "lon": -77.03377883333333, "is_disabled": 0, "bike_id": "de1f04d93567714253edd84ce1a0aaff", "is_reserved": 0, "rental_uris": {"android": "https://dc.lft.to/lastmile_qr_scan", "ios": "https://dc.lft.to/lastmile_qr_scan"}, "lat": 38.89956433333333}, {"type": "electric_scooter", "name": "f12de2dd910ccd2967bb70c8bc2b5c07", "fusion_lat": 0.0, "fusion_lon": 0.0, "lon": -77.02688866666666, "is_disabled": 0, "bike_id": "f12de2dd910ccd2967bb70c8bc2b5c07", "is_reserved": 0, "rental_uris": {"android": "https://dc.lft.to/lastmile_qr_scan", "ios": "https://dc.lft.to/lastmile_qr_scan"}, "lat": 38.906709166666666},