{"data": {"bikes": [{"fusion_lat": 0.0, "type": "electric_scooter", "name": "91ab86692c09f6d4cd82bb5272256a2a", "fusion_lon": 0.0, "bike_id": "91ab86692c09f6d4cd82bb5272256a2a", "is_reserved": 0, "rental_uris": {"android": "https://dc.lft.to/lastmile_qr_scan", "ios": "https://dc.lft.to/lastmile_qr_scan"}, "lat": 38.904009, "is_disabled": 0, "lon": -77.03856033333334}, {"fusion_lat": 0.0, "type": "electric_scooter", "name": "e7b7617b5697a7a9ae320756e89666b6", "fusion_lon": 0.0, "bike_id": "e7b7617b5697a7a9ae320756e89666b6", "is_reserved": 0, "rental_uris": {"android": "https://dc.lft.to/lastmile_qr_scan", "ios": "https://dc.lft.to/lastmile_qr_scan"}, "lat": 38.8940305, "is_disabled": 0, "lon": -77.04416933333333}, {"fusion_lat": 0.0, "type": "electric_scooter", "name": "f81c2ae49f4924b03ed68b2e79416c2b", "fusion_lon": 0.0, "bike_id": "f81c2ae49f4924b03ed68b2e79416c2b", "is_reserved": 0, "rental_uris": {"android": "https://dc.lft.to/lastmile_qr_scan", "ios": "https://dc.lft.to/lastmile_qr_scan"}, "lat": 38.87180033333333, "is_disabled": 0, "lon": -77.00596533333334}, {"fusion_lat": 0.0, "type": "electric_scooter", "name": "17d6fbfb9979e17051c3462acffbb0fd", "fusion_lon": 0.0, "bike_id": "17d6fbfb9979e17051c3462acffbb0fd", "is_reserved": 0, "rental_uris": {"android": "https://dc.lft.to/lastmile_qr_scan", "ios": "https://dc.lft.to/lastmile_qr_scan"}, "lat": 38.899549, "is_disabled": 0, "lon": -77.014503}, {"fusion_lat": 0.0, "type": "electric_scooter", "name": "2b0e215a4c1f2169a61bf0392c126a4c", "fusion_lon": 0.0, "bike_id": "2b0e215a4c1f2169a61bf0392c126a4c", "is_reserved": 0, "rental_uris": {"android": "https://dc.lft.to/lastmile_qr_scan", "ios": "https://dc.lft.to/lastmile_qr_scan"}, "lat": 38.9025045, "is_disabled": 0, "lon": -77.027996}, {"fusion_lat": 0.0, "type": "electric_scooter", "name": "5a7407b4f8ce404ff9afe676c4d5276e", "fusion_lon": 0.0, "bike_id": "5a7407b4f8ce404ff9afe676c4d5276e", "is_reserved": 0, "rental_uris": {"android": "https://dc.lft.to/lastmile_qr_scan", "ios": "https://dc.lft.to/lastmile_qr_scan"}, "lat": 38.899756333333336, "is_disabled": 0, "lon": -77.05553816666666}, {"fusion_lat": 0.0, "type": "electric_scooter", "name": "471a64f9631989cf674ee15248aa8fa9", "fusion_lon": 0.0, "bike_id": "471a64f9631989cf674ee15248aa8fa9", "is_reserved": 0, "rental_uris": {"android": "https://dc.lft.to/lastmile_qr_scan", "ios": "https://dc.lft.to/lastmile_qr_scan"}, "lat": 38.924345333333335, "is_disabled": 0, "lon": -77.052109}, {"fusion_lat": 0.0, "type": "electric_scooter", "name": "165e86453bda4097355623c9a2ef52d6", "fusion_lon": 0.0, "bike_id": "165e86453bda4097355623c9a2ef52d6", "is_reserved": 0, "rental_uris": {"android": "https://dc.lft.to/lastmile_qr_scan", "ios": "https://dc.lft.to/lastmile_qr_scan"}, "lat": 38.90268716666667, "is_disabled": 0, "lon": -77.03452516666667}, {"fusion_lat": 0.0, "type": "electric_scooter", "name": "ab3b24a63d4f3c858506389aecbcbfab", "fusion_lon": 0.0, "bike_id": "ab3b24a63d4f3c858506389aecbcbfab", "is_reserved": 0, "rental_uris": {"android": "https://dc.lft.to/lastmile_qr_scan", "ios": "https://dc.lft.to/lastmile_qr_scan"}, "lat": 38.920418833333336, "is_disabled": 0, "lon": -76.9894055}, {"fusion_lat": 0.0, "type": "electric_scooter", "name": "30f86d0a394529291f5d9e77dc60ce48", "fusion_lon": 0.0, "bike_id": "30f86d0a394529291f5d9e77dc60ce48", "is_reserved": 0, "rental_uris": {"android": "https://dc.lft.to/lastmile_qr_scan", "ios": "https://dc.lft.to/lastmile_qr_scan"}, "lat": 38.900143, "is_disabled": 0, "lon": -77.03943066666666}, {"fusion_lat": 0.0, "type": "electric_scooter", "name": "9b4049649e183ca3bfc34b4ac70797bd", "fusion_lon": 0.0, "bike_id": "9b4049649e183ca3bfc34b4ac70797bd", "is_reserved": 0, "rental_uris": {"android": "https://dc.lft.to/lastmile_qr_scan", "ios": "https://dc.lft.to/lastmile_qr_scan"}, "lat": 38.927459666666664, "is_disabled": 0, "lon": -77.02146483333334}, {"fusion_lat": 0.0, "type": "electric_bike", "name": "60118b2e15077f088a4f146a1596d3e9", "fusion_lon": 0.0, "bike_id": "60118b2e15077f088a4f146a1596d3e9", "is_reserved": 0, "rental_uris": {"android": "https://dc.lft.to/lastmile_qr_scan", "ios": "https://dc.lft.to/lastmile_qr_scan"}, "lat": 38.829514833333334, "is_disabled": 0, "lon": -77.12356333333334}, {"fusion_lat": 0.0, "type": "electric_scooter", "name": "49a591d693713e3dd5ac4a8105ae52b0", "fusion_lon": 0.0, "bike_id": "49a591d693713e3dd5ac4a8105ae52b0", "is_reserved": 0, "rental_uris": {"android": "https://dc.lft.to/lastmile_qr_scan", "ios": "https://dc.lft.to/lastmile_qr_scan"}, "lat": 38.92471833333333, "is_disabled": 0, "lon": -77.02242566666666}, {"fusion_lat": 0.0, "type": "electric_scooter", "name": "b1f215d50d734d7625eb82287b5042f9", "fusion_lon": 0.0, "bike_id": "b1f215d50d734d7625eb82287b5042f9", "is_reserved": 0, "rental_uris": {"android": "https://dc.lft.to/lastmile_qr_scan", "ios": "https://dc.lft.to/lastmile_qr_scan"}, "lat": 38.92700416666667, "is_disabled": 0, "lon": -77.01499383333334}, {"fusion_lat": 0.0, "type": "electric_scooter", "name": "27f9871872a35df35cf52f183231b6a3", "fusion_lon": 0.0, "bike_id": "27f9871872a35df35cf52f183231b6a3", "is_reserved": 0, "rental_uris": {"android": "https://dc.lft.to/lastmile_qr_scan", "ios": "https://dc.lft.to/lastmile_qr_scan"}, "lat": 38.9087125, "is_disabled": 0, "lon": -77.07151066666667}, {"fusion_lat": 0.0, "type": "electric_scooter", "name": "2da9c32202ea32f48abd90cfccc38c78", "fusion_lon": 0.0, "bike_id": "2da9c32202ea32f48abd90cfccc38c78", "is_reserved": 0, "rental_uris": {"android": "https://dc.lft.to/lastmile_qr_scan", "ios": "https://dc.lft.to/lastmile_qr_scan"}, "lat": 38.926121, "is_disabled": 0, "lon": -77.0216225}, {"fusion_lat": 0.0, "type": "electric_scooter", "name": "442be8215a8a5f9869e8b30c914cf98a", "fusion_lon": 0.0, "bike_id": "442be8215a8a5f9869e8b30c914cf98a", "is_reserved": 0, "rental_uris": {"android": "https://dc.lft.to/lastmile_qr_scan", "ios": "https://dc.lft.to/lastmile_qr_scan"}, "lat": 38.9264025, "is_disabled": 0, "lon": -77.034671}, {"fusion_lat": 0.0, "type": "electric_scooter", "name": "37f6941e3aa90d29ef39b26cd41d79f9", "fusion_lon": 0.0, "bike_id": "37f6941e3aa90d29ef39b26cd41d79f9", "is_reserved": 0, "rental_uris": {"android": "https://dc.lft.to/lastmile_qr_scan", "ios": "https://dc.lft.to/lastmile_qr_scan"}, "lat": 38.92341716666667, "is_disabled": 0, "lon": -77.0191515}, {"fusion_lat": 0.0, "type": "electric_scooter", "name": "2f7d4367b49f17b14c432deecadbdd36", "fusion_lon": 0.0, "bike_id": "2f7d4367b49f17b14c432deecadbdd36", "is_reserved": 0, "rental_uris": {"android": "https://dc.lft.to/lastmile_qr_scan", "ios": "https://dc.lft.to/lastmile_qr_scan"}, "lat": 38.93530966666667, "is_disabled": 0, "lon": -77.02351416666667}, {"fusion_lat": 0.0, "type": "electric_scooter", "name": "e0e98267592a2f9111eeb8f79da62afb", "fusion_lon": 0.0, "bike_id": "e0e98267592a2f9111eeb8f79da62afb", "is_reserved": 0, "rental_uris": {"android": "https://dc.lft.to/lastmile_qr_scan", "ios": "https://dc.lft.to/lastmile_qr_scan"}, "lat": 38.9106605, "is_disabled": 0, "lon": -77.05310883333334}, {"fusion_lat": 0.0, "type": "electric_scooter", "name": "70743cb6a0c8364e57f4e64d9fb17c1b", "fusion_lon": 0.0, "bike_id": "70743cb6a0c8364e57f4e64d9fb17c1b", "is_reserved": 0, "rental_uris": {"android": "https://dc.lft.to/lastmile_qr_scan", "ios": "https://dc.lft.to/lastmile_qr_scan"}, "lat": 38.8812215, "is_disabled": 0, "lon": -76.99008016666667}, {"fusion_lat": 0.0, "type": "electric_scooter", "name": "7b156a1ee26074d45586d46313b5eec4", "fusion_lon": 0.0, "bike_id": "7b156a1ee26074d45586d46313b5eec4", "is_reserved": 0, "rental_uris": {"android": "https://dc.lft.to/lastmile_qr_scan", "ios": "https://dc.lft.to/lastmile_qr_scan"}, "lat": 38.89352316666667, "is_disabled": 0, "lon": -77.0033555}, {"fusion_lat": 0.0, "type": "electric_scooter", "name": "c8b44457e5ce7da8fc994ed1498a10cb", "fusion_lon": 0.0, "bike_id": "c8b44457e5ce7da8fc994ed1498a10cb", "is_reserved": 0, "rental_uris": {"android": "https://dc.lft.to/lastmile_qr_scan", "ios": "https://dc.lft.to/lastmile_qr_scan"}, "lat": 38.9082975, "is_disabled": 0, "lon": -77.002185}, {"fusion_lat": 0.0, "type": "electric_scooter", "name": "7ad38b1416429540ddbdcf1852318ad0", "fusion_lon": 0.0, "bike_id": "7ad38b1416429540ddbdcf1852318ad0", "is_reserved": 0, "rental_uris": {"android": "https://dc.lft.to/lastmile_qr_scan", "ios": "https://dc.lft.to/lastmile_qr_scan"}, "lat": 38.937379666666665, "is_disabled": 0, "lon": -77.03622166666666}, {"fusion_lat": 0.0, "type": "electric_scooter", "name": "53a6ee6ec7f2b7800f8667a7f0e06ab2", "fusion_lon": 0.0, "bike_id": "53a6ee6ec7f2b7800f8667a7f0e06ab2", "is_reserved": 0, "rental_uris": {"android": "https://dc.lft.to/lastmile_qr_scan", "ios": "https://dc.lft.to/lastmile_qr_scan"}, "lat": 38.96721, "is_disabled": 0, "lon": -77.01852416666667}, {"fusion_lat": 0.0, "type": "electric_scooter", "name": "685baa41ab4086cc251ae980d2591231", "fusion_lon": 0.0, "bike_id": "685baa41ab4086cc251ae980d2591231", "is_reserved": 0, "rental_uris": {"android": "https://dc.lft.to/lastmile_qr_scan", "ios": "https://dc.lft.to/lastmile_qr_scan"}, "lat": 38.906541833333335, "is_disabled": 0, "lon": -77.0481835}, {"fusion_lat": 0.0, "type": "electric_scooter", "name": "fead3336d90657d73262676c2747e6f4", "fusion_lon": 0.0, "bike_id": "fead3336d90657d73262676c2747e6f4", "is_reserved": 0, "rental_uris": {"android": "https://dc.lft.to/lastmile_qr_scan", "ios": "https://dc.lft.to/lastmile_qr_scan"}, "lat": 38.940861, "is_disabled": 0, "lon": -77.027221}, {"fusion_lat": 0.0, "type": "electric_scooter", "name": "98668c3b70479b52a6d6ca4818975acc", "fusion_lon": 0.0, "bike_id": "98668c3b70479b52a6d6ca4818975acc", "is_reserved": 0, "rental_uris": {"android": "https://dc.lft.to/lastmile_qr_scan", "ios": "https://dc.lft.to/lastmile_qr_scan"}, "lat": 38.9003155, "is_disabled": 0, "lon": -76.999374}, {"fusion_lat": 0.0, "type": "electric_scooter", "name": "64323f25074c30016f6a70f8aa665dcf", "fusion_lon": 0.0, "bike_id": "64323f25074c30016f6a70f8aa665dcf", "is_reserved": 0, "rental_uris": {"android": "https://dc.lft.to/lastmile_qr_scan", "ios": "https://dc.lft.to/lastmile_qr_scan"}, "lat": 38.910573166666666, "is_disabled": 0, "lon": -77.02194533333333}, {"fusion_lat": 0.0, "type": "electric_scooter", "name": "75bddd0c37437231704938ce0d7a015c", "fusion_lon": 0.0, "bike_id": "75bddd0c37437231704938ce0d7a015c", "is_reserved": 0, "rental_uris": {"android": "https://dc.lft.to/lastmile_qr_scan", "ios": "https://dc.lft.to/lastmile_qr_scan"}, "lat": 38.904770666666664, "is_disabled": 0, "lon": -77.04352483333334}, {"fusion_lat": 0.0, "type": "electric_scooter", "name": "7e1be827ffb0564c314c5f4c52c520bf", "fusion_lon": 0.0, "bike_id": "7e1be827ffb0564c314c5f4c52c520bf", "is_reserved": 0, "rental_uris": {"android": "https://dc.lft.to/lastmile_qr_scan", "ios": "https://dc.lft.to/lastmile_qr_scan"}, "lat": 38.906749833333336, "is_disabled": 0, "lon": -77.03470416666667}, {"fusion_lat": 0.0, "type": "electric_scooter", "name": "cba8eb2b3164270c636d6ec2bead6025", "fusion_lon": 0.0, "bike_id": "cba8eb2b3164270c636d6ec2bead6025", "is_reserved": 0, "rental_uris": {"android": "https://dc.lft.to/lastmile_qr_scan", "ios": "https://dc.lft.to/lastmile_qr_scan"}, "lat": 38.892943333333335, "is_disabled": 0, "lon": -76.998196}, {"fusion_lat": 0.0, "type": "electric_scooter", "name": "d196b369a7f65f807a051ca57d6b05c2", "fusion_lon": 0.0, "bike_id": "d196b369a7f65f807a051ca57d6b05c2", "is_reserved": 0, "rental_uris": {"android": "https://dc.lft.to/lastmile_qr_scan", "ios": "https://dc.lft.to/lastmile_qr_scan"}, "lat": 38.886047166666664, "is_disabled": 0, "lon": -76.95589016666666}, {"fusion_lat": 0.0, "type": "electric_scooter", "name": "99e4fde688779e9d482fd91a62de4f67", "fusion_lon": 0.0, "bike_id": "99e4fde688779e9d482fd91a62de4f67", "is_reserved": 0, "rental_uris": {"android": "https://dc.lft.to/lastmile_qr_scan", "ios": "https://dc.lft.to/lastmile_qr_scan"}, "lat": 38.898102, "is_disabled": 0, "lon": -77.02488783333334}, {"fusion_lat": 0.0, "type": "electric_scooter", "name": "7b13705da280c5b2a8cf3b4a37ee1aba", "fusion_lon": 0.0, "bike_id": "7b13705da280c5b2a8cf3b4a37ee1aba", "is_reserved": 0, "rental_uris": {"android": "https://dc.lft.to/lastmile_qr_scan", "ios": "https://dc.lft.to/lastmile_qr_scan"}, "lat": 38.89428, "is_disabled": 0, "lon": -76.94880583333334}, {"fusion_lat": 0.0, "type": "electric_scooter", "name": "f63b5efdd96b2ba18a864f111a3afa4d", "fusion_lon": 0.0, "bike_id": "f63b5efdd96b2ba18a864f111a3afa4d", "is_reserved": 0, "rental_uris": {"android": "https://dc.lft.to/lastmile_qr_scan", "ios": "https://dc.lft.to/lastmile_qr_scan"}, "lat": 38.902419333333334, "is_disabled": 0, "lon": -77.02694316666667}, {"fusion_lat": 0.0, "type": "electric_scooter", "name": "1446d5e73ba9380bde0e39ea7d5d674e", "fusion_lon": 0.0, "bike_id": "1446d5e73ba9380bde0e39ea7d5d674e", "is_reserved": 0, "rental_uris": {"android": "https://dc.lft.to/lastmile_qr_scan", "ios": "https://dc.lft.to/lastmile_qr_scan"}, "lat": 38.95262116666667, "is_disabled": 0, "lon": -77.02565666666666}, {"fusion_lat": 0.0, "type": "electric_scooter", "name": "89e28baa6232a6d0084c30aaf5b20767", "fusion_lon": 0.0, "bike_id": "89e28baa6232a6d0084c30aaf5b20767", "is_reserved": 0, "rental_uris": {"android": "https://dc.lft.to/lastmile_qr_scan", "ios": "https://dc.lft.to/lastmile_qr_scan"}, "lat": 38.89364166666667, "is_disabled": 0, "lon": -77.05493066666666}, {"fusion_lat": 0.0, "type": "electric_scooter", "name": "cbc527090cd8b39a8f83e14232ad8ad8", "fusion_lon": 0.0, "bike_id": "cbc527090cd8b39a8f83e14232ad8ad8", "is_reserved": 0, "rental_uris": {"android": "https://dc.lft.to/lastmile_qr_scan", "ios": "https://dc.lft.to/lastmile_qr_scan"}, "lat": 38.90129666666667, "is_disabled": 0, "lon": -77.00252433333333}, {"fusion_lat": 0.0, "type": "electric_scooter", "name": "d039dfb566b494a33f7bbd98bbfbd19a", "fusion_lon": 0.0, "bike_id": "d039dfb566b494a33f7bbd98bbfbd19a", "is_reserved": 0, "rental_uris": {"android": "https://dc.lft.to/lastmile_qr_scan", "ios": "https://dc.lft.to/lastmile_qr_scan"}, "lat": 38.903146166666666, "is_disabled": 0, "lon": -77.04660683333333}, {"fusion_lat": 0.0, "type": "electric_scooter", "name": "2d7ff61ff2462353b56a093b703e1281", "fusion_lon": 0.0, "bike_id": "2d7ff61ff2462353b56a093b703e1281", "is_reserved": 0, "rental_uris": {"android": "https://dc.lft.to/lastmile_qr_scan", "ios": "https://dc.lft.to/lastmile_qr_scan"}, "lat": 38.94444816666667, "is_disabled": 0, "lon": -77.06024133333334}, {"fusion_lat": 0.0, "type": "electric_scooter", "name": "dd0b5f85eb16f2ec31131c8805052c91", "fusion_lon": 0.0, "bike_id": "dd0b5f85eb16f2ec31131c8805052c91", "is_reserved": 0, "rental_uris": {"android": "https://dc.lft.to/lastmile_qr_scan", "ios": "https://dc.lft.to/lastmile_qr_scan"}, "lat": 38.90725333333334, "is_disabled": 0, "lon": -77.03451933333334}, {"fusion_lat": 0.0, "type": "electric_scooter", "name": "31b572612a1a586cfeb2abf1bcf750ae", "fusion_lon": 0.0, "bike_id": "31b572612a1a586cfeb2abf1bcf750ae", "is_reserved": 0, "rental_uris": {"android": "https://dc.lft.to/lastmile_qr_scan", "ios": "https://dc.lft.to/lastmile_qr_scan"}, "lat": 38.9270945, "is_disabled": 0, "lon": -77.02388566666667}, {"fusion_lat": 0.0, "type": "electric_scooter", "name": "593f771bc2c76878dcf60a3e1a7a4d78", "fusion_lon": 0.0, "bike_id": "593f771bc2c76878dcf60a3e1a7a4d78", "is_reserved": 0, "rental_uris": {"android": "https://dc.lft.to/lastmile_qr_scan", "ios": "https://dc.lft.to/lastmile_qr_scan"}, "lat": 38.896593833333334, "is_disabled": 0, "lon": -77.0502265}, {"fusion_lat": 0.0, "type": "electric_scooter", "name": "21678b805b4032b5ff81169676221fc9", "fusion_lon": 0.0, "bike_id": "21678b805b4032b5ff81169676221fc9", "is_reserved": 0, "rental_uris": {"android": "https://dc.lft.to/lastmile_qr_scan", "ios": "https://dc.lft.to/lastmile_qr_scan"}, "lat": 38.924403833333336, "is_disabled": 0, "lon": -77.02130133333333}, {"fusion_lat": 0.0, "type": "electric_scooter", "name": "92f09470978c54210765b6641ee99bcc", "fusion_lon": 0.0, "bike_id": "92f09470978c54210765b6641ee99bcc", "is_reserved": 0, "rental_uris": {"android": "https://dc.lft.to/lastmile_qr_scan", "ios": "https://dc.lft.to/lastmile_qr_scan"}, "lat": 38.892197333333336, "is_disabled": 0, "lon": -77.032277}, {"fusion_lat": 0.0, "type": "electric_bike", "name": "79147193bd2d45fe680880f19228388c", "fusion_lon": 0.0, "bike_id": "79147193bd2d45fe680880f19228388c", "is_reserved": 0, "rental_uris": {"android": "https://dc.lft.to/lastmile_qr_scan", "ios": "https://dc.lft.to/lastmile_qr_scan"}, "lat": 38.96783766666667, "is_disabled": 0, "lon": -77.0003925}, {"fusion_lat": 0.0, "type": "electric_scooter", "name": "8c93b49506c8e011776486f541b2382c", "fusion_lon": 0.0, "bike_id": "8c93b49506c8e011776486f541b2382c", "is_reserved": 0, "rental_uris": {"android": "https://dc.lft.to/lastmile_qr_scan", "ios": "https://dc.lft.to/lastmile_qr_scan"}, "lat": 38.910809, "is_disabled": 0, "lon": -77.037271}, {"fusion_lat": 0.0, "type": "electric_scooter", "name": "b917ec5ff710b80c1d632f6faa71f4c9", "fusion_lon": 0.0, "bike_id": "b917ec5ff710b80c1d632f6faa71f4c9", "is_reserved": 0, "rental_uris": {"android": "https://dc.lft.to/lastmile_qr_scan", "ios": "https://dc.lft.to/lastmile_qr_scan"}, "lat": 38.917371, "is_disabled": 0, "lon": -77.02302983333334}, {"fusion_lat": 0.0, "type": "electric_scooter", "name": "910cdaeb58d09648b5b868e1fd6b9b67", "fusion_lon": 0.0, "bike_id": "910cdaeb58d09648b5b868e1fd6b9b67", "is_reserved": 0, "rental_uris": {"android": "https://dc.lft.to/lastmile_qr_scan", "ios": "https://dc.lft.to/lastmile_qr_scan"}, "lat": 38.90834733333333, "is_disabled": 0, "lon": -76.9969655}, {"fusion_lat": 0.0, "type": "electric_scooter", "name": "04eabcb5162cea2abc521b39ce67ec4c", "fusion_lon": 0.0, "bike_id": "04eabcb5162cea2abc521b39ce67ec4c", "is_reserved": 0, "rental_uris": {"android": "https://dc.lft.to/lastmile_qr_scan", "ios": "https://dc.lft.to/lastmile_qr_scan"}, "lat": 38.905404, "is_disabled": 0, "lon": -77.00571933333333}, {"fusion_lat": 0.0, "type": "electric_scooter", "name": "9cd3ce68139e20266460c70b3b335714", "fusion_lon": 0.0, "bike_id": "9cd3ce68139e20266460c70b3b335714", "is_reserved": 0, "rental_uris": {"android": "https://dc.lft.to/lastmile_qr_scan", "ios": "https://dc.lft.to/lastmile_qr_scan"}, "lat": 38.90924233333333, "is_disabled": 0, "lon": -77.03865533333334}, {"fusion_lat": 0.0, "type": "electric_scooter", "name": "52e5db2558510d9787f52388527158c7", "fusion_lon": 0.0, "bike_id": "52e5db2558510d9787f52388527158c7", "is_reserved": 0, "rental_uris": {"android": "https://dc.lft.to/lastmile_qr_scan", "ios": "https://dc.lft.to/lastmile_qr_scan"}, "lat": 38.892339666666665, "is_disabled": 0, "lon": -77.03207933333333}, {"fusion_lat": 0.0, "type": "electric_scooter", "name": "1a504bf9329c54c32d33dd68183ae5a6", "fusion_lon": 0.0, "bike_id": "1a504bf9329c54c32d33dd68183ae5a6", "is_reserved": 0, "rental_uris": {"android": "https://dc.lft.to/lastmile_qr_scan", "ios": "https://dc.lft.to/lastmile_qr_scan"}, "lat": 38.8852345, "is_disabled": 0, "lon": -77.02103283333334}, {"fusion_lat": 0.0, "type": "electric_scooter", "name": "31f8ef19d9cc341fb4765acb036d8274", "fusion_lon": 0.0, "bike_id": "31f8ef19d9cc341fb4765acb036d8274", "is_reserved": 0, "rental_uris": {"android": "https://dc.lft.to/lastmile_qr_scan", "ios": "https://dc.lft.to/lastmile_qr_scan"}, "lat": 38.905257, "is_disabled": 0, "lon": -77.06191333333334}, {"fusion_lat": 0.0, "type": "electric_scooter", "name": "300930cac7d45612204d93fc5adec74a", "fusion_lon": 0.0, "bike_id": "300930cac7d45612204d93fc5adec74a", "is_reserved": 0, "rental_uris": {"android": "https://dc.lft.to/lastmile_qr_scan", "ios": "https://dc.lft.to/lastmile_qr_scan"}, "lat": 38.904499333333334, "is_disabled": 0, "lon": -77.02710066666667}, {"fusion_lat": 0.0, "type": "electric_scooter", "name": "08135f4de3f3f67481cb95eaf09bf055", "fusion_lon": 0.0, "bike_id": "08135f4de3f3f67481cb95eaf09bf055", "is_reserved": 0, "rental_uris": {"android": "https://dc.lft.to/lastmile_qr_scan", "ios": "https://dc.lft.to/lastmile_qr_scan"}, "lat": 38.900345333333334, "is_disabled": 0, "lon": -76.98436533333333}, {"fusion_lat": 0.0, "type": "electric_scooter", "name": "9c68c90a7502480173e29773d2549246", "fusion_lon": 0.0, "bike_id": "9c68c90a7502480173e29773d2549246", "is_reserved": 0, "rental_uris": {"android": "https://dc.lft.to/lastmile_qr_scan", "ios": "https://dc.lft.to/lastmile_qr_scan"}, "lat": 38.884302, "is_disabled": 0, "lon": -77.0260545}, {"fusion_lat": 0.0, "type": "electric_scooter", "name": "8a027c179e27aa18b7e083a069fc154c", "fusion_lon": 0.0, "bike_id": "8a027c179e27aa18b7e083a069fc154c", "is_reserved": 0, "rental_uris": {"android": "https://dc.lft.to/lastmile_qr_scan", "ios": "https://dc.lft.to/lastmile_qr_scan"}, "lat": 38.9173745, "is_disabled": 0, "lon": -77.0319055}, {"fusion_lat": 0.0, "type": "electric_scooter", "name": "8857c61ad49f28cd1f730fbc1a45af30", "fusion_lon": 0.0, "bike_id": "8857c61ad49f28cd1f730fbc1a45af30", "is_reserved": 0, "rental_uris": {"android": "https://dc.lft.to/lastmile_qr_scan", "ios": "https://dc.lft.to/lastmile_qr_scan"}, "lat": 38.949884833333336, "is_disabled": 0, "lon": -77.02704133333333}, {"fusion_lat": 0.0, "type": "electric_scooter", "name": "34ba336b9dbb17d06e2516fdfee3aebf", "fusion_lon": 0.0, "bike_id": "34ba336b9dbb17d06e2516fdfee3aebf", "is_reserved": 0, "rental_uris": {"android": "https://dc.lft.to/lastmile_qr_scan", "ios": "https://dc.lft.to/lastmile_qr_scan"}, "lat": 38.9360935, "is_disabled": 0, "lon": -77.05886383333333}, {"fusion_lat": 0.0, "type": "electric_scooter", "name": "1e672e2ca2dc847ecb418397d213b654", "fusion_lon": 0.0, "bike_id": "1e672e2ca2dc847ecb418397d213b654", "is_reserved": 0, "rental_uris": {"android": "https://dc.lft.to/lastmile_qr_scan", "ios": "https://dc.lft.to/lastmile_qr_scan"}, "lat": 38.8861945, "is_disabled": 0, "lon": -77.01994716666667}, {"fusion_lat": 0.0, "type": "electric_scooter", "name": "f43a5f1376c8a3e2e72e50bd2960417c", "fusion_lon": 0.0, "bike_id": "f43a5f1376c8a3e2e72e50bd2960417c", "is_reserved": 0, "rental_uris": {"android": "https://dc.lft.to/lastmile_qr_scan", "ios": "https://dc.lft.to/lastmile_qr_scan"}, "lat": 38.911304666666666, "is_disabled": 0, "lon": -77.04415783333333}, {"fusion_lat": 0.0, "type": "electric_scooter", "name": "d997a599c250c0c3c36075c93fab44ae", "fusion_lon": 0.0, "bike_id": "d997a599c250c0c3c36075c93fab44ae", "is_reserved": 0, "rental_uris": {"android": "https://dc.lft.to/lastmile_qr_scan", "ios": "https://dc.lft.to/lastmile_qr_scan"}, "lat": 38.90530416666667, "is_disabled": 0, "lon": -77.05004933333333}, {"fusion_lat": 0.0, "type": "electric_scooter", "name": "a4afa22f53daa9901769bff0621e9f08", "fusion_lon": 0.0, "bike_id": "a4afa22f53daa9901769bff0621e9f08", "is_reserved": 0, "rental_uris": {"android": "https://dc.lft.to/lastmile_qr_scan", "ios": "https://dc.lft.to/lastmile_qr_scan"}, "lat": 38.899122, "is_disabled": 0, "lon": -77.03280833333334}, {"fusion_lat": 0.0, "type": "electric_scooter", "name": "dbd0e397f4440a5a1dae601895785ab2", "fusion_lon": 0.0, "bike_id": "dbd0e397f4440a5a1dae601895785ab2", "is_reserved": 0, "rental_uris": {"android": "https://dc.lft.to/lastmile_qr_scan", "ios": "https://dc.lft.to/lastmile_qr_scan"}, "lat": 38.8968075, "is_disabled": 0, "lon": -76.9477265}, {"fusion_lat": 0.0, "type": "electric_bike", "name": "a09dbe93e0917060857f936120085072", "fusion_lon": 0.0, "bike_id": "a09dbe93e0917060857f936120085072", "is_reserved": 0, "rental_uris": {"android": "https://dc.lft.to/lastmile_qr_scan", "ios": "https://dc.lft.to/lastmile_qr_scan"}, "lat": 38.957629833333336, "is_disabled": 0, "lon": -77.00708083333333}, {"fusion_lat": 0.0, "type": "electric_scooter", "name": "81e475bbf2dcb9db2a208221c5026bd1", "fusion_lon": 0.0, "bike_id": "81e475bbf2dcb9db2a208221c5026bd1", "is_reserved": 0, "rental_uris": {"android": "https://dc.lft.to/lastmile_qr_scan", "ios": "https://dc.lft.to/lastmile_qr_scan"}, "lat": 38.865068, "is_disabled": 0, "lon": -76.98999966666666}, {"fusion_lat": 0.0, "type": "electric_scooter", "name": "ed3eed20f007f5a254cea25a49d61f7b", "fusion_lon": 0.0, "bike_id": "ed3eed20f007f5a254cea25a49d61f7b", "is_reserved": 0, "rental_uris": {"android": "https://dc.lft.to/lastmile_qr_scan", "ios": "https://dc.lft.to/lastmile_qr_scan"}, "lat": 38.91680183333333, "is_disabled": 0, "lon": -77.0297015}, {"fusion_lat": 0.0, "type": "electric_scooter", "name": "d912430a84985bf83c9d7ba305de61bd", "fusion_lon": 0.0, "bike_id": "d912430a84985bf83c9d7ba305de61bd", "is_reserved": 0, "rental_uris": {"android": "https://dc.lft.to/lastmile_qr_scan", "ios": "https://dc.lft.to/lastmile_qr_scan"}, "lat": 38.89877633333333, "is_disabled": 0, "lon": -76.9318945}, {"fusion_lat": 0.0, "type": "electric_scooter", "name": "6b510f084b6a3f74f6a9df8992aafe1c", "fusion_lon": 0.0, "bike_id": "6b510f084b6a3f74f6a9df8992aafe1c", "is_reserved": 0, "rental_uris": {"android": "https://dc.lft.to/lastmile_qr_scan", "ios": "https://dc.lft.to/lastmile_qr_scan"}, "lat": 38.92510433333333, "is_disabled": 0, "lon": -77.00223883333334}, {"fusion_lat": 0.0, "type": "electric_scooter", "name": "9102346108f2bec021d704c8e8561f58", "fusion_lon": 0.0, "bike_id": "9102346108f2bec021d704c8e8561f58", "is_reserved": 0, "rental_uris": {"android": "https://dc.lft.to/lastmile_qr_scan", "ios": "https://dc.lft.to/lastmile_qr_scan"}, "lat": 38.871899166666665, "is_disabled": 0, "lon": -77.00583916666666}, {"fusion_lat": 0.0, "type": "electric_scooter", "name": "8f6da92b9a073e92eb023249fb5f3d8a", "fusion_lon": 0.0, "bike_id": "8f6da92b9a073e92eb023249fb5f3d8a", "is_reserved": 0, "rental_uris": {"android": "https://dc.lft.to/lastmile_qr_scan", "ios": "https://dc.lft.to/lastmile_qr_scan"}, "lat": 38.941996333333336, "is_disabled": 0, "lon": -77.02505766666667}, {"fusion_lat": 0.0, "type": "electric_scooter", "name": "1a008e2b24d324de93af3ae9fccc1147", "fusion_lon": 0.0, "bike_id": "1a008e2b24d324de93af3ae9fccc1147", "is_reserved": 0, "rental_uris": {"android": "https://dc.lft.to/lastmile_qr_scan", "ios": "https://dc.lft.to/lastmile_qr_scan"}, "lat": 38.8922075, "is_disabled": 0, "lon": -77.02346066666667}, {"fusion_lat": 0.0, "type": "electric_scooter", "name": "57fc1aa5221bba0d9a748588436cb328", "fusion_lon": 0.0, "bike_id": "57fc1aa5221bba0d9a748588436cb328", "is_reserved": 0, "rental_uris": {"android": "https://dc.lft.to/lastmile_qr_scan", "ios": "https://dc.lft.to/lastmile_qr_scan"}, "lat": 38.86571433333334, "is_disabled": 0, "lon": -76.99033366666667}, {"fusion_lat": 0.0, "type": "electric_scooter", "name": "b184df9251850daaf19494c9e7e24d96", "fusion_lon": 0.0, "bike_id": "b184df9251850daaf19494c9e7e24d96", "is_reserved": 0, "rental_uris": {"android": "https://dc.lft.to/lastmile_qr_scan", "ios": "https://dc.lft.to/lastmile_qr_scan"}, "lat": 38.879893833333334, "is_disabled": 0, "lon": -77.00539966666666}, {"fusion_lat": 0.0, "type": "electric_scooter", "name": "271dba8a1a89316f0fd862c40affe29d", "fusion_lon": 0.0, "bike_id": "271dba8a1a89316f0fd862c40affe29d", "is_reserved": 0, "rental_uris": {"android": "https://dc.lft.to/lastmile_qr_scan", "ios": "https://dc.lft.to/lastmile_qr_scan"}, "lat": 38.9241435, "is_disabled": 0, "lon": -77.01934883333334}, {"fusion_lat": 0.0, "type": "electric_scooter", "name": "48f004a871d371ef2cbec328b72b52d2", "fusion_lon": 0.0, "bike_id": "48f004a871d371ef2cbec328b72b52d2", "is_reserved": 0, "rental_uris": {"android": "https://dc.lft.to/lastmile_qr_scan", "ios": "https://dc.lft.to/lastmile_qr_scan"}, "lat": 38.915263833333334, "is_disabled": 0, "lon": -77.04618233333333}, {"fusion_lat": 0.0, "type": "electric_scooter", "name": "5685e3d23f7371bc392b544c87787e5b", "fusion_lon": 0.0, "bike_id": "5685e3d23f7371bc392b544c87787e5b", "is_reserved": 0, "rental_uris": {"android": "https://dc.lft.to/lastmile_qr_scan", "ios": "https://dc.lft.to/lastmile_qr_scan"}, "lat": 38.900177, "is_disabled": 0, "lon": -77.018578}, {"fusion_lat": 0.0, "type": "electric_scooter", "name": "411e0b3cf82dd784d8e89fec2a9d3012", "fusion_lon": 0.0, "bike_id": "411e0b3cf82dd784d8e89fec2a9d3012", "is_reserved": 0, "rental_uris": {"android": "https://dc.lft.to/lastmile_qr_scan", "ios": "https://dc.lft.to/lastmile_qr_scan"}, "lat": 38.95710066666667, "is_disabled": 0, "lon": -77.002841}, {"fusion_lat": 0.0, "type": "electric_scooter", "name": "cb538c374233ac694cbfb46beb56856f", "fusion_lon": 0.0, "bike_id": "cb538c374233ac694cbfb46beb56856f", "is_reserved": 0, "rental_uris": {"android": "https://dc.lft.to/lastmile_qr_scan", "ios": "https://dc.lft.to/lastmile_qr_scan"}, "lat": 38.89828766666667, "is_disabled": 0, "lon": -77.03305383333333}, {"fusion_lat": 0.0, "type": "electric_scooter", "name": "54897c0b0b5f8c0db57c84df48cc71dc", "fusion_lon": 0.0, "bike_id": "54897c0b0b5f8c0db57c84df48cc71dc", "is_reserved": 0, "rental_uris": {"android": "https://dc.lft.to/lastmile_qr_scan", "ios": "https://dc.lft.to/lastmile_qr_scan"}, "lat": 38.904968, "is_disabled": 0, "lon": -77.04360766666667}, {"fusion_lat": 0.0, "type": "electric_scooter", "name": "b487e62d2f96aa26dba9d99998bf4aa8", "fusion_lon": 0.0, "bike_id": "b487e62d2f96aa26dba9d99998bf4aa8", "is_reserved": 0, "rental_uris": {"android": "https://dc.lft.to/lastmile_qr_scan", "ios": "https://dc.lft.to/lastmile_qr_scan"}, "lat": 38.892439333333336, "is_disabled": 0, "lon": -77.01726033333334}, {"fusion_lat": 0.0, "type": "electric_scooter", "name": "327d4bbc25714c53438936f9582edb54", "fusion_lon": 0.0, "bike_id": "327d4bbc25714c53438936f9582edb54", "is_reserved": 0, "rental_uris": {"android": "https://dc.lft.to/lastmile_qr_scan", "ios": "https://dc.lft.to/lastmile_qr_scan"}, "lat": 38.876877, "is_disabled": 0, "lon": -77.017568}, {"fusion_lat": 0.0, "type": "electric_scooter", "name": "81705ece4a0ee205ee1d28c7143c423a", "fusion_lon": 0.0, "bike_id": "81705ece4a0ee205ee1d28c7143c423a", "is_reserved": 0, "rental_uris": {"android": "https://dc.lft.to/lastmile_qr_scan", "ios": "https://dc.lft.to/lastmile_qr_scan"}, "lat": 38.872361, "is_disabled": 0, "lon": -77.01186316666667}, {"fusion_lat": 0.0, "type": "electric_scooter", "name": "233b0e00a2e1b8aa73e0f050b6d9b160", "fusion_lon": 0.0, "bike_id": "233b0e00a2e1b8aa73e0f050b6d9b160", "is_reserved": 0, "rental_uris": {"android": "https://dc.lft.to/lastmile_qr_scan", "ios": "https://dc.lft.to/lastmile_qr_scan"}, "lat": 38.912576666666666, "is_disabled": 0, "lon": -77.01117133333334}, {"fusion_lat": 0.0, "type": "electric_scooter", "name": "2abbb09384c4139947aa776803de13bc", "fusion_lon": 0.0, "bike_id": "2abbb09384c4139947aa776803de13bc", "is_reserved": 0, "rental_uris": {"android": "https://dc.lft.to/lastmile_qr_scan", "ios": "https://dc.lft.to/lastmile_qr_scan"}, "lat": 38.8936465, "is_disabled": 0, "lon": -77.047816}, {"fusion_lat": 0.0, "type": "electric_scooter", "name": "714fed16bd69bb49698c866e093ecbe5", "fusion_lon": 0.0, "bike_id": "714fed16bd69bb49698c866e093ecbe5", "is_reserved": 0, "rental_uris": {"android": "https://dc.lft.to/lastmile_qr_scan", "ios": "https://dc.lft.to/lastmile_qr_scan"}, "lat": 38.9036755, "is_disabled": 0, "lon": -77.04338033333333}, {"fusion_lat": 0.0, "type": "electric_scooter", "name": "2a0a5b5d28d2844fa507d5cfb70a2e0c", "fusion_lon": 0.0, "bike_id": "2a0a5b5d28d2844fa507d5cfb70a2e0c", "is_reserved": 0, "rental_uris": {"android": "https://dc.lft.to/lastmile_qr_scan", "ios": "https://dc.lft.to/lastmile_qr_scan"}, "lat": 38.9247445, "is_disabled": 0, "lon": -77.022713}, {"fusion_lat": 0.0, "type": "electric_scooter", "name": "a92ff897ba93cc584de9dc281405dc3c", "fusion_lon": 0.0, "bike_id": "a92ff897ba93cc584de9dc281405dc3c", "is_reserved": 0, "rental_uris": {"android": "https://dc.lft.to/lastmile_qr_scan", "ios": "https://dc.lft.to/lastmile_qr_scan"}, "lat": 38.87927716666667, "is_disabled": 0, "lon": -77.00528383333334}, {"fusion_lat": 0.0, "type": "electric_scooter", "name": "91af6c91a368a203a29ac5fe6b4de7d8", "fusion_lon": 0.0, "bike_id": "91af6c91a368a203a29ac5fe6b4de7d8", "is_reserved": 0, "rental_uris": {"android": "https://dc.lft.to/lastmile_qr_scan", "ios": "https://dc.lft.to/lastmile_qr_scan"}, "lat": 38.912569833333336, "is_disabled": 0, "lon": -77.03069333333333}, {"fusion_lat": 0.0, "type": "electric_scooter", "name": "2aee1fd41e8013ef521d91e0bf897c61", "fusion_lon": 0.0, "bike_id": "2aee1fd41e8013ef521d91e0bf897c61", "is_reserved": 0, "rental_uris": {"android": "https://dc.lft.to/lastmile_qr_scan", "ios": "https://dc.lft.to/lastmile_qr_scan"}, "lat": 38.8922745, "is_disabled": 0, "lon": -77.03106533333333}, {"fusion_lat": 0.0, "type": "electric_scooter", "name": "b154230d2ab26552d34067111c9d440d", "fusion_lon": 0.0, "bike_id": "b154230d2ab26552d34067111c9d440d", "is_reserved": 0, "rental_uris": {"android": "https://dc.lft.to/lastmile_qr_scan", "ios": "https://dc.lft.to/lastmile_qr_scan"}, "lat": 38.949041666666666, "is_disabled": 0, "lon": -77.02073266666666}, {"fusion_lat": 0.0, "type": "electric_scooter", "name": "fbdeac1af8f2aac2a35fe96c8c9c18f0", "fusion_lon": 0.0, "bike_id": "fbdeac1af8f2aac2a35fe96c8c9c18f0", "is_reserved": 0, "rental_uris": {"android": "https://dc.lft.to/lastmile_qr_scan", "ios": "https://dc.lft.to/lastmile_qr_scan"}, "lat": 38.91121, "is_disabled": 0, "lon": -77.00330133333334}, {"fusion_lat": 0.0, "type": "electric_scooter", "name": "7d3305d94920d3f56ab1df796b3e1438", "fusion_lon": 0.0, "bike_id": "7d3305d94920d3f56ab1df796b3e1438", "is_reserved": 0, "rental_uris": {"android": "https://dc.lft.to/lastmile_qr_scan", "ios": "https://dc.lft.to/lastmile_qr_scan"}, "lat": 38.900448833333336, "is_disabled": 0, "lon": -76.99847083333333}, {"fusion_lat": 0.0, "type": "electric_scooter", "name": "618e525606fc763915c92e446e816115", "fusion_lon": 0.0, "bike_id": "618e525606fc763915c92e446e816115", "is_reserved": 0, "rental_uris": {"android": "https://dc.lft.to/lastmile_qr_scan", "ios": "https://dc.lft.to/lastmile_qr_scan"}, "lat": 38.908687, "is_disabled": 0, "lon": -77.0376325}, {"fusion_lat": 0.0, "type": "electric_scooter", "name": "19bb2f87cc8118ebfe06d0b144f976cd", "fusion_lon": 0.0, "bike_id": "19bb2f87cc8118ebfe06d0b144f976cd", "is_reserved": 0, "rental_uris": {"android": "https://dc.lft.to/lastmile_qr_scan", "ios": "https://dc.lft.to/lastmile_qr_scan"}, "lat": 38.922198333333334, "is_disabled": 0, "lon": -77.04245916666666}, {"fusion_lat": 0.0, "type": "electric_scooter", "name": "e0c7d6696e70e5b10d6e863f35fc8366", "fusion_lon": 0.0, "bike_id": "e0c7d6696e70e5b10d6e863f35fc8366", "is_reserved": 0, "rental_uris": {"android": "https://dc.lft.to/lastmile_qr_scan", "ios": "https://dc.lft.to/lastmile_qr_scan"}, "lat": 38.93299616666667, "is_disabled": 0, "lon": -77.08543066666667}, {"fusion_lat": 0.0, "type": "electric_scooter", "name": "4a5fbb1cade3383178c46df62497a06d", "fusion_lon": 0.0, "bike_id": "4a5fbb1cade3383178c46df62497a06d", "is_reserved": 0, "rental_uris": {"android": "https://dc.lft.to/lastmile_qr_scan", "ios": "https://dc.lft.to/lastmile_qr_scan"}, "lat": 38.871851166666666, "is_disabled": 0, "lon": -77.00587966666667}, {"fusion_lat": 0.0, "type": "electric_scooter", "name": "666c3f4d94d078d04bf8a814d378deec", "fusion_lon": 0.0, "bike_id": "666c3f4d94d078d04bf8a814d378deec", "is_reserved": 0, "rental_uris": {"android": "https://dc.lft.to/lastmile_qr_scan", "ios": "https://dc.lft.to/lastmile_qr_scan"}, "lat": 38.902721166666666, "is_disabled": 0, "lon": -77.01743683333333}, {"fusion_lat": 0.0, "type": "electric_scooter", "name": "d6f762aa9b32f01bed213501fe703b6b", "fusion_lon": 0.0, "bike_id": "d6f762aa9b32f01bed213501fe703b6b", "is_reserved": 0, "rental_uris": {"android": "https://dc.lft.to/lastmile_qr_scan", "ios": "https://dc.lft.to/lastmile_qr_scan"}, "lat": 38.885501166666664, "is_disabled": 0, "lon": -77.02003466666666}, {"fusion_lat": 0.0, "type": "electric_scooter", "name": "ba2f34c36e738047c67bae4db9336101", "fusion_lon": 0.0, "bike_id": "ba2f34c36e738047c67bae4db9336101", "is_reserved": 0, "rental_uris": {"android": "https://dc.lft.to/lastmile_qr_scan", "ios": "https://dc.lft.to/lastmile_qr_scan"}, "lat": 38.9125705, "is_disabled": 0, "lon": -77.02685333333334}, {"fusion_lat": 0.0, "type": "electric_scooter", "name": "6084ce4c60960dfc23df4399102a38ea", "fusion_lon": 0.0, "bike_id": "6084ce4c60960dfc23df4399102a38ea", "is_reserved": 0, "rental_uris": {"android": "https://dc.lft.to/lastmile_qr_scan", "ios": "https://dc.lft.to/lastmile_qr_scan"}, "lat": 38.89963566666667, "is_disabled": 0, "lon": -77.03342516666666}, {"fusion_lat": 0.0, "type": "electric_scooter", "name": "27218bc844df91baa87a14b8eec0c7f0", "fusion_lon": 0.0, "bike_id": "27218bc844df91baa87a14b8eec0c7f0", "is_reserved": 0, "rental_uris": {"android": "https://dc.lft.to/lastmile_qr_scan", "ios": "https://dc.lft.to/lastmile_qr_scan"}, "lat": 38.892203, "is_disabled": 0, "lon": -77.04308333333333}, {"fusion_lat": 0.0, "type": "electric_scooter", "name": "107129b001c5a902fa825d3c949dddae", "fusion_lon": 0.0, "bike_id": "107129b001c5a902fa825d3c949dddae", "is_reserved": 0, "rental_uris": {"android": "https://dc.lft.to/lastmile_qr_scan", "ios": "https://dc.lft.to/lastmile_qr_scan"}, "lat": 38.89471733333333, "is_disabled": 0, "lon": -77.0307175}, {"fusion_lat": 0.0, "type": "electric_scooter", "name": "6abd1253b8e8a1bfb9075a21d90b6ea4", "fusion_lon": 0.0, "bike_id": "6abd1253b8e8a1bfb9075a21d90b6ea4", "is_reserved": 0, "rental_uris": {"android": "https://dc.lft.to/lastmile_qr_scan", "ios": "https://dc.lft.to/lastmile_qr_scan"}, "lat": 38.885089, "is_disabled": 0, "lon": -77.02022316666667}, {"fusion_lat": 0.0, "type": "electric_scooter", "name": "c06f7231663019d7ea83e1e736c916b7", "fusion_lon": 0.0, "bike_id": "c06f7231663019d7ea83e1e736c916b7", "is_reserved": 0, "rental_uris": {"android": "https://dc.lft.to/lastmile_qr_scan", "ios": "https://dc.lft.to/lastmile_qr_scan"}, "lat": 38.865556166666664, "is_disabled": 0, "lon": -76.98875583333333}, {"fusion_lat": 0.0, "type": "electric_scooter", "name": "3431d03df51578ff42c135a94e32ab73", "fusion_lon": 0.0, "bike_id": "3431d03df51578ff42c135a94e32ab73", "is_reserved": 0, "rental_uris": {"android": "https://dc.lft.to/lastmile_qr_scan", "ios": "https://dc.lft.to/lastmile_qr_scan"}, "lat": 38.90725966666667, "is_disabled": 0, "lon": -77.03470033333333}, {"fusion_lat": 0.0, "type": "electric_scooter", "name": "adc6f1c5d53f668f99a8619700c18383", "fusion_lon": 0.0, "bike_id": "adc6f1c5d53f668f99a8619700c18383", "is_reserved": 0, "rental_uris": {"android": "https://dc.lft.to/lastmile_qr_scan", "ios": "https://dc.lft.to/lastmile_qr_scan"}, "lat": 38.942037, "is_disabled": 0, "lon": -77.02512683333333}, {"fusion_lat": 0.0, "type": "electric_scooter", "name": "46d530ddb5b56436e644d6ba0cb6d58d", "fusion_lon": 0.0, "bike_id": "46d530ddb5b56436e644d6ba0cb6d58d", "is_reserved": 0, "rental_uris": {"android": "https://dc.lft.to/lastmile_qr_scan", "ios": "https://dc.lft.to/lastmile_qr_scan"}, "lat": 38.91152366666667, "is_disabled": 0, "lon": -77.04343433333334}, {"fusion_lat": 0.0, "type": "electric_scooter", "name": "8cd4b6d59cff81215b60ba1842a285b6", "fusion_lon": 0.0, "bike_id": "8cd4b6d59cff81215b60ba1842a285b6", "is_reserved": 0, "rental_uris": {"android": "https://dc.lft.to/lastmile_qr_scan", "ios": "https://dc.lft.to/lastmile_qr_scan"}, "lat": 38.89225866666666, "is_disabled": 0, "lon": -77.02175816666667}, {"fusion_lat": 0.0, "type": "electric_scooter", "name": "d22875e08532c7c6208ab5a8f9b23388", "fusion_lon": 0.0, "bike_id": "d22875e08532c7c6208ab5a8f9b23388", "is_reserved": 0, "rental_uris": {"android": "https://dc.lft.to/lastmile_qr_scan", "ios": "https://dc.lft.to/lastmile_qr_scan"}, "lat": 38.923366, "is_disabled": 0, "lon": -77.01959266666667}, {"fusion_lat": 0.0, "type": "electric_scooter", "name": "455cea90ff438458ee3caa79005b1d19", "fusion_lon": 0.0, "bike_id": "455cea90ff438458ee3caa79005b1d19", "is_reserved": 0, "rental_uris": {"android": "https://dc.lft.to/lastmile_qr_scan", "ios": "https://dc.lft.to/lastmile_qr_scan"}, "lat": 38.9189285, "is_disabled": 0, "lon": -77.029689}, {"fusion_lat": 0.0, "type": "electric_scooter", "name": "66359c2eea7aec280f5b79ac7013696d", "fusion_lon": 0.0, "bike_id": "66359c2eea7aec280f5b79ac7013696d", "is_reserved": 0, "rental_uris": {"android": "https://dc.lft.to/lastmile_qr_scan", "ios": "https://dc.lft.to/lastmile_qr_scan"}, "lat": 38.9198695, "is_disabled": 0, "lon": -77.03325066666666}, {"fusion_lat": 0.0, "type": "electric_scooter", "name": "a8de1ba35fb788f74863ba70f4c65aeb", "fusion_lon": 0.0, "bike_id": "a8de1ba35fb788f74863ba70f4c65aeb", "is_reserved": 0, "rental_uris": {"android": "https://dc.lft.to/lastmile_qr_scan", "ios": "https://dc.lft.to/lastmile_qr_scan"}, "lat": 38.892300666666664, "is_disabled": 0, "lon": -77.031875}, {"fusion_lat": 0.0, "type": "electric_scooter", "name": "e339f332ffc04ca62ed0908a4aecc499", "fusion_lon": 0.0, "bike_id": "e339f332ffc04ca62ed0908a4aecc499", "is_reserved": 0, "rental_uris": {"android": "https://dc.lft.to/lastmile_qr_scan", "ios": "https://dc.lft.to/lastmile_qr_scan"}, "lat": 38.90103216666667, "is_disabled": 0, "lon": -77.031779}, {"fusion_lat": 0.0, "type": "electric_scooter", "name": "a8539e81a168d96d826e0a30277d7088", "fusion_lon": 0.0, "bike_id": "a8539e81a168d96d826e0a30277d7088", "is_reserved": 0, "rental_uris": {"android": "https://dc.lft.to/lastmile_qr_scan", "ios": "https://dc.lft.to/lastmile_qr_scan"}, "lat": 38.93043816666667, "is_disabled": 0, "lon": -77.03789166666667}, {"fusion_lat": 0.0, "type": "electric_scooter", "name": "6b1fc484c746280e106f86c79e6419bd", "fusion_lon": 0.0, "bike_id": "6b1fc484c746280e106f86c79e6419bd", "is_reserved": 0, "rental_uris": {"android": "https://dc.lft.to/lastmile_qr_scan", "ios": "https://dc.lft.to/lastmile_qr_scan"}, "lat": 38.92442166666667, "is_disabled": 0, "lon": -77.03997016666666}, {"fusion_lat": 0.0, "type": "electric_scooter", "name": "4646cf2e72c63d59d6b1273cdb1011fb", "fusion_lon": 0.0, "bike_id": "4646cf2e72c63d59d6b1273cdb1011fb", "is_reserved": 0, "rental_uris": {"android": "https://dc.lft.to/lastmile_qr_scan", "ios": "https://dc.lft.to/lastmile_qr_scan"}, "lat": 38.908264, "is_disabled": 0, "lon": -77.03970666666666}, {"fusion_lat": 0.0, "type": "electric_scooter", "name": "9fe3bb74c2095f3196b20bda4c300926", "fusion_lon": 0.0, "bike_id": "9fe3bb74c2095f3196b20bda4c300926", "is_reserved": 0, "rental_uris": {"android": "https://dc.lft.to/lastmile_qr_scan", "ios": "https://dc.lft.to/lastmile_qr_scan"}, "lat": 38.919492166666664, "is_disabled": 0, "lon": -76.9807825}, {"fusion_lat": 0.0, "type": "electric_scooter", "name": "bca4fe8a28c80292d49cdf61b2eb1ed1", "fusion_lon": 0.0, "bike_id": "bca4fe8a28c80292d49cdf61b2eb1ed1", "is_reserved": 0, "rental_uris": {"android": "https://dc.lft.to/lastmile_qr_scan", "ios": "https://dc.lft.to/lastmile_qr_scan"}, "lat": 38.93416333333333, "is_disabled": 0, "lon": -77.039926}, {"fusion_lat": 0.0, "type": "electric_scooter", "name": "40f2efa9f19c5346a15473c021e586c5", "fusion_lon": 0.0, "bike_id": "40f2efa9f19c5346a15473c021e586c5", "is_reserved": 0, "rental_uris": {"android": "https://dc.lft.to/lastmile_qr_scan", "ios": "https://dc.lft.to/lastmile_qr_scan"}, "lat": 38.935242, "is_disabled": 0, "lon": -77.07289716666666}, {"fusion_lat": 0.0, "type": "electric_scooter", "name": "784ff07fc0a5c1ba79036ff60e5d5dac", "fusion_lon": 0.0, "bike_id": "784ff07fc0a5c1ba79036ff60e5d5dac", "is_reserved": 0, "rental_uris": {"android": "https://dc.lft.to/lastmile_qr_scan", "ios": "https://dc.lft.to/lastmile_qr_scan"}, "lat": 38.914923333333334, "is_disabled": 0, "lon": -77.04394483333333}, {"fusion_lat": 0.0, "type": "electric_scooter", "name": "2aac05045de0dfc57c419f41157a69eb", "fusion_lon": 0.0, "bike_id": "2aac05045de0dfc57c419f41157a69eb", "is_reserved": 0, "rental_uris": {"android": "https://dc.lft.to/lastmile_qr_scan", "ios": "https://dc.lft.to/lastmile_qr_scan"}, "lat": 38.9061415, "is_disabled": 0, "lon": -77.0417685}, {"fusion_lat": 0.0, "type": "electric_scooter", "name": "7f9a7628a97cac80eb4aac4b36ea907d", "fusion_lon": 0.0, "bike_id": "7f9a7628a97cac80eb4aac4b36ea907d", "is_reserved": 0, "rental_uris": {"android": "https://dc.lft.to/lastmile_qr_scan", "ios": "https://dc.lft.to/lastmile_qr_scan"}, "lat": 38.9055525, "is_disabled": 0, "lon": -77.04704083333333}, {"fusion_lat": 0.0, "type": "electric_scooter", "name": "8009221ef0b3be169e711fbc3e5e3d1b", "fusion_lon": 0.0, "bike_id": "8009221ef0b3be169e711fbc3e5e3d1b", "is_reserved": 0, "rental_uris": {"android": "https://dc.lft.to/lastmile_qr_scan", "ios": "https://dc.lft.to/lastmile_qr_scan"}, "lat": 38.90844533333333, "is_disabled": 0, "lon": -77.0424765}, {"fusion_lat": 0.0, "type": "electric_scooter", "name": "e20906549e9852af92e73ef225e48d99", "fusion_lon": 0.0, "bike_id": "e20906549e9852af92e73ef225e48d99", "is_reserved": 0, "rental_uris": {"android": "https://dc.lft.to/lastmile_qr_scan", "ios": "https://dc.lft.to/lastmile_qr_scan"}, "lat": 38.92487933333334, "is_disabled": 0, "lon": -77.02222216666667}, {"fusion_lat": 0.0, "type": "electric_bike", "name": "a7aa5f22a736b9864f6fba9e4fcdb2e3", "fusion_lon": 0.0, "bike_id": "a7aa5f22a736b9864f6fba9e4fcdb2e3", "is_reserved": 0, "rental_uris": {"android": "https://dc.lft.to/lastmile_qr_scan", "ios": "https://dc.lft.to/lastmile_qr_scan"}, "lat": 38.896523333333334, "is_disabled": 0, "lon": -76.9301075}, {"fusion_lat": 0.0, "type": "electric_scooter", "name": "a0039c13b2530337276f053aaf082c78", "fusion_lon": 0.0, "bike_id": "a0039c13b2530337276f053aaf082c78", "is_reserved": 0, "rental_uris": {"android": "https://dc.lft.to/lastmile_qr_scan", "ios": "https://dc.lft.to/lastmile_qr_scan"}, "lat": 38.8860955, "is_disabled": 0, "lon": -76.9951145}, {"fusion_lat": 0.0, "type": "electric_scooter", "name": "d6cdec57578a1683e021e07e6a46f7c8", "fusion_lon": 0.0, "bike_id": "d6cdec57578a1683e021e07e6a46f7c8", "is_reserved": 0, "rental_uris": {"android": "https://dc.lft.to/lastmile_qr_scan", "ios": "https://dc.lft.to/lastmile_qr_scan"}, "lat": 38.92447833333333, "is_disabled": 0, "lon": -77.05752333333334}, {"fusion_lat": 0.0, "type": "electric_scooter", "name": "9c92eac7bb32643cfd30caed69227439", "fusion_lon": 0.0, "bike_id": "9c92eac7bb32643cfd30caed69227439", "is_reserved": 0, "rental_uris": {"android": "https://dc.lft.to/lastmile_qr_scan", "ios": "https://dc.lft.to/lastmile_qr_scan"}, "lat": 38.912788166666665, "is_disabled": 0, "lon": -77.0475535}, {"fusion_lat": 0.0, "type": "electric_scooter", "name": "01748ebb860bcb43567e3784a63d992d", "fusion_lon": 0.0, "bike_id": "01748ebb860bcb43567e3784a63d992d", "is_reserved": 0, "rental_uris": {"android": "https://dc.lft.to/lastmile_qr_scan", "ios": "https://dc.lft.to/lastmile_qr_scan"}, "lat": 38.90557183333333, "is_disabled": 0, "lon": -77.0058825}, {"fusion_lat": 0.0, "type": "electric_scooter", "name": "7daf5347b899a754b9d346ff7540d737", "fusion_lon": 0.0, "bike_id": "7daf5347b899a754b9d346ff7540d737", "is_reserved": 0, "rental_uris": {"android": "https://dc.lft.to/lastmile_qr_scan", "ios": "https://dc.lft.to/lastmile_qr_scan"}, "lat": 38.912756333333334, "is_disabled": 0, "lon": -77.04418533333333}, {"fusion_lat": 0.0, "type": "electric_scooter", "name": "962fee501a3841a258eea279ef97a12c", "fusion_lon": 0.0, "bike_id": "962fee501a3841a258eea279ef97a12c", "is_reserved": 0, "rental_uris": {"android": "https://dc.lft.to/lastmile_qr_scan", "ios": "https://dc.lft.to/lastmile_qr_scan"}, "lat": 38.897307, "is_disabled": 0, "lon": -77.05477933333333}, {"fusion_lat": 0.0, "type": "electric_bike", "name": "d2f57723fcd5813692c7d714c68c58e4", "fusion_lon": 0.0, "bike_id": "d2f57723fcd5813692c7d714c68c58e4", "is_reserved": 0, "rental_uris": {"android": "https://dc.lft.to/lastmile_qr_scan", "ios": "https://dc.lft.to/lastmile_qr_scan"}, "lat": 39.057860833333336, "is_disabled": 0, "lon": -77.15016983333334}, {"fusion_lat": 0.0, "type": "electric_scooter", "name": "1873a0979664788f991212ce3f9a699c", "fusion_lon": 0.0, "bike_id": "1873a0979664788f991212ce3f9a699c", "is_reserved": 0, "rental_uris": {"android": "https://dc.lft.to/lastmile_qr_scan", "ios": "https://dc.lft.to/lastmile_qr_scan"}, "lat": 38.9028, "is_disabled": 0, "lon": -77.045999}, {"fusion_lat": 0.0, "type": "electric_scooter", "name": "2150801977ab02c5a2333c645306c766", "fusion_lon": 0.0, "bike_id": "2150801977ab02c5a2333c645306c766", "is_reserved": 0, "rental_uris": {"android": "https://dc.lft.to/lastmile_qr_scan", "ios": "https://dc.lft.to/lastmile_qr_scan"}, "lat": 38.932463, "is_disabled": 0, "lon": -77.02954383333334}, {"fusion_lat": 0.0, "type": "electric_scooter", "name": "2fc4385031d899d5ed4610199c29a6d5", "fusion_lon": 0.0, "bike_id": "2fc4385031d899d5ed4610199c29a6d5", "is_reserved": 0, "rental_uris": {"android": "https://dc.lft.to/lastmile_qr_scan", "ios": "https://dc.lft.to/lastmile_qr_scan"}, "lat": 38.89217933333333, "is_disabled": 0, "lon": -77.04866866666667}, {"fusion_lat": 0.0, "type": "electric_scooter", "name": "058fd3d3036fd8f4d47f7dd9ba0c8c4a", "fusion_lon": 0.0, "bike_id": "058fd3d3036fd8f4d47f7dd9ba0c8c4a", "is_reserved": 0, "rental_uris": {"android": "https://dc.lft.to/lastmile_qr_scan", "ios": "https://dc.lft.to/lastmile_qr_scan"}, "lat": 38.908462, "is_disabled": 0, "lon": -77.04242583333334}, {"fusion_lat": 0.0, "type": "electric_scooter", "name": "34bd0abf5a8ed65a5380dc8642cdd124", "fusion_lon": 0.0, "bike_id": "34bd0abf5a8ed65a5380dc8642cdd124", "is_reserved": 0, "rental_uris": {"android": "https://dc.lft.to/lastmile_qr_scan", "ios": "https://dc.lft.to/lastmile_qr_scan"}, "lat": 38.91441983333333, "is_disabled": 0, "lon": -77.06706816666667}, {"fusion_lat": 0.0, "type": "electric_scooter", "name": "54278843a2c7d020943e73ee37229ed8", "fusion_lon": 0.0, "bike_id": "54278843a2c7d020943e73ee37229ed8", "is_reserved": 0, "rental_uris": {"android": "https://dc.lft.to/lastmile_qr_scan", "ios": "https://dc.lft.to/lastmile_qr_scan"}, "lat": 38.925082, "is_disabled": 0, "lon": -77.029713}, {"fusion_lat": 0.0, "type": "electric_scooter", "name": "33ac335b929cba3415db35722f458877", "fusion_lon": 0.0, "bike_id": "33ac335b929cba3415db35722f458877", "is_reserved": 0, "rental_uris": {"android": "https://dc.lft.to/lastmile_qr_scan", "ios": "https://dc.lft.to/lastmile_qr_scan"}, "lat": 38.9036645, "is_disabled": 0, "lon": -77.04336516666666}, {"fusion_lat": 0.0, "type": "electric_bike", "name": "0a8fdebf5158d639bd07558c79f3f391", "fusion_lon": 0.0, "bike_id": "0a8fdebf5158d639bd07558c79f3f391", "is_reserved": 0, "rental_uris": {"android": "https://dc.lft.to/lastmile_qr_scan", "ios": "https://dc.lft.to/lastmile_qr_scan"}, "lat": 38.907941666666666, "is_disabled": 0, "lon": -77.07161133333334}, {"fusion_lat": 0.0, "type": "electric_scooter", "name": "7d84eeb8a85d1722b565c2ea31268ecd", "fusion_lon": 0.0, "bike_id": "7d84eeb8a85d1722b565c2ea31268ecd", "is_reserved": 0, "rental_uris": {"android": "https://dc.lft.to/lastmile_qr_scan", "ios": "https://dc.lft.to/lastmile_qr_scan"}, "lat": 38.91049966666667, "is_disabled": 0, "lon": -77.041026}, {"fusion_lat": 0.0, "type": "electric_scooter", "name": "03dd75a0620f543cd0152443956580ca", "fusion_lon": 0.0, "bike_id": "03dd75a0620f543cd0152443956580ca", "is_reserved": 0, "rental_uris": {"android": "https://dc.lft.to/lastmile_qr_scan", "ios": "https://dc.lft.to/lastmile_qr_scan"}, "lat": 38.91108766666667, "is_disabled": 0, "lon": -77.035714}, {"fusion_lat": 0.0, "type": "electric_scooter", "name": "ce46bbf00b7f3e2a89f9af5943fdec3a", "fusion_lon": 0.0, "bike_id": "ce46bbf00b7f3e2a89f9af5943fdec3a", "is_reserved": 0, "rental_uris": {"android": "https://dc.lft.to/lastmile_qr_scan", "ios": "https://dc.lft.to/lastmile_qr_scan"}, "lat": 38.888918, "is_disabled": 0, "lon": -77.0332025}, {"fusion_lat": 0.0, "type": "electric_scooter", "name": "a26ea07b0b132c5966c8efe0ab708bd4", "fusion_lon": 0.0, "bike_id": "a26ea07b0b132c5966c8efe0ab708bd4", "is_reserved": 0, "rental_uris": {"android": "https://dc.lft.to/lastmile_qr_scan", "ios": "https://dc.lft.to/lastmile_qr_scan"}, "lat": 38.91646866666667, "is_disabled": 0, "lon": -77.02173633333334}, {"fusion_lat": 0.0, "type": "electric_scooter", "name": "5bca23e44e3bb2afa6234ef5cd9946e0", "fusion_lon": 0.0, "bike_id": "5bca23e44e3bb2afa6234ef5cd9946e0", "is_reserved": 0, "rental_uris": {"android": "https://dc.lft.to/lastmile_qr_scan", "ios": "https://dc.lft.to/lastmile_qr_scan"}, "lat": 38.90434966666667, "is_disabled": 0, "lon": -77.02885916666666}, {"fusion_lat": 0.0, "type": "electric_scooter", "name": "95ca5fbf930ca096a10a9970d3766814", "fusion_lon": 0.0, "bike_id": "95ca5fbf930ca096a10a9970d3766814", "is_reserved": 0, "rental_uris": {"android": "https://dc.lft.to/lastmile_qr_scan", "ios": "https://dc.lft.to/lastmile_qr_scan"}, "lat": 38.92901783333333, "is_disabled": 0, "lon": -77.03224266666666}, {"fusion_lat": 0.0, "type": "electric_scooter", "name": "d5ce3f3c1cd5b61505497886670d24e0", "fusion_lon": 0.0, "bike_id": "d5ce3f3c1cd5b61505497886670d24e0", "is_reserved": 0, "rental_uris": {"android": "https://dc.lft.to/lastmile_qr_scan", "ios": "https://dc.lft.to/lastmile_qr_scan"}, "lat": 38.925223, "is_disabled": 0, "lon": -77.05046216666666}, {"fusion_lat": 0.0, "type": "electric_scooter", "name": "b34e40168f85dc5efd4bb882ea92818f", "fusion_lon": 0.0, "bike_id": "b34e40168f85dc5efd4bb882ea92818f", "is_reserved": 0, "rental_uris": {"android": "https://dc.lft.to/lastmile_qr_scan", "ios": "https://dc.lft.to/lastmile_qr_scan"}, "lat": 38.907248833333334, "is_disabled": 0, "lon": -77.04229333333333}, {"fusion_lat": 0.0, "type": "electric_scooter", "name": "b8b47348f35f39cc45907591a07dd0f8", "fusion_lon": 0.0, "bike_id": "b8b47348f35f39cc45907591a07dd0f8", "is_reserved": 0, "rental_uris": {"android": "https://dc.lft.to/lastmile_qr_scan", "ios": "https://dc.lft.to/lastmile_qr_scan"}, "lat": 38.902650666666666, "is_disabled": 0, "lon": -77.0343455}, {"fusion_lat": 0.0, "type": "electric_scooter", "name": "a5b87a7fa7227d67aa8ab929f99f9a43", "fusion_lon": 0.0, "bike_id": "a5b87a7fa7227d67aa8ab929f99f9a43", "is_reserved": 0, "rental_uris": {"android": "https://dc.lft.to/lastmile_qr_scan", "ios": "https://dc.lft.to/lastmile_qr_scan"}, "lat": 38.89239883333333, "is_disabled": 0, "lon": -77.04153866666667}, {"fusion_lat": 0.0, "type": "electric_scooter", "name": "20174d7b059b6a4fa14f478fe73be81d", "fusion_lon": 0.0, "bike_id": "20174d7b059b6a4fa14f478fe73be81d", "is_reserved": 0, "rental_uris": {"android": "https://dc.lft.to/lastmile_qr_scan", "ios": "https://dc.lft.to/lastmile_qr_scan"}, "lat": 38.8517735, "is_disabled": 0, "lon": -76.99580066666667}, {"fusion_lat": 0.0, "type": "electric_scooter", "name": "ef4f8cd9740103ca980159e55b9ebab6", "fusion_lon": 0.0, "bike_id": "ef4f8cd9740103ca980159e55b9ebab6", "is_reserved": 0, "rental_uris": {"android": "https://dc.lft.to/lastmile_qr_scan", "ios": "https://dc.lft.to/lastmile_qr_scan"}, "lat": 38.92272483333333, "is_disabled": 0, "lon": -77.0423215}, {"fusion_lat": 0.0, "type": "electric_scooter", "name": "0a80de63b945882f035391843e755671", "fusion_lon": 0.0, "bike_id": "0a80de63b945882f035391843e755671", "is_reserved": 0, "rental_uris": {"android": "https://dc.lft.to/lastmile_qr_scan", "ios": "https://dc.lft.to/lastmile_qr_scan"}, "lat": 38.909934166666666, "is_disabled": 0, "lon": -77.03207283333333}, {"fusion_lat": 0.0, "type": "electric_scooter", "name": "3ed690318a32cd8ff8a8f78c851477cd", "fusion_lon": 0.0, "bike_id": "3ed690318a32cd8ff8a8f78c851477cd", "is_reserved": 0, "rental_uris": {"android": "https://dc.lft.to/lastmile_qr_scan", "ios": "https://dc.lft.to/lastmile_qr_scan"}, "lat": 38.90731066666667, "is_disabled": 0, "lon": -77.04350566666666}, {"fusion_lat": 0.0, "type": "electric_scooter", "name": "fa06effa135e7a5c40af4e595e4cd40d", "fusion_lon": 0.0, "bike_id": "fa06effa135e7a5c40af4e595e4cd40d", "is_reserved": 0, "rental_uris": {"android": "https://dc.lft.to/lastmile_qr_scan", "ios": "https://dc.lft.to/lastmile_qr_scan"}, "lat": 38.9176405, "is_disabled": 0, "lon": -77.01917833333333}, {"fusion_lat": 0.0, "type": "electric_scooter", "name": "e304f95dbe2e3904cf74cb5168c8ef24", "fusion_lon": 0.0, "bike_id": "e304f95dbe2e3904cf74cb5168c8ef24", "is_reserved": 0, "rental_uris": {"android": "https://dc.lft.to/lastmile_qr_scan", "ios": "https://dc.lft.to/lastmile_qr_scan"}, "lat": 38.892394, "is_disabled": 0, "lon": -77.01725883333333}, {"fusion_lat": 0.0, "type": "electric_scooter", "name": "335f11bbaf37245c510d6c00dee7be34", "fusion_lon": 0.0, "bike_id": "335f11bbaf37245c510d6c00dee7be34", "is_reserved": 0, "rental_uris": {"android": "https://dc.lft.to/lastmile_qr_scan", "ios": "https://dc.lft.to/lastmile_qr_scan"}, "lat": 38.90531566666667, "is_disabled": 0, "lon": -77.05014283333334}, {"fusion_lat": 0.0, "type": "electric_scooter", "name": "a40895bacea9fc7cbbb1231d1962b822", "fusion_lon": 0.0, "bike_id": "a40895bacea9fc7cbbb1231d1962b822", "is_reserved": 0, "rental_uris": {"android": "https://dc.lft.to/lastmile_qr_scan", "ios": "https://dc.lft.to/lastmile_qr_scan"}, "lat": 38.89219216666667, "is_disabled": 0, "lon": -77.02345383333333}, {"fusion_lat": 0.0, "type": "electric_scooter", "name": "32e1f97d7c92d0079a1a609531c89188", "fusion_lon": 0.0, "bike_id": "32e1f97d7c92d0079a1a609531c89188", "is_reserved": 0, "rental_uris": {"android": "https://dc.lft.to/lastmile_qr_scan", "ios": "https://dc.lft.to/lastmile_qr_scan"}, "lat": 38.892851, "is_disabled": 0, "lon": -77.032027}, {"fusion_lat": 0.0, "type": "electric_scooter", "name": "c9c28e8343969539caf834c2978ebd2e", "fusion_lon": 0.0, "bike_id": "c9c28e8343969539caf834c2978ebd2e", "is_reserved": 0, "rental_uris": {"android": "https://dc.lft.to/lastmile_qr_scan", "ios": "https://dc.lft.to/lastmile_qr_scan"}, "lat": 38.90135183333334, "is_disabled": 0, "lon": -77.04435216666667}, {"fusion_lat": 0.0, "type": "electric_scooter", "name": "7a29fc08ab4dac9db50b21ca27fe6b5c", "fusion_lon": 0.0, "bike_id": "7a29fc08ab4dac9db50b21ca27fe6b5c", "is_reserved": 0, "rental_uris": {"android": "https://dc.lft.to/lastmile_qr_scan", "ios": "https://dc.lft.to/lastmile_qr_scan"}, "lat": 38.900344833333335, "is_disabled": 0, "lon": -77.00219333333334}, {"fusion_lat": 0.0, "type": "electric_bike", "name": "9413ad0e578a8907f1c054376febe7e5", "fusion_lon": 0.0, "bike_id": "9413ad0e578a8907f1c054376febe7e5", "is_reserved": 0, "rental_uris": {"android": "https://dc.lft.to/lastmile_qr_scan", "ios": "https://dc.lft.to/lastmile_qr_scan"}, "lat": 38.86936816666667, "is_disabled": 0, "lon": -77.0946555}, {"fusion_lat": 0.0, "type": "electric_scooter", "name": "f3c6951829f8fd66cdf7545a0f7f2b32", "fusion_lon": 0.0, "bike_id": "f3c6951829f8fd66cdf7545a0f7f2b32", "is_reserved": 0, "rental_uris": {"android": "https://dc.lft.to/lastmile_qr_scan", "ios": "https://dc.lft.to/lastmile_qr_scan"}, "lat": 38.8884775, "is_disabled": 0, "lon": -76.92676883333333}, {"fusion_lat": 0.0, "type": "electric_scooter", "name": "188020d2ceaee3362196a2d591605ace", "fusion_lon": 0.0, "bike_id": "188020d2ceaee3362196a2d591605ace", "is_reserved": 0, "rental_uris": {"android": "https://dc.lft.to/lastmile_qr_scan", "ios": "https://dc.lft.to/lastmile_qr_scan"}, "lat": 38.905175, "is_disabled": 0, "lon": -77.0686085}, {"fusion_lat": 0.0, "type": "electric_scooter", "name": "f167511d18bdffaf4a94bfa5bd8175a6", "fusion_lon": 0.0, "bike_id": "f167511d18bdffaf4a94bfa5bd8175a6", "is_reserved": 0, "rental_uris": {"android": "https://dc.lft.to/lastmile_qr_scan", "ios": "https://dc.lft.to/lastmile_qr_scan"}, "lat": 38.903756666666666, "is_disabled": 0, "lon": -77.00745116666667}, {"fusion_lat": 0.0, "type": "electric_scooter", "name": "dc712cb90ef0cd41545672340e46d556", "fusion_lon": 0.0, "bike_id": "dc712cb90ef0cd41545672340e46d556", "is_reserved": 0, "rental_uris": {"android": "https://dc.lft.to/lastmile_qr_scan", "ios": "https://dc.lft.to/lastmile_qr_scan"}, "lat": 38.8719675, "is_disabled": 0, "lon": -77.00571516666666}, {"fusion_lat": 0.0, "type": "electric_scooter", "name": "77b6aec1a0ee50296216a6ad1f36ed18", "fusion_lon": 0.0, "bike_id": "77b6aec1a0ee50296216a6ad1f36ed18", "is_reserved": 0, "rental_uris": {"android": "https://dc.lft.to/lastmile_qr_scan", "ios": "https://dc.lft.to/lastmile_qr_scan"}, "lat": 38.91420766666667, "is_disabled": 0, "lon": -77.031756}, {"fusion_lat": 0.0, "type": "electric_scooter", "name": "94b48c09f18173c7e19a27a30414c10d", "fusion_lon": 0.0, "bike_id": "94b48c09f18173c7e19a27a30414c10d", "is_reserved": 0, "rental_uris": {"android": "https://dc.lft.to/lastmile_qr_scan", "ios": "https://dc.lft.to/lastmile_qr_scan"}, "lat": 38.91158083333333, "is_disabled": 0, "lon": -77.0726555}, {"fusion_lat": 0.0, "type": "electric_scooter", "name": "0b9bd0b60c7803d6295873c5b916527a", "fusion_lon": 0.0, "bike_id": "0b9bd0b60c7803d6295873c5b916527a", "is_reserved": 0, "rental_uris": {"android": "https://dc.lft.to/lastmile_qr_scan", "ios": "https://dc.lft.to/lastmile_qr_scan"}, "lat": 38.92441983333333, "is_disabled": 0, "lon": -77.02135716666666}, {"fusion_lat": 0.0, "type": "electric_scooter", "name": "804a6d0388e3996e74ea15866f6433f9", "fusion_lon": 0.0, "bike_id": "804a6d0388e3996e74ea15866f6433f9", "is_reserved": 0, "rental_uris": {"android": "https://dc.lft.to/lastmile_qr_scan", "ios": "https://dc.lft.to/lastmile_qr_scan"}, "lat": 38.90279, "is_disabled": 0, "lon": -77.03870383333333}, {"fusion_lat": 0.0, "type": "electric_scooter", "name": "6e9493ddd20e3a520f0fb3b745e6e150", "fusion_lon": 0.0, "bike_id": "6e9493ddd20e3a520f0fb3b745e6e150", "is_reserved": 0, "rental_uris": {"android": "https://dc.lft.to/lastmile_qr_scan", "ios": "https://dc.lft.to/lastmile_qr_scan"}, "lat": 38.90022866666666, "is_disabled": 0, "lon": -77.04173433333334}, {"fusion_lat": 0.0, "type": "electric_bike", "name": "55feabb87443930451baa1655ee3f069", "fusion_lon": 0.0, "bike_id": "55feabb87443930451baa1655ee3f069", "is_reserved": 0, "rental_uris": {"android": "https://dc.lft.to/lastmile_qr_scan", "ios": "https://dc.lft.to/lastmile_qr_scan"}, "lat": 38.9966795, "is_disabled": 0, "lon": -77.037987}, {"fusion_lat": 0.0, "type": "electric_scooter", "name": "e2f761bd5cd3c211bbd267be89197546", "fusion_lon": 0.0, "bike_id": "e2f761bd5cd3c211bbd267be89197546", "is_reserved": 0, "rental_uris": {"android": "https://dc.lft.to/lastmile_qr_scan", "ios": "https://dc.lft.to/lastmile_qr_scan"}, "lat": 38.90503983333333, "is_disabled": 0, "lon": -77.048195}, {"fusion_lat": 0.0, "type": "electric_bike", "name": "03b2cab25154dacc23b6d7d96713d032", "fusion_lon": 0.0, "bike_id": "03b2cab25154dacc23b6d7d96713d032", "is_reserved": 0, "rental_uris": {"android": "https://dc.lft.to/lastmile_qr_scan", "ios": "https://dc.lft.to/lastmile_qr_scan"}, "lat": 38.96959583333334, "is_disabled": 0, "lon": -76.95748333333333}, {"fusion_lat": 0.0, "type": "electric_scooter", "name": "0da81fff0d64e574f32cf3a65f1004a0", "fusion_lon": 0.0, "bike_id": "0da81fff0d64e574f32cf3a65f1004a0", "is_reserved": 0, "rental_uris": {"android": "https://dc.lft.to/lastmile_qr_scan", "ios": "https://dc.lft.to/lastmile_qr_scan"}, "lat": 38.884041833333335, "is_disabled": 0, "lon": -77.0175665}, {"fusion_lat": 0.0, "type": "electric_scooter", "name": "370951aaee9ac27ca80da6390ab4d275", "fusion_lon": 0.0, "bike_id": "370951aaee9ac27ca80da6390ab4d275", "is_reserved": 0, "rental_uris": {"android": "https://dc.lft.to/lastmile_qr_scan", "ios": "https://dc.lft.to/lastmile_qr_scan"}, "lat": 38.898407166666665, "is_disabled": 0, "lon": -77.03359933333333}, {"fusion_lat": 0.0, "type": "electric_scooter", "name": "fe3061ae82e3ca8bb72c44dcb6b42566", "fusion_lon": 0.0, "bike_id": "fe3061ae82e3ca8bb72c44dcb6b42566", "is_reserved": 0, "rental_uris": {"android": "https://dc.lft.to/lastmile_qr_scan", "ios": "https://dc.lft.to/lastmile_qr_scan"}, "lat": 38.90253383333334, "is_disabled": 0, "lon": -77.028064}, {"fusion_lat": 0.0, "type": "electric_scooter", "name": "ad53a337f4a90aded92ad95f7eacb06b", "fusion_lon": 0.0, "bike_id": "ad53a337f4a90aded92ad95f7eacb06b", "is_reserved": 0, "rental_uris": {"android": "https://dc.lft.to/lastmile_qr_scan", "ios": "https://dc.lft.to/lastmile_qr_scan"}, "lat": 38.90139716666667, "is_disabled": 0, "lon": -77.02947183333333}, {"fusion_lat": 0.0, "type": "electric_scooter", "name": "c4d8a7cce92119f92b6c01597b923baf", "fusion_lon": 0.0, "bike_id": "c4d8a7cce92119f92b6c01597b923baf", "is_reserved": 0, "rental_uris": {"android": "https://dc.lft.to/lastmile_qr_scan", "ios": "https://dc.lft.to/lastmile_qr_scan"}, "lat": 38.860106, "is_disabled": 0, "lon": -76.98508516666666}, {"fusion_lat": 0.0, "type": "electric_scooter", "name": "44ecd346571fd0fd7b48558a14265046", "fusion_lon": 0.0, "bike_id": "44ecd346571fd0fd7b48558a14265046", "is_reserved": 0, "rental_uris": {"android": "https://dc.lft.to/lastmile_qr_scan", "ios": "https://dc.lft.to/lastmile_qr_scan"}, "lat": 38.900223833333335, "is_disabled": 0, "lon": -77.03203116666667}, {"fusion_lat": 0.0, "type": "electric_scooter", "name": "fab948ec91f7c03fa6bf93d18fd18fbb", "fusion_lon": 0.0, "bike_id": "fab948ec91f7c03fa6bf93d18fd18fbb", "is_reserved": 0, "rental_uris": {"android": "https://dc.lft.to/lastmile_qr_scan", "ios": "https://dc.lft.to/lastmile_qr_scan"}, "lat": 38.9003555, "is_disabled": 0, "lon": -77.006883}, {"fusion_lat": 0.0, "type": "electric_scooter", "name": "677355fd7a597ef5952dfcdf3e3c5fc6", "fusion_lon": 0.0, "bike_id": "677355fd7a597ef5952dfcdf3e3c5fc6", "is_reserved": 0, "rental_uris": {"android": "https://dc.lft.to/lastmile_qr_scan", "ios": "https://dc.lft.to/lastmile_qr_scan"}, "lat": 38.9049975, "is_disabled": 0, "lon": -77.04652433333334}, {"fusion_lat": 0.0, "type": "electric_scooter", "name": "d42f3a5a4df4954ee404aa8af39db7df", "fusion_lon": 0.0, "bike_id": "d42f3a5a4df4954ee404aa8af39db7df", "is_reserved": 0, "rental_uris": {"android": "https://dc.lft.to/lastmile_qr_scan", "ios": "https://dc.lft.to/lastmile_qr_scan"}, "lat": 38.892245333333335, "is_disabled": 0, "lon": -77.032164}, {"fusion_lat": 0.0, "type": "electric_scooter", "name": "6b43834f4cada78ad542244bb4a257ae", "fusion_lon": 0.0, "bike_id": "6b43834f4cada78ad542244bb4a257ae", "is_reserved": 0, "rental_uris": {"android": "https://dc.lft.to/lastmile_qr_scan", "ios": "https://dc.lft.to/lastmile_qr_scan"}, "lat": 38.91978366666667, "is_disabled": 0, "lon": -77.04143933333333}, {"fusion_lat": 0.0, "type": "electric_scooter", "name": "0e46a4f806e3b6edb0bbeee0a53a7624", "fusion_lon": 0.0, "bike_id": "0e46a4f806e3b6edb0bbeee0a53a7624", "is_reserved": 0, "rental_uris": {"android": "https://dc.lft.to/lastmile_qr_scan", "ios": "https://dc.lft.to/lastmile_qr_scan"}, "lat": 38.8923755, "is_disabled": 0, "lon": -77.032135}, {"fusion_lat": 0.0, "type": "electric_scooter", "name": "4adf29eec160e6cf87de7dc74a3afe12", "fusion_lon": 0.0, "bike_id": "4adf29eec160e6cf87de7dc74a3afe12", "is_reserved": 0, "rental_uris": {"android": "https://dc.lft.to/lastmile_qr_scan", "ios": "https://dc.lft.to/lastmile_qr_scan"}, "lat": 38.98459616666667, "is_disabled": 0, "lon": -77.02685816666667}, {"fusion_lat": 0.0, "type": "electric_scooter", "name": "031c687fccbdd0262002ff4812f0a112", "fusion_lon": 0.0, "bike_id": "031c687fccbdd0262002ff4812f0a112", "is_reserved": 0, "rental_uris": {"android": "https://dc.lft.to/lastmile_qr_scan", "ios": "https://dc.lft.to/lastmile_qr_scan"}, "lat": 38.9212325, "is_disabled": 0, "lon": -77.00331333333334}, {"fusion_lat": 0.0, "type": "electric_scooter", "name": "ca23db429f280501a7accc70f687d293", "fusion_lon": 0.0, "bike_id": "ca23db429f280501a7accc70f687d293", "is_reserved": 0, "rental_uris": {"android": "https://dc.lft.to/lastmile_qr_scan", "ios": "https://dc.lft.to/lastmile_qr_scan"}, "lat": 38.90842933333333, "is_disabled": 0, "lon": -77.02691966666667}, {"fusion_lat": 0.0, "type": "electric_bike", "name": "eb9f5638b30eb2fa74503767bec40cb9", "fusion_lon": 0.0, "bike_id": "eb9f5638b30eb2fa74503767bec40cb9", "is_reserved": 0, "rental_uris": {"android": "https://dc.lft.to/lastmile_qr_scan", "ios": "https://dc.lft.to/lastmile_qr_scan"}, "lat": 38.819078833333336, "is_disabled": 0, "lon": -76.99908883333333}, {"fusion_lat": 0.0, "type": "electric_scooter", "name": "8ea57a8fa0d5202eae01bc312a08e16b", "fusion_lon": 0.0, "bike_id": "8ea57a8fa0d5202eae01bc312a08e16b", "is_reserved": 0, "rental_uris": {"android": "https://dc.lft.to/lastmile_qr_scan", "ios": "https://dc.lft.to/lastmile_qr_scan"}, "lat": 38.89842, "is_disabled": 0, "lon": -77.02850133333334}, {"fusion_lat": 0.0, "type": "electric_scooter", "name": "c928be15900ccaa6557eea3ffdf2b87b", "fusion_lon": 0.0, "bike_id": "c928be15900ccaa6557eea3ffdf2b87b", "is_reserved": 0, "rental_uris": {"android": "https://dc.lft.to/lastmile_qr_scan", "ios": "https://dc.lft.to/lastmile_qr_scan"}, "lat": 38.907622333333336, "is_disabled": 0, "lon": -77.03744333333333}, {"fusion_lat": 0.0, "type": "electric_scooter", "name": "7a10992065d50b17dff717d60f4cdd09", "fusion_lon": 0.0, "bike_id": "7a10992065d50b17dff717d60f4cdd09", "is_reserved": 0, "rental_uris": {"android": "https://dc.lft.to/lastmile_qr_scan", "ios": "https://dc.lft.to/lastmile_qr_scan"}, "lat": 38.89234233333333, "is_disabled": 0, "lon": -77.03184166666666}, {"fusion_lat": 0.0, "type": "electric_scooter", "name": "52592561a96e00e737b783d65f6eb616", "fusion_lon": 0.0, "bike_id": "52592561a96e00e737b783d65f6eb616", "is_reserved": 0, "rental_uris": {"android": "https://dc.lft.to/lastmile_qr_scan", "ios": "https://dc.lft.to/lastmile_qr_scan"}, "lat": 38.914128833333336, "is_disabled": 0, "lon": -77.0221315}, {"fusion_lat": 0.0, "type": "electric_scooter", "name": "a67b1f6c6805e1788de983cbea659919", "fusion_lon": 0.0, "bike_id": "a67b1f6c6805e1788de983cbea659919", "is_reserved": 0, "rental_uris": {"android": "https://dc.lft.to/lastmile_qr_scan", "ios": "https://dc.lft.to/lastmile_qr_scan"}, "lat": 38.91826066666667, "is_disabled": 0, "lon": -77.03150033333333}, {"fusion_lat": 0.0, "type": "electric_scooter", "name": "77cec79b644763e1279f7ea683963cb1", "fusion_lon": 0.0, "bike_id": "77cec79b644763e1279f7ea683963cb1", "is_reserved": 0, "rental_uris": {"android": "https://dc.lft.to/lastmile_qr_scan", "ios": "https://dc.lft.to/lastmile_qr_scan"}, "lat": 38.8972335, "is_disabled": 0, "lon": -77.04361066666667}, {"fusion_lat": 0.0, "type": "electric_scooter", "name": "723922e4e974eceebbe298d1560f1340", "fusion_lon": 0.0, "bike_id": "723922e4e974eceebbe298d1560f1340", "is_reserved": 0, "rental_uris": {"android": "https://dc.lft.to/lastmile_qr_scan", "ios": "https://dc.lft.to/lastmile_qr_scan"}, "lat": 38.87013066666667, "is_disabled": 0, "lon": -76.98084316666667}, {"fusion_lat": 0.0, "type": "electric_scooter", "name": "146b20bbf99089252975ffb659108641", "fusion_lon": 0.0, "bike_id": "146b20bbf99089252975ffb659108641", "is_reserved": 0, "rental_uris": {"android": "https://dc.lft.to/lastmile_qr_scan", "ios": "https://dc.lft.to/lastmile_qr_scan"}, "lat": 38.87925466666667, "is_disabled": 0, "lon": -77.00532016666666}, {"fusion_lat": 0.0, "type": "electric_scooter", "name": "7cdf7dd5aab21e2df5db7040b6d59535", "fusion_lon": 0.0, "bike_id": "7cdf7dd5aab21e2df5db7040b6d59535", "is_reserved": 0, "rental_uris": {"android": "https://dc.lft.to/lastmile_qr_scan", "ios": "https://dc.lft.to/lastmile_qr_scan"}, "lat": 38.90268433333333, "is_disabled": 0, "lon": -77.03441}, {"fusion_lat": 0.0, "type": "electric_scooter", "name": "a7708824c537003672425f8eaafac143", "fusion_lon": 0.0, "bike_id": "a7708824c537003672425f8eaafac143", "is_reserved": 0, "rental_uris": {"android": "https://dc.lft.to/lastmile_qr_scan", "ios": "https://dc.lft.to/lastmile_qr_scan"}, "lat": 38.92747416666667, "is_disabled": 0, "lon": -77.03636866666666}, {"fusion_lat": 0.0, "type": "electric_bike", "name": "2e3f01d8ad41d1d97605090c94fd9e5a", "fusion_lon": 0.0, "bike_id": "2e3f01d8ad41d1d97605090c94fd9e5a", "is_reserved": 0, "rental_uris": {"android": "https://dc.lft.to/lastmile_qr_scan", "ios": "https://dc.lft.to/lastmile_qr_scan"}, "lat": 38.82379533333334, "is_disabled": 0, "lon": -77.00226216666667}, {"fusion_lat": 0.0, "type": "electric_scooter", "name": "28c10c87f69996ae2343f53c1b61bfa5", "fusion_lon": 0.0, "bike_id": "28c10c87f69996ae2343f53c1b61bfa5", "is_reserved": 0, "rental_uris": {"android": "https://dc.lft.to/lastmile_qr_scan", "ios": "https://dc.lft.to/lastmile_qr_scan"}, "lat": 38.89609733333333, "is_disabled": 0, "lon": -77.04978283333334}, {"fusion_lat": 0.0, "type": "electric_scooter", "name": "7f746fc83d2560ead2c8d1d94bdf7410", "fusion_lon": 0.0, "bike_id": "7f746fc83d2560ead2c8d1d94bdf7410", "is_reserved": 0, "rental_uris": {"android": "https://dc.lft.to/lastmile_qr_scan", "ios": "https://dc.lft.to/lastmile_qr_scan"}, "lat": 38.914991666666666, "is_disabled": 0, "lon": -77.04331466666666}, {"fusion_lat": 0.0, "type": "electric_bike", "name": "8fd0b8be5a9d4b21723d9a12040806f7", "fusion_lon": 0.0, "bike_id": "8fd0b8be5a9d4b21723d9a12040806f7", "is_reserved": 0, "rental_uris": {"android": "https://dc.lft.to/lastmile_qr_scan", "ios": "https://dc.lft.to/lastmile_qr_scan"}, "lat": 38.852755333333334, "is_disabled": 0, "lon": -76.99580566666667}, {"fusion_lat": 0.0, "type": "electric_scooter", "name": "4ca52c6874f8f1899d3ac49ede42f11c", "fusion_lon": 0.0, "bike_id": "4ca52c6874f8f1899d3ac49ede42f11c", "is_reserved": 0, "rental_uris": {"android": "https://dc.lft.to/lastmile_qr_scan", "ios": "https://dc.lft.to/lastmile_qr_scan"}, "lat": 38.908336166666665, "is_disabled": 0, "lon": -77.0743115}, {"fusion_lat": 0.0, "type": "electric_scooter", "name": "9d8a369fcc4282d72b94e9fc7e73ef04", "fusion_lon": 0.0, "bike_id": "9d8a369fcc4282d72b94e9fc7e73ef04", "is_reserved": 0, "rental_uris": {"android": "https://dc.lft.to/lastmile_qr_scan", "ios": "https://dc.lft.to/lastmile_qr_scan"}, "lat": 38.95071516666667, "is_disabled": 0, "lon": -76.99566183333333}, {"fusion_lat": 0.0, "type": "electric_scooter", "name": "d808317bcaef8cc654e4b0ac88820ac2", "fusion_lon": 0.0, "bike_id": "d808317bcaef8cc654e4b0ac88820ac2", "is_reserved": 0, "rental_uris": {"android": "https://dc.lft.to/lastmile_qr_scan", "ios": "https://dc.lft.to/lastmile_qr_scan"}, "lat": 38.907388166666664, "is_disabled": 0, "lon": -77.0451265}, {"fusion_lat": 0.0, "type": "electric_scooter", "name": "e4bbdfe9fe90ca4032c9709ffaec90d3", "fusion_lon": 0.0, "bike_id": "e4bbdfe9fe90ca4032c9709ffaec90d3", "is_reserved": 0, "rental_uris": {"android": "https://dc.lft.to/lastmile_qr_scan", "ios": "https://dc.lft.to/lastmile_qr_scan"}, "lat": 38.8935585, "is_disabled": 0, "lon": -77.0033665}, {"fusion_lat": 0.0, "type": "electric_scooter", "name": "6927b70a33e62ae8542020fba8e22c3d", "fusion_lon": 0.0, "bike_id": "6927b70a33e62ae8542020fba8e22c3d", "is_reserved": 0, "rental_uris": {"android": "https://dc.lft.to/lastmile_qr_scan", "ios": "https://dc.lft.to/lastmile_qr_scan"}, "lat": 38.89617233333333, "is_disabled": 0, "lon": -77.04598866666667}, {"fusion_lat": 0.0, "type": "electric_scooter", "name": "6929e2d09b974242f0583995b51a5532", "fusion_lon": 0.0, "bike_id": "6929e2d09b974242f0583995b51a5532", "is_reserved": 0, "rental_uris": {"android": "https://dc.lft.to/lastmile_qr_scan", "ios": "https://dc.lft.to/lastmile_qr_scan"}, "lat": 38.919156, "is_disabled": 0, "lon": -77.04809016666667}, {"fusion_lat": 0.0, "type": "electric_scooter", "name": "22da0a4c8123b270f24b7266fe46a15c", "fusion_lon": 0.0, "bike_id": "22da0a4c8123b270f24b7266fe46a15c", "is_reserved": 0, "rental_uris": {"android": "https://dc.lft.to/lastmile_qr_scan", "ios": "https://dc.lft.to/lastmile_qr_scan"}, "lat": 38.88119066666667, "is_disabled": 0, "lon": -77.01676016666667}, {"fusion_lat": 0.0, "type": "electric_scooter", "name": "c32892fa4a023cc1dee6a9de2fe8fb12", "fusion_lon": 0.0, "bike_id": "c32892fa4a023cc1dee6a9de2fe8fb12", "is_reserved": 0, "rental_uris": {"android": "https://dc.lft.to/lastmile_qr_scan", "ios": "https://dc.lft.to/lastmile_qr_scan"}, "lat": 38.8954655, "is_disabled": 0, "lon": -77.056608}, {"fusion_lat": 0.0, "type": "electric_scooter", "name": "e367570a98793f7b109e8a616845b1f3", "fusion_lon": 0.0, "bike_id": "e367570a98793f7b109e8a616845b1f3", "is_reserved": 0, "rental_uris": {"android": "https://dc.lft.to/lastmile_qr_scan", "ios": "https://dc.lft.to/lastmile_qr_scan"}, "lat": 38.892261833333336, "is_disabled": 0, "lon": -77.031714}, {"fusion_lat": 0.0, "type": "electric_bike", "name": "e500c6f4bf1e954a0c7d5dd5dddd191a", "fusion_lon": 0.0, "bike_id": "e500c6f4bf1e954a0c7d5dd5dddd191a", "is_reserved": 0, "rental_uris": {"android": "https://dc.lft.to/lastmile_qr_scan", "ios": "https://dc.lft.to/lastmile_qr_scan"}, "lat": 38.95644883333333, "is_disabled": 0, "lon": -77.02254116666667}, {"fusion_lat": 0.0, "type": "electric_scooter", "name": "bed9ccd578b929e73918576a83be2abb", "fusion_lon": 0.0, "bike_id": "bed9ccd578b929e73918576a83be2abb", "is_reserved": 0, "rental_uris": {"android": "https://dc.lft.to/lastmile_qr_scan", "ios": "https://dc.lft.to/lastmile_qr_scan"}, "lat": 38.917302, "is_disabled": 0, "lon": -77.03210733333333}, {"fusion_lat": 0.0, "type": "electric_scooter", "name": "b57a06d3ceddafddd2d7acd70de4db4b", "fusion_lon": 0.0, "bike_id": "b57a06d3ceddafddd2d7acd70de4db4b", "is_reserved": 0, "rental_uris": {"android": "https://dc.lft.to/lastmile_qr_scan", "ios": "https://dc.lft.to/lastmile_qr_scan"}, "lat": 38.9011345, "is_disabled": 0, "lon": -77.04484966666666}, {"fusion_lat": 0.0, "type": "electric_scooter", "name": "72b95e624b05ca5c0877d63193f2bfda", "fusion_lon": 0.0, "bike_id": "72b95e624b05ca5c0877d63193f2bfda", "is_reserved": 0, "rental_uris": {"android": "https://dc.lft.to/lastmile_qr_scan", "ios": "https://dc.lft.to/lastmile_qr_scan"}, "lat": 38.897912, "is_disabled": 0, "lon": -77.039632}, {"fusion_lat": 0.0, "type": "electric_scooter", "name": "06a0eafe731daca35408d91d0e473ae4", "fusion_lon": 0.0, "bike_id": "06a0eafe731daca35408d91d0e473ae4", "is_reserved": 0, "rental_uris": {"android": "https://dc.lft.to/lastmile_qr_scan", "ios": "https://dc.lft.to/lastmile_qr_scan"}, "lat": 38.89320883333333, "is_disabled": 0, "lon": -77.0180435}, {"fusion_lat": 0.0, "type": "electric_scooter", "name": "6593058f3bccff738d5ed5d8cde5a313", "fusion_lon": 0.0, "bike_id": "6593058f3bccff738d5ed5d8cde5a313", "is_reserved": 0, "rental_uris": {"android": "https://dc.lft.to/lastmile_qr_scan", "ios": "https://dc.lft.to/lastmile_qr_scan"}, "lat": 38.90780483333333, "is_disabled": 0, "lon": -77.03499}, {"fusion_lat": 0.0, "type": "electric_scooter", "name": "608eb5ac17526240daca2f8e83aa26cc", "fusion_lon": 0.0, "bike_id": "608eb5ac17526240daca2f8e83aa26cc", "is_reserved": 0, "rental_uris": {"android": "https://dc.lft.to/lastmile_qr_scan", "ios": "https://dc.lft.to/lastmile_qr_scan"}, "lat": 38.96628916666667, "is_disabled": 0, "lon": -77.01998033333334}, {"fusion_lat": 0.0, "type": "electric_scooter", "name": "520d2f8eec87221934c74a98b2a0077c", "fusion_lon": 0.0, "bike_id": "520d2f8eec87221934c74a98b2a0077c", "is_reserved": 0, "rental_uris": {"android": "https://dc.lft.to/lastmile_qr_scan", "ios": "https://dc.lft.to/lastmile_qr_scan"}, "lat": 38.8916725, "is_disabled": 0, "lon": -76.95176833333333}, {"fusion_lat": 0.0, "type": "electric_scooter", "name": "bba4c3aa3c224f014bb353b3a6441fb6", "fusion_lon": 0.0, "bike_id": "bba4c3aa3c224f014bb353b3a6441fb6", "is_reserved": 0, "rental_uris": {"android": "https://dc.lft.to/lastmile_qr_scan", "ios": "https://dc.lft.to/lastmile_qr_scan"}, "lat": 38.887476166666666, "is_disabled": 0, "lon": -77.0315985}, {"fusion_lat": 0.0, "type": "electric_bike", "name": "2cacdde4c8d38122747892900012e0d6", "fusion_lon": 0.0, "bike_id": "2cacdde4c8d38122747892900012e0d6", "is_reserved": 0, "rental_uris": {"android": "https://dc.lft.to/lastmile_qr_scan", "ios": "https://dc.lft.to/lastmile_qr_scan"}, "lat": 38.795126333333336, "is_disabled": 0, "lon": -77.00694983333334}, {"fusion_lat": 0.0, "type": "electric_scooter", "name": "4b86ad2ff27658763e1cfb3f1496ce62", "fusion_lon": 0.0, "bike_id": "4b86ad2ff27658763e1cfb3f1496ce62", "is_reserved": 0, "rental_uris": {"android": "https://dc.lft.to/lastmile_qr_scan", "ios": "https://dc.lft.to/lastmile_qr_scan"}, "lat": 38.89222616666667, "is_disabled": 0, "lon": -77.02776483333334}, {"fusion_lat": 0.0, "type": "electric_scooter", "name": "dc92e02dcaabfb736170c71cf17c88bf", "fusion_lon": 0.0, "bike_id": "dc92e02dcaabfb736170c71cf17c88bf", "is_reserved": 0, "rental_uris": {"android": "https://dc.lft.to/lastmile_qr_scan", "ios": "https://dc.lft.to/lastmile_qr_scan"}, "lat": 38.91742683333333, "is_disabled": 0, "lon": -77.03189666666667}, {"fusion_lat": 0.0, "type": "electric_scooter", "name": "5a58834f2822892fe683c35f4d632864", "fusion_lon": 0.0, "bike_id": "5a58834f2822892fe683c35f4d632864", "is_reserved": 0, "rental_uris": {"android": "https://dc.lft.to/lastmile_qr_scan", "ios": "https://dc.lft.to/lastmile_qr_scan"}, "lat": 38.912539, "is_disabled": 0, "lon": -77.03832316666667}, {"fusion_lat": 0.0, "type": "electric_scooter", "name": "53c2e69483d83f535e5a90ff0512cd6b", "fusion_lon": 0.0, "bike_id": "53c2e69483d83f535e5a90ff0512cd6b", "is_reserved": 0, "rental_uris": {"android": "https://dc.lft.to/lastmile_qr_scan", "ios": "https://dc.lft.to/lastmile_qr_scan"}, "lat": 38.9317295, "is_disabled": 0, "lon": -77.03416316666667}, {"fusion_lat": 0.0, "type": "electric_scooter", "name": "1bf419a3f4b8aa300686a3137ce098ec", "fusion_lon": 0.0, "bike_id": "1bf419a3f4b8aa300686a3137ce098ec", "is_reserved": 0, "rental_uris": {"android": "https://dc.lft.to/lastmile_qr_scan", "ios": "https://dc.lft.to/lastmile_qr_scan"}, "lat": 38.917140833333335, "is_disabled": 0, "lon": -77.03661216666667}, {"fusion_lat": 0.0, "type": "electric_scooter", "name": "bb8c02414d7c2f10c83ae2f4005c3f91", "fusion_lon": 0.0, "bike_id": "bb8c02414d7c2f10c83ae2f4005c3f91", "is_reserved": 0, "rental_uris": {"android": "https://dc.lft.to/lastmile_qr_scan", "ios": "https://dc.lft.to/lastmile_qr_scan"}, "lat": 38.904037, "is_disabled": 0, "lon": -77.03487916666667}, {"fusion_lat": 0.0, "type": "electric_scooter", "name": "0cc9b090471607026886fa0544772ad6", "fusion_lon": 0.0, "bike_id": "0cc9b090471607026886fa0544772ad6", "is_reserved": 0, "rental_uris": {"android": "https://dc.lft.to/lastmile_qr_scan", "ios": "https://dc.lft.to/lastmile_qr_scan"}, "lat": 38.90929716666667, "is_disabled": 0, "lon": -77.041566}, {"fusion_lat": 0.0, "type": "electric_bike", "name": "d41ff9a843fb7dc232f243afbbaece36", "fusion_lon": 0.0, "bike_id": "d41ff9a843fb7dc232f243afbbaece36", "is_reserved": 0, "rental_uris": {"android": "https://dc.lft.to/lastmile_qr_scan", "ios": "https://dc.lft.to/lastmile_qr_scan"}, "lat": 38.999435166666665, "is_disabled": 0, "lon": -77.07431333333334}, {"fusion_lat": 0.0, "type": "electric_scooter", "name": "a4e11424cc473832d4e160cc9e285664", "fusion_lon": 0.0, "bike_id": "a4e11424cc473832d4e160cc9e285664", "is_reserved": 0, "rental_uris": {"android": "https://dc.lft.to/lastmile_qr_scan", "ios": "https://dc.lft.to/lastmile_qr_scan"}, "lat": 38.90605016666667, "is_disabled": 0, "lon": -77.04026216666666}, {"fusion_lat": 0.0, "type": "electric_scooter", "name": "f93c957657768dff20e2ca210e46436e", "fusion_lon": 0.0, "bike_id": "f93c957657768dff20e2ca210e46436e", "is_reserved": 0, "rental_uris": {"android": "https://dc.lft.to/lastmile_qr_scan", "ios": "https://dc.lft.to/lastmile_qr_scan"}, "lat": 38.903624666666666, "is_disabled": 0, "lon": -77.02946466666667}, {"fusion_lat": 0.0, "type": "electric_bike", "name": "a5f02f3e2eb93a7701ba45a3aaa2d0d5", "fusion_lon": 0.0, "bike_id": "a5f02f3e2eb93a7701ba45a3aaa2d0d5", "is_reserved": 0, "rental_uris": {"android": "https://dc.lft.to/lastmile_qr_scan", "ios": "https://dc.lft.to/lastmile_qr_scan"}, "lat": 38.807077666666665, "is_disabled": 0, "lon": -77.06173466666667}, {"fusion_lat": 0.0, "type": "electric_scooter", "name": "6e532f7ec007a2fb513f93d7de3a5882", "fusion_lon": 0.0, "bike_id": "6e532f7ec007a2fb513f93d7de3a5882", "is_reserved": 0, "rental_uris": {"android": "https://dc.lft.to/lastmile_qr_scan", "ios": "https://dc.lft.to/lastmile_qr_scan"}, "lat": 38.92323116666667, "is_disabled": 0, "lon": -77.01951966666667}, {"fusion_lat": 0.0, "type": "electric_scooter", "name": "2639c726ce033f5967a3960d422733bd", "fusion_lon": 0.0, "bike_id": "2639c726ce033f5967a3960d422733bd", "is_reserved": 0, "rental_uris": {"android": "https://dc.lft.to/lastmile_qr_scan", "ios": "https://dc.lft.to/lastmile_qr_scan"}, "lat": 38.9276605, "is_disabled": 0, "lon": -77.02065366666666}, {"fusion_lat": 0.0, "type": "electric_scooter", "name": "bff08f684d9e9663a9c382d2e9c28df5", "fusion_lon": 0.0, "bike_id": "bff08f684d9e9663a9c382d2e9c28df5", "is_reserved": 0, "rental_uris": {"android": "https://dc.lft.to/lastmile_qr_scan", "ios": "https://dc.lft.to/lastmile_qr_scan"}, "lat": 38.8936775, "is_disabled": 0, "lon": -76.94991816666666}, {"fusion_lat": 0.0, "type": "electric_scooter", "name": "c8f0753e1cc6845faf0dafa563fa5f0d", "fusion_lon": 0.0, "bike_id": "c8f0753e1cc6845faf0dafa563fa5f0d", "is_reserved": 0, "rental_uris": {"android": "https://dc.lft.to/lastmile_qr_scan", "ios": "https://dc.lft.to/lastmile_qr_scan"}, "lat": 38.9177915, "is_disabled": 0, "lon": -77.04272433333334}, {"fusion_lat": 0.0, "type": "electric_bike", "name": "4078e2140c5cacf5b992f667b7c723c9", "fusion_lon": 0.0, "bike_id": "4078e2140c5cacf5b992f667b7c723c9", "is_reserved": 0, "rental_uris": {"android": "https://dc.lft.to/lastmile_qr_scan", "ios": "https://dc.lft.to/lastmile_qr_scan"}, "lat": 38.8521165, "is_disabled": 0, "lon": -77.10127683333333}, {"fusion_lat": 0.0, "type": "electric_scooter", "name": "292b0cce558cf9381185c02ab3c5ea4c", "fusion_lon": 0.0, "bike_id": "292b0cce558cf9381185c02ab3c5ea4c", "is_reserved": 0, "rental_uris": {"android": "https://dc.lft.to/lastmile_qr_scan", "ios": "https://dc.lft.to/lastmile_qr_scan"}, "lat": 38.8956365, "is_disabled": 0, "lon": -77.04675483333334}, {"fusion_lat": 0.0, "type": "electric_scooter", "name": "97ace2d5125782c30579e941b342477c", "fusion_lon": 0.0, "bike_id": "97ace2d5125782c30579e941b342477c", "is_reserved": 0, "rental_uris": {"android": "https://dc.lft.to/lastmile_qr_scan", "ios": "https://dc.lft.to/lastmile_qr_scan"}, "lat": 38.921430666666666, "is_disabled": 0, "lon": -77.0350445}, {"fusion_lat": 0.0, "type": "electric_scooter", "name": "7daae4294f7ac4c517003b6f34314b79", "fusion_lon": 0.0, "bike_id": "7daae4294f7ac4c517003b6f34314b79", "is_reserved": 0, "rental_uris": {"android": "https://dc.lft.to/lastmile_qr_scan", "ios": "https://dc.lft.to/lastmile_qr_scan"}, "lat": 38.928889, "is_disabled": 0, "lon": -77.03231566666666}, {"fusion_lat": 0.0, "type": "electric_scooter", "name": "b4de6acd123449fe60bef761bc0cf40a", "fusion_lon": 0.0, "bike_id": "b4de6acd123449fe60bef761bc0cf40a", "is_reserved": 0, "rental_uris": {"android": "https://dc.lft.to/lastmile_qr_scan", "ios": "https://dc.lft.to/lastmile_qr_scan"}, "lat": 38.95631433333333, "is_disabled": 0, "lon": -77.02456833333333}, {"fusion_lat": 0.0, "type": "electric_scooter", "name": "05f89c050cbd1a14dbd22ee98a8e3d54", "fusion_lon": 0.0, "bike_id": "05f89c050cbd1a14dbd22ee98a8e3d54", "is_reserved": 0, "rental_uris": {"android": "https://dc.lft.to/lastmile_qr_scan", "ios": "https://dc.lft.to/lastmile_qr_scan"}, "lat": 38.93572483333333, "is_disabled": 0, "lon": -77.02117966666667}, {"fusion_lat": 0.0, "type": "electric_scooter", "name": "9a7d2d570c3be59ea554a95f8d604779", "fusion_lon": 0.0, "bike_id": "9a7d2d570c3be59ea554a95f8d604779", "is_reserved": 0, "rental_uris": {"android": "https://dc.lft.to/lastmile_qr_scan", "ios": "https://dc.lft.to/lastmile_qr_scan"}, "lat": 38.8871495, "is_disabled": 0, "lon": -77.022036}, {"fusion_lat": 0.0, "type": "electric_scooter", "name": "616f136bce32fc97d13ae31dbc096386", "fusion_lon": 0.0, "bike_id": "616f136bce32fc97d13ae31dbc096386", "is_reserved": 0, "rental_uris": {"android": "https://dc.lft.to/lastmile_qr_scan", "ios": "https://dc.lft.to/lastmile_qr_scan"}, "lat": 38.899115, "is_disabled": 0, "lon": -76.933683}, {"fusion_lat": 0.0, "type": "electric_bike", "name": "2c1196c55a900580aaca7ba4038b5c53", "fusion_lon": 0.0, "bike_id": "2c1196c55a900580aaca7ba4038b5c53", "is_reserved": 0, "rental_uris": {"android": "https://dc.lft.to/lastmile_qr_scan", "ios": "https://dc.lft.to/lastmile_qr_scan"}, "lat": 38.946703166666666, "is_disabled": 0, "lon": -76.983089}, {"fusion_lat": 0.0, "type": "electric_scooter", "name": "265ba7dd51be68ffadbb15eafb308c07", "fusion_lon": 0.0, "bike_id": "265ba7dd51be68ffadbb15eafb308c07", "is_reserved": 0, "rental_uris": {"android": "https://dc.lft.to/lastmile_qr_scan", "ios": "https://dc.lft.to/lastmile_qr_scan"}, "lat": 38.9023405, "is_disabled": 0, "lon": -77.04345466666666}, {"fusion_lat": 0.0, "type": "electric_scooter", "name": "bf98aba2533474e703a4837e6f42ca7e", "fusion_lon": 0.0, "bike_id": "bf98aba2533474e703a4837e6f42ca7e", "is_reserved": 0, "rental_uris": {"android": "https://dc.lft.to/lastmile_qr_scan", "ios": "https://dc.lft.to/lastmile_qr_scan"}, "lat": 38.89224383333333, "is_disabled": 0, "lon": -77.03215633333333}, {"fusion_lat": 0.0, "type": "electric_scooter", "name": "31ac84acc0246b0f4cb0c17b1f2767a1", "fusion_lon": 0.0, "bike_id": "31ac84acc0246b0f4cb0c17b1f2767a1", "is_reserved": 0, "rental_uris": {"android": "https://dc.lft.to/lastmile_qr_scan", "ios": "https://dc.lft.to/lastmile_qr_scan"}, "lat": 38.903902, "is_disabled": 0, "lon": -77.04462583333333}, {"fusion_lat": 0.0, "type": "electric_scooter", "name": "fc11e965448bd668da0e4530c6d7fa74", "fusion_lon": 0.0, "bike_id": "fc11e965448bd668da0e4530c6d7fa74", "is_reserved": 0, "rental_uris": {"android": "https://dc.lft.to/lastmile_qr_scan", "ios": "https://dc.lft.to/lastmile_qr_scan"}, "lat": 38.906772833333335, "is_disabled": 0, "lon": -77.036582}, {"fusion_lat": 0.0, "type": "electric_scooter", "name": "c76d1b26c3a6a5ffa30485fd9bedff4f", "fusion_lon": 0.0, "bike_id": "c76d1b26c3a6a5ffa30485fd9bedff4f", "is_reserved": 0, "rental_uris": {"android": "https://dc.lft.to/lastmile_qr_scan", "ios": "https://dc.lft.to/lastmile_qr_scan"}, "lat": 38.920517, "is_disabled": 0, "lon": -77.02201183333334}, {"fusion_lat": 0.0, "type": "electric_scooter", "name": "6fae13e16522aa6daaa564dd1a103f3c", "fusion_lon": 0.0, "bike_id": "6fae13e16522aa6daaa564dd1a103f3c", "is_reserved": 0, "rental_uris": {"android": "https://dc.lft.to/lastmile_qr_scan", "ios": "https://dc.lft.to/lastmile_qr_scan"}, "lat": 38.913313333333335, "is_disabled": 0, "lon": -77.04578966666666}, {"fusion_lat": 0.0, "type": "electric_scooter", "name": "42a30a9962b3d61fed3a1d2af15ed523", "fusion_lon": 0.0, "bike_id": "42a30a9962b3d61fed3a1d2af15ed523", "is_reserved": 0, "rental_uris": {"android": "https://dc.lft.to/lastmile_qr_scan", "ios": "https://dc.lft.to/lastmile_qr_scan"}, "lat": 38.902567833333336, "is_disabled": 0, "lon": -77.00742933333333}, {"fusion_lat": 0.0, "type": "electric_scooter", "name": "c06a9a07b4a5d9bc9ea889c9b4710879", "fusion_lon": 0.0, "bike_id": "c06a9a07b4a5d9bc9ea889c9b4710879", "is_reserved": 0, "rental_uris": {"android": "https://dc.lft.to/lastmile_qr_scan", "ios": "https://dc.lft.to/lastmile_qr_scan"}, "lat": 38.892354833333336, "is_disabled": 0, "lon": -77.03208816666667}, {"fusion_lat": 0.0, "type": "electric_scooter", "name": "dd5e2abbc6df96a4d5dfd023d1379fba", "fusion_lon": 0.0, "bike_id": "dd5e2abbc6df96a4d5dfd023d1379fba", "is_reserved": 0, "rental_uris": {"android": "https://dc.lft.to/lastmile_qr_scan", "ios": "https://dc.lft.to/lastmile_qr_scan"}, "lat": 38.96779733333333, "is_disabled": 0, "lon": -77.0151295}, {"fusion_lat": 0.0, "type": "electric_scooter", "name": "440ad15a445af7c728eea0e1dccd0ab8", "fusion_lon": 0.0, "bike_id": "440ad15a445af7c728eea0e1dccd0ab8", "is_reserved": 0, "rental_uris": {"android": "https://dc.lft.to/lastmile_qr_scan", "ios": "https://dc.lft.to/lastmile_qr_scan"}, "lat": 38.895055166666666, "is_disabled": 0, "lon": -77.04659566666666}, {"fusion_lat": 0.0, "type": "electric_bike", "name": "ad18092e6a4bea11391d5e65bfc09255", "fusion_lon": 0.0, "bike_id": "ad18092e6a4bea11391d5e65bfc09255", "is_reserved": 0, "rental_uris": {"android": "https://dc.lft.to/lastmile_qr_scan", "ios": "https://dc.lft.to/lastmile_qr_scan"}, "lat": 38.953282333333334, "is_disabled": 0, "lon": -76.95428816666667}, {"fusion_lat": 0.0, "type": "electric_scooter", "name": "7542981d4306caaa23be98e2e1298493", "fusion_lon": 0.0, "bike_id": "7542981d4306caaa23be98e2e1298493", "is_reserved": 0, "rental_uris": {"android": "https://dc.lft.to/lastmile_qr_scan", "ios": "https://dc.lft.to/lastmile_qr_scan"}, "lat": 38.91119366666667, "is_disabled": 0, "lon": -77.03153533333334}, {"fusion_lat": 0.0, "type": "electric_scooter", "name": "504822c431b26461550d8c3ac17385f7", "fusion_lon": 0.0, "bike_id": "504822c431b26461550d8c3ac17385f7", "is_reserved": 0, "rental_uris": {"android": "https://dc.lft.to/lastmile_qr_scan", "ios": "https://dc.lft.to/lastmile_qr_scan"}, "lat": 38.91978733333333, "is_disabled": 0, "lon": -77.03964816666667}, {"fusion_lat": 0.0, "type": "electric_scooter", "name": "364c172ef4e48c5a8e0f2fe5e9b0da54", "fusion_lon": 0.0, "bike_id": "364c172ef4e48c5a8e0f2fe5e9b0da54", "is_reserved": 0, "rental_uris": {"android": "https://dc.lft.to/lastmile_qr_scan", "ios": "https://dc.lft.to/lastmile_qr_scan"}, "lat": 38.900376666666666, "is_disabled": 0, "lon": -76.99826283333333}, {"fusion_lat": 0.0, "type": "electric_scooter", "name": "68e68ed0e90d064f4c01914f1c09391f", "fusion_lon": 0.0, "bike_id": "68e68ed0e90d064f4c01914f1c09391f", "is_reserved": 0, "rental_uris": {"android": "https://dc.lft.to/lastmile_qr_scan", "ios": "https://dc.lft.to/lastmile_qr_scan"}, "lat": 38.925645333333335, "is_disabled": 0, "lon": -77.02283783333333}, {"fusion_lat": 0.0, "type": "electric_scooter", "name": "f0079b88494944b36e4a9e4d610e43c5", "fusion_lon": 0.0, "bike_id": "f0079b88494944b36e4a9e4d610e43c5", "is_reserved": 0, "rental_uris": {"android": "https://dc.lft.to/lastmile_qr_scan", "ios": "https://dc.lft.to/lastmile_qr_scan"}, "lat": 38.904136666666666, "is_disabled": 0, "lon": -76.9808275}, {"fusion_lat": 0.0, "type": "electric_scooter", "name": "448199963b3025f76db2632b2ebdebea", "fusion_lon": 0.0, "bike_id": "448199963b3025f76db2632b2ebdebea", "is_reserved": 0, "rental_uris": {"android": "https://dc.lft.to/lastmile_qr_scan", "ios": "https://dc.lft.to/lastmile_qr_scan"}, "lat": 38.89235566666667, "is_disabled": 0, "lon": -77.031828}, {"fusion_lat": 0.0, "type": "electric_scooter", "name": "e58f0c992629e823e3aa7e6b2f033421", "fusion_lon": 0.0, "bike_id": "e58f0c992629e823e3aa7e6b2f033421", "is_reserved": 0, "rental_uris": {"android": "https://dc.lft.to/lastmile_qr_scan", "ios": "https://dc.lft.to/lastmile_qr_scan"}, "lat": 38.94509816666667, "is_disabled": 0, "lon": -77.03320066666667}, {"fusion_lat": 0.0, "type": "electric_scooter", "name": "1d434365b8c97e121bba6dbfd882adfd", "fusion_lon": 0.0, "bike_id": "1d434365b8c97e121bba6dbfd882adfd", "is_reserved": 0, "rental_uris": {"android": "https://dc.lft.to/lastmile_qr_scan", "ios": "https://dc.lft.to/lastmile_qr_scan"}, "lat": 38.9211535, "is_disabled": 0, "lon": -77.02199833333333}, {"fusion_lat": 0.0, "type": "electric_scooter", "name": "63bbb8762df1f4f92505d4f98f71533b", "fusion_lon": 0.0, "bike_id": "63bbb8762df1f4f92505d4f98f71533b", "is_reserved": 0, "rental_uris": {"android": "https://dc.lft.to/lastmile_qr_scan", "ios": "https://dc.lft.to/lastmile_qr_scan"}, "lat": 38.905899166666664, "is_disabled": 0, "lon": -77.04236266666666}, {"fusion_lat": 0.0, "type": "electric_bike", "name": "00c9453d8c866387b46c6ca76f1ca478", "fusion_lon": 0.0, "bike_id": "00c9453d8c866387b46c6ca76f1ca478", "is_reserved": 0, "rental_uris": {"android": "https://dc.lft.to/lastmile_qr_scan", "ios": "https://dc.lft.to/lastmile_qr_scan"}, "lat": 38.85894483333333, "is_disabled": 0, "lon": -77.11860366666667}, {"fusion_lat": 0.0, "type": "electric_scooter", "name": "fbf5ae38426d27a24d2bc26a43062e9b", "fusion_lon": 0.0, "bike_id": "fbf5ae38426d27a24d2bc26a43062e9b", "is_reserved": 0, "rental_uris": {"android": "https://dc.lft.to/lastmile_qr_scan", "ios": "https://dc.lft.to/lastmile_qr_scan"}, "lat": 38.90210183333333, "is_disabled": 0, "lon": -77.0466495}, {"fusion_lat": 0.0, "type": "electric_bike", "name": "0e69dfdffbbf13c089c9ce4ca4317ae9", "fusion_lon": 0.0, "bike_id": "0e69dfdffbbf13c089c9ce4ca4317ae9", "is_reserved": 0, "rental_uris": {"android": "https://dc.lft.to/lastmile_qr_scan", "ios": "https://dc.lft.to/lastmile_qr_scan"}, "lat": 38.981518333333334, "is_disabled": 0, "lon": -77.02642683333333}, {"fusion_lat": 0.0, "type": "electric_bike", "name": "03b084d30d2a0daa749c3eb84fb3a430", "fusion_lon": 0.0, "bike_id": "03b084d30d2a0daa749c3eb84fb3a430", "is_reserved": 0, "rental_uris": {"android": "https://dc.lft.to/lastmile_qr_scan", "ios": "https://dc.lft.to/lastmile_qr_scan"}, "lat": 38.859389666666665, "is_disabled": 0, "lon": -77.11828483333333}, {"fusion_lat": 0.0, "type": "electric_scooter", "name": "9b8ec9b271dff0d099b7cf6a86ea835a", "fusion_lon": 0.0, "bike_id": "9b8ec9b271dff0d099b7cf6a86ea835a", "is_reserved": 0, "rental_uris": {"android": "https://dc.lft.to/lastmile_qr_scan", "ios": "https://dc.lft.to/lastmile_qr_scan"}, "lat": 38.921533, "is_disabled": 0, "lon": -77.03389733333333}, {"fusion_lat": 0.0, "type": "electric_scooter", "name": "74882d85d66fd4f22e7f5b9dac212176", "fusion_lon": 0.0, "bike_id": "74882d85d66fd4f22e7f5b9dac212176", "is_reserved": 0, "rental_uris": {"android": "https://dc.lft.to/lastmile_qr_scan", "ios": "https://dc.lft.to/lastmile_qr_scan"}, "lat": 38.949820333333335, "is_disabled": 0, "lon": -77.027036}, {"fusion_lat": 0.0, "type": "electric_scooter", "name": "bf14c2f16fe43282277de2f61dd0fd47", "fusion_lon": 0.0, "bike_id": "bf14c2f16fe43282277de2f61dd0fd47", "is_reserved": 0, "rental_uris": {"android": "https://dc.lft.to/lastmile_qr_scan", "ios": "https://dc.lft.to/lastmile_qr_scan"}, "lat": 38.913632666666665, "is_disabled": 0, "lon": -77.0455935}, {"fusion_lat": 0.0, "type": "electric_scooter", "name": "2828e6eaec44f640f2d5a62a0d7a634d", "fusion_lon": 0.0, "bike_id": "2828e6eaec44f640f2d5a62a0d7a634d", "is_reserved": 0, "rental_uris": {"android": "https://dc.lft.to/lastmile_qr_scan", "ios": "https://dc.lft.to/lastmile_qr_scan"}, "lat": 38.8860975, "is_disabled": 0, "lon": -77.0013745}, {"fusion_lat": 0.0, "type": "electric_scooter", "name": "83df5625aab3a3f4c3bc65788391a7e6", "fusion_lon": 0.0, "bike_id": "83df5625aab3a3f4c3bc65788391a7e6", "is_reserved": 0, "rental_uris": {"android": "https://dc.lft.to/lastmile_qr_scan", "ios": "https://dc.lft.to/lastmile_qr_scan"}, "lat": 38.8871565, "is_disabled": 0, "lon": -77.02205566666666}, {"fusion_lat": 0.0, "type": "electric_scooter", "name": "51ee9e7d5df583f4c0711b11a46558ea", "fusion_lon": 0.0, "bike_id": "51ee9e7d5df583f4c0711b11a46558ea", "is_reserved": 0, "rental_uris": {"android": "https://dc.lft.to/lastmile_qr_scan", "ios": "https://dc.lft.to/lastmile_qr_scan"}, "lat": 38.91822366666667, "is_disabled": 0, "lon": -77.0319115}, {"fusion_lat": 0.0, "type": "electric_scooter", "name": "6a6e37b262c29960d8a579af2dbcee8b", "fusion_lon": 0.0, "bike_id": "6a6e37b262c29960d8a579af2dbcee8b", "is_reserved": 0, "rental_uris": {"android": "https://dc.lft.to/lastmile_qr_scan", "ios": "https://dc.lft.to/lastmile_qr_scan"}, "lat": 38.92659583333333, "is_disabled": 0, "lon": -77.02285033333334}, {"fusion_lat": 0.0, "type": "electric_scooter", "name": "3c26d8878418941dc8f5d5e69488b63e", "fusion_lon": 0.0, "bike_id": "3c26d8878418941dc8f5d5e69488b63e", "is_reserved": 0, "rental_uris": {"android": "https://dc.lft.to/lastmile_qr_scan", "ios": "https://dc.lft.to/lastmile_qr_scan"}, "lat": 38.8930635, "is_disabled": 0, "lon": -76.92917066666666}, {"fusion_lat": 0.0, "type": "electric_scooter", "name": "4678ba4e054240b82cdcd64beeb12d57", "fusion_lon": 0.0, "bike_id": "4678ba4e054240b82cdcd64beeb12d57", "is_reserved": 0, "rental_uris": {"android": "https://dc.lft.to/lastmile_qr_scan", "ios": "https://dc.lft.to/lastmile_qr_scan"}, "lat": 38.8710915, "is_disabled": 0, "lon": -77.007608},