{"data": {"bikes": [{"lat": 38.9140245, "fusion_lon": 0.0, "lon": -77.04487583333334, "is_disabled": 0, "type": "electric_scooter", "name": "ba832584d65ba87cee90cc166f26a4c5", "fusion_lat": 0.0, "rental_uris": {"android": "https://dc.lft.to/lastmile_qr_scan", "ios": "https://dc.lft.to/lastmile_qr_scan"}, "bike_id": "ba832584d65ba87cee90cc166f26a4c5", "is_reserved": 0}, {"lat": 38.852021, "fusion_lon": 0.0, "lon": -76.97080083333333, "is_disabled": 0, "type": "electric_scooter", "name": "c21bcfcb0fe65b577848f574866fd10f", "fusion_lat": 0.0, "rental_uris": {"android": "https://dc.lft.to/lastmile_qr_scan", "ios": "https://dc.lft.to/lastmile_qr_scan"}, "bike_id": "c21bcfcb0fe65b577848f574866fd10f", "is_reserved": 0}, {"lat": 38.917208, "fusion_lon": 0.0, "lon": -77.03345483333334, "is_disabled": 0, "type": "electric_scooter", "name": "93f2d76007e4a748d2096d723e6de4a6", "fusion_lat": 0.0, "rental_uris": {"android": "https://dc.lft.to/lastmile_qr_scan", "ios": "https://dc.lft.to/lastmile_qr_scan"}, "bike_id": "93f2d76007e4a748d2096d723e6de4a6", "is_reserved": 0}, {"lat": 38.893248, "fusion_lon": 0.0, "lon": -76.939779, "is_disabled": 0, "type": "electric_scooter", "name": "9a9d6e407e7a98fcabb8f0b150e385b8", "fusion_lat": 0.0, "rental_uris": {"android": "https://dc.lft.to/lastmile_qr_scan", "ios": "https://dc.lft.to/lastmile_qr_scan"}, "bike_id": "9a9d6e407e7a98fcabb8f0b150e385b8", "is_reserved": 0}, {"lat": 38.9200005, "fusion_lon": 0.0, "lon": -77.02141733333333, "is_disabled": 0, "type": "electric_scooter", "name": "4a3074b66c413c9e4d6e7cd6ad729190", "fusion_lat": 0.0, "rental_uris": {"android": "https://dc.lft.to/lastmile_qr_scan", "ios": "https://dc.lft.to/lastmile_qr_scan"}, "bike_id": "4a3074b66c413c9e4d6e7cd6ad729190", "is_reserved": 0}, {"lat": 38.92203283333333, "fusion_lon": 0.0, "lon": -77.02962783333334, "is_disabled": 0, "type": "electric_scooter", "name": "5b38142bb8a885354ced7b72499b16b9", "fusion_lat": 0.0, "rental_uris": {"android": "https://dc.lft.to/lastmile_qr_scan", "ios": "https://dc.lft.to/lastmile_qr_scan"}, "bike_id": "5b38142bb8a885354ced7b72499b16b9", "is_reserved": 0}, {"lat": 38.8981385, "fusion_lon": 0.0, "lon": -76.9907705, "is_disabled": 0, "type": "electric_bike", "name": "8444428563cb859e70fb878a2af7239e", "fusion_lat": 0.0, "rental_uris": {"android": "https://dc.lft.to/lastmile_qr_scan", "ios": "https://dc.lft.to/lastmile_qr_scan"}, "bike_id": "8444428563cb859e70fb878a2af7239e", "is_reserved": 0}, {"lat": 38.92150816666667, "fusion_lon": 0.0, "lon": -77.0209875, "is_disabled": 0, "type": "electric_scooter", "name": "80281cbe661b1badb61c0d2bf1fbd5e0", "fusion_lat": 0.0, "rental_uris": {"android": "https://dc.lft.to/lastmile_qr_scan", "ios": "https://dc.lft.to/lastmile_qr_scan"}, "bike_id": "80281cbe661b1badb61c0d2bf1fbd5e0", "is_reserved": 0}, {"lat": 38.9025215, "fusion_lon": 0.0, "lon": -77.04523283333333, "is_disabled": 0, "type": "electric_scooter", "name": "053315d836558cf88b23b4cfca754f7c", "fusion_lat": 0.0, "rental_uris": {"android": "https://dc.lft.to/lastmile_qr_scan", "ios": "https://dc.lft.to/lastmile_qr_scan"}, "bike_id": "053315d836558cf88b23b4cfca754f7c", "is_reserved": 0}, {"lat": 38.91783616666667, "fusion_lon": 0.0, "lon": -77.04030616666667, "is_disabled": 0, "type": "electric_scooter", "name": "200ba2a9bbab2ad8f234d3213f477d62", "fusion_lat": 0.0, "rental_uris": {"android": "https://dc.lft.to/lastmile_qr_scan", "ios": "https://dc.lft.to/lastmile_qr_scan"}, "bike_id": "200ba2a9bbab2ad8f234d3213f477d62", "is_reserved": 0}, {"lat": 38.902876666666664, "fusion_lon": 0.0, "lon": -77.046112, "is_disabled": 0, "type": "electric_scooter", "name": "ed5972df24277938c9971279df95da01", "fusion_lat": 0.0, "rental_uris": {"android": "https://dc.lft.to/lastmile_qr_scan", "ios": "https://dc.lft.to/lastmile_qr_scan"}, "bike_id": "ed5972df24277938c9971279df95da01", "is_reserved": 0}, {"lat": 38.89971, "fusion_lon": 0.0, "lon": -77.03174183333333, "is_disabled": 0, "type": "electric_scooter", "name": "0ae2d8ca1979107d83bdc308f4377bea", "fusion_lat": 0.0, "rental_uris": {"android": "https://dc.lft.to/lastmile_qr_scan", "ios": "https://dc.lft.to/lastmile_qr_scan"}, "bike_id": "0ae2d8ca1979107d83bdc308f4377bea", "is_reserved": 0}, {"lat": 38.917296666666665, "fusion_lon": 0.0, "lon": -77.0416115, "is_disabled": 0, "type": "electric_scooter", "name": "6e44cbb8f2d1b05537a06e4a56816dd1", "fusion_lat": 0.0, "rental_uris": {"android": "https://dc.lft.to/lastmile_qr_scan", "ios": "https://dc.lft.to/lastmile_qr_scan"}, "bike_id": "6e44cbb8f2d1b05537a06e4a56816dd1", "is_reserved": 0}, {"lat": 38.89231683333333, "fusion_lon": 0.0, "lon": -77.02384, "is_disabled": 0, "type": "electric_scooter", "name": "24e59f02baeab5d38b1f11d1a4fe9b82", "fusion_lat": 0.0, "rental_uris": {"android": "https://dc.lft.to/lastmile_qr_scan", "ios": "https://dc.lft.to/lastmile_qr_scan"}, "bike_id": "24e59f02baeab5d38b1f11d1a4fe9b82", "is_reserved": 0}, {"lat": 38.8664875, "fusion_lon": 0.0, "lon": -76.98515066666667, "is_disabled": 0, "type": "electric_scooter", "name": "6e15e7728cce77d852059e5543f7d17a", "fusion_lat": 0.0, "rental_uris": {"android": "https://dc.lft.to/lastmile_qr_scan", "ios": "https://dc.lft.to/lastmile_qr_scan"}, "bike_id": "6e15e7728cce77d852059e5543f7d17a", "is_reserved": 0}, {"lat": 38.92224183333333, "fusion_lon": 0.0, "lon": -77.0424325, "is_disabled": 0, "type": "electric_scooter", "name": "79f3cc7c4d4b413d9b9a3b5a205811fb", "fusion_lat": 0.0, "rental_uris": {"android": "https://dc.lft.to/lastmile_qr_scan", "ios": "https://dc.lft.to/lastmile_qr_scan"}, "bike_id": "79f3cc7c4d4b413d9b9a3b5a205811fb", "is_reserved": 0}, {"lat": 38.84558616666666, "fusion_lon": 0.0, "lon": -77.066911, "is_disabled": 0, "type": "electric_bike", "name": "b0c4464f6e6c44d7213edb6abec2fc59", "fusion_lat": 0.0, "rental_uris": {"android": "https://dc.lft.to/lastmile_qr_scan", "ios": "https://dc.lft.to/lastmile_qr_scan"}, "bike_id": "b0c4464f6e6c44d7213edb6abec2fc59", "is_reserved": 0}, {"lat": 38.866570333333335, "fusion_lon": 0.0, "lon": -76.98882483333334, "is_disabled": 0, "type": "electric_scooter", "name": "44336a91d926ddc7176245931a16be9e", "fusion_lat": 0.0, "rental_uris": {"android": "https://dc.lft.to/lastmile_qr_scan", "ios": "https://dc.lft.to/lastmile_qr_scan"}, "bike_id": "44336a91d926ddc7176245931a16be9e", "is_reserved": 0}, {"lat": 38.93022116666667, "fusion_lon": 0.0, "lon": -77.0552595, "is_disabled": 0, "type": "electric_scooter", "name": "5c5dcdb5070eee3c53e860bc99a80382", "fusion_lat": 0.0, "rental_uris": {"android": "https://dc.lft.to/lastmile_qr_scan", "ios": "https://dc.lft.to/lastmile_qr_scan"}, "bike_id": "5c5dcdb5070eee3c53e860bc99a80382", "is_reserved": 0}, {"lat": 38.993417, "fusion_lon": 0.0, "lon": -77.11578383333334, "is_disabled": 0, "type": "electric_bike", "name": "f50989cea68d875c3f68311acfc17cd4", "fusion_lat": 0.0, "rental_uris": {"android": "https://dc.lft.to/lastmile_qr_scan", "ios": "https://dc.lft.to/lastmile_qr_scan"}, "bike_id": "f50989cea68d875c3f68311acfc17cd4", "is_reserved": 0}, {"lat": 38.927286, "fusion_lon": 0.0, "lon": -77.03672216666666, "is_disabled": 0, "type": "electric_scooter", "name": "d39ccad6617e91a0b3477a3d4c12fc55", "fusion_lat": 0.0, "rental_uris": {"android": "https://dc.lft.to/lastmile_qr_scan", "ios": "https://dc.lft.to/lastmile_qr_scan"}, "bike_id": "d39ccad6617e91a0b3477a3d4c12fc55", "is_reserved": 0}, {"lat": 38.9268015, "fusion_lon": 0.0, "lon": -77.02997016666667, "is_disabled": 0, "type": "electric_scooter", "name": "e735ce5e44354d8caa16d8b81975feaf", "fusion_lat": 0.0, "rental_uris": {"android": "https://dc.lft.to/lastmile_qr_scan", "ios": "https://dc.lft.to/lastmile_qr_scan"}, "bike_id": "e735ce5e44354d8caa16d8b81975feaf", "is_reserved": 0}, {"lat": 38.89956933333333, "fusion_lon": 0.0, "lon": -77.05002733333333, "is_disabled": 0, "type": "electric_scooter", "name": "f87f6a622710c1816038722db5e442cc", "fusion_lat": 0.0, "rental_uris": {"android": "https://dc.lft.to/lastmile_qr_scan", "ios": "https://dc.lft.to/lastmile_qr_scan"}, "bike_id": "f87f6a622710c1816038722db5e442cc", "is_reserved": 0}, {"lat": 39.06294166666667, "fusion_lon": 0.0, "lon": -77.04981733333334, "is_disabled": 0, "type": "electric_bike", "name": "0dbf90335b1616fe73a01cadf9c30404", "fusion_lat": 0.0, "rental_uris": {"android": "https://dc.lft.to/lastmile_qr_scan", "ios": "https://dc.lft.to/lastmile_qr_scan"}, "bike_id": "0dbf90335b1616fe73a01cadf9c30404", "is_reserved": 0}, {"lat": 38.883045, "fusion_lon": 0.0, "lon": -76.978676, "is_disabled": 0, "type": "electric_scooter", "name": "d34d24aaea26f92c3e1464659b925d5a", "fusion_lat": 0.0, "rental_uris": {"android": "https://dc.lft.to/lastmile_qr_scan", "ios": "https://dc.lft.to/lastmile_qr_scan"}, "bike_id": "d34d24aaea26f92c3e1464659b925d5a", "is_reserved": 0}, {"lat": 38.916631333333335, "fusion_lon": 0.0, "lon": -77.0385985, "is_disabled": 0, "type": "electric_scooter", "name": "12eea9fd9a1498b972ef36d67c4d79a3", "fusion_lat": 0.0, "rental_uris": {"android": "https://dc.lft.to/lastmile_qr_scan", "ios": "https://dc.lft.to/lastmile_qr_scan"}, "bike_id": "12eea9fd9a1498b972ef36d67c4d79a3", "is_reserved": 0}, {"lat": 38.924085166666664, "fusion_lon": 0.0, "lon": -77.051661, "is_disabled": 0, "type": "electric_scooter", "name": "087ab5328b38f3cc2e08489969e38f1f", "fusion_lat": 0.0, "rental_uris": {"android": "https://dc.lft.to/lastmile_qr_scan", "ios": "https://dc.lft.to/lastmile_qr_scan"}, "bike_id": "087ab5328b38f3cc2e08489969e38f1f", "is_reserved": 0}, {"lat": 38.90036583333333, "fusion_lon": 0.0, "lon": -76.94444333333334, "is_disabled": 0, "type": "electric_scooter", "name": "0bdc3b421f9ae56db34625f56fd37638", "fusion_lat": 0.0, "rental_uris": {"android": "https://dc.lft.to/lastmile_qr_scan", "ios": "https://dc.lft.to/lastmile_qr_scan"}, "bike_id": "0bdc3b421f9ae56db34625f56fd37638", "is_reserved": 0}, {"lat": 38.89349133333333, "fusion_lon": 0.0, "lon": -77.04641333333333, "is_disabled": 0, "type": "electric_scooter", "name": "b13865b684268ba8edc4fce47427917e", "fusion_lat": 0.0, "rental_uris": {"android": "https://dc.lft.to/lastmile_qr_scan", "ios": "https://dc.lft.to/lastmile_qr_scan"}, "bike_id": "b13865b684268ba8edc4fce47427917e", "is_reserved": 0}, {"lat": 38.906262166666664, "fusion_lon": 0.0, "lon": -77.04812716666666, "is_disabled": 0, "type": "electric_scooter", "name": "16ecf1f2a67472735751035458d808c3", "fusion_lat": 0.0, "rental_uris": {"android": "https://dc.lft.to/lastmile_qr_scan", "ios": "https://dc.lft.to/lastmile_qr_scan"}, "bike_id": "16ecf1f2a67472735751035458d808c3", "is_reserved": 0}, {"lat": 38.899483333333336, "fusion_lon": 0.0, "lon": -77.04216966666667, "is_disabled": 0, "type": "electric_scooter", "name": "14cfc13504c5765aeaa4b2cafea16cac", "fusion_lat": 0.0, "rental_uris": {"android": "https://dc.lft.to/lastmile_qr_scan", "ios": "https://dc.lft.to/lastmile_qr_scan"}, "bike_id": "14cfc13504c5765aeaa4b2cafea16cac", "is_reserved": 0}, {"lat": 38.89913683333333, "fusion_lon": 0.0, "lon": -76.933813, "is_disabled": 0, "type": "electric_scooter", "name": "eeae756ab4aa287d79201118aa5a1e0e", "fusion_lat": 0.0, "rental_uris": {"android": "https://dc.lft.to/lastmile_qr_scan", "ios": "https://dc.lft.to/lastmile_qr_scan"}, "bike_id": "eeae756ab4aa287d79201118aa5a1e0e", "is_reserved": 0}, {"lat": 38.892211833333334, "fusion_lon": 0.0, "lon": -77.02350666666666, "is_disabled": 0, "type": "electric_scooter", "name": "c22f37744c65bca8bec7174fcae011a7", "fusion_lat": 0.0, "rental_uris": {"android": "https://dc.lft.to/lastmile_qr_scan", "ios": "https://dc.lft.to/lastmile_qr_scan"}, "bike_id": "c22f37744c65bca8bec7174fcae011a7", "is_reserved": 0}, {"lat": 38.9155275, "fusion_lon": 0.0, "lon": -77.0313185, "is_disabled": 0, "type": "electric_scooter", "name": "fce8899f0764236ebf294fed8191b6a2", "fusion_lat": 0.0, "rental_uris": {"android": "https://dc.lft.to/lastmile_qr_scan", "ios": "https://dc.lft.to/lastmile_qr_scan"}, "bike_id": "fce8899f0764236ebf294fed8191b6a2", "is_reserved": 0}, {"lat": 38.92724316666666, "fusion_lon": 0.0, "lon": -77.03683233333334, "is_disabled": 0, "type": "electric_scooter", "name": "6a5efd4c9e3b79feee0d0077dd026202", "fusion_lat": 0.0, "rental_uris": {"android": "https://dc.lft.to/lastmile_qr_scan", "ios": "https://dc.lft.to/lastmile_qr_scan"}, "bike_id": "6a5efd4c9e3b79feee0d0077dd026202", "is_reserved": 0}, {"lat": 38.896034, "fusion_lon": 0.0, "lon": -77.01316883333334, "is_disabled": 0, "type": "electric_scooter", "name": "916b9a185cb698ef00e8c8e3557576da", "fusion_lat": 0.0, "rental_uris": {"android": "https://dc.lft.to/lastmile_qr_scan", "ios": "https://dc.lft.to/lastmile_qr_scan"}, "bike_id": "916b9a185cb698ef00e8c8e3557576da", "is_reserved": 0}, {"lat": 38.900216666666665, "fusion_lon": 0.0, "lon": -76.9520425, "is_disabled": 0, "type": "electric_scooter", "name": "735892c6184d3aa7855bf90933e9aa6e", "fusion_lat": 0.0, "rental_uris": {"android": "https://dc.lft.to/lastmile_qr_scan", "ios": "https://dc.lft.to/lastmile_qr_scan"}, "bike_id": "735892c6184d3aa7855bf90933e9aa6e", "is_reserved": 0}, {"lat": 38.915510833333336, "fusion_lon": 0.0, "lon": -77.03138516666667, "is_disabled": 0, "type": "electric_scooter", "name": "08e3eaa48a99dd544a636927af2a4bc1", "fusion_lat": 0.0, "rental_uris": {"android": "https://dc.lft.to/lastmile_qr_scan", "ios": "https://dc.lft.to/lastmile_qr_scan"}, "bike_id": "08e3eaa48a99dd544a636927af2a4bc1", "is_reserved": 0}, {"lat": 38.90133683333333, "fusion_lon": 0.0, "lon": -77.03311683333334, "is_disabled": 0, "type": "electric_scooter", "name": "1749466c8588feac533fe5196500bf5a", "fusion_lat": 0.0, "rental_uris": {"android": "https://dc.lft.to/lastmile_qr_scan", "ios": "https://dc.lft.to/lastmile_qr_scan"}, "bike_id": "1749466c8588feac533fe5196500bf5a", "is_reserved": 0}, {"lat": 38.902105666666664, "fusion_lon": 0.0, "lon": -77.04587566666666, "is_disabled": 0, "type": "electric_scooter", "name": "bd3b0b6473a7490ffe1b3e9a6afddb87", "fusion_lat": 0.0, "rental_uris": {"android": "https://dc.lft.to/lastmile_qr_scan", "ios": "https://dc.lft.to/lastmile_qr_scan"}, "bike_id": "bd3b0b6473a7490ffe1b3e9a6afddb87", "is_reserved": 0}, {"lat": 38.917112833333334, "fusion_lon": 0.0, "lon": -77.0260485, "is_disabled": 0, "type": "electric_scooter", "name": "12e369df62cac0ace09a974a40659264", "fusion_lat": 0.0, "rental_uris": {"android": "https://dc.lft.to/lastmile_qr_scan", "ios": "https://dc.lft.to/lastmile_qr_scan"}, "bike_id": "12e369df62cac0ace09a974a40659264", "is_reserved": 0}, {"lat": 38.88812733333334, "fusion_lon": 0.0, "lon": -77.03846066666667, "is_disabled": 0, "type": "electric_bike", "name": "f9af6e2a855a969da22a666b94cd1166", "fusion_lat": 0.0, "rental_uris": {"android": "https://dc.lft.to/lastmile_qr_scan", "ios": "https://dc.lft.to/lastmile_qr_scan"}, "bike_id": "f9af6e2a855a969da22a666b94cd1166", "is_reserved": 0}, {"lat": 38.883123166666664, "fusion_lon": 0.0, "lon": -77.0174265, "is_disabled": 0, "type": "electric_scooter", "name": "b38d001010e1ce372a1c6103f79ce1db", "fusion_lat": 0.0, "rental_uris": {"android": "https://dc.lft.to/lastmile_qr_scan", "ios": "https://dc.lft.to/lastmile_qr_scan"}, "bike_id": "b38d001010e1ce372a1c6103f79ce1db", "is_reserved": 0}, {"lat": 38.9168885, "fusion_lon": 0.0, "lon": -77.02597183333333, "is_disabled": 0, "type": "electric_scooter", "name": "e168a3937e6bd96c3a94a3686429e8ed", "fusion_lat": 0.0, "rental_uris": {"android": "https://dc.lft.to/lastmile_qr_scan", "ios": "https://dc.lft.to/lastmile_qr_scan"}, "bike_id": "e168a3937e6bd96c3a94a3686429e8ed", "is_reserved": 0}, {"lat": 38.892382166666664, "fusion_lon": 0.0, "lon": -77.04161983333333, "is_disabled": 0, "type": "electric_scooter", "name": "a3e756a627b69f8169aaa1cc65059357", "fusion_lat": 0.0, "rental_uris": {"android": "https://dc.lft.to/lastmile_qr_scan", "ios": "https://dc.lft.to/lastmile_qr_scan"}, "bike_id": "a3e756a627b69f8169aaa1cc65059357", "is_reserved": 0}, {"lat": 38.9038, "fusion_lon": 0.0, "lon": -77.03820983333334, "is_disabled": 0, "type": "electric_scooter", "name": "79254960a9005d531f18bc3ff6196e63", "fusion_lat": 0.0, "rental_uris": {"android": "https://dc.lft.to/lastmile_qr_scan", "ios": "https://dc.lft.to/lastmile_qr_scan"}, "bike_id": "79254960a9005d531f18bc3ff6196e63", "is_reserved": 0}, {"lat": 38.9377695, "fusion_lon": 0.0, "lon": -77.01914333333333, "is_disabled": 0, "type": "electric_bike", "name": "a7a52edfa27fc892d9ec5f08fdab97ce", "fusion_lat": 0.0, "rental_uris": {"android": "https://dc.lft.to/lastmile_qr_scan", "ios": "https://dc.lft.to/lastmile_qr_scan"}, "bike_id": "a7a52edfa27fc892d9ec5f08fdab97ce", "is_reserved": 0}, {"lat": 38.9072625, "fusion_lon": 0.0, "lon": -77.03266666666667, "is_disabled": 0, "type": "electric_scooter", "name": "f4ce9bea0ab89d3a94330382ac01bca3", "fusion_lat": 0.0, "rental_uris": {"android": "https://dc.lft.to/lastmile_qr_scan", "ios": "https://dc.lft.to/lastmile_qr_scan"}, "bike_id": "f4ce9bea0ab89d3a94330382ac01bca3", "is_reserved": 0}, {"lat": 38.90974666666666, "fusion_lon": 0.0, "lon": -77.03331266666666, "is_disabled": 0, "type": "electric_scooter", "name": "d10a86355c6c673a5825912e879bfb76", "fusion_lat": 0.0, "rental_uris": {"android": "https://dc.lft.to/lastmile_qr_scan", "ios": "https://dc.lft.to/lastmile_qr_scan"}, "bike_id": "d10a86355c6c673a5825912e879bfb76", "is_reserved": 0}, {"lat": 38.957330666666664, "fusion_lon": 0.0, "lon": -77.02402166666667, "is_disabled": 0, "type": "electric_scooter", "name": "c638dc17497908941295832aec6aa8b3", "fusion_lat": 0.0, "rental_uris": {"android": "https://dc.lft.to/lastmile_qr_scan", "ios": "https://dc.lft.to/lastmile_qr_scan"}, "bike_id": "c638dc17497908941295832aec6aa8b3", "is_reserved": 0}, {"lat": 38.89359183333333, "fusion_lon": 0.0, "lon": -77.00342266666667, "is_disabled": 0, "type": "electric_scooter", "name": "ed03b47ff47d5f0a4f9b5b4be8087045", "fusion_lat": 0.0, "rental_uris": {"android": "https://dc.lft.to/lastmile_qr_scan", "ios": "https://dc.lft.to/lastmile_qr_scan"}, "bike_id": "ed03b47ff47d5f0a4f9b5b4be8087045", "is_reserved": 0}, {"lat": 38.90301083333333, "fusion_lon": 0.0, "lon": -77.0387105, "is_disabled": 0, "type": "electric_scooter", "name": "bf9d50bd49dde38bb3553b58ba50712e", "fusion_lat": 0.0, "rental_uris": {"android": "https://dc.lft.to/lastmile_qr_scan", "ios": "https://dc.lft.to/lastmile_qr_scan"}, "bike_id": "bf9d50bd49dde38bb3553b58ba50712e", "is_reserved": 0}, {"lat": 38.879835166666666, "fusion_lon": 0.0, "lon": -76.91600616666666, "is_disabled": 0, "type": "electric_bike", "name": "da03f647ac743d68ba7c4e6207879a39", "fusion_lat": 0.0, "rental_uris": {"android": "https://dc.lft.to/lastmile_qr_scan", "ios": "https://dc.lft.to/lastmile_qr_scan"}, "bike_id": "da03f647ac743d68ba7c4e6207879a39", "is_reserved": 0}, {"lat": 38.887240166666665, "fusion_lon": 0.0, "lon": -77.0218535, "is_disabled": 0, "type": "electric_scooter", "name": "7371ee3e9925208127644a6f785ae630", "fusion_lat": 0.0, "rental_uris": {"android": "https://dc.lft.to/lastmile_qr_scan", "ios": "https://dc.lft.to/lastmile_qr_scan"}, "bike_id": "7371ee3e9925208127644a6f785ae630", "is_reserved": 0}, {"lat": 38.929461, "fusion_lon": 0.0, "lon": -77.0164395, "is_disabled": 0, "type": "electric_scooter", "name": "7837aca5fde3079868d6181a1d3b3f18", "fusion_lat": 0.0, "rental_uris": {"android": "https://dc.lft.to/lastmile_qr_scan", "ios": "https://dc.lft.to/lastmile_qr_scan"}, "bike_id": "7837aca5fde3079868d6181a1d3b3f18", "is_reserved": 0}, {"lat": 38.800161833333334, "fusion_lon": 0.0, "lon": -77.054831, "is_disabled": 0, "type": "electric_bike", "name": "df1ef8ce8206fa3812bd859224a0bf1e", "fusion_lat": 0.0, "rental_uris": {"android": "https://dc.lft.to/lastmile_qr_scan", "ios": "https://dc.lft.to/lastmile_qr_scan"}, "bike_id": "df1ef8ce8206fa3812bd859224a0bf1e", "is_reserved": 0}, {"lat": 38.907304, "fusion_lon": 0.0, "lon": -77.04503066666666, "is_disabled": 0, "type": "electric_scooter", "name": "9e3de990419bf31aa918950cb274a20a", "fusion_lat": 0.0, "rental_uris": {"android": "https://dc.lft.to/lastmile_qr_scan", "ios": "https://dc.lft.to/lastmile_qr_scan"}, "bike_id": "9e3de990419bf31aa918950cb274a20a", "is_reserved": 0}, {"lat": 38.8450625, "fusion_lon": 0.0, "lon": -76.99356066666667, "is_disabled": 0, "type": "electric_bike", "name": "92267919d346c6bf108c9228982d0369", "fusion_lat": 0.0, "rental_uris": {"android": "https://dc.lft.to/lastmile_qr_scan", "ios": "https://dc.lft.to/lastmile_qr_scan"}, "bike_id": "92267919d346c6bf108c9228982d0369", "is_reserved": 0}, {"lat": 38.932740333333335, "fusion_lon": 0.0, "lon": -77.0284035, "is_disabled": 0, "type": "electric_scooter", "name": "2e11d605d04059ffd36d754ea5ec32ac", "fusion_lat": 0.0, "rental_uris": {"android": "https://dc.lft.to/lastmile_qr_scan", "ios": "https://dc.lft.to/lastmile_qr_scan"}, "bike_id": "2e11d605d04059ffd36d754ea5ec32ac", "is_reserved": 0}, {"lat": 38.910675833333336, "fusion_lon": 0.0, "lon": -77.0448435, "is_disabled": 0, "type": "electric_scooter", "name": "9addc3834cd67ea8ea6ee2a207463dc2", "fusion_lat": 0.0, "rental_uris": {"android": "https://dc.lft.to/lastmile_qr_scan", "ios": "https://dc.lft.to/lastmile_qr_scan"}, "bike_id": "9addc3834cd67ea8ea6ee2a207463dc2", "is_reserved": 0}, {"lat": 38.918448166666664, "fusion_lon": 0.0, "lon": -76.96559516666667, "is_disabled": 0, "type": "electric_scooter", "name": "d5167785f3141c5090d88579be9fc269", "fusion_lat": 0.0, "rental_uris": {"android": "https://dc.lft.to/lastmile_qr_scan", "ios": "https://dc.lft.to/lastmile_qr_scan"}, "bike_id": "d5167785f3141c5090d88579be9fc269", "is_reserved": 0}, {"lat": 38.92532833333333, "fusion_lon": 0.0, "lon": -77.00106616666666, "is_disabled": 0, "type": "electric_bike", "name": "82cd2aae84567f9f6790f60c21799305", "fusion_lat": 0.0, "rental_uris": {"android": "https://dc.lft.to/lastmile_qr_scan", "ios": "https://dc.lft.to/lastmile_qr_scan"}, "bike_id": "82cd2aae84567f9f6790f60c21799305", "is_reserved": 0}, {"lat": 38.904704333333335, "fusion_lon": 0.0, "lon": -77.03783716666666, "is_disabled": 0, "type": "electric_scooter", "name": "0327206a67b9a4939b2f96de649a4e7d", "fusion_lat": 0.0, "rental_uris": {"android": "https://dc.lft.to/lastmile_qr_scan", "ios": "https://dc.lft.to/lastmile_qr_scan"}, "bike_id": "0327206a67b9a4939b2f96de649a4e7d", "is_reserved": 0}, {"lat": 38.866543666666665, "fusion_lon": 0.0, "lon": -76.98883766666667, "is_disabled": 0, "type": "electric_scooter", "name": "e4ec98553d75c8f9a1539baa562e0672", "fusion_lat": 0.0, "rental_uris": {"android": "https://dc.lft.to/lastmile_qr_scan", "ios": "https://dc.lft.to/lastmile_qr_scan"}, "bike_id": "e4ec98553d75c8f9a1539baa562e0672", "is_reserved": 0}, {"lat": 38.9205185, "fusion_lon": 0.0, "lon": -76.963635, "is_disabled": 0, "type": "electric_scooter", "name": "49a19bdb8f48b458f30be5ac2fcdc639", "fusion_lat": 0.0, "rental_uris": {"android": "https://dc.lft.to/lastmile_qr_scan", "ios": "https://dc.lft.to/lastmile_qr_scan"}, "bike_id": "49a19bdb8f48b458f30be5ac2fcdc639", "is_reserved": 0}, {"lat": 38.919339, "fusion_lon": 0.0, "lon": -77.0249315, "is_disabled": 0, "type": "electric_scooter", "name": "b636f093eec2a1b76ccc5b9440f00174", "fusion_lat": 0.0, "rental_uris": {"android": "https://dc.lft.to/lastmile_qr_scan", "ios": "https://dc.lft.to/lastmile_qr_scan"}, "bike_id": "b636f093eec2a1b76ccc5b9440f00174", "is_reserved": 0}, {"lat": 38.88766733333333, "fusion_lon": 0.0, "lon": -76.95577716666666, "is_disabled": 0, "type": "electric_scooter", "name": "d550feaaf2ffe17288dd9bd8c7fb2de9", "fusion_lat": 0.0, "rental_uris": {"android": "https://dc.lft.to/lastmile_qr_scan", "ios": "https://dc.lft.to/lastmile_qr_scan"}, "bike_id": "d550feaaf2ffe17288dd9bd8c7fb2de9", "is_reserved": 0}, {"lat": 38.925136, "fusion_lon": 0.0, "lon": -77.02362083333334, "is_disabled": 0, "type": "electric_scooter", "name": "16fadb02c50925eb254a0d0d9ea2fb2a", "fusion_lat": 0.0, "rental_uris": {"android": "https://dc.lft.to/lastmile_qr_scan", "ios": "https://dc.lft.to/lastmile_qr_scan"}, "bike_id": "16fadb02c50925eb254a0d0d9ea2fb2a", "is_reserved": 0}, {"lat": 38.90552366666667, "fusion_lon": 0.0, "lon": -77.04280633333333, "is_disabled": 0, "type": "electric_scooter", "name": "34bc8f678e0da5f51cab325e0babb460", "fusion_lat": 0.0, "rental_uris": {"android": "https://dc.lft.to/lastmile_qr_scan", "ios": "https://dc.lft.to/lastmile_qr_scan"}, "bike_id": "34bc8f678e0da5f51cab325e0babb460", "is_reserved": 0}, {"lat": 38.90083933333333, "fusion_lon": 0.0, "lon": -76.99364383333334, "is_disabled": 0, "type": "electric_scooter", "name": "190fe18b367fb5962b5e259bee9c19e0", "fusion_lat": 0.0, "rental_uris": {"android": "https://dc.lft.to/lastmile_qr_scan", "ios": "https://dc.lft.to/lastmile_qr_scan"}, "bike_id": "190fe18b367fb5962b5e259bee9c19e0", "is_reserved": 0}, {"lat": 38.9418315, "fusion_lon": 0.0, "lon": -77.02533333333334, "is_disabled": 0, "type": "electric_scooter", "name": "5c40804dfabe9e0f5aac852d411c8a8c", "fusion_lat": 0.0, "rental_uris": {"android": "https://dc.lft.to/lastmile_qr_scan", "ios": "https://dc.lft.to/lastmile_qr_scan"}, "bike_id": "5c40804dfabe9e0f5aac852d411c8a8c", "is_reserved": 0}, {"lat": 38.9261615, "fusion_lon": 0.0, "lon": -77.0216395, "is_disabled": 0, "type": "electric_scooter", "name": "e620b1791606dfba8746656468661f4a", "fusion_lat": 0.0, "rental_uris": {"android": "https://dc.lft.to/lastmile_qr_scan", "ios": "https://dc.lft.to/lastmile_qr_scan"}, "bike_id": "e620b1791606dfba8746656468661f4a", "is_reserved": 0}, {"lat": 38.917229166666665, "fusion_lon": 0.0, "lon": -77.02975783333333, "is_disabled": 0, "type": "electric_scooter", "name": "e97b0d2c959d468b4b8051c20c9606d6", "fusion_lat": 0.0, "rental_uris": {"android": "https://dc.lft.to/lastmile_qr_scan", "ios": "https://dc.lft.to/lastmile_qr_scan"}, "bike_id": "e97b0d2c959d468b4b8051c20c9606d6", "is_reserved": 0}, {"lat": 38.92366083333334, "fusion_lon": 0.0, "lon": -77.01927416666666, "is_disabled": 0, "type": "electric_scooter", "name": "1f3f6e8cd2c38937001e3584d82e2ff3", "fusion_lat": 0.0, "rental_uris": {"android": "https://dc.lft.to/lastmile_qr_scan", "ios": "https://dc.lft.to/lastmile_qr_scan"}, "bike_id": "1f3f6e8cd2c38937001e3584d82e2ff3", "is_reserved": 0}, {"lat": 38.905627, "fusion_lon": 0.0, "lon": -77.05909366666667, "is_disabled": 0, "type": "electric_scooter", "name": "2cb083186a7edf8bfcecedb4b490039e", "fusion_lat": 0.0, "rental_uris": {"android": "https://dc.lft.to/lastmile_qr_scan", "ios": "https://dc.lft.to/lastmile_qr_scan"}, "bike_id": "2cb083186a7edf8bfcecedb4b490039e", "is_reserved": 0}, {"lat": 38.901411333333336, "fusion_lon": 0.0, "lon": -77.03979683333333, "is_disabled": 0, "type": "electric_scooter", "name": "d5f2f83f414760e65a9ef987517d90ed", "fusion_lat": 0.0, "rental_uris": {"android": "https://dc.lft.to/lastmile_qr_scan", "ios": "https://dc.lft.to/lastmile_qr_scan"}, "bike_id": "d5f2f83f414760e65a9ef987517d90ed", "is_reserved": 0}, {"lat": 38.894977833333336, "fusion_lon": 0.0, "lon": -77.009491, "is_disabled": 0, "type": "electric_scooter", "name": "6216ffb55a6fd19d1c5b17a0c200eb61", "fusion_lat": 0.0, "rental_uris": {"android": "https://dc.lft.to/lastmile_qr_scan", "ios": "https://dc.lft.to/lastmile_qr_scan"}, "bike_id": "6216ffb55a6fd19d1c5b17a0c200eb61", "is_reserved": 0}, {"lat": 38.91688633333333, "fusion_lon": 0.0, "lon": -77.02602, "is_disabled": 0, "type": "electric_scooter", "name": "969a746b2a3b31c0b77e95cad739f81a", "fusion_lat": 0.0, "rental_uris": {"android": "https://dc.lft.to/lastmile_qr_scan", "ios": "https://dc.lft.to/lastmile_qr_scan"}, "bike_id": "969a746b2a3b31c0b77e95cad739f81a", "is_reserved": 0}, {"lat": 38.86937266666666, "fusion_lon": 0.0, "lon": -77.09470133333333, "is_disabled": 0, "type": "electric_bike", "name": "555be93e31f1c6bbb239dcd4427eaf4a", "fusion_lat": 0.0, "rental_uris": {"android": "https://dc.lft.to/lastmile_qr_scan", "ios": "https://dc.lft.to/lastmile_qr_scan"}, "bike_id": "555be93e31f1c6bbb239dcd4427eaf4a", "is_reserved": 0}, {"lat": 38.903888333333335, "fusion_lon": 0.0, "lon": -77.007394, "is_disabled": 0, "type": "electric_scooter", "name": "bce714d465ca6a25562e01e9d1366e7b", "fusion_lat": 0.0, "rental_uris": {"android": "https://dc.lft.to/lastmile_qr_scan", "ios": "https://dc.lft.to/lastmile_qr_scan"}, "bike_id": "bce714d465ca6a25562e01e9d1366e7b", "is_reserved": 0}, {"lat": 38.939713833333336, "fusion_lon": 0.0, "lon": -76.98618016666667, "is_disabled": 0, "type": "electric_bike", "name": "4b2efe84bb029ba6b87321a4efc0c602", "fusion_lat": 0.0, "rental_uris": {"android": "https://dc.lft.to/lastmile_qr_scan", "ios": "https://dc.lft.to/lastmile_qr_scan"}, "bike_id": "4b2efe84bb029ba6b87321a4efc0c602", "is_reserved": 0}, {"lat": 38.871981, "fusion_lon": 0.0, "lon": -77.00570883333333, "is_disabled": 0, "type": "electric_scooter", "name": "8e92e81d06ab8a3417635589272ce646", "fusion_lat": 0.0, "rental_uris": {"android": "https://dc.lft.to/lastmile_qr_scan", "ios": "https://dc.lft.to/lastmile_qr_scan"}, "bike_id": "8e92e81d06ab8a3417635589272ce646", "is_reserved": 0}, {"lat": 38.918200166666665, "fusion_lon": 0.0, "lon": -77.03154783333333, "is_disabled": 0, "type": "electric_scooter", "name": "a79c60101736eae939d05c30540487c5", "fusion_lat": 0.0, "rental_uris": {"android": "https://dc.lft.to/lastmile_qr_scan", "ios": "https://dc.lft.to/lastmile_qr_scan"}, "bike_id": "a79c60101736eae939d05c30540487c5", "is_reserved": 0}, {"lat": 38.920575166666666, "fusion_lon": 0.0, "lon": -77.04190683333333, "is_disabled": 0, "type": "electric_scooter", "name": "9b16ad12d9b12a3ad271fac422e10866", "fusion_lat": 0.0, "rental_uris": {"android": "https://dc.lft.to/lastmile_qr_scan", "ios": "https://dc.lft.to/lastmile_qr_scan"}, "bike_id": "9b16ad12d9b12a3ad271fac422e10866", "is_reserved": 0}, {"lat": 38.91155883333333, "fusion_lon": 0.0, "lon": -77.0727495, "is_disabled": 0, "type": "electric_scooter", "name": "a138102d8f3a192d46158ff289be6fe7", "fusion_lat": 0.0, "rental_uris": {"android": "https://dc.lft.to/lastmile_qr_scan", "ios": "https://dc.lft.to/lastmile_qr_scan"}, "bike_id": "a138102d8f3a192d46158ff289be6fe7", "is_reserved": 0}, {"lat": 38.909127833333336, "fusion_lon": 0.0, "lon": -77.03117666666667, "is_disabled": 0, "type": "electric_scooter", "name": "2b3822f7bf8ba0c77139aa244d6580f5", "fusion_lat": 0.0, "rental_uris": {"android": "https://dc.lft.to/lastmile_qr_scan", "ios": "https://dc.lft.to/lastmile_qr_scan"}, "bike_id": "2b3822f7bf8ba0c77139aa244d6580f5", "is_reserved": 0}, {"lat": 38.924401333333336, "fusion_lon": 0.0, "lon": -77.02136816666666, "is_disabled": 0, "type": "electric_scooter", "name": "37d399ac56268622720e24d3a9be2cdd", "fusion_lat": 0.0, "rental_uris": {"android": "https://dc.lft.to/lastmile_qr_scan", "ios": "https://dc.lft.to/lastmile_qr_scan"}, "bike_id": "37d399ac56268622720e24d3a9be2cdd", "is_reserved": 0}, {"lat": 38.905442, "fusion_lon": 0.0, "lon": -77.049977, "is_disabled": 0, "type": "electric_scooter", "name": "a169b7def8b6464f0755616b986265fa", "fusion_lat": 0.0, "rental_uris": {"android": "https://dc.lft.to/lastmile_qr_scan", "ios": "https://dc.lft.to/lastmile_qr_scan"}, "bike_id": "a169b7def8b6464f0755616b986265fa", "is_reserved": 0}, {"lat": 38.8931135, "fusion_lon": 0.0, "lon": -77.0499685, "is_disabled": 0, "type": "electric_scooter", "name": "38ba0fb0db90b813ae13948c26a7176f", "fusion_lat": 0.0, "rental_uris": {"android": "https://dc.lft.to/lastmile_qr_scan", "ios": "https://dc.lft.to/lastmile_qr_scan"}, "bike_id": "38ba0fb0db90b813ae13948c26a7176f", "is_reserved": 0}, {"lat": 38.901432166666666, "fusion_lon": 0.0, "lon": -77.04446816666666, "is_disabled": 0, "type": "electric_scooter", "name": "c6179abca401cdc825576f7a1bb7d25b", "fusion_lat": 0.0, "rental_uris": {"android": "https://dc.lft.to/lastmile_qr_scan", "ios": "https://dc.lft.to/lastmile_qr_scan"}, "bike_id": "c6179abca401cdc825576f7a1bb7d25b", "is_reserved": 0}, {"lat": 38.8793305, "fusion_lon": 0.0, "lon": -76.98505416666667, "is_disabled": 0, "type": "electric_bike", "name": "393c47775cb9ab8a395f509e44b7e62d", "fusion_lat": 0.0, "rental_uris": {"android": "https://dc.lft.to/lastmile_qr_scan", "ios": "https://dc.lft.to/lastmile_qr_scan"}, "bike_id": "393c47775cb9ab8a395f509e44b7e62d", "is_reserved": 0}, {"lat": 38.890189166666666, "fusion_lon": 0.0, "lon": -76.9370205, "is_disabled": 0, "type": "electric_scooter", "name": "0a15b574a96ad05257534c16437debc2", "fusion_lat": 0.0, "rental_uris": {"android": "https://dc.lft.to/lastmile_qr_scan", "ios": "https://dc.lft.to/lastmile_qr_scan"}, "bike_id": "0a15b574a96ad05257534c16437debc2", "is_reserved": 0}, {"lat": 38.89221466666667, "fusion_lon": 0.0, "lon": -77.023485, "is_disabled": 0, "type": "electric_scooter", "name": "138903caf003fc8b52d88ce9ce36e0c7", "fusion_lat": 0.0, "rental_uris": {"android": "https://dc.lft.to/lastmile_qr_scan", "ios": "https://dc.lft.to/lastmile_qr_scan"}, "bike_id": "138903caf003fc8b52d88ce9ce36e0c7", "is_reserved": 0}, {"lat": 38.900118166666665, "fusion_lon": 0.0, "lon": -77.00223766666667, "is_disabled": 0, "type": "electric_scooter", "name": "d7721cfe0b738b4a136a00d977aa4468", "fusion_lat": 0.0, "rental_uris": {"android": "https://dc.lft.to/lastmile_qr_scan", "ios": "https://dc.lft.to/lastmile_qr_scan"}, "bike_id": "d7721cfe0b738b4a136a00d977aa4468", "is_reserved": 0}, {"lat": 38.892852, "fusion_lon": 0.0, "lon": -77.03213433333333, "is_disabled": 0, "type": "electric_scooter", "name": "0732fe7f044ff2fc642127b8f0520489", "fusion_lat": 0.0, "rental_uris": {"android": "https://dc.lft.to/lastmile_qr_scan", "ios": "https://dc.lft.to/lastmile_qr_scan"}, "bike_id": "0732fe7f044ff2fc642127b8f0520489", "is_reserved": 0}, {"lat": 38.912491333333335, "fusion_lon": 0.0, "lon": -77.02230316666666, "is_disabled": 0, "type": "electric_scooter", "name": "501637ba0e1307cfd22b9bc1631a6e95", "fusion_lat": 0.0, "rental_uris": {"android": "https://dc.lft.to/lastmile_qr_scan", "ios": "https://dc.lft.to/lastmile_qr_scan"}, "bike_id": "501637ba0e1307cfd22b9bc1631a6e95", "is_reserved": 0}, {"lat": 38.8923385, "fusion_lon": 0.0, "lon": -77.03212533333334, "is_disabled": 0, "type": "electric_scooter", "name": "d93687f23c107aa1f45e86e9065a5a83", "fusion_lat": 0.0, "rental_uris": {"android": "https://dc.lft.to/lastmile_qr_scan", "ios": "https://dc.lft.to/lastmile_qr_scan"}, "bike_id": "d93687f23c107aa1f45e86e9065a5a83", "is_reserved": 0}, {"lat": 38.92044666666666, "fusion_lon": 0.0, "lon": -77.02572383333333, "is_disabled": 0, "type": "electric_scooter", "name": "4a74e3b1c565bda5380f33317627f5f9", "fusion_lat": 0.0, "rental_uris": {"android": "https://dc.lft.to/lastmile_qr_scan", "ios": "https://dc.lft.to/lastmile_qr_scan"}, "bike_id": "4a74e3b1c565bda5380f33317627f5f9", "is_reserved": 0}, {"lat": 38.885027, "fusion_lon": 0.0, "lon": -77.02088483333333, "is_disabled": 0, "type": "electric_scooter", "name": "ab4aae91f602a9ccc004a1bcac086e94", "fusion_lat": 0.0, "rental_uris": {"android": "https://dc.lft.to/lastmile_qr_scan", "ios": "https://dc.lft.to/lastmile_qr_scan"}, "bike_id": "ab4aae91f602a9ccc004a1bcac086e94", "is_reserved": 0}, {"lat": 38.9001115, "fusion_lon": 0.0, "lon": -76.98439716666667, "is_disabled": 0, "type": "electric_scooter", "name": "a2b40ef1e5b55e28b14f987f6268bfa0", "fusion_lat": 0.0, "rental_uris": {"android": "https://dc.lft.to/lastmile_qr_scan", "ios": "https://dc.lft.to/lastmile_qr_scan"}, "bike_id": "a2b40ef1e5b55e28b14f987f6268bfa0", "is_reserved": 0}, {"lat": 38.90528966666667, "fusion_lon": 0.0, "lon": -77.06189116666667, "is_disabled": 0, "type": "electric_scooter", "name": "1d590d3a343388348ac1160c582d4425", "fusion_lat": 0.0, "rental_uris": {"android": "https://dc.lft.to/lastmile_qr_scan", "ios": "https://dc.lft.to/lastmile_qr_scan"}, "bike_id": "1d590d3a343388348ac1160c582d4425", "is_reserved": 0}, {"lat": 38.89724433333333, "fusion_lon": 0.0, "lon": -77.01976633333334, "is_disabled": 0, "type": "electric_scooter", "name": "a85995fdce719a37eb779b6bb20c4e8f", "fusion_lat": 0.0, "rental_uris": {"android": "https://dc.lft.to/lastmile_qr_scan", "ios": "https://dc.lft.to/lastmile_qr_scan"}, "bike_id": "a85995fdce719a37eb779b6bb20c4e8f", "is_reserved": 0}, {"lat": 38.88428966666667, "fusion_lon": 0.0, "lon": -77.02596916666667, "is_disabled": 0, "type": "electric_scooter", "name": "15464be2a5117b0df5874f59c5f1d8d2", "fusion_lat": 0.0, "rental_uris": {"android": "https://dc.lft.to/lastmile_qr_scan", "ios": "https://dc.lft.to/lastmile_qr_scan"}, "bike_id": "15464be2a5117b0df5874f59c5f1d8d2", "is_reserved": 0}, {"lat": 38.911827833333334, "fusion_lon": 0.0, "lon": -77.00198733333333, "is_disabled": 0, "type": "electric_scooter", "name": "35313c3ef308bd9ba2388ad121958f5d", "fusion_lat": 0.0, "rental_uris": {"android": "https://dc.lft.to/lastmile_qr_scan", "ios": "https://dc.lft.to/lastmile_qr_scan"}, "bike_id": "35313c3ef308bd9ba2388ad121958f5d", "is_reserved": 0}, {"lat": 38.968250833333336, "fusion_lon": 0.0, "lon": -77.00049566666667, "is_disabled": 0, "type": "electric_bike", "name": "3474c0bd21a4e8b415a418973b38b2f3", "fusion_lat": 0.0, "rental_uris": {"android": "https://dc.lft.to/lastmile_qr_scan", "ios": "https://dc.lft.to/lastmile_qr_scan"}, "bike_id": "3474c0bd21a4e8b415a418973b38b2f3", "is_reserved": 0}, {"lat": 38.907311166666666, "fusion_lon": 0.0, "lon": -77.00348466666667, "is_disabled": 0, "type": "electric_scooter", "name": "1b8babdb15c2a206fb65a586b6e1a3fa", "fusion_lat": 0.0, "rental_uris": {"android": "https://dc.lft.to/lastmile_qr_scan", "ios": "https://dc.lft.to/lastmile_qr_scan"}, "bike_id": "1b8babdb15c2a206fb65a586b6e1a3fa", "is_reserved": 0}, {"lat": 38.917305999999996, "fusion_lon": 0.0, "lon": -77.03201866666667, "is_disabled": 0, "type": "electric_scooter", "name": "67a41def074aacc73f8b3c1eef03f868", "fusion_lat": 0.0, "rental_uris": {"android": "https://dc.lft.to/lastmile_qr_scan", "ios": "https://dc.lft.to/lastmile_qr_scan"}, "bike_id": "67a41def074aacc73f8b3c1eef03f868", "is_reserved": 0}, {"lat": 39.0578985, "fusion_lon": 0.0, "lon": -77.15020133333333, "is_disabled": 0, "type": "electric_bike", "name": "056f5e24a3a96b42bc2c627e93139880", "fusion_lat": 0.0, "rental_uris": {"android": "https://dc.lft.to/lastmile_qr_scan", "ios": "https://dc.lft.to/lastmile_qr_scan"}, "bike_id": "056f5e24a3a96b42bc2c627e93139880", "is_reserved": 0}, {"lat": 38.912661, "fusion_lon": 0.0, "lon": -77.04740966666667, "is_disabled": 0, "type": "electric_scooter", "name": "a19bdd6663213d392f07a292d87ef9ad", "fusion_lat": 0.0, "rental_uris": {"android": "https://dc.lft.to/lastmile_qr_scan", "ios": "https://dc.lft.to/lastmile_qr_scan"}, "bike_id": "a19bdd6663213d392f07a292d87ef9ad", "is_reserved": 0}, {"lat": 38.915666333333334, "fusion_lon": 0.0, "lon": -77.03188116666666, "is_disabled": 0, "type": "electric_scooter", "name": "0239a135df4f3e3e75728d9de8f71b7a", "fusion_lat": 0.0, "rental_uris": {"android": "https://dc.lft.to/lastmile_qr_scan", "ios": "https://dc.lft.to/lastmile_qr_scan"}, "bike_id": "0239a135df4f3e3e75728d9de8f71b7a", "is_reserved": 0}, {"lat": 38.908605333333334, "fusion_lon": 0.0, "lon": -77.04277733333333, "is_disabled": 0, "type": "electric_scooter", "name": "335435bd31ca3f0654625450da8402e2", "fusion_lat": 0.0, "rental_uris": {"android": "https://dc.lft.to/lastmile_qr_scan", "ios": "https://dc.lft.to/lastmile_qr_scan"}, "bike_id": "335435bd31ca3f0654625450da8402e2", "is_reserved": 0}, {"lat": 38.938600666666666, "fusion_lon": 0.0, "lon": -77.0264645, "is_disabled": 0, "type": "electric_scooter", "name": "951f1a8adc8376c25546b8fc72a20781", "fusion_lat": 0.0, "rental_uris": {"android": "https://dc.lft.to/lastmile_qr_scan", "ios": "https://dc.lft.to/lastmile_qr_scan"}, "bike_id": "951f1a8adc8376c25546b8fc72a20781", "is_reserved": 0}, {"lat": 38.906811833333336, "fusion_lon": 0.0, "lon": -77.02696216666666, "is_disabled": 0, "type": "electric_scooter", "name": "adfd5eed0dddfb578da864d8f3fb8913", "fusion_lat": 0.0, "rental_uris": {"android": "https://dc.lft.to/lastmile_qr_scan", "ios": "https://dc.lft.to/lastmile_qr_scan"}, "bike_id": "adfd5eed0dddfb578da864d8f3fb8913", "is_reserved": 0}, {"lat": 38.91117766666667, "fusion_lon": 0.0, "lon": -77.03580866666667, "is_disabled": 0, "type": "electric_scooter", "name": "de11980d77606ce6e67ae132491a7e55", "fusion_lat": 0.0, "rental_uris": {"android": "https://dc.lft.to/lastmile_qr_scan", "ios": "https://dc.lft.to/lastmile_qr_scan"}, "bike_id": "de11980d77606ce6e67ae132491a7e55", "is_reserved": 0}, {"lat": 38.91077583333333, "fusion_lon": 0.0, "lon": -77.040822, "is_disabled": 0, "type": "electric_scooter", "name": "0ef983ee1ab999fc842c0fb4fdf0db05", "fusion_lat": 0.0, "rental_uris": {"android": "https://dc.lft.to/lastmile_qr_scan", "ios": "https://dc.lft.to/lastmile_qr_scan"}, "bike_id": "0ef983ee1ab999fc842c0fb4fdf0db05", "is_reserved": 0}, {"lat": 38.91718733333333, "fusion_lon": 0.0, "lon": -77.02302816666666, "is_disabled": 0, "type": "electric_scooter", "name": "703ba07bed5b8acfb47ceac785a4bb52", "fusion_lat": 0.0, "rental_uris": {"android": "https://dc.lft.to/lastmile_qr_scan", "ios": "https://dc.lft.to/lastmile_qr_scan"}, "bike_id": "703ba07bed5b8acfb47ceac785a4bb52", "is_reserved": 0}, {"lat": 38.92443933333333, "fusion_lon": 0.0, "lon": -77.05770683333333, "is_disabled": 0, "type": "electric_scooter", "name": "b90baa484eeb5c277582220545e4e1d1", "fusion_lat": 0.0, "rental_uris": {"android": "https://dc.lft.to/lastmile_qr_scan", "ios": "https://dc.lft.to/lastmile_qr_scan"}, "bike_id": "b90baa484eeb5c277582220545e4e1d1", "is_reserved": 0}, {"lat": 38.89429633333334, "fusion_lon": 0.0, "lon": -77.0401465, "is_disabled": 0, "type": "electric_scooter", "name": "18c4e0a47c62d8502096b4c6152a29f1", "fusion_lat": 0.0, "rental_uris": {"android": "https://dc.lft.to/lastmile_qr_scan", "ios": "https://dc.lft.to/lastmile_qr_scan"}, "bike_id": "18c4e0a47c62d8502096b4c6152a29f1", "is_reserved": 0}, {"lat": 38.912623833333335, "fusion_lon": 0.0, "lon": -77.04408516666666, "is_disabled": 0, "type": "electric_scooter", "name": "06d2171770a0ca305b98bfc800ea9c31", "fusion_lat": 0.0, "rental_uris": {"android": "https://dc.lft.to/lastmile_qr_scan", "ios": "https://dc.lft.to/lastmile_qr_scan"}, "bike_id": "06d2171770a0ca305b98bfc800ea9c31", "is_reserved": 0}, {"lat": 38.914461833333334, "fusion_lon": 0.0, "lon": -77.06708083333334, "is_disabled": 0, "type": "electric_scooter", "name": "c55620cdfddd7f28e784a5b8abfadc65", "fusion_lat": 0.0, "rental_uris": {"android": "https://dc.lft.to/lastmile_qr_scan", "ios": "https://dc.lft.to/lastmile_qr_scan"}, "bike_id": "c55620cdfddd7f28e784a5b8abfadc65", "is_reserved": 0}, {"lat": 38.897316333333336, "fusion_lon": 0.0, "lon": -77.05480516666667, "is_disabled": 0, "type": "electric_scooter", "name": "1f33ce47602417a209719761061b2c0d", "fusion_lat": 0.0, "rental_uris": {"android": "https://dc.lft.to/lastmile_qr_scan", "ios": "https://dc.lft.to/lastmile_qr_scan"}, "bike_id": "1f33ce47602417a209719761061b2c0d", "is_reserved": 0}, {"lat": 38.90282233333333, "fusion_lon": 0.0, "lon": -77.04602416666667, "is_disabled": 0, "type": "electric_scooter", "name": "4944f85a859c79c409f49785d17d3414", "fusion_lat": 0.0, "rental_uris": {"android": "https://dc.lft.to/lastmile_qr_scan", "ios": "https://dc.lft.to/lastmile_qr_scan"}, "bike_id": "4944f85a859c79c409f49785d17d3414", "is_reserved": 0}, {"lat": 38.953228, "fusion_lon": 0.0, "lon": -76.95435783333333, "is_disabled": 0, "type": "electric_bike", "name": "3d47184536c7ee2ce6c98d6a985de9cb", "fusion_lat": 0.0, "rental_uris": {"android": "https://dc.lft.to/lastmile_qr_scan", "ios": "https://dc.lft.to/lastmile_qr_scan"}, "bike_id": "3d47184536c7ee2ce6c98d6a985de9cb", "is_reserved": 0}, {"lat": 38.932267333333336, "fusion_lon": 0.0, "lon": -77.18122883333334, "is_disabled": 0, "type": "electric_bike", "name": "dd84c749dc03ae47337b5c1145fec38f", "fusion_lat": 0.0, "rental_uris": {"android": "https://dc.lft.to/lastmile_qr_scan", "ios": "https://dc.lft.to/lastmile_qr_scan"}, "bike_id": "dd84c749dc03ae47337b5c1145fec38f", "is_reserved": 0}, {"lat": 38.95182666666667, "fusion_lon": 0.0, "lon": -77.026103, "is_disabled": 0, "type": "electric_scooter", "name": "a4e3f61dc8baf6656024daa1f3de95cc", "fusion_lat": 0.0, "rental_uris": {"android": "https://dc.lft.to/lastmile_qr_scan", "ios": "https://dc.lft.to/lastmile_qr_scan"}, "bike_id": "a4e3f61dc8baf6656024daa1f3de95cc", "is_reserved": 0}, {"lat": 38.899018, "fusion_lon": 0.0, "lon": -76.99384716666667, "is_disabled": 0, "type": "electric_scooter", "name": "887a08ec7c5b806903241dd913086527", "fusion_lat": 0.0, "rental_uris": {"android": "https://dc.lft.to/lastmile_qr_scan", "ios": "https://dc.lft.to/lastmile_qr_scan"}, "bike_id": "887a08ec7c5b806903241dd913086527", "is_reserved": 0}, {"lat": 38.881366666666665, "fusion_lon": 0.0, "lon": -77.01230433333333, "is_disabled": 0, "type": "electric_scooter", "name": "bc9eeede4b6d0cd2dd04b70e09db8891", "fusion_lat": 0.0, "rental_uris": {"android": "https://dc.lft.to/lastmile_qr_scan", "ios": "https://dc.lft.to/lastmile_qr_scan"}, "bike_id": "bc9eeede4b6d0cd2dd04b70e09db8891", "is_reserved": 0}, {"lat": 38.912741, "fusion_lon": 0.0, "lon": -77.04107983333333, "is_disabled": 0, "type": "electric_scooter", "name": "b481236f01d6672e8cd2ceb5de690c3d", "fusion_lat": 0.0, "rental_uris": {"android": "https://dc.lft.to/lastmile_qr_scan", "ios": "https://dc.lft.to/lastmile_qr_scan"}, "bike_id": "b481236f01d6672e8cd2ceb5de690c3d", "is_reserved": 0}, {"lat": 38.89609, "fusion_lon": 0.0, "lon": -77.04987733333333, "is_disabled": 0, "type": "electric_scooter", "name": "e03d930f59301fca33feb2c9cb35a870", "fusion_lat": 0.0, "rental_uris": {"android": "https://dc.lft.to/lastmile_qr_scan", "ios": "https://dc.lft.to/lastmile_qr_scan"}, "bike_id": "e03d930f59301fca33feb2c9cb35a870", "is_reserved": 0}, {"lat": 38.913725166666666, "fusion_lon": 0.0, "lon": -77.03137716666667, "is_disabled": 0, "type": "electric_scooter", "name": "ef8695b8e730e598dd4e7df59a9f4abf", "fusion_lat": 0.0, "rental_uris": {"android": "https://dc.lft.to/lastmile_qr_scan", "ios": "https://dc.lft.to/lastmile_qr_scan"}, "bike_id": "ef8695b8e730e598dd4e7df59a9f4abf", "is_reserved": 0}, {"lat": 38.896223, "fusion_lon": 0.0, "lon": -77.031953, "is_disabled": 0, "type": "electric_scooter", "name": "13790d2815cebd2e3d8d57dfb189307f", "fusion_lat": 0.0, "rental_uris": {"android": "https://dc.lft.to/lastmile_qr_scan", "ios": "https://dc.lft.to/lastmile_qr_scan"}, "bike_id": "13790d2815cebd2e3d8d57dfb189307f", "is_reserved": 0}, {"lat": 38.9164355, "fusion_lon": 0.0, "lon": -77.04803133333333, "is_disabled": 0, "type": "electric_scooter", "name": "27287d9ea3eef5fff82b26af479d37d3", "fusion_lat": 0.0, "rental_uris": {"android": "https://dc.lft.to/lastmile_qr_scan", "ios": "https://dc.lft.to/lastmile_qr_scan"}, "bike_id": "27287d9ea3eef5fff82b26af479d37d3", "is_reserved": 0}, {"lat": 38.89423716666667, "fusion_lon": 0.0, "lon": -77.0400135, "is_disabled": 0, "type": "electric_scooter", "name": "95ccef5aba56f6a503043226c2bc08f3", "fusion_lat": 0.0, "rental_uris": {"android": "https://dc.lft.to/lastmile_qr_scan", "ios": "https://dc.lft.to/lastmile_qr_scan"}, "bike_id": "95ccef5aba56f6a503043226c2bc08f3", "is_reserved": 0}, {"lat": 38.926225, "fusion_lon": 0.0, "lon": -77.043359, "is_disabled": 0, "type": "electric_scooter", "name": "3b227dba647948fcb054dc291ed963e3", "fusion_lat": 0.0, "rental_uris": {"android": "https://dc.lft.to/lastmile_qr_scan", "ios": "https://dc.lft.to/lastmile_qr_scan"}, "bike_id": "3b227dba647948fcb054dc291ed963e3", "is_reserved": 0}, {"lat": 38.912546166666665, "fusion_lon": 0.0, "lon": -77.073203, "is_disabled": 0, "type": "electric_scooter", "name": "9657b67ffd97f539186d5aed0d9a3c43", "fusion_lat": 0.0, "rental_uris": {"android": "https://dc.lft.to/lastmile_qr_scan", "ios": "https://dc.lft.to/lastmile_qr_scan"}, "bike_id": "9657b67ffd97f539186d5aed0d9a3c43", "is_reserved": 0}, {"lat": 38.9215925, "fusion_lon": 0.0, "lon": -77.033811, "is_disabled": 0, "type": "electric_scooter", "name": "6bc69b291f08f93d226257186882ffe9", "fusion_lat": 0.0, "rental_uris": {"android": "https://dc.lft.to/lastmile_qr_scan", "ios": "https://dc.lft.to/lastmile_qr_scan"}, "bike_id": "6bc69b291f08f93d226257186882ffe9", "is_reserved": 0}, {"lat": 38.9084355, "fusion_lon": 0.0, "lon": -77.02704216666666, "is_disabled": 0, "type": "electric_scooter", "name": "f959186539346171d2b91f973384f22a", "fusion_lat": 0.0, "rental_uris": {"android": "https://dc.lft.to/lastmile_qr_scan", "ios": "https://dc.lft.to/lastmile_qr_scan"}, "bike_id": "f959186539346171d2b91f973384f22a", "is_reserved": 0}, {"lat": 38.81913466666666, "fusion_lon": 0.0, "lon": -76.99909616666666, "is_disabled": 0, "type": "electric_bike", "name": "d8077216ccf375978dcbb7a69a661035", "fusion_lat": 0.0, "rental_uris": {"android": "https://dc.lft.to/lastmile_qr_scan", "ios": "https://dc.lft.to/lastmile_qr_scan"}, "bike_id": "d8077216ccf375978dcbb7a69a661035", "is_reserved": 0}, {"lat": 38.89235883333333, "fusion_lon": 0.0, "lon": -77.031894, "is_disabled": 0, "type": "electric_scooter", "name": "548b3b06789b9efc0781eb588b6d33f8", "fusion_lat": 0.0, "rental_uris": {"android": "https://dc.lft.to/lastmile_qr_scan", "ios": "https://dc.lft.to/lastmile_qr_scan"}, "bike_id": "548b3b06789b9efc0781eb588b6d33f8", "is_reserved": 0}, {"lat": 38.870046, "fusion_lon": 0.0, "lon": -76.98081916666666, "is_disabled": 0, "type": "electric_scooter", "name": "5e22be74448490eb1097680ce283c4b0", "fusion_lat": 0.0, "rental_uris": {"android": "https://dc.lft.to/lastmile_qr_scan", "ios": "https://dc.lft.to/lastmile_qr_scan"}, "bike_id": "5e22be74448490eb1097680ce283c4b0", "is_reserved": 0}, {"lat": 38.8972545, "fusion_lon": 0.0, "lon": -77.04352533333333, "is_disabled": 0, "type": "electric_scooter", "name": "5662fe5dc4ea054da8a18c74a5d465d1", "fusion_lat": 0.0, "rental_uris": {"android": "https://dc.lft.to/lastmile_qr_scan", "ios": "https://dc.lft.to/lastmile_qr_scan"}, "bike_id": "5662fe5dc4ea054da8a18c74a5d465d1", "is_reserved": 0}, {"lat": 38.892344666666666, "fusion_lon": 0.0, "lon": -77.03210683333333, "is_disabled": 0, "type": "electric_scooter", "name": "17d20b2a8646b7e8d52a890e5df791ca", "fusion_lat": 0.0, "rental_uris": {"android": "https://dc.lft.to/lastmile_qr_scan", "ios": "https://dc.lft.to/lastmile_qr_scan"}, "bike_id": "17d20b2a8646b7e8d52a890e5df791ca", "is_reserved": 0}, {"lat": 38.9198345, "fusion_lon": 0.0, "lon": -77.04153783333334, "is_disabled": 0, "type": "electric_scooter", "name": "7e2e3e90040cf0a52cd46e047583fa7b", "fusion_lat": 0.0, "rental_uris": {"android": "https://dc.lft.to/lastmile_qr_scan", "ios": "https://dc.lft.to/lastmile_qr_scan"}, "bike_id": "7e2e3e90040cf0a52cd46e047583fa7b", "is_reserved": 0}, {"lat": 38.984579, "fusion_lon": 0.0, "lon": -77.02688366666666, "is_disabled": 0, "type": "electric_scooter", "name": "5ae200c345741858e7e2a03a9c8196c0", "fusion_lat": 0.0, "rental_uris": {"android": "https://dc.lft.to/lastmile_qr_scan", "ios": "https://dc.lft.to/lastmile_qr_scan"}, "bike_id": "5ae200c345741858e7e2a03a9c8196c0", "is_reserved": 0}, {"lat": 38.90767816666666, "fusion_lon": 0.0, "lon": -77.0374095, "is_disabled": 0, "type": "electric_scooter", "name": "03741bc637d8856d1228f27d16c4845f", "fusion_lat": 0.0, "rental_uris": {"android": "https://dc.lft.to/lastmile_qr_scan", "ios": "https://dc.lft.to/lastmile_qr_scan"}, "bike_id": "03741bc637d8856d1228f27d16c4845f", "is_reserved": 0}, {"lat": 38.914171, "fusion_lon": 0.0, "lon": -77.03149466666666, "is_disabled": 0, "type": "electric_scooter", "name": "c3582a3d5ffe6d54bfff00ed03c571f3", "fusion_lat": 0.0, "rental_uris": {"android": "https://dc.lft.to/lastmile_qr_scan", "ios": "https://dc.lft.to/lastmile_qr_scan"}, "bike_id": "c3582a3d5ffe6d54bfff00ed03c571f3", "is_reserved": 0}, {"lat": 38.915639166666665, "fusion_lon": 0.0, "lon": -77.005222, "is_disabled": 0, "type": "electric_scooter", "name": "e4ca10f35f38b21b103bf0e9b473f6af", "fusion_lat": 0.0, "rental_uris": {"android": "https://dc.lft.to/lastmile_qr_scan", "ios": "https://dc.lft.to/lastmile_qr_scan"}, "bike_id": "e4ca10f35f38b21b103bf0e9b473f6af", "is_reserved": 0}, {"lat": 38.88329216666666, "fusion_lon": 0.0, "lon": -77.00714833333333, "is_disabled": 0, "type": "electric_scooter", "name": "1eceb49da2c0f58944096fca5d5c6fac", "fusion_lat": 0.0, "rental_uris": {"android": "https://dc.lft.to/lastmile_qr_scan", "ios": "https://dc.lft.to/lastmile_qr_scan"}, "bike_id": "1eceb49da2c0f58944096fca5d5c6fac", "is_reserved": 0}, {"lat": 38.9180995, "fusion_lon": 0.0, "lon": -77.03150266666667, "is_disabled": 0, "type": "electric_scooter", "name": "7987a563bd00d22c6965d5e7c5deb5fa", "fusion_lat": 0.0, "rental_uris": {"android": "https://dc.lft.to/lastmile_qr_scan", "ios": "https://dc.lft.to/lastmile_qr_scan"}, "bike_id": "7987a563bd00d22c6965d5e7c5deb5fa", "is_reserved": 0}, {"lat": 38.892331666666664, "fusion_lon": 0.0, "lon": -77.01325016666667, "is_disabled": 0, "type": "electric_scooter", "name": "ec0be08198bc92c99e6b85e7d838b9b6", "fusion_lat": 0.0, "rental_uris": {"android": "https://dc.lft.to/lastmile_qr_scan", "ios": "https://dc.lft.to/lastmile_qr_scan"}, "bike_id": "ec0be08198bc92c99e6b85e7d838b9b6", "is_reserved": 0}, {"lat": 38.93403416666666, "fusion_lon": 0.0, "lon": -77.04130783333333, "is_disabled": 0, "type": "electric_scooter", "name": "92bf3a796c0c81c5f3bb2a4f84caf5b2", "fusion_lat": 0.0, "rental_uris": {"android": "https://dc.lft.to/lastmile_qr_scan", "ios": "https://dc.lft.to/lastmile_qr_scan"}, "bike_id": "92bf3a796c0c81c5f3bb2a4f84caf5b2", "is_reserved": 0}, {"lat": 38.915348, "fusion_lon": 0.0, "lon": -77.01270033333333, "is_disabled": 0, "type": "electric_scooter", "name": "99e492961f8debfed2211f349e33bd94", "fusion_lat": 0.0, "rental_uris": {"android": "https://dc.lft.to/lastmile_qr_scan", "ios": "https://dc.lft.to/lastmile_qr_scan"}, "bike_id": "99e492961f8debfed2211f349e33bd94", "is_reserved": 0}, {"lat": 38.901472, "fusion_lon": 0.0, "lon": -77.04778783333333, "is_disabled": 0, "type": "electric_scooter", "name": "d91df1a8ace7af073f1e94cac45ea967", "fusion_lat": 0.0, "rental_uris": {"android": "https://dc.lft.to/lastmile_qr_scan", "ios": "https://dc.lft.to/lastmile_qr_scan"}, "bike_id": "d91df1a8ace7af073f1e94cac45ea967", "is_reserved": 0}, {"lat": 38.892198666666665, "fusion_lon": 0.0, "lon": -77.04263066666667, "is_disabled": 0, "type": "electric_scooter", "name": "0e875773a35c2581554c197b565a3418", "fusion_lat": 0.0, "rental_uris": {"android": "https://dc.lft.to/lastmile_qr_scan", "ios": "https://dc.lft.to/lastmile_qr_scan"}, "bike_id": "0e875773a35c2581554c197b565a3418", "is_reserved": 0}, {"lat": 38.89452633333333, "fusion_lon": 0.0, "lon": -76.998377, "is_disabled": 0, "type": "electric_scooter", "name": "2f365274d5c0a459f6d9cc4901bad7f6", "fusion_lat": 0.0, "rental_uris": {"android": "https://dc.lft.to/lastmile_qr_scan", "ios": "https://dc.lft.to/lastmile_qr_scan"}, "bike_id": "2f365274d5c0a459f6d9cc4901bad7f6", "is_reserved": 0}, {"lat": 38.891049333333335, "fusion_lon": 0.0, "lon": -77.00285933333333, "is_disabled": 0, "type": "electric_scooter", "name": "ba7f034824bdf579566b5b99aaa45838", "fusion_lat": 0.0, "rental_uris": {"android": "https://dc.lft.to/lastmile_qr_scan", "ios": "https://dc.lft.to/lastmile_qr_scan"}, "bike_id": "ba7f034824bdf579566b5b99aaa45838", "is_reserved": 0}, {"lat": 38.91722716666666, "fusion_lon": 0.0, "lon": -77.0417925, "is_disabled": 0, "type": "electric_scooter", "name": "873d814d26660f9ea576f8506608e761", "fusion_lat": 0.0, "rental_uris": {"android": "https://dc.lft.to/lastmile_qr_scan", "ios": "https://dc.lft.to/lastmile_qr_scan"}, "bike_id": "873d814d26660f9ea576f8506608e761", "is_reserved": 0}, {"lat": 38.91991933333333, "fusion_lon": 0.0, "lon": -77.02201866666667, "is_disabled": 0, "type": "electric_scooter", "name": "60b79d3aa7deec2219c9e89eef70d9ab", "fusion_lat": 0.0, "rental_uris": {"android": "https://dc.lft.to/lastmile_qr_scan", "ios": "https://dc.lft.to/lastmile_qr_scan"}, "bike_id": "60b79d3aa7deec2219c9e89eef70d9ab", "is_reserved": 0}, {"lat": 38.863757166666666, "fusion_lon": 0.0, "lon": -76.99057883333333, "is_disabled": 0, "type": "electric_scooter", "name": "0a7a293682e45b382d1998c5f50d1465", "fusion_lat": 0.0, "rental_uris": {"android": "https://dc.lft.to/lastmile_qr_scan", "ios": "https://dc.lft.to/lastmile_qr_scan"}, "bike_id": "0a7a293682e45b382d1998c5f50d1465", "is_reserved": 0}, {"lat": 38.92199166666666, "fusion_lon": 0.0, "lon": -77.04233783333333, "is_disabled": 0, "type": "electric_scooter", "name": "3fcbdd0cd6fe3e263d60bc3833697310", "fusion_lat": 0.0, "rental_uris": {"android": "https://dc.lft.to/lastmile_qr_scan", "ios": "https://dc.lft.to/lastmile_qr_scan"}, "bike_id": "3fcbdd0cd6fe3e263d60bc3833697310", "is_reserved": 0}, {"lat": 38.88960816666667, "fusion_lon": 0.0, "lon": -76.9370695, "is_disabled": 0, "type": "electric_scooter", "name": "9d4a43dc63c6501c062b42e466f35c3d", "fusion_lat": 0.0, "rental_uris": {"android": "https://dc.lft.to/lastmile_qr_scan", "ios": "https://dc.lft.to/lastmile_qr_scan"}, "bike_id": "9d4a43dc63c6501c062b42e466f35c3d", "is_reserved": 0}, {"lat": 38.92461433333333, "fusion_lon": 0.0, "lon": -77.05758866666666, "is_disabled": 0, "type": "electric_scooter", "name": "abb4fffbc4db0293ac3bea9cad802109", "fusion_lat": 0.0, "rental_uris": {"android": "https://dc.lft.to/lastmile_qr_scan", "ios": "https://dc.lft.to/lastmile_qr_scan"}, "bike_id": "abb4fffbc4db0293ac3bea9cad802109", "is_reserved": 0}, {"lat": 38.912980166666664, "fusion_lon": 0.0, "lon": -76.98472833333334, "is_disabled": 0, "type": "electric_scooter", "name": "b5ee1c7474c46bdc854547368631ce74", "fusion_lat": 0.0, "rental_uris": {"android": "https://dc.lft.to/lastmile_qr_scan", "ios": "https://dc.lft.to/lastmile_qr_scan"}, "bike_id": "b5ee1c7474c46bdc854547368631ce74", "is_reserved": 0}, {"lat": 38.89429916666667, "fusion_lon": 0.0, "lon": -76.94877866666667, "is_disabled": 0, "type": "electric_scooter", "name": "9b7a61ea71e679a32a6f1701331fa45f", "fusion_lat": 0.0, "rental_uris": {"android": "https://dc.lft.to/lastmile_qr_scan", "ios": "https://dc.lft.to/lastmile_qr_scan"}, "bike_id": "9b7a61ea71e679a32a6f1701331fa45f", "is_reserved": 0}, {"lat": 38.92171366666667, "fusion_lon": 0.0, "lon": -77.04698683333334, "is_disabled": 0, "type": "electric_scooter", "name": "d6d6f6d4fe234aa65fafd31d52028210", "fusion_lat": 0.0, "rental_uris": {"android": "https://dc.lft.to/lastmile_qr_scan", "ios": "https://dc.lft.to/lastmile_qr_scan"}, "bike_id": "d6d6f6d4fe234aa65fafd31d52028210", "is_reserved": 0}, {"lat": 38.917559833333335, "fusion_lon": 0.0, "lon": -77.03910366666666, "is_disabled": 0, "type": "electric_scooter", "name": "642aa45752830c07ac849d9b59ea573b", "fusion_lat": 0.0, "rental_uris": {"android": "https://dc.lft.to/lastmile_qr_scan", "ios": "https://dc.lft.to/lastmile_qr_scan"}, "bike_id": "642aa45752830c07ac849d9b59ea573b", "is_reserved": 0}, {"lat": 38.918426833333335, "fusion_lon": 0.0, "lon": -76.96560083333334, "is_disabled": 0, "type": "electric_scooter", "name": "6411fd752c7a2a3366b917d7302a65c6", "fusion_lat": 0.0, "rental_uris": {"android": "https://dc.lft.to/lastmile_qr_scan", "ios": "https://dc.lft.to/lastmile_qr_scan"}, "bike_id": "6411fd752c7a2a3366b917d7302a65c6", "is_reserved": 0}, {"lat": 38.90369366666667, "fusion_lon": 0.0, "lon": -77.030046, "is_disabled": 0, "type": "electric_scooter", "name": "1c35aaee4659fd608ffdb1e30144697a", "fusion_lat": 0.0, "rental_uris": {"android": "https://dc.lft.to/lastmile_qr_scan", "ios": "https://dc.lft.to/lastmile_qr_scan"}, "bike_id": "1c35aaee4659fd608ffdb1e30144697a", "is_reserved": 0}, {"lat": 38.896174333333335, "fusion_lon": 0.0, "lon": -76.90745033333333, "is_disabled": 0, "type": "electric_bike", "name": "10361642979ce19c2d98907f468cf97c", "fusion_lat": 0.0, "rental_uris": {"android": "https://dc.lft.to/lastmile_qr_scan", "ios": "https://dc.lft.to/lastmile_qr_scan"}, "bike_id": "10361642979ce19c2d98907f468cf97c", "is_reserved": 0}, {"lat": 38.90499283333333, "fusion_lon": 0.0, "lon": -76.97447566666666, "is_disabled": 0, "type": "electric_scooter", "name": "25604784101f2bad82534ea35b134c86", "fusion_lat": 0.0, "rental_uris": {"android": "https://dc.lft.to/lastmile_qr_scan", "ios": "https://dc.lft.to/lastmile_qr_scan"}, "bike_id": "25604784101f2bad82534ea35b134c86", "is_reserved": 0}, {"lat": 38.90596583333333, "fusion_lon": 0.0, "lon": -77.00496283333334, "is_disabled": 0, "type": "electric_scooter", "name": "ec8df2eb6bc95d65b4d8984eab964653", "fusion_lat": 0.0, "rental_uris": {"android": "https://dc.lft.to/lastmile_qr_scan", "ios": "https://dc.lft.to/lastmile_qr_scan"}, "bike_id": "ec8df2eb6bc95d65b4d8984eab964653", "is_reserved": 0}, {"lat": 38.897953333333334, "fusion_lon": 0.0, "lon": -77.022264, "is_disabled": 0, "type": "electric_scooter", "name": "ba39a52fae0436fa3c7cfcb19a498253", "fusion_lat": 0.0, "rental_uris": {"android": "https://dc.lft.to/lastmile_qr_scan", "ios": "https://dc.lft.to/lastmile_qr_scan"}, "bike_id": "ba39a52fae0436fa3c7cfcb19a498253", "is_reserved": 0}, {"lat": 38.866571666666665, "fusion_lon": 0.0, "lon": -76.98507766666667, "is_disabled": 0, "type": "electric_scooter", "name": "1fd366c6e47f5d088ddf9eb9cf424b5b", "fusion_lat": 0.0, "rental_uris": {"android": "https://dc.lft.to/lastmile_qr_scan", "ios": "https://dc.lft.to/lastmile_qr_scan"}, "bike_id": "1fd366c6e47f5d088ddf9eb9cf424b5b", "is_reserved": 0}, {"lat": 38.902896166666665, "fusion_lon": 0.0, "lon": -77.04285016666667, "is_disabled": 0, "type": "electric_scooter", "name": "a9f9a5631a18d5514008aa3d3ae74d55", "fusion_lat": 0.0, "rental_uris": {"android": "https://dc.lft.to/lastmile_qr_scan", "ios": "https://dc.lft.to/lastmile_qr_scan"}, "bike_id": "a9f9a5631a18d5514008aa3d3ae74d55", "is_reserved": 0}, {"lat": 38.919169, "fusion_lon": 0.0, "lon": -77.03119016666666, "is_disabled": 0, "type": "electric_scooter", "name": "8da772c7c2fb05b02626b1dafcfc0058", "fusion_lat": 0.0, "rental_uris": {"android": "https://dc.lft.to/lastmile_qr_scan", "ios": "https://dc.lft.to/lastmile_qr_scan"}, "bike_id": "8da772c7c2fb05b02626b1dafcfc0058", "is_reserved": 0}, {"lat": 38.887331333333336, "fusion_lon": 0.0, "lon": -77.022129, "is_disabled": 0, "type": "electric_scooter", "name": "0ac3230c3482ed074db75ba321d5f6e4", "fusion_lat": 0.0, "rental_uris": {"android": "https://dc.lft.to/lastmile_qr_scan", "ios": "https://dc.lft.to/lastmile_qr_scan"}, "bike_id": "0ac3230c3482ed074db75ba321d5f6e4", "is_reserved": 0}, {"lat": 38.89744366666667, "fusion_lon": 0.0, "lon": -77.05579216666666, "is_disabled": 0, "type": "electric_scooter", "name": "48ed7397ec22d7f656a23288d9d61e4b", "fusion_lat": 0.0, "rental_uris": {"android": "https://dc.lft.to/lastmile_qr_scan", "ios": "https://dc.lft.to/lastmile_qr_scan"}, "bike_id": "48ed7397ec22d7f656a23288d9d61e4b", "is_reserved": 0}, {"lat": 38.91236033333333, "fusion_lon": 0.0, "lon": -77.0092065, "is_disabled": 0, "type": "electric_scooter", "name": "8fcc19af4d437d39b8eca22e9f757f51", "fusion_lat": 0.0, "rental_uris": {"android": "https://dc.lft.to/lastmile_qr_scan", "ios": "https://dc.lft.to/lastmile_qr_scan"}, "bike_id": "8fcc19af4d437d39b8eca22e9f757f51", "is_reserved": 0}, {"lat": 38.943973166666666, "fusion_lon": 0.0, "lon": -77.026888, "is_disabled": 0, "type": "electric_scooter", "name": "dcf120a3b075c7619e26575ba3878608", "fusion_lat": 0.0, "rental_uris": {"android": "https://dc.lft.to/lastmile_qr_scan", "ios": "https://dc.lft.to/lastmile_qr_scan"}, "bike_id": "dcf120a3b075c7619e26575ba3878608", "is_reserved": 0}, {"lat": 38.9187855, "fusion_lon": 0.0, "lon": -77.0295835, "is_disabled": 0, "type": "electric_scooter", "name": "3f402e863760247feeb6d30ddb66b108", "fusion_lat": 0.0, "rental_uris": {"android": "https://dc.lft.to/lastmile_qr_scan", "ios": "https://dc.lft.to/lastmile_qr_scan"}, "bike_id": "3f402e863760247feeb6d30ddb66b108", "is_reserved": 0}, {"lat": 38.94508916666667, "fusion_lon": 0.0, "lon": -77.07455216666666, "is_disabled": 0, "type": "electric_scooter", "name": "c8ea751a30ad53d834511b788ea087e2", "fusion_lat": 0.0, "rental_uris": {"android": "https://dc.lft.to/lastmile_qr_scan", "ios": "https://dc.lft.to/lastmile_qr_scan"}, "bike_id": "c8ea751a30ad53d834511b788ea087e2", "is_reserved": 0}, {"lat": 38.84313616666667, "fusion_lon": 0.0, "lon": -76.99935, "is_disabled": 0, "type": "electric_scooter", "name": "7460ef195b67f19120b3a4129a6034fc", "fusion_lat": 0.0, "rental_uris": {"android": "https://dc.lft.to/lastmile_qr_scan", "ios": "https://dc.lft.to/lastmile_qr_scan"}, "bike_id": "7460ef195b67f19120b3a4129a6034fc", "is_reserved": 0}, {"lat": 38.904949333333334, "fusion_lon": 0.0, "lon": -77.0384165, "is_disabled": 0, "type": "electric_scooter", "name": "8a63bc38a9d25bebed0eef5597cf0f3a", "fusion_lat": 0.0, "rental_uris": {"android": "https://dc.lft.to/lastmile_qr_scan", "ios": "https://dc.lft.to/lastmile_qr_scan"}, "bike_id": "8a63bc38a9d25bebed0eef5597cf0f3a", "is_reserved": 0}, {"lat": 38.8924505, "fusion_lon": 0.0, "lon": -77.017299, "is_disabled": 0, "type": "electric_scooter", "name": "2d89fac050fc7a76abb434a197be2285", "fusion_lat": 0.0, "rental_uris": {"android": "https://dc.lft.to/lastmile_qr_scan", "ios": "https://dc.lft.to/lastmile_qr_scan"}, "bike_id": "2d89fac050fc7a76abb434a197be2285", "is_reserved": 0}, {"lat": 38.89505283333333, "fusion_lon": 0.0, "lon": -76.934755, "is_disabled": 0, "type": "electric_scooter", "name": "406e43529964834abb43b42122738316", "fusion_lat": 0.0, "rental_uris": {"android": "https://dc.lft.to/lastmile_qr_scan", "ios": "https://dc.lft.to/lastmile_qr_scan"}, "bike_id": "406e43529964834abb43b42122738316", "is_reserved": 0}, {"lat": 38.9222015, "fusion_lon": 0.0, "lon": -77.02211483333333, "is_disabled": 0, "type": "electric_scooter", "name": "45794fb05538a24d4fb49f75b396c164", "fusion_lat": 0.0, "rental_uris": {"android": "https://dc.lft.to/lastmile_qr_scan", "ios": "https://dc.lft.to/lastmile_qr_scan"}, "bike_id": "45794fb05538a24d4fb49f75b396c164", "is_reserved": 0}, {"lat": 39.056347833333334, "fusion_lon": 0.0, "lon": -77.12526983333333, "is_disabled": 0, "type": "electric_bike", "name": "81aca4d599f53980c17d685a7e77a476", "fusion_lat": 0.0, "rental_uris": {"android": "https://dc.lft.to/lastmile_qr_scan", "ios": "https://dc.lft.to/lastmile_qr_scan"}, "bike_id": "81aca4d599f53980c17d685a7e77a476", "is_reserved": 0}, {"lat": 38.902682666666664, "fusion_lon": 0.0, "lon": -77.01774583333334, "is_disabled": 0, "type": "electric_scooter", "name": "8708521f47f010adbc9c92edeb55df9e", "fusion_lat": 0.0, "rental_uris": {"android": "https://dc.lft.to/lastmile_qr_scan", "ios": "https://dc.lft.to/lastmile_qr_scan"}, "bike_id": "8708521f47f010adbc9c92edeb55df9e", "is_reserved": 0}, {"lat": 38.8877285, "fusion_lon": 0.0, "lon": -76.986873, "is_disabled": 0, "type": "electric_scooter", "name": "53c9939f92cac94cd64ba6aaf96f4f55", "fusion_lat": 0.0, "rental_uris": {"android": "https://dc.lft.to/lastmile_qr_scan", "ios": "https://dc.lft.to/lastmile_qr_scan"}, "bike_id": "53c9939f92cac94cd64ba6aaf96f4f55", "is_reserved": 0}, {"lat": 38.863606, "fusion_lon": 0.0, "lon": -76.99070016666667, "is_disabled": 0, "type": "electric_scooter", "name": "3be0667777a729f7be5d47be1d6573ff", "fusion_lat": 0.0, "rental_uris": {"android": "https://dc.lft.to/lastmile_qr_scan", "ios": "https://dc.lft.to/lastmile_qr_scan"}, "bike_id": "3be0667777a729f7be5d47be1d6573ff", "is_reserved": 0}, {"lat": 38.8873975, "fusion_lon": 0.0, "lon": -77.01754933333333, "is_disabled": 0, "type": "electric_scooter", "name": "73acfc384dae3dd89da20e2f62ccff66", "fusion_lat": 0.0, "rental_uris": {"android": "https://dc.lft.to/lastmile_qr_scan", "ios": "https://dc.lft.to/lastmile_qr_scan"}, "bike_id": "73acfc384dae3dd89da20e2f62ccff66", "is_reserved": 0}, {"lat": 38.900677333333334, "fusion_lon": 0.0, "lon": -77.02438916666667, "is_disabled": 0, "type": "electric_scooter", "name": "43256a4afcd98bdc667278decbd1784e", "fusion_lat": 0.0, "rental_uris": {"android": "https://dc.lft.to/lastmile_qr_scan", "ios": "https://dc.lft.to/lastmile_qr_scan"}, "bike_id": "43256a4afcd98bdc667278decbd1784e", "is_reserved": 0}, {"lat": 38.91112366666667, "fusion_lon": 0.0, "lon": -77.0425995, "is_disabled": 0, "type": "electric_scooter", "name": "83ef94e2c02ee703634c1351af27ffac", "fusion_lat": 0.0, "rental_uris": {"android": "https://dc.lft.to/lastmile_qr_scan", "ios": "https://dc.lft.to/lastmile_qr_scan"}, "bike_id": "83ef94e2c02ee703634c1351af27ffac", "is_reserved": 0}, {"lat": 38.901139, "fusion_lon": 0.0, "lon": -77.04021716666666, "is_disabled": 0, "type": "electric_scooter", "name": "a3a38f669691bc57b2a9330908ca8d37", "fusion_lat": 0.0, "rental_uris": {"android": "https://dc.lft.to/lastmile_qr_scan", "ios": "https://dc.lft.to/lastmile_qr_scan"}, "bike_id": "a3a38f669691bc57b2a9330908ca8d37", "is_reserved": 0}, {"lat": 38.906481166666666, "fusion_lon": 0.0, "lon": -77.0387015, "is_disabled": 0, "type": "electric_scooter", "name": "e2e9685f397ed140e41add98c9c14960", "fusion_lat": 0.0, "rental_uris": {"android": "https://dc.lft.to/lastmile_qr_scan", "ios": "https://dc.lft.to/lastmile_qr_scan"}, "bike_id": "e2e9685f397ed140e41add98c9c14960", "is_reserved": 0}, {"lat": 38.90369883333334, "fusion_lon": 0.0, "lon": -77.03330916666667, "is_disabled": 0, "type": "electric_scooter", "name": "574974cb3c6b60cb2cad16ad967ac09b", "fusion_lat": 0.0, "rental_uris": {"android": "https://dc.lft.to/lastmile_qr_scan", "ios": "https://dc.lft.to/lastmile_qr_scan"}, "bike_id": "574974cb3c6b60cb2cad16ad967ac09b", "is_reserved": 0}, {"lat": 38.89859633333333, "fusion_lon": 0.0, "lon": -77.02578416666667, "is_disabled": 0, "type": "electric_scooter", "name": "a619d9d87160cbd53648a71f6a7e0423", "fusion_lat": 0.0, "rental_uris": {"android": "https://dc.lft.to/lastmile_qr_scan", "ios": "https://dc.lft.to/lastmile_qr_scan"}, "bike_id": "a619d9d87160cbd53648a71f6a7e0423", "is_reserved": 0}, {"lat": 38.855085333333335, "fusion_lon": 0.0, "lon": -76.9840515, "is_disabled": 0, "type": "electric_bike", "name": "92bf79556180cd606289c25985ca97dd", "fusion_lat": 0.0, "rental_uris": {"android": "https://dc.lft.to/lastmile_qr_scan", "ios": "https://dc.lft.to/lastmile_qr_scan"}, "bike_id": "92bf79556180cd606289c25985ca97dd", "is_reserved": 0}, {"lat": 38.901721, "fusion_lon": 0.0, "lon": -77.04040383333333, "is_disabled": 0, "type": "electric_scooter", "name": "02eaf9f287f7a6ae0eb32f5b40e35e41", "fusion_lat": 0.0, "rental_uris": {"android": "https://dc.lft.to/lastmile_qr_scan", "ios": "https://dc.lft.to/lastmile_qr_scan"}, "bike_id": "02eaf9f287f7a6ae0eb32f5b40e35e41", "is_reserved": 0}, {"lat": 38.931037, "fusion_lon": 0.0, "lon": -77.03640733333333, "is_disabled": 0, "type": "electric_scooter", "name": "34e1e4e6d704f1a6d4196fb24b59ab23", "fusion_lat": 0.0, "rental_uris": {"android": "https://dc.lft.to/lastmile_qr_scan", "ios": "https://dc.lft.to/lastmile_qr_scan"}, "bike_id": "34e1e4e6d704f1a6d4196fb24b59ab23", "is_reserved": 0}, {"lat": 38.920433333333335, "fusion_lon": 0.0, "lon": -77.02579383333334, "is_disabled": 0, "type": "electric_scooter", "name": "9a91f5b3f4d59dd0b804dc39b5498df1", "fusion_lat": 0.0, "rental_uris": {"android": "https://dc.lft.to/lastmile_qr_scan", "ios": "https://dc.lft.to/lastmile_qr_scan"}, "bike_id": "9a91f5b3f4d59dd0b804dc39b5498df1", "is_reserved": 0}, {"lat": 38.91534033333333, "fusion_lon": 0.0, "lon": -77.04603216666666, "is_disabled": 0, "type": "electric_scooter", "name": "8a5c6cfa34af7d1657e5ec53f24d8177", "fusion_lat": 0.0, "rental_uris": {"android": "https://dc.lft.to/lastmile_qr_scan", "ios": "https://dc.lft.to/lastmile_qr_scan"}, "bike_id": "8a5c6cfa34af7d1657e5ec53f24d8177", "is_reserved": 0}, {"lat": 38.91678133333333, "fusion_lon": 0.0, "lon": -77.028094, "is_disabled": 0, "type": "electric_scooter", "name": "2a794636f7568c54089fea25f6f44b62", "fusion_lat": 0.0, "rental_uris": {"android": "https://dc.lft.to/lastmile_qr_scan", "ios": "https://dc.lft.to/lastmile_qr_scan"}, "bike_id": "2a794636f7568c54089fea25f6f44b62", "is_reserved": 0}, {"lat": 38.9168085, "fusion_lon": 0.0, "lon": -77.0279855, "is_disabled": 0, "type": "electric_scooter", "name": "56b8f1903963c221a86015d208e9bb7f", "fusion_lat": 0.0, "rental_uris": {"android": "https://dc.lft.to/lastmile_qr_scan", "ios": "https://dc.lft.to/lastmile_qr_scan"}, "bike_id": "56b8f1903963c221a86015d208e9bb7f", "is_reserved": 0}, {"lat": 38.884948, "fusion_lon": 0.0, "lon": -77.01587816666667, "is_disabled": 0, "type": "electric_scooter", "name": "08bfe321b36842edb79e589e34a8a9b0", "fusion_lat": 0.0, "rental_uris": {"android": "https://dc.lft.to/lastmile_qr_scan", "ios": "https://dc.lft.to/lastmile_qr_scan"}, "bike_id": "08bfe321b36842edb79e589e34a8a9b0", "is_reserved": 0}, {"lat": 38.8278145, "fusion_lon": 0.0, "lon": -77.00920283333333, "is_disabled": 0, "type": "electric_bike", "name": "aece1c89064e3bb8219e13f8b7061ea8", "fusion_lat": 0.0, "rental_uris": {"android": "https://dc.lft.to/lastmile_qr_scan", "ios": "https://dc.lft.to/lastmile_qr_scan"}, "bike_id": "aece1c89064e3bb8219e13f8b7061ea8", "is_reserved": 0}, {"lat": 38.9028105, "fusion_lon": 0.0, "lon": -77.0461985, "is_disabled": 0, "type": "electric_scooter", "name": "5cfc4a39c143e26d0f75ee1b179f228a", "fusion_lat": 0.0, "rental_uris": {"android": "https://dc.lft.to/lastmile_qr_scan", "ios": "https://dc.lft.to/lastmile_qr_scan"}, "bike_id": "5cfc4a39c143e26d0f75ee1b179f228a", "is_reserved": 0}, {"lat": 38.92362633333333, "fusion_lon": 0.0, "lon": -77.05045333333334, "is_disabled": 0, "type": "electric_scooter", "name": "fd46ee2e77b6f402ab00b237def2023e", "fusion_lat": 0.0, "rental_uris": {"android": "https://dc.lft.to/lastmile_qr_scan", "ios": "https://dc.lft.to/lastmile_qr_scan"}, "bike_id": "fd46ee2e77b6f402ab00b237def2023e", "is_reserved": 0}, {"lat": 38.90506416666667, "fusion_lon": 0.0, "lon": -76.9848315, "is_disabled": 0, "type": "electric_scooter", "name": "5be8c40a411e400532c968ff94b8879a", "fusion_lat": 0.0, "rental_uris": {"android": "https://dc.lft.to/lastmile_qr_scan", "ios": "https://dc.lft.to/lastmile_qr_scan"}, "bike_id": "5be8c40a411e400532c968ff94b8879a", "is_reserved": 0}, {"lat": 38.89487483333333, "fusion_lon": 0.0, "lon": -77.02735783333334, "is_disabled": 0, "type": "electric_scooter", "name": "15145b6e73dd712c5d2a6c0cd742e601", "fusion_lat": 0.0, "rental_uris": {"android": "https://dc.lft.to/lastmile_qr_scan", "ios": "https://dc.lft.to/lastmile_qr_scan"}, "bike_id": "15145b6e73dd712c5d2a6c0cd742e601", "is_reserved": 0}, {"lat": 38.89717566666667, "fusion_lon": 0.0, "lon": -77.007978, "is_disabled": 0, "type": "electric_scooter", "name": "dd6beb63f0a32e8b6b7a2611142e7bd5", "fusion_lat": 0.0, "rental_uris": {"android": "https://dc.lft.to/lastmile_qr_scan", "ios": "https://dc.lft.to/lastmile_qr_scan"}, "bike_id": "dd6beb63f0a32e8b6b7a2611142e7bd5", "is_reserved": 0}, {"lat": 38.901580833333334, "fusion_lon": 0.0, "lon": -77.039929, "is_disabled": 0, "type": "electric_scooter", "name": "1ee0f46cf7fdb818c26bc75199e7538e", "fusion_lat": 0.0, "rental_uris": {"android": "https://dc.lft.to/lastmile_qr_scan", "ios": "https://dc.lft.to/lastmile_qr_scan"}, "bike_id": "1ee0f46cf7fdb818c26bc75199e7538e", "is_reserved": 0}, {"lat": 38.91711133333333, "fusion_lon": 0.0, "lon": -77.0324265, "is_disabled": 0, "type": "electric_scooter", "name": "18ef73431ae784df2caa26b5450b4ac3", "fusion_lat": 0.0, "rental_uris": {"android": "https://dc.lft.to/lastmile_qr_scan", "ios": "https://dc.lft.to/lastmile_qr_scan"}, "bike_id": "18ef73431ae784df2caa26b5450b4ac3", "is_reserved": 0}, {"lat": 38.86211483333334, "fusion_lon": 0.0, "lon": -76.9947425, "is_disabled": 0, "type": "electric_scooter", "name": "7376eb45c06805f44ec7ad1da5c2a778", "fusion_lat": 0.0, "rental_uris": {"android": "https://dc.lft.to/lastmile_qr_scan", "ios": "https://dc.lft.to/lastmile_qr_scan"}, "bike_id": "7376eb45c06805f44ec7ad1da5c2a778", "is_reserved": 0}, {"lat": 38.925133333333335, "fusion_lon": 0.0, "lon": -77.05042616666667, "is_disabled": 0, "type": "electric_scooter", "name": "0f5005404c0ad6d4b9c2a4d43eb91a13", "fusion_lat": 0.0, "rental_uris": {"android": "https://dc.lft.to/lastmile_qr_scan", "ios": "https://dc.lft.to/lastmile_qr_scan"}, "bike_id": "0f5005404c0ad6d4b9c2a4d43eb91a13", "is_reserved": 0}, {"lat": 38.924741166666664, "fusion_lon": 0.0, "lon": -77.02207016666667, "is_disabled": 0, "type": "electric_scooter", "name": "b8d98402c4763ebacfc20efa9f20f902", "fusion_lat": 0.0, "rental_uris": {"android": "https://dc.lft.to/lastmile_qr_scan", "ios": "https://dc.lft.to/lastmile_qr_scan"}, "bike_id": "b8d98402c4763ebacfc20efa9f20f902", "is_reserved": 0}, {"lat": 38.885033, "fusion_lon": 0.0, "lon": -76.99843366666667, "is_disabled": 0, "type": "electric_scooter", "name": "3b18cdad4182564949062d9bd2d089d0", "fusion_lat": 0.0, "rental_uris": {"android": "https://dc.lft.to/lastmile_qr_scan", "ios": "https://dc.lft.to/lastmile_qr_scan"}, "bike_id": "3b18cdad4182564949062d9bd2d089d0", "is_reserved": 0}, {"lat": 38.89239416666667, "fusion_lon": 0.0, "lon": -77.04161816666667, "is_disabled": 0, "type": "electric_scooter", "name": "6731c8e64d9c94f0eadec22e1e8380bc", "fusion_lat": 0.0, "rental_uris": {"android": "https://dc.lft.to/lastmile_qr_scan", "ios": "https://dc.lft.to/lastmile_qr_scan"}, "bike_id": "6731c8e64d9c94f0eadec22e1e8380bc", "is_reserved": 0}, {"lat": 38.888809, "fusion_lon": 0.0, "lon": -77.01971716666667, "is_disabled": 0, "type": "electric_scooter", "name": "0304eda89e948ca23ade7520ca424c37", "fusion_lat": 0.0, "rental_uris": {"android": "https://dc.lft.to/lastmile_qr_scan", "ios": "https://dc.lft.to/lastmile_qr_scan"}, "bike_id": "0304eda89e948ca23ade7520ca424c37", "is_reserved": 0}, {"lat": 38.90636116666667, "fusion_lon": 0.0, "lon": -77.04893466666667, "is_disabled": 0, "type": "electric_scooter", "name": "d3a7ffd2258c329a588cad762dfc3524", "fusion_lat": 0.0, "rental_uris": {"android": "https://dc.lft.to/lastmile_qr_scan", "ios": "https://dc.lft.to/lastmile_qr_scan"}, "bike_id": "d3a7ffd2258c329a588cad762dfc3524", "is_reserved": 0}, {"lat": 38.9275575, "fusion_lon": 0.0, "lon": -77.02419966666666, "is_disabled": 0, "type": "electric_scooter", "name": "444cc50ad0bb3ec8e60930e3340c9673", "fusion_lat": 0.0, "rental_uris": {"android": "https://dc.lft.to/lastmile_qr_scan", "ios": "https://dc.lft.to/lastmile_qr_scan"}, "bike_id": "444cc50ad0bb3ec8e60930e3340c9673", "is_reserved": 0}, {"lat": 38.916727, "fusion_lon": 0.0, "lon": -77.02972033333333, "is_disabled": 0, "type": "electric_scooter", "name": "9994630b35b73514704be47b9ee70ee5", "fusion_lat": 0.0, "rental_uris": {"android": "https://dc.lft.to/lastmile_qr_scan", "ios": "https://dc.lft.to/lastmile_qr_scan"}, "bike_id": "9994630b35b73514704be47b9ee70ee5", "is_reserved": 0}, {"lat": 38.873335833333336, "fusion_lon": 0.0, "lon": -77.10617666666667, "is_disabled": 0, "type": "electric_bike", "name": "87018861e9aa5061b67cda9d0d7e845d", "fusion_lat": 0.0, "rental_uris": {"android": "https://dc.lft.to/lastmile_qr_scan", "ios": "https://dc.lft.to/lastmile_qr_scan"}, "bike_id": "87018861e9aa5061b67cda9d0d7e845d", "is_reserved": 0}, {"lat": 38.89364, "fusion_lon": 0.0, "lon": -77.003373, "is_disabled": 0, "type": "electric_scooter", "name": "92dd7ebc9eb4f5749a78fea857e95b3c", "fusion_lat": 0.0, "rental_uris": {"android": "https://dc.lft.to/lastmile_qr_scan", "ios": "https://dc.lft.to/lastmile_qr_scan"}, "bike_id": "92dd7ebc9eb4f5749a78fea857e95b3c", "is_reserved": 0}, {"lat": 38.91879483333334, "fusion_lon": 0.0, "lon": -77.029563, "is_disabled": 0, "type": "electric_scooter", "name": "335052994bee65732f149759846a0878", "fusion_lat": 0.0, "rental_uris": {"android": "https://dc.lft.to/lastmile_qr_scan", "ios": "https://dc.lft.to/lastmile_qr_scan"}, "bike_id": "335052994bee65732f149759846a0878", "is_reserved": 0}, {"lat": 38.937370333333334, "fusion_lon": 0.0, "lon": -77.03622083333333, "is_disabled": 0, "type": "electric_scooter", "name": "4af0377e344610ffd0c08cfea89f50f3", "fusion_lat": 0.0, "rental_uris": {"android": "https://dc.lft.to/lastmile_qr_scan", "ios": "https://dc.lft.to/lastmile_qr_scan"}, "bike_id": "4af0377e344610ffd0c08cfea89f50f3", "is_reserved": 0}, {"lat": 38.940881166666664, "fusion_lon": 0.0, "lon": -77.02720416666666, "is_disabled": 0, "type": "electric_scooter", "name": "b8c48472829a1e1d05654e79714b2246", "fusion_lat": 0.0, "rental_uris": {"android": "https://dc.lft.to/lastmile_qr_scan", "ios": "https://dc.lft.to/lastmile_qr_scan"}, "bike_id": "b8c48472829a1e1d05654e79714b2246", "is_reserved": 0}, {"lat": 38.967252, "fusion_lon": 0.0, "lon": -77.01855983333333, "is_disabled": 0, "type": "electric_scooter", "name": "cd6c1ff40a26cc93d99f48e51da46e2f", "fusion_lat": 0.0, "rental_uris": {"android": "https://dc.lft.to/lastmile_qr_scan", "ios": "https://dc.lft.to/lastmile_qr_scan"}, "bike_id": "cd6c1ff40a26cc93d99f48e51da46e2f", "is_reserved": 0}, {"lat": 38.892483166666665, "fusion_lon": 0.0, "lon": -77.01727533333333, "is_disabled": 0, "type": "electric_scooter", "name": "fa4d230fd11050f19566eddbe182e86a", "fusion_lat": 0.0, "rental_uris": {"android": "https://dc.lft.to/lastmile_qr_scan", "ios": "https://dc.lft.to/lastmile_qr_scan"}, "bike_id": "fa4d230fd11050f19566eddbe182e86a", "is_reserved": 0}, {"lat": 38.906476, "fusion_lon": 0.0, "lon": -77.04812533333333, "is_disabled": 0, "type": "electric_scooter", "name": "4929cefbfb0206e786af1fb5a9d4ade3", "fusion_lat": 0.0, "rental_uris": {"android": "https://dc.lft.to/lastmile_qr_scan", "ios": "https://dc.lft.to/lastmile_qr_scan"}, "bike_id": "4929cefbfb0206e786af1fb5a9d4ade3", "is_reserved": 0}, {"lat": 38.893875666666666, "fusion_lon": 0.0, "lon": -77.02253583333334, "is_disabled": 0, "type": "electric_scooter", "name": "b3b3c7b9a25ef41d2db8c97dbe214080", "fusion_lat": 0.0, "rental_uris": {"android": "https://dc.lft.to/lastmile_qr_scan", "ios": "https://dc.lft.to/lastmile_qr_scan"}, "bike_id": "b3b3c7b9a25ef41d2db8c97dbe214080", "is_reserved": 0}, {"lat": 38.92217866666667, "fusion_lon": 0.0, "lon": -77.04334983333334, "is_disabled": 0, "type": "electric_scooter", "name": "2592d1bc745ce1ffe62a8cc77a963bee", "fusion_lat": 0.0, "rental_uris": {"android": "https://dc.lft.to/lastmile_qr_scan", "ios": "https://dc.lft.to/lastmile_qr_scan"}, "bike_id": "2592d1bc745ce1ffe62a8cc77a963bee", "is_reserved": 0}, {"lat": 38.904044166666665, "fusion_lon": 0.0, "lon": -77.00593333333333, "is_disabled": 0, "type": "electric_scooter", "name": "609be5f353b3f325e20e66f824922a9a", "fusion_lat": 0.0, "rental_uris": {"android": "https://dc.lft.to/lastmile_qr_scan", "ios": "https://dc.lft.to/lastmile_qr_scan"}, "bike_id": "609be5f353b3f325e20e66f824922a9a", "is_reserved": 0}, {"lat": 38.91111633333333, "fusion_lon": 0.0, "lon": -77.06926933333334, "is_disabled": 0, "type": "electric_scooter", "name": "38350d7a97af80b6c84f4c07909476b6", "fusion_lat": 0.0, "rental_uris": {"android": "https://dc.lft.to/lastmile_qr_scan", "ios": "https://dc.lft.to/lastmile_qr_scan"}, "bike_id": "38350d7a97af80b6c84f4c07909476b6", "is_reserved": 0}, {"lat": 38.914374333333335, "fusion_lon": 0.0, "lon": -77.00459866666667, "is_disabled": 0, "type": "electric_scooter", "name": "a468faba58b308b03485317f70e677be", "fusion_lat": 0.0, "rental_uris": {"android": "https://dc.lft.to/lastmile_qr_scan", "ios": "https://dc.lft.to/lastmile_qr_scan"}, "bike_id": "a468faba58b308b03485317f70e677be", "is_reserved": 0}, {"lat": 38.902843, "fusion_lon": 0.0, "lon": -77.04512983333333, "is_disabled": 0, "type": "electric_scooter", "name": "61278dffa597ce01187f502659c548e4", "fusion_lat": 0.0, "rental_uris": {"android": "https://dc.lft.to/lastmile_qr_scan", "ios": "https://dc.lft.to/lastmile_qr_scan"}, "bike_id": "61278dffa597ce01187f502659c548e4", "is_reserved": 0}, {"lat": 38.883646666666664, "fusion_lon": 0.0, "lon": -76.94155716666667, "is_disabled": 0, "type": "electric_scooter", "name": "ddb05ca5350d4bd87e8c938cec44368e", "fusion_lat": 0.0, "rental_uris": {"android": "https://dc.lft.to/lastmile_qr_scan", "ios": "https://dc.lft.to/lastmile_qr_scan"}, "bike_id": "ddb05ca5350d4bd87e8c938cec44368e", "is_reserved": 0}, {"lat": 38.88712483333333, "fusion_lon": 0.0, "lon": -77.02205716666667, "is_disabled": 0, "type": "electric_scooter", "name": "0dd33566781ec4a77c3993de4e3d9048", "fusion_lat": 0.0, "rental_uris": {"android": "https://dc.lft.to/lastmile_qr_scan", "ios": "https://dc.lft.to/lastmile_qr_scan"}, "bike_id": "0dd33566781ec4a77c3993de4e3d9048", "is_reserved": 0}, {"lat": 38.886045, "fusion_lon": 0.0, "lon": -77.00138716666666, "is_disabled": 0, "type": "electric_scooter", "name": "93d76437691e51abce53564a7d125e5b", "fusion_lat": 0.0, "rental_uris": {"android": "https://dc.lft.to/lastmile_qr_scan", "ios": "https://dc.lft.to/lastmile_qr_scan"}, "bike_id": "93d76437691e51abce53564a7d125e5b", "is_reserved": 0}, {"lat": 38.913533666666666, "fusion_lon": 0.0, "lon": -77.04571666666666, "is_disabled": 0, "type": "electric_scooter", "name": "8f9d64d459e71794ceb707868aae242c", "fusion_lat": 0.0, "rental_uris": {"android": "https://dc.lft.to/lastmile_qr_scan", "ios": "https://dc.lft.to/lastmile_qr_scan"}, "bike_id": "8f9d64d459e71794ceb707868aae242c", "is_reserved": 0}, {"lat": 38.8647195, "fusion_lon": 0.0, "lon": -76.98238066666667, "is_disabled": 0, "type": "electric_scooter", "name": "37fd794468336255432af789129d32ab", "fusion_lat": 0.0, "rental_uris": {"android": "https://dc.lft.to/lastmile_qr_scan", "ios": "https://dc.lft.to/lastmile_qr_scan"}, "bike_id": "37fd794468336255432af789129d32ab", "is_reserved": 0}, {"lat": 38.956179, "fusion_lon": 0.0, "lon": -77.02784, "is_disabled": 0, "type": "electric_scooter", "name": "41606312c4d8e5496dc921cea89651ad", "fusion_lat": 0.0, "rental_uris": {"android": "https://dc.lft.to/lastmile_qr_scan", "ios": "https://dc.lft.to/lastmile_qr_scan"}, "bike_id": "41606312c4d8e5496dc921cea89651ad", "is_reserved": 0}, {"lat": 38.85936816666667, "fusion_lon": 0.0, "lon": -77.11829066666667, "is_disabled": 0, "type": "electric_bike", "name": "602770f5ef6442f406eedc030526f74f", "fusion_lat": 0.0, "rental_uris": {"android": "https://dc.lft.to/lastmile_qr_scan", "ios": "https://dc.lft.to/lastmile_qr_scan"}, "bike_id": "602770f5ef6442f406eedc030526f74f", "is_reserved": 0}, {"lat": 38.981533666666664, "fusion_lon": 0.0, "lon": -77.0264185, "is_disabled": 0, "type": "electric_bike", "name": "676f472568e48a854780588473e55fb2", "fusion_lat": 0.0, "rental_uris": {"android": "https://dc.lft.to/lastmile_qr_scan", "ios": "https://dc.lft.to/lastmile_qr_scan"}, "bike_id": "676f472568e48a854780588473e55fb2", "is_reserved": 0}, {"lat": 38.9170755, "fusion_lon": 0.0, "lon": -77.03241166666666, "is_disabled": 0, "type": "electric_scooter", "name": "3a5bd839ec27d01418b23a7e8e597d47", "fusion_lat": 0.0, "rental_uris": {"android": "https://dc.lft.to/lastmile_qr_scan", "ios": "https://dc.lft.to/lastmile_qr_scan"}, "bike_id": "3a5bd839ec27d01418b23a7e8e597d47", "is_reserved": 0}, {"lat": 38.92239283333333, "fusion_lon": 0.0, "lon": -77.03660516666666, "is_disabled": 0, "type": "electric_scooter", "name": "fbb261f15590f5debcf28ae4a2be058b", "fusion_lat": 0.0, "rental_uris": {"android": "https://dc.lft.to/lastmile_qr_scan", "ios": "https://dc.lft.to/lastmile_qr_scan"}, "bike_id": "fbb261f15590f5debcf28ae4a2be058b", "is_reserved": 0}, {"lat": 38.86482516666667, "fusion_lon": 0.0, "lon": -76.9773945, "is_disabled": 0, "type": "electric_bike", "name": "f9ba5daf2ebf846476cd04d9ecdc1544", "fusion_lat": 0.0, "rental_uris": {"android": "https://dc.lft.to/lastmile_qr_scan", "ios": "https://dc.lft.to/lastmile_qr_scan"}, "bike_id": "f9ba5daf2ebf846476cd04d9ecdc1544", "is_reserved": 0}, {"lat": 38.89404566666666, "fusion_lon": 0.0, "lon": -77.02416933333333, "is_disabled": 0, "type": "electric_scooter", "name": "b7365f4d7b4ff4531d428c35e640f154", "fusion_lat": 0.0, "rental_uris": {"android": "https://dc.lft.to/lastmile_qr_scan", "ios": "https://dc.lft.to/lastmile_qr_scan"}, "bike_id": "b7365f4d7b4ff4531d428c35e640f154", "is_reserved": 0}, {"lat": 38.929639333333334, "fusion_lon": 0.0, "lon": -77.185635, "is_disabled": 0, "type": "electric_bike", "name": "858e8cf244916e74ba3a12acbf06c6a4", "fusion_lat": 0.0, "rental_uris": {"android": "https://dc.lft.to/lastmile_qr_scan", "ios": "https://dc.lft.to/lastmile_qr_scan"}, "bike_id": "858e8cf244916e74ba3a12acbf06c6a4", "is_reserved": 0}, {"lat": 39.0549845, "fusion_lon": 0.0, "lon": -77.04650333333333, "is_disabled": 0, "type": "electric_bike", "name": "4e30cac52e53da9cfa8154fb596e52ea", "fusion_lat": 0.0, "rental_uris": {"android": "https://dc.lft.to/lastmile_qr_scan", "ios": "https://dc.lft.to/lastmile_qr_scan"}, "bike_id": "4e30cac52e53da9cfa8154fb596e52ea", "is_reserved": 0}, {"lat": 38.916770166666666, "fusion_lon": 0.0, "lon": -77.0369035, "is_disabled": 0, "type": "electric_scooter", "name": "fa99f545099461faa1e087d7ad064461", "fusion_lat": 0.0, "rental_uris": {"android": "https://dc.lft.to/lastmile_qr_scan", "ios": "https://dc.lft.to/lastmile_qr_scan"}, "bike_id": "fa99f545099461faa1e087d7ad064461", "is_reserved": 0}, {"lat": 38.88608516666667, "fusion_lon": 0.0, "lon": -76.995115, "is_disabled": 0, "type": "electric_scooter", "name": "a1f7978de5f8bd93c2992dda624fc8d9", "fusion_lat": 0.0, "rental_uris": {"android": "https://dc.lft.to/lastmile_qr_scan", "ios": "https://dc.lft.to/lastmile_qr_scan"}, "bike_id": "a1f7978de5f8bd93c2992dda624fc8d9", "is_reserved": 0}, {"lat": 38.954401833333336, "fusion_lon": 0.0, "lon": -76.98913433333334, "is_disabled": 0, "type": "electric_bike", "name": "b3c6a4bdbce1e417fbadfaf56682e2e1", "fusion_lat": 0.0, "rental_uris": {"android": "https://dc.lft.to/lastmile_qr_scan", "ios": "https://dc.lft.to/lastmile_qr_scan"}, "bike_id": "b3c6a4bdbce1e417fbadfaf56682e2e1", "is_reserved": 0}, {"lat": 38.880831666666666, "fusion_lon": 0.0, "lon": -77.11492, "is_disabled": 0, "type": "electric_bike", "name": "44127ae15178df3dbfcec80f514bed80", "fusion_lat": 0.0, "rental_uris": {"android": "https://dc.lft.to/lastmile_qr_scan", "ios": "https://dc.lft.to/lastmile_qr_scan"}, "bike_id": "44127ae15178df3dbfcec80f514bed80", "is_reserved": 0}, {"lat": 38.9169915, "fusion_lon": 0.0, "lon": -77.03589016666666, "is_disabled": 0, "type": "electric_scooter", "name": "7bb2962ebff39d897fc6b79e5cc95fac", "fusion_lat": 0.0, "rental_uris": {"android": "https://dc.lft.to/lastmile_qr_scan", "ios": "https://dc.lft.to/lastmile_qr_scan"}, "bike_id": "7bb2962ebff39d897fc6b79e5cc95fac", "is_reserved": 0}, {"lat": 38.93159966666666, "fusion_lon": 0.0, "lon": -76.8840395, "is_disabled": 0, "type": "electric_bike", "name": "7f80efc4cda1307cedc4d7c8a8aae54b", "fusion_lat": 0.0, "rental_uris": {"android": "https://dc.lft.to/lastmile_qr_scan", "ios": "https://dc.lft.to/lastmile_qr_scan"}, "bike_id": "7f80efc4cda1307cedc4d7c8a8aae54b", "is_reserved": 0}, {"lat": 38.87199416666667, "fusion_lon": 0.0, "lon": -77.01076133333333, "is_disabled": 0, "type": "electric_scooter", "name": "1dfbb9f04eea79c52790c2fb3479864a", "fusion_lat": 0.0, "rental_uris": {"android": "https://dc.lft.to/lastmile_qr_scan", "ios": "https://dc.lft.to/lastmile_qr_scan"}, "bike_id": "1dfbb9f04eea79c52790c2fb3479864a", "is_reserved": 0}, {"lat": 38.8782605, "fusion_lon": 0.0, "lon": -76.963093, "is_disabled": 0, "type": "electric_scooter", "name": "5f7b70528cd645d5adcf485f431202b7", "fusion_lat": 0.0, "rental_uris": {"android": "https://dc.lft.to/lastmile_qr_scan", "ios": "https://dc.lft.to/lastmile_qr_scan"}, "bike_id": "5f7b70528cd645d5adcf485f431202b7", "is_reserved": 0}, {"lat": 38.8972525, "fusion_lon": 0.0, "lon": -77.04358066666667, "is_disabled": 0, "type": "electric_scooter", "name": "86184bcb3e04dc724d217e657c0dbf61", "fusion_lat": 0.0, "rental_uris": {"android": "https://dc.lft.to/lastmile_qr_scan", "ios": "https://dc.lft.to/lastmile_qr_scan"}, "bike_id": "86184bcb3e04dc724d217e657c0dbf61", "is_reserved": 0}, {"lat": 38.90243516666666, "fusion_lon": 0.0, "lon": -76.99565733333333, "is_disabled": 0, "type": "electric_scooter", "name": "fc1398339fc0fdadda8516b9e473e274", "fusion_lat": 0.0, "rental_uris": {"android": "https://dc.lft.to/lastmile_qr_scan", "ios": "https://dc.lft.to/lastmile_qr_scan"}, "bike_id": "fc1398339fc0fdadda8516b9e473e274", "is_reserved": 0}, {"lat": 38.920598166666664, "fusion_lon": 0.0, "lon": -77.0251155, "is_disabled": 0, "type": "electric_scooter", "name": "fb75728ee3e2456498cc45920bc8c990", "fusion_lat": 0.0, "rental_uris": {"android": "https://dc.lft.to/lastmile_qr_scan", "ios": "https://dc.lft.to/lastmile_qr_scan"}, "bike_id": "fb75728ee3e2456498cc45920bc8c990", "is_reserved": 0}, {"lat": 38.98452316666667, "fusion_lon": 0.0, "lon": -77.026471, "is_disabled": 0, "type": "electric_scooter", "name": "71c54a92d38841545164929cc46d4ade", "fusion_lat": 0.0, "rental_uris": {"android": "https://dc.lft.to/lastmile_qr_scan", "ios": "https://dc.lft.to/lastmile_qr_scan"}, "bike_id": "71c54a92d38841545164929cc46d4ade", "is_reserved": 0}, {"lat": 38.91108116666667, "fusion_lon": 0.0, "lon": -77.04478, "is_disabled": 0, "type": "electric_scooter", "name": "0f52f19e07484699c942ea0961d9b9b0", "fusion_lat": 0.0, "rental_uris": {"android": "https://dc.lft.to/lastmile_qr_scan", "ios": "https://dc.lft.to/lastmile_qr_scan"}, "bike_id": "0f52f19e07484699c942ea0961d9b9b0", "is_reserved": 0}, {"lat": 39.05281866666667, "fusion_lon": 0.0, "lon": -77.08070333333333, "is_disabled": 0, "type": "electric_bike", "name": "051978368e9e5130aaa2792853378d78", "fusion_lat": 0.0, "rental_uris": {"android": "https://dc.lft.to/lastmile_qr_scan", "ios": "https://dc.lft.to/lastmile_qr_scan"}, "bike_id": "051978368e9e5130aaa2792853378d78", "is_reserved": 0}, {"lat": 38.8872255, "fusion_lon": 0.0, "lon": -77.02818533333334, "is_disabled": 0, "type": "electric_scooter", "name": "21862dacf53f1b38635ffbc65c02b9ef", "fusion_lat": 0.0, "rental_uris": {"android": "https://dc.lft.to/lastmile_qr_scan", "ios": "https://dc.lft.to/lastmile_qr_scan"}, "bike_id": "21862dacf53f1b38635ffbc65c02b9ef", "is_reserved": 0}, {"lat": 38.869974166666665, "fusion_lon": 0.0, "lon": -76.97588316666666, "is_disabled": 0, "type": "electric_scooter", "name": "261281fbc7f52037ae0dce2c000edba3", "fusion_lat": 0.0, "rental_uris": {"android": "https://dc.lft.to/lastmile_qr_scan", "ios": "https://dc.lft.to/lastmile_qr_scan"}, "bike_id": "261281fbc7f52037ae0dce2c000edba3", "is_reserved": 0}, {"lat": 38.96103883333333, "fusion_lon": 0.0, "lon": -76.92814883333334, "is_disabled": 0, "type": "electric_bike", "name": "af060272b67857bc8a0748cb0294ed6d", "fusion_lat": 0.0, "rental_uris": {"android": "https://dc.lft.to/lastmile_qr_scan", "ios": "https://dc.lft.to/lastmile_qr_scan"}, "bike_id": "af060272b67857bc8a0748cb0294ed6d", "is_reserved": 0}, {"lat": 38.9231905, "fusion_lon": 0.0, "lon": -77.02145666666667, "is_disabled": 0, "type": "electric_scooter", "name": "6630e5f364f964a5d8264779c80c1c00", "fusion_lat": 0.0, "rental_uris": {"android": "https://dc.lft.to/lastmile_qr_scan", "ios": "https://dc.lft.to/lastmile_qr_scan"}, "bike_id": "6630e5f364f964a5d8264779c80c1c00", "is_reserved": 0}, {"lat": 38.93048916666667, "fusion_lon": 0.0, "lon": -77.03236433333333, "is_disabled": 0, "type": "electric_scooter", "name": "e7ef77c1f5bb8f40d4996ad07510b4f4", "fusion_lat": 0.0, "rental_uris": {"android": "https://dc.lft.to/lastmile_qr_scan", "ios": "https://dc.lft.to/lastmile_qr_scan"}, "bike_id": "e7ef77c1f5bb8f40d4996ad07510b4f4", "is_reserved": 0}, {"lat": 38.900861666666664, "fusion_lon": 0.0, "lon": -76.93024933333334, "is_disabled": 0, "type": "electric_scooter", "name": "bcebbe02e6c1b5da472ec605a2d6a110", "fusion_lat": 0.0, "rental_uris": {"android": "https://dc.lft.to/lastmile_qr_scan", "ios": "https://dc.lft.to/lastmile_qr_scan"}, "bike_id": "bcebbe02e6c1b5da472ec605a2d6a110", "is_reserved": 0}, {"lat": 38.85538966666667, "fusion_lon": 0.0, "lon": -76.98418666666667, "is_disabled": 0, "type": "electric_scooter", "name": "90a27d490e3530dcdbb9a456df1a6569", "fusion_lat": 0.0, "rental_uris": {"android": "https://dc.lft.to/lastmile_qr_scan", "ios": "https://dc.lft.to/lastmile_qr_scan"}, "bike_id": "90a27d490e3530dcdbb9a456df1a6569", "is_reserved": 0}, {"lat": 38.902322833333336, "fusion_lon": 0.0, "lon": -77.0260625, "is_disabled": 0, "type": "electric_scooter", "name": "f16d743b0792da2f96f37263f8b4bf7e", "fusion_lat": 0.0, "rental_uris": {"android": "https://dc.lft.to/lastmile_qr_scan", "ios": "https://dc.lft.to/lastmile_qr_scan"}, "bike_id": "f16d743b0792da2f96f37263f8b4bf7e", "is_reserved": 0}, {"lat": 38.902649, "fusion_lon": 0.0, "lon": -77.0021135, "is_disabled": 0, "type": "electric_scooter", "name": "cf39db1fbf487166164da2888d7fa650", "fusion_lat": 0.0, "rental_uris": {"android": "https://dc.lft.to/lastmile_qr_scan", "ios": "https://dc.lft.to/lastmile_qr_scan"}, "bike_id": "cf39db1fbf487166164da2888d7fa650", "is_reserved": 0}, {"lat": 38.872075, "fusion_lon": 0.0, "lon": -76.97836066666666, "is_disabled": 0, "type": "electric_scooter", "name": "51537565f347bcf30c98c4b1cc62a238", "fusion_lat": 0.0, "rental_uris": {"android": "https://dc.lft.to/lastmile_qr_scan", "ios": "https://dc.lft.to/lastmile_qr_scan"}, "bike_id": "51537565f347bcf30c98c4b1cc62a238", "is_reserved": 0}, {"lat": 38.91112716666667, "fusion_lon": 0.0, "lon": -77.02178483333333, "is_disabled": 0, "type": "electric_scooter", "name": "66dbc807d2fc2f1d77786e75cb23689c", "fusion_lat": 0.0, "rental_uris": {"android": "https://dc.lft.to/lastmile_qr_scan", "ios": "https://dc.lft.to/lastmile_qr_scan"}, "bike_id": "66dbc807d2fc2f1d77786e75cb23689c", "is_reserved": 0}, {"lat": 38.884791, "fusion_lon": 0.0, "lon": -76.92620033333333, "is_disabled": 0, "type": "electric_scooter", "name": "60b6b2347ce32b35b336fb26d55bf382", "fusion_lat": 0.0, "rental_uris": {"android": "https://dc.lft.to/lastmile_qr_scan", "ios": "https://dc.lft.to/lastmile_qr_scan"}, "bike_id": "60b6b2347ce32b35b336fb26d55bf382", "is_reserved": 0}, {"lat": 38.8831, "fusion_lon": 0.0, "lon": -77.01787983333334, "is_disabled": 0, "type": "electric_scooter", "name": "4dfc392a5e21ca7e5e8c550eae8553bc", "fusion_lat": 0.0, "rental_uris": {"android": "https://dc.lft.to/lastmile_qr_scan", "ios": "https://dc.lft.to/lastmile_qr_scan"}, "bike_id": "4dfc392a5e21ca7e5e8c550eae8553bc", "is_reserved": 0}, {"lat": 38.89268, "fusion_lon": 0.0, "lon": -77.04876866666666, "is_disabled": 0, "type": "electric_scooter", "name": "ff6705c1acce8da8f801d7db7a76954b", "fusion_lat": 0.0, "rental_uris": {"android": "https://dc.lft.to/lastmile_qr_scan", "ios": "https://dc.lft.to/lastmile_qr_scan"}, "bike_id": "ff6705c1acce8da8f801d7db7a76954b", "is_reserved": 0}, {"lat": 38.950643666666664, "fusion_lon": 0.0, "lon": -77.0801595, "is_disabled": 0, "type": "electric_scooter", "name": "a9cc7c6a1566a24a2c73dde0444f2802", "fusion_lat": 0.0, "rental_uris": {"android": "https://dc.lft.to/lastmile_qr_scan", "ios": "https://dc.lft.to/lastmile_qr_scan"}, "bike_id": "a9cc7c6a1566a24a2c73dde0444f2802", "is_reserved": 0}, {"lat": 38.8923195, "fusion_lon": 0.0, "lon": -77.031819, "is_disabled": 0, "type": "electric_scooter", "name": "d81a3c5ae96fd492b541675e6578f9f4", "fusion_lat": 0.0, "rental_uris": {"android": "https://dc.lft.to/lastmile_qr_scan", "ios": "https://dc.lft.to/lastmile_qr_scan"}, "bike_id": "d81a3c5ae96fd492b541675e6578f9f4", "is_reserved": 0}, {"lat": 38.94433766666667, "fusion_lon": 0.0, "lon": -77.02602516666667, "is_disabled": 0, "type": "electric_scooter", "name": "f095baf87c2ce60f1b325d4f27422697", "fusion_lat": 0.0, "rental_uris": {"android": "https://dc.lft.to/lastmile_qr_scan", "ios": "https://dc.lft.to/lastmile_qr_scan"}, "bike_id": "f095baf87c2ce60f1b325d4f27422697", "is_reserved": 0}, {"lat": 38.90552516666666, "fusion_lon": 0.0, "lon": -77.032527, "is_disabled": 0, "type": "electric_scooter", "name": "ee2ae3fc95289419f156e87d9139f542", "fusion_lat": 0.0, "rental_uris": {"android": "https://dc.lft.to/lastmile_qr_scan", "ios": "https://dc.lft.to/lastmile_qr_scan"}, "bike_id": "ee2ae3fc95289419f156e87d9139f542", "is_reserved": 0},