{"data": {"bikes": [{"rental_uris": {"android": "https://dc.lft.to/lastmile_qr_scan", "ios": "https://dc.lft.to/lastmile_qr_scan"}, "fusion_lat": 0.0, "is_reserved": 0, "lat": 38.8922565, "name": "a96409c90d3a16377ed8a4aa38fda705", "bike_id": "a96409c90d3a16377ed8a4aa38fda705", "is_disabled": 0, "fusion_lon": 0.0, "type": "electric_scooter", "lon": -77.0399395}, {"rental_uris": {"android": "https://dc.lft.to/lastmile_qr_scan", "ios": "https://dc.lft.to/lastmile_qr_scan"}, "fusion_lat": 0.0, "is_reserved": 0, "lat": 38.852262, "name": "4f45366ec7ef5a8aeea11f4158ca9343", "bike_id": "4f45366ec7ef5a8aeea11f4158ca9343", "is_disabled": 0, "fusion_lon": 0.0, "type": "electric_scooter", "lon": -76.99426466666667}, {"rental_uris": {"android": "https://dc.lft.to/lastmile_qr_scan", "ios": "https://dc.lft.to/lastmile_qr_scan"}, "fusion_lat": 0.0, "is_reserved": 0, "lat": 38.91941466666667, "name": "960c0855ef19a4f3154bfafaf665d473", "bike_id": "960c0855ef19a4f3154bfafaf665d473", "is_disabled": 0, "fusion_lon": 0.0, "type": "electric_scooter", "lon": -77.048995}, {"rental_uris": {"android": "https://dc.lft.to/lastmile_qr_scan", "ios": "https://dc.lft.to/lastmile_qr_scan"}, "fusion_lat": 0.0, "is_reserved": 0, "lat": 38.923792, "name": "78d625ae12d461190bc736ffdf1f5c48", "bike_id": "78d625ae12d461190bc736ffdf1f5c48", "is_disabled": 0, "fusion_lon": 0.0, "type": "electric_scooter", "lon": -77.02687066666667}, {"rental_uris": {"android": "https://dc.lft.to/lastmile_qr_scan", "ios": "https://dc.lft.to/lastmile_qr_scan"}, "fusion_lat": 0.0, "is_reserved": 0, "lat": 38.876432, "name": "98187487ec2b1dbfd0838fe4d92d4199", "bike_id": "98187487ec2b1dbfd0838fe4d92d4199", "is_disabled": 0, "fusion_lon": 0.0, "type": "electric_scooter", "lon": -77.00035366666667}, {"rental_uris": {"android": "https://dc.lft.to/lastmile_qr_scan", "ios": "https://dc.lft.to/lastmile_qr_scan"}, "fusion_lat": 0.0, "is_reserved": 0, "lat": 38.8990955, "name": "bf792ab942c76838df106c90ea56d91e", "bike_id": "bf792ab942c76838df106c90ea56d91e", "is_disabled": 0, "fusion_lon": 0.0, "type": "electric_scooter", "lon": -76.98575583333333}, {"rental_uris": {"android": "https://dc.lft.to/lastmile_qr_scan", "ios": "https://dc.lft.to/lastmile_qr_scan"}, "fusion_lat": 0.0, "is_reserved": 0, "lat": 38.90156983333333, "name": "dc82788f58f5c063a6c587313abfac25", "bike_id": "dc82788f58f5c063a6c587313abfac25", "is_disabled": 0, "fusion_lon": 0.0, "type": "electric_scooter", "lon": -76.9213495}, {"rental_uris": {"android": "https://dc.lft.to/lastmile_qr_scan", "ios": "https://dc.lft.to/lastmile_qr_scan"}, "fusion_lat": 0.0, "is_reserved": 0, "lat": 38.93621183333333, "name": "413a69b9fdc4a2a1e5abf84ddab285ff", "bike_id": "413a69b9fdc4a2a1e5abf84ddab285ff", "is_disabled": 0, "fusion_lon": 0.0, "type": "electric_scooter", "lon": -77.03217}, {"rental_uris": {"android": "https://dc.lft.to/lastmile_qr_scan", "ios": "https://dc.lft.to/lastmile_qr_scan"}, "fusion_lat": 0.0, "is_reserved": 0, "lat": 38.92522433333333, "name": "cdcfc511a4dbba36f5376145637c6c92", "bike_id": "cdcfc511a4dbba36f5376145637c6c92", "is_disabled": 0, "fusion_lon": 0.0, "type": "electric_scooter", "lon": -77.02980316666667}, {"rental_uris": {"android": "https://dc.lft.to/lastmile_qr_scan", "ios": "https://dc.lft.to/lastmile_qr_scan"}, "fusion_lat": 0.0, "is_reserved": 0, "lat": 38.9206645, "name": "b7dc7983b0b21474c70ee6f5789921a3", "bike_id": "b7dc7983b0b21474c70ee6f5789921a3", "is_disabled": 0, "fusion_lon": 0.0, "type": "electric_scooter", "lon": -77.024214}, {"rental_uris": {"android": "https://dc.lft.to/lastmile_qr_scan", "ios": "https://dc.lft.to/lastmile_qr_scan"}, "fusion_lat": 0.0, "is_reserved": 0, "lat": 38.916020833333334, "name": "e828d93c79543673434d30c20da0834e", "bike_id": "e828d93c79543673434d30c20da0834e", "is_disabled": 0, "fusion_lon": 0.0, "type": "electric_scooter", "lon": -77.02577883333333}, {"rental_uris": {"android": "https://dc.lft.to/lastmile_qr_scan", "ios": "https://dc.lft.to/lastmile_qr_scan"}, "fusion_lat": 0.0, "is_reserved": 0, "lat": 38.87848416666667, "name": "adef9e98f3017fd643813f52b4fc5bd3", "bike_id": "adef9e98f3017fd643813f52b4fc5bd3", "is_disabled": 0, "fusion_lon": 0.0, "type": "electric_scooter", "lon": -77.02239433333334}, {"rental_uris": {"android": "https://dc.lft.to/lastmile_qr_scan", "ios": "https://dc.lft.to/lastmile_qr_scan"}, "fusion_lat": 0.0, "is_reserved": 0, "lat": 38.893658, "name": "086ebf3a059863a28e68a133b83a4b96", "bike_id": "086ebf3a059863a28e68a133b83a4b96", "is_disabled": 0, "fusion_lon": 0.0, "type": "electric_scooter", "lon": -77.00328516666667}, {"rental_uris": {"android": "https://dc.lft.to/lastmile_qr_scan", "ios": "https://dc.lft.to/lastmile_qr_scan"}, "fusion_lat": 0.0, "is_reserved": 0, "lat": 38.907712333333336, "name": "1e50e84e782af9851d7bf937a323284b", "bike_id": "1e50e84e782af9851d7bf937a323284b", "is_disabled": 0, "fusion_lon": 0.0, "type": "electric_scooter", "lon": -77.03767933333333}, {"rental_uris": {"android": "https://dc.lft.to/lastmile_qr_scan", "ios": "https://dc.lft.to/lastmile_qr_scan"}, "fusion_lat": 0.0, "is_reserved": 0, "lat": 38.920120833333335, "name": "7d716e8c3b5aba665b9c31dcb8ef003f", "bike_id": "7d716e8c3b5aba665b9c31dcb8ef003f", "is_disabled": 0, "fusion_lon": 0.0, "type": "electric_scooter", "lon": -77.0322415}, {"rental_uris": {"android": "https://dc.lft.to/lastmile_qr_scan", "ios": "https://dc.lft.to/lastmile_qr_scan"}, "fusion_lat": 0.0, "is_reserved": 0, "lat": 38.92478, "name": "30a15b5f7924159e20c0b1db97286850", "bike_id": "30a15b5f7924159e20c0b1db97286850", "is_disabled": 0, "fusion_lon": 0.0, "type": "electric_scooter", "lon": -77.02217866666666}, {"rental_uris": {"android": "https://dc.lft.to/lastmile_qr_scan", "ios": "https://dc.lft.to/lastmile_qr_scan"}, "fusion_lat": 0.0, "is_reserved": 0, "lat": 38.912963166666664, "name": "daeb51a88cf714d8ea8830df8daadc28", "bike_id": "daeb51a88cf714d8ea8830df8daadc28", "is_disabled": 0, "fusion_lon": 0.0, "type": "electric_scooter", "lon": -76.98543333333333}, {"rental_uris": {"android": "https://dc.lft.to/lastmile_qr_scan", "ios": "https://dc.lft.to/lastmile_qr_scan"}, "fusion_lat": 0.0, "is_reserved": 0, "lat": 38.952198, "name": "352e45f58a32a08bebca413aad12a8d9", "bike_id": "352e45f58a32a08bebca413aad12a8d9", "is_disabled": 0, "fusion_lon": 0.0, "type": "electric_scooter", "lon": -77.06965216666667}, {"rental_uris": {"android": "https://dc.lft.to/lastmile_qr_scan", "ios": "https://dc.lft.to/lastmile_qr_scan"}, "fusion_lat": 0.0, "is_reserved": 0, "lat": 38.896133166666665, "name": "724c28183adb8f07a180aab9637ee225", "bike_id": "724c28183adb8f07a180aab9637ee225", "is_disabled": 0, "fusion_lon": 0.0, "type": "electric_scooter", "lon": -77.02210433333333}, {"rental_uris": {"android": "https://dc.lft.to/lastmile_qr_scan", "ios": "https://dc.lft.to/lastmile_qr_scan"}, "fusion_lat": 0.0, "is_reserved": 0, "lat": 38.920311, "name": "0d6f86cbe82b373479dc4a305561baa6", "bike_id": "0d6f86cbe82b373479dc4a305561baa6", "is_disabled": 0, "fusion_lon": 0.0, "type": "electric_scooter", "lon": -76.98544883333334}, {"rental_uris": {"android": "https://dc.lft.to/lastmile_qr_scan", "ios": "https://dc.lft.to/lastmile_qr_scan"}, "fusion_lat": 0.0, "is_reserved": 0, "lat": 38.92370583333334, "name": "5d4ecbea29b3b835f9a26769aeadabfd", "bike_id": "5d4ecbea29b3b835f9a26769aeadabfd", "is_disabled": 0, "fusion_lon": 0.0, "type": "electric_scooter", "lon": -77.0502915}, {"rental_uris": {"android": "https://dc.lft.to/lastmile_qr_scan", "ios": "https://dc.lft.to/lastmile_qr_scan"}, "fusion_lat": 0.0, "is_reserved": 0, "lat": 38.92169483333333, "name": "6a864c04ce18338d5079b500112f47c4", "bike_id": "6a864c04ce18338d5079b500112f47c4", "is_disabled": 0, "fusion_lon": 0.0, "type": "electric_scooter", "lon": -77.01908983333334}, {"rental_uris": {"android": "https://dc.lft.to/lastmile_qr_scan", "ios": "https://dc.lft.to/lastmile_qr_scan"}, "fusion_lat": 0.0, "is_reserved": 0, "lat": 38.924723, "name": "ca989cec0294742752dbdb1bfbffd159", "bike_id": "ca989cec0294742752dbdb1bfbffd159", "is_disabled": 0, "fusion_lon": 0.0, "type": "electric_scooter", "lon": -77.02116583333333}, {"rental_uris": {"android": "https://dc.lft.to/lastmile_qr_scan", "ios": "https://dc.lft.to/lastmile_qr_scan"}, "fusion_lat": 0.0, "is_reserved": 0, "lat": 38.93356216666667, "name": "98b607ea5498cc0bb4d9b65316dfc470", "bike_id": "98b607ea5498cc0bb4d9b65316dfc470", "is_disabled": 0, "fusion_lon": 0.0, "type": "electric_scooter", "lon": -77.02487033333334}, {"rental_uris": {"android": "https://dc.lft.to/lastmile_qr_scan", "ios": "https://dc.lft.to/lastmile_qr_scan"}, "fusion_lat": 0.0, "is_reserved": 0, "lat": 38.88773533333333, "name": "3f01109cae854789aac584d51729fe81", "bike_id": "3f01109cae854789aac584d51729fe81", "is_disabled": 0, "fusion_lon": 0.0, "type": "electric_scooter", "lon": -76.9326075}, {"rental_uris": {"android": "https://dc.lft.to/lastmile_qr_scan", "ios": "https://dc.lft.to/lastmile_qr_scan"}, "fusion_lat": 0.0, "is_reserved": 0, "lat": 38.887492, "name": "4388e56bd3dcf03d9149f16248428f0f", "bike_id": "4388e56bd3dcf03d9149f16248428f0f", "is_disabled": 0, "fusion_lon": 0.0, "type": "electric_bike", "lon": -76.90093816666666}, {"rental_uris": {"android": "https://dc.lft.to/lastmile_qr_scan", "ios": "https://dc.lft.to/lastmile_qr_scan"}, "fusion_lat": 0.0, "is_reserved": 0, "lat": 38.90723533333333, "name": "7d5affaf057f05fb36154fd41a0863fd", "bike_id": "7d5affaf057f05fb36154fd41a0863fd", "is_disabled": 0, "fusion_lon": 0.0, "type": "electric_scooter", "lon": -77.017361}, {"rental_uris": {"android": "https://dc.lft.to/lastmile_qr_scan", "ios": "https://dc.lft.to/lastmile_qr_scan"}, "fusion_lat": 0.0, "is_reserved": 0, "lat": 38.921632833333334, "name": "e594f749776b07ae1c6fa02ef5ce0e14", "bike_id": "e594f749776b07ae1c6fa02ef5ce0e14", "is_disabled": 0, "fusion_lon": 0.0, "type": "electric_scooter", "lon": -77.0338945}, {"rental_uris": {"android": "https://dc.lft.to/lastmile_qr_scan", "ios": "https://dc.lft.to/lastmile_qr_scan"}, "fusion_lat": 0.0, "is_reserved": 0, "lat": 38.892277666666665, "name": "b69ec74fe472e016d6700ff7ad790694", "bike_id": "b69ec74fe472e016d6700ff7ad790694", "is_disabled": 0, "fusion_lon": 0.0, "type": "electric_scooter", "lon": -77.03181066666667}, {"rental_uris": {"android": "https://dc.lft.to/lastmile_qr_scan", "ios": "https://dc.lft.to/lastmile_qr_scan"}, "fusion_lat": 0.0, "is_reserved": 0, "lat": 38.88350466666667, "name": "0f47eb10b049f4a7b670401cd06436a4", "bike_id": "0f47eb10b049f4a7b670401cd06436a4", "is_disabled": 0, "fusion_lon": 0.0, "type": "electric_scooter", "lon": -77.01975633333333}, {"rental_uris": {"android": "https://dc.lft.to/lastmile_qr_scan", "ios": "https://dc.lft.to/lastmile_qr_scan"}, "fusion_lat": 0.0, "is_reserved": 0, "lat": 38.91466233333333, "name": "2e95b3b5556255a353f154538824947b", "bike_id": "2e95b3b5556255a353f154538824947b", "is_disabled": 0, "fusion_lon": 0.0, "type": "electric_scooter", "lon": -77.03240866666667}, {"rental_uris": {"android": "https://dc.lft.to/lastmile_qr_scan", "ios": "https://dc.lft.to/lastmile_qr_scan"}, "fusion_lat": 0.0, "is_reserved": 0, "lat": 38.91820383333334, "name": "7abd978fe248b08967876564744a92f5", "bike_id": "7abd978fe248b08967876564744a92f5", "is_disabled": 0, "fusion_lon": 0.0, "type": "electric_scooter", "lon": -77.02425566666666}, {"rental_uris": {"android": "https://dc.lft.to/lastmile_qr_scan", "ios": "https://dc.lft.to/lastmile_qr_scan"}, "fusion_lat": 0.0, "is_reserved": 0, "lat": 38.907663666666664, "name": "1656f2f7a6eff690d7ccf847f048b6af", "bike_id": "1656f2f7a6eff690d7ccf847f048b6af", "is_disabled": 0, "fusion_lon": 0.0, "type": "electric_scooter", "lon": -77.00380716666666}, {"rental_uris": {"android": "https://dc.lft.to/lastmile_qr_scan", "ios": "https://dc.lft.to/lastmile_qr_scan"}, "fusion_lat": 0.0, "is_reserved": 0, "lat": 38.975044, "name": "63b3b7423ff794dd27a8bca084386272", "bike_id": "63b3b7423ff794dd27a8bca084386272", "is_disabled": 0, "fusion_lon": 0.0, "type": "electric_scooter", "lon": -77.016984}, {"rental_uris": {"android": "https://dc.lft.to/lastmile_qr_scan", "ios": "https://dc.lft.to/lastmile_qr_scan"}, "fusion_lat": 0.0, "is_reserved": 0, "lat": 38.92148183333333, "name": "80e617da8a9879e8336dc77e683b411d", "bike_id": "80e617da8a9879e8336dc77e683b411d", "is_disabled": 0, "fusion_lon": 0.0, "type": "electric_scooter", "lon": -77.04583583333333}, {"rental_uris": {"android": "https://dc.lft.to/lastmile_qr_scan", "ios": "https://dc.lft.to/lastmile_qr_scan"}, "fusion_lat": 0.0, "is_reserved": 0, "lat": 38.894800833333335, "name": "8847204e55fef92e72c4d6f65f022bd4", "bike_id": "8847204e55fef92e72c4d6f65f022bd4", "is_disabled": 0, "fusion_lon": 0.0, "type": "electric_scooter", "lon": -77.02640766666667}, {"rental_uris": {"android": "https://dc.lft.to/lastmile_qr_scan", "ios": "https://dc.lft.to/lastmile_qr_scan"}, "fusion_lat": 0.0, "is_reserved": 0, "lat": 38.901950166666666, "name": "321acd8178da1ffd48757fbd6dc72c9c", "bike_id": "321acd8178da1ffd48757fbd6dc72c9c", "is_disabled": 0, "fusion_lon": 0.0, "type": "electric_scooter", "lon": -77.0588945}, {"rental_uris": {"android": "https://dc.lft.to/lastmile_qr_scan", "ios": "https://dc.lft.to/lastmile_qr_scan"}, "fusion_lat": 0.0, "is_reserved": 0, "lat": 39.084931833333336, "name": "7b55fe24ca50760a4adacfa0b72c5677", "bike_id": "7b55fe24ca50760a4adacfa0b72c5677", "is_disabled": 0, "fusion_lon": 0.0, "type": "electric_bike", "lon": -76.95060733333334}, {"rental_uris": {"android": "https://dc.lft.to/lastmile_qr_scan", "ios": "https://dc.lft.to/lastmile_qr_scan"}, "fusion_lat": 0.0, "is_reserved": 0, "lat": 38.89531266666667, "name": "508fa438aef43e4ed75dfcc0731cfc74", "bike_id": "508fa438aef43e4ed75dfcc0731cfc74", "is_disabled": 0, "fusion_lon": 0.0, "type": "electric_scooter", "lon": -77.04472733333333}, {"rental_uris": {"android": "https://dc.lft.to/lastmile_qr_scan", "ios": "https://dc.lft.to/lastmile_qr_scan"}, "fusion_lat": 0.0, "is_reserved": 0, "lat": 38.893586, "name": "b3c0a37c88857a9d6dbed8c730f3e8fb", "bike_id": "b3c0a37c88857a9d6dbed8c730f3e8fb", "is_disabled": 0, "fusion_lon": 0.0, "type": "electric_scooter", "lon": -76.99476633333333}, {"rental_uris": {"android": "https://dc.lft.to/lastmile_qr_scan", "ios": "https://dc.lft.to/lastmile_qr_scan"}, "fusion_lat": 0.0, "is_reserved": 0, "lat": 38.911961166666664, "name": "b41670ca31f9d6b26ff0995553201793", "bike_id": "b41670ca31f9d6b26ff0995553201793", "is_disabled": 0, "fusion_lon": 0.0, "type": "electric_scooter", "lon": -77.0386025}, {"rental_uris": {"android": "https://dc.lft.to/lastmile_qr_scan", "ios": "https://dc.lft.to/lastmile_qr_scan"}, "fusion_lat": 0.0, "is_reserved": 0, "lat": 38.905385833333334, "name": "e3979668a1ec695848f56c8e8674ef75", "bike_id": "e3979668a1ec695848f56c8e8674ef75", "is_disabled": 0, "fusion_lon": 0.0, "type": "electric_scooter", "lon": -77.04960766666666}, {"rental_uris": {"android": "https://dc.lft.to/lastmile_qr_scan", "ios": "https://dc.lft.to/lastmile_qr_scan"}, "fusion_lat": 0.0, "is_reserved": 0, "lat": 38.94877666666667, "name": "1798f52bdc2ba8482a1b0c2449c8110a", "bike_id": "1798f52bdc2ba8482a1b0c2449c8110a", "is_disabled": 0, "fusion_lon": 0.0, "type": "electric_scooter", "lon": -77.03277083333333}, {"rental_uris": {"android": "https://dc.lft.to/lastmile_qr_scan", "ios": "https://dc.lft.to/lastmile_qr_scan"}, "fusion_lat": 0.0, "is_reserved": 0, "lat": 38.89017916666667, "name": "1eeeaf83cf104af162f175513db16a31", "bike_id": "1eeeaf83cf104af162f175513db16a31", "is_disabled": 0, "fusion_lon": 0.0, "type": "electric_scooter", "lon": -76.93735916666667}, {"rental_uris": {"android": "https://dc.lft.to/lastmile_qr_scan", "ios": "https://dc.lft.to/lastmile_qr_scan"}, "fusion_lat": 0.0, "is_reserved": 0, "lat": 38.9299745, "name": "290a066ea911f9b6c6810ab61a9625ce", "bike_id": "290a066ea911f9b6c6810ab61a9625ce", "is_disabled": 0, "fusion_lon": 0.0, "type": "electric_scooter", "lon": -77.038}, {"rental_uris": {"android": "https://dc.lft.to/lastmile_qr_scan", "ios": "https://dc.lft.to/lastmile_qr_scan"}, "fusion_lat": 0.0, "is_reserved": 0, "lat": 38.897116833333335, "name": "f6c56ba2cecd858ded622361c7d172b6", "bike_id": "f6c56ba2cecd858ded622361c7d172b6", "is_disabled": 0, "fusion_lon": 0.0, "type": "electric_scooter", "lon": -76.99118383333334}, {"rental_uris": {"android": "https://dc.lft.to/lastmile_qr_scan", "ios": "https://dc.lft.to/lastmile_qr_scan"}, "fusion_lat": 0.0, "is_reserved": 0, "lat": 38.941936166666665, "name": "625a531adc6436f5e61d503e61b591f2", "bike_id": "625a531adc6436f5e61d503e61b591f2", "is_disabled": 0, "fusion_lon": 0.0, "type": "electric_scooter", "lon": -77.03317533333333}, {"rental_uris": {"android": "https://dc.lft.to/lastmile_qr_scan", "ios": "https://dc.lft.to/lastmile_qr_scan"}, "fusion_lat": 0.0, "is_reserved": 0, "lat": 38.950114666666664, "name": "35416b5c28419c288b414da48403f10f", "bike_id": "35416b5c28419c288b414da48403f10f", "is_disabled": 0, "fusion_lon": 0.0, "type": "electric_scooter", "lon": -77.01741916666667}, {"rental_uris": {"android": "https://dc.lft.to/lastmile_qr_scan", "ios": "https://dc.lft.to/lastmile_qr_scan"}, "fusion_lat": 0.0, "is_reserved": 0, "lat": 38.90970516666667, "name": "85c8ffb39358697e7aeb3dc1c35e1c54", "bike_id": "85c8ffb39358697e7aeb3dc1c35e1c54", "is_disabled": 0, "fusion_lon": 0.0, "type": "electric_scooter", "lon": -77.03270383333333}, {"rental_uris": {"android": "https://dc.lft.to/lastmile_qr_scan", "ios": "https://dc.lft.to/lastmile_qr_scan"}, "fusion_lat": 0.0, "is_reserved": 0, "lat": 38.918247666666666, "name": "0b8ebcaed8f462106b7a5e97b895bf44", "bike_id": "0b8ebcaed8f462106b7a5e97b895bf44", "is_disabled": 0, "fusion_lon": 0.0, "type": "electric_scooter", "lon": -77.0318035}, {"rental_uris": {"android": "https://dc.lft.to/lastmile_qr_scan", "ios": "https://dc.lft.to/lastmile_qr_scan"}, "fusion_lat": 0.0, "is_reserved": 0, "lat": 38.93642366666667, "name": "da88ee7c5b1b3aa0bb3bae9ad9cd638a", "bike_id": "da88ee7c5b1b3aa0bb3bae9ad9cd638a", "is_disabled": 0, "fusion_lon": 0.0, "type": "electric_scooter", "lon": -77.0601105}, {"rental_uris": {"android": "https://dc.lft.to/lastmile_qr_scan", "ios": "https://dc.lft.to/lastmile_qr_scan"}, "fusion_lat": 0.0, "is_reserved": 0, "lat": 38.9159925, "name": "c18d9fe71460d58dc6de8604fb7fa6af", "bike_id": "c18d9fe71460d58dc6de8604fb7fa6af", "is_disabled": 0, "fusion_lon": 0.0, "type": "electric_scooter", "lon": -77.01225833333334}, {"rental_uris": {"android": "https://dc.lft.to/lastmile_qr_scan", "ios": "https://dc.lft.to/lastmile_qr_scan"}, "fusion_lat": 0.0, "is_reserved": 0, "lat": 38.9170615, "name": "f5c33736a025777828e519f0a4557453", "bike_id": "f5c33736a025777828e519f0a4557453", "is_disabled": 0, "fusion_lon": 0.0, "type": "electric_scooter", "lon": -77.01071516666667}, {"rental_uris": {"android": "https://dc.lft.to/lastmile_qr_scan", "ios": "https://dc.lft.to/lastmile_qr_scan"}, "fusion_lat": 0.0, "is_reserved": 0, "lat": 38.923748, "name": "920e78627db1da467f4d211fca9d2622", "bike_id": "920e78627db1da467f4d211fca9d2622", "is_disabled": 0, "fusion_lon": 0.0, "type": "electric_scooter", "lon": -77.08055566666667}, {"rental_uris": {"android": "https://dc.lft.to/lastmile_qr_scan", "ios": "https://dc.lft.to/lastmile_qr_scan"}, "fusion_lat": 0.0, "is_reserved": 0, "lat": 38.89547983333333, "name": "ca1c091f0a75e5e2145b1b4026e22f86", "bike_id": "ca1c091f0a75e5e2145b1b4026e22f86", "is_disabled": 0, "fusion_lon": 0.0, "type": "electric_scooter", "lon": -77.02995833333334}, {"rental_uris": {"android": "https://dc.lft.to/lastmile_qr_scan", "ios": "https://dc.lft.to/lastmile_qr_scan"}, "fusion_lat": 0.0, "is_reserved": 0, "lat": 38.891313, "name": "88e06ac7e63bd824a7c1b354cf360af0", "bike_id": "88e06ac7e63bd824a7c1b354cf360af0", "is_disabled": 0, "fusion_lon": 0.0, "type": "electric_bike", "lon": -76.99166183333334}, {"rental_uris": {"android": "https://dc.lft.to/lastmile_qr_scan", "ios": "https://dc.lft.to/lastmile_qr_scan"}, "fusion_lat": 0.0, "is_reserved": 0, "lat": 38.90493883333333, "name": "b5582dc00cae27986ac74b4c07a6f264", "bike_id": "b5582dc00cae27986ac74b4c07a6f264", "is_disabled": 0, "fusion_lon": 0.0, "type": "electric_scooter", "lon": -77.029647}, {"rental_uris": {"android": "https://dc.lft.to/lastmile_qr_scan", "ios": "https://dc.lft.to/lastmile_qr_scan"}, "fusion_lat": 0.0, "is_reserved": 0, "lat": 38.903817, "name": "785bb91411ecc09d64587a68158a7363", "bike_id": "785bb91411ecc09d64587a68158a7363", "is_disabled": 0, "fusion_lon": 0.0, "type": "electric_scooter", "lon": -76.99852533333333}, {"rental_uris": {"android": "https://dc.lft.to/lastmile_qr_scan", "ios": "https://dc.lft.to/lastmile_qr_scan"}, "fusion_lat": 0.0, "is_reserved": 0, "lat": 39.094371333333335, "name": "9595f4608dbf29670ebe41a09ca8e2e9", "bike_id": "9595f4608dbf29670ebe41a09ca8e2e9", "is_disabled": 0, "fusion_lon": 0.0, "type": "electric_bike", "lon": -77.1346045}, {"rental_uris": {"android": "https://dc.lft.to/lastmile_qr_scan", "ios": "https://dc.lft.to/lastmile_qr_scan"}, "fusion_lat": 0.0, "is_reserved": 0, "lat": 38.926694833333336, "name": "758bc519d6022abdf6ac15c91819ab0e", "bike_id": "758bc519d6022abdf6ac15c91819ab0e", "is_disabled": 0, "fusion_lon": 0.0, "type": "electric_scooter", "lon": -77.028809}, {"rental_uris": {"android": "https://dc.lft.to/lastmile_qr_scan", "ios": "https://dc.lft.to/lastmile_qr_scan"}, "fusion_lat": 0.0, "is_reserved": 0, "lat": 38.923850333333334, "name": "ff5bf0f14d5aa7f8d1e7a01c3d7704bf", "bike_id": "ff5bf0f14d5aa7f8d1e7a01c3d7704bf", "is_disabled": 0, "fusion_lon": 0.0, "type": "electric_scooter", "lon": -77.0365685}, {"rental_uris": {"android": "https://dc.lft.to/lastmile_qr_scan", "ios": "https://dc.lft.to/lastmile_qr_scan"}, "fusion_lat": 0.0, "is_reserved": 0, "lat": 38.923371333333336, "name": "377603e72c9c315665683fc555ef8587", "bike_id": "377603e72c9c315665683fc555ef8587", "is_disabled": 0, "fusion_lon": 0.0, "type": "electric_scooter", "lon": -77.035503}, {"rental_uris": {"android": "https://dc.lft.to/lastmile_qr_scan", "ios": "https://dc.lft.to/lastmile_qr_scan"}, "fusion_lat": 0.0, "is_reserved": 0, "lat": 38.90039316666667, "name": "e1c42d305c50ff7e6cc93833d0d1c268", "bike_id": "e1c42d305c50ff7e6cc93833d0d1c268", "is_disabled": 0, "fusion_lon": 0.0, "type": "electric_scooter", "lon": -77.0160455}, {"rental_uris": {"android": "https://dc.lft.to/lastmile_qr_scan", "ios": "https://dc.lft.to/lastmile_qr_scan"}, "fusion_lat": 0.0, "is_reserved": 0, "lat": 38.920388833333334, "name": "cb2916bfa9b86286d4fc8bb2c28bab61", "bike_id": "cb2916bfa9b86286d4fc8bb2c28bab61", "is_disabled": 0, "fusion_lon": 0.0, "type": "electric_scooter", "lon": -77.03075133333333}, {"rental_uris": {"android": "https://dc.lft.to/lastmile_qr_scan", "ios": "https://dc.lft.to/lastmile_qr_scan"}, "fusion_lat": 0.0, "is_reserved": 0, "lat": 38.908283833333336, "name": "cbc787346a54f7b52fa49e2ad1d3df42", "bike_id": "cbc787346a54f7b52fa49e2ad1d3df42", "is_disabled": 0, "fusion_lon": 0.0, "type": "electric_scooter", "lon": -77.00219416666667}, {"rental_uris": {"android": "https://dc.lft.to/lastmile_qr_scan", "ios": "https://dc.lft.to/lastmile_qr_scan"}, "fusion_lat": 0.0, "is_reserved": 0, "lat": 38.921871, "name": "c3f864931c1e439cc2feed5a5417896c", "bike_id": "c3f864931c1e439cc2feed5a5417896c", "is_disabled": 0, "fusion_lon": 0.0, "type": "electric_scooter", "lon": -76.99624716666666}, {"rental_uris": {"android": "https://dc.lft.to/lastmile_qr_scan", "ios": "https://dc.lft.to/lastmile_qr_scan"}, "fusion_lat": 0.0, "is_reserved": 0, "lat": 38.901597, "name": "43372f784803066670afbb1fdc5c7121", "bike_id": "43372f784803066670afbb1fdc5c7121", "is_disabled": 0, "fusion_lon": 0.0, "type": "electric_scooter", "lon": -77.03182033333333}, {"rental_uris": {"android": "https://dc.lft.to/lastmile_qr_scan", "ios": "https://dc.lft.to/lastmile_qr_scan"}, "fusion_lat": 0.0, "is_reserved": 0, "lat": 38.92207233333333, "name": "57a998aabcc64a9685d609cbf73fffb4", "bike_id": "57a998aabcc64a9685d609cbf73fffb4", "is_disabled": 0, "fusion_lon": 0.0, "type": "electric_scooter", "lon": -77.020335}, {"rental_uris": {"android": "https://dc.lft.to/lastmile_qr_scan", "ios": "https://dc.lft.to/lastmile_qr_scan"}, "fusion_lat": 0.0, "is_reserved": 0, "lat": 38.9248315, "name": "4bf354611393829f42446df8e2779afd", "bike_id": "4bf354611393829f42446df8e2779afd", "is_disabled": 0, "fusion_lon": 0.0, "type": "electric_scooter", "lon": -77.03044733333333}, {"rental_uris": {"android": "https://dc.lft.to/lastmile_qr_scan", "ios": "https://dc.lft.to/lastmile_qr_scan"}, "fusion_lat": 0.0, "is_reserved": 0, "lat": 38.95766866666666, "name": "1879f9133c9a273893f49a7812c61582", "bike_id": "1879f9133c9a273893f49a7812c61582", "is_disabled": 0, "fusion_lon": 0.0, "type": "electric_scooter", "lon": -77.01493133333334}, {"rental_uris": {"android": "https://dc.lft.to/lastmile_qr_scan", "ios": "https://dc.lft.to/lastmile_qr_scan"}, "fusion_lat": 0.0, "is_reserved": 0, "lat": 38.892239000000004, "name": "c389b1d0a8210b8e662f0b6fbb9b0636", "bike_id": "c389b1d0a8210b8e662f0b6fbb9b0636", "is_disabled": 0, "fusion_lon": 0.0, "type": "electric_scooter", "lon": -77.0398605}, {"rental_uris": {"android": "https://dc.lft.to/lastmile_qr_scan", "ios": "https://dc.lft.to/lastmile_qr_scan"}, "fusion_lat": 0.0, "is_reserved": 0, "lat": 38.90380733333333, "name": "a8d7dfee2ccc68d7ee6289fb158e1d85", "bike_id": "a8d7dfee2ccc68d7ee6289fb158e1d85", "is_disabled": 0, "fusion_lon": 0.0, "type": "electric_scooter", "lon": -76.98094883333333}, {"rental_uris": {"android": "https://dc.lft.to/lastmile_qr_scan", "ios": "https://dc.lft.to/lastmile_qr_scan"}, "fusion_lat": 0.0, "is_reserved": 0, "lat": 38.87678116666667, "name": "5a8bb20116abb7cfe49bc48860c8bdde", "bike_id": "5a8bb20116abb7cfe49bc48860c8bdde", "is_disabled": 0, "fusion_lon": 0.0, "type": "electric_scooter", "lon": -77.019809}, {"rental_uris": {"android": "https://dc.lft.to/lastmile_qr_scan", "ios": "https://dc.lft.to/lastmile_qr_scan"}, "fusion_lat": 0.0, "is_reserved": 0, "lat": 38.92761433333333, "name": "56b616bab41732cacc42fbbc7ca60901", "bike_id": "56b616bab41732cacc42fbbc7ca60901", "is_disabled": 0, "fusion_lon": 0.0, "type": "electric_scooter", "lon": -77.06886616666667}, {"rental_uris": {"android": "https://dc.lft.to/lastmile_qr_scan", "ios": "https://dc.lft.to/lastmile_qr_scan"}, "fusion_lat": 0.0, "is_reserved": 0, "lat": 39.010959166666666, "name": "06161918d6b73c86d8f733658b4438e9", "bike_id": "06161918d6b73c86d8f733658b4438e9", "is_disabled": 0, "fusion_lon": 0.0, "type": "electric_bike", "lon": -77.04960766666666}, {"rental_uris": {"android": "https://dc.lft.to/lastmile_qr_scan", "ios": "https://dc.lft.to/lastmile_qr_scan"}, "fusion_lat": 0.0, "is_reserved": 0, "lat": 38.8578845, "name": "6f62919d7a673fd23e4dd7073e336f04", "bike_id": "6f62919d7a673fd23e4dd7073e336f04", "is_disabled": 0, "fusion_lon": 0.0, "type": "electric_bike", "lon": -76.98756583333333}, {"rental_uris": {"android": "https://dc.lft.to/lastmile_qr_scan", "ios": "https://dc.lft.to/lastmile_qr_scan"}, "fusion_lat": 0.0, "is_reserved": 0, "lat": 38.90729916666667, "name": "4bf4a4b144ec041b702b3e68c3dc4ae0", "bike_id": "4bf4a4b144ec041b702b3e68c3dc4ae0", "is_disabled": 0, "fusion_lon": 0.0, "type": "electric_scooter", "lon": -77.03313783333333}, {"rental_uris": {"android": "https://dc.lft.to/lastmile_qr_scan", "ios": "https://dc.lft.to/lastmile_qr_scan"}, "fusion_lat": 0.0, "is_reserved": 0, "lat": 38.91552816666667, "name": "f08394911244cf2561cca42d219a7d8d", "bike_id": "f08394911244cf2561cca42d219a7d8d", "is_disabled": 0, "fusion_lon": 0.0, "type": "electric_scooter", "lon": -77.04169533333334}, {"rental_uris": {"android": "https://dc.lft.to/lastmile_qr_scan", "ios": "https://dc.lft.to/lastmile_qr_scan"}, "fusion_lat": 0.0, "is_reserved": 0, "lat": 38.92497566666667, "name": "b280f860fdc8d6e44a75d2e95d6b8f06", "bike_id": "b280f860fdc8d6e44a75d2e95d6b8f06", "is_disabled": 0, "fusion_lon": 0.0, "type": "electric_scooter", "lon": -77.0215025}, {"rental_uris": {"android": "https://dc.lft.to/lastmile_qr_scan", "ios": "https://dc.lft.to/lastmile_qr_scan"}, "fusion_lat": 0.0, "is_reserved": 0, "lat": 38.920711, "name": "17ccc50ac6acedf556caf5373ff5eec4", "bike_id": "17ccc50ac6acedf556caf5373ff5eec4", "is_disabled": 0, "fusion_lon": 0.0, "type": "electric_scooter", "lon": -77.0242485}, {"rental_uris": {"android": "https://dc.lft.to/lastmile_qr_scan", "ios": "https://dc.lft.to/lastmile_qr_scan"}, "fusion_lat": 0.0, "is_reserved": 0, "lat": 38.885036, "name": "ab2a4cb2b87f519defa22f5ad1b4b92e", "bike_id": "ab2a4cb2b87f519defa22f5ad1b4b92e", "is_disabled": 0, "fusion_lon": 0.0, "type": "electric_scooter", "lon": -77.00222383333333}, {"rental_uris": {"android": "https://dc.lft.to/lastmile_qr_scan", "ios": "https://dc.lft.to/lastmile_qr_scan"}, "fusion_lat": 0.0, "is_reserved": 0, "lat": 38.924497833333334, "name": "ceaf0fe8e93ea76a01f9709ca18f4fee", "bike_id": "ceaf0fe8e93ea76a01f9709ca18f4fee", "is_disabled": 0, "fusion_lon": 0.0, "type": "electric_scooter", "lon": -76.996645}, {"rental_uris": {"android": "https://dc.lft.to/lastmile_qr_scan", "ios": "https://dc.lft.to/lastmile_qr_scan"}, "fusion_lat": 0.0, "is_reserved": 0, "lat": 38.862905, "name": "b2fe4fc2147b462fa83fce7835283c4a", "bike_id": "b2fe4fc2147b462fa83fce7835283c4a", "is_disabled": 0, "fusion_lon": 0.0, "type": "electric_bike", "lon": -76.9801075}, {"rental_uris": {"android": "https://dc.lft.to/lastmile_qr_scan", "ios": "https://dc.lft.to/lastmile_qr_scan"}, "fusion_lat": 0.0, "is_reserved": 0, "lat": 38.92507716666667, "name": "38621565729cd807a527aa4ee30b8aea", "bike_id": "38621565729cd807a527aa4ee30b8aea", "is_disabled": 0, "fusion_lon": 0.0, "type": "electric_scooter", "lon": -77.03778516666667}, {"rental_uris": {"android": "https://dc.lft.to/lastmile_qr_scan", "ios": "https://dc.lft.to/lastmile_qr_scan"}, "fusion_lat": 0.0, "is_reserved": 0, "lat": 38.893457, "name": "c4c9a4607191da6f6fb571160f73a288", "bike_id": "c4c9a4607191da6f6fb571160f73a288", "is_disabled": 0, "fusion_lon": 0.0, "type": "electric_scooter", "lon": -77.02791716666667}, {"rental_uris": {"android": "https://dc.lft.to/lastmile_qr_scan", "ios": "https://dc.lft.to/lastmile_qr_scan"}, "fusion_lat": 0.0, "is_reserved": 0, "lat": 38.907387666666665, "name": "12378d2822d0215837a4ae8bca6de413", "bike_id": "12378d2822d0215837a4ae8bca6de413", "is_disabled": 0, "fusion_lon": 0.0, "type": "electric_scooter", "lon": -76.9977865}, {"rental_uris": {"android": "https://dc.lft.to/lastmile_qr_scan", "ios": "https://dc.lft.to/lastmile_qr_scan"}, "fusion_lat": 0.0, "is_reserved": 0, "lat": 38.91555983333333, "name": "a1961022f6319213761caf2160c8022f", "bike_id": "a1961022f6319213761caf2160c8022f", "is_disabled": 0, "fusion_lon": 0.0, "type": "electric_scooter", "lon": -77.02452216666667}, {"rental_uris": {"android": "https://dc.lft.to/lastmile_qr_scan", "ios": "https://dc.lft.to/lastmile_qr_scan"}, "fusion_lat": 0.0, "is_reserved": 0, "lat": 38.90226966666667, "name": "8eab2769f03f9137bb4683e8af41ffcb", "bike_id": "8eab2769f03f9137bb4683e8af41ffcb", "is_disabled": 0, "fusion_lon": 0.0, "type": "electric_scooter", "lon": -77.0057885}, {"rental_uris": {"android": "https://dc.lft.to/lastmile_qr_scan", "ios": "https://dc.lft.to/lastmile_qr_scan"}, "fusion_lat": 0.0, "is_reserved": 0, "lat": 38.87831283333333, "name": "508ecfe545a8db531e873dabcaa5e287", "bike_id": "508ecfe545a8db531e873dabcaa5e287", "is_disabled": 0, "fusion_lon": 0.0, "type": "electric_scooter", "lon": -77.02263183333334}, {"rental_uris": {"android": "https://dc.lft.to/lastmile_qr_scan", "ios": "https://dc.lft.to/lastmile_qr_scan"}, "fusion_lat": 0.0, "is_reserved": 0, "lat": 38.92645483333333, "name": "4044c2fb47068fa74e9efbd19f59f3b6", "bike_id": "4044c2fb47068fa74e9efbd19f59f3b6", "is_disabled": 0, "fusion_lon": 0.0, "type": "electric_scooter", "lon": -77.0347185}, {"rental_uris": {"android": "https://dc.lft.to/lastmile_qr_scan", "ios": "https://dc.lft.to/lastmile_qr_scan"}, "fusion_lat": 0.0, "is_reserved": 0, "lat": 38.9277945, "name": "ec5359c3fa6f2b4ee2bf749548dc7752", "bike_id": "ec5359c3fa6f2b4ee2bf749548dc7752", "is_disabled": 0, "fusion_lon": 0.0, "type": "electric_scooter", "lon": -77.027077}, {"rental_uris": {"android": "https://dc.lft.to/lastmile_qr_scan", "ios": "https://dc.lft.to/lastmile_qr_scan"}, "fusion_lat": 0.0, "is_reserved": 0, "lat": 38.894226333333336, "name": "8400c4a74f7bc8d4905cb3ed7ce9813c", "bike_id": "8400c4a74f7bc8d4905cb3ed7ce9813c", "is_disabled": 0, "fusion_lon": 0.0, "type": "electric_scooter", "lon": -77.02097416666666}, {"rental_uris": {"android": "https://dc.lft.to/lastmile_qr_scan", "ios": "https://dc.lft.to/lastmile_qr_scan"}, "fusion_lat": 0.0, "is_reserved": 0, "lat": 38.90433216666667, "name": "a2139e95d363e1d27760115618460cb3", "bike_id": "a2139e95d363e1d27760115618460cb3", "is_disabled": 0, "fusion_lon": 0.0, "type": "electric_scooter", "lon": -77.02604916666667}, {"rental_uris": {"android": "https://dc.lft.to/lastmile_qr_scan", "ios": "https://dc.lft.to/lastmile_qr_scan"}, "fusion_lat": 0.0, "is_reserved": 0, "lat": 38.8734215, "name": "c2e7b1e43bbf0e4e1521084bfc9a8802", "bike_id": "c2e7b1e43bbf0e4e1521084bfc9a8802", "is_disabled": 0, "fusion_lon": 0.0, "type": "electric_scooter", "lon": -76.99169816666667}, {"rental_uris": {"android": "https://dc.lft.to/lastmile_qr_scan", "ios": "https://dc.lft.to/lastmile_qr_scan"}, "fusion_lat": 0.0, "is_reserved": 0, "lat": 38.91574933333333, "name": "496825be9e016c9c467bc7acf5c40537", "bike_id": "496825be9e016c9c467bc7acf5c40537", "is_disabled": 0, "fusion_lon": 0.0, "type": "electric_scooter", "lon": -77.0295245}, {"rental_uris": {"android": "https://dc.lft.to/lastmile_qr_scan", "ios": "https://dc.lft.to/lastmile_qr_scan"}, "fusion_lat": 0.0, "is_reserved": 0, "lat": 38.87562766666667, "name": "e4391509cfa9d769016fc8a62a4be8b6", "bike_id": "e4391509cfa9d769016fc8a62a4be8b6", "is_disabled": 0, "fusion_lon": 0.0, "type": "electric_scooter", "lon": -77.00595733333333}, {"rental_uris": {"android": "https://dc.lft.to/lastmile_qr_scan", "ios": "https://dc.lft.to/lastmile_qr_scan"}, "fusion_lat": 0.0, "is_reserved": 0, "lat": 38.902103, "name": "72d187151390fc86061efaccd5424171", "bike_id": "72d187151390fc86061efaccd5424171", "is_disabled": 0, "fusion_lon": 0.0, "type": "electric_scooter", "lon": -77.05115933333333}, {"rental_uris": {"android": "https://dc.lft.to/lastmile_qr_scan", "ios": "https://dc.lft.to/lastmile_qr_scan"}, "fusion_lat": 0.0, "is_reserved": 0, "lat": 38.91720333333333, "name": "dc3401a641ad94c3356fcffd3da5fa76", "bike_id": "dc3401a641ad94c3356fcffd3da5fa76", "is_disabled": 0, "fusion_lon": 0.0, "type": "electric_scooter", "lon": -77.041519}, {"rental_uris": {"android": "https://dc.lft.to/lastmile_qr_scan", "ios": "https://dc.lft.to/lastmile_qr_scan"}, "fusion_lat": 0.0, "is_reserved": 0, "lat": 38.91050766666667, "name": "c97f573df4f6644116bd40dce5082320", "bike_id": "c97f573df4f6644116bd40dce5082320", "is_disabled": 0, "fusion_lon": 0.0, "type": "electric_scooter", "lon": -77.04097416666667}, {"rental_uris": {"android": "https://dc.lft.to/lastmile_qr_scan", "ios": "https://dc.lft.to/lastmile_qr_scan"}, "fusion_lat": 0.0, "is_reserved": 0, "lat": 38.912365666666666, "name": "9aaf56466ead99cf5679922cdcefafe4", "bike_id": "9aaf56466ead99cf5679922cdcefafe4", "is_disabled": 0, "fusion_lon": 0.0, "type": "electric_scooter", "lon": -77.0691665}, {"rental_uris": {"android": "https://dc.lft.to/lastmile_qr_scan", "ios": "https://dc.lft.to/lastmile_qr_scan"}, "fusion_lat": 0.0, "is_reserved": 0, "lat": 38.885337666666665, "name": "90ca86c08b885ac9f4a793893da32b0a", "bike_id": "90ca86c08b885ac9f4a793893da32b0a", "is_disabled": 0, "fusion_lon": 0.0, "type": "electric_scooter", "lon": -76.98052316666667}, {"rental_uris": {"android": "https://dc.lft.to/lastmile_qr_scan", "ios": "https://dc.lft.to/lastmile_qr_scan"}, "fusion_lat": 0.0, "is_reserved": 0, "lat": 38.93859966666667, "name": "4c175aef786c2f08783882ce09eafe83", "bike_id": "4c175aef786c2f08783882ce09eafe83", "is_disabled": 0, "fusion_lon": 0.0, "type": "electric_scooter", "lon": -77.02475833333334}, {"rental_uris": {"android": "https://dc.lft.to/lastmile_qr_scan", "ios": "https://dc.lft.to/lastmile_qr_scan"}, "fusion_lat": 0.0, "is_reserved": 0, "lat": 38.876271333333335, "name": "36d5c48762d74f35be132dcd938f7d28", "bike_id": "36d5c48762d74f35be132dcd938f7d28", "is_disabled": 0, "fusion_lon": 0.0, "type": "electric_scooter", "lon": -77.00264716666666}, {"rental_uris": {"android": "https://dc.lft.to/lastmile_qr_scan", "ios": "https://dc.lft.to/lastmile_qr_scan"}, "fusion_lat": 0.0, "is_reserved": 0, "lat": 38.89891, "name": "026983920b3eef24b0b53f488608e552", "bike_id": "026983920b3eef24b0b53f488608e552", "is_disabled": 0, "fusion_lon": 0.0, "type": "electric_scooter", "lon": -77.0454575}, {"rental_uris": {"android": "https://dc.lft.to/lastmile_qr_scan", "ios": "https://dc.lft.to/lastmile_qr_scan"}, "fusion_lat": 0.0, "is_reserved": 0, "lat": 38.924713833333335, "name": "b3235824414ca8b561d99c352c3a2fd9", "bike_id": "b3235824414ca8b561d99c352c3a2fd9", "is_disabled": 0, "fusion_lon": 0.0, "type": "electric_scooter", "lon": -77.03500733333334}, {"rental_uris": {"android": "https://dc.lft.to/lastmile_qr_scan", "ios": "https://dc.lft.to/lastmile_qr_scan"}, "fusion_lat": 0.0, "is_reserved": 0, "lat": 38.902033333333335, "name": "f5109a40845dcb0bba15ef3b4eff5b28", "bike_id": "f5109a40845dcb0bba15ef3b4eff5b28", "is_disabled": 0, "fusion_lon": 0.0, "type": "electric_scooter", "lon": -77.02107733333334}, {"rental_uris": {"android": "https://dc.lft.to/lastmile_qr_scan", "ios": "https://dc.lft.to/lastmile_qr_scan"}, "fusion_lat": 0.0, "is_reserved": 0, "lat": 38.919573666666665, "name": "4ed9e91505d9d4286ece408414edc142", "bike_id": "4ed9e91505d9d4286ece408414edc142", "is_disabled": 0, "fusion_lon": 0.0, "type": "electric_scooter", "lon": -77.043661}, {"rental_uris": {"android": "https://dc.lft.to/lastmile_qr_scan", "ios": "https://dc.lft.to/lastmile_qr_scan"}, "fusion_lat": 0.0, "is_reserved": 0, "lat": 38.9165235, "name": "fa927217bf79aed5471b63afe92c8201", "bike_id": "fa927217bf79aed5471b63afe92c8201", "is_disabled": 0, "fusion_lon": 0.0, "type": "electric_scooter", "lon": -77.024826}, {"rental_uris": {"android": "https://dc.lft.to/lastmile_qr_scan", "ios": "https://dc.lft.to/lastmile_qr_scan"}, "fusion_lat": 0.0, "is_reserved": 0, "lat": 38.94988883333333, "name": "9cb2207823cd3901b9283fc36937e981", "bike_id": "9cb2207823cd3901b9283fc36937e981", "is_disabled": 0, "fusion_lon": 0.0, "type": "electric_bike", "lon": -77.06633433333333}, {"rental_uris": {"android": "https://dc.lft.to/lastmile_qr_scan", "ios": "https://dc.lft.to/lastmile_qr_scan"}, "fusion_lat": 0.0, "is_reserved": 0, "lat": 38.867206, "name": "2df1a72e1c48e71a026c95c9b7f7dfc8", "bike_id": "2df1a72e1c48e71a026c95c9b7f7dfc8", "is_disabled": 0, "fusion_lon": 0.0, "type": "electric_scooter", "lon": -76.980719}, {"rental_uris": {"android": "https://dc.lft.to/lastmile_qr_scan", "ios": "https://dc.lft.to/lastmile_qr_scan"}, "fusion_lat": 0.0, "is_reserved": 0, "lat": 38.927602, "name": "adfa9370c6f691c157ba262c0a9430ba", "bike_id": "adfa9370c6f691c157ba262c0a9430ba", "is_disabled": 0, "fusion_lon": 0.0, "type": "electric_scooter", "lon": -77.0526195}, {"rental_uris": {"android": "https://dc.lft.to/lastmile_qr_scan", "ios": "https://dc.lft.to/lastmile_qr_scan"}, "fusion_lat": 0.0, "is_reserved": 0, "lat": 38.927394, "name": "12682d73e16116a91944c32025572d3a", "bike_id": "12682d73e16116a91944c32025572d3a", "is_disabled": 0, "fusion_lon": 0.0, "type": "electric_scooter", "lon": -77.02248633333333}, {"rental_uris": {"android": "https://dc.lft.to/lastmile_qr_scan", "ios": "https://dc.lft.to/lastmile_qr_scan"}, "fusion_lat": 0.0, "is_reserved": 0, "lat": 38.912562666666666, "name": "ca17cedb751285ff62ac573e10260577", "bike_id": "ca17cedb751285ff62ac573e10260577", "is_disabled": 0, "fusion_lon": 0.0, "type": "electric_scooter", "lon": -77.0386675}, {"rental_uris": {"android": "https://dc.lft.to/lastmile_qr_scan", "ios": "https://dc.lft.to/lastmile_qr_scan"}, "fusion_lat": 0.0, "is_reserved": 0, "lat": 38.915517666666666, "name": "84009d5cba2808d1b41a0439a7ab9d14", "bike_id": "84009d5cba2808d1b41a0439a7ab9d14", "is_disabled": 0, "fusion_lon": 0.0, "type": "electric_scooter", "lon": -77.0366195}, {"rental_uris": {"android": "https://dc.lft.to/lastmile_qr_scan", "ios": "https://dc.lft.to/lastmile_qr_scan"}, "fusion_lat": 0.0, "is_reserved": 0, "lat": 38.920708833333336, "name": "4ee3b46cb37f5e59f19a64af0c736427", "bike_id": "4ee3b46cb37f5e59f19a64af0c736427", "is_disabled": 0, "fusion_lon": 0.0, "type": "electric_scooter", "lon": -77.0256355}, {"rental_uris": {"android": "https://dc.lft.to/lastmile_qr_scan", "ios": "https://dc.lft.to/lastmile_qr_scan"}, "fusion_lat": 0.0, "is_reserved": 0, "lat": 38.915395, "name": "130ceeb88459ec16cdf4b652eef9c79f", "bike_id": "130ceeb88459ec16cdf4b652eef9c79f", "is_disabled": 0, "fusion_lon": 0.0, "type": "electric_scooter", "lon": -77.012277}, {"rental_uris": {"android": "https://dc.lft.to/lastmile_qr_scan", "ios": "https://dc.lft.to/lastmile_qr_scan"}, "fusion_lat": 0.0, "is_reserved": 0, "lat": 38.88724533333333, "name": "c85afec516b552461ff51ede69cd87f0", "bike_id": "c85afec516b552461ff51ede69cd87f0", "is_disabled": 0, "fusion_lon": 0.0, "type": "electric_scooter", "lon": -76.9968055}, {"rental_uris": {"android": "https://dc.lft.to/lastmile_qr_scan", "ios": "https://dc.lft.to/lastmile_qr_scan"}, "fusion_lat": 0.0, "is_reserved": 0, "lat": 38.87932516666667, "name": "f3bae0105f51734b6525aa2b470c5695", "bike_id": "f3bae0105f51734b6525aa2b470c5695", "is_disabled": 0, "fusion_lon": 0.0, "type": "electric_scooter", "lon": -77.007279}, {"rental_uris": {"android": "https://dc.lft.to/lastmile_qr_scan", "ios": "https://dc.lft.to/lastmile_qr_scan"}, "fusion_lat": 0.0, "is_reserved": 0, "lat": 38.90183, "name": "7273d318592c8419f2e6062bfa5acbf0", "bike_id": "7273d318592c8419f2e6062bfa5acbf0", "is_disabled": 0, "fusion_lon": 0.0, "type": "electric_scooter", "lon": -77.03383633333333}, {"rental_uris": {"android": "https://dc.lft.to/lastmile_qr_scan", "ios": "https://dc.lft.to/lastmile_qr_scan"}, "fusion_lat": 0.0, "is_reserved": 0, "lat": 38.89618183333333, "name": "972620fd1e8ff34e6d3f0ff5228d8344", "bike_id": "972620fd1e8ff34e6d3f0ff5228d8344", "is_disabled": 0, "fusion_lon": 0.0, "type": "electric_scooter", "lon": -77.0303235}, {"rental_uris": {"android": "https://dc.lft.to/lastmile_qr_scan", "ios": "https://dc.lft.to/lastmile_qr_scan"}, "fusion_lat": 0.0, "is_reserved": 0, "lat": 38.910532, "name": "ea38943159c585ffa04fd7a2e87ea1d9", "bike_id": "ea38943159c585ffa04fd7a2e87ea1d9", "is_disabled": 0, "fusion_lon": 0.0, "type": "electric_scooter", "lon": -77.038308}, {"rental_uris": {"android": "https://dc.lft.to/lastmile_qr_scan", "ios": "https://dc.lft.to/lastmile_qr_scan"}, "fusion_lat": 0.0, "is_reserved": 0, "lat": 38.902724166666665, "name": "b6c17bca2007f6ee095f4d97f0bfe9a8", "bike_id": "b6c17bca2007f6ee095f4d97f0bfe9a8", "is_disabled": 0, "fusion_lon": 0.0, "type": "electric_scooter", "lon": -77.0321315}, {"rental_uris": {"android": "https://dc.lft.to/lastmile_qr_scan", "ios": "https://dc.lft.to/lastmile_qr_scan"}, "fusion_lat": 0.0, "is_reserved": 0, "lat": 38.9324635, "name": "2e31c9f0287fd0f166b908aac63e22d5", "bike_id": "2e31c9f0287fd0f166b908aac63e22d5", "is_disabled": 0, "fusion_lon": 0.0, "type": "electric_scooter", "lon": -77.03204016666666}, {"rental_uris": {"android": "https://dc.lft.to/lastmile_qr_scan", "ios": "https://dc.lft.to/lastmile_qr_scan"}, "fusion_lat": 0.0, "is_reserved": 0, "lat": 38.9441425, "name": "44a08c606c4782750b7c1b55db25adee", "bike_id": "44a08c606c4782750b7c1b55db25adee", "is_disabled": 0, "fusion_lon": 0.0, "type": "electric_scooter", "lon": -77.06325233333334}, {"rental_uris": {"android": "https://dc.lft.to/lastmile_qr_scan", "ios": "https://dc.lft.to/lastmile_qr_scan"}, "fusion_lat": 0.0, "is_reserved": 0, "lat": 38.888865333333335, "name": "587b22d19a012dcbdf86524607426dba", "bike_id": "587b22d19a012dcbdf86524607426dba", "is_disabled": 0, "fusion_lon": 0.0, "type": "electric_scooter", "lon": -76.99021483333334}, {"rental_uris": {"android": "https://dc.lft.to/lastmile_qr_scan", "ios": "https://dc.lft.to/lastmile_qr_scan"}, "fusion_lat": 0.0, "is_reserved": 0, "lat": 38.90544383333334, "name": "97a60cd4f476855320b0d1a2b2a9124b", "bike_id": "97a60cd4f476855320b0d1a2b2a9124b", "is_disabled": 0, "fusion_lon": 0.0, "type": "electric_scooter", "lon": -77.04110983333334}, {"rental_uris": {"android": "https://dc.lft.to/lastmile_qr_scan", "ios": "https://dc.lft.to/lastmile_qr_scan"}, "fusion_lat": 0.0, "is_reserved": 0, "lat": 38.88773033333333, "name": "b6b138667844faab17376a6cc582406c", "bike_id": "b6b138667844faab17376a6cc582406c", "is_disabled": 0, "fusion_lon": 0.0, "type": "electric_scooter", "lon": -76.93267183333333}, {"rental_uris": {"android": "https://dc.lft.to/lastmile_qr_scan", "ios": "https://dc.lft.to/lastmile_qr_scan"}, "fusion_lat": 0.0, "is_reserved": 0, "lat": 38.88363916666667, "name": "03659ddb6525a302f2d87304a92fc802", "bike_id": "03659ddb6525a302f2d87304a92fc802", "is_disabled": 0, "fusion_lon": 0.0, "type": "electric_scooter", "lon": -76.98821283333334}, {"rental_uris": {"android": "https://dc.lft.to/lastmile_qr_scan", "ios": "https://dc.lft.to/lastmile_qr_scan"}, "fusion_lat": 0.0, "is_reserved": 0, "lat": 38.95097783333333, "name": "6376d1e8bb1465e1e414e0d4059c382c", "bike_id": "6376d1e8bb1465e1e414e0d4059c382c", "is_disabled": 0, "fusion_lon": 0.0, "type": "electric_scooter", "lon": -77.02962583333333}, {"rental_uris": {"android": "https://dc.lft.to/lastmile_qr_scan", "ios": "https://dc.lft.to/lastmile_qr_scan"}, "fusion_lat": 0.0, "is_reserved": 0, "lat": 38.93773733333333, "name": "cc98b5e426cd67c0dc95b6f683b05e28", "bike_id": "cc98b5e426cd67c0dc95b6f683b05e28", "is_disabled": 0, "fusion_lon": 0.0, "type": "electric_scooter", "lon": -77.024617}, {"rental_uris": {"android": "https://dc.lft.to/lastmile_qr_scan", "ios": "https://dc.lft.to/lastmile_qr_scan"}, "fusion_lat": 0.0, "is_reserved": 0, "lat": 38.928650166666664, "name": "f366edf77cf48dfa3bc08df24c5c8235", "bike_id": "f366edf77cf48dfa3bc08df24c5c8235", "is_disabled": 0, "fusion_lon": 0.0, "type": "electric_scooter", "lon": -77.02183383333333}, {"rental_uris": {"android": "https://dc.lft.to/lastmile_qr_scan", "ios": "https://dc.lft.to/lastmile_qr_scan"}, "fusion_lat": 0.0, "is_reserved": 0, "lat": 38.9154835, "name": "a2538d600b698faa643400a3aa3ce90e", "bike_id": "a2538d600b698faa643400a3aa3ce90e", "is_disabled": 0, "fusion_lon": 0.0, "type": "electric_scooter", "lon": -77.0365875}, {"rental_uris": {"android": "https://dc.lft.to/lastmile_qr_scan", "ios": "https://dc.lft.to/lastmile_qr_scan"}, "fusion_lat": 0.0, "is_reserved": 0, "lat": 38.901360833333335, "name": "b822c8b782e4e1fc9f753ca29d23b912", "bike_id": "b822c8b782e4e1fc9f753ca29d23b912", "is_disabled": 0, "fusion_lon": 0.0, "type": "electric_scooter", "lon": -76.98962}, {"rental_uris": {"android": "https://dc.lft.to/lastmile_qr_scan", "ios": "https://dc.lft.to/lastmile_qr_scan"}, "fusion_lat": 0.0, "is_reserved": 0, "lat": 38.905833333333334, "name": "91076401dae27513a97369cca119bb77", "bike_id": "91076401dae27513a97369cca119bb77", "is_disabled": 0, "fusion_lon": 0.0, "type": "electric_scooter", "lon": -77.00786033333333}, {"rental_uris": {"android": "https://dc.lft.to/lastmile_qr_scan", "ios": "https://dc.lft.to/lastmile_qr_scan"}, "fusion_lat": 0.0, "is_reserved": 0, "lat": 38.91223866666667, "name": "3569c783d9b3644f3b25c06772b19f23", "bike_id": "3569c783d9b3644f3b25c06772b19f23", "is_disabled": 0, "fusion_lon": 0.0, "type": "electric_scooter", "lon": -77.06405233333334}, {"rental_uris": {"android": "https://dc.lft.to/lastmile_qr_scan", "ios": "https://dc.lft.to/lastmile_qr_scan"}, "fusion_lat": 0.0, "is_reserved": 0, "lat": 38.92483266666667, "name": "b070b7584c83e7b753e71b85476eb554", "bike_id": "b070b7584c83e7b753e71b85476eb554", "is_disabled": 0, "fusion_lon": 0.0, "type": "electric_scooter", "lon": -77.02198183333333}, {"rental_uris": {"android": "https://dc.lft.to/lastmile_qr_scan", "ios": "https://dc.lft.to/lastmile_qr_scan"}, "fusion_lat": 0.0, "is_reserved": 0, "lat": 38.933810333333334, "name": "35af83ba4ebf97f7f13100dbe502cb39", "bike_id": "35af83ba4ebf97f7f13100dbe502cb39", "is_disabled": 0, "fusion_lon": 0.0, "type": "electric_scooter", "lon": -77.02386583333333}, {"rental_uris": {"android": "https://dc.lft.to/lastmile_qr_scan", "ios": "https://dc.lft.to/lastmile_qr_scan"}, "fusion_lat": 0.0, "is_reserved": 0, "lat": 38.9267535, "name": "1ab9e1d615b778f9e907c2a23b37f1e4", "bike_id": "1ab9e1d615b778f9e907c2a23b37f1e4", "is_disabled": 0, "fusion_lon": 0.0, "type": "electric_scooter", "lon": -77.03804366666667}, {"rental_uris": {"android": "https://dc.lft.to/lastmile_qr_scan", "ios": "https://dc.lft.to/lastmile_qr_scan"}, "fusion_lat": 0.0, "is_reserved": 0, "lat": 38.90372433333334, "name": "706df0b0d34a933cf1e0b0fbb40c9139", "bike_id": "706df0b0d34a933cf1e0b0fbb40c9139", "is_disabled": 0, "fusion_lon": 0.0, "type": "electric_scooter", "lon": -76.98493966666666}, {"rental_uris": {"android": "https://dc.lft.to/lastmile_qr_scan", "ios": "https://dc.lft.to/lastmile_qr_scan"}, "fusion_lat": 0.0, "is_reserved": 0, "lat": 38.911371833333334, "name": "5329a50318afa4f2fbc210eee02a4e66", "bike_id": "5329a50318afa4f2fbc210eee02a4e66", "is_disabled": 0, "fusion_lon": 0.0, "type": "electric_bike", "lon": -77.06576266666667}, {"rental_uris": {"android": "https://dc.lft.to/lastmile_qr_scan", "ios": "https://dc.lft.to/lastmile_qr_scan"}, "fusion_lat": 0.0, "is_reserved": 0, "lat": 38.927772166666664, "name": "64d2984a4f34a579e1c503e284de9e4f", "bike_id": "64d2984a4f34a579e1c503e284de9e4f", "is_disabled": 0, "fusion_lon": 0.0, "type": "electric_scooter", "lon": -77.02709133333333}, {"rental_uris": {"android": "https://dc.lft.to/lastmile_qr_scan", "ios": "https://dc.lft.to/lastmile_qr_scan"}, "fusion_lat": 0.0, "is_reserved": 0, "lat": 38.8778005, "name": "e6b550a3065d088389bc44817e4fd41c", "bike_id": "e6b550a3065d088389bc44817e4fd41c", "is_disabled": 0, "fusion_lon": 0.0, "type": "electric_scooter", "lon": -76.98370383333334}, {"rental_uris": {"android": "https://dc.lft.to/lastmile_qr_scan", "ios": "https://dc.lft.to/lastmile_qr_scan"}, "fusion_lat": 0.0, "is_reserved": 0, "lat": 38.95029316666667, "name": "fa6c3e32c225099d089c4f74bcb67bb9", "bike_id": "fa6c3e32c225099d089c4f74bcb67bb9", "is_disabled": 0, "fusion_lon": 0.0, "type": "electric_bike", "lon": -76.97101083333334}, {"rental_uris": {"android": "https://dc.lft.to/lastmile_qr_scan", "ios": "https://dc.lft.to/lastmile_qr_scan"}, "fusion_lat": 0.0, "is_reserved": 0, "lat": 38.897934166666666, "name": "70333b9a8716500f2574ad10361e5f31", "bike_id": "70333b9a8716500f2574ad10361e5f31", "is_disabled": 0, "fusion_lon": 0.0, "type": "electric_scooter", "lon": -77.01608016666667}, {"rental_uris": {"android": "https://dc.lft.to/lastmile_qr_scan", "ios": "https://dc.lft.to/lastmile_qr_scan"}, "fusion_lat": 0.0, "is_reserved": 0, "lat": 38.93358166666667, "name": "6b524ae5a094957d1c487625570663e3", "bike_id": "6b524ae5a094957d1c487625570663e3", "is_disabled": 0, "fusion_lon": 0.0, "type": "electric_scooter", "lon": -77.024144}, {"rental_uris": {"android": "https://dc.lft.to/lastmile_qr_scan", "ios": "https://dc.lft.to/lastmile_qr_scan"}, "fusion_lat": 0.0, "is_reserved": 0, "lat": 38.91909366666667, "name": "20e25e055b53bb1608db5e76c0aa9a3c", "bike_id": "20e25e055b53bb1608db5e76c0aa9a3c", "is_disabled": 0, "fusion_lon": 0.0, "type": "electric_scooter", "lon": -77.020529}, {"rental_uris": {"android": "https://dc.lft.to/lastmile_qr_scan", "ios": "https://dc.lft.to/lastmile_qr_scan"}, "fusion_lat": 0.0, "is_reserved": 0, "lat": 38.92649566666667, "name": "933b0b174da05be63ea392a4fdeff73b", "bike_id": "933b0b174da05be63ea392a4fdeff73b", "is_disabled": 0, "fusion_lon": 0.0, "type": "electric_scooter", "lon": -77.02274083333333}, {"rental_uris": {"android": "https://dc.lft.to/lastmile_qr_scan", "ios": "https://dc.lft.to/lastmile_qr_scan"}, "fusion_lat": 0.0, "is_reserved": 0, "lat": 38.926042833333334, "name": "76f02ef15bf0a4841426de3c562bac98", "bike_id": "76f02ef15bf0a4841426de3c562bac98", "is_disabled": 0, "fusion_lon": 0.0, "type": "electric_scooter", "lon": -77.02156016666666}, {"rental_uris": {"android": "https://dc.lft.to/lastmile_qr_scan", "ios": "https://dc.lft.to/lastmile_qr_scan"}, "fusion_lat": 0.0, "is_reserved": 0, "lat": 38.9164135, "name": "b5bb5ec05bca8dd5d1c6ed094d49617d", "bike_id": "b5bb5ec05bca8dd5d1c6ed094d49617d", "is_disabled": 0, "fusion_lon": 0.0, "type": "electric_scooter", "lon": -77.01063483333333}, {"rental_uris": {"android": "https://dc.lft.to/lastmile_qr_scan", "ios": "https://dc.lft.to/lastmile_qr_scan"}, "fusion_lat": 0.0, "is_reserved": 0, "lat": 38.920592, "name": "a1cd466a807b206d0c2b0f7509b78e7e", "bike_id": "a1cd466a807b206d0c2b0f7509b78e7e", "is_disabled": 0, "fusion_lon": 0.0, "type": "electric_scooter", "lon": -77.02426366666667}, {"rental_uris": {"android": "https://dc.lft.to/lastmile_qr_scan", "ios": "https://dc.lft.to/lastmile_qr_scan"}, "fusion_lat": 0.0, "is_reserved": 0, "lat": 38.924754166666666, "name": "bb3d1f7ea7647f9dafac9c72c0f49f7a", "bike_id": "bb3d1f7ea7647f9dafac9c72c0f49f7a", "is_disabled": 0, "fusion_lon": 0.0, "type": "electric_scooter", "lon": -77.02112883333334}, {"rental_uris": {"android": "https://dc.lft.to/lastmile_qr_scan", "ios": "https://dc.lft.to/lastmile_qr_scan"}, "fusion_lat": 0.0, "is_reserved": 0, "lat": 38.90499616666666, "name": "f2849104c6c7450aeb6e5b7640a06953", "bike_id": "f2849104c6c7450aeb6e5b7640a06953", "is_disabled": 0, "fusion_lon": 0.0, "type": "electric_scooter", "lon": -76.98035316666666}, {"rental_uris": {"android": "https://dc.lft.to/lastmile_qr_scan", "ios": "https://dc.lft.to/lastmile_qr_scan"}, "fusion_lat": 0.0, "is_reserved": 0, "lat": 38.92250416666667, "name": "8f65418fae07bdbfc1da7555e3a87f7f", "bike_id": "8f65418fae07bdbfc1da7555e3a87f7f", "is_disabled": 0, "fusion_lon": 0.0, "type": "electric_scooter", "lon": -77.03083}, {"rental_uris": {"android": "https://dc.lft.to/lastmile_qr_scan", "ios": "https://dc.lft.to/lastmile_qr_scan"}, "fusion_lat": 0.0, "is_reserved": 0, "lat": 38.857837333333336, "name": "a57c11f06632fb1323b95fb3415ae105", "bike_id": "a57c11f06632fb1323b95fb3415ae105", "is_disabled": 0, "fusion_lon": 0.0, "type": "electric_bike", "lon": -76.98755783333333}, {"rental_uris": {"android": "https://dc.lft.to/lastmile_qr_scan", "ios": "https://dc.lft.to/lastmile_qr_scan"}, "fusion_lat": 0.0, "is_reserved": 0, "lat": 38.917106833333335, "name": "efc78b8a0b45906405938ec211fdcb51", "bike_id": "efc78b8a0b45906405938ec211fdcb51", "is_disabled": 0, "fusion_lon": 0.0, "type": "electric_scooter", "lon": -77.02734666666667}, {"rental_uris": {"android": "https://dc.lft.to/lastmile_qr_scan", "ios": "https://dc.lft.to/lastmile_qr_scan"}, "fusion_lat": 0.0, "is_reserved": 0, "lat": 38.8303175, "name": "d3022252055246efda3a875af8120fe5", "bike_id": "d3022252055246efda3a875af8120fe5", "is_disabled": 0, "fusion_lon": 0.0, "type": "electric_bike", "lon": -77.08375983333333}, {"rental_uris": {"android": "https://dc.lft.to/lastmile_qr_scan", "ios": "https://dc.lft.to/lastmile_qr_scan"}, "fusion_lat": 0.0, "is_reserved": 0, "lat": 38.912654, "name": "018ac8c5107c5e330a632550ce5e906f", "bike_id": "018ac8c5107c5e330a632550ce5e906f", "is_disabled": 0, "fusion_lon": 0.0, "type": "electric_scooter", "lon": -77.00795833333333}, {"rental_uris": {"android": "https://dc.lft.to/lastmile_qr_scan", "ios": "https://dc.lft.to/lastmile_qr_scan"}, "fusion_lat": 0.0, "is_reserved": 0, "lat": 38.90011783333333, "name": "d4bf01db54bb383ee4229360ce7975c0", "bike_id": "d4bf01db54bb383ee4229360ce7975c0", "is_disabled": 0, "fusion_lon": 0.0, "type": "electric_scooter", "lon": -77.04664816666667}, {"rental_uris": {"android": "https://dc.lft.to/lastmile_qr_scan", "ios": "https://dc.lft.to/lastmile_qr_scan"}, "fusion_lat": 0.0, "is_reserved": 0, "lat": 38.892204, "name": "ec302887e4e37bcba84f0c3734197980", "bike_id": "ec302887e4e37bcba84f0c3734197980", "is_disabled": 0, "fusion_lon": 0.0, "type": "electric_scooter", "lon": -77.03979033333333}, {"rental_uris": {"android": "https://dc.lft.to/lastmile_qr_scan", "ios": "https://dc.lft.to/lastmile_qr_scan"}, "fusion_lat": 0.0, "is_reserved": 0, "lat": 38.91545383333333, "name": "b3d81e9d3e8acc7aefaa7da90dc37eed", "bike_id": "b3d81e9d3e8acc7aefaa7da90dc37eed", "is_disabled": 0, "fusion_lon": 0.0, "type": "electric_scooter", "lon": -77.03658133333333}, {"rental_uris": {"android": "https://dc.lft.to/lastmile_qr_scan", "ios": "https://dc.lft.to/lastmile_qr_scan"}, "fusion_lat": 0.0, "is_reserved": 0, "lat": 38.934470833333336, "name": "b2437d974f9fac297cea632c6828c92e", "bike_id": "b2437d974f9fac297cea632c6828c92e", "is_disabled": 0, "fusion_lon": 0.0, "type": "electric_scooter", "lon": -77.02983183333333}, {"rental_uris": {"android": "https://dc.lft.to/lastmile_qr_scan", "ios": "https://dc.lft.to/lastmile_qr_scan"}, "fusion_lat": 0.0, "is_reserved": 0, "lat": 38.93022466666667, "name": "7a4bc99e0d6583506ed8faa9d6510b4b", "bike_id": "7a4bc99e0d6583506ed8faa9d6510b4b", "is_disabled": 0, "fusion_lon": 0.0, "type": "electric_scooter", "lon": -77.02325116666667}, {"rental_uris": {"android": "https://dc.lft.to/lastmile_qr_scan", "ios": "https://dc.lft.to/lastmile_qr_scan"}, "fusion_lat": 0.0, "is_reserved": 0, "lat": 38.87937016666667, "name": "795f438ca6550ccd87287c3549ce609d", "bike_id": "795f438ca6550ccd87287c3549ce609d", "is_disabled": 0, "fusion_lon": 0.0, "type": "electric_scooter", "lon": -77.01685033333334}, {"rental_uris": {"android": "https://dc.lft.to/lastmile_qr_scan", "ios": "https://dc.lft.to/lastmile_qr_scan"}, "fusion_lat": 0.0, "is_reserved": 0, "lat": 38.93499216666667, "name": "b0ac130c3af8ef760d90e6e21b63d177", "bike_id": "b0ac130c3af8ef760d90e6e21b63d177", "is_disabled": 0, "fusion_lon": 0.0, "type": "electric_scooter", "lon": -77.04526166666666}, {"rental_uris": {"android": "https://dc.lft.to/lastmile_qr_scan", "ios": "https://dc.lft.to/lastmile_qr_scan"}, "fusion_lat": 0.0, "is_reserved": 0, "lat": 38.926506833333335, "name": "2b238ad75e465c451a4f20dd8380a442", "bike_id": "2b238ad75e465c451a4f20dd8380a442", "is_disabled": 0, "fusion_lon": 0.0, "type": "electric_scooter", "lon": -77.02471316666667}, {"rental_uris": {"android": "https://dc.lft.to/lastmile_qr_scan", "ios": "https://dc.lft.to/lastmile_qr_scan"}, "fusion_lat": 0.0, "is_reserved": 0, "lat": 38.97496183333333, "name": "918f6a52590550a3c2f5059e534c69af", "bike_id": "918f6a52590550a3c2f5059e534c69af", "is_disabled": 0, "fusion_lon": 0.0, "type": "electric_scooter", "lon": -77.01701183333333}, {"rental_uris": {"android": "https://dc.lft.to/lastmile_qr_scan", "ios": "https://dc.lft.to/lastmile_qr_scan"}, "fusion_lat": 0.0, "is_reserved": 0, "lat": 38.943166166666664, "name": "0bcac8fc8954fdc0ef787ea5443cd8ed", "bike_id": "0bcac8fc8954fdc0ef787ea5443cd8ed", "is_disabled": 0, "fusion_lon": 0.0, "type": "electric_scooter", "lon": -77.01758366666667}, {"rental_uris": {"android": "https://dc.lft.to/lastmile_qr_scan", "ios": "https://dc.lft.to/lastmile_qr_scan"}, "fusion_lat": 0.0, "is_reserved": 0, "lat": 38.910112166666664, "name": "0d6b0e4caeb143fe32675da38a6d3d3b", "bike_id": "0d6b0e4caeb143fe32675da38a6d3d3b", "is_disabled": 0, "fusion_lon": 0.0, "type": "electric_scooter", "lon": -77.03839216666667}, {"rental_uris": {"android": "https://dc.lft.to/lastmile_qr_scan", "ios": "https://dc.lft.to/lastmile_qr_scan"}, "fusion_lat": 0.0, "is_reserved": 0, "lat": 38.91224783333333, "name": "f557c286f3949ce5521532a3e1ef26fb", "bike_id": "f557c286f3949ce5521532a3e1ef26fb", "is_disabled": 0, "fusion_lon": 0.0, "type": "electric_scooter", "lon": -77.03209366666667}, {"rental_uris": {"android": "https://dc.lft.to/lastmile_qr_scan", "ios": "https://dc.lft.to/lastmile_qr_scan"}, "fusion_lat": 0.0, "is_reserved": 0, "lat": 38.994134833333334, "name": "759c9e72c20f6218ad52455f33691eae", "bike_id": "759c9e72c20f6218ad52455f33691eae", "is_disabled": 0, "fusion_lon": 0.0, "type": "electric_bike", "lon": -77.01797083333334}, {"rental_uris": {"android": "https://dc.lft.to/lastmile_qr_scan", "ios": "https://dc.lft.to/lastmile_qr_scan"}, "fusion_lat": 0.0, "is_reserved": 0, "lat": 38.9101015, "name": "9d9f96fb558a41f8e740dc72a1c689ab", "bike_id": "9d9f96fb558a41f8e740dc72a1c689ab", "is_disabled": 0, "fusion_lon": 0.0, "type": "electric_scooter", "lon": -77.02097666666667}, {"rental_uris": {"android": "https://dc.lft.to/lastmile_qr_scan", "ios": "https://dc.lft.to/lastmile_qr_scan"}, "fusion_lat": 0.0, "is_reserved": 0, "lat": 38.924985, "name": "4f33bba897bf59756752103c1c2f90b3", "bike_id": "4f33bba897bf59756752103c1c2f90b3", "is_disabled": 0, "fusion_lon": 0.0, "type": "electric_scooter", "lon": -77.0239995}, {"rental_uris": {"android": "https://dc.lft.to/lastmile_qr_scan", "ios": "https://dc.lft.to/lastmile_qr_scan"}, "fusion_lat": 0.0, "is_reserved": 0, "lat": 38.946585, "name": "3b289e9fa811d6079bd8a8f5ea34d4bc", "bike_id": "3b289e9fa811d6079bd8a8f5ea34d4bc", "is_disabled": 0, "fusion_lon": 0.0, "type": "electric_scooter", "lon": -77.06468833333334}, {"rental_uris": {"android": "https://dc.lft.to/lastmile_qr_scan", "ios": "https://dc.lft.to/lastmile_qr_scan"}, "fusion_lat": 0.0, "is_reserved": 0, "lat": 38.94037933333333, "name": "3dbb8451d9665b458e8fd15758d760b2", "bike_id": "3dbb8451d9665b458e8fd15758d760b2", "is_disabled": 0, "fusion_lon": 0.0, "type": "electric_scooter", "lon": -77.02906283333333}, {"rental_uris": {"android": "https://dc.lft.to/lastmile_qr_scan", "ios": "https://dc.lft.to/lastmile_qr_scan"}, "fusion_lat": 0.0, "is_reserved": 0, "lat": 38.89713116666667, "name": "8c60019a302e37107929a3ccd279226e", "bike_id": "8c60019a302e37107929a3ccd279226e", "is_disabled": 0, "fusion_lon": 0.0, "type": "electric_scooter", "lon": -77.013183}, {"rental_uris": {"android": "https://dc.lft.to/lastmile_qr_scan", "ios": "https://dc.lft.to/lastmile_qr_scan"}, "fusion_lat": 0.0, "is_reserved": 0, "lat": 38.83866316666666, "name": "19b5445c296ca2922c3ac0394862a885", "bike_id": "19b5445c296ca2922c3ac0394862a885", "is_disabled": 0, "fusion_lon": 0.0, "type": "electric_bike", "lon": -76.99702383333333}, {"rental_uris": {"android": "https://dc.lft.to/lastmile_qr_scan", "ios": "https://dc.lft.to/lastmile_qr_scan"}, "fusion_lat": 0.0, "is_reserved": 0, "lat": 38.89232583333333, "name": "b1ab62878ff32c48592e67b33fab571e", "bike_id": "b1ab62878ff32c48592e67b33fab571e", "is_disabled": 0, "fusion_lon": 0.0, "type": "electric_scooter", "lon": -77.03214716666666}, {"rental_uris": {"android": "https://dc.lft.to/lastmile_qr_scan", "ios": "https://dc.lft.to/lastmile_qr_scan"}, "fusion_lat": 0.0, "is_reserved": 0, "lat": 38.87686133333333, "name": "9e1f88f14116b7cc7b0e793c894fbfb1", "bike_id": "9e1f88f14116b7cc7b0e793c894fbfb1", "is_disabled": 0, "fusion_lon": 0.0, "type": "electric_scooter", "lon": -77.01514083333333}, {"rental_uris": {"android": "https://dc.lft.to/lastmile_qr_scan", "ios": "https://dc.lft.to/lastmile_qr_scan"}, "fusion_lat": 0.0, "is_reserved": 0, "lat": 38.89477183333333, "name": "3f3009be9c833b9816a3d88b0bd09fa6", "bike_id": "3f3009be9c833b9816a3d88b0bd09fa6", "is_disabled": 0, "fusion_lon": 0.0, "type": "electric_scooter", "lon": -76.99486133333333}, {"rental_uris": {"android": "https://dc.lft.to/lastmile_qr_scan", "ios": "https://dc.lft.to/lastmile_qr_scan"}, "fusion_lat": 0.0, "is_reserved": 0, "lat": 38.944752, "name": "ebf991c2fc32a924267002470aa21fb5", "bike_id": "ebf991c2fc32a924267002470aa21fb5", "is_disabled": 0, "fusion_lon": 0.0, "type": "electric_bike", "lon": -76.986914}, {"rental_uris": {"android": "https://dc.lft.to/lastmile_qr_scan", "ios": "https://dc.lft.to/lastmile_qr_scan"}, "fusion_lat": 0.0, "is_reserved": 0, "lat": 38.908339166666664, "name": "5e5bca01cc4f56789deb7af8e6941b64", "bike_id": "5e5bca01cc4f56789deb7af8e6941b64", "is_disabled": 0, "fusion_lon": 0.0, "type": "electric_scooter", "lon": -76.99694783333334}, {"rental_uris": {"android": "https://dc.lft.to/lastmile_qr_scan", "ios": "https://dc.lft.to/lastmile_qr_scan"}, "fusion_lat": 0.0, "is_reserved": 0, "lat": 38.914198666666664, "name": "6026e80ca0e052da72906b6935ab7175", "bike_id": "6026e80ca0e052da72906b6935ab7175", "is_disabled": 0, "fusion_lon": 0.0, "type": "electric_scooter", "lon": -77.03171383333333}, {"rental_uris": {"android": "https://dc.lft.to/lastmile_qr_scan", "ios": "https://dc.lft.to/lastmile_qr_scan"}, "fusion_lat": 0.0, "is_reserved": 0, "lat": 38.9016055, "name": "08c6947c20739751e331bad013a55f5e", "bike_id": "08c6947c20739751e331bad013a55f5e", "is_disabled": 0, "fusion_lon": 0.0, "type": "electric_scooter", "lon": -77.04662483333334}, {"rental_uris": {"android": "https://dc.lft.to/lastmile_qr_scan", "ios": "https://dc.lft.to/lastmile_qr_scan"}, "fusion_lat": 0.0, "is_reserved": 0, "lat": 38.91190783333333, "name": "ff81a10febfe3c9a53a2461fa3715369", "bike_id": "ff81a10febfe3c9a53a2461fa3715369", "is_disabled": 0, "fusion_lon": 0.0, "type": "electric_scooter", "lon": -77.03839783333333}, {"rental_uris": {"android": "https://dc.lft.to/lastmile_qr_scan", "ios": "https://dc.lft.to/lastmile_qr_scan"}, "fusion_lat": 0.0, "is_reserved": 0, "lat": 38.900305333333336, "name": "70fd8ec756712822bc72bb4e989ff91a", "bike_id": "70fd8ec756712822bc72bb4e989ff91a", "is_disabled": 0, "fusion_lon": 0.0, "type": "electric_scooter", "lon": -76.99843533333333}, {"rental_uris": {"android": "https://dc.lft.to/lastmile_qr_scan", "ios": "https://dc.lft.to/lastmile_qr_scan"}, "fusion_lat": 0.0, "is_reserved": 0, "lat": 38.903186833333336, "name": "099524ffb7acd665409833ffabfdc9c5", "bike_id": "099524ffb7acd665409833ffabfdc9c5", "is_disabled": 0, "fusion_lon": 0.0, "type": "electric_scooter", "lon": -77.0464805}, {"rental_uris": {"android": "https://dc.lft.to/lastmile_qr_scan", "ios": "https://dc.lft.to/lastmile_qr_scan"}, "fusion_lat": 0.0, "is_reserved": 0, "lat": 38.9240575, "name": "6fb662951c6c58f824256c74de2ef524", "bike_id": "6fb662951c6c58f824256c74de2ef524", "is_disabled": 0, "fusion_lon": 0.0, "type": "electric_scooter", "lon": -77.035394}, {"rental_uris": {"android": "https://dc.lft.to/lastmile_qr_scan", "ios": "https://dc.lft.to/lastmile_qr_scan"}, "fusion_lat": 0.0, "is_reserved": 0, "lat": 38.915596666666666, "name": "94c2764dcf476cb87bf4336eb6180f3a", "bike_id": "94c2764dcf476cb87bf4336eb6180f3a", "is_disabled": 0, "fusion_lon": 0.0, "type": "electric_scooter", "lon": -77.0313405}, {"rental_uris": {"android": "https://dc.lft.to/lastmile_qr_scan", "ios": "https://dc.lft.to/lastmile_qr_scan"}, "fusion_lat": 0.0, "is_reserved": 0, "lat": 38.937016, "name": "3410be893608839d12c3f8ff4410def0", "bike_id": "3410be893608839d12c3f8ff4410def0", "is_disabled": 0, "fusion_lon": 0.0, "type": "electric_scooter", "lon": -77.05593466666667}, {"rental_uris": {"android": "https://dc.lft.to/lastmile_qr_scan", "ios": "https://dc.lft.to/lastmile_qr_scan"}, "fusion_lat": 0.0, "is_reserved": 0, "lat": 38.90740066666667, "name": "5d256b087a25ec31453e4143844c5af4", "bike_id": "5d256b087a25ec31453e4143844c5af4", "is_disabled": 0, "fusion_lon": 0.0, "type": "electric_scooter", "lon": -76.93482333333333}, {"rental_uris": {"android": "https://dc.lft.to/lastmile_qr_scan", "ios": "https://dc.lft.to/lastmile_qr_scan"}, "fusion_lat": 0.0, "is_reserved": 0, "lat": 38.92295516666667, "name": "daefc0e464b8604ac8794f1bcca3e713", "bike_id": "daefc0e464b8604ac8794f1bcca3e713", "is_disabled": 0, "fusion_lon": 0.0, "type": "electric_scooter", "lon": -77.041444}, {"rental_uris": {"android": "https://dc.lft.to/lastmile_qr_scan", "ios": "https://dc.lft.to/lastmile_qr_scan"}, "fusion_lat": 0.0, "is_reserved": 0, "lat": 38.91341416666667, "name": "078c963cd95ddded6784e696b1001912", "bike_id": "078c963cd95ddded6784e696b1001912", "is_disabled": 0, "fusion_lon": 0.0, "type": "electric_scooter", "lon": -77.03204966666667}, {"rental_uris": {"android": "https://dc.lft.to/lastmile_qr_scan", "ios": "https://dc.lft.to/lastmile_qr_scan"}, "fusion_lat": 0.0, "is_reserved": 0, "lat": 38.947999333333335, "name": "071502e1a40841b4073c984969bdc619", "bike_id": "071502e1a40841b4073c984969bdc619", "is_disabled": 0, "fusion_lon": 0.0, "type": "electric_bike", "lon": -76.94251383333334}, {"rental_uris": {"android": "https://dc.lft.to/lastmile_qr_scan", "ios": "https://dc.lft.to/lastmile_qr_scan"}, "fusion_lat": 0.0, "is_reserved": 0, "lat": 38.935265, "name": "eba63f24f80c1f5e0cb1727e54fcd1ff", "bike_id": "eba63f24f80c1f5e0cb1727e54fcd1ff", "is_disabled": 0, "fusion_lon": 0.0, "type": "electric_scooter", "lon": -77.0348905}, {"rental_uris": {"android": "https://dc.lft.to/lastmile_qr_scan", "ios": "https://dc.lft.to/lastmile_qr_scan"}, "fusion_lat": 0.0, "is_reserved": 0, "lat": 38.94149516666667, "name": "e23838aad338922f2c2db6cf4119fd43", "bike_id": "e23838aad338922f2c2db6cf4119fd43", "is_disabled": 0, "fusion_lon": 0.0, "type": "electric_scooter", "lon": -77.00431966666666}, {"rental_uris": {"android": "https://dc.lft.to/lastmile_qr_scan", "ios": "https://dc.lft.to/lastmile_qr_scan"}, "fusion_lat": 0.0, "is_reserved": 0, "lat": 38.91803866666667, "name": "635945f681eb341dd2201b2aeee3d6eb", "bike_id": "635945f681eb341dd2201b2aeee3d6eb", "is_disabled": 0, "fusion_lon": 0.0, "type": "electric_scooter", "lon": -77.03154116666667}, {"rental_uris": {"android": "https://dc.lft.to/lastmile_qr_scan", "ios": "https://dc.lft.to/lastmile_qr_scan"}, "fusion_lat": 0.0, "is_reserved": 0, "lat": 38.959106, "name": "759fa1f7df138972188a171c08cc3b65", "bike_id": "759fa1f7df138972188a171c08cc3b65", "is_disabled": 0, "fusion_lon": 0.0, "type": "electric_bike", "lon": -76.92521016666667}, {"rental_uris": {"android": "https://dc.lft.to/lastmile_qr_scan", "ios": "https://dc.lft.to/lastmile_qr_scan"}, "fusion_lat": 0.0, "is_reserved": 0, "lat": 38.9236955, "name": "858be25b24b5eff2ad1f772e5a8f34f6", "bike_id": "858be25b24b5eff2ad1f772e5a8f34f6", "is_disabled": 0, "fusion_lon": 0.0, "type": "electric_scooter", "lon": -77.029793}, {"rental_uris": {"android": "https://dc.lft.to/lastmile_qr_scan", "ios": "https://dc.lft.to/lastmile_qr_scan"}, "fusion_lat": 0.0, "is_reserved": 0, "lat": 38.92679833333333, "name": "068c314a5810574acc72670fe240cc17", "bike_id": "068c314a5810574acc72670fe240cc17", "is_disabled": 0, "fusion_lon": 0.0, "type": "electric_scooter", "lon": -77.00745716666667}, {"rental_uris": {"android": "https://dc.lft.to/lastmile_qr_scan", "ios": "https://dc.lft.to/lastmile_qr_scan"}, "fusion_lat": 0.0, "is_reserved": 0, "lat": 38.91836933333333, "name": "53e6032e79c928cf2012617fae13c30b", "bike_id": "53e6032e79c928cf2012617fae13c30b", "is_disabled": 0, "fusion_lon": 0.0, "type": "electric_scooter", "lon": -77.02288133333333}, {"rental_uris": {"android": "https://dc.lft.to/lastmile_qr_scan", "ios": "https://dc.lft.to/lastmile_qr_scan"}, "fusion_lat": 0.0, "is_reserved": 0, "lat": 38.89544033333333, "name": "b2c67a5f04330257de97b2df1f72f888", "bike_id": "b2c67a5f04330257de97b2df1f72f888", "is_disabled": 0, "fusion_lon": 0.0, "type": "electric_scooter", "lon": -76.9833645}, {"rental_uris": {"android": "https://dc.lft.to/lastmile_qr_scan", "ios": "https://dc.lft.to/lastmile_qr_scan"}, "fusion_lat": 0.0, "is_reserved": 0, "lat": 38.904368, "name": "4e28e1dde40b77bfa6c3c4abb3a5ef6c", "bike_id": "4e28e1dde40b77bfa6c3c4abb3a5ef6c", "is_disabled": 0, "fusion_lon": 0.0, "type": "electric_scooter", "lon": -77.025888}, {"rental_uris": {"android": "https://dc.lft.to/lastmile_qr_scan", "ios": "https://dc.lft.to/lastmile_qr_scan"}, "fusion_lat": 0.0, "is_reserved": 0, "lat": 38.917836333333334, "name": "0bb50b9b74e887caa56d6b21963bf210", "bike_id": "0bb50b9b74e887caa56d6b21963bf210", "is_disabled": 0, "fusion_lon": 0.0, "type": "electric_scooter", "lon": -77.03445983333333}, {"rental_uris": {"android": "https://dc.lft.to/lastmile_qr_scan", "ios": "https://dc.lft.to/lastmile_qr_scan"}, "fusion_lat": 0.0, "is_reserved": 0, "lat": 38.92340166666666, "name": "3c1abfbdbd3d1effc29f4ead8dcd48b1", "bike_id": "3c1abfbdbd3d1effc29f4ead8dcd48b1", "is_disabled": 0, "fusion_lon": 0.0, "type": "electric_scooter", "lon": -77.0355175}, {"rental_uris": {"android": "https://dc.lft.to/lastmile_qr_scan", "ios": "https://dc.lft.to/lastmile_qr_scan"}, "fusion_lat": 0.0, "is_reserved": 0, "lat": 38.89607766666666, "name": "60eea9e1709193f4f850002be7ba930a", "bike_id": "60eea9e1709193f4f850002be7ba930a", "is_disabled": 0, "fusion_lon": 0.0, "type": "electric_scooter", "lon": -77.03352966666667}, {"rental_uris": {"android": "https://dc.lft.to/lastmile_qr_scan", "ios": "https://dc.lft.to/lastmile_qr_scan"}, "fusion_lat": 0.0, "is_reserved": 0, "lat": 38.95933433333333, "name": "29bcd5c04f58c2ccbf1bd3281740d310", "bike_id": "29bcd5c04f58c2ccbf1bd3281740d310", "is_disabled": 0, "fusion_lon": 0.0, "type": "electric_scooter", "lon": -77.03117966666667}, {"rental_uris": {"android": "https://dc.lft.to/lastmile_qr_scan", "ios": "https://dc.lft.to/lastmile_qr_scan"}, "fusion_lat": 0.0, "is_reserved": 0, "lat": 38.900391666666664, "name": "c7cc6c6eb73010f6317e11208fe76af7", "bike_id": "c7cc6c6eb73010f6317e11208fe76af7", "is_disabled": 0, "fusion_lon": 0.0, "type": "electric_scooter", "lon": -77.048682}, {"rental_uris": {"android": "https://dc.lft.to/lastmile_qr_scan", "ios": "https://dc.lft.to/lastmile_qr_scan"}, "fusion_lat": 0.0, "is_reserved": 0, "lat": 38.86526516666667, "name": "08edd5217bd3121904253b06c9effb5b", "bike_id": "08edd5217bd3121904253b06c9effb5b", "is_disabled": 0, "fusion_lon": 0.0, "type": "electric_scooter", "lon": -76.96911083333333}, {"rental_uris": {"android": "https://dc.lft.to/lastmile_qr_scan", "ios": "https://dc.lft.to/lastmile_qr_scan"}, "fusion_lat": 0.0, "is_reserved": 0, "lat": 38.907268, "name": "a011e02059bc8535cff14b8eeea64099", "bike_id": "a011e02059bc8535cff14b8eeea64099", "is_disabled": 0, "fusion_lon": 0.0, "type": "electric_scooter", "lon": -77.03894283333334}, {"rental_uris": {"android": "https://dc.lft.to/lastmile_qr_scan", "ios": "https://dc.lft.to/lastmile_qr_scan"}, "fusion_lat": 0.0, "is_reserved": 0, "lat": 38.924616, "name": "755a6ac896c87f478e44bd13f2051a58", "bike_id": "755a6ac896c87f478e44bd13f2051a58", "is_disabled": 0, "fusion_lon": 0.0, "type": "electric_scooter", "lon": -77.02697833333333}, {"rental_uris": {"android": "https://dc.lft.to/lastmile_qr_scan", "ios": "https://dc.lft.to/lastmile_qr_scan"}, "fusion_lat": 0.0, "is_reserved": 0, "lat": 38.907438166666665, "name": "384dc813d8b528b498d985071ce31860", "bike_id": "384dc813d8b528b498d985071ce31860", "is_disabled": 0, "fusion_lon": 0.0, "type": "electric_scooter", "lon": -77.05019966666667}, {"rental_uris": {"android": "https://dc.lft.to/lastmile_qr_scan", "ios": "https://dc.lft.to/lastmile_qr_scan"}, "fusion_lat": 0.0, "is_reserved": 0, "lat": 38.907853833333334, "name": "884d0cb6096542ba7115562f8ae6f5bc", "bike_id": "884d0cb6096542ba7115562f8ae6f5bc", "is_disabled": 0, "fusion_lon": 0.0, "type": "electric_scooter", "lon": -77.045045}, {"rental_uris": {"android": "https://dc.lft.to/lastmile_qr_scan", "ios": "https://dc.lft.to/lastmile_qr_scan"}, "fusion_lat": 0.0, "is_reserved": 0, "lat": 38.9335735, "name": "882c58e4f2517816804b1dc084a6dc64", "bike_id": "882c58e4f2517816804b1dc084a6dc64", "is_disabled": 0, "fusion_lon": 0.0, "type": "electric_scooter", "lon": -77.02374616666667}, {"rental_uris": {"android": "https://dc.lft.to/lastmile_qr_scan", "ios": "https://dc.lft.to/lastmile_qr_scan"}, "fusion_lat": 0.0, "is_reserved": 0, "lat": 38.898995166666666, "name": "d6bce5eccd7b99e10c07fafd1a1e4eb0", "bike_id": "d6bce5eccd7b99e10c07fafd1a1e4eb0", "is_disabled": 0, "fusion_lon": 0.0, "type": "electric_scooter", "lon": -76.9760305}, {"rental_uris": {"android": "https://dc.lft.to/lastmile_qr_scan", "ios": "https://dc.lft.to/lastmile_qr_scan"}, "fusion_lat": 0.0, "is_reserved": 0, "lat": 38.91915266666667, "name": "20f0e8e9aab28736c8abf41bfc098134", "bike_id": "20f0e8e9aab28736c8abf41bfc098134", "is_disabled": 0, "fusion_lon": 0.0, "type": "electric_scooter", "lon": -77.029511}, {"rental_uris": {"android": "https://dc.lft.to/lastmile_qr_scan", "ios": "https://dc.lft.to/lastmile_qr_scan"}, "fusion_lat": 0.0, "is_reserved": 0, "lat": 38.89223666666667, "name": "fc8ff8e9f46f6dd5eb310adc8c2ccd21", "bike_id": "fc8ff8e9f46f6dd5eb310adc8c2ccd21", "is_disabled": 0, "fusion_lon": 0.0, "type": "electric_scooter", "lon": -77.03339283333334}, {"rental_uris": {"android": "https://dc.lft.to/lastmile_qr_scan", "ios": "https://dc.lft.to/lastmile_qr_scan"}, "fusion_lat": 0.0, "is_reserved": 0, "lat": 38.901373166666666, "name": "9aa8ef2f91ff735d8812f6adc5456298", "bike_id": "9aa8ef2f91ff735d8812f6adc5456298", "is_disabled": 0, "fusion_lon": 0.0, "type": "electric_scooter", "lon": -77.03170383333334}, {"rental_uris": {"android": "https://dc.lft.to/lastmile_qr_scan", "ios": "https://dc.lft.to/lastmile_qr_scan"}, "fusion_lat": 0.0, "is_reserved": 0, "lat": 38.90831133333333, "name": "548491705a117e6e697f4896b570a631", "bike_id": "548491705a117e6e697f4896b570a631", "is_disabled": 0, "fusion_lon": 0.0, "type": "electric_bike", "lon": -76.9415935}, {"rental_uris": {"android": "https://dc.lft.to/lastmile_qr_scan", "ios": "https://dc.lft.to/lastmile_qr_scan"}, "fusion_lat": 0.0, "is_reserved": 0, "lat": 38.90736483333333, "name": "43bdd386dde782073a746250704a0ad9", "bike_id": "43bdd386dde782073a746250704a0ad9", "is_disabled": 0, "fusion_lon": 0.0, "type": "electric_scooter", "lon": -77.00806333333334}, {"rental_uris": {"android": "https://dc.lft.to/lastmile_qr_scan", "ios": "https://dc.lft.to/lastmile_qr_scan"}, "fusion_lat": 0.0, "is_reserved": 0, "lat": 38.92170383333333, "name": "fb20991d7516a09c50a532c45932896b", "bike_id": "fb20991d7516a09c50a532c45932896b", "is_disabled": 0, "fusion_lon": 0.0, "type": "electric_scooter", "lon": -77.03319866666666}, {"rental_uris": {"android": "https://dc.lft.to/lastmile_qr_scan", "ios": "https://dc.lft.to/lastmile_qr_scan"}, "fusion_lat": 0.0, "is_reserved": 0, "lat": 38.923178666666665, "name": "cd679e29852cd4c16dba8e7c428c549a", "bike_id": "cd679e29852cd4c16dba8e7c428c549a", "is_disabled": 0, "fusion_lon": 0.0, "type": "electric_scooter", "lon": -77.04571}, {"rental_uris": {"android": "https://dc.lft.to/lastmile_qr_scan", "ios": "https://dc.lft.to/lastmile_qr_scan"}, "fusion_lat": 0.0, "is_reserved": 0, "lat": 38.899301, "name": "64b918758545981f1b70b30e70219c47", "bike_id": "64b918758545981f1b70b30e70219c47", "is_disabled": 0, "fusion_lon": 0.0, "type": "electric_scooter", "lon": -77.0270775}, {"rental_uris": {"android": "https://dc.lft.to/lastmile_qr_scan", "ios": "https://dc.lft.to/lastmile_qr_scan"}, "fusion_lat": 0.0, "is_reserved": 0, "lat": 38.918193333333335, "name": "f66798f9dc30952aaec3b30112c9037a", "bike_id": "f66798f9dc30952aaec3b30112c9037a", "is_disabled": 0, "fusion_lon": 0.0, "type": "electric_scooter", "lon": -77.036355}, {"rental_uris": {"android": "https://dc.lft.to/lastmile_qr_scan", "ios": "https://dc.lft.to/lastmile_qr_scan"}, "fusion_lat": 0.0, "is_reserved": 0, "lat": 38.901187, "name": "0447351930315ff0042f5adbca14866f", "bike_id": "0447351930315ff0042f5adbca14866f", "is_disabled": 0, "fusion_lon": 0.0, "type": "electric_scooter", "lon": -77.03794583333334}, {"rental_uris": {"android": "https://dc.lft.to/lastmile_qr_scan", "ios": "https://dc.lft.to/lastmile_qr_scan"}, "fusion_lat": 0.0, "is_reserved": 0, "lat": 38.904193, "name": "b0ab19cf0fde741aeba2c68d959968b0", "bike_id": "b0ab19cf0fde741aeba2c68d959968b0", "is_disabled": 0, "fusion_lon": 0.0, "type": "electric_scooter", "lon": -76.98103883333333}, {"rental_uris": {"android": "https://dc.lft.to/lastmile_qr_scan", "ios": "https://dc.lft.to/lastmile_qr_scan"}, "fusion_lat": 0.0, "is_reserved": 0, "lat": 38.906853, "name": "9f6fe1c88493d2dab275120260d332ee", "bike_id": "9f6fe1c88493d2dab275120260d332ee", "is_disabled": 0, "fusion_lon": 0.0, "type": "electric_scooter", "lon": -77.01627966666666}, {"rental_uris": {"android": "https://dc.lft.to/lastmile_qr_scan", "ios": "https://dc.lft.to/lastmile_qr_scan"}, "fusion_lat": 0.0, "is_reserved": 0, "lat": 38.921640833333335, "name": "28e30bc7f6f181d641511efd3851b50f", "bike_id": "28e30bc7f6f181d641511efd3851b50f", "is_disabled": 0, "fusion_lon": 0.0, "type": "electric_scooter", "lon": -77.03382816666667}, {"rental_uris": {"android": "https://dc.lft.to/lastmile_qr_scan", "ios": "https://dc.lft.to/lastmile_qr_scan"}, "fusion_lat": 0.0, "is_reserved": 0, "lat": 38.8977105, "name": "a2aeb99ac4e438e411d7d9b45bf7354a", "bike_id": "a2aeb99ac4e438e411d7d9b45bf7354a", "is_disabled": 0, "fusion_lon": 0.0, "type": "electric_scooter", "lon": -77.04784383333333}, {"rental_uris": {"android": "https://dc.lft.to/lastmile_qr_scan", "ios": "https://dc.lft.to/lastmile_qr_scan"}, "fusion_lat": 0.0, "is_reserved": 0, "lat": 38.924832333333335, "name": "837b140768b7a6c0554258621b7efd40", "bike_id": "837b140768b7a6c0554258621b7efd40", "is_disabled": 0, "fusion_lon": 0.0, "type": "electric_scooter", "lon": -77.05219083333333}, {"rental_uris": {"android": "https://dc.lft.to/lastmile_qr_scan", "ios": "https://dc.lft.to/lastmile_qr_scan"}, "fusion_lat": 0.0, "is_reserved": 0, "lat": 38.92913683333333, "name": "01ae4f65e15a8739c81169504ee22477", "bike_id": "01ae4f65e15a8739c81169504ee22477", "is_disabled": 0, "fusion_lon": 0.0, "type": "electric_scooter", "lon": -76.998122}, {"rental_uris": {"android": "https://dc.lft.to/lastmile_qr_scan", "ios": "https://dc.lft.to/lastmile_qr_scan"}, "fusion_lat": 0.0, "is_reserved": 0, "lat": 38.90705083333334, "name": "8bac73eac8dfb791bae313d4c1fcdd1c", "bike_id": "8bac73eac8dfb791bae313d4c1fcdd1c", "is_disabled": 0, "fusion_lon": 0.0, "type": "electric_scooter", "lon": -77.02690766666667}, {"rental_uris": {"android": "https://dc.lft.to/lastmile_qr_scan", "ios": "https://dc.lft.to/lastmile_qr_scan"}, "fusion_lat": 0.0, "is_reserved": 0, "lat": 38.927982666666665, "name": "231438daabec70a949e0433d127c16ca", "bike_id": "231438daabec70a949e0433d127c16ca", "is_disabled": 0, "fusion_lon": 0.0, "type": "electric_scooter", "lon": -77.03368583333334}, {"rental_uris": {"android": "https://dc.lft.to/lastmile_qr_scan", "ios": "https://dc.lft.to/lastmile_qr_scan"}, "fusion_lat": 0.0, "is_reserved": 0, "lat": 38.9238885, "name": "e6dd1c63be721d0a611760cb4d9389d1", "bike_id": "e6dd1c63be721d0a611760cb4d9389d1", "is_disabled": 0, "fusion_lon": 0.0, "type": "electric_scooter", "lon": -77.02140183333333}, {"rental_uris": {"android": "https://dc.lft.to/lastmile_qr_scan", "ios": "https://dc.lft.to/lastmile_qr_scan"}, "fusion_lat": 0.0, "is_reserved": 0, "lat": 38.926032, "name": "49cfae124abb59c19b459de533436e6a", "bike_id": "49cfae124abb59c19b459de533436e6a", "is_disabled": 0, "fusion_lon": 0.0, "type": "electric_scooter", "lon": -77.02155633333334}, {"rental_uris": {"android": "https://dc.lft.to/lastmile_qr_scan", "ios": "https://dc.lft.to/lastmile_qr_scan"}, "fusion_lat": 0.0, "is_reserved": 0, "lat": 38.918040833333336, "name": "2ac7c0c3462afbd1d4be15d62107fc53", "bike_id": "2ac7c0c3462afbd1d4be15d62107fc53", "is_disabled": 0, "fusion_lon": 0.0, "type": "electric_scooter", "lon": -77.03150983333333}, {"rental_uris": {"android": "https://dc.lft.to/lastmile_qr_scan", "ios": "https://dc.lft.to/lastmile_qr_scan"}, "fusion_lat": 0.0, "is_reserved": 0, "lat": 38.919236833333336, "name": "0b34e637ba01e2941f55bd57c1b35e77", "bike_id": "0b34e637ba01e2941f55bd57c1b35e77", "is_disabled": 0, "fusion_lon": 0.0, "type": "electric_scooter", "lon": -77.0421025}, {"rental_uris": {"android": "https://dc.lft.to/lastmile_qr_scan", "ios": "https://dc.lft.to/lastmile_qr_scan"}, "fusion_lat": 0.0, "is_reserved": 0, "lat": 38.929731333333336, "name": "cbbadfa4bb131b7b6b6190e5abce67f8", "bike_id": "cbbadfa4bb131b7b6b6190e5abce67f8", "is_disabled": 0, "fusion_lon": 0.0, "type": "electric_scooter", "lon": -77.0319105}, {"rental_uris": {"android": "https://dc.lft.to/lastmile_qr_scan", "ios": "https://dc.lft.to/lastmile_qr_scan"}, "fusion_lat": 0.0, "is_reserved": 0, "lat": 38.88710366666667, "name": "c765dee10046eb12cb93fa00c450fe2a", "bike_id": "c765dee10046eb12cb93fa00c450fe2a", "is_disabled": 0, "fusion_lon": 0.0, "type": "electric_scooter", "lon": -77.013665}, {"rental_uris": {"android": "https://dc.lft.to/lastmile_qr_scan", "ios": "https://dc.lft.to/lastmile_qr_scan"}, "fusion_lat": 0.0, "is_reserved": 0, "lat": 38.92500166666667, "name": "d656836428712bc470805ce77583a812", "bike_id": "d656836428712bc470805ce77583a812", "is_disabled": 0, "fusion_lon": 0.0, "type": "electric_scooter", "lon": -77.02437066666667}, {"rental_uris": {"android": "https://dc.lft.to/lastmile_qr_scan", "ios": "https://dc.lft.to/lastmile_qr_scan"}, "fusion_lat": 0.0, "is_reserved": 0, "lat": 38.90518433333333, "name": "bd55cf788621f079fd0b9a6bed552a96", "bike_id": "bd55cf788621f079fd0b9a6bed552a96", "is_disabled": 0, "fusion_lon": 0.0, "type": "electric_scooter", "lon": -77.02957516666666}, {"rental_uris": {"android": "https://dc.lft.to/lastmile_qr_scan", "ios": "https://dc.lft.to/lastmile_qr_scan"}, "fusion_lat": 0.0, "is_reserved": 0, "lat": 38.8812055, "name": "77e41e841466be856861723ff3b67b57", "bike_id": "77e41e841466be856861723ff3b67b57", "is_disabled": 0, "fusion_lon": 0.0, "type": "electric_scooter", "lon": -77.01694066666667}, {"rental_uris": {"android": "https://dc.lft.to/lastmile_qr_scan", "ios": "https://dc.lft.to/lastmile_qr_scan"}, "fusion_lat": 0.0, "is_reserved": 0, "lat": 38.93397866666667, "name": "46ab46366ebeaf6971ecc82dce06fbc8", "bike_id": "46ab46366ebeaf6971ecc82dce06fbc8", "is_disabled": 0, "fusion_lon": 0.0, "type": "electric_scooter", "lon": -77.02221616666667}, {"rental_uris": {"android": "https://dc.lft.to/lastmile_qr_scan", "ios": "https://dc.lft.to/lastmile_qr_scan"}, "fusion_lat": 0.0, "is_reserved": 0, "lat": 38.892365833333336, "name": "912d9d6cd9f9d64956ae41e1b30dd1f6", "bike_id": "912d9d6cd9f9d64956ae41e1b30dd1f6", "is_disabled": 0, "fusion_lon": 0.0, "type": "electric_scooter", "lon": -77.03376783333333}, {"rental_uris": {"android": "https://dc.lft.to/lastmile_qr_scan", "ios": "https://dc.lft.to/lastmile_qr_scan"}, "fusion_lat": 0.0, "is_reserved": 0, "lat": 38.898361333333334, "name": "0cfc4b9be4bdc7131aa2d5a5e0cb70ca", "bike_id": "0cfc4b9be4bdc7131aa2d5a5e0cb70ca", "is_disabled": 0, "fusion_lon": 0.0, "type": "electric_scooter", "lon": -76.97418333333333}, {"rental_uris": {"android": "https://dc.lft.to/lastmile_qr_scan", "ios": "https://dc.lft.to/lastmile_qr_scan"}, "fusion_lat": 0.0, "is_reserved": 0, "lat": 38.905631166666666, "name": "b60191abf957a943644201dec388ab61", "bike_id": "b60191abf957a943644201dec388ab61", "is_disabled": 0, "fusion_lon": 0.0, "type": "electric_scooter", "lon": -76.98210383333333}, {"rental_uris": {"android": "https://dc.lft.to/lastmile_qr_scan", "ios": "https://dc.lft.to/lastmile_qr_scan"}, "fusion_lat": 0.0, "is_reserved": 0, "lat": 38.914181166666665, "name": "d0ddb48a5d08c1e63e455e594f4f4af5", "bike_id": "d0ddb48a5d08c1e63e455e594f4f4af5", "is_disabled": 0, "fusion_lon": 0.0, "type": "electric_scooter", "lon": -77.0190945}, {"rental_uris": {"android": "https://dc.lft.to/lastmile_qr_scan", "ios": "https://dc.lft.to/lastmile_qr_scan"}, "fusion_lat": 0.0, "is_reserved": 0, "lat": 38.90371616666667, "name": "8dd1e037d1bb5463debecb31f8ae8096", "bike_id": "8dd1e037d1bb5463debecb31f8ae8096", "is_disabled": 0, "fusion_lon": 0.0, "type": "electric_scooter", "lon": -77.01648766666666}, {"rental_uris": {"android": "https://dc.lft.to/lastmile_qr_scan", "ios": "https://dc.lft.to/lastmile_qr_scan"}, "fusion_lat": 0.0, "is_reserved": 0, "lat": 38.831567, "name": "308fc94beb7246a7ee222d55fc5ee0a1", "bike_id": "308fc94beb7246a7ee222d55fc5ee0a1", "is_disabled": 0, "fusion_lon": 0.0, "type": "electric_bike", "lon": -76.99543116666666}, {"rental_uris": {"android": "https://dc.lft.to/lastmile_qr_scan", "ios": "https://dc.lft.to/lastmile_qr_scan"}, "fusion_lat": 0.0, "is_reserved": 0, "lat": 38.95865416666667, "name": "906816a389eccb41628b10ce40800303", "bike_id": "906816a389eccb41628b10ce40800303", "is_disabled": 0, "fusion_lon": 0.0, "type": "electric_bike", "lon": -77.03040766666666}, {"rental_uris": {"android": "https://dc.lft.to/lastmile_qr_scan", "ios": "https://dc.lft.to/lastmile_qr_scan"}, "fusion_lat": 0.0, "is_reserved": 0, "lat": 38.91884833333334, "name": "fbd620b103c42da1d8dd8de6e6563087", "bike_id": "fbd620b103c42da1d8dd8de6e6563087", "is_disabled": 0, "fusion_lon": 0.0, "type": "electric_scooter", "lon": -77.0417895}, {"rental_uris": {"android": "https://dc.lft.to/lastmile_qr_scan", "ios": "https://dc.lft.to/lastmile_qr_scan"}, "fusion_lat": 0.0, "is_reserved": 0, "lat": 38.91116616666667, "name": "20be440d507d7d378abe391e4a6841ce", "bike_id": "20be440d507d7d378abe391e4a6841ce", "is_disabled": 0, "fusion_lon": 0.0, "type": "electric_scooter", "lon": -77.00358316666667}, {"rental_uris": {"android": "https://dc.lft.to/lastmile_qr_scan", "ios": "https://dc.lft.to/lastmile_qr_scan"}, "fusion_lat": 0.0, "is_reserved": 0, "lat": 38.9149785, "name": "404ce300cd055512bef0ece2eb6bb4d4", "bike_id": "404ce300cd055512bef0ece2eb6bb4d4", "is_disabled": 0, "fusion_lon": 0.0, "type": "electric_scooter", "lon": -77.04463133333333}, {"rental_uris": {"android": "https://dc.lft.to/lastmile_qr_scan", "ios": "https://dc.lft.to/lastmile_qr_scan"}, "fusion_lat": 0.0, "is_reserved": 0, "lat": 38.916411, "name": "3b0ccbef32c4aedfdd6a56fb2478f3f8", "bike_id": "3b0ccbef32c4aedfdd6a56fb2478f3f8", "is_disabled": 0, "fusion_lon": 0.0, "type": "electric_scooter", "lon": -77.04816933333333}, {"rental_uris": {"android": "https://dc.lft.to/lastmile_qr_scan", "ios": "https://dc.lft.to/lastmile_qr_scan"}, "fusion_lat": 0.0, "is_reserved": 0, "lat": 38.918076166666665, "name": "0c21027863c0e3a885810faa3c22d106", "bike_id": "0c21027863c0e3a885810faa3c22d106", "is_disabled": 0, "fusion_lon": 0.0, "type": "electric_scooter", "lon": -77.03302733333334}, {"rental_uris": {"android": "https://dc.lft.to/lastmile_qr_scan", "ios": "https://dc.lft.to/lastmile_qr_scan"}, "fusion_lat": 0.0, "is_reserved": 0, "lat": 38.920758666666664, "name": "4f867542eb3a7ca7703f54999ce66228", "bike_id": "4f867542eb3a7ca7703f54999ce66228", "is_disabled": 0, "fusion_lon": 0.0, "type": "electric_scooter", "lon": -77.02320516666667}, {"rental_uris": {"android": "https://dc.lft.to/lastmile_qr_scan", "ios": "https://dc.lft.to/lastmile_qr_scan"}, "fusion_lat": 0.0, "is_reserved": 0, "lat": 38.913325, "name": "73a7028f9fdb94e1cd2ba53be702a9bb", "bike_id": "73a7028f9fdb94e1cd2ba53be702a9bb", "is_disabled": 0, "fusion_lon": 0.0, "type": "electric_scooter", "lon": -77.0115015}, {"rental_uris": {"android": "https://dc.lft.to/lastmile_qr_scan", "ios": "https://dc.lft.to/lastmile_qr_scan"}, "fusion_lat": 0.0, "is_reserved": 0, "lat": 38.942041833333334, "name": "cd4176db32af7bdc498e7eaeaab3be6e", "bike_id": "cd4176db32af7bdc498e7eaeaab3be6e", "is_disabled": 0, "fusion_lon": 0.0, "type": "electric_scooter", "lon": -77.0237565}, {"rental_uris": {"android": "https://dc.lft.to/lastmile_qr_scan", "ios": "https://dc.lft.to/lastmile_qr_scan"}, "fusion_lat": 0.0, "is_reserved": 0, "lat": 38.90466833333333, "name": "124b3673a8d9ce8000ad58190d40f624", "bike_id": "124b3673a8d9ce8000ad58190d40f624", "is_disabled": 0, "fusion_lon": 0.0, "type": "electric_scooter", "lon": -77.03560916666666}, {"rental_uris": {"android": "https://dc.lft.to/lastmile_qr_scan", "ios": "https://dc.lft.to/lastmile_qr_scan"}, "fusion_lat": 0.0, "is_reserved": 0, "lat": 38.910349833333335, "name": "fc864456844dfee7195d545564c844e8", "bike_id": "fc864456844dfee7195d545564c844e8", "is_disabled": 0, "fusion_lon": 0.0, "type": "electric_scooter", "lon": -77.0292825}, {"rental_uris": {"android": "https://dc.lft.to/lastmile_qr_scan", "ios": "https://dc.lft.to/lastmile_qr_scan"}, "fusion_lat": 0.0, "is_reserved": 0, "lat": 38.897398333333335, "name": "b0a8c8f3b336e4619d7f925e78b81877", "bike_id": "b0a8c8f3b336e4619d7f925e78b81877", "is_disabled": 0, "fusion_lon": 0.0, "type": "electric_scooter", "lon": -77.05522366666666}, {"rental_uris": {"android": "https://dc.lft.to/lastmile_qr_scan", "ios": "https://dc.lft.to/lastmile_qr_scan"}, "fusion_lat": 0.0, "is_reserved": 0, "lat": 38.932647, "name": "79a0dd0399ad776ad38ef3bf6e6630d3", "bike_id": "79a0dd0399ad776ad38ef3bf6e6630d3", "is_disabled": 0, "fusion_lon": 0.0, "type": "electric_scooter", "lon": -77.02094366666667}, {"rental_uris": {"android": "https://dc.lft.to/lastmile_qr_scan", "ios": "https://dc.lft.to/lastmile_qr_scan"}, "fusion_lat": 0.0, "is_reserved": 0, "lat": 38.902757333333334, "name": "f979c0666d3ff1ddfb4ded8c4bd9bf77", "bike_id": "f979c0666d3ff1ddfb4ded8c4bd9bf77", "is_disabled": 0, "fusion_lon": 0.0, "type": "electric_scooter", "lon": -77.01848416666667}, {"rental_uris": {"android": "https://dc.lft.to/lastmile_qr_scan", "ios": "https://dc.lft.to/lastmile_qr_scan"}, "fusion_lat": 0.0, "is_reserved": 0, "lat": 38.905724166666666, "name": "a62004044617a7393b641f1486f4ebd2", "bike_id": "a62004044617a7393b641f1486f4ebd2", "is_disabled": 0, "fusion_lon": 0.0, "type": "electric_scooter", "lon": -77.0467655}, {"rental_uris": {"android": "https://dc.lft.to/lastmile_qr_scan", "ios": "https://dc.lft.to/lastmile_qr_scan"}, "fusion_lat": 0.0, "is_reserved": 0, "lat": 38.90436433333333, "name": "07bb31e29fb488aded5cd28d23c3df22", "bike_id": "07bb31e29fb488aded5cd28d23c3df22", "is_disabled": 0, "fusion_lon": 0.0, "type": "electric_scooter", "lon": -77.01821616666666}, {"rental_uris": {"android": "https://dc.lft.to/lastmile_qr_scan", "ios": "https://dc.lft.to/lastmile_qr_scan"}, "fusion_lat": 0.0, "is_reserved": 0, "lat": 38.913521833333334, "name": "451bde85cd99c3ae10091209fd4ea8ec", "bike_id": "451bde85cd99c3ae10091209fd4ea8ec", "is_disabled": 0, "fusion_lon": 0.0, "type": "electric_scooter", "lon": -77.03354066666667}, {"rental_uris": {"android": "https://dc.lft.to/lastmile_qr_scan", "ios": "https://dc.lft.to/lastmile_qr_scan"}, "fusion_lat": 0.0, "is_reserved": 0, "lat": 38.92122666666667, "name": "535baece4039f9f12283ca03ab4cf837", "bike_id": "535baece4039f9f12283ca03ab4cf837", "is_disabled": 0, "fusion_lon": 0.0, "type": "electric_scooter", "lon": -77.03663683333333}, {"rental_uris": {"android": "https://dc.lft.to/lastmile_qr_scan", "ios": "https://dc.lft.to/lastmile_qr_scan"}, "fusion_lat": 0.0, "is_reserved": 0, "lat": 38.902637166666665, "name": "d0266ebc4a5cb32dc9c8183e449927a0", "bike_id": "d0266ebc4a5cb32dc9c8183e449927a0", "is_disabled": 0, "fusion_lon": 0.0, "type": "electric_scooter", "lon": -77.026411}, {"rental_uris": {"android": "https://dc.lft.to/lastmile_qr_scan", "ios": "https://dc.lft.to/lastmile_qr_scan"}, "fusion_lat": 0.0, "is_reserved": 0, "lat": 38.943103666666666, "name": "5d1713feb2d47e3d21f477ca0c3572b4", "bike_id": "5d1713feb2d47e3d21f477ca0c3572b4", "is_disabled": 0, "fusion_lon": 0.0, "type": "electric_scooter", "lon": -77.02179883333334}, {"rental_uris": {"android": "https://dc.lft.to/lastmile_qr_scan", "ios": "https://dc.lft.to/lastmile_qr_scan"}, "fusion_lat": 0.0, "is_reserved": 0, "lat": 38.9496635, "name": "3c7797d8174f7b0708e9bd90a8ee4d2a", "bike_id": "3c7797d8174f7b0708e9bd90a8ee4d2a", "is_disabled": 0, "fusion_lon": 0.0, "type": "electric_scooter", "lon": -77.02342716666666}, {"rental_uris": {"android": "https://dc.lft.to/lastmile_qr_scan", "ios": "https://dc.lft.to/lastmile_qr_scan"}, "fusion_lat": 0.0, "is_reserved": 0, "lat": 38.898817333333334, "name": "3bf40731fb50abe6337fae1a9c4b1d55", "bike_id": "3bf40731fb50abe6337fae1a9c4b1d55", "is_disabled": 0, "fusion_lon": 0.0, "type": "electric_scooter", "lon": -77.052852}, {"rental_uris": {"android": "https://dc.lft.to/lastmile_qr_scan", "ios": "https://dc.lft.to/lastmile_qr_scan"}, "fusion_lat": 0.0, "is_reserved": 0, "lat": 38.896176833333335, "name": "12ffefbd18946a1604e92275ea8deb30", "bike_id": "12ffefbd18946a1604e92275ea8deb30", "is_disabled": 0, "fusion_lon": 0.0, "type": "electric_scooter", "lon": -77.0446695}, {"rental_uris": {"android": "https://dc.lft.to/lastmile_qr_scan", "ios": "https://dc.lft.to/lastmile_qr_scan"}, "fusion_lat": 0.0, "is_reserved": 0, "lat": 38.9234995, "name": "d2bed476c56064d215c80439acf29812", "bike_id": "d2bed476c56064d215c80439acf29812", "is_disabled": 0, "fusion_lon": 0.0, "type": "electric_scooter", "lon": -77.02443033333333}, {"rental_uris": {"android": "https://dc.lft.to/lastmile_qr_scan", "ios": "https://dc.lft.to/lastmile_qr_scan"}, "fusion_lat": 0.0, "is_reserved": 0, "lat": 38.911192666666665, "name": "487ab52c3561d1c10cc490b6de4abdee", "bike_id": "487ab52c3561d1c10cc490b6de4abdee", "is_disabled": 0, "fusion_lon": 0.0, "type": "electric_scooter", "lon": -77.03836216666667}, {"rental_uris": {"android": "https://dc.lft.to/lastmile_qr_scan", "ios": "https://dc.lft.to/lastmile_qr_scan"}, "fusion_lat": 0.0, "is_reserved": 0, "lat": 38.90584066666667, "name": "a6ac928d01154f0dcdb5011a89d3ba63", "bike_id": "a6ac928d01154f0dcdb5011a89d3ba63", "is_disabled": 0, "fusion_lon": 0.0, "type": "electric_scooter", "lon": -77.0418925}, {"rental_uris": {"android": "https://dc.lft.to/lastmile_qr_scan", "ios": "https://dc.lft.to/lastmile_qr_scan"}, "fusion_lat": 0.0, "is_reserved": 0, "lat": 38.907113, "name": "386ea5bf9dee520d34d0f45f8b0e9ec2", "bike_id": "386ea5bf9dee520d34d0f45f8b0e9ec2", "is_disabled": 0, "fusion_lon": 0.0, "type": "electric_scooter", "lon": -77.02387583333334}, {"rental_uris": {"android": "https://dc.lft.to/lastmile_qr_scan", "ios": "https://dc.lft.to/lastmile_qr_scan"}, "fusion_lat": 0.0, "is_reserved": 0, "lat": 38.92316066666667, "name": "805d76deb41bb028cf258e3061449104", "bike_id": "805d76deb41bb028cf258e3061449104", "is_disabled": 0, "fusion_lon": 0.0, "type": "electric_scooter", "lon": -77.02891816666667}, {"rental_uris": {"android": "https://dc.lft.to/lastmile_qr_scan", "ios": "https://dc.lft.to/lastmile_qr_scan"}, "fusion_lat": 0.0, "is_reserved": 0, "lat": 38.907228333333336, "name": "0431b3d0b1511df37ae329e3634c619f", "bike_id": "0431b3d0b1511df37ae329e3634c619f", "is_disabled": 0, "fusion_lon": 0.0, "type": "electric_scooter", "lon": -77.02798366666667}, {"rental_uris": {"android": "https://dc.lft.to/lastmile_qr_scan", "ios": "https://dc.lft.to/lastmile_qr_scan"}, "fusion_lat": 0.0, "is_reserved": 0, "lat": 38.900721833333336, "name": "06ea2ffd777628baa5df26d723dff8cd", "bike_id": "06ea2ffd777628baa5df26d723dff8cd", "is_disabled": 0, "fusion_lon": 0.0, "type": "electric_scooter", "lon": -77.02711233333333}, {"rental_uris": {"android": "https://dc.lft.to/lastmile_qr_scan", "ios": "https://dc.lft.to/lastmile_qr_scan"}, "fusion_lat": 0.0, "is_reserved": 0, "lat": 38.91339416666667, "name": "31009e86d1015fb53fc10f7b8b53ff40", "bike_id": "31009e86d1015fb53fc10f7b8b53ff40", "is_disabled": 0, "fusion_lon": 0.0, "type": "electric_scooter", "lon": -77.03193116666667}, {"rental_uris": {"android": "https://dc.lft.to/lastmile_qr_scan", "ios": "https://dc.lft.to/lastmile_qr_scan"}, "fusion_lat": 0.0, "is_reserved": 0, "lat": 38.914039333333335, "name": "1b6f542bf373170c34582d1ea4e53091", "bike_id": "1b6f542bf373170c34582d1ea4e53091", "is_disabled": 0, "fusion_lon": 0.0, "type": "electric_scooter", "lon": -77.0317205}, {"rental_uris": {"android": "https://dc.lft.to/lastmile_qr_scan", "ios": "https://dc.lft.to/lastmile_qr_scan"}, "fusion_lat": 0.0, "is_reserved": 0, "lat": 38.9178215, "name": "37baf0316ec3ee58928ba2452c5e875b", "bike_id": "37baf0316ec3ee58928ba2452c5e875b", "is_disabled": 0, "fusion_lon": 0.0, "type": "electric_scooter", "lon": -77.03448216666666}, {"rental_uris": {"android": "https://dc.lft.to/lastmile_qr_scan", "ios": "https://dc.lft.to/lastmile_qr_scan"}, "fusion_lat": 0.0, "is_reserved": 0, "lat": 38.89410866666667, "name": "cf990a0a60a0a4ce7322a38970756a81", "bike_id": "cf990a0a60a0a4ce7322a38970756a81", "is_disabled": 0, "fusion_lon": 0.0, "type": "electric_scooter", "lon": -77.02322733333334},