{"data": {"bikes": [{"type": "electric_bike", "rental_uris": {"ios": "https://dc.lft.to/lastmile_qr_scan", "android": "https://dc.lft.to/lastmile_qr_scan"}, "lon": -77.0373565, "fusion_lon": 0.0, "is_disabled": 0, "lat": 38.920295, "bike_id": "6ee4a500f4ccedd92c1699d52f7058d6", "name": "6ee4a500f4ccedd92c1699d52f7058d6", "is_reserved": 0, "fusion_lat": 0.0}, {"type": "electric_scooter", "rental_uris": {"ios": "https://dc.lft.to/lastmile_qr_scan", "android": "https://dc.lft.to/lastmile_qr_scan"}, "lon": -77.04650166666667, "fusion_lon": 0.0, "is_disabled": 0, "lat": 38.89223333333333, "bike_id": "98fdeaa2f09408313258bdc01ac2ca9c", "name": "98fdeaa2f09408313258bdc01ac2ca9c", "is_reserved": 0, "fusion_lat": 0.0}, {"type": "electric_scooter", "rental_uris": {"ios": "https://dc.lft.to/lastmile_qr_scan", "android": "https://dc.lft.to/lastmile_qr_scan"}, "lon": -77.0385375, "fusion_lon": 0.0, "is_disabled": 0, "lat": 38.91168016666666, "bike_id": "d1875df808094cf84d9eac711c0e96c0", "name": "d1875df808094cf84d9eac711c0e96c0", "is_reserved": 0, "fusion_lat": 0.0}, {"type": "electric_scooter", "rental_uris": {"ios": "https://dc.lft.to/lastmile_qr_scan", "android": "https://dc.lft.to/lastmile_qr_scan"}, "lon": -77.0255785, "fusion_lon": 0.0, "is_disabled": 0, "lat": 38.92429166666667, "bike_id": "193d3c31c2289554d05beefc11dc1fb0", "name": "193d3c31c2289554d05beefc11dc1fb0", "is_reserved": 0, "fusion_lat": 0.0}, {"type": "electric_scooter", "rental_uris": {"ios": "https://dc.lft.to/lastmile_qr_scan", "android": "https://dc.lft.to/lastmile_qr_scan"}, "lon": -77.01224783333333, "fusion_lon": 0.0, "is_disabled": 0, "lat": 38.91498583333333, "bike_id": "4a36d58c5c4fb9f54b8088a0ee666347", "name": "4a36d58c5c4fb9f54b8088a0ee666347", "is_reserved": 0, "fusion_lat": 0.0}, {"type": "electric_scooter", "rental_uris": {"ios": "https://dc.lft.to/lastmile_qr_scan", "android": "https://dc.lft.to/lastmile_qr_scan"}, "lon": -77.05471566666667, "fusion_lon": 0.0, "is_disabled": 0, "lat": 38.89607683333333, "bike_id": "4b9f65a37e76db8c20e56d4b3a38154a", "name": "4b9f65a37e76db8c20e56d4b3a38154a", "is_reserved": 0, "fusion_lat": 0.0}, {"type": "electric_scooter", "rental_uris": {"ios": "https://dc.lft.to/lastmile_qr_scan", "android": "https://dc.lft.to/lastmile_qr_scan"}, "lon": -77.04897116666666, "fusion_lon": 0.0, "is_disabled": 0, "lat": 38.89223416666667, "bike_id": "e6382f572c856aab68d91e8e998da2bf", "name": "e6382f572c856aab68d91e8e998da2bf", "is_reserved": 0, "fusion_lat": 0.0}, {"type": "electric_scooter", "rental_uris": {"ios": "https://dc.lft.to/lastmile_qr_scan", "android": "https://dc.lft.to/lastmile_qr_scan"}, "lon": -77.02283383333334, "fusion_lon": 0.0, "is_disabled": 0, "lat": 38.924276166666665, "bike_id": "d0752b0a1f4f540d1c92d1e9886bfde8", "name": "d0752b0a1f4f540d1c92d1e9886bfde8", "is_reserved": 0, "fusion_lat": 0.0}, {"type": "electric_scooter", "rental_uris": {"ios": "https://dc.lft.to/lastmile_qr_scan", "android": "https://dc.lft.to/lastmile_qr_scan"}, "lon": -77.025003, "fusion_lon": 0.0, "is_disabled": 0, "lat": 38.9197605, "bike_id": "e6819221d9913e6257d62ce385374439", "name": "e6819221d9913e6257d62ce385374439", "is_reserved": 0, "fusion_lat": 0.0}, {"type": "electric_scooter", "rental_uris": {"ios": "https://dc.lft.to/lastmile_qr_scan", "android": "https://dc.lft.to/lastmile_qr_scan"}, "lon": -77.0576165, "fusion_lon": 0.0, "is_disabled": 0, "lat": 38.92455133333333, "bike_id": "f4574e1eb6e6ca1a666f6acba030bc0d", "name": "f4574e1eb6e6ca1a666f6acba030bc0d", "is_reserved": 0, "fusion_lat": 0.0}, {"type": "electric_scooter", "rental_uris": {"ios": "https://dc.lft.to/lastmile_qr_scan", "android": "https://dc.lft.to/lastmile_qr_scan"}, "lon": -77.03911666666667, "fusion_lon": 0.0, "is_disabled": 0, "lat": 38.92471833333333, "bike_id": "54ee9f8b29493a946e2dd4043273d982", "name": "54ee9f8b29493a946e2dd4043273d982", "is_reserved": 0, "fusion_lat": 0.0}, {"type": "electric_scooter", "rental_uris": {"ios": "https://dc.lft.to/lastmile_qr_scan", "android": "https://dc.lft.to/lastmile_qr_scan"}, "lon": -76.99495883333333, "fusion_lon": 0.0, "is_disabled": 0, "lat": 38.862428666666666, "bike_id": "08a66777f184791a924fafbb2efd9f5d", "name": "08a66777f184791a924fafbb2efd9f5d", "is_reserved": 0, "fusion_lat": 0.0}, {"type": "electric_scooter", "rental_uris": {"ios": "https://dc.lft.to/lastmile_qr_scan", "android": "https://dc.lft.to/lastmile_qr_scan"}, "lon": -77.0363965, "fusion_lon": 0.0, "is_disabled": 0, "lat": 38.91680233333334, "bike_id": "11b36f10c33917c2a5edaa914c110096", "name": "11b36f10c33917c2a5edaa914c110096", "is_reserved": 0, "fusion_lat": 0.0}, {"type": "electric_scooter", "rental_uris": {"ios": "https://dc.lft.to/lastmile_qr_scan", "android": "https://dc.lft.to/lastmile_qr_scan"}, "lon": -76.99582466666666, "fusion_lon": 0.0, "is_disabled": 0, "lat": 38.851758833333335, "bike_id": "e9202235aaa43fec85a0c2d0ace3248e", "name": "e9202235aaa43fec85a0c2d0ace3248e", "is_reserved": 0, "fusion_lat": 0.0}, {"type": "electric_scooter", "rental_uris": {"ios": "https://dc.lft.to/lastmile_qr_scan", "android": "https://dc.lft.to/lastmile_qr_scan"}, "lon": -77.0387715, "fusion_lon": 0.0, "is_disabled": 0, "lat": 38.910371166666664, "bike_id": "4b74f2db92a45a775746460680558e3b", "name": "4b74f2db92a45a775746460680558e3b", "is_reserved": 0, "fusion_lat": 0.0}, {"type": "electric_scooter", "rental_uris": {"ios": "https://dc.lft.to/lastmile_qr_scan", "android": "https://dc.lft.to/lastmile_qr_scan"}, "lon": -76.9851855, "fusion_lon": 0.0, "is_disabled": 0, "lat": 38.915493833333336, "bike_id": "a517e93be835e59115ab24f07119894e", "name": "a517e93be835e59115ab24f07119894e", "is_reserved": 0, "fusion_lat": 0.0}, {"type": "electric_scooter", "rental_uris": {"ios": "https://dc.lft.to/lastmile_qr_scan", "android": "https://dc.lft.to/lastmile_qr_scan"}, "lon": -77.02985566666666, "fusion_lon": 0.0, "is_disabled": 0, "lat": 38.905077166666665, "bike_id": "4ca85f4d81ce2af9978a197143c12406", "name": "4ca85f4d81ce2af9978a197143c12406", "is_reserved": 0, "fusion_lat": 0.0}, {"type": "electric_scooter", "rental_uris": {"ios": "https://dc.lft.to/lastmile_qr_scan", "android": "https://dc.lft.to/lastmile_qr_scan"}, "lon": -77.05023166666666, "fusion_lon": 0.0, "is_disabled": 0, "lat": 38.906658666666665, "bike_id": "c878b7219bbac7cbb7487090655a304c", "name": "c878b7219bbac7cbb7487090655a304c", "is_reserved": 0, "fusion_lat": 0.0}, {"type": "electric_scooter", "rental_uris": {"ios": "https://dc.lft.to/lastmile_qr_scan", "android": "https://dc.lft.to/lastmile_qr_scan"}, "lon": -77.017754, "fusion_lon": 0.0, "is_disabled": 0, "lat": 38.881355666666664, "bike_id": "af944583553f5e886d85b879f30f5278", "name": "af944583553f5e886d85b879f30f5278", "is_reserved": 0, "fusion_lat": 0.0}, {"type": "electric_scooter", "rental_uris": {"ios": "https://dc.lft.to/lastmile_qr_scan", "android": "https://dc.lft.to/lastmile_qr_scan"}, "lon": -77.02822733333333, "fusion_lon": 0.0, "is_disabled": 0, "lat": 38.88732366666667, "bike_id": "8e5bea097dbee06454b9d4e29a257ec3", "name": "8e5bea097dbee06454b9d4e29a257ec3", "is_reserved": 0, "fusion_lat": 0.0}, {"type": "electric_scooter", "rental_uris": {"ios": "https://dc.lft.to/lastmile_qr_scan", "android": "https://dc.lft.to/lastmile_qr_scan"}, "lon": -77.04203566666666, "fusion_lon": 0.0, "is_disabled": 0, "lat": 38.920427833333335, "bike_id": "aa4c629d31c4d64ee571dc2c07b511a8", "name": "aa4c629d31c4d64ee571dc2c07b511a8", "is_reserved": 0, "fusion_lat": 0.0}, {"type": "electric_scooter", "rental_uris": {"ios": "https://dc.lft.to/lastmile_qr_scan", "android": "https://dc.lft.to/lastmile_qr_scan"}, "lon": -77.02088916666666, "fusion_lon": 0.0, "is_disabled": 0, "lat": 38.931167, "bike_id": "21b09782d8b347664de1040888363a69", "name": "21b09782d8b347664de1040888363a69", "is_reserved": 0, "fusion_lat": 0.0}, {"type": "electric_scooter", "rental_uris": {"ios": "https://dc.lft.to/lastmile_qr_scan", "android": "https://dc.lft.to/lastmile_qr_scan"}, "lon": -77.03267283333334, "fusion_lon": 0.0, "is_disabled": 0, "lat": 38.92941, "bike_id": "b478a09837e1cbfb355d20e3ceda99df", "name": "b478a09837e1cbfb355d20e3ceda99df", "is_reserved": 0, "fusion_lat": 0.0}, {"type": "electric_scooter", "rental_uris": {"ios": "https://dc.lft.to/lastmile_qr_scan", "android": "https://dc.lft.to/lastmile_qr_scan"}, "lon": -77.031872, "fusion_lon": 0.0, "is_disabled": 0, "lat": 38.9174045, "bike_id": "8fedd955e67717a2a9a9de3e7b837134", "name": "8fedd955e67717a2a9a9de3e7b837134", "is_reserved": 0, "fusion_lat": 0.0}, {"type": "electric_scooter", "rental_uris": {"ios": "https://dc.lft.to/lastmile_qr_scan", "android": "https://dc.lft.to/lastmile_qr_scan"}, "lon": -77.03696583333333, "fusion_lon": 0.0, "is_disabled": 0, "lat": 38.91676316666667, "bike_id": "cd9d81f8398408b883819515a5a00ec4", "name": "cd9d81f8398408b883819515a5a00ec4", "is_reserved": 0, "fusion_lat": 0.0}, {"type": "electric_scooter", "rental_uris": {"ios": "https://dc.lft.to/lastmile_qr_scan", "android": "https://dc.lft.to/lastmile_qr_scan"}, "lon": -77.04247366666667, "fusion_lon": 0.0, "is_disabled": 0, "lat": 38.92221333333333, "bike_id": "9dce4e58ec657337bbae0aca83e244a8", "name": "9dce4e58ec657337bbae0aca83e244a8", "is_reserved": 0, "fusion_lat": 0.0}, {"type": "electric_scooter", "rental_uris": {"ios": "https://dc.lft.to/lastmile_qr_scan", "android": "https://dc.lft.to/lastmile_qr_scan"}, "lon": -76.98728333333334, "fusion_lon": 0.0, "is_disabled": 0, "lat": 38.867112166666665, "bike_id": "288ce941a481cf36d32743f3b95937d4", "name": "288ce941a481cf36d32743f3b95937d4", "is_reserved": 0, "fusion_lat": 0.0}, {"type": "electric_scooter", "rental_uris": {"ios": "https://dc.lft.to/lastmile_qr_scan", "android": "https://dc.lft.to/lastmile_qr_scan"}, "lon": -77.02666533333333, "fusion_lon": 0.0, "is_disabled": 0, "lat": 38.91706816666667, "bike_id": "8e35f8532276443218eb0a065eaea3d0", "name": "8e35f8532276443218eb0a065eaea3d0", "is_reserved": 0, "fusion_lat": 0.0}, {"type": "electric_scooter", "rental_uris": {"ios": "https://dc.lft.to/lastmile_qr_scan", "android": "https://dc.lft.to/lastmile_qr_scan"}, "lon": -77.03180866666666, "fusion_lon": 0.0, "is_disabled": 0, "lat": 38.897620333333336, "bike_id": "778ab0c4ed01f9025a64f6a98b5b457f", "name": "778ab0c4ed01f9025a64f6a98b5b457f", "is_reserved": 0, "fusion_lat": 0.0}, {"type": "electric_scooter", "rental_uris": {"ios": "https://dc.lft.to/lastmile_qr_scan", "android": "https://dc.lft.to/lastmile_qr_scan"}, "lon": -77.03626066666666, "fusion_lon": 0.0, "is_disabled": 0, "lat": 38.93682483333333, "bike_id": "444c20589b64eeebe289f70ee276743a", "name": "444c20589b64eeebe289f70ee276743a", "is_reserved": 0, "fusion_lat": 0.0}, {"type": "electric_scooter", "rental_uris": {"ios": "https://dc.lft.to/lastmile_qr_scan", "android": "https://dc.lft.to/lastmile_qr_scan"}, "lon": -77.04936, "fusion_lon": 0.0, "is_disabled": 0, "lat": 38.900986, "bike_id": "0189889bace4cea78980c659cc52f042", "name": "0189889bace4cea78980c659cc52f042", "is_reserved": 0, "fusion_lat": 0.0}, {"type": "electric_scooter", "rental_uris": {"ios": "https://dc.lft.to/lastmile_qr_scan", "android": "https://dc.lft.to/lastmile_qr_scan"}, "lon": -76.94636416666667, "fusion_lon": 0.0, "is_disabled": 0, "lat": 38.898429666666665, "bike_id": "a8dffa749b658f6bc3b36ae0052fcd78", "name": "a8dffa749b658f6bc3b36ae0052fcd78", "is_reserved": 0, "fusion_lat": 0.0}, {"type": "electric_scooter", "rental_uris": {"ios": "https://dc.lft.to/lastmile_qr_scan", "android": "https://dc.lft.to/lastmile_qr_scan"}, "lon": -77.04593933333334, "fusion_lon": 0.0, "is_disabled": 0, "lat": 38.918603833333336, "bike_id": "6418962968f56c57284ae8893e224a33", "name": "6418962968f56c57284ae8893e224a33", "is_reserved": 0, "fusion_lat": 0.0}, {"type": "electric_scooter", "rental_uris": {"ios": "https://dc.lft.to/lastmile_qr_scan", "android": "https://dc.lft.to/lastmile_qr_scan"}, "lon": -77.02759016666667, "fusion_lon": 0.0, "is_disabled": 0, "lat": 38.957815833333335, "bike_id": "a97f85714ec96038eaa282fbb1426f37", "name": "a97f85714ec96038eaa282fbb1426f37", "is_reserved": 0, "fusion_lat": 0.0}, {"type": "electric_scooter", "rental_uris": {"ios": "https://dc.lft.to/lastmile_qr_scan", "android": "https://dc.lft.to/lastmile_qr_scan"}, "lon": -77.0456665, "fusion_lon": 0.0, "is_disabled": 0, "lat": 38.90474316666667, "bike_id": "814fb7c8a4145a4c8d991547c6c76ddf", "name": "814fb7c8a4145a4c8d991547c6c76ddf", "is_reserved": 0, "fusion_lat": 0.0}, {"type": "electric_scooter", "rental_uris": {"ios": "https://dc.lft.to/lastmile_qr_scan", "android": "https://dc.lft.to/lastmile_qr_scan"}, "lon": -77.0522985, "fusion_lon": 0.0, "is_disabled": 0, "lat": 38.924698666666664, "bike_id": "07acc8be3cf212f56d6aaa9996b0de43", "name": "07acc8be3cf212f56d6aaa9996b0de43", "is_reserved": 0, "fusion_lat": 0.0}, {"type": "electric_bike", "rental_uris": {"ios": "https://dc.lft.to/lastmile_qr_scan", "android": "https://dc.lft.to/lastmile_qr_scan"}, "lon": -76.98689016666667, "fusion_lon": 0.0, "is_disabled": 0, "lat": 38.94476, "bike_id": "f14a768c63b934d7a0a38b635843a7f4", "name": "f14a768c63b934d7a0a38b635843a7f4", "is_reserved": 0, "fusion_lat": 0.0}, {"type": "electric_scooter", "rental_uris": {"ios": "https://dc.lft.to/lastmile_qr_scan", "android": "https://dc.lft.to/lastmile_qr_scan"}, "lon": -77.02981633333333, "fusion_lon": 0.0, "is_disabled": 0, "lat": 38.922392, "bike_id": "c7bcfef1430aec5cf8017d5559f842fc", "name": "c7bcfef1430aec5cf8017d5559f842fc", "is_reserved": 0, "fusion_lat": 0.0}, {"type": "electric_scooter", "rental_uris": {"ios": "https://dc.lft.to/lastmile_qr_scan", "android": "https://dc.lft.to/lastmile_qr_scan"}, "lon": -76.95757333333333, "fusion_lon": 0.0, "is_disabled": 0, "lat": 38.88432016666667, "bike_id": "8a9ffb122b69b040ec104a9b2d80ac40", "name": "8a9ffb122b69b040ec104a9b2d80ac40", "is_reserved": 0, "fusion_lat": 0.0}, {"type": "electric_scooter", "rental_uris": {"ios": "https://dc.lft.to/lastmile_qr_scan", "android": "https://dc.lft.to/lastmile_qr_scan"}, "lon": -77.0243035, "fusion_lon": 0.0, "is_disabled": 0, "lat": 38.92754716666666, "bike_id": "891f55e4e85eaec925873c6cd1da674d", "name": "891f55e4e85eaec925873c6cd1da674d", "is_reserved": 0, "fusion_lat": 0.0}, {"type": "electric_scooter", "rental_uris": {"ios": "https://dc.lft.to/lastmile_qr_scan", "android": "https://dc.lft.to/lastmile_qr_scan"}, "lon": -77.02179866666667, "fusion_lon": 0.0, "is_disabled": 0, "lat": 38.892983666666666, "bike_id": "4c2634a6cdcc7c28008230a8501ca25e", "name": "4c2634a6cdcc7c28008230a8501ca25e", "is_reserved": 0, "fusion_lat": 0.0}, {"type": "electric_scooter", "rental_uris": {"ios": "https://dc.lft.to/lastmile_qr_scan", "android": "https://dc.lft.to/lastmile_qr_scan"}, "lon": -77.03425666666666, "fusion_lon": 0.0, "is_disabled": 0, "lat": 38.909778333333335, "bike_id": "a5a3de167f49ba4c00aaff6ded3a6e60", "name": "a5a3de167f49ba4c00aaff6ded3a6e60", "is_reserved": 0, "fusion_lat": 0.0}, {"type": "electric_scooter", "rental_uris": {"ios": "https://dc.lft.to/lastmile_qr_scan", "android": "https://dc.lft.to/lastmile_qr_scan"}, "lon": -77.0326855, "fusion_lon": 0.0, "is_disabled": 0, "lat": 38.91989233333334, "bike_id": "5d2e775af4ae44c109d3f9c666423c61", "name": "5d2e775af4ae44c109d3f9c666423c61", "is_reserved": 0, "fusion_lat": 0.0}, {"type": "electric_scooter", "rental_uris": {"ios": "https://dc.lft.to/lastmile_qr_scan", "android": "https://dc.lft.to/lastmile_qr_scan"}, "lon": -77.0317795, "fusion_lon": 0.0, "is_disabled": 0, "lat": 38.9141485, "bike_id": "14250870d2c4f546b2816e762c68feb1", "name": "14250870d2c4f546b2816e762c68feb1", "is_reserved": 0, "fusion_lat": 0.0}, {"type": "electric_scooter", "rental_uris": {"ios": "https://dc.lft.to/lastmile_qr_scan", "android": "https://dc.lft.to/lastmile_qr_scan"}, "lon": -76.99168966666667, "fusion_lon": 0.0, "is_disabled": 0, "lat": 38.85954133333333, "bike_id": "7f335feb31b2cf1725a12c197d5e8583", "name": "7f335feb31b2cf1725a12c197d5e8583", "is_reserved": 0, "fusion_lat": 0.0}, {"type": "electric_scooter", "rental_uris": {"ios": "https://dc.lft.to/lastmile_qr_scan", "android": "https://dc.lft.to/lastmile_qr_scan"}, "lon": -76.951335, "fusion_lon": 0.0, "is_disabled": 0, "lat": 38.86544833333333, "bike_id": "96431c13540e460da1747f53b154f0e8", "name": "96431c13540e460da1747f53b154f0e8", "is_reserved": 0, "fusion_lat": 0.0}, {"type": "electric_scooter", "rental_uris": {"ios": "https://dc.lft.to/lastmile_qr_scan", "android": "https://dc.lft.to/lastmile_qr_scan"}, "lon": -77.03660366666666, "fusion_lon": 0.0, "is_disabled": 0, "lat": 38.917222333333335, "bike_id": "0542a66cd068c69c43b1ea3ae9238a33", "name": "0542a66cd068c69c43b1ea3ae9238a33", "is_reserved": 0, "fusion_lat": 0.0}, {"type": "electric_scooter", "rental_uris": {"ios": "https://dc.lft.to/lastmile_qr_scan", "android": "https://dc.lft.to/lastmile_qr_scan"}, "lon": -77.00163816666667, "fusion_lon": 0.0, "is_disabled": 0, "lat": 38.90140316666667, "bike_id": "f88e35555e40e3657e06af20b4f4ba77", "name": "f88e35555e40e3657e06af20b4f4ba77", "is_reserved": 0, "fusion_lat": 0.0}, {"type": "electric_scooter", "rental_uris": {"ios": "https://dc.lft.to/lastmile_qr_scan", "android": "https://dc.lft.to/lastmile_qr_scan"}, "lon": -77.04336483333333, "fusion_lon": 0.0, "is_disabled": 0, "lat": 38.8922375, "bike_id": "ea90e81b0ac8c15767b772d9ea8b5e18", "name": "ea90e81b0ac8c15767b772d9ea8b5e18", "is_reserved": 0, "fusion_lat": 0.0}, {"type": "electric_scooter", "rental_uris": {"ios": "https://dc.lft.to/lastmile_qr_scan", "android": "https://dc.lft.to/lastmile_qr_scan"}, "lon": -77.00453533333334, "fusion_lon": 0.0, "is_disabled": 0, "lat": 38.8972875, "bike_id": "9701a03dc2d117a839a2fd4c9b9f964f", "name": "9701a03dc2d117a839a2fd4c9b9f964f", "is_reserved": 0, "fusion_lat": 0.0}, {"type": "electric_bike", "rental_uris": {"ios": "https://dc.lft.to/lastmile_qr_scan", "android": "https://dc.lft.to/lastmile_qr_scan"}, "lon": -76.93537066666667, "fusion_lon": 0.0, "is_disabled": 0, "lat": 38.95555216666666, "bike_id": "a53e3716b1619594323df03ca86d94e9", "name": "a53e3716b1619594323df03ca86d94e9", "is_reserved": 0, "fusion_lat": 0.0}, {"type": "electric_scooter", "rental_uris": {"ios": "https://dc.lft.to/lastmile_qr_scan", "android": "https://dc.lft.to/lastmile_qr_scan"}, "lon": -77.02703633333333, "fusion_lon": 0.0, "is_disabled": 0, "lat": 38.90674883333333, "bike_id": "7ad8bb5a36b3bd607fb7cbb6bea8a601", "name": "7ad8bb5a36b3bd607fb7cbb6bea8a601", "is_reserved": 0, "fusion_lat": 0.0}, {"type": "electric_bike", "rental_uris": {"ios": "https://dc.lft.to/lastmile_qr_scan", "android": "https://dc.lft.to/lastmile_qr_scan"}, "lon": -77.03059266666666, "fusion_lon": 0.0, "is_disabled": 0, "lat": 38.959562, "bike_id": "1c6c4610aa4e4a580e84a52f95adb6bd", "name": "1c6c4610aa4e4a580e84a52f95adb6bd", "is_reserved": 0, "fusion_lat": 0.0}, {"type": "electric_scooter", "rental_uris": {"ios": "https://dc.lft.to/lastmile_qr_scan", "android": "https://dc.lft.to/lastmile_qr_scan"}, "lon": -77.02981066666666, "fusion_lon": 0.0, "is_disabled": 0, "lat": 38.92276366666667, "bike_id": "ba2e71b335f50480cbf3b6f796fc3909", "name": "ba2e71b335f50480cbf3b6f796fc3909", "is_reserved": 0, "fusion_lat": 0.0}, {"type": "electric_scooter", "rental_uris": {"ios": "https://dc.lft.to/lastmile_qr_scan", "android": "https://dc.lft.to/lastmile_qr_scan"}, "lon": -77.03144716666667, "fusion_lon": 0.0, "is_disabled": 0, "lat": 38.88741366666667, "bike_id": "95a9a88154a1bdec8467a40c3b5a0f7e", "name": "95a9a88154a1bdec8467a40c3b5a0f7e", "is_reserved": 0, "fusion_lat": 0.0}, {"type": "electric_bike", "rental_uris": {"ios": "https://dc.lft.to/lastmile_qr_scan", "android": "https://dc.lft.to/lastmile_qr_scan"}, "lon": -77.02170466666666, "fusion_lon": 0.0, "is_disabled": 0, "lat": 38.957415166666664, "bike_id": "949cf1e4639a4090b93f96661c8be6ac", "name": "949cf1e4639a4090b93f96661c8be6ac", "is_reserved": 0, "fusion_lat": 0.0}, {"type": "electric_scooter", "rental_uris": {"ios": "https://dc.lft.to/lastmile_qr_scan", "android": "https://dc.lft.to/lastmile_qr_scan"}, "lon": -77.03443116666666, "fusion_lon": 0.0, "is_disabled": 0, "lat": 38.918473, "bike_id": "d4bc043fca73df0b1d811890956cf45c", "name": "d4bc043fca73df0b1d811890956cf45c", "is_reserved": 0, "fusion_lat": 0.0}, {"type": "electric_scooter", "rental_uris": {"ios": "https://dc.lft.to/lastmile_qr_scan", "android": "https://dc.lft.to/lastmile_qr_scan"}, "lon": -77.01776316666667, "fusion_lon": 0.0, "is_disabled": 0, "lat": 38.88719783333333, "bike_id": "f9bbcf9b5dbdc2947301c4529fdac445", "name": "f9bbcf9b5dbdc2947301c4529fdac445", "is_reserved": 0, "fusion_lat": 0.0}, {"type": "electric_scooter", "rental_uris": {"ios": "https://dc.lft.to/lastmile_qr_scan", "android": "https://dc.lft.to/lastmile_qr_scan"}, "lon": -77.03487033333333, "fusion_lon": 0.0, "is_disabled": 0, "lat": 38.9247995, "bike_id": "3b08eba0d81596b1efcf2f9e7d20f951", "name": "3b08eba0d81596b1efcf2f9e7d20f951", "is_reserved": 0, "fusion_lat": 0.0}, {"type": "electric_scooter", "rental_uris": {"ios": "https://dc.lft.to/lastmile_qr_scan", "android": "https://dc.lft.to/lastmile_qr_scan"}, "lon": -77.04360183333333, "fusion_lon": 0.0, "is_disabled": 0, "lat": 38.92061483333333, "bike_id": "694680160df027998d160dfa98f21343", "name": "694680160df027998d160dfa98f21343", "is_reserved": 0, "fusion_lat": 0.0}, {"type": "electric_scooter", "rental_uris": {"ios": "https://dc.lft.to/lastmile_qr_scan", "android": "https://dc.lft.to/lastmile_qr_scan"}, "lon": -77.02964266666666, "fusion_lon": 0.0, "is_disabled": 0, "lat": 38.9232715, "bike_id": "edae88f774643d1e223a6ac2f52fa6ba", "name": "edae88f774643d1e223a6ac2f52fa6ba", "is_reserved": 0, "fusion_lat": 0.0}, {"type": "electric_scooter", "rental_uris": {"ios": "https://dc.lft.to/lastmile_qr_scan", "android": "https://dc.lft.to/lastmile_qr_scan"}, "lon": -76.985283, "fusion_lon": 0.0, "is_disabled": 0, "lat": 38.866847, "bike_id": "1ee6cbfca013c085447f69d358fd94ab", "name": "1ee6cbfca013c085447f69d358fd94ab", "is_reserved": 0, "fusion_lat": 0.0}, {"type": "electric_scooter", "rental_uris": {"ios": "https://dc.lft.to/lastmile_qr_scan", "android": "https://dc.lft.to/lastmile_qr_scan"}, "lon": -77.03444083333333, "fusion_lon": 0.0, "is_disabled": 0, "lat": 38.9097135, "bike_id": "32b56f9a4f95a6fb23048544f7cd8b19", "name": "32b56f9a4f95a6fb23048544f7cd8b19", "is_reserved": 0, "fusion_lat": 0.0}, {"type": "electric_scooter", "rental_uris": {"ios": "https://dc.lft.to/lastmile_qr_scan", "android": "https://dc.lft.to/lastmile_qr_scan"}, "lon": -77.031642, "fusion_lon": 0.0, "is_disabled": 0, "lat": 38.9155295, "bike_id": "3529577584c4669aa9b038f65291ae11", "name": "3529577584c4669aa9b038f65291ae11", "is_reserved": 0, "fusion_lat": 0.0}, {"type": "electric_scooter", "rental_uris": {"ios": "https://dc.lft.to/lastmile_qr_scan", "android": "https://dc.lft.to/lastmile_qr_scan"}, "lon": -77.02953616666667, "fusion_lon": 0.0, "is_disabled": 0, "lat": 38.92250666666666, "bike_id": "5909b1745658ad8ca2c11f2face3a198", "name": "5909b1745658ad8ca2c11f2face3a198", "is_reserved": 0, "fusion_lat": 0.0}, {"type": "electric_scooter", "rental_uris": {"ios": "https://dc.lft.to/lastmile_qr_scan", "android": "https://dc.lft.to/lastmile_qr_scan"}, "lon": -77.03454283333333, "fusion_lon": 0.0, "is_disabled": 0, "lat": 38.93750566666667, "bike_id": "4ff74165f02f47d3cce7067ed313054e", "name": "4ff74165f02f47d3cce7067ed313054e", "is_reserved": 0, "fusion_lat": 0.0}, {"type": "electric_scooter", "rental_uris": {"ios": "https://dc.lft.to/lastmile_qr_scan", "android": "https://dc.lft.to/lastmile_qr_scan"}, "lon": -77.0392865, "fusion_lon": 0.0, "is_disabled": 0, "lat": 38.91708283333333, "bike_id": "d37ba04c9d6ab23b361b661647d030d5", "name": "d37ba04c9d6ab23b361b661647d030d5", "is_reserved": 0, "fusion_lat": 0.0}, {"type": "electric_scooter", "rental_uris": {"ios": "https://dc.lft.to/lastmile_qr_scan", "android": "https://dc.lft.to/lastmile_qr_scan"}, "lon": -77.00712433333334, "fusion_lon": 0.0, "is_disabled": 0, "lat": 38.876329166666665, "bike_id": "3878c9c6478ca7a36c66d11d8aeeb04b", "name": "3878c9c6478ca7a36c66d11d8aeeb04b", "is_reserved": 0, "fusion_lat": 0.0}, {"type": "electric_scooter", "rental_uris": {"ios": "https://dc.lft.to/lastmile_qr_scan", "android": "https://dc.lft.to/lastmile_qr_scan"}, "lon": -77.03299033333333, "fusion_lon": 0.0, "is_disabled": 0, "lat": 38.909811833333336, "bike_id": "b2a15c2bf12a8ff0b2857e48bb00552e", "name": "b2a15c2bf12a8ff0b2857e48bb00552e", "is_reserved": 0, "fusion_lat": 0.0}, {"type": "electric_scooter", "rental_uris": {"ios": "https://dc.lft.to/lastmile_qr_scan", "android": "https://dc.lft.to/lastmile_qr_scan"}, "lon": -76.9914845, "fusion_lon": 0.0, "is_disabled": 0, "lat": 38.87907583333333, "bike_id": "10c2e32ac0d1222aa4994443d54c3504", "name": "10c2e32ac0d1222aa4994443d54c3504", "is_reserved": 0, "fusion_lat": 0.0}, {"type": "electric_scooter", "rental_uris": {"ios": "https://dc.lft.to/lastmile_qr_scan", "android": "https://dc.lft.to/lastmile_qr_scan"}, "lon": -77.01354416666666, "fusion_lon": 0.0, "is_disabled": 0, "lat": 38.864229333333334, "bike_id": "6af59229a5e4e246d5ca2ef1af3b2263", "name": "6af59229a5e4e246d5ca2ef1af3b2263", "is_reserved": 0, "fusion_lat": 0.0}, {"type": "electric_scooter", "rental_uris": {"ios": "https://dc.lft.to/lastmile_qr_scan", "android": "https://dc.lft.to/lastmile_qr_scan"}, "lon": -77.0416825, "fusion_lon": 0.0, "is_disabled": 0, "lat": 38.915967333333334, "bike_id": "27046c3338ff2d55541d75ac0e93fcb6", "name": "27046c3338ff2d55541d75ac0e93fcb6", "is_reserved": 0, "fusion_lat": 0.0}, {"type": "electric_scooter", "rental_uris": {"ios": "https://dc.lft.to/lastmile_qr_scan", "android": "https://dc.lft.to/lastmile_qr_scan"}, "lon": -77.00612833333334, "fusion_lon": 0.0, "is_disabled": 0, "lat": 38.87179533333333, "bike_id": "44068c12217c0838122b42015429918f", "name": "44068c12217c0838122b42015429918f", "is_reserved": 0, "fusion_lat": 0.0}, {"type": "electric_scooter", "rental_uris": {"ios": "https://dc.lft.to/lastmile_qr_scan", "android": "https://dc.lft.to/lastmile_qr_scan"}, "lon": -77.02184383333334, "fusion_lon": 0.0, "is_disabled": 0, "lat": 38.898746333333335, "bike_id": "6d67b5a354e61c9b9e8df189ac931b26", "name": "6d67b5a354e61c9b9e8df189ac931b26", "is_reserved": 0, "fusion_lat": 0.0}, {"type": "electric_scooter", "rental_uris": {"ios": "https://dc.lft.to/lastmile_qr_scan", "android": "https://dc.lft.to/lastmile_qr_scan"}, "lon": -77.03586133333333, "fusion_lon": 0.0, "is_disabled": 0, "lat": 38.937406833333334, "bike_id": "ed83ee6879d31186f697098cc63b9221", "name": "ed83ee6879d31186f697098cc63b9221", "is_reserved": 0, "fusion_lat": 0.0}, {"type": "electric_scooter", "rental_uris": {"ios": "https://dc.lft.to/lastmile_qr_scan", "android": "https://dc.lft.to/lastmile_qr_scan"}, "lon": -76.921959, "fusion_lon": 0.0, "is_disabled": 0, "lat": 38.899604, "bike_id": "0f328511f0424f63ec7410b81c1f31f2", "name": "0f328511f0424f63ec7410b81c1f31f2", "is_reserved": 0, "fusion_lat": 0.0}, {"type": "electric_scooter", "rental_uris": {"ios": "https://dc.lft.to/lastmile_qr_scan", "android": "https://dc.lft.to/lastmile_qr_scan"}, "lon": -77.028885, "fusion_lon": 0.0, "is_disabled": 0, "lat": 38.90717766666667, "bike_id": "b2e73a13e3bc5dc1f19b989e921796a6", "name": "b2e73a13e3bc5dc1f19b989e921796a6", "is_reserved": 0, "fusion_lat": 0.0}, {"type": "electric_scooter", "rental_uris": {"ios": "https://dc.lft.to/lastmile_qr_scan", "android": "https://dc.lft.to/lastmile_qr_scan"}, "lon": -77.02161866666667, "fusion_lon": 0.0, "is_disabled": 0, "lat": 38.939695, "bike_id": "303729bb39bfde1421153eeba345e392", "name": "303729bb39bfde1421153eeba345e392", "is_reserved": 0, "fusion_lat": 0.0}, {"type": "electric_scooter", "rental_uris": {"ios": "https://dc.lft.to/lastmile_qr_scan", "android": "https://dc.lft.to/lastmile_qr_scan"}, "lon": -77.02098133333334, "fusion_lon": 0.0, "is_disabled": 0, "lat": 38.91077466666667, "bike_id": "83909c9ac65b55d702c6521f20f1dbbc", "name": "83909c9ac65b55d702c6521f20f1dbbc", "is_reserved": 0, "fusion_lat": 0.0}, {"type": "electric_scooter", "rental_uris": {"ios": "https://dc.lft.to/lastmile_qr_scan", "android": "https://dc.lft.to/lastmile_qr_scan"}, "lon": -77.02857516666667, "fusion_lon": 0.0, "is_disabled": 0, "lat": 38.925673833333335, "bike_id": "61c7bdc1272e2a054e20299c109b8546", "name": "61c7bdc1272e2a054e20299c109b8546", "is_reserved": 0, "fusion_lat": 0.0}, {"type": "electric_scooter", "rental_uris": {"ios": "https://dc.lft.to/lastmile_qr_scan", "android": "https://dc.lft.to/lastmile_qr_scan"}, "lon": -77.0322055, "fusion_lon": 0.0, "is_disabled": 0, "lat": 38.8922085, "bike_id": "c297dddc4f60f01a354399d31dca8e3a", "name": "c297dddc4f60f01a354399d31dca8e3a", "is_reserved": 0, "fusion_lat": 0.0}, {"type": "electric_scooter", "rental_uris": {"ios": "https://dc.lft.to/lastmile_qr_scan", "android": "https://dc.lft.to/lastmile_qr_scan"}, "lon": -77.04684866666666, "fusion_lon": 0.0, "is_disabled": 0, "lat": 38.897272666666666, "bike_id": "9009300528feb40a385aee3bc6a0a920", "name": "9009300528feb40a385aee3bc6a0a920", "is_reserved": 0, "fusion_lat": 0.0}, {"type": "electric_scooter", "rental_uris": {"ios": "https://dc.lft.to/lastmile_qr_scan", "android": "https://dc.lft.to/lastmile_qr_scan"}, "lon": -77.0031435, "fusion_lon": 0.0, "is_disabled": 0, "lat": 38.92476833333333, "bike_id": "1cd2c135d7a6c91b8e3d249cae9c040e", "name": "1cd2c135d7a6c91b8e3d249cae9c040e", "is_reserved": 0, "fusion_lat": 0.0}, {"type": "electric_scooter", "rental_uris": {"ios": "https://dc.lft.to/lastmile_qr_scan", "android": "https://dc.lft.to/lastmile_qr_scan"}, "lon": -77.041744, "fusion_lon": 0.0, "is_disabled": 0, "lat": 38.917334833333335, "bike_id": "b66b8d58e79fc20e14c87e3d13dee85d", "name": "b66b8d58e79fc20e14c87e3d13dee85d", "is_reserved": 0, "fusion_lat": 0.0}, {"type": "electric_scooter", "rental_uris": {"ios": "https://dc.lft.to/lastmile_qr_scan", "android": "https://dc.lft.to/lastmile_qr_scan"}, "lon": -77.0492205, "fusion_lon": 0.0, "is_disabled": 0, "lat": 38.90092583333333, "bike_id": "8d624e140eb7c131b9f40db5de321bac", "name": "8d624e140eb7c131b9f40db5de321bac", "is_reserved": 0, "fusion_lat": 0.0}, {"type": "electric_bike", "rental_uris": {"ios": "https://dc.lft.to/lastmile_qr_scan", "android": "https://dc.lft.to/lastmile_qr_scan"}, "lon": -77.36096183333333, "fusion_lon": 0.0, "is_disabled": 0, "lat": 38.939520333333334, "bike_id": "e8af42837eafff2283e4dd6887b69618", "name": "e8af42837eafff2283e4dd6887b69618", "is_reserved": 0, "fusion_lat": 0.0}, {"type": "electric_bike", "rental_uris": {"ios": "https://dc.lft.to/lastmile_qr_scan", "android": "https://dc.lft.to/lastmile_qr_scan"}, "lon": -77.07389616666667, "fusion_lon": 0.0, "is_disabled": 0, "lat": 38.96178333333334, "bike_id": "c13ca11a6d119bd449f582bd3f22486b", "name": "c13ca11a6d119bd449f582bd3f22486b", "is_reserved": 0, "fusion_lat": 0.0}, {"type": "electric_bike", "rental_uris": {"ios": "https://dc.lft.to/lastmile_qr_scan", "android": "https://dc.lft.to/lastmile_qr_scan"}, "lon": -76.88370966666666, "fusion_lon": 0.0, "is_disabled": 0, "lat": 38.998172333333336, "bike_id": "fe20ddc7f1ad450b8d5a8c9f1c8c87dc", "name": "fe20ddc7f1ad450b8d5a8c9f1c8c87dc", "is_reserved": 0, "fusion_lat": 0.0}, {"type": "electric_scooter", "rental_uris": {"ios": "https://dc.lft.to/lastmile_qr_scan", "android": "https://dc.lft.to/lastmile_qr_scan"}, "lon": -77.0318345, "fusion_lon": 0.0, "is_disabled": 0, "lat": 38.921075, "bike_id": "5757bbdc9610565620e6a33093a4e1c4", "name": "5757bbdc9610565620e6a33093a4e1c4", "is_reserved": 0, "fusion_lat": 0.0}, {"type": "electric_scooter", "rental_uris": {"ios": "https://dc.lft.to/lastmile_qr_scan", "android": "https://dc.lft.to/lastmile_qr_scan"}, "lon": -77.04649266666667, "fusion_lon": 0.0, "is_disabled": 0, "lat": 38.8922175, "bike_id": "169c5c760cd654ce7620222e0c623780", "name": "169c5c760cd654ce7620222e0c623780", "is_reserved": 0, "fusion_lat": 0.0}, {"type": "electric_bike", "rental_uris": {"ios": "https://dc.lft.to/lastmile_qr_scan", "android": "https://dc.lft.to/lastmile_qr_scan"}, "lon": -76.94586033333333, "fusion_lon": 0.0, "is_disabled": 0, "lat": 38.95331633333333, "bike_id": "8a5894f2dcdbf34440b32e06426b22d1", "name": "8a5894f2dcdbf34440b32e06426b22d1", "is_reserved": 0, "fusion_lat": 0.0}, {"type": "electric_scooter", "rental_uris": {"ios": "https://dc.lft.to/lastmile_qr_scan", "android": "https://dc.lft.to/lastmile_qr_scan"}, "lon": -76.9514545, "fusion_lon": 0.0, "is_disabled": 0, "lat": 38.89036566666667, "bike_id": "bef345ad69f1e5a20bbe0e68a6cd9ec2", "name": "bef345ad69f1e5a20bbe0e68a6cd9ec2", "is_reserved": 0, "fusion_lat": 0.0}, {"type": "electric_scooter", "rental_uris": {"ios": "https://dc.lft.to/lastmile_qr_scan", "android": "https://dc.lft.to/lastmile_qr_scan"}, "lon": -77.03287933333333, "fusion_lon": 0.0, "is_disabled": 0, "lat": 38.9274805, "bike_id": "2002fc58ea17434ca5accad36f5d4c59", "name": "2002fc58ea17434ca5accad36f5d4c59", "is_reserved": 0, "fusion_lat": 0.0}, {"type": "electric_bike", "rental_uris": {"ios": "https://dc.lft.to/lastmile_qr_scan", "android": "https://dc.lft.to/lastmile_qr_scan"}, "lon": -76.99000516666666, "fusion_lon": 0.0, "is_disabled": 0, "lat": 38.954866833333334, "bike_id": "07331f6344af3894aa26c16d590523d0", "name": "07331f6344af3894aa26c16d590523d0", "is_reserved": 0, "fusion_lat": 0.0}, {"type": "electric_scooter", "rental_uris": {"ios": "https://dc.lft.to/lastmile_qr_scan", "android": "https://dc.lft.to/lastmile_qr_scan"}, "lon": -77.03175483333334, "fusion_lon": 0.0, "is_disabled": 0, "lat": 38.92090733333333, "bike_id": "6f609e59ccb2c33159ac6c39a3a27918", "name": "6f609e59ccb2c33159ac6c39a3a27918", "is_reserved": 0, "fusion_lat": 0.0}, {"type": "electric_scooter", "rental_uris": {"ios": "https://dc.lft.to/lastmile_qr_scan", "android": "https://dc.lft.to/lastmile_qr_scan"}, "lon": -77.03772483333333, "fusion_lon": 0.0, "is_disabled": 0, "lat": 38.9257375, "bike_id": "c8e57307d0f8047ed8d8658b9e9daa1c", "name": "c8e57307d0f8047ed8d8658b9e9daa1c", "is_reserved": 0, "fusion_lat": 0.0}, {"type": "electric_scooter", "rental_uris": {"ios": "https://dc.lft.to/lastmile_qr_scan", "android": "https://dc.lft.to/lastmile_qr_scan"}, "lon": -77.03173283333334, "fusion_lon": 0.0, "is_disabled": 0, "lat": 38.89758116666667, "bike_id": "5db09360157d03020fd782fa540eae99", "name": "5db09360157d03020fd782fa540eae99", "is_reserved": 0, "fusion_lat": 0.0}, {"type": "electric_scooter", "rental_uris": {"ios": "https://dc.lft.to/lastmile_qr_scan", "android": "https://dc.lft.to/lastmile_qr_scan"}, "lon": -76.9303995, "fusion_lon": 0.0, "is_disabled": 0, "lat": 38.89568116666667, "bike_id": "9676f62a1ddcdec9a7a6442648d2fa42", "name": "9676f62a1ddcdec9a7a6442648d2fa42", "is_reserved": 0, "fusion_lat": 0.0}, {"type": "electric_scooter", "rental_uris": {"ios": "https://dc.lft.to/lastmile_qr_scan", "android": "https://dc.lft.to/lastmile_qr_scan"}, "lon": -77.021798, "fusion_lon": 0.0, "is_disabled": 0, "lat": 38.909758833333335, "bike_id": "e6ecbad0623ae68e0404a8c1e010405d", "name": "e6ecbad0623ae68e0404a8c1e010405d", "is_reserved": 0, "fusion_lat": 0.0}, {"type": "electric_scooter", "rental_uris": {"ios": "https://dc.lft.to/lastmile_qr_scan", "android": "https://dc.lft.to/lastmile_qr_scan"}, "lon": -76.93178183333333, "fusion_lon": 0.0, "is_disabled": 0, "lat": 38.89885266666667, "bike_id": "9547374972ab3b4f021f9ebcef99d9b0", "name": "9547374972ab3b4f021f9ebcef99d9b0", "is_reserved": 0, "fusion_lat": 0.0}, {"type": "electric_scooter", "rental_uris": {"ios": "https://dc.lft.to/lastmile_qr_scan", "android": "https://dc.lft.to/lastmile_qr_scan"}, "lon": -77.05739966666667, "fusion_lon": 0.0, "is_disabled": 0, "lat": 38.93358683333334, "bike_id": "524904215be59e69526f1321bc6bde43", "name": "524904215be59e69526f1321bc6bde43", "is_reserved": 0, "fusion_lat": 0.0}, {"type": "electric_scooter", "rental_uris": {"ios": "https://dc.lft.to/lastmile_qr_scan", "android": "https://dc.lft.to/lastmile_qr_scan"}, "lon": -77.02972116666666, "fusion_lon": 0.0, "is_disabled": 0, "lat": 38.907715, "bike_id": "661a68a8b8342721e88357168cefd105", "name": "661a68a8b8342721e88357168cefd105", "is_reserved": 0, "fusion_lat": 0.0}, {"type": "electric_scooter", "rental_uris": {"ios": "https://dc.lft.to/lastmile_qr_scan", "android": "https://dc.lft.to/lastmile_qr_scan"}, "lon": -77.0376615, "fusion_lon": 0.0, "is_disabled": 0, "lat": 38.92975083333333, "bike_id": "66f3025fccb4148daf19f06d2b205273", "name": "66f3025fccb4148daf19f06d2b205273", "is_reserved": 0, "fusion_lat": 0.0}, {"type": "electric_bike", "rental_uris": {"ios": "https://dc.lft.to/lastmile_qr_scan", "android": "https://dc.lft.to/lastmile_qr_scan"}, "lon": -77.02622483333333, "fusion_lon": 0.0, "is_disabled": 0, "lat": 38.962058666666664, "bike_id": "4a8d054df54cf5b23242b11d18eb25fb", "name": "4a8d054df54cf5b23242b11d18eb25fb", "is_reserved": 0, "fusion_lat": 0.0}, {"type": "electric_bike", "rental_uris": {"ios": "https://dc.lft.to/lastmile_qr_scan", "android": "https://dc.lft.to/lastmile_qr_scan"}, "lon": -77.0657085, "fusion_lon": 0.0, "is_disabled": 0, "lat": 38.8699755, "bike_id": "41779d108aac33daa84f226a45068c6d", "name": "41779d108aac33daa84f226a45068c6d", "is_reserved": 0, "fusion_lat": 0.0}, {"type": "electric_scooter", "rental_uris": {"ios": "https://dc.lft.to/lastmile_qr_scan", "android": "https://dc.lft.to/lastmile_qr_scan"}, "lon": -77.0365785, "fusion_lon": 0.0, "is_disabled": 0, "lat": 38.92135533333333, "bike_id": "78af1bead67142e78899d7b8ff7aef1d", "name": "78af1bead67142e78899d7b8ff7aef1d", "is_reserved": 0, "fusion_lat": 0.0}, {"type": "electric_scooter", "rental_uris": {"ios": "https://dc.lft.to/lastmile_qr_scan", "android": "https://dc.lft.to/lastmile_qr_scan"}, "lon": -77.04375816666666, "fusion_lon": 0.0, "is_disabled": 0, "lat": 38.921077333333336, "bike_id": "fa36c55c1a3ff4e32f669d27b58e89e0", "name": "fa36c55c1a3ff4e32f669d27b58e89e0", "is_reserved": 0, "fusion_lat": 0.0}, {"type": "electric_scooter", "rental_uris": {"ios": "https://dc.lft.to/lastmile_qr_scan", "android": "https://dc.lft.to/lastmile_qr_scan"}, "lon": -77.02419083333334, "fusion_lon": 0.0, "is_disabled": 0, "lat": 38.92754933333333, "bike_id": "f88c835151e58bc2165a0a19fce7d6e9", "name": "f88c835151e58bc2165a0a19fce7d6e9", "is_reserved": 0, "fusion_lat": 0.0}, {"type": "electric_scooter", "rental_uris": {"ios": "https://dc.lft.to/lastmile_qr_scan", "android": "https://dc.lft.to/lastmile_qr_scan"}, "lon": -77.03644066666666, "fusion_lon": 0.0, "is_disabled": 0, "lat": 38.91782283333333, "bike_id": "7c2a09fb3db6708b28d01426e9acf282", "name": "7c2a09fb3db6708b28d01426e9acf282", "is_reserved": 0, "fusion_lat": 0.0}, {"type": "electric_scooter", "rental_uris": {"ios": "https://dc.lft.to/lastmile_qr_scan", "android": "https://dc.lft.to/lastmile_qr_scan"}, "lon": -77.04351166666666, "fusion_lon": 0.0, "is_disabled": 0, "lat": 38.901437666666666, "bike_id": "6fb96eb5245498c0ce7870728e2741e4", "name": "6fb96eb5245498c0ce7870728e2741e4", "is_reserved": 0, "fusion_lat": 0.0}, {"type": "electric_scooter", "rental_uris": {"ios": "https://dc.lft.to/lastmile_qr_scan", "android": "https://dc.lft.to/lastmile_qr_scan"}, "lon": -77.03842416666667, "fusion_lon": 0.0, "is_disabled": 0, "lat": 38.91108833333333, "bike_id": "6503734f77176ef15be037f16d47bd9b", "name": "6503734f77176ef15be037f16d47bd9b", "is_reserved": 0, "fusion_lat": 0.0}, {"type": "electric_scooter", "rental_uris": {"ios": "https://dc.lft.to/lastmile_qr_scan", "android": "https://dc.lft.to/lastmile_qr_scan"}, "lon": -77.01535, "fusion_lon": 0.0, "is_disabled": 0, "lat": 38.88736466666667, "bike_id": "2682200fa2839f9a8251230b537be25b", "name": "2682200fa2839f9a8251230b537be25b", "is_reserved": 0, "fusion_lat": 0.0}, {"type": "electric_scooter", "rental_uris": {"ios": "https://dc.lft.to/lastmile_qr_scan", "android": "https://dc.lft.to/lastmile_qr_scan"}, "lon": -77.01537883333333, "fusion_lon": 0.0, "is_disabled": 0, "lat": 38.88411283333333, "bike_id": "df63e3e21e7e3f0d5688990aa6e3dcbe", "name": "df63e3e21e7e3f0d5688990aa6e3dcbe", "is_reserved": 0, "fusion_lat": 0.0}, {"type": "electric_scooter", "rental_uris": {"ios": "https://dc.lft.to/lastmile_qr_scan", "android": "https://dc.lft.to/lastmile_qr_scan"}, "lon": -77.03187983333333, "fusion_lon": 0.0, "is_disabled": 0, "lat": 38.897694333333334, "bike_id": "ffa5475c96e7b065d305333b56d7c3b6", "name": "ffa5475c96e7b065d305333b56d7c3b6", "is_reserved": 0, "fusion_lat": 0.0}, {"type": "electric_scooter", "rental_uris": {"ios": "https://dc.lft.to/lastmile_qr_scan", "android": "https://dc.lft.to/lastmile_qr_scan"}, "lon": -77.02537233333334, "fusion_lon": 0.0, "is_disabled": 0, "lat": 38.9126895, "bike_id": "31729db8be3a0ac3b16682182f041b5b", "name": "31729db8be3a0ac3b16682182f041b5b", "is_reserved": 0, "fusion_lat": 0.0}, {"type": "electric_bike", "rental_uris": {"ios": "https://dc.lft.to/lastmile_qr_scan", "android": "https://dc.lft.to/lastmile_qr_scan"}, "lon": -76.90975066666667, "fusion_lon": 0.0, "is_disabled": 0, "lat": 38.854372166666664, "bike_id": "6eff5eeb35080e3a5414d145f6683591", "name": "6eff5eeb35080e3a5414d145f6683591", "is_reserved": 0, "fusion_lat": 0.0}, {"type": "electric_scooter", "rental_uris": {"ios": "https://dc.lft.to/lastmile_qr_scan", "android": "https://dc.lft.to/lastmile_qr_scan"}, "lon": -76.9995845, "fusion_lon": 0.0, "is_disabled": 0, "lat": 38.901102333333334, "bike_id": "908e2eb0e3692acbdc0a6f09c8b88b76", "name": "908e2eb0e3692acbdc0a6f09c8b88b76", "is_reserved": 0, "fusion_lat": 0.0}, {"type": "electric_scooter", "rental_uris": {"ios": "https://dc.lft.to/lastmile_qr_scan", "android": "https://dc.lft.to/lastmile_qr_scan"}, "lon": -77.05233333333334, "fusion_lon": 0.0, "is_disabled": 0, "lat": 38.92470133333333, "bike_id": "c3d1cf171de959ae6788d37a12974dce", "name": "c3d1cf171de959ae6788d37a12974dce", "is_reserved": 0, "fusion_lat": 0.0}, {"type": "electric_scooter", "rental_uris": {"ios": "https://dc.lft.to/lastmile_qr_scan", "android": "https://dc.lft.to/lastmile_qr_scan"}, "lon": -77.04484916666667, "fusion_lon": 0.0, "is_disabled": 0, "lat": 38.9193095, "bike_id": "84264d6b62c95527583e10e047ca8054", "name": "84264d6b62c95527583e10e047ca8054", "is_reserved": 0, "fusion_lat": 0.0}, {"type": "electric_scooter", "rental_uris": {"ios": "https://dc.lft.to/lastmile_qr_scan", "android": "https://dc.lft.to/lastmile_qr_scan"}, "lon": -77.05133666666667, "fusion_lon": 0.0, "is_disabled": 0, "lat": 38.923622333333334, "bike_id": "1cf14280821e93a3db5af1f8592d5bc3", "name": "1cf14280821e93a3db5af1f8592d5bc3", "is_reserved": 0, "fusion_lat": 0.0}, {"type": "electric_scooter", "rental_uris": {"ios": "https://dc.lft.to/lastmile_qr_scan", "android": "https://dc.lft.to/lastmile_qr_scan"}, "lon": -77.03218183333334, "fusion_lon": 0.0, "is_disabled": 0, "lat": 38.892235666666664, "bike_id": "7c9e057280469a93f5a7ee6c9add7a6e", "name": "7c9e057280469a93f5a7ee6c9add7a6e", "is_reserved": 0, "fusion_lat": 0.0}, {"type": "electric_scooter", "rental_uris": {"ios": "https://dc.lft.to/lastmile_qr_scan", "android": "https://dc.lft.to/lastmile_qr_scan"}, "lon": -77.01513866666667, "fusion_lon": 0.0, "is_disabled": 0, "lat": 38.9433155, "bike_id": "f7096e4ae4088d8b73b0f764fea31dcd", "name": "f7096e4ae4088d8b73b0f764fea31dcd", "is_reserved": 0, "fusion_lat": 0.0}, {"type": "electric_scooter", "rental_uris": {"ios": "https://dc.lft.to/lastmile_qr_scan", "android": "https://dc.lft.to/lastmile_qr_scan"}, "lon": -76.9652335, "fusion_lon": 0.0, "is_disabled": 0, "lat": 38.876298166666665, "bike_id": "b1b1fa99735bb397a5827fbb3fb52652", "name": "b1b1fa99735bb397a5827fbb3fb52652", "is_reserved": 0, "fusion_lat": 0.0}, {"type": "electric_scooter", "rental_uris": {"ios": "https://dc.lft.to/lastmile_qr_scan", "android": "https://dc.lft.to/lastmile_qr_scan"}, "lon": -77.02178783333333, "fusion_lon": 0.0, "is_disabled": 0, "lat": 38.8972675, "bike_id": "5bc589e1f74a65129e7d59aa4f651f07", "name": "5bc589e1f74a65129e7d59aa4f651f07", "is_reserved": 0, "fusion_lat": 0.0}, {"type": "electric_scooter", "rental_uris": {"ios": "https://dc.lft.to/lastmile_qr_scan", "android": "https://dc.lft.to/lastmile_qr_scan"}, "lon": -77.04334233333333, "fusion_lon": 0.0, "is_disabled": 0, "lat": 38.892228833333334, "bike_id": "f1ded12b446e8cb5bd141ead75804d15", "name": "f1ded12b446e8cb5bd141ead75804d15", "is_reserved": 0, "fusion_lat": 0.0}, {"type": "electric_scooter", "rental_uris": {"ios": "https://dc.lft.to/lastmile_qr_scan", "android": "https://dc.lft.to/lastmile_qr_scan"}, "lon": -76.9955585, "fusion_lon": 0.0, "is_disabled": 0, "lat": 38.90032516666667, "bike_id": "963bcda9f47c7f21956417b093bb09d5", "name": "963bcda9f47c7f21956417b093bb09d5", "is_reserved": 0, "fusion_lat": 0.0}, {"type": "electric_scooter", "rental_uris": {"ios": "https://dc.lft.to/lastmile_qr_scan", "android": "https://dc.lft.to/lastmile_qr_scan"}, "lon": -77.0284655, "fusion_lon": 0.0, "is_disabled": 0, "lat": 38.927599666666666, "bike_id": "9ca493c68c7db44f25cfcf30baebb4aa", "name": "9ca493c68c7db44f25cfcf30baebb4aa", "is_reserved": 0, "fusion_lat": 0.0}, {"type": "electric_bike", "rental_uris": {"ios": "https://dc.lft.to/lastmile_qr_scan", "android": "https://dc.lft.to/lastmile_qr_scan"}, "lon": -76.98599633333333, "fusion_lon": 0.0, "is_disabled": 0, "lat": 38.9061755, "bike_id": "d296bff0abf01659aca342942a4b5645", "name": "d296bff0abf01659aca342942a4b5645", "is_reserved": 0, "fusion_lat": 0.0}, {"type": "electric_scooter", "rental_uris": {"ios": "https://dc.lft.to/lastmile_qr_scan", "android": "https://dc.lft.to/lastmile_qr_scan"}, "lon": -77.01375066666667, "fusion_lon": 0.0, "is_disabled": 0, "lat": 38.892211833333334, "bike_id": "aa180ef329ad80e62145c40a15887c00", "name": "aa180ef329ad80e62145c40a15887c00", "is_reserved": 0, "fusion_lat": 0.0}, {"type": "electric_scooter", "rental_uris": {"ios": "https://dc.lft.to/lastmile_qr_scan", "android": "https://dc.lft.to/lastmile_qr_scan"}, "lon": -77.0247815, "fusion_lon": 0.0, "is_disabled": 0, "lat": 38.91912883333333, "bike_id": "f79ad85877ed76f099e1d7b1a9395f0e", "name": "f79ad85877ed76f099e1d7b1a9395f0e", "is_reserved": 0, "fusion_lat": 0.0}, {"type": "electric_scooter", "rental_uris": {"ios": "https://dc.lft.to/lastmile_qr_scan", "android": "https://dc.lft.to/lastmile_qr_scan"}, "lon": -77.021808, "fusion_lon": 0.0, "is_disabled": 0, "lat": 38.90978116666667, "bike_id": "78cdc8cda80a021d6fd294ebb7df673f", "name": "78cdc8cda80a021d6fd294ebb7df673f", "is_reserved": 0, "fusion_lat": 0.0}, {"type": "electric_scooter", "rental_uris": {"ios": "https://dc.lft.to/lastmile_qr_scan", "android": "https://dc.lft.to/lastmile_qr_scan"}, "lon": -76.98929216666667, "fusion_lon": 0.0, "is_disabled": 0, "lat": 38.840778666666665, "bike_id": "b801c7b161091208a6e54783f9698693", "name": "b801c7b161091208a6e54783f9698693", "is_reserved": 0, "fusion_lat": 0.0}, {"type": "electric_scooter", "rental_uris": {"ios": "https://dc.lft.to/lastmile_qr_scan", "android": "https://dc.lft.to/lastmile_qr_scan"}, "lon": -77.03868566666667, "fusion_lon": 0.0, "is_disabled": 0, "lat": 38.91557983333333, "bike_id": "964e6e6a492182724d75b77f3664f50d", "name": "964e6e6a492182724d75b77f3664f50d", "is_reserved": 0, "fusion_lat": 0.0}, {"type": "electric_scooter", "rental_uris": {"ios": "https://dc.lft.to/lastmile_qr_scan", "android": "https://dc.lft.to/lastmile_qr_scan"}, "lon": -77.037279, "fusion_lon": 0.0, "is_disabled": 0, "lat": 38.9170975, "bike_id": "2c9bd0c8a3283c67c5b9bd869dda93f7", "name": "2c9bd0c8a3283c67c5b9bd869dda93f7", "is_reserved": 0, "fusion_lat": 0.0}, {"type": "electric_scooter", "rental_uris": {"ios": "https://dc.lft.to/lastmile_qr_scan", "android": "https://dc.lft.to/lastmile_qr_scan"}, "lon": -77.0334335, "fusion_lon": 0.0, "is_disabled": 0, "lat": 38.89223, "bike_id": "c735df7cc5045506748b1fb3e73b2fae", "name": "c735df7cc5045506748b1fb3e73b2fae", "is_reserved": 0, "fusion_lat": 0.0}, {"type": "electric_scooter", "rental_uris": {"ios": "https://dc.lft.to/lastmile_qr_scan", "android": "https://dc.lft.to/lastmile_qr_scan"}, "lon": -77.02219333333333, "fusion_lon": 0.0, "is_disabled": 0, "lat": 38.9127505, "bike_id": "5c515e4aba8aa96a8eb9fcec32ed1520", "name": "5c515e4aba8aa96a8eb9fcec32ed1520", "is_reserved": 0, "fusion_lat": 0.0}, {"type": "electric_scooter", "rental_uris": {"ios": "https://dc.lft.to/lastmile_qr_scan", "android": "https://dc.lft.to/lastmile_qr_scan"}, "lon": -77.03544483333333, "fusion_lon": 0.0, "is_disabled": 0, "lat": 38.926433, "bike_id": "19900470f0a2f7d3c29601bcf49a3149", "name": "19900470f0a2f7d3c29601bcf49a3149", "is_reserved": 0, "fusion_lat": 0.0}, {"type": "electric_scooter", "rental_uris": {"ios": "https://dc.lft.to/lastmile_qr_scan", "android": "https://dc.lft.to/lastmile_qr_scan"}, "lon": -77.02805233333333, "fusion_lon": 0.0, "is_disabled": 0, "lat": 38.8923075, "bike_id": "c48413284075e61f836224fadc6a9502", "name": "c48413284075e61f836224fadc6a9502", "is_reserved": 0, "fusion_lat": 0.0}, {"type": "electric_scooter", "rental_uris": {"ios": "https://dc.lft.to/lastmile_qr_scan", "android": "https://dc.lft.to/lastmile_qr_scan"}, "lon": -77.02714816666666, "fusion_lon": 0.0, "is_disabled": 0, "lat": 38.9073705, "bike_id": "63435030be60109dced5b8e7baa28e68", "name": "63435030be60109dced5b8e7baa28e68", "is_reserved": 0, "fusion_lat": 0.0}, {"type": "electric_scooter", "rental_uris": {"ios": "https://dc.lft.to/lastmile_qr_scan", "android": "https://dc.lft.to/lastmile_qr_scan"}, "lon": -77.02765016666666, "fusion_lon": 0.0, "is_disabled": 0, "lat": 38.8973745, "bike_id": "ae23293d75131709e8061732e2d35b50", "name": "ae23293d75131709e8061732e2d35b50", "is_reserved": 0, "fusion_lat": 0.0}, {"type": "electric_scooter", "rental_uris": {"ios": "https://dc.lft.to/lastmile_qr_scan", "android": "https://dc.lft.to/lastmile_qr_scan"}, "lon": -77.04330316666666, "fusion_lon": 0.0, "is_disabled": 0, "lat": 38.8922635, "bike_id": "e2978e19867a0212468e168e944f125e", "name": "e2978e19867a0212468e168e944f125e", "is_reserved": 0, "fusion_lat": 0.0}, {"type": "electric_scooter", "rental_uris": {"ios": "https://dc.lft.to/lastmile_qr_scan", "android": "https://dc.lft.to/lastmile_qr_scan"}, "lon": -77.02029866666666, "fusion_lon": 0.0, "is_disabled": 0, "lat": 38.931884833333335, "bike_id": "363017f1d3cb9ffa8a4432f9be93edab", "name": "363017f1d3cb9ffa8a4432f9be93edab", "is_reserved": 0, "fusion_lat": 0.0}, {"type": "electric_scooter", "rental_uris": {"ios": "https://dc.lft.to/lastmile_qr_scan", "android": "https://dc.lft.to/lastmile_qr_scan"}, "lon": -77.03137716666667, "fusion_lon": 0.0, "is_disabled": 0, "lat": 38.91828066666667, "bike_id": "729e0dd3acdb015d00d00aea11aa3c99", "name": "729e0dd3acdb015d00d00aea11aa3c99", "is_reserved": 0, "fusion_lat": 0.0}, {"type": "electric_scooter", "rental_uris": {"ios": "https://dc.lft.to/lastmile_qr_scan", "android": "https://dc.lft.to/lastmile_qr_scan"}, "lon": -77.0326755, "fusion_lon": 0.0, "is_disabled": 0, "lat": 38.929757, "bike_id": "1d3e8c475a86e5ce9ec660ea9a693d11", "name": "1d3e8c475a86e5ce9ec660ea9a693d11", "is_reserved": 0, "fusion_lat": 0.0}, {"type": "electric_scooter", "rental_uris": {"ios": "https://dc.lft.to/lastmile_qr_scan", "android": "https://dc.lft.to/lastmile_qr_scan"}, "lon": -77.033448, "fusion_lon": 0.0, "is_disabled": 0, "lat": 38.892515, "bike_id": "bbaf99c8420e76a9f3390a785f51b51b", "name": "bbaf99c8420e76a9f3390a785f51b51b", "is_reserved": 0, "fusion_lat": 0.0}, {"type": "electric_scooter", "rental_uris": {"ios": "https://dc.lft.to/lastmile_qr_scan", "android": "https://dc.lft.to/lastmile_qr_scan"}, "lon": -77.03218183333334, "fusion_lon": 0.0, "is_disabled": 0, "lat": 38.90974766666667, "bike_id": "0ec4be9a45e678a5620b561f14d96fe5", "name": "0ec4be9a45e678a5620b561f14d96fe5", "is_reserved": 0, "fusion_lat": 0.0}, {"type": "electric_bike", "rental_uris": {"ios": "https://dc.lft.to/lastmile_qr_scan", "android": "https://dc.lft.to/lastmile_qr_scan"}, "lon": -76.92501416666667, "fusion_lon": 0.0, "is_disabled": 0, "lat": 38.99997233333333, "bike_id": "b0f4202e9f33bbdba69922f7190c3c2c", "name": "b0f4202e9f33bbdba69922f7190c3c2c", "is_reserved": 0, "fusion_lat": 0.0}, {"type": "electric_scooter", "rental_uris": {"ios": "https://dc.lft.to/lastmile_qr_scan", "android": "https://dc.lft.to/lastmile_qr_scan"}, "lon": -77.0593365, "fusion_lon": 0.0, "is_disabled": 0, "lat": 38.909429833333334, "bike_id": "06f8642f66d1f3f02ac8e0b2aa8918db", "name": "06f8642f66d1f3f02ac8e0b2aa8918db", "is_reserved": 0, "fusion_lat": 0.0}, {"type": "electric_scooter", "rental_uris": {"ios": "https://dc.lft.to/lastmile_qr_scan", "android": "https://dc.lft.to/lastmile_qr_scan"}, "lon": -77.04029516666667, "fusion_lon": 0.0, "is_disabled": 0, "lat": 38.91805133333333, "bike_id": "0f9cf80c72ca655c868e3116e2b78aaf", "name": "0f9cf80c72ca655c868e3116e2b78aaf", "is_reserved": 0, "fusion_lat": 0.0}, {"type": "electric_bike", "rental_uris": {"ios": "https://dc.lft.to/lastmile_qr_scan", "android": "https://dc.lft.to/lastmile_qr_scan"}, "lon": -77.1204325, "fusion_lon": 0.0, "is_disabled": 0, "lat": 38.855043, "bike_id": "f3e0232140011c63fd2b75a2145b3abd", "name": "f3e0232140011c63fd2b75a2145b3abd", "is_reserved": 0, "fusion_lat": 0.0}, {"type": "electric_scooter", "rental_uris": {"ios": "https://dc.lft.to/lastmile_qr_scan", "android": "https://dc.lft.to/lastmile_qr_scan"}, "lon": -77.02581283333333, "fusion_lon": 0.0, "is_disabled": 0, "lat": 38.90962566666666, "bike_id": "746d730af2929cfc322dd88255b6be53", "name": "746d730af2929cfc322dd88255b6be53", "is_reserved": 0, "fusion_lat": 0.0}, {"type": "electric_scooter", "rental_uris": {"ios": "https://dc.lft.to/lastmile_qr_scan", "android": "https://dc.lft.to/lastmile_qr_scan"}, "lon": -77.034203, "fusion_lon": 0.0, "is_disabled": 0, "lat": 38.92245666666667, "bike_id": "02969a1f642efee6eca91ca5360982a5", "name": "02969a1f642efee6eca91ca5360982a5", "is_reserved": 0, "fusion_lat": 0.0}, {"type": "electric_scooter", "rental_uris": {"ios": "https://dc.lft.to/lastmile_qr_scan", "android": "https://dc.lft.to/lastmile_qr_scan"}, "lon": -77.034427, "fusion_lon": 0.0, "is_disabled": 0, "lat": 38.90727116666667, "bike_id": "950c2641ecca6536ac9fdc5e622e9a6c", "name": "950c2641ecca6536ac9fdc5e622e9a6c", "is_reserved": 0, "fusion_lat": 0.0}, {"type": "electric_scooter", "rental_uris": {"ios": "https://dc.lft.to/lastmile_qr_scan", "android": "https://dc.lft.to/lastmile_qr_scan"}, "lon": -77.02291316666667, "fusion_lon": 0.0, "is_disabled": 0, "lat": 38.917464333333335, "bike_id": "cde4927981686779d8d821b1ed58ede9", "name": "cde4927981686779d8d821b1ed58ede9", "is_reserved": 0, "fusion_lat": 0.0}, {"type": "electric_scooter", "rental_uris": {"ios": "https://dc.lft.to/lastmile_qr_scan", "android": "https://dc.lft.to/lastmile_qr_scan"}, "lon": -77.03158166666667, "fusion_lon": 0.0, "is_disabled": 0, "lat": 38.915662833333336, "bike_id": "421ba0a58d5e0a45933d745f909306bb", "name": "421ba0a58d5e0a45933d745f909306bb", "is_reserved": 0, "fusion_lat": 0.0}, {"type": "electric_scooter", "rental_uris": {"ios": "https://dc.lft.to/lastmile_qr_scan", "android": "https://dc.lft.to/lastmile_qr_scan"}, "lon": -77.02350833333334, "fusion_lon": 0.0, "is_disabled": 0, "lat": 38.917824833333334, "bike_id": "31b325ef856c721952539f9346c44039", "name": "31b325ef856c721952539f9346c44039", "is_reserved": 0, "fusion_lat": 0.0}, {"type": "electric_scooter", "rental_uris": {"ios": "https://dc.lft.to/lastmile_qr_scan", "android": "https://dc.lft.to/lastmile_qr_scan"}, "lon": -77.03201483333333, "fusion_lon": 0.0, "is_disabled": 0, "lat": 38.90786283333333, "bike_id": "815189cd0dd10760b5fec34f9b0bc1b5", "name": "815189cd0dd10760b5fec34f9b0bc1b5", "is_reserved": 0, "fusion_lat": 0.0}, {"type": "electric_bike", "rental_uris": {"ios": "https://dc.lft.to/lastmile_qr_scan", "android": "https://dc.lft.to/lastmile_qr_scan"}, "lon": -76.96906466666667, "fusion_lon": 0.0, "is_disabled": 0, "lat": 38.84611683333333, "bike_id": "fee6132a0554f9d144bf0a91bdf6287a", "name": "fee6132a0554f9d144bf0a91bdf6287a", "is_reserved": 0, "fusion_lat": 0.0}, {"type": "electric_scooter", "rental_uris": {"ios": "https://dc.lft.to/lastmile_qr_scan", "android": "https://dc.lft.to/lastmile_qr_scan"}, "lon": -77.03857483333333, "fusion_lon": 0.0, "is_disabled": 0, "lat": 38.90266666666667, "bike_id": "30a6147d1672e08926d6dbda3b5977cd", "name": "30a6147d1672e08926d6dbda3b5977cd", "is_reserved": 0, "fusion_lat": 0.0}, {"type": "electric_scooter", "rental_uris": {"ios": "https://dc.lft.to/lastmile_qr_scan", "android": "https://dc.lft.to/lastmile_qr_scan"}, "lon": -77.03717216666666, "fusion_lon": 0.0, "is_disabled": 0, "lat": 38.928625833333335, "bike_id": "ad410c21459b50dd3b7a9bac7fdef494", "name": "ad410c21459b50dd3b7a9bac7fdef494", "is_reserved": 0, "fusion_lat": 0.0}, {"type": "electric_scooter", "rental_uris": {"ios": "https://dc.lft.to/lastmile_qr_scan", "android": "https://dc.lft.to/lastmile_qr_scan"}, "lon": -76.97668350000001, "fusion_lon": 0.0, "is_disabled": 0, "lat": 38.89855633333333, "bike_id": "f74891b4c3b8a41f61fd5476f699bac3", "name": "f74891b4c3b8a41f61fd5476f699bac3", "is_reserved": 0, "fusion_lat": 0.0}, {"type": "electric_scooter", "rental_uris": {"ios": "https://dc.lft.to/lastmile_qr_scan", "android": "https://dc.lft.to/lastmile_qr_scan"}, "lon": -77.01946083333333, "fusion_lon": 0.0, "is_disabled": 0, "lat": 38.94928066666667, "bike_id": "5d341cc5d6d14af5c1c770318b20aed9", "name": "5d341cc5d6d14af5c1c770318b20aed9", "is_reserved": 0, "fusion_lat": 0.0}, {"type": "electric_scooter", "rental_uris": {"ios": "https://dc.lft.to/lastmile_qr_scan", "android": "https://dc.lft.to/lastmile_qr_scan"}, "lon": -76.9419255, "fusion_lon": 0.0, "is_disabled": 0, "lat": 38.897573666666666, "bike_id": "ddd54dd2999da5241838329b0aeacd8c", "name": "ddd54dd2999da5241838329b0aeacd8c", "is_reserved": 0, "fusion_lat": 0.0}, {"type": "electric_scooter", "rental_uris": {"ios": "https://dc.lft.to/lastmile_qr_scan", "android": "https://dc.lft.to/lastmile_qr_scan"}, "lon": -77.02597783333333, "fusion_lon": 0.0, "is_disabled": 0, "lat": 38.91691466666666, "bike_id": "8b3e0cca19721479f1673a3d24b5d413", "name": "8b3e0cca19721479f1673a3d24b5d413", "is_reserved": 0, "fusion_lat": 0.0}, {"type": "electric_scooter", "rental_uris": {"ios": "https://dc.lft.to/lastmile_qr_scan", "android": "https://dc.lft.to/lastmile_qr_scan"}, "lon": -77.03623816666666, "fusion_lon": 0.0, "is_disabled": 0, "lat": 38.93685383333333, "bike_id": "c7c7c88010ac6a79e4d91ae7d3883ef9", "name": "c7c7c88010ac6a79e4d91ae7d3883ef9", "is_reserved": 0, "fusion_lat": 0.0}, {"type": "electric_scooter", "rental_uris": {"ios": "https://dc.lft.to/lastmile_qr_scan", "android": "https://dc.lft.to/lastmile_qr_scan"}, "lon": -77.03862983333333, "fusion_lon": 0.0, "is_disabled": 0, "lat": 38.912592333333336, "bike_id": "0702b3e4607408d918595e6ce03f9113", "name": "0702b3e4607408d918595e6ce03f9113", "is_reserved": 0, "fusion_lat": 0.0}, {"type": "electric_scooter", "rental_uris": {"ios": "https://dc.lft.to/lastmile_qr_scan", "android": "https://dc.lft.to/lastmile_qr_scan"}, "lon": -77.03870683333334, "fusion_lon": 0.0, "is_disabled": 0, "lat": 38.93461083333333, "bike_id": "7c38dca15608a0d62b1e8493edd689fb", "name": "7c38dca15608a0d62b1e8493edd689fb", "is_reserved": 0, "fusion_lat": 0.0}, {"type": "electric_scooter", "rental_uris": {"ios": "https://dc.lft.to/lastmile_qr_scan", "android": "https://dc.lft.to/lastmile_qr_scan"}, "lon": -77.03444266666666, "fusion_lon": 0.0, "is_disabled": 0, "lat": 38.909798, "bike_id": "4fd1ce705ae20851643699a6948e33a6", "name": "4fd1ce705ae20851643699a6948e33a6", "is_reserved": 0, "fusion_lat": 0.0}, {"type": "electric_scooter", "rental_uris": {"ios": "https://dc.lft.to/lastmile_qr_scan", "android": "https://dc.lft.to/lastmile_qr_scan"}, "lon": -77.016855, "fusion_lon": 0.0, "is_disabled": 0, "lat": 38.88129433333334, "bike_id": "8c9ec49dd99a3a05e1bf7a0dad266051", "name": "8c9ec49dd99a3a05e1bf7a0dad266051", "is_reserved": 0, "fusion_lat": 0.0}, {"type": "electric_bike", "rental_uris": {"ios": "https://dc.lft.to/lastmile_qr_scan", "android": "https://dc.lft.to/lastmile_qr_scan"}, "lon": -76.989498, "fusion_lon": 0.0, "is_disabled": 0, "lat": 38.86704366666667, "bike_id": "f7dd58c0ea8252471c1a4263e1ae02bc", "name": "f7dd58c0ea8252471c1a4263e1ae02bc", "is_reserved": 0, "fusion_lat": 0.0}, {"type": "electric_scooter", "rental_uris": {"ios": "https://dc.lft.to/lastmile_qr_scan", "android": "https://dc.lft.to/lastmile_qr_scan"}, "lon": -77.0426015, "fusion_lon": 0.0, "is_disabled": 0, "lat": 38.916960333333336, "bike_id": "c6b9ea660668cc1a794a83e3eaebb104", "name": "c6b9ea660668cc1a794a83e3eaebb104", "is_reserved": 0, "fusion_lat": 0.0}, {"type": "electric_scooter", "rental_uris": {"ios": "https://dc.lft.to/lastmile_qr_scan", "android": "https://dc.lft.to/lastmile_qr_scan"}, "lon": -77.02595183333334, "fusion_lon": 0.0, "is_disabled": 0, "lat": 38.90602783333333, "bike_id": "a4a6a5ae14b2db6c4771b2e3685dfa89", "name": "a4a6a5ae14b2db6c4771b2e3685dfa89", "is_reserved": 0, "fusion_lat": 0.0}, {"type": "electric_scooter", "rental_uris": {"ios": "https://dc.lft.to/lastmile_qr_scan", "android": "https://dc.lft.to/lastmile_qr_scan"}, "lon": -77.00607316666667, "fusion_lon": 0.0, "is_disabled": 0, "lat": 38.90636166666667, "bike_id": "75826d5e3af2ffb9cf0c0b5c68fe8f24", "name": "75826d5e3af2ffb9cf0c0b5c68fe8f24", "is_reserved": 0, "fusion_lat": 0.0}, {"type": "electric_scooter", "rental_uris": {"ios": "https://dc.lft.to/lastmile_qr_scan", "android": "https://dc.lft.to/lastmile_qr_scan"}, "lon": -77.046876, "fusion_lon": 0.0, "is_disabled": 0, "lat": 38.89226333333333, "bike_id": "fa014384afa151f01ba62230f806e0b7", "name": "fa014384afa151f01ba62230f806e0b7", "is_reserved": 0, "fusion_lat": 0.0}, {"type": "electric_scooter", "rental_uris": {"ios": "https://dc.lft.to/lastmile_qr_scan", "android": "https://dc.lft.to/lastmile_qr_scan"}, "lon": -77.02654783333334, "fusion_lon": 0.0, "is_disabled": 0, "lat": 38.8922045, "bike_id": "77acb40a4c61f700dde12986c52c7d7c", "name": "77acb40a4c61f700dde12986c52c7d7c", "is_reserved": 0, "fusion_lat": 0.0}, {"type": "electric_scooter", "rental_uris": {"ios": "https://dc.lft.to/lastmile_qr_scan", "android": "https://dc.lft.to/lastmile_qr_scan"}, "lon": -77.0174915, "fusion_lon": 0.0, "is_disabled": 0, "lat": 38.902653666666666, "bike_id": "07f28e827fdc90e902982bb35f60f681", "name": "07f28e827fdc90e902982bb35f60f681", "is_reserved": 0, "fusion_lat": 0.0}, {"type": "electric_bike", "rental_uris": {"ios": "https://dc.lft.to/lastmile_qr_scan", "android": "https://dc.lft.to/lastmile_qr_scan"}, "lon": -77.0212415, "fusion_lon": 0.0, "is_disabled": 0, "lat": 38.93577583333333, "bike_id": "d06a0100f0a18835015364c26298fce2", "name": "d06a0100f0a18835015364c26298fce2", "is_reserved": 0, "fusion_lat": 0.0}, {"type": "electric_scooter", "rental_uris": {"ios": "https://dc.lft.to/lastmile_qr_scan", "android": "https://dc.lft.to/lastmile_qr_scan"}, "lon": -77.05951666666667, "fusion_lon": 0.0, "is_disabled": 0, "lat": 38.90233116666667, "bike_id": "05c788ee3e5c672b2ce28a7c7b536d18", "name": "05c788ee3e5c672b2ce28a7c7b536d18", "is_reserved": 0, "fusion_lat": 0.0}, {"type": "electric_scooter", "rental_uris": {"ios": "https://dc.lft.to/lastmile_qr_scan", "android": "https://dc.lft.to/lastmile_qr_scan"}, "lon": -77.03267, "fusion_lon": 0.0, "is_disabled": 0, "lat": 38.913287833333335, "bike_id": "ba8404ea735680a8e11b40b2e9d7fd76", "name": "ba8404ea735680a8e11b40b2e9d7fd76", "is_reserved": 0, "fusion_lat": 0.0}, {"type": "electric_bike", "rental_uris": {"ios": "https://dc.lft.to/lastmile_qr_scan", "android": "https://dc.lft.to/lastmile_qr_scan"}, "lon": -77.10084833333333, "fusion_lon": 0.0, "is_disabled": 0, "lat": 38.959605833333335, "bike_id": "4b80c374d50ea509eb6a73872ed45d18", "name": "4b80c374d50ea509eb6a73872ed45d18", "is_reserved": 0, "fusion_lat": 0.0}, {"type": "electric_scooter", "rental_uris": {"ios": "https://dc.lft.to/lastmile_qr_scan", "android": "https://dc.lft.to/lastmile_qr_scan"}, "lon": -77.024341, "fusion_lon": 0.0, "is_disabled": 0, "lat": 38.95624083333333, "bike_id": "664d6282996fcdf82846a095ec9c213d", "name": "664d6282996fcdf82846a095ec9c213d", "is_reserved": 0, "fusion_lat": 0.0}, {"type": "electric_scooter", "rental_uris": {"ios": "https://dc.lft.to/lastmile_qr_scan", "android": "https://dc.lft.to/lastmile_qr_scan"}, "lon": -77.0433355, "fusion_lon": 0.0, "is_disabled": 0, "lat": 38.8952385, "bike_id": "82fc1181628e2e597901cfc5693b392c", "name": "82fc1181628e2e597901cfc5693b392c", "is_reserved": 0, "fusion_lat": 0.0}, {"type": "electric_scooter", "rental_uris": {"ios": "https://dc.lft.to/lastmile_qr_scan", "android": "https://dc.lft.to/lastmile_qr_scan"}, "lon": -77.07303683333333, "fusion_lon": 0.0, "is_disabled": 0, "lat": 38.928842, "bike_id": "34b8c6c42a24af1e24087f724eb99197", "name": "34b8c6c42a24af1e24087f724eb99197", "is_reserved": 0, "fusion_lat": 0.0}, {"type": "electric_scooter", "rental_uris": {"ios": "https://dc.lft.to/lastmile_qr_scan", "android": "https://dc.lft.to/lastmile_qr_scan"}, "lon": -77.023501, "fusion_lon": 0.0, "is_disabled": 0, "lat": 38.91781016666667, "bike_id": "bc0480974199ba7a6554f18cbc1e07b6", "name": "bc0480974199ba7a6554f18cbc1e07b6", "is_reserved": 0, "fusion_lat": 0.0}, {"type": "electric_scooter", "rental_uris": {"ios": "https://dc.lft.to/lastmile_qr_scan", "android": "https://dc.lft.to/lastmile_qr_scan"}, "lon": -77.031913, "fusion_lon": 0.0, "is_disabled": 0, "lat": 38.917424, "bike_id": "41539ae0b58332c8a4b84d85ce21078e", "name": "41539ae0b58332c8a4b84d85ce21078e", "is_reserved": 0, "fusion_lat": 0.0}, {"type": "electric_scooter", "rental_uris": {"ios": "https://dc.lft.to/lastmile_qr_scan", "android": "https://dc.lft.to/lastmile_qr_scan"}, "lon": -77.0376315, "fusion_lon": 0.0, "is_disabled": 0, "lat": 38.912790333333334, "bike_id": "9d1200951e7008b1e7f0c658f94ad76f", "name": "9d1200951e7008b1e7f0c658f94ad76f", "is_reserved": 0, "fusion_lat": 0.0}, {"type": "electric_scooter", "rental_uris": {"ios": "https://dc.lft.to/lastmile_qr_scan", "android": "https://dc.lft.to/lastmile_qr_scan"}, "lon": -76.98888983333333, "fusion_lon": 0.0, "is_disabled": 0, "lat": 38.866587333333335, "bike_id": "4918c750381d30ff5878330d0cf13dc2", "name": "4918c750381d30ff5878330d0cf13dc2", "is_reserved": 0, "fusion_lat": 0.0}, {"type": "electric_scooter", "rental_uris": {"ios": "https://dc.lft.to/lastmile_qr_scan", "android": "https://dc.lft.to/lastmile_qr_scan"}, "lon": -77.04355566666666, "fusion_lon": 0.0, "is_disabled": 0, "lat": 38.912985166666665, "bike_id": "518ec563a596db561476f4eb9f95dd5b", "name": "518ec563a596db561476f4eb9f95dd5b", "is_reserved": 0, "fusion_lat": 0.0}, {"type": "electric_scooter", "rental_uris": {"ios": "https://dc.lft.to/lastmile_qr_scan", "android": "https://dc.lft.to/lastmile_qr_scan"}, "lon": -76.9335615, "fusion_lon": 0.0, "is_disabled": 0, "lat": 38.89912066666667, "bike_id": "f83b77ed043b83bfeab008164d198f72", "name": "f83b77ed043b83bfeab008164d198f72", "is_reserved": 0, "fusion_lat": 0.0}, {"type": "electric_scooter", "rental_uris": {"ios": "https://dc.lft.to/lastmile_qr_scan", "android": "https://dc.lft.to/lastmile_qr_scan"}, "lon": -77.02497183333334, "fusion_lon": 0.0, "is_disabled": 0, "lat": 38.9180865, "bike_id": "d56e18bcd8e6310472a3621fde4ee64a", "name": "d56e18bcd8e6310472a3621fde4ee64a", "is_reserved": 0, "fusion_lat": 0.0}, {"type": "electric_scooter", "rental_uris": {"ios": "https://dc.lft.to/lastmile_qr_scan", "android": "https://dc.lft.to/lastmile_qr_scan"}, "lon": -77.04457183333334, "fusion_lon": 0.0, "is_disabled": 0, "lat": 38.911902166666664, "bike_id": "8d903e8e7b73421b072885fd21b2135f", "name": "8d903e8e7b73421b072885fd21b2135f", "is_reserved": 0, "fusion_lat": 0.0}, {"type": "electric_scooter", "rental_uris": {"ios": "https://dc.lft.to/lastmile_qr_scan", "android": "https://dc.lft.to/lastmile_qr_scan"}, "lon": -77.0408915, "fusion_lon": 0.0, "is_disabled": 0, "lat": 38.904957833333334, "bike_id": "b63e6e7831330f217193543782f903ea", "name": "b63e6e7831330f217193543782f903ea", "is_reserved": 0, "fusion_lat": 0.0}, {"type": "electric_scooter", "rental_uris": {"ios": "https://dc.lft.to/lastmile_qr_scan", "android": "https://dc.lft.to/lastmile_qr_scan"}, "lon": -76.93185833333334, "fusion_lon": 0.0, "is_disabled": 0, "lat": 38.898774333333336, "bike_id": "720ee2e862ccb8008ea210ef8c6f13a9", "name": "720ee2e862ccb8008ea210ef8c6f13a9", "is_reserved": 0, "fusion_lat": 0.0}, {"type": "electric_scooter", "rental_uris": {"ios": "https://dc.lft.to/lastmile_qr_scan", "android": "https://dc.lft.to/lastmile_qr_scan"}, "lon": -77.03203533333334, "fusion_lon": 0.0, "is_disabled": 0, "lat": 38.909514333333334, "bike_id": "84340720bd942163f369f3e39409c8eb", "name": "84340720bd942163f369f3e39409c8eb", "is_reserved": 0, "fusion_lat": 0.0}, {"type": "electric_scooter", "rental_uris": {"ios": "https://dc.lft.to/lastmile_qr_scan", "android": "https://dc.lft.to/lastmile_qr_scan"}, "lon": -77.026975, "fusion_lon": 0.0, "is_disabled": 0, "lat": 38.91824783333333, "bike_id": "5ebd3301a68f36b1eb3058cbfe1bbe10", "name": "5ebd3301a68f36b1eb3058cbfe1bbe10", "is_reserved": 0, "fusion_lat": 0.0}, {"type": "electric_scooter", "rental_uris": {"ios": "https://dc.lft.to/lastmile_qr_scan", "android": "https://dc.lft.to/lastmile_qr_scan"}, "lon": -77.02663, "fusion_lon": 0.0, "is_disabled": 0, "lat": 38.9170865, "bike_id": "8e86da3578a6fff29c483f2089ea61fd", "name": "8e86da3578a6fff29c483f2089ea61fd", "is_reserved": 0, "fusion_lat": 0.0}, {"type": "electric_scooter", "rental_uris": {"ios": "https://dc.lft.to/lastmile_qr_scan", "android": "https://dc.lft.to/lastmile_qr_scan"}, "lon": -77.03405916666667, "fusion_lon": 0.0, "is_disabled": 0, "lat": 38.907237333333335, "bike_id": "4240be220e99661302b7514e42fe970b", "name": "4240be220e99661302b7514e42fe970b", "is_reserved": 0, "fusion_lat": 0.0}, {"type": "electric_scooter", "rental_uris": {"ios": "https://dc.lft.to/lastmile_qr_scan", "android": "https://dc.lft.to/lastmile_qr_scan"}, "lon": -77.04146016666667, "fusion_lon": 0.0, "is_disabled": 0, "lat": 38.89222933333333, "bike_id": "c7a2f737f69d985e1e8046eb1aee0cd3", "name": "c7a2f737f69d985e1e8046eb1aee0cd3", "is_reserved": 0, "fusion_lat": 0.0}, {"type": "electric_scooter", "rental_uris": {"ios": "https://dc.lft.to/lastmile_qr_scan", "android": "https://dc.lft.to/lastmile_qr_scan"}, "lon": -76.965345, "fusion_lon": 0.0, "is_disabled": 0, "lat": 38.918453, "bike_id": "1173010ded3120e83a35e553c6ada14b", "name": "1173010ded3120e83a35e553c6ada14b", "is_reserved": 0, "fusion_lat": 0.0}, {"type": "electric_scooter", "rental_uris": {"ios": "https://dc.lft.to/lastmile_qr_scan", "android": "https://dc.lft.to/lastmile_qr_scan"}, "lon": -77.02695933333334, "fusion_lon": 0.0, "is_disabled": 0, "lat": 38.90684, "bike_id": "39f9c60111cf256b25890b944c8b1695", "name": "39f9c60111cf256b25890b944c8b1695", "is_reserved": 0, "fusion_lat": 0.0}, {"type": "electric_scooter", "rental_uris": {"ios": "https://dc.lft.to/lastmile_qr_scan", "android": "https://dc.lft.to/lastmile_qr_scan"}, "lon": -77.029731, "fusion_lon": 0.0, "is_disabled": 0, "lat": 38.91680733333333, "bike_id": "5fcf67361b2b1f4985902915325eb2bb", "name": "5fcf67361b2b1f4985902915325eb2bb", "is_reserved": 0, "fusion_lat": 0.0}, {"type": "electric_bike", "rental_uris": {"ios": "https://dc.lft.to/lastmile_qr_scan", "android": "https://dc.lft.to/lastmile_qr_scan"}, "lon": -77.10134833333333, "fusion_lon": 0.0, "is_disabled": 0, "lat": 38.85206516666667, "bike_id": "a50d6aaa3413e015b24815e1c967f84d", "name": "a50d6aaa3413e015b24815e1c967f84d", "is_reserved": 0, "fusion_lat": 0.0}, {"type": "electric_scooter", "rental_uris": {"ios": "https://dc.lft.to/lastmile_qr_scan", "android": "https://dc.lft.to/lastmile_qr_scan"}, "lon": -77.01480533333333, "fusion_lon": 0.0, "is_disabled": 0, "lat": 38.88817016666667, "bike_id": "4a07ab0b9ce70cfcf656ac1ba073baf8", "name": "4a07ab0b9ce70cfcf656ac1ba073baf8", "is_reserved": 0, "fusion_lat": 0.0}, {"type": "electric_scooter", "rental_uris": {"ios": "https://dc.lft.to/lastmile_qr_scan", "android": "https://dc.lft.to/lastmile_qr_scan"}, "lon": -77.0241085, "fusion_lon": 0.0, "is_disabled": 0, "lat": 38.89198483333333, "bike_id": "7e00171623b30baf73104db736bbb420", "name": "7e00171623b30baf73104db736bbb420", "is_reserved": 0, "fusion_lat": 0.0}, {"type": "electric_scooter", "rental_uris": {"ios": "https://dc.lft.to/lastmile_qr_scan", "android": "https://dc.lft.to/lastmile_qr_scan"}, "lon": -77.0261215, "fusion_lon": 0.0, "is_disabled": 0, "lat": 38.90557966666667, "bike_id": "8d6f1558ec6fa856d36e68debcde3c30", "name": "8d6f1558ec6fa856d36e68debcde3c30", "is_reserved": 0, "fusion_lat": 0.0}, {"type": "electric_scooter", "rental_uris": {"ios": "https://dc.lft.to/lastmile_qr_scan", "android": "https://dc.lft.to/lastmile_qr_scan"}, "lon": -77.0290955, "fusion_lon": 0.0, "is_disabled": 0, "lat": 38.92568, "bike_id": "f54feca236c3c2ef9ea36f1e67938a23", "name": "f54feca236c3c2ef9ea36f1e67938a23", "is_reserved": 0, "fusion_lat": 0.0}, {"type": "electric_scooter", "rental_uris": {"ios": "https://dc.lft.to/lastmile_qr_scan", "android": "https://dc.lft.to/lastmile_qr_scan"}, "lon": -77.017626, "fusion_lon": 0.0, "is_disabled": 0, "lat": 38.877241, "bike_id": "8bc96eecb0043a7a4fdad09bc98a005c", "name": "8bc96eecb0043a7a4fdad09bc98a005c", "is_reserved": 0, "fusion_lat": 0.0}, {"type": "electric_scooter", "rental_uris": {"ios": "https://dc.lft.to/lastmile_qr_scan", "android": "https://dc.lft.to/lastmile_qr_scan"}, "lon": -77.0309625, "fusion_lon": 0.0, "is_disabled": 0, "lat": 38.879179, "bike_id": "5243ac1702001d9f14a63bcbe53eb3b1", "name": "5243ac1702001d9f14a63bcbe53eb3b1", "is_reserved": 0, "fusion_lat": 0.0}, {"type": "electric_bike", "rental_uris": {"ios": "https://dc.lft.to/lastmile_qr_scan", "android": "https://dc.lft.to/lastmile_qr_scan"}, "lon": -77.034193, "fusion_lon": 0.0, "is_disabled": 0, "lat": 38.92430683333333, "bike_id": "985e6a1a35c19bb2c60b120c3c570101", "name": "985e6a1a35c19bb2c60b120c3c570101", "is_reserved": 0, "fusion_lat": 0.0}, {"type": "electric_scooter", "rental_uris": {"ios": "https://dc.lft.to/lastmile_qr_scan", "android": "https://dc.lft.to/lastmile_qr_scan"}, "lon": -76.9334635, "fusion_lon": 0.0, "is_disabled": 0, "lat": 38.888158, "bike_id": "5f263568fec0de55bb406e2652ccb322", "name": "5f263568fec0de55bb406e2652ccb322", "is_reserved": 0, "fusion_lat": 0.0}, {"type": "electric_scooter", "rental_uris": {"ios": "https://dc.lft.to/lastmile_qr_scan", "android": "https://dc.lft.to/lastmile_qr_scan"}, "lon": -77.04003333333333, "fusion_lon": 0.0, "is_disabled": 0, "lat": 38.913363833333335, "bike_id": "9b11e2ee4f957d8ec3cd2537d83b03ca", "name": "9b11e2ee4f957d8ec3cd2537d83b03ca", "is_reserved": 0, "fusion_lat": 0.0}, {"type": "electric_scooter", "rental_uris": {"ios": "https://dc.lft.to/lastmile_qr_scan", "android": "https://dc.lft.to/lastmile_qr_scan"}, "lon": -77.03181733333334, "fusion_lon": 0.0, "is_disabled": 0, "lat": 38.91788183333333, "bike_id": "2914e572d18b5f9324bbf9bd73cb7435", "name": "2914e572d18b5f9324bbf9bd73cb7435", "is_reserved": 0, "fusion_lat": 0.0}, {"type": "electric_bike", "rental_uris": {"ios": "https://dc.lft.to/lastmile_qr_scan", "android": "https://dc.lft.to/lastmile_qr_scan"}, "lon": -77.0057235, "fusion_lon": 0.0, "is_disabled": 0, "lat": 38.839806, "bike_id": "24cdb5d2180c3d4cf21e52a88b23f2ed", "name": "24cdb5d2180c3d4cf21e52a88b23f2ed", "is_reserved": 0, "fusion_lat": 0.0}, {"type": "electric_bike", "rental_uris": {"ios": "https://dc.lft.to/lastmile_qr_scan", "android": "https://dc.lft.to/lastmile_qr_scan"}, "lon": -77.02683116666667, "fusion_lon": 0.0, "is_disabled": 0, "lat": 38.93698583333333, "bike_id": "1846afbd0af121f47783b4d5a39f059b", "name": "1846afbd0af121f47783b4d5a39f059b", "is_reserved": 0, "fusion_lat": 0.0}, {"type": "electric_bike", "rental_uris": {"ios": "https://dc.lft.to/lastmile_qr_scan", "android": "https://dc.lft.to/lastmile_qr_scan"}, "lon": -77.01442633333333, "fusion_lon": 0.0, "is_disabled": 0, "lat": 38.876703166666665, "bike_id": "2d1b2cb6dc679a3074d7f89ee3220e05", "name": "2d1b2cb6dc679a3074d7f89ee3220e05", "is_reserved": 0, "fusion_lat": 0.0}, {"type": "electric_scooter", "rental_uris": {"ios": "https://dc.lft.to/lastmile_qr_scan", "android": "https://dc.lft.to/lastmile_qr_scan"}, "lon": -77.03163283333333, "fusion_lon": 0.0, "is_disabled": 0, "lat": 38.8922585, "bike_id": "3d3ed43e82b0d37f721fe7cde94a174e", "name": "3d3ed43e82b0d37f721fe7cde94a174e", "is_reserved": 0, "fusion_lat": 0.0}, {"type": "electric_scooter", "rental_uris": {"ios": "https://dc.lft.to/lastmile_qr_scan", "android": "https://dc.lft.to/lastmile_qr_scan"}, "lon": -77.03413033333334, "fusion_lon": 0.0, "is_disabled": 0, "lat": 38.92050733333333, "bike_id": "0fbf66725de02b442d6b4e9a7b16e194", "name": "0fbf66725de02b442d6b4e9a7b16e194", "is_reserved": 0, "fusion_lat": 0.0}, {"type": "electric_scooter", "rental_uris": {"ios": "https://dc.lft.to/lastmile_qr_scan", "android": "https://dc.lft.to/lastmile_qr_scan"}, "lon": -77.07065633333333, "fusion_lon": 0.0, "is_disabled": 0, "lat": 38.93173766666666, "bike_id": "50bfc7efcbd774b8054dfd68acb721c7", "name": "50bfc7efcbd774b8054dfd68acb721c7", "is_reserved": 0, "fusion_lat": 0.0}, {"type": "electric_scooter", "rental_uris": {"ios": "https://dc.lft.to/lastmile_qr_scan", "android": "https://dc.lft.to/lastmile_qr_scan"}, "lon": -76.98523716666666, "fusion_lon": 0.0, "is_disabled": 0, "lat": 38.866853666666664, "bike_id": "c78194d2415757544b9f3958c98b0a13", "name": "c78194d2415757544b9f3958c98b0a13", "is_reserved": 0, "fusion_lat": 0.0}, {"type": "electric_scooter", "rental_uris": {"ios": "https://dc.lft.to/lastmile_qr_scan", "android": "https://dc.lft.to/lastmile_qr_scan"}, "lon": -77.03208066666667, "fusion_lon": 0.0, "is_disabled": 0, "lat": 38.90894933333333, "bike_id": "a52b2030d30fafebf063663fff2e3e21", "name": "a52b2030d30fafebf063663fff2e3e21", "is_reserved": 0, "fusion_lat": 0.0}, {"type": "electric_scooter", "rental_uris": {"ios": "https://dc.lft.to/lastmile_qr_scan", "android": "https://dc.lft.to/lastmile_qr_scan"}, "lon": -77.024957, "fusion_lon": 0.0, "is_disabled": 0, "lat": 38.91804416666667, "bike_id": "9773ade24b1fab399f375e283c7c3dfe", "name": "9773ade24b1fab399f375e283c7c3dfe", "is_reserved": 0, "fusion_lat": 0.0}, {"type": "electric_scooter", "rental_uris": {"ios": "https://dc.lft.to/lastmile_qr_scan", "android": "https://dc.lft.to/lastmile_qr_scan"}, "lon": -77.03436116666667, "fusion_lon": 0.0, "is_disabled": 0, "lat": 38.90674683333334, "bike_id": "9fdc11e5e9d0869a25f2f3a1ac77621d", "name": "9fdc11e5e9d0869a25f2f3a1ac77621d", "is_reserved": 0, "fusion_lat": 0.0}, {"type": "electric_scooter", "rental_uris": {"ios": "https://dc.lft.to/lastmile_qr_scan", "android": "https://dc.lft.to/lastmile_qr_scan"}, "lon": -77.04138966666666, "fusion_lon": 0.0, "is_disabled": 0, "lat": 38.89347566666667, "bike_id": "90a94c9edc27a9819431abc74d064a20", "name": "90a94c9edc27a9819431abc74d064a20", "is_reserved": 0, "fusion_lat": 0.0}, {"type": "electric_bike", "rental_uris": {"ios": "https://dc.lft.to/lastmile_qr_scan", "android": "https://dc.lft.to/lastmile_qr_scan"}, "lon": -76.89541333333334, "fusion_lon": 0.0, "is_disabled": 0, "lat": 38.94553233333333, "bike_id": "efacddee5062d1392c01167d0595c1c5", "name": "efacddee5062d1392c01167d0595c1c5", "is_reserved": 0, "fusion_lat": 0.0}, {"type": "electric_scooter", "rental_uris": {"ios": "https://dc.lft.to/lastmile_qr_scan", "android": "https://dc.lft.to/lastmile_qr_scan"}, "lon": -77.04468133333333, "fusion_lon": 0.0, "is_disabled": 0, "lat": 38.89621566666667, "bike_id": "aba227dd2844efeb7dabbb6b68883f2b", "name": "aba227dd2844efeb7dabbb6b68883f2b", "is_reserved": 0, "fusion_lat": 0.0}, {"type": "electric_scooter", "rental_uris": {"ios": "https://dc.lft.to/lastmile_qr_scan", "android": "https://dc.lft.to/lastmile_qr_scan"}, "lon": -77.0259585, "fusion_lon": 0.0, "is_disabled": 0, "lat": 38.907342166666666, "bike_id": "30df40413db8a292c8304b45865e3fce", "name": "30df40413db8a292c8304b45865e3fce", "is_reserved": 0, "fusion_lat": 0.0}, {"type": "electric_bike", "rental_uris": {"ios": "https://dc.lft.to/lastmile_qr_scan", "android": "https://dc.lft.to/lastmile_qr_scan"}, "lon": -76.979743, "fusion_lon": 0.0, "is_disabled": 0, "lat": 38.953710666666666, "bike_id": "047a5f0e4e8d3f88adb0c63bd51dc640", "name": "047a5f0e4e8d3f88adb0c63bd51dc640", "is_reserved": 0, "fusion_lat": 0.0}, {"type": "electric_scooter", "rental_uris": {"ios": "https://dc.lft.to/lastmile_qr_scan", "android": "https://dc.lft.to/lastmile_qr_scan"}, "lon": -77.032064, "fusion_lon": 0.0, "is_disabled": 0, "lat": 38.915714, "bike_id": "858c5c920e325335105ae793345dacb1", "name": "858c5c920e325335105ae793345dacb1", "is_reserved": 0, "fusion_lat": 0.0}, {"type": "electric_scooter", "rental_uris": {"ios": "https://dc.lft.to/lastmile_qr_scan", "android": "https://dc.lft.to/lastmile_qr_scan"}, "lon": -77.04674466666667, "fusion_lon": 0.0, "is_disabled": 0, "lat": 38.90548883333334, "bike_id": "45de985debf0328c86caa5b6babb0393", "name": "45de985debf0328c86caa5b6babb0393", "is_reserved": 0, "fusion_lat": 0.0}, {"type": "electric_scooter", "rental_uris": {"ios": "https://dc.lft.to/lastmile_qr_scan", "android": "https://dc.lft.to/lastmile_qr_scan"}, "lon": -77.029876, "fusion_lon": 0.0, "is_disabled": 0, "lat": 38.932443166666665, "bike_id": "62b10b54a11e4e2d575d24dd5d365211", "name": "62b10b54a11e4e2d575d24dd5d365211", "is_reserved": 0, "fusion_lat": 0.0}, {"type": "electric_scooter", "rental_uris": {"ios": "https://dc.lft.to/lastmile_qr_scan", "android": "https://dc.lft.to/lastmile_qr_scan"}, "lon": -77.0221525, "fusion_lon": 0.0, "is_disabled": 0, "lat": 38.88746016666666, "bike_id": "7b520108cb692162279f1914e4b0e631", "name": "7b520108cb692162279f1914e4b0e631", "is_reserved": 0, "fusion_lat": 0.0}, {"type": "electric_scooter", "rental_uris": {"ios": "https://dc.lft.to/lastmile_qr_scan", "android": "https://dc.lft.to/lastmile_qr_scan"}, "lon": -77.04462283333334, "fusion_lon": 0.0, "is_disabled": 0, "lat": 38.911181, "bike_id": "e22ae62d64b94380302431052aa96e88", "name": "e22ae62d64b94380302431052aa96e88", "is_reserved": 0, "fusion_lat": 0.0}, {"type": "electric_scooter", "rental_uris": {"ios": "https://dc.lft.to/lastmile_qr_scan", "android": "https://dc.lft.to/lastmile_qr_scan"}, "lon": -77.03459183333334, "fusion_lon": 0.0, "is_disabled": 0, "lat": 38.91820233333333, "bike_id": "2baec2fe15e93a33d0764328ca78cc13", "name": "2baec2fe15e93a33d0764328ca78cc13", "is_reserved": 0, "fusion_lat": 0.0}, {"type": "electric_scooter", "rental_uris": {"ios": "https://dc.lft.to/lastmile_qr_scan", "android": "https://dc.lft.to/lastmile_qr_scan"}, "lon": -76.976313, "fusion_lon": 0.0, "is_disabled": 0, "lat": 38.85194333333333, "bike_id": "06c4382e71764ca9806e1a03683a50d1", "name": "06c4382e71764ca9806e1a03683a50d1", "is_reserved": 0, "fusion_lat": 0.0}, {"type": "electric_scooter", "rental_uris": {"ios": "https://dc.lft.to/lastmile_qr_scan", "android": "https://dc.lft.to/lastmile_qr_scan"}, "lon": -77.01758166666667, "fusion_lon": 0.0, "is_disabled": 0, "lat": 38.902583666666665, "bike_id": "fd744a059b91a7df49083d12a5739557", "name": "fd744a059b91a7df49083d12a5739557", "is_reserved": 0, "fusion_lat": 0.0}, {"type": "electric_scooter", "rental_uris": {"ios": "https://dc.lft.to/lastmile_qr_scan", "android": "https://dc.lft.to/lastmile_qr_scan"}, "lon": -77.03065783333334, "fusion_lon": 0.0, "is_disabled": 0, "lat": 38.886054333333334, "bike_id": "9ff8649a7ec838671e07df3cdf87d005", "name": "9ff8649a7ec838671e07df3cdf87d005", "is_reserved": 0, "fusion_lat": 0.0}, {"type": "electric_scooter", "rental_uris": {"ios": "https://dc.lft.to/lastmile_qr_scan", "android": "https://dc.lft.to/lastmile_qr_scan"}, "lon": -77.0436555, "fusion_lon": 0.0, "is_disabled": 0, "lat": 38.920648166666666, "bike_id": "e1b74d6fa25e7921342910a4140a87c8", "name": "e1b74d6fa25e7921342910a4140a87c8", "is_reserved": 0, "fusion_lat": 0.0}, {"type": "electric_scooter", "rental_uris": {"ios": "https://dc.lft.to/lastmile_qr_scan", "android": "https://dc.lft.to/lastmile_qr_scan"}, "lon": -77.03790583333334, "fusion_lon": 0.0, "is_disabled": 0, "lat": 38.909603, "bike_id": "96fef45ef9679d3e861f7e6b82013c63", "name": "96fef45ef9679d3e861f7e6b82013c63", "is_reserved": 0, "fusion_lat": 0.0}, {"type": "electric_scooter", "rental_uris": {"ios": "https://dc.lft.to/lastmile_qr_scan", "android": "https://dc.lft.to/lastmile_qr_scan"}, "lon": -77.02806683333333, "fusion_lon": 0.0, "is_disabled": 0, "lat": 38.902724666666664, "bike_id": "5caf4d4c792b5d8cbdc7d3188e3ae9b7", "name": "5caf4d4c792b5d8cbdc7d3188e3ae9b7", "is_reserved": 0, "fusion_lat": 0.0}, {"type": "electric_scooter", "rental_uris": {"ios": "https://dc.lft.to/lastmile_qr_scan", "android": "https://dc.lft.to/lastmile_qr_scan"}, "lon": -76.989774, "fusion_lon": 0.0, "is_disabled": 0, "lat": 38.86508033333333, "bike_id": "ecaccfc789c9fb84e45bd580cfa655fc", "name": "ecaccfc789c9fb84e45bd580cfa655fc", "is_reserved": 0, "fusion_lat": 0.0}, {"type": "electric_scooter", "rental_uris": {"ios": "https://dc.lft.to/lastmile_qr_scan", "android": "https://dc.lft.to/lastmile_qr_scan"}, "lon": -77.030937, "fusion_lon": 0.0, "is_disabled": 0, "lat": 38.899959833333334, "bike_id": "1f632579ef6c63eb100078643e86ed89", "name": "1f632579ef6c63eb100078643e86ed89", "is_reserved": 0, "fusion_lat": 0.0}, {"type": "electric_scooter", "rental_uris": {"ios": "https://dc.lft.to/lastmile_qr_scan", "android": "https://dc.lft.to/lastmile_qr_scan"}, "lon": -77.00615833333333, "fusion_lon": 0.0, "is_disabled": 0, "lat": 38.90864883333333, "bike_id": "d5c8748a500d3ce9c4726a7d454ec84e", "name": "d5c8748a500d3ce9c4726a7d454ec84e", "is_reserved": 0, "fusion_lat": 0.0}, {"type": "electric_scooter", "rental_uris": {"ios": "https://dc.lft.to/lastmile_qr_scan", "android": "https://dc.lft.to/lastmile_qr_scan"}, "lon": -77.06982916666666, "fusion_lon": 0.0, "is_disabled": 0, "lat": 38.95252466666667, "bike_id": "c884b7ce72f34a6d825a7df22681f1be", "name": "c884b7ce72f34a6d825a7df22681f1be", "is_reserved": 0, "fusion_lat": 0.0}, {"type": "electric_scooter", "rental_uris": {"ios": "https://dc.lft.to/lastmile_qr_scan", "android": "https://dc.lft.to/lastmile_qr_scan"}, "lon": -77.04458483333333, "fusion_lon": 0.0, "is_disabled": 0, "lat": 38.93020833333333, "bike_id": "713e2951a8dbdd1b018b02fbb3791d87", "name": "713e2951a8dbdd1b018b02fbb3791d87", "is_reserved": 0, "fusion_lat": 0.0}, {"type": "electric_scooter", "rental_uris": {"ios": "https://dc.lft.to/lastmile_qr_scan", "android": "https://dc.lft.to/lastmile_qr_scan"}, "lon": -77.03868666666666, "fusion_lon": 0.0, "is_disabled": 0, "lat": 38.909759, "bike_id": "be6517064494d1167df842e98f777b23", "name": "be6517064494d1167df842e98f777b23", "is_reserved": 0, "fusion_lat": 0.0}, {"type": "electric_scooter", "rental_uris": {"ios": "https://dc.lft.to/lastmile_qr_scan", "android": "https://dc.lft.to/lastmile_qr_scan"}, "lon": -77.0316455, "fusion_lon": 0.0, "is_disabled": 0, "lat": 38.892209, "bike_id": "c138b2d04fb67fbeb8bf67708b0c74a6", "name": "c138b2d04fb67fbeb8bf67708b0c74a6", "is_reserved": 0, "fusion_lat": 0.0}, {"type": "electric_scooter", "rental_uris": {"ios": "https://dc.lft.to/lastmile_qr_scan", "android": "https://dc.lft.to/lastmile_qr_scan"}, "lon": -76.93995333333334, "fusion_lon": 0.0, "is_disabled": 0, "lat": 38.899765, "bike_id": "2ee1d3c96869776c7fbd463256d9b291", "name": "2ee1d3c96869776c7fbd463256d9b291", "is_reserved": 0, "fusion_lat": 0.0}, {"type": "electric_scooter", "rental_uris": {"ios": "https://dc.lft.to/lastmile_qr_scan", "android": "https://dc.lft.to/lastmile_qr_scan"}, "lon": -76.98990316666666, "fusion_lon": 0.0, "is_disabled": 0, "lat": 38.865007166666665, "bike_id": "5be31c06c0f54b484f7827b91b8fd920", "name": "5be31c06c0f54b484f7827b91b8fd920", "is_reserved": 0, "fusion_lat": 0.0}, {"type": "electric_scooter", "rental_uris": {"ios": "https://dc.lft.to/lastmile_qr_scan", "android": "https://dc.lft.to/lastmile_qr_scan"}, "lon": -77.03166116666667, "fusion_lon": 0.0, "is_disabled": 0, "lat": 38.89226716666667, "bike_id": "ac31199a590962a7037a0359a5471f91", "name": "ac31199a590962a7037a0359a5471f91", "is_reserved": 0, "fusion_lat": 0.0}, {"type": "electric_bike", "rental_uris": {"ios": "https://dc.lft.to/lastmile_qr_scan", "android": "https://dc.lft.to/lastmile_qr_scan"}, "lon": -77.112237, "fusion_lon": 0.0, "is_disabled": 0, "lat": 38.828726833333334, "bike_id": "ecaa1a4be9390a1f38a104212605d116", "name": "ecaa1a4be9390a1f38a104212605d116", "is_reserved": 0, "fusion_lat": 0.0}, {"type": "electric_scooter", "rental_uris": {"ios": "https://dc.lft.to/lastmile_qr_scan", "android": "https://dc.lft.to/lastmile_qr_scan"}, "lon": -77.04431583333333, "fusion_lon": 0.0, "is_disabled": 0, "lat": 38.921235833333334, "bike_id": "171d9f98b55f92ae2df207e3bac1c2dc", "name": "171d9f98b55f92ae2df207e3bac1c2dc", "is_reserved": 0, "fusion_lat": 0.0}, {"type": "electric_scooter", "rental_uris": {"ios": "https://dc.lft.to/lastmile_qr_scan", "android": "https://dc.lft.to/lastmile_qr_scan"}, "lon": -76.9982305, "fusion_lon": 0.0, "is_disabled": 0, "lat": 38.90028516666667, "bike_id": "e51ec2d9bd0999b56ca6698b6ce39523", "name": "e51ec2d9bd0999b56ca6698b6ce39523", "is_reserved": 0, "fusion_lat": 0.0}, {"type": "electric_scooter", "rental_uris": {"ios": "https://dc.lft.to/lastmile_qr_scan", "android": "https://dc.lft.to/lastmile_qr_scan"}, "lon": -77.03887066666667, "fusion_lon": 0.0, "is_disabled": 0, "lat": 38.90256733333333, "bike_id": "60c7de93064e7b4aee95ef2d569ee1f9", "name": "60c7de93064e7b4aee95ef2d569ee1f9", "is_reserved": 0, "fusion_lat": 0.0}, {"type": "electric_scooter", "rental_uris": {"ios": "https://dc.lft.to/lastmile_qr_scan", "android": "https://dc.lft.to/lastmile_qr_scan"}, "lon": -77.03868933333334, "fusion_lon": 0.0, "is_disabled": 0, "lat": 38.909727833333335, "bike_id": "b0426e9240edf48a6b95ba09c896ccd4", "name": "b0426e9240edf48a6b95ba09c896ccd4", "is_reserved": 0, "fusion_lat": 0.0}, {"type": "electric_scooter", "rental_uris": {"ios": "https://dc.lft.to/lastmile_qr_scan", "android": "https://dc.lft.to/lastmile_qr_scan"}, "lon": -77.03512883333333, "fusion_lon": 0.0, "is_disabled": 0, "lat": 38.921535666666664, "bike_id": "3e6c3345acf18b0416d32b6d8404ebed", "name": "3e6c3345acf18b0416d32b6d8404ebed", "is_reserved": 0, "fusion_lat": 0.0}, {"type": "electric_scooter", "rental_uris": {"ios": "https://dc.lft.to/lastmile_qr_scan", "android": "https://dc.lft.to/lastmile_qr_scan"}, "lon": -77.07712, "fusion_lon": 0.0, "is_disabled": 0, "lat": 38.94382516666667, "bike_id": "18d3b92b5cc7e1095dfb91264c7cb86d", "name": "18d3b92b5cc7e1095dfb91264c7cb86d", "is_reserved": 0, "fusion_lat": 0.0}, {"type": "electric_bike", "rental_uris": {"ios": "https://dc.lft.to/lastmile_qr_scan", "android": "https://dc.lft.to/lastmile_qr_scan"}, "lon": -77.03904066666666, "fusion_lon": 0.0, "is_disabled": 0, "lat": 38.922209333333335, "bike_id": "5558445388bdf1968d56d90d4cf703dc", "name": "5558445388bdf1968d56d90d4cf703dc", "is_reserved": 0, "fusion_lat": 0.0}, {"type": "electric_scooter", "rental_uris": {"ios": "https://dc.lft.to/lastmile_qr_scan", "android": "https://dc.lft.to/lastmile_qr_scan"}, "lon": -77.04220333333333, "fusion_lon": 0.0, "is_disabled": 0, "lat": 38.907285, "bike_id": "9e2fcb3efda03d923dfa5ddcb4962849", "name": "9e2fcb3efda03d923dfa5ddcb4962849", "is_reserved": 0, "fusion_lat": 0.0}, {"type": "electric_scooter", "rental_uris": {"ios": "https://dc.lft.to/lastmile_qr_scan", "android": "https://dc.lft.to/lastmile_qr_scan"}, "lon": -77.02692283333333, "fusion_lon": 0.0, "is_disabled": 0, "lat": 38.906029, "bike_id": "454a8db69c0841f6d19820cc01555327", "name": "454a8db69c0841f6d19820cc01555327", "is_reserved": 0, "fusion_lat": 0.0}, {"type": "electric_bike", "rental_uris": {"ios": "https://dc.lft.to/lastmile_qr_scan", "android": "https://dc.lft.to/lastmile_qr_scan"}, "lon": -77.04926583333334, "fusion_lon": 0.0, "is_disabled": 0, "lat": 39.029347, "bike_id": "d4766e46491e1357ce9ce6be53cbc400", "name": "d4766e46491e1357ce9ce6be53cbc400", "is_reserved": 0, "fusion_lat": 0.0}, {"type": "electric_scooter", "rental_uris": {"ios": "https://dc.lft.to/lastmile_qr_scan", "android": "https://dc.lft.to/lastmile_qr_scan"}, "lon": -77.00614516666667, "fusion_lon": 0.0, "is_disabled": 0, "lat": 38.87181016666667, "bike_id": "ed431637d297f5b14792d30b01beb0e7", "name": "ed431637d297f5b14792d30b01beb0e7", "is_reserved": 0, "fusion_lat": 0.0}, {"type": "electric_scooter", "rental_uris": {"ios": "https://dc.lft.to/lastmile_qr_scan", "android": "https://dc.lft.to/lastmile_qr_scan"}, "lon": -77.03153433333334, "fusion_lon": 0.0, "is_disabled": 0, "lat": 38.9156365, "bike_id": "e6381d287926f718b8c6030b4a0db7e4", "name": "e6381d287926f718b8c6030b4a0db7e4", "is_reserved": 0, "fusion_lat": 0.0}, {"type": "electric_scooter", "rental_uris": {"ios": "https://dc.lft.to/lastmile_qr_scan", "android": "https://dc.lft.to/lastmile_qr_scan"}, "lon": -77.0170405, "fusion_lon": 0.0, "is_disabled": 0, "lat": 38.91384166666667, "bike_id": "aa4017ea34f93c931a3759b0917d577b", "name": "aa4017ea34f93c931a3759b0917d577b", "is_reserved": 0, "fusion_lat": 0.0}, {"type": "electric_scooter", "rental_uris": {"ios": "https://dc.lft.to/lastmile_qr_scan", "android": "https://dc.lft.to/lastmile_qr_scan"}, "lon": -77.0369445, "fusion_lon": 0.0, "is_disabled": 0, "lat": 38.9261435, "bike_id": "1ec278430fd77fa4987b81f61464dacb", "name": "1ec278430fd77fa4987b81f61464dacb", "is_reserved": 0, "fusion_lat": 0.0}, {"type": "electric_scooter", "rental_uris": {"ios": "https://dc.lft.to/lastmile_qr_scan", "android": "https://dc.lft.to/lastmile_qr_scan"}, "lon": -77.02491966666666, "fusion_lon": 0.0, "is_disabled": 0, "lat": 38.94186283333333, "bike_id": "e4415a2851ac49c827060117839e6b7b", "name": "e4415a2851ac49c827060117839e6b7b", "is_reserved": 0, "fusion_lat": 0.0}, {"type": "electric_scooter", "rental_uris": {"ios": "https://dc.lft.to/lastmile_qr_scan", "android": "https://dc.lft.to/lastmile_qr_scan"}, "lon": -77.03208483333333, "fusion_lon": 0.0, "is_disabled": 0, "lat": 38.912055333333335, "bike_id": "cd92e9cfc5e10205bcd0ed25451a0424", "name": "cd92e9cfc5e10205bcd0ed25451a0424", "is_reserved": 0, "fusion_lat": 0.0}, {"type": "electric_scooter", "rental_uris": {"ios": "https://dc.lft.to/lastmile_qr_scan", "android": "https://dc.lft.to/lastmile_qr_scan"}, "lon": -77.0585915, "fusion_lon": 0.0, "is_disabled": 0, "lat": 38.935428, "bike_id": "578833024e1f6c2812c65a0182a0723e", "name": "578833024e1f6c2812c65a0182a0723e", "is_reserved": 0, "fusion_lat": 0.0}, {"type": "electric_scooter", "rental_uris": {"ios": "https://dc.lft.to/lastmile_qr_scan", "android": "https://dc.lft.to/lastmile_qr_scan"}, "lon": -77.04865833333334, "fusion_lon": 0.0, "is_disabled": 0, "lat": 38.904784, "bike_id": "9da0c48325cdac2ddbbe659f86f043bf", "name": "9da0c48325cdac2ddbbe659f86f043bf", "is_reserved": 0, "fusion_lat": 0.0}, {"type": "electric_scooter", "rental_uris": {"ios": "https://dc.lft.to/lastmile_qr_scan", "android": "https://dc.lft.to/lastmile_qr_scan"}, "lon": -77.03264483333334, "fusion_lon": 0.0, "is_disabled": 0, "lat": 38.91565466666667, "bike_id": "9892d2df7443e365891a6d5cd5e3f891", "name": "9892d2df7443e365891a6d5cd5e3f891", "is_reserved": 0, "fusion_lat": 0.0}, {"type": "electric_scooter", "rental_uris": {"ios": "https://dc.lft.to/lastmile_qr_scan", "android": "https://dc.lft.to/lastmile_qr_scan"}, "lon": -77.04026066666667, "fusion_lon": 0.0, "is_disabled": 0, "lat": 38.9306175, "bike_id": "1f61b97b578d76054f7b8ab305b5f0a2", "name": "1f61b97b578d76054f7b8ab305b5f0a2", "is_reserved": 0, "fusion_lat": 0.0}, {"type": "electric_scooter", "rental_uris": {"ios": "https://dc.lft.to/lastmile_qr_scan", "android": "https://dc.lft.to/lastmile_qr_scan"}, "lon": -77.02448316666667, "fusion_lon": 0.0, "is_disabled": 0, "lat": 38.91883416666667, "bike_id": "f98a5bbcc7363712b8603626bbb3ff53", "name": "f98a5bbcc7363712b8603626bbb3ff53", "is_reserved": 0, "fusion_lat": 0.0}, {"type": "electric_scooter", "rental_uris": {"ios": "https://dc.lft.to/lastmile_qr_scan", "android": "https://dc.lft.to/lastmile_qr_scan"}, "lon": -77.02985466666667, "fusion_lon": 0.0, "is_disabled": 0, "lat": 38.90506883333333, "bike_id": "9dd1054d212aac3f66d7a6c74e66a16b", "name": "9dd1054d212aac3f66d7a6c74e66a16b", "is_reserved": 0, "fusion_lat": 0.0}, {"type": "electric_scooter", "rental_uris": {"ios": "https://dc.lft.to/lastmile_qr_scan", "android": "https://dc.lft.to/lastmile_qr_scan"}, "lon": -77.02302983333334, "fusion_lon": 0.0, "is_disabled": 0, "lat": 38.9161485, "bike_id": "df66a11e7888bd4206326d6b34916f62", "name": "df66a11e7888bd4206326d6b34916f62", "is_reserved": 0, "fusion_lat": 0.0}, {"type": "electric_scooter", "rental_uris": {"ios": "https://dc.lft.to/lastmile_qr_scan", "android": "https://dc.lft.to/lastmile_qr_scan"}, "lon": -77.02300966666667, "fusion_lon": 0.0, "is_disabled": 0, "lat": 38.91602116666667, "bike_id": "5f0cae11c32eb30bf9a1aeb548421beb", "name": "5f0cae11c32eb30bf9a1aeb548421beb", "is_reserved": 0, "fusion_lat": 0.0}, {"type": "electric_scooter", "rental_uris": {"ios": "https://dc.lft.to/lastmile_qr_scan", "android": "https://dc.lft.to/lastmile_qr_scan"}, "lon": -77.01040133333333, "fusion_lon": 0.0, "is_disabled": 0, "lat": 38.866693166666664, "bike_id": "b51c6b3710c763c26dea73ace993e893", "name": "b51c6b3710c763c26dea73ace993e893", "is_reserved": 0, "fusion_lat": 0.0}, {"type": "electric_scooter", "rental_uris": {"ios": "https://dc.lft.to/lastmile_qr_scan", "android": "https://dc.lft.to/lastmile_qr_scan"}, "lon": -77.042767, "fusion_lon": 0.0, "is_disabled": 0, "lat": 38.92305283333334, "bike_id": "d55ce1ab2a99a0900c3e0c4a409e388b", "name": "d55ce1ab2a99a0900c3e0c4a409e388b", "is_reserved": 0, "fusion_lat": 0.0}, {"type": "electric_scooter", "rental_uris": {"ios": "https://dc.lft.to/lastmile_qr_scan", "android": "https://dc.lft.to/lastmile_qr_scan"}, "lon": -77.0335575, "fusion_lon": 0.0, "is_disabled": 0, "lat": 38.899271, "bike_id": "df9b05e4ef053748a20b66bb3c3a46ac", "name": "df9b05e4ef053748a20b66bb3c3a46ac", "is_reserved": 0, "fusion_lat": 0.0}, {"type": "electric_scooter", "rental_uris": {"ios": "https://dc.lft.to/lastmile_qr_scan", "android": "https://dc.lft.to/lastmile_qr_scan"}, "lon": -76.986922, "fusion_lon": 0.0, "is_disabled": 0, "lat": 38.867219166666665, "bike_id": "2e81f097941e31b4a69ec2dd8c9deeb0", "name": "2e81f097941e31b4a69ec2dd8c9deeb0", "is_reserved": 0, "fusion_lat": 0.0}, {"type": "electric_scooter", "rental_uris": {"ios": "https://dc.lft.to/lastmile_qr_scan", "android": "https://dc.lft.to/lastmile_qr_scan"}, "lon": -77.03186466666666, "fusion_lon": 0.0, "is_disabled": 0, "lat": 38.90977916666667, "bike_id": "0d604bc3e89a70fe074797fc336377b0", "name": "0d604bc3e89a70fe074797fc336377b0", "is_reserved": 0, "fusion_lat": 0.0}, {"type": "electric_scooter", "rental_uris": {"ios": "https://dc.lft.to/lastmile_qr_scan", "android": "https://dc.lft.to/lastmile_qr_scan"}, "lon": -77.04506583333334, "fusion_lon": 0.0, "is_disabled": 0, "lat": 38.919656833333335, "bike_id": "6707dd811dd5be98b79abb198113a068", "name": "6707dd811dd5be98b79abb198113a068", "is_reserved": 0, "fusion_lat": 0.0}, {"type": "electric_bike", "rental_uris": {"ios": "https://dc.lft.to/lastmile_qr_scan", "android": "https://dc.lft.to/lastmile_qr_scan"}, "lon": -77.03425983333334, "fusion_lon": 0.0, "is_disabled": 0, "lat": 38.96619966666667, "bike_id": "caae005da251325aeb2bef76b00d9a5d", "name": "caae005da251325aeb2bef76b00d9a5d", "is_reserved": 0, "fusion_lat": 0.0}, {"type": "electric_scooter", "rental_uris": {"ios": "https://dc.lft.to/lastmile_qr_scan", "android": "https://dc.lft.to/lastmile_qr_scan"}, "lon": -76.98988316666667, "fusion_lon": 0.0, "is_disabled": 0, "lat": 38.864988, "bike_id": "a646cf0296c444b6e52e6081de28e0c8", "name": "a646cf0296c444b6e52e6081de28e0c8", "is_reserved": 0, "fusion_lat": 0.0},