{"data": {"bikes": [{"fusion_lat": 0.0, "name": "84a51a7f8057556a279dc2035a36e513", "is_disabled": 0, "rental_uris": {"android": "https://dc.lft.to/lastmile_qr_scan", "ios": "https://dc.lft.to/lastmile_qr_scan"}, "fusion_lon": 0.0, "lat": 38.902175666666665, "bike_id": "84a51a7f8057556a279dc2035a36e513", "type": "electric_scooter", "is_reserved": 0, "lon": -77.0236475}, {"fusion_lat": 0.0, "name": "d62ca62b946e3689faab9ad832d53960", "is_disabled": 0, "rental_uris": {"android": "https://dc.lft.to/lastmile_qr_scan", "ios": "https://dc.lft.to/lastmile_qr_scan"}, "fusion_lon": 0.0, "lat": 38.90452633333334, "bike_id": "d62ca62b946e3689faab9ad832d53960", "type": "electric_bike", "is_reserved": 0, "lon": -76.97428283333333}, {"fusion_lat": 0.0, "name": "63e56b2540b0c321e6df8434ddaef737", "is_disabled": 0, "rental_uris": {"android": "https://dc.lft.to/lastmile_qr_scan", "ios": "https://dc.lft.to/lastmile_qr_scan"}, "fusion_lon": 0.0, "lat": 38.85561583333333, "bike_id": "63e56b2540b0c321e6df8434ddaef737", "type": "electric_bike", "is_reserved": 0, "lon": -77.11321833333334}, {"fusion_lat": 0.0, "name": "8b57bd6a512fcf0eb410ebe3e25571f2", "is_disabled": 0, "rental_uris": {"android": "https://dc.lft.to/lastmile_qr_scan", "ios": "https://dc.lft.to/lastmile_qr_scan"}, "fusion_lon": 0.0, "lat": 38.89848883333333, "bike_id": "8b57bd6a512fcf0eb410ebe3e25571f2", "type": "electric_scooter", "is_reserved": 0, "lon": -76.9318005}, {"fusion_lat": 0.0, "name": "b226d0beb75a47017bc1c9f277963fc6", "is_disabled": 0, "rental_uris": {"android": "https://dc.lft.to/lastmile_qr_scan", "ios": "https://dc.lft.to/lastmile_qr_scan"}, "fusion_lon": 0.0, "lat": 38.90557733333333, "bike_id": "b226d0beb75a47017bc1c9f277963fc6", "type": "electric_scooter", "is_reserved": 0, "lon": -77.04363066666667}, {"fusion_lat": 0.0, "name": "634d5c745677296a09fea490c2a482bc", "is_disabled": 0, "rental_uris": {"android": "https://dc.lft.to/lastmile_qr_scan", "ios": "https://dc.lft.to/lastmile_qr_scan"}, "fusion_lon": 0.0, "lat": 38.8972755, "bike_id": "634d5c745677296a09fea490c2a482bc", "type": "electric_scooter", "is_reserved": 0, "lon": -76.94701916666666}, {"fusion_lat": 0.0, "name": "61375a5285e45f35d96d9c4d0267343a", "is_disabled": 0, "rental_uris": {"android": "https://dc.lft.to/lastmile_qr_scan", "ios": "https://dc.lft.to/lastmile_qr_scan"}, "fusion_lon": 0.0, "lat": 38.840552333333335, "bike_id": "61375a5285e45f35d96d9c4d0267343a", "type": "electric_scooter", "is_reserved": 0, "lon": -76.97667266666667}, {"fusion_lat": 0.0, "name": "799a6ac7a0702532856269d4dd3b427b", "is_disabled": 0, "rental_uris": {"android": "https://dc.lft.to/lastmile_qr_scan", "ios": "https://dc.lft.to/lastmile_qr_scan"}, "fusion_lon": 0.0, "lat": 38.903732833333336, "bike_id": "799a6ac7a0702532856269d4dd3b427b", "type": "electric_scooter", "is_reserved": 0, "lon": -77.034703}, {"fusion_lat": 0.0, "name": "4243edd85357f8e7e1f7ce5f896c9214", "is_disabled": 0, "rental_uris": {"android": "https://dc.lft.to/lastmile_qr_scan", "ios": "https://dc.lft.to/lastmile_qr_scan"}, "fusion_lon": 0.0, "lat": 38.92156083333333, "bike_id": "4243edd85357f8e7e1f7ce5f896c9214", "type": "electric_scooter", "is_reserved": 0, "lon": -77.0209625}, {"fusion_lat": 0.0, "name": "3117d80d95049c239375ac4a1f8f6055", "is_disabled": 0, "rental_uris": {"android": "https://dc.lft.to/lastmile_qr_scan", "ios": "https://dc.lft.to/lastmile_qr_scan"}, "fusion_lon": 0.0, "lat": 38.900699, "bike_id": "3117d80d95049c239375ac4a1f8f6055", "type": "electric_scooter", "is_reserved": 0, "lon": -76.98694883333333}, {"fusion_lat": 0.0, "name": "8479669b0eb127af0c0a6da2f8a826ef", "is_disabled": 0, "rental_uris": {"android": "https://dc.lft.to/lastmile_qr_scan", "ios": "https://dc.lft.to/lastmile_qr_scan"}, "fusion_lon": 0.0, "lat": 38.906915833333336, "bike_id": "8479669b0eb127af0c0a6da2f8a826ef", "type": "electric_scooter", "is_reserved": 0, "lon": -77.04208033333333}, {"fusion_lat": 0.0, "name": "d94baa8823cf07436c9d76c2f759e63c", "is_disabled": 0, "rental_uris": {"android": "https://dc.lft.to/lastmile_qr_scan", "ios": "https://dc.lft.to/lastmile_qr_scan"}, "fusion_lon": 0.0, "lat": 38.81609566666667, "bike_id": "d94baa8823cf07436c9d76c2f759e63c", "type": "electric_bike", "is_reserved": 0, "lon": -76.99664033333333}, {"fusion_lat": 0.0, "name": "091a22b14574b4def41d59e5b29051a4", "is_disabled": 0, "rental_uris": {"android": "https://dc.lft.to/lastmile_qr_scan", "ios": "https://dc.lft.to/lastmile_qr_scan"}, "fusion_lon": 0.0, "lat": 39.014167, "bike_id": "091a22b14574b4def41d59e5b29051a4", "type": "electric_bike", "is_reserved": 0, "lon": -77.04499016666666}, {"fusion_lat": 0.0, "name": "965c2216245720fa2b8d93e9991d1841", "is_disabled": 0, "rental_uris": {"android": "https://dc.lft.to/lastmile_qr_scan", "ios": "https://dc.lft.to/lastmile_qr_scan"}, "fusion_lon": 0.0, "lat": 38.885044666666666, "bike_id": "965c2216245720fa2b8d93e9991d1841", "type": "electric_scooter", "is_reserved": 0, "lon": -76.9975365}, {"fusion_lat": 0.0, "name": "26b5de573406a3f265ba75b7730feb4d", "is_disabled": 0, "rental_uris": {"android": "https://dc.lft.to/lastmile_qr_scan", "ios": "https://dc.lft.to/lastmile_qr_scan"}, "fusion_lon": 0.0, "lat": 38.8735825, "bike_id": "26b5de573406a3f265ba75b7730feb4d", "type": "electric_scooter", "is_reserved": 0, "lon": -77.0089825}, {"fusion_lat": 0.0, "name": "d09b32604627a37f70cadb7f88cc0515", "is_disabled": 0, "rental_uris": {"android": "https://dc.lft.to/lastmile_qr_scan", "ios": "https://dc.lft.to/lastmile_qr_scan"}, "fusion_lon": 0.0, "lat": 38.90874766666666, "bike_id": "d09b32604627a37f70cadb7f88cc0515", "type": "electric_scooter", "is_reserved": 0, "lon": -77.04337816666667}, {"fusion_lat": 0.0, "name": "62a1d7a17bbf32276c9fdbc0c2a1b1f6", "is_disabled": 0, "rental_uris": {"android": "https://dc.lft.to/lastmile_qr_scan", "ios": "https://dc.lft.to/lastmile_qr_scan"}, "fusion_lon": 0.0, "lat": 38.9182145, "bike_id": "62a1d7a17bbf32276c9fdbc0c2a1b1f6", "type": "electric_scooter", "is_reserved": 0, "lon": -77.012077}, {"fusion_lat": 0.0, "name": "88d93c3d6612b645f517451582c75272", "is_disabled": 0, "rental_uris": {"android": "https://dc.lft.to/lastmile_qr_scan", "ios": "https://dc.lft.to/lastmile_qr_scan"}, "fusion_lon": 0.0, "lat": 38.934202166666665, "bike_id": "88d93c3d6612b645f517451582c75272", "type": "electric_scooter", "is_reserved": 0, "lon": -77.02848616666667}, {"fusion_lat": 0.0, "name": "718746e283c35f7a0f1295cf7e0426b5", "is_disabled": 0, "rental_uris": {"android": "https://dc.lft.to/lastmile_qr_scan", "ios": "https://dc.lft.to/lastmile_qr_scan"}, "fusion_lon": 0.0, "lat": 38.945144166666665, "bike_id": "718746e283c35f7a0f1295cf7e0426b5", "type": "electric_scooter", "is_reserved": 0, "lon": -77.03889483333333}, {"fusion_lat": 0.0, "name": "fcfc4bc75f36acc2cdd892ed200ebf01", "is_disabled": 0, "rental_uris": {"android": "https://dc.lft.to/lastmile_qr_scan", "ios": "https://dc.lft.to/lastmile_qr_scan"}, "fusion_lon": 0.0, "lat": 38.8986445, "bike_id": "fcfc4bc75f36acc2cdd892ed200ebf01", "type": "electric_scooter", "is_reserved": 0, "lon": -77.02727033333333}, {"fusion_lat": 0.0, "name": "069177ad2d11dd272bdafffdc471fc65", "is_disabled": 0, "rental_uris": {"android": "https://dc.lft.to/lastmile_qr_scan", "ios": "https://dc.lft.to/lastmile_qr_scan"}, "fusion_lon": 0.0, "lat": 38.885862833333334, "bike_id": "069177ad2d11dd272bdafffdc471fc65", "type": "electric_scooter", "is_reserved": 0, "lon": -76.92987983333333}, {"fusion_lat": 0.0, "name": "b4c44bfe9457cbabbb449a82e4db2583", "is_disabled": 0, "rental_uris": {"android": "https://dc.lft.to/lastmile_qr_scan", "ios": "https://dc.lft.to/lastmile_qr_scan"}, "fusion_lon": 0.0, "lat": 38.92089216666667, "bike_id": "b4c44bfe9457cbabbb449a82e4db2583", "type": "electric_scooter", "is_reserved": 0, "lon": -77.0242475}, {"fusion_lat": 0.0, "name": "26d03489786bd07bd6549272bf83480a", "is_disabled": 0, "rental_uris": {"android": "https://dc.lft.to/lastmile_qr_scan", "ios": "https://dc.lft.to/lastmile_qr_scan"}, "fusion_lon": 0.0, "lat": 38.84758033333333, "bike_id": "26d03489786bd07bd6549272bf83480a", "type": "electric_scooter", "is_reserved": 0, "lon": -76.99499433333334}, {"fusion_lat": 0.0, "name": "dc8c0bc56bef2281483e2930e808ba16", "is_disabled": 0, "rental_uris": {"android": "https://dc.lft.to/lastmile_qr_scan", "ios": "https://dc.lft.to/lastmile_qr_scan"}, "fusion_lon": 0.0, "lat": 38.9370215, "bike_id": "dc8c0bc56bef2281483e2930e808ba16", "type": "electric_scooter", "is_reserved": 0, "lon": -77.06109583333334}, {"fusion_lat": 0.0, "name": "834f41171542db05723a7a75b2f6c6cb", "is_disabled": 0, "rental_uris": {"android": "https://dc.lft.to/lastmile_qr_scan", "ios": "https://dc.lft.to/lastmile_qr_scan"}, "fusion_lon": 0.0, "lat": 38.90947666666667, "bike_id": "834f41171542db05723a7a75b2f6c6cb", "type": "electric_scooter", "is_reserved": 0, "lon": -77.04427783333334}, {"fusion_lat": 0.0, "name": "6de1b92a3657d6dadd8a2db9b1604ca2", "is_disabled": 0, "rental_uris": {"android": "https://dc.lft.to/lastmile_qr_scan", "ios": "https://dc.lft.to/lastmile_qr_scan"}, "fusion_lon": 0.0, "lat": 38.918170833333335, "bike_id": "6de1b92a3657d6dadd8a2db9b1604ca2", "type": "electric_scooter", "is_reserved": 0, "lon": -77.02588233333333}, {"fusion_lat": 0.0, "name": "f1a997a84a5536184866f374b3c53592", "is_disabled": 0, "rental_uris": {"android": "https://dc.lft.to/lastmile_qr_scan", "ios": "https://dc.lft.to/lastmile_qr_scan"}, "fusion_lon": 0.0, "lat": 38.887192166666665, "bike_id": "f1a997a84a5536184866f374b3c53592", "type": "electric_scooter", "is_reserved": 0, "lon": -76.99689333333333}, {"fusion_lat": 0.0, "name": "c255ed4ab27d0396543f877ed59fdaa9", "is_disabled": 0, "rental_uris": {"android": "https://dc.lft.to/lastmile_qr_scan", "ios": "https://dc.lft.to/lastmile_qr_scan"}, "fusion_lon": 0.0, "lat": 38.918575833333335, "bike_id": "c255ed4ab27d0396543f877ed59fdaa9", "type": "electric_scooter", "is_reserved": 0, "lon": -77.0417445}, {"fusion_lat": 0.0, "name": "d475a2a517e7945f3cf92cb66f854b1b", "is_disabled": 0, "rental_uris": {"android": "https://dc.lft.to/lastmile_qr_scan", "ios": "https://dc.lft.to/lastmile_qr_scan"}, "fusion_lon": 0.0, "lat": 38.94110416666667, "bike_id": "d475a2a517e7945f3cf92cb66f854b1b", "type": "electric_scooter", "is_reserved": 0, "lon": -77.03476983333333}, {"fusion_lat": 0.0, "name": "5f35b4ac7a2b21c47db7a11e7e1b8b4e", "is_disabled": 0, "rental_uris": {"android": "https://dc.lft.to/lastmile_qr_scan", "ios": "https://dc.lft.to/lastmile_qr_scan"}, "fusion_lon": 0.0, "lat": 38.9073175, "bike_id": "5f35b4ac7a2b21c47db7a11e7e1b8b4e", "type": "electric_scooter", "is_reserved": 0, "lon": -77.009575}, {"fusion_lat": 0.0, "name": "8157ccdc9a93e0adda0e80cbc5781083", "is_disabled": 0, "rental_uris": {"android": "https://dc.lft.to/lastmile_qr_scan", "ios": "https://dc.lft.to/lastmile_qr_scan"}, "fusion_lon": 0.0, "lat": 38.935339166666665, "bike_id": "8157ccdc9a93e0adda0e80cbc5781083", "type": "electric_scooter", "is_reserved": 0, "lon": -77.0451775}, {"fusion_lat": 0.0, "name": "c23eaaeec5d04e8ecaec687009249a28", "is_disabled": 0, "rental_uris": {"android": "https://dc.lft.to/lastmile_qr_scan", "ios": "https://dc.lft.to/lastmile_qr_scan"}, "fusion_lon": 0.0, "lat": 38.9026155, "bike_id": "c23eaaeec5d04e8ecaec687009249a28", "type": "electric_scooter", "is_reserved": 0, "lon": -77.02828833333334}, {"fusion_lat": 0.0, "name": "9d7be8b929fe04cb9686392783cb08ae", "is_disabled": 0, "rental_uris": {"android": "https://dc.lft.to/lastmile_qr_scan", "ios": "https://dc.lft.to/lastmile_qr_scan"}, "fusion_lon": 0.0, "lat": 38.8832365, "bike_id": "9d7be8b929fe04cb9686392783cb08ae", "type": "electric_scooter", "is_reserved": 0, "lon": -77.01462033333334}, {"fusion_lat": 0.0, "name": "7f4187843071dec1584582df9c7ef3c6", "is_disabled": 0, "rental_uris": {"android": "https://dc.lft.to/lastmile_qr_scan", "ios": "https://dc.lft.to/lastmile_qr_scan"}, "fusion_lon": 0.0, "lat": 38.90350433333333, "bike_id": "7f4187843071dec1584582df9c7ef3c6", "type": "electric_scooter", "is_reserved": 0, "lon": -76.97477433333333}, {"fusion_lat": 0.0, "name": "160fd7aa71111b1857f2abc9d9333429", "is_disabled": 0, "rental_uris": {"android": "https://dc.lft.to/lastmile_qr_scan", "ios": "https://dc.lft.to/lastmile_qr_scan"}, "fusion_lon": 0.0, "lat": 38.905215, "bike_id": "160fd7aa71111b1857f2abc9d9333429", "type": "electric_scooter", "is_reserved": 0, "lon": -77.06247366666666}, {"fusion_lat": 0.0, "name": "d69abc2ecf581c0aaee2adc5013f1c93", "is_disabled": 0, "rental_uris": {"android": "https://dc.lft.to/lastmile_qr_scan", "ios": "https://dc.lft.to/lastmile_qr_scan"}, "fusion_lon": 0.0, "lat": 38.9737405, "bike_id": "d69abc2ecf581c0aaee2adc5013f1c93", "type": "electric_scooter", "is_reserved": 0, "lon": -77.01291783333333}, {"fusion_lat": 0.0, "name": "6d76172012a9a5e07fc068325664d6ba", "is_disabled": 0, "rental_uris": {"android": "https://dc.lft.to/lastmile_qr_scan", "ios": "https://dc.lft.to/lastmile_qr_scan"}, "fusion_lon": 0.0, "lat": 38.934566, "bike_id": "6d76172012a9a5e07fc068325664d6ba", "type": "electric_scooter", "is_reserved": 0, "lon": -77.03398366666667}, {"fusion_lat": 0.0, "name": "ff5626f017c562c0bf46846b0f7cb9a3", "is_disabled": 0, "rental_uris": {"android": "https://dc.lft.to/lastmile_qr_scan", "ios": "https://dc.lft.to/lastmile_qr_scan"}, "fusion_lon": 0.0, "lat": 38.887191, "bike_id": "ff5626f017c562c0bf46846b0f7cb9a3", "type": "electric_scooter", "is_reserved": 0, "lon": -77.0198295}, {"fusion_lat": 0.0, "name": "b196be2ce364521eae4a351d0190627a", "is_disabled": 0, "rental_uris": {"android": "https://dc.lft.to/lastmile_qr_scan", "ios": "https://dc.lft.to/lastmile_qr_scan"}, "fusion_lon": 0.0, "lat": 38.90471216666667, "bike_id": "b196be2ce364521eae4a351d0190627a", "type": "electric_scooter", "is_reserved": 0, "lon": -77.035688}, {"fusion_lat": 0.0, "name": "ae9574cc46413bba0b9c1c8ca8b1a9c5", "is_disabled": 0, "rental_uris": {"android": "https://dc.lft.to/lastmile_qr_scan", "ios": "https://dc.lft.to/lastmile_qr_scan"}, "fusion_lon": 0.0, "lat": 38.938775666666665, "bike_id": "ae9574cc46413bba0b9c1c8ca8b1a9c5", "type": "electric_scooter", "is_reserved": 0, "lon": -77.02463883333333}, {"fusion_lat": 0.0, "name": "cb673ef743ebb654d0d221f33ca3fd6f", "is_disabled": 0, "rental_uris": {"android": "https://dc.lft.to/lastmile_qr_scan", "ios": "https://dc.lft.to/lastmile_qr_scan"}, "fusion_lon": 0.0, "lat": 38.9003605, "bike_id": "cb673ef743ebb654d0d221f33ca3fd6f", "type": "electric_scooter", "is_reserved": 0, "lon": -77.02628783333333}, {"fusion_lat": 0.0, "name": "58798b4777c9f4846495b73188c036c7", "is_disabled": 0, "rental_uris": {"android": "https://dc.lft.to/lastmile_qr_scan", "ios": "https://dc.lft.to/lastmile_qr_scan"}, "fusion_lon": 0.0, "lat": 38.90971833333333, "bike_id": "58798b4777c9f4846495b73188c036c7", "type": "electric_scooter", "is_reserved": 0, "lon": -77.04878366666667}, {"fusion_lat": 0.0, "name": "73ad6b482da4e8464b6994b1d2d383c5", "is_disabled": 0, "rental_uris": {"android": "https://dc.lft.to/lastmile_qr_scan", "ios": "https://dc.lft.to/lastmile_qr_scan"}, "fusion_lon": 0.0, "lat": 38.921544833333336, "bike_id": "73ad6b482da4e8464b6994b1d2d383c5", "type": "electric_scooter", "is_reserved": 0, "lon": -77.02982466666667}, {"fusion_lat": 0.0, "name": "21956bee858651961a80c0423793049a", "is_disabled": 0, "rental_uris": {"android": "https://dc.lft.to/lastmile_qr_scan", "ios": "https://dc.lft.to/lastmile_qr_scan"}, "fusion_lon": 0.0, "lat": 38.902351, "bike_id": "21956bee858651961a80c0423793049a", "type": "electric_scooter", "is_reserved": 0, "lon": -77.06021816666667}, {"fusion_lat": 0.0, "name": "fa3b68d4da565c0381c3ae298e94a2d0", "is_disabled": 0, "rental_uris": {"android": "https://dc.lft.to/lastmile_qr_scan", "ios": "https://dc.lft.to/lastmile_qr_scan"}, "fusion_lon": 0.0, "lat": 38.919590666666664, "bike_id": "fa3b68d4da565c0381c3ae298e94a2d0", "type": "electric_bike", "is_reserved": 0, "lon": -77.1011415}, {"fusion_lat": 0.0, "name": "6235831c6e5c09397dcd6912618b2f82", "is_disabled": 0, "rental_uris": {"android": "https://dc.lft.to/lastmile_qr_scan", "ios": "https://dc.lft.to/lastmile_qr_scan"}, "fusion_lon": 0.0, "lat": 38.903788, "bike_id": "6235831c6e5c09397dcd6912618b2f82", "type": "electric_scooter", "is_reserved": 0, "lon": -77.04471966666667}, {"fusion_lat": 0.0, "name": "2b44e928173ee2dff9140ad78deda892", "is_disabled": 0, "rental_uris": {"android": "https://dc.lft.to/lastmile_qr_scan", "ios": "https://dc.lft.to/lastmile_qr_scan"}, "fusion_lon": 0.0, "lat": 38.909594, "bike_id": "2b44e928173ee2dff9140ad78deda892", "type": "electric_scooter", "is_reserved": 0, "lon": -77.03236733333334}, {"fusion_lat": 0.0, "name": "1519b8d2e51f64bbbc7c71e46b6cd4dd", "is_disabled": 0, "rental_uris": {"android": "https://dc.lft.to/lastmile_qr_scan", "ios": "https://dc.lft.to/lastmile_qr_scan"}, "fusion_lon": 0.0, "lat": 38.9064375, "bike_id": "1519b8d2e51f64bbbc7c71e46b6cd4dd", "type": "electric_scooter", "is_reserved": 0, "lon": -77.01413166666667}, {"fusion_lat": 0.0, "name": "53fb1f162b0fa39319f353525ae92af1", "is_disabled": 0, "rental_uris": {"android": "https://dc.lft.to/lastmile_qr_scan", "ios": "https://dc.lft.to/lastmile_qr_scan"}, "fusion_lon": 0.0, "lat": 38.90784433333334, "bike_id": "53fb1f162b0fa39319f353525ae92af1", "type": "electric_scooter", "is_reserved": 0, "lon": -77.04342816666667}, {"fusion_lat": 0.0, "name": "0f8ebadeb604e16b1bf79bb2429a3a2a", "is_disabled": 0, "rental_uris": {"android": "https://dc.lft.to/lastmile_qr_scan", "ios": "https://dc.lft.to/lastmile_qr_scan"}, "fusion_lon": 0.0, "lat": 38.922458, "bike_id": "0f8ebadeb604e16b1bf79bb2429a3a2a", "type": "electric_scooter", "is_reserved": 0, "lon": -76.98411933333334}, {"fusion_lat": 0.0, "name": "94fef825d45424a79fe9c06aab8b49a4", "is_disabled": 0, "rental_uris": {"android": "https://dc.lft.to/lastmile_qr_scan", "ios": "https://dc.lft.to/lastmile_qr_scan"}, "fusion_lon": 0.0, "lat": 38.908629166666664, "bike_id": "94fef825d45424a79fe9c06aab8b49a4", "type": "electric_scooter", "is_reserved": 0, "lon": -77.009328}, {"fusion_lat": 0.0, "name": "5340d69747ed8b100a1544f237c7d4c0", "is_disabled": 0, "rental_uris": {"android": "https://dc.lft.to/lastmile_qr_scan", "ios": "https://dc.lft.to/lastmile_qr_scan"}, "fusion_lon": 0.0, "lat": 38.91161, "bike_id": "5340d69747ed8b100a1544f237c7d4c0", "type": "electric_scooter", "is_reserved": 0, "lon": -77.04162233333334}, {"fusion_lat": 0.0, "name": "a27cba4c402c50f0ff3cc37652a04502", "is_disabled": 0, "rental_uris": {"android": "https://dc.lft.to/lastmile_qr_scan", "ios": "https://dc.lft.to/lastmile_qr_scan"}, "fusion_lon": 0.0, "lat": 38.876242166666664, "bike_id": "a27cba4c402c50f0ff3cc37652a04502", "type": "electric_scooter", "is_reserved": 0, "lon": -77.00115783333334}, {"fusion_lat": 0.0, "name": "63830ec48577df5f2d359ad0dfc15d14", "is_disabled": 0, "rental_uris": {"android": "https://dc.lft.to/lastmile_qr_scan", "ios": "https://dc.lft.to/lastmile_qr_scan"}, "fusion_lon": 0.0, "lat": 38.885043833333334, "bike_id": "63830ec48577df5f2d359ad0dfc15d14", "type": "electric_scooter", "is_reserved": 0, "lon": -77.00063333333334}, {"fusion_lat": 0.0, "name": "44ab7c6bdde5230d4a335ad8a573b504", "is_disabled": 0, "rental_uris": {"android": "https://dc.lft.to/lastmile_qr_scan", "ios": "https://dc.lft.to/lastmile_qr_scan"}, "fusion_lon": 0.0, "lat": 38.85524766666666, "bike_id": "44ab7c6bdde5230d4a335ad8a573b504", "type": "electric_bike", "is_reserved": 0, "lon": -77.12018883333333}, {"fusion_lat": 0.0, "name": "2be5ed7872676e440df8ceaebafae0ff", "is_disabled": 0, "rental_uris": {"android": "https://dc.lft.to/lastmile_qr_scan", "ios": "https://dc.lft.to/lastmile_qr_scan"}, "fusion_lon": 0.0, "lat": 38.99226766666666, "bike_id": "2be5ed7872676e440df8ceaebafae0ff", "type": "electric_bike", "is_reserved": 0, "lon": -76.9441305}, {"fusion_lat": 0.0, "name": "03134fc451b61d1553be20c91b8905fc", "is_disabled": 0, "rental_uris": {"android": "https://dc.lft.to/lastmile_qr_scan", "ios": "https://dc.lft.to/lastmile_qr_scan"}, "fusion_lon": 0.0, "lat": 38.89658216666667, "bike_id": "03134fc451b61d1553be20c91b8905fc", "type": "electric_scooter", "is_reserved": 0, "lon": -77.0323335}, {"fusion_lat": 0.0, "name": "b49ab8ffaa79c8e575601e7f226d2335", "is_disabled": 0, "rental_uris": {"android": "https://dc.lft.to/lastmile_qr_scan", "ios": "https://dc.lft.to/lastmile_qr_scan"}, "fusion_lon": 0.0, "lat": 38.93019233333333, "bike_id": "b49ab8ffaa79c8e575601e7f226d2335", "type": "electric_scooter", "is_reserved": 0, "lon": -77.03788366666667}, {"fusion_lat": 0.0, "name": "263f3bcbe7b6f282bcd6c91b72f1633d", "is_disabled": 0, "rental_uris": {"android": "https://dc.lft.to/lastmile_qr_scan", "ios": "https://dc.lft.to/lastmile_qr_scan"}, "fusion_lon": 0.0, "lat": 38.91519516666666, "bike_id": "263f3bcbe7b6f282bcd6c91b72f1633d", "type": "electric_scooter", "is_reserved": 0, "lon": -77.0132715}, {"fusion_lat": 0.0, "name": "ee84cb8c5c74610ee45f0601d0296e88", "is_disabled": 0, "rental_uris": {"android": "https://dc.lft.to/lastmile_qr_scan", "ios": "https://dc.lft.to/lastmile_qr_scan"}, "fusion_lon": 0.0, "lat": 38.953082, "bike_id": "ee84cb8c5c74610ee45f0601d0296e88", "type": "electric_scooter", "is_reserved": 0, "lon": -77.0225005}, {"fusion_lat": 0.0, "name": "cc653fcc3e204cc6211ac9f14f420d0b", "is_disabled": 0, "rental_uris": {"android": "https://dc.lft.to/lastmile_qr_scan", "ios": "https://dc.lft.to/lastmile_qr_scan"}, "fusion_lon": 0.0, "lat": 38.91822033333333, "bike_id": "cc653fcc3e204cc6211ac9f14f420d0b", "type": "electric_scooter", "is_reserved": 0, "lon": -77.03176566666667}, {"fusion_lat": 0.0, "name": "8420d6f55a94277341447ac01daeb4cd", "is_disabled": 0, "rental_uris": {"android": "https://dc.lft.to/lastmile_qr_scan", "ios": "https://dc.lft.to/lastmile_qr_scan"}, "fusion_lon": 0.0, "lat": 38.90066816666667, "bike_id": "8420d6f55a94277341447ac01daeb4cd", "type": "electric_scooter", "is_reserved": 0, "lon": -76.92742933333334}, {"fusion_lat": 0.0, "name": "e34a98e3da6d7cea909d3516ccd117c7", "is_disabled": 0, "rental_uris": {"android": "https://dc.lft.to/lastmile_qr_scan", "ios": "https://dc.lft.to/lastmile_qr_scan"}, "fusion_lon": 0.0, "lat": 38.87748216666667, "bike_id": "e34a98e3da6d7cea909d3516ccd117c7", "type": "electric_scooter", "is_reserved": 0, "lon": -77.01432016666666}, {"fusion_lat": 0.0, "name": "d76d9b29ee654866e30252b26fe32b26", "is_disabled": 0, "rental_uris": {"android": "https://dc.lft.to/lastmile_qr_scan", "ios": "https://dc.lft.to/lastmile_qr_scan"}, "fusion_lon": 0.0, "lat": 38.907106, "bike_id": "d76d9b29ee654866e30252b26fe32b26", "type": "electric_scooter", "is_reserved": 0, "lon": -77.05138683333334}, {"fusion_lat": 0.0, "name": "3e6f3fea4826b7a7a86472c3e8c4630a", "is_disabled": 0, "rental_uris": {"android": "https://dc.lft.to/lastmile_qr_scan", "ios": "https://dc.lft.to/lastmile_qr_scan"}, "fusion_lon": 0.0, "lat": 38.92449533333333, "bike_id": "3e6f3fea4826b7a7a86472c3e8c4630a", "type": "electric_scooter", "is_reserved": 0, "lon": -77.04028033333333}, {"fusion_lat": 0.0, "name": "c175134edb834bc490aa4145255393e9", "is_disabled": 0, "rental_uris": {"android": "https://dc.lft.to/lastmile_qr_scan", "ios": "https://dc.lft.to/lastmile_qr_scan"}, "fusion_lon": 0.0, "lat": 38.887084333333334, "bike_id": "c175134edb834bc490aa4145255393e9", "type": "electric_scooter", "is_reserved": 0, "lon": -77.00248616666667}, {"fusion_lat": 0.0, "name": "1405696c659f7d33cbe1f99fe1457929", "is_disabled": 0, "rental_uris": {"android": "https://dc.lft.to/lastmile_qr_scan", "ios": "https://dc.lft.to/lastmile_qr_scan"}, "fusion_lon": 0.0, "lat": 38.904796, "bike_id": "1405696c659f7d33cbe1f99fe1457929", "type": "electric_scooter", "is_reserved": 0, "lon": -77.01889633333333}, {"fusion_lat": 0.0, "name": "bf2ac1ba2f3f6ee1f6093f0f80b6adb0", "is_disabled": 0, "rental_uris": {"android": "https://dc.lft.to/lastmile_qr_scan", "ios": "https://dc.lft.to/lastmile_qr_scan"}, "fusion_lon": 0.0, "lat": 38.8966045, "bike_id": "bf2ac1ba2f3f6ee1f6093f0f80b6adb0", "type": "electric_scooter", "is_reserved": 0, "lon": -77.05117466666667}, {"fusion_lat": 0.0, "name": "2891504b35e9292c6009da211894f480", "is_disabled": 0, "rental_uris": {"android": "https://dc.lft.to/lastmile_qr_scan", "ios": "https://dc.lft.to/lastmile_qr_scan"}, "fusion_lon": 0.0, "lat": 38.895448, "bike_id": "2891504b35e9292c6009da211894f480", "type": "electric_scooter", "is_reserved": 0, "lon": -76.94954366666667}, {"fusion_lat": 0.0, "name": "edf9407740d9c696cc7aeff463ce66fb", "is_disabled": 0, "rental_uris": {"android": "https://dc.lft.to/lastmile_qr_scan", "ios": "https://dc.lft.to/lastmile_qr_scan"}, "fusion_lon": 0.0, "lat": 38.877372333333334, "bike_id": "edf9407740d9c696cc7aeff463ce66fb", "type": "electric_scooter", "is_reserved": 0, "lon": -76.99624066666667}, {"fusion_lat": 0.0, "name": "a1b5d39c030523ebb0e11f40b573a064", "is_disabled": 0, "rental_uris": {"android": "https://dc.lft.to/lastmile_qr_scan", "ios": "https://dc.lft.to/lastmile_qr_scan"}, "fusion_lon": 0.0, "lat": 38.916575, "bike_id": "a1b5d39c030523ebb0e11f40b573a064", "type": "electric_scooter", "is_reserved": 0, "lon": -77.02813766666667}, {"fusion_lat": 0.0, "name": "3a8ce6905aaa6fa15e1988595c53e523", "is_disabled": 0, "rental_uris": {"android": "https://dc.lft.to/lastmile_qr_scan", "ios": "https://dc.lft.to/lastmile_qr_scan"}, "fusion_lon": 0.0, "lat": 38.87960483333333, "bike_id": "3a8ce6905aaa6fa15e1988595c53e523", "type": "electric_scooter", "is_reserved": 0, "lon": -76.98994583333334}, {"fusion_lat": 0.0, "name": "945c37d15bb35e3673b26108242d7d88", "is_disabled": 0, "rental_uris": {"android": "https://dc.lft.to/lastmile_qr_scan", "ios": "https://dc.lft.to/lastmile_qr_scan"}, "fusion_lon": 0.0, "lat": 38.86713183333333, "bike_id": "945c37d15bb35e3673b26108242d7d88", "type": "electric_scooter", "is_reserved": 0, "lon": -77.01030783333333}, {"fusion_lat": 0.0, "name": "f6b1db2f003174c63a468d68cd9bc906", "is_disabled": 0, "rental_uris": {"android": "https://dc.lft.to/lastmile_qr_scan", "ios": "https://dc.lft.to/lastmile_qr_scan"}, "fusion_lon": 0.0, "lat": 38.9326305, "bike_id": "f6b1db2f003174c63a468d68cd9bc906", "type": "electric_scooter", "is_reserved": 0, "lon": -77.02091616666667}, {"fusion_lat": 0.0, "name": "0244ed893963f452a0ab251bf5e6b15a", "is_disabled": 0, "rental_uris": {"android": "https://dc.lft.to/lastmile_qr_scan", "ios": "https://dc.lft.to/lastmile_qr_scan"}, "fusion_lon": 0.0, "lat": 38.9040845, "bike_id": "0244ed893963f452a0ab251bf5e6b15a", "type": "electric_scooter", "is_reserved": 0, "lon": -76.973339}, {"fusion_lat": 0.0, "name": "29d764de4f82607704b50edf857ca3f3", "is_disabled": 0, "rental_uris": {"android": "https://dc.lft.to/lastmile_qr_scan", "ios": "https://dc.lft.to/lastmile_qr_scan"}, "fusion_lon": 0.0, "lat": 38.804480166666664, "bike_id": "29d764de4f82607704b50edf857ca3f3", "type": "electric_bike", "is_reserved": 0, "lon": -77.05391216666666}, {"fusion_lat": 0.0, "name": "4bb98f4312f68e694fec7d08a3a3b960", "is_disabled": 0, "rental_uris": {"android": "https://dc.lft.to/lastmile_qr_scan", "ios": "https://dc.lft.to/lastmile_qr_scan"}, "fusion_lon": 0.0, "lat": 38.91131166666667, "bike_id": "4bb98f4312f68e694fec7d08a3a3b960", "type": "electric_bike", "is_reserved": 0, "lon": -77.06580816666667}, {"fusion_lat": 0.0, "name": "35d1407c8938f61564ffb60273b1c1f2", "is_disabled": 0, "rental_uris": {"android": "https://dc.lft.to/lastmile_qr_scan", "ios": "https://dc.lft.to/lastmile_qr_scan"}, "fusion_lon": 0.0, "lat": 38.88141533333334, "bike_id": "35d1407c8938f61564ffb60273b1c1f2", "type": "electric_scooter", "is_reserved": 0, "lon": -77.02721333333334}, {"fusion_lat": 0.0, "name": "8e8a6bf20a55037b73255e4598c8d93b", "is_disabled": 0, "rental_uris": {"android": "https://dc.lft.to/lastmile_qr_scan", "ios": "https://dc.lft.to/lastmile_qr_scan"}, "fusion_lon": 0.0, "lat": 38.9029425, "bike_id": "8e8a6bf20a55037b73255e4598c8d93b", "type": "electric_scooter", "is_reserved": 0, "lon": -76.9925725}, {"fusion_lat": 0.0, "name": "a7ee853bfa6eb292ed75c6ce5c955a1b", "is_disabled": 0, "rental_uris": {"android": "https://dc.lft.to/lastmile_qr_scan", "ios": "https://dc.lft.to/lastmile_qr_scan"}, "fusion_lon": 0.0, "lat": 38.89834466666667, "bike_id": "a7ee853bfa6eb292ed75c6ce5c955a1b", "type": "electric_scooter", "is_reserved": 0, "lon": -77.024006}, {"fusion_lat": 0.0, "name": "55e1921469c9874611d9587715ddff28", "is_disabled": 0, "rental_uris": {"android": "https://dc.lft.to/lastmile_qr_scan", "ios": "https://dc.lft.to/lastmile_qr_scan"}, "fusion_lon": 0.0, "lat": 38.88805983333334, "bike_id": "55e1921469c9874611d9587715ddff28", "type": "electric_scooter", "is_reserved": 0, "lon": -76.98357866666667}, {"fusion_lat": 0.0, "name": "8daa089a93adce6aa6f765e14fe9f1f8", "is_disabled": 0, "rental_uris": {"android": "https://dc.lft.to/lastmile_qr_scan", "ios": "https://dc.lft.to/lastmile_qr_scan"}, "fusion_lon": 0.0, "lat": 38.9126185, "bike_id": "8daa089a93adce6aa6f765e14fe9f1f8", "type": "electric_scooter", "is_reserved": 0, "lon": -77.03247133333333}, {"fusion_lat": 0.0, "name": "a3d51e3e6adf38ccf5381f6dc19399e7", "is_disabled": 0, "rental_uris": {"android": "https://dc.lft.to/lastmile_qr_scan", "ios": "https://dc.lft.to/lastmile_qr_scan"}, "fusion_lon": 0.0, "lat": 38.91969733333333, "bike_id": "a3d51e3e6adf38ccf5381f6dc19399e7", "type": "electric_scooter", "is_reserved": 0, "lon": -77.02388016666667}, {"fusion_lat": 0.0, "name": "84f95442ef8d1014d14496d9e2d87776", "is_disabled": 0, "rental_uris": {"android": "https://dc.lft.to/lastmile_qr_scan", "ios": "https://dc.lft.to/lastmile_qr_scan"}, "fusion_lon": 0.0, "lat": 38.9021675, "bike_id": "84f95442ef8d1014d14496d9e2d87776", "type": "electric_scooter", "is_reserved": 0, "lon": -77.02275833333333}, {"fusion_lat": 0.0, "name": "bc1c5b1de4c0a80621f4116989c15ace", "is_disabled": 0, "rental_uris": {"android": "https://dc.lft.to/lastmile_qr_scan", "ios": "https://dc.lft.to/lastmile_qr_scan"}, "fusion_lon": 0.0, "lat": 38.941676333333334, "bike_id": "bc1c5b1de4c0a80621f4116989c15ace", "type": "electric_scooter", "is_reserved": 0, "lon": -77.02510333333333}, {"fusion_lat": 0.0, "name": "c113846b7feb9a9645c0eea774966ef2", "is_disabled": 0, "rental_uris": {"android": "https://dc.lft.to/lastmile_qr_scan", "ios": "https://dc.lft.to/lastmile_qr_scan"}, "fusion_lon": 0.0, "lat": 38.909399666666665, "bike_id": "c113846b7feb9a9645c0eea774966ef2", "type": "electric_scooter", "is_reserved": 0, "lon": -77.032117}, {"fusion_lat": 0.0, "name": "9c6b04f0f0171d13b2121e1b09feb508", "is_disabled": 0, "rental_uris": {"android": "https://dc.lft.to/lastmile_qr_scan", "ios": "https://dc.lft.to/lastmile_qr_scan"}, "fusion_lon": 0.0, "lat": 38.926744, "bike_id": "9c6b04f0f0171d13b2121e1b09feb508", "type": "electric_scooter", "is_reserved": 0, "lon": -77.03147333333334}, {"fusion_lat": 0.0, "name": "72e760c4834473dc7a0cd42ff4d06de0", "is_disabled": 0, "rental_uris": {"android": "https://dc.lft.to/lastmile_qr_scan", "ios": "https://dc.lft.to/lastmile_qr_scan"}, "fusion_lon": 0.0, "lat": 38.86629416666667, "bike_id": "72e760c4834473dc7a0cd42ff4d06de0", "type": "electric_scooter", "is_reserved": 0, "lon": -76.98261616666667}, {"fusion_lat": 0.0, "name": "a5bfef61c3e88dd12ab24314ad176ad6", "is_disabled": 0, "rental_uris": {"android": "https://dc.lft.to/lastmile_qr_scan", "ios": "https://dc.lft.to/lastmile_qr_scan"}, "fusion_lon": 0.0, "lat": 38.913433833333336, "bike_id": "a5bfef61c3e88dd12ab24314ad176ad6", "type": "electric_bike", "is_reserved": 0, "lon": -76.98895949999999}, {"fusion_lat": 0.0, "name": "e7957128c16c302cf9976c4bdd42fb5c", "is_disabled": 0, "rental_uris": {"android": "https://dc.lft.to/lastmile_qr_scan", "ios": "https://dc.lft.to/lastmile_qr_scan"}, "fusion_lon": 0.0, "lat": 38.916968833333335, "bike_id": "e7957128c16c302cf9976c4bdd42fb5c", "type": "electric_scooter", "is_reserved": 0, "lon": -77.02852283333333}, {"fusion_lat": 0.0, "name": "fcfa32ad8b2c2b2c492d9a7579e6933d", "is_disabled": 0, "rental_uris": {"android": "https://dc.lft.to/lastmile_qr_scan", "ios": "https://dc.lft.to/lastmile_qr_scan"}, "fusion_lon": 0.0, "lat": 38.881247, "bike_id": "fcfa32ad8b2c2b2c492d9a7579e6933d", "type": "electric_bike", "is_reserved": 0, "lon": -77.016718}, {"fusion_lat": 0.0, "name": "11c028ce35a107b289d49882c2139bf8", "is_disabled": 0, "rental_uris": {"android": "https://dc.lft.to/lastmile_qr_scan", "ios": "https://dc.lft.to/lastmile_qr_scan"}, "fusion_lon": 0.0, "lat": 38.906983833333335, "bike_id": "11c028ce35a107b289d49882c2139bf8", "type": "electric_scooter", "is_reserved": 0, "lon": -77.03113483333334}, {"fusion_lat": 0.0, "name": "0edcb989d33319abd87869f92d3c7a0a", "is_disabled": 0, "rental_uris": {"android": "https://dc.lft.to/lastmile_qr_scan", "ios": "https://dc.lft.to/lastmile_qr_scan"}, "fusion_lon": 0.0, "lat": 38.914048333333334, "bike_id": "0edcb989d33319abd87869f92d3c7a0a", "type": "electric_scooter", "is_reserved": 0, "lon": -77.03230133333334}, {"fusion_lat": 0.0, "name": "fbe4e7ceb4733d0ff0174f8b18c6297e", "is_disabled": 0, "rental_uris": {"android": "https://dc.lft.to/lastmile_qr_scan", "ios": "https://dc.lft.to/lastmile_qr_scan"}, "fusion_lon": 0.0, "lat": 38.9299865, "bike_id": "fbe4e7ceb4733d0ff0174f8b18c6297e", "type": "electric_scooter", "is_reserved": 0, "lon": -77.032273}, {"fusion_lat": 0.0, "name": "19cfe092ebd40f6597feaa0995903f52", "is_disabled": 0, "rental_uris": {"android": "https://dc.lft.to/lastmile_qr_scan", "ios": "https://dc.lft.to/lastmile_qr_scan"}, "fusion_lon": 0.0, "lat": 38.91270033333333, "bike_id": "19cfe092ebd40f6597feaa0995903f52", "type": "electric_scooter", "is_reserved": 0, "lon": -77.04924816666667}, {"fusion_lat": 0.0, "name": "1cb073221cdfb080328f052ecdbf5ce0", "is_disabled": 0, "rental_uris": {"android": "https://dc.lft.to/lastmile_qr_scan", "ios": "https://dc.lft.to/lastmile_qr_scan"}, "fusion_lon": 0.0, "lat": 39.05634933333333, "bike_id": "1cb073221cdfb080328f052ecdbf5ce0", "type": "electric_bike", "is_reserved": 0, "lon": -77.12529066666667}, {"fusion_lat": 0.0, "name": "c863f4515e7a0a91b2f4296afd5d22d9", "is_disabled": 0, "rental_uris": {"android": "https://dc.lft.to/lastmile_qr_scan", "ios": "https://dc.lft.to/lastmile_qr_scan"}, "fusion_lon": 0.0, "lat": 38.913604166666666, "bike_id": "c863f4515e7a0a91b2f4296afd5d22d9", "type": "electric_scooter", "is_reserved": 0, "lon": -77.04873066666667}, {"fusion_lat": 0.0, "name": "271003c3402100a13eb10e7a4e162960", "is_disabled": 0, "rental_uris": {"android": "https://dc.lft.to/lastmile_qr_scan", "ios": "https://dc.lft.to/lastmile_qr_scan"}, "fusion_lon": 0.0, "lat": 38.90573833333333, "bike_id": "271003c3402100a13eb10e7a4e162960", "type": "electric_scooter", "is_reserved": 0, "lon": -77.0439085}, {"fusion_lat": 0.0, "name": "95387ceffae66c8f221bbfabab3cd2b5", "is_disabled": 0, "rental_uris": {"android": "https://dc.lft.to/lastmile_qr_scan", "ios": "https://dc.lft.to/lastmile_qr_scan"}, "fusion_lon": 0.0, "lat": 38.923952666666665, "bike_id": "95387ceffae66c8f221bbfabab3cd2b5", "type": "electric_scooter", "is_reserved": 0, "lon": -77.0241675}, {"fusion_lat": 0.0, "name": "138d8cbec550e8b7cd6032cac260986f", "is_disabled": 0, "rental_uris": {"android": "https://dc.lft.to/lastmile_qr_scan", "ios": "https://dc.lft.to/lastmile_qr_scan"}, "fusion_lon": 0.0, "lat": 38.9306055, "bike_id": "138d8cbec550e8b7cd6032cac260986f", "type": "electric_scooter", "is_reserved": 0, "lon": -77.03160566666666}, {"fusion_lat": 0.0, "name": "d10e2cddac278881897e3151d1914811", "is_disabled": 0, "rental_uris": {"android": "https://dc.lft.to/lastmile_qr_scan", "ios": "https://dc.lft.to/lastmile_qr_scan"}, "fusion_lon": 0.0, "lat": 38.89012183333333, "bike_id": "d10e2cddac278881897e3151d1914811", "type": "electric_scooter", "is_reserved": 0, "lon": -76.93747316666666}, {"fusion_lat": 0.0, "name": "cbf25c6f28755db97de514bddbafb28c", "is_disabled": 0, "rental_uris": {"android": "https://dc.lft.to/lastmile_qr_scan", "ios": "https://dc.lft.to/lastmile_qr_scan"}, "fusion_lon": 0.0, "lat": 38.916886833333336, "bike_id": "cbf25c6f28755db97de514bddbafb28c", "type": "electric_scooter", "is_reserved": 0, "lon": -77.03589016666666}, {"fusion_lat": 0.0, "name": "ce5d75de170a116d70660137a107969f", "is_disabled": 0, "rental_uris": {"android": "https://dc.lft.to/lastmile_qr_scan", "ios": "https://dc.lft.to/lastmile_qr_scan"}, "fusion_lon": 0.0, "lat": 38.9109045, "bike_id": "ce5d75de170a116d70660137a107969f", "type": "electric_scooter", "is_reserved": 0, "lon": -77.02195666666667}, {"fusion_lat": 0.0, "name": "8382edf86c5db7677af2e49e8d3d1dce", "is_disabled": 0, "rental_uris": {"android": "https://dc.lft.to/lastmile_qr_scan", "ios": "https://dc.lft.to/lastmile_qr_scan"}, "fusion_lon": 0.0, "lat": 38.90441116666667, "bike_id": "8382edf86c5db7677af2e49e8d3d1dce", "type": "electric_scooter", "is_reserved": 0, "lon": -77.032368}, {"fusion_lat": 0.0, "name": "c3b448e09ed25cbf065be8c580b69990", "is_disabled": 0, "rental_uris": {"android": "https://dc.lft.to/lastmile_qr_scan", "ios": "https://dc.lft.to/lastmile_qr_scan"}, "fusion_lon": 0.0, "lat": 38.916174166666664, "bike_id": "c3b448e09ed25cbf065be8c580b69990", "type": "electric_scooter", "is_reserved": 0, "lon": -77.02957216666667}, {"fusion_lat": 0.0, "name": "a7e2a2f801c28eb8915e0e3644d87354", "is_disabled": 0, "rental_uris": {"android": "https://dc.lft.to/lastmile_qr_scan", "ios": "https://dc.lft.to/lastmile_qr_scan"}, "fusion_lon": 0.0, "lat": 38.904356, "bike_id": "a7e2a2f801c28eb8915e0e3644d87354", "type": "electric_scooter", "is_reserved": 0, "lon": -77.033628}, {"fusion_lat": 0.0, "name": "f92e1d3cd7b325b66d452b17bc6e975a", "is_disabled": 0, "rental_uris": {"android": "https://dc.lft.to/lastmile_qr_scan", "ios": "https://dc.lft.to/lastmile_qr_scan"}, "fusion_lon": 0.0, "lat": 38.91915616666667, "bike_id": "f92e1d3cd7b325b66d452b17bc6e975a", "type": "electric_scooter", "is_reserved": 0, "lon": -77.025007}, {"fusion_lat": 0.0, "name": "1f3848a4e4c521e8d50d5949ec5953b9", "is_disabled": 0, "rental_uris": {"android": "https://dc.lft.to/lastmile_qr_scan", "ios": "https://dc.lft.to/lastmile_qr_scan"}, "fusion_lon": 0.0, "lat": 38.912004833333334, "bike_id": "1f3848a4e4c521e8d50d5949ec5953b9", "type": "electric_scooter", "is_reserved": 0, "lon": -77.06013433333334}, {"fusion_lat": 0.0, "name": "c80126f8a6bac902937cefe0c7e34454", "is_disabled": 0, "rental_uris": {"android": "https://dc.lft.to/lastmile_qr_scan", "ios": "https://dc.lft.to/lastmile_qr_scan"}, "fusion_lon": 0.0, "lat": 38.87632166666667, "bike_id": "c80126f8a6bac902937cefe0c7e34454", "type": "electric_scooter", "is_reserved": 0, "lon": -77.00947366666666}, {"fusion_lat": 0.0, "name": "8af38a66c0a2b0f5092649dba6247afc", "is_disabled": 0, "rental_uris": {"android": "https://dc.lft.to/lastmile_qr_scan", "ios": "https://dc.lft.to/lastmile_qr_scan"}, "fusion_lon": 0.0, "lat": 38.92365516666667, "bike_id": "8af38a66c0a2b0f5092649dba6247afc", "type": "electric_scooter", "is_reserved": 0, "lon": -77.01952816666666}, {"fusion_lat": 0.0, "name": "542ddbc8eaf7ccc3a88f6ac66f7ac3e3", "is_disabled": 0, "rental_uris": {"android": "https://dc.lft.to/lastmile_qr_scan", "ios": "https://dc.lft.to/lastmile_qr_scan"}, "fusion_lon": 0.0, "lat": 38.926055833333336, "bike_id": "542ddbc8eaf7ccc3a88f6ac66f7ac3e3", "type": "electric_scooter", "is_reserved": 0, "lon": -77.02220133333333}, {"fusion_lat": 0.0, "name": "8c2a6cd957223b2a73ea31ff6bea39f2", "is_disabled": 0, "rental_uris": {"android": "https://dc.lft.to/lastmile_qr_scan", "ios": "https://dc.lft.to/lastmile_qr_scan"}, "fusion_lon": 0.0, "lat": 38.9401975, "bike_id": "8c2a6cd957223b2a73ea31ff6bea39f2", "type": "electric_scooter", "is_reserved": 0, "lon": -77.02784433333333}, {"fusion_lat": 0.0, "name": "2b8942858f302c73708bd8f7f1cab8bb", "is_disabled": 0, "rental_uris": {"android": "https://dc.lft.to/lastmile_qr_scan", "ios": "https://dc.lft.to/lastmile_qr_scan"}, "fusion_lon": 0.0, "lat": 38.887559833333334, "bike_id": "2b8942858f302c73708bd8f7f1cab8bb", "type": "electric_scooter", "is_reserved": 0, "lon": -77.00169133333333}, {"fusion_lat": 0.0, "name": "6c4e674b43e50ad823107fb79e629bca", "is_disabled": 0, "rental_uris": {"android": "https://dc.lft.to/lastmile_qr_scan", "ios": "https://dc.lft.to/lastmile_qr_scan"}, "fusion_lon": 0.0, "lat": 38.919056, "bike_id": "6c4e674b43e50ad823107fb79e629bca", "type": "electric_scooter", "is_reserved": 0, "lon": -77.012289}, {"fusion_lat": 0.0, "name": "e9b84ffca384c726c2f2a3b2579c9323", "is_disabled": 0, "rental_uris": {"android": "https://dc.lft.to/lastmile_qr_scan", "ios": "https://dc.lft.to/lastmile_qr_scan"}, "fusion_lon": 0.0, "lat": 38.879315, "bike_id": "e9b84ffca384c726c2f2a3b2579c9323", "type": "electric_scooter", "is_reserved": 0, "lon": -77.02379583333334}, {"fusion_lat": 0.0, "name": "439450762725c543c8abb4323ebc9119", "is_disabled": 0, "rental_uris": {"android": "https://dc.lft.to/lastmile_qr_scan", "ios": "https://dc.lft.to/lastmile_qr_scan"}, "fusion_lon": 0.0, "lat": 38.857631166666664, "bike_id": "439450762725c543c8abb4323ebc9119", "type": "electric_bike", "is_reserved": 0, "lon": -76.98765766666666}, {"fusion_lat": 0.0, "name": "8f0fb743b66012febdcf7e57b3865bc8", "is_disabled": 0, "rental_uris": {"android": "https://dc.lft.to/lastmile_qr_scan", "ios": "https://dc.lft.to/lastmile_qr_scan"}, "fusion_lon": 0.0, "lat": 38.88386916666666, "bike_id": "8f0fb743b66012febdcf7e57b3865bc8", "type": "electric_scooter", "is_reserved": 0, "lon": -76.93054133333334}, {"fusion_lat": 0.0, "name": "a36dbeb5d6e8ea8b307f1a1158c14423", "is_disabled": 0, "rental_uris": {"android": "https://dc.lft.to/lastmile_qr_scan", "ios": "https://dc.lft.to/lastmile_qr_scan"}, "fusion_lon": 0.0, "lat": 38.91339516666667, "bike_id": "a36dbeb5d6e8ea8b307f1a1158c14423", "type": "electric_scooter", "is_reserved": 0, "lon": -77.03206366666667}, {"fusion_lat": 0.0, "name": "73a86ca861208afa696c5d19c139d035", "is_disabled": 0, "rental_uris": {"android": "https://dc.lft.to/lastmile_qr_scan", "ios": "https://dc.lft.to/lastmile_qr_scan"}, "fusion_lon": 0.0, "lat": 38.905477166666664, "bike_id": "73a86ca861208afa696c5d19c139d035", "type": "electric_scooter", "is_reserved": 0, "lon": -77.032489}, {"fusion_lat": 0.0, "name": "20533532b51b9e180533d598b8f3a02e", "is_disabled": 0, "rental_uris": {"android": "https://dc.lft.to/lastmile_qr_scan", "ios": "https://dc.lft.to/lastmile_qr_scan"}, "fusion_lon": 0.0, "lat": 38.93394116666666, "bike_id": "20533532b51b9e180533d598b8f3a02e", "type": "electric_scooter", "is_reserved": 0, "lon": -77.02851416666667}, {"fusion_lat": 0.0, "name": "700ee5dbdf5d9f7c35e40f61c15189eb", "is_disabled": 0, "rental_uris": {"android": "https://dc.lft.to/lastmile_qr_scan", "ios": "https://dc.lft.to/lastmile_qr_scan"}, "fusion_lon": 0.0, "lat": 38.91108666666667, "bike_id": "700ee5dbdf5d9f7c35e40f61c15189eb", "type": "electric_scooter", "is_reserved": 0, "lon": -77.0373055}, {"fusion_lat": 0.0, "name": "394a2498b79263c50a7fe696b169216a", "is_disabled": 0, "rental_uris": {"android": "https://dc.lft.to/lastmile_qr_scan", "ios": "https://dc.lft.to/lastmile_qr_scan"}, "fusion_lon": 0.0, "lat": 38.9335625, "bike_id": "394a2498b79263c50a7fe696b169216a", "type": "electric_scooter", "is_reserved": 0, "lon": -77.034372}, {"fusion_lat": 0.0, "name": "0226df1f254096e5b4844e6e6f4ced41", "is_disabled": 0, "rental_uris": {"android": "https://dc.lft.to/lastmile_qr_scan", "ios": "https://dc.lft.to/lastmile_qr_scan"}, "fusion_lon": 0.0, "lat": 38.94088283333333, "bike_id": "0226df1f254096e5b4844e6e6f4ced41", "type": "electric_scooter", "is_reserved": 0, "lon": -77.06183866666667}, {"fusion_lat": 0.0, "name": "5c5ed6a94ff820217f74a2f9a1fc31b2", "is_disabled": 0, "rental_uris": {"android": "https://dc.lft.to/lastmile_qr_scan", "ios": "https://dc.lft.to/lastmile_qr_scan"}, "fusion_lon": 0.0, "lat": 38.9431395, "bike_id": "5c5ed6a94ff820217f74a2f9a1fc31b2", "type": "electric_scooter", "is_reserved": 0, "lon": -77.0614895}, {"fusion_lat": 0.0, "name": "5ca8767584467bfcf3394818b69e9302", "is_disabled": 0, "rental_uris": {"android": "https://dc.lft.to/lastmile_qr_scan", "ios": "https://dc.lft.to/lastmile_qr_scan"}, "fusion_lon": 0.0, "lat": 38.9118535, "bike_id": "5ca8767584467bfcf3394818b69e9302", "type": "electric_scooter", "is_reserved": 0, "lon": -77.03216933333333}, {"fusion_lat": 0.0, "name": "b89a75fcfa89d653ff0ecb42cbf5df56", "is_disabled": 0, "rental_uris": {"android": "https://dc.lft.to/lastmile_qr_scan", "ios": "https://dc.lft.to/lastmile_qr_scan"}, "fusion_lon": 0.0, "lat": 38.8652085, "bike_id": "b89a75fcfa89d653ff0ecb42cbf5df56", "type": "electric_bike", "is_reserved": 0, "lon": -77.12939683333333}, {"fusion_lat": 0.0, "name": "b4c84c3d2637df9862ee8a62d31d3122", "is_disabled": 0, "rental_uris": {"android": "https://dc.lft.to/lastmile_qr_scan", "ios": "https://dc.lft.to/lastmile_qr_scan"}, "fusion_lon": 0.0, "lat": 38.9061005, "bike_id": "b4c84c3d2637df9862ee8a62d31d3122", "type": "electric_scooter", "is_reserved": 0, "lon": -77.034135}, {"fusion_lat": 0.0, "name": "5b1681e0a5852e68d6f43e76e20746f2", "is_disabled": 0, "rental_uris": {"android": "https://dc.lft.to/lastmile_qr_scan", "ios": "https://dc.lft.to/lastmile_qr_scan"}, "fusion_lon": 0.0, "lat": 38.91788833333333, "bike_id": "5b1681e0a5852e68d6f43e76e20746f2", "type": "electric_scooter", "is_reserved": 0, "lon": -77.023588}, {"fusion_lat": 0.0, "name": "b630a058d3ee183edc4fcec028ea8544", "is_disabled": 0, "rental_uris": {"android": "https://dc.lft.to/lastmile_qr_scan", "ios": "https://dc.lft.to/lastmile_qr_scan"}, "fusion_lon": 0.0, "lat": 38.9207815, "bike_id": "b630a058d3ee183edc4fcec028ea8544", "type": "electric_scooter", "is_reserved": 0, "lon": -77.0318075}, {"fusion_lat": 0.0, "name": "01c771fd98036358de5627c6308d42be", "is_disabled": 0, "rental_uris": {"android": "https://dc.lft.to/lastmile_qr_scan", "ios": "https://dc.lft.to/lastmile_qr_scan"}, "fusion_lon": 0.0, "lat": 38.907720833333336, "bike_id": "01c771fd98036358de5627c6308d42be", "type": "electric_scooter", "is_reserved": 0, "lon": -77.03863016666666}, {"fusion_lat": 0.0, "name": "cecfd0199dc645e85baea56f0ee4dba4", "is_disabled": 0, "rental_uris": {"android": "https://dc.lft.to/lastmile_qr_scan", "ios": "https://dc.lft.to/lastmile_qr_scan"}, "fusion_lon": 0.0, "lat": 38.9339395, "bike_id": "cecfd0199dc645e85baea56f0ee4dba4", "type": "electric_scooter", "is_reserved": 0, "lon": -77.05772066666667}, {"fusion_lat": 0.0, "name": "33d9700b226b3c1d1727d56e9df094da", "is_disabled": 0, "rental_uris": {"android": "https://dc.lft.to/lastmile_qr_scan", "ios": "https://dc.lft.to/lastmile_qr_scan"}, "fusion_lon": 0.0, "lat": 38.874723833333334, "bike_id": "33d9700b226b3c1d1727d56e9df094da", "type": "electric_scooter", "is_reserved": 0, "lon": -77.01702166666666}, {"fusion_lat": 0.0, "name": "f6ba9f29c96599df113e7d46a3068a0e", "is_disabled": 0, "rental_uris": {"android": "https://dc.lft.to/lastmile_qr_scan", "ios": "https://dc.lft.to/lastmile_qr_scan"}, "fusion_lon": 0.0, "lat": 38.935849, "bike_id": "f6ba9f29c96599df113e7d46a3068a0e", "type": "electric_bike", "is_reserved": 0, "lon": -77.02848283333333}, {"fusion_lat": 0.0, "name": "ace3b471e2d5c8f58a9be087058b8b3e", "is_disabled": 0, "rental_uris": {"android": "https://dc.lft.to/lastmile_qr_scan", "ios": "https://dc.lft.to/lastmile_qr_scan"}, "fusion_lon": 0.0, "lat": 38.9180545, "bike_id": "ace3b471e2d5c8f58a9be087058b8b3e", "type": "electric_scooter", "is_reserved": 0, "lon": -77.0320545}, {"fusion_lat": 0.0, "name": "12715ac6d1af72d44628af999beda659", "is_disabled": 0, "rental_uris": {"android": "https://dc.lft.to/lastmile_qr_scan", "ios": "https://dc.lft.to/lastmile_qr_scan"}, "fusion_lon": 0.0, "lat": 38.90674883333333, "bike_id": "12715ac6d1af72d44628af999beda659", "type": "electric_scooter", "is_reserved": 0, "lon": -77.075131}, {"fusion_lat": 0.0, "name": "ab2e059293eb2208e4b1d7d984fb2ee7", "is_disabled": 0, "rental_uris": {"android": "https://dc.lft.to/lastmile_qr_scan", "ios": "https://dc.lft.to/lastmile_qr_scan"}, "fusion_lon": 0.0, "lat": 38.905756, "bike_id": "ab2e059293eb2208e4b1d7d984fb2ee7", "type": "electric_scooter", "is_reserved": 0, "lon": -77.02959}, {"fusion_lat": 0.0, "name": "193a2a573795e9c20cea0722d6b19fe3", "is_disabled": 0, "rental_uris": {"android": "https://dc.lft.to/lastmile_qr_scan", "ios": "https://dc.lft.to/lastmile_qr_scan"}, "fusion_lon": 0.0, "lat": 38.93814483333333, "bike_id": "193a2a573795e9c20cea0722d6b19fe3", "type": "electric_scooter", "is_reserved": 0, "lon": -77.06022566666667}, {"fusion_lat": 0.0, "name": "a107aca76c21ce0479f6def9c1c66d42", "is_disabled": 0, "rental_uris": {"android": "https://dc.lft.to/lastmile_qr_scan", "ios": "https://dc.lft.to/lastmile_qr_scan"}, "fusion_lon": 0.0, "lat": 38.90230866666667, "bike_id": "a107aca76c21ce0479f6def9c1c66d42", "type": "electric_scooter", "is_reserved": 0, "lon": -77.02298816666666}, {"fusion_lat": 0.0, "name": "dbda19aa503265b900d672c4735a2bde", "is_disabled": 0, "rental_uris": {"android": "https://dc.lft.to/lastmile_qr_scan", "ios": "https://dc.lft.to/lastmile_qr_scan"}, "fusion_lon": 0.0, "lat": 38.902163333333334, "bike_id": "dbda19aa503265b900d672c4735a2bde", "type": "electric_scooter", "is_reserved": 0, "lon": -76.995101}, {"fusion_lat": 0.0, "name": "10a018034c1b63224f1aa5cf2e1f6c02", "is_disabled": 0, "rental_uris": {"android": "https://dc.lft.to/lastmile_qr_scan", "ios": "https://dc.lft.to/lastmile_qr_scan"}, "fusion_lon": 0.0, "lat": 38.934892, "bike_id": "10a018034c1b63224f1aa5cf2e1f6c02", "type": "electric_scooter", "is_reserved": 0, "lon": -77.045392}, {"fusion_lat": 0.0, "name": "3ba7741d8dcaeb716d72756bb7a20870", "is_disabled": 0, "rental_uris": {"android": "https://dc.lft.to/lastmile_qr_scan", "ios": "https://dc.lft.to/lastmile_qr_scan"}, "fusion_lon": 0.0, "lat": 38.909236166666666, "bike_id": "3ba7741d8dcaeb716d72756bb7a20870", "type": "electric_scooter", "is_reserved": 0, "lon": -77.062704}, {"fusion_lat": 0.0, "name": "6be38ba03a6685d07e6c90d033dd2a6e", "is_disabled": 0, "rental_uris": {"android": "https://dc.lft.to/lastmile_qr_scan", "ios": "https://dc.lft.to/lastmile_qr_scan"}, "fusion_lon": 0.0, "lat": 38.896679666666664, "bike_id": "6be38ba03a6685d07e6c90d033dd2a6e", "type": "electric_scooter", "is_reserved": 0, "lon": -76.93219116666667}, {"fusion_lat": 0.0, "name": "96bee1ece4e08207ae3ad4757fe751a6", "is_disabled": 0, "rental_uris": {"android": "https://dc.lft.to/lastmile_qr_scan", "ios": "https://dc.lft.to/lastmile_qr_scan"}, "fusion_lon": 0.0, "lat": 38.90227733333333, "bike_id": "96bee1ece4e08207ae3ad4757fe751a6", "type": "electric_scooter", "is_reserved": 0, "lon": -77.05907866666666}, {"fusion_lat": 0.0, "name": "dd02d2fa416eaf29bb6f7c88d5975d5d", "is_disabled": 0, "rental_uris": {"android": "https://dc.lft.to/lastmile_qr_scan", "ios": "https://dc.lft.to/lastmile_qr_scan"}, "fusion_lon": 0.0, "lat": 38.90306483333333, "bike_id": "dd02d2fa416eaf29bb6f7c88d5975d5d", "type": "electric_scooter", "is_reserved": 0, "lon": -76.97512566666667}, {"fusion_lat": 0.0, "name": "cffb46c4c247fb967819f48d0048f946", "is_disabled": 0, "rental_uris": {"android": "https://dc.lft.to/lastmile_qr_scan", "ios": "https://dc.lft.to/lastmile_qr_scan"}, "fusion_lon": 0.0, "lat": 38.92384366666667, "bike_id": "cffb46c4c247fb967819f48d0048f946", "type": "electric_scooter", "is_reserved": 0, "lon": -77.03056016666666}, {"fusion_lat": 0.0, "name": "ac661ec370f279dda69bb3b5d5f02938", "is_disabled": 0, "rental_uris": {"android": "https://dc.lft.to/lastmile_qr_scan", "ios": "https://dc.lft.to/lastmile_qr_scan"}, "fusion_lon": 0.0, "lat": 38.969399833333334, "bike_id": "ac661ec370f279dda69bb3b5d5f02938", "type": "electric_bike", "is_reserved": 0, "lon": -76.9554505}, {"fusion_lat": 0.0, "name": "014650dc7788474d8d2ad01ee882113c", "is_disabled": 0, "rental_uris": {"android": "https://dc.lft.to/lastmile_qr_scan", "ios": "https://dc.lft.to/lastmile_qr_scan"}, "fusion_lon": 0.0, "lat": 38.92346833333333, "bike_id": "014650dc7788474d8d2ad01ee882113c", "type": "electric_scooter", "is_reserved": 0, "lon": -77.0201905}, {"fusion_lat": 0.0, "name": "b7bfbf24c77ab128240bed305e7fcaf4", "is_disabled": 0, "rental_uris": {"android": "https://dc.lft.to/lastmile_qr_scan", "ios": "https://dc.lft.to/lastmile_qr_scan"}, "fusion_lon": 0.0, "lat": 38.9152425, "bike_id": "b7bfbf24c77ab128240bed305e7fcaf4", "type": "electric_scooter", "is_reserved": 0, "lon": -77.07271916666667}, {"fusion_lat": 0.0, "name": "9746fde546f3c8b0b60920ac4d293e92", "is_disabled": 0, "rental_uris": {"android": "https://dc.lft.to/lastmile_qr_scan", "ios": "https://dc.lft.to/lastmile_qr_scan"}, "fusion_lon": 0.0, "lat": 38.924515666666665, "bike_id": "9746fde546f3c8b0b60920ac4d293e92", "type": "electric_scooter", "is_reserved": 0, "lon": -77.024032}, {"fusion_lat": 0.0, "name": "ba63f249c0e1513672a7d64b9866a588", "is_disabled": 0, "rental_uris": {"android": "https://dc.lft.to/lastmile_qr_scan", "ios": "https://dc.lft.to/lastmile_qr_scan"}, "fusion_lon": 0.0, "lat": 38.90984783333333, "bike_id": "ba63f249c0e1513672a7d64b9866a588", "type": "electric_scooter", "is_reserved": 0, "lon": -77.02204416666666}, {"fusion_lat": 0.0, "name": "53aa7b751e70b39ed57fdec295c04d3f", "is_disabled": 0, "rental_uris": {"android": "https://dc.lft.to/lastmile_qr_scan", "ios": "https://dc.lft.to/lastmile_qr_scan"}, "fusion_lon": 0.0, "lat": 38.913934833333336, "bike_id": "53aa7b751e70b39ed57fdec295c04d3f", "type": "electric_scooter", "is_reserved": 0, "lon": -77.01657183333333}, {"fusion_lat": 0.0, "name": "452883f82e5ceb0d6d275af1b2af60e0", "is_disabled": 0, "rental_uris": {"android": "https://dc.lft.to/lastmile_qr_scan", "ios": "https://dc.lft.to/lastmile_qr_scan"}, "fusion_lon": 0.0, "lat": 38.897395333333336, "bike_id": "452883f82e5ceb0d6d275af1b2af60e0", "type": "electric_scooter", "is_reserved": 0, "lon": -77.0196295}, {"fusion_lat": 0.0, "name": "eb310a576c5b6c172088ecce572c5da0", "is_disabled": 0, "rental_uris": {"android": "https://dc.lft.to/lastmile_qr_scan", "ios": "https://dc.lft.to/lastmile_qr_scan"}, "fusion_lon": 0.0, "lat": 38.905218833333336, "bike_id": "eb310a576c5b6c172088ecce572c5da0", "type": "electric_scooter", "is_reserved": 0, "lon": -77.06438016666667}, {"fusion_lat": 0.0, "name": "760599c30ca967cc81e0da467fcaaf83", "is_disabled": 0, "rental_uris": {"android": "https://dc.lft.to/lastmile_qr_scan", "ios": "https://dc.lft.to/lastmile_qr_scan"}, "fusion_lon": 0.0, "lat": 38.85599766666667, "bike_id": "760599c30ca967cc81e0da467fcaaf83", "type": "electric_scooter", "is_reserved": 0, "lon": -76.97266183333333}, {"fusion_lat": 0.0, "name": "eab5217ee883070a2deeaf2583e988a1", "is_disabled": 0, "rental_uris": {"android": "https://dc.lft.to/lastmile_qr_scan", "ios": "https://dc.lft.to/lastmile_qr_scan"}, "fusion_lon": 0.0, "lat": 38.897283333333334, "bike_id": "eab5217ee883070a2deeaf2583e988a1", "type": "electric_scooter", "is_reserved": 0, "lon": -77.055266}, {"fusion_lat": 0.0, "name": "2f91a64dda02ca701b2bf16a1f889321", "is_disabled": 0, "rental_uris": {"android": "https://dc.lft.to/lastmile_qr_scan", "ios": "https://dc.lft.to/lastmile_qr_scan"}, "fusion_lon": 0.0, "lat": 38.926078333333336, "bike_id": "2f91a64dda02ca701b2bf16a1f889321", "type": "electric_scooter", "is_reserved": 0, "lon": -77.03964016666667}, {"fusion_lat": 0.0, "name": "c2f44a2adc479f8a40b6b5406dfd6fe2", "is_disabled": 0, "rental_uris": {"android": "https://dc.lft.to/lastmile_qr_scan", "ios": "https://dc.lft.to/lastmile_qr_scan"}, "fusion_lon": 0.0, "lat": 38.882981, "bike_id": "c2f44a2adc479f8a40b6b5406dfd6fe2", "type": "electric_scooter", "is_reserved": 0, "lon": -76.9485865}, {"fusion_lat": 0.0, "name": "1c4c3843f60f41a742f0bf6398cf6abe", "is_disabled": 0, "rental_uris": {"android": "https://dc.lft.to/lastmile_qr_scan", "ios": "https://dc.lft.to/lastmile_qr_scan"}, "fusion_lon": 0.0, "lat": 38.916862333333334, "bike_id": "1c4c3843f60f41a742f0bf6398cf6abe", "type": "electric_scooter", "is_reserved": 0, "lon": -77.02307066666667}, {"fusion_lat": 0.0, "name": "550ab082a7b93393284dcb23a86d573a", "is_disabled": 0, "rental_uris": {"android": "https://dc.lft.to/lastmile_qr_scan", "ios": "https://dc.lft.to/lastmile_qr_scan"}, "fusion_lon": 0.0, "lat": 38.90862933333333, "bike_id": "550ab082a7b93393284dcb23a86d573a", "type": "electric_scooter", "is_reserved": 0, "lon": -77.03465683333333}, {"fusion_lat": 0.0, "name": "fd39b1d1a11e180497243367f78d0a05", "is_disabled": 0, "rental_uris": {"android": "https://dc.lft.to/lastmile_qr_scan", "ios": "https://dc.lft.to/lastmile_qr_scan"}, "fusion_lon": 0.0, "lat": 38.807560333333335, "bike_id": "fd39b1d1a11e180497243367f78d0a05", "type": "electric_bike", "is_reserved": 0, "lon": -77.09457116666667}, {"fusion_lat": 0.0, "name": "b85c77a9363b51f42135021a1ac09304", "is_disabled": 0, "rental_uris": {"android": "https://dc.lft.to/lastmile_qr_scan", "ios": "https://dc.lft.to/lastmile_qr_scan"}, "fusion_lon": 0.0, "lat": 38.900239166666665, "bike_id": "b85c77a9363b51f42135021a1ac09304", "type": "electric_scooter", "is_reserved": 0, "lon": -77.01121283333333}, {"fusion_lat": 0.0, "name": "eaaf6216f4a9e8a2b4104b7523e00dfd", "is_disabled": 0, "rental_uris": {"android": "https://dc.lft.to/lastmile_qr_scan", "ios": "https://dc.lft.to/lastmile_qr_scan"}, "fusion_lon": 0.0, "lat": 38.819106166666664, "bike_id": "eaaf6216f4a9e8a2b4104b7523e00dfd", "type": "electric_bike", "is_reserved": 0, "lon": -77.04800766666666}, {"fusion_lat": 0.0, "name": "6ba843cc3b617113a0b5ad0d1e2607f8", "is_disabled": 0, "rental_uris": {"android": "https://dc.lft.to/lastmile_qr_scan", "ios": "https://dc.lft.to/lastmile_qr_scan"}, "fusion_lon": 0.0, "lat": 38.8737545, "bike_id": "6ba843cc3b617113a0b5ad0d1e2607f8", "type": "electric_scooter", "is_reserved": 0, "lon": -77.00135216666666}, {"fusion_lat": 0.0, "name": "13d49a073493ef140e2ac463e6fe927f", "is_disabled": 0, "rental_uris": {"android": "https://dc.lft.to/lastmile_qr_scan", "ios": "https://dc.lft.to/lastmile_qr_scan"}, "fusion_lon": 0.0, "lat": 38.895437333333334, "bike_id": "13d49a073493ef140e2ac463e6fe927f", "type": "electric_scooter", "is_reserved": 0, "lon": -76.95642666666667}, {"fusion_lat": 0.0, "name": "bef10edec51e2c94335f7af3fcdb7145", "is_disabled": 0, "rental_uris": {"android": "https://dc.lft.to/lastmile_qr_scan", "ios": "https://dc.lft.to/lastmile_qr_scan"}, "fusion_lon": 0.0, "lat": 38.8947565, "bike_id": "bef10edec51e2c94335f7af3fcdb7145", "type": "electric_scooter", "is_reserved": 0, "lon": -77.02028266666666}, {"fusion_lat": 0.0, "name": "d0d493f8267be0e316c484fa06e47a72", "is_disabled": 0, "rental_uris": {"android": "https://dc.lft.to/lastmile_qr_scan", "ios": "https://dc.lft.to/lastmile_qr_scan"}, "fusion_lon": 0.0, "lat": 38.89618183333333, "bike_id": "d0d493f8267be0e316c484fa06e47a72", "type": "electric_scooter", "is_reserved": 0, "lon": -77.03174833333334}, {"fusion_lat": 0.0, "name": "e68cbf3e5e605522bd9468ec7539a391", "is_disabled": 0, "rental_uris": {"android": "https://dc.lft.to/lastmile_qr_scan", "ios": "https://dc.lft.to/lastmile_qr_scan"}, "fusion_lon": 0.0, "lat": 38.86762266666667, "bike_id": "e68cbf3e5e605522bd9468ec7539a391", "type": "electric_scooter", "is_reserved": 0, "lon": -76.98273383333333}, {"fusion_lat": 0.0, "name": "8647da3918e4865b2a632cb052423c83", "is_disabled": 0, "rental_uris": {"android": "https://dc.lft.to/lastmile_qr_scan", "ios": "https://dc.lft.to/lastmile_qr_scan"}, "fusion_lon": 0.0, "lat": 38.9013675, "bike_id": "8647da3918e4865b2a632cb052423c83", "type": "electric_scooter", "is_reserved": 0, "lon": -76.9896555}, {"fusion_lat": 0.0, "name": "fc097ebf5e5221f363c769b54e58af48", "is_disabled": 0, "rental_uris": {"android": "https://dc.lft.to/lastmile_qr_scan", "ios": "https://dc.lft.to/lastmile_qr_scan"}, "fusion_lon": 0.0, "lat": 38.92150266666667, "bike_id": "fc097ebf5e5221f363c769b54e58af48", "type": "electric_scooter", "is_reserved": 0, "lon": -77.02422783333333}, {"fusion_lat": 0.0, "name": "04289c336812917ba04e53497ae3bcf2", "is_disabled": 0, "rental_uris": {"android": "https://dc.lft.to/lastmile_qr_scan", "ios": "https://dc.lft.to/lastmile_qr_scan"}, "fusion_lon": 0.0, "lat": 38.89765333333333, "bike_id": "04289c336812917ba04e53497ae3bcf2", "type": "electric_scooter", "is_reserved": 0, "lon": -77.03171333333333}, {"fusion_lat": 0.0, "name": "a2b8368d16547bb51b370be8d0ab6cb9", "is_disabled": 0, "rental_uris": {"android": "https://dc.lft.to/lastmile_qr_scan", "ios": "https://dc.lft.to/lastmile_qr_scan"}, "fusion_lon": 0.0, "lat": 38.8973555, "bike_id": "a2b8368d16547bb51b370be8d0ab6cb9", "type": "electric_scooter", "is_reserved": 0, "lon": -77.04349583333334}, {"fusion_lat": 0.0, "name": "6b5149616199f9466d31616eaf4ec822", "is_disabled": 0, "rental_uris": {"android": "https://dc.lft.to/lastmile_qr_scan", "ios": "https://dc.lft.to/lastmile_qr_scan"}, "fusion_lon": 0.0, "lat": 38.85309916666667, "bike_id": "6b5149616199f9466d31616eaf4ec822", "type": "electric_bike", "is_reserved": 0, "lon": -77.0461095}, {"fusion_lat": 0.0, "name": "a3c3c21595efec60b19504a184212434", "is_disabled": 0, "rental_uris": {"android": "https://dc.lft.to/lastmile_qr_scan", "ios": "https://dc.lft.to/lastmile_qr_scan"}, "fusion_lon": 0.0, "lat": 38.91022383333333, "bike_id": "a3c3c21595efec60b19504a184212434", "type": "electric_scooter", "is_reserved": 0, "lon": -77.04481833333334}, {"fusion_lat": 0.0, "name": "3311dc3f875fe3191c67c655c7c4e9d1", "is_disabled": 0, "rental_uris": {"android": "https://dc.lft.to/lastmile_qr_scan", "ios": "https://dc.lft.to/lastmile_qr_scan"}, "fusion_lon": 0.0, "lat": 38.929503, "bike_id": "3311dc3f875fe3191c67c655c7c4e9d1", "type": "electric_scooter", "is_reserved": 0, "lon": -77.03469516666667}, {"fusion_lat": 0.0, "name": "4e5f167e5e8ced832f2acee6f10b3e8f", "is_disabled": 0, "rental_uris": {"android": "https://dc.lft.to/lastmile_qr_scan", "ios": "https://dc.lft.to/lastmile_qr_scan"}, "fusion_lon": 0.0, "lat": 38.909085166666664, "bike_id": "4e5f167e5e8ced832f2acee6f10b3e8f", "type": "electric_scooter", "is_reserved": 0, "lon": -77.02304916666667}, {"fusion_lat": 0.0, "name": "d3701c1c304840063e309890884acfbf", "is_disabled": 0, "rental_uris": {"android": "https://dc.lft.to/lastmile_qr_scan", "ios": "https://dc.lft.to/lastmile_qr_scan"}, "fusion_lon": 0.0, "lat": 38.910964666666665, "bike_id": "d3701c1c304840063e309890884acfbf", "type": "electric_scooter", "is_reserved": 0, "lon": -77.03216933333333}, {"fusion_lat": 0.0, "name": "4c4c98ffe7a8288d6dc2669a6c580151", "is_disabled": 0, "rental_uris": {"android": "https://dc.lft.to/lastmile_qr_scan", "ios": "https://dc.lft.to/lastmile_qr_scan"}, "fusion_lon": 0.0, "lat": 38.903855666666665, "bike_id": "4c4c98ffe7a8288d6dc2669a6c580151", "type": "electric_scooter", "is_reserved": 0, "lon": -77.06104833333333}, {"fusion_lat": 0.0, "name": "9d3de139c765d02e402b50d632003697", "is_disabled": 0, "rental_uris": {"android": "https://dc.lft.to/lastmile_qr_scan", "ios": "https://dc.lft.to/lastmile_qr_scan"}, "fusion_lon": 0.0, "lat": 38.842817, "bike_id": "9d3de139c765d02e402b50d632003697", "type": "electric_bike", "is_reserved": 0, "lon": -77.045029}, {"fusion_lat": 0.0, "name": "4d1a9cc819ce86c42dfeadf49edfe120", "is_disabled": 0, "rental_uris": {"android": "https://dc.lft.to/lastmile_qr_scan", "ios": "https://dc.lft.to/lastmile_qr_scan"}, "fusion_lon": 0.0, "lat": 38.93665516666667, "bike_id": "4d1a9cc819ce86c42dfeadf49edfe120", "type": "electric_scooter", "is_reserved": 0, "lon": -77.036387}, {"fusion_lat": 0.0, "name": "08040d2fa23fe18d4464dd825102922e", "is_disabled": 0, "rental_uris": {"android": "https://dc.lft.to/lastmile_qr_scan", "ios": "https://dc.lft.to/lastmile_qr_scan"}, "fusion_lon": 0.0, "lat": 38.886520166666664, "bike_id": "08040d2fa23fe18d4464dd825102922e", "type": "electric_bike", "is_reserved": 0, "lon": -77.162307}, {"fusion_lat": 0.0, "name": "688f6f62d9e7f14cb5d7634f2c24b96a", "is_disabled": 0, "rental_uris": {"android": "https://dc.lft.to/lastmile_qr_scan", "ios": "https://dc.lft.to/lastmile_qr_scan"}, "fusion_lon": 0.0, "lat": 38.863294833333335, "bike_id": "688f6f62d9e7f14cb5d7634f2c24b96a", "type": "electric_bike", "is_reserved": 0, "lon": -76.98720366666667}, {"fusion_lat": 0.0, "name": "194748c68e0737c6ca3dccf2a9c0791c", "is_disabled": 0, "rental_uris": {"android": "https://dc.lft.to/lastmile_qr_scan", "ios": "https://dc.lft.to/lastmile_qr_scan"}, "fusion_lon": 0.0, "lat": 38.881507, "bike_id": "194748c68e0737c6ca3dccf2a9c0791c", "type": "electric_scooter", "is_reserved": 0, "lon": -77.02742733333334}, {"fusion_lat": 0.0, "name": "768de661fc5d000ef64425695fe78da4", "is_disabled": 0, "rental_uris": {"android": "https://dc.lft.to/lastmile_qr_scan", "ios": "https://dc.lft.to/lastmile_qr_scan"}, "fusion_lon": 0.0, "lat": 38.92862183333333, "bike_id": "768de661fc5d000ef64425695fe78da4", "type": "electric_scooter", "is_reserved": 0, "lon": -77.030979}, {"fusion_lat": 0.0, "name": "6cd31812cf8a66a1a11cfb43e07e8239", "is_disabled": 0, "rental_uris": {"android": "https://dc.lft.to/lastmile_qr_scan", "ios": "https://dc.lft.to/lastmile_qr_scan"}, "fusion_lon": 0.0, "lat": 38.897403, "bike_id": "6cd31812cf8a66a1a11cfb43e07e8239", "type": "electric_scooter", "is_reserved": 0, "lon": -77.04697166666666}, {"fusion_lat": 0.0, "name": "0810c9c02996e0b0d3ce39f1cca888af", "is_disabled": 0, "rental_uris": {"android": "https://dc.lft.to/lastmile_qr_scan", "ios": "https://dc.lft.to/lastmile_qr_scan"}, "fusion_lon": 0.0, "lat": 38.880358, "bike_id": "0810c9c02996e0b0d3ce39f1cca888af", "type": "electric_scooter", "is_reserved": 0, "lon": -77.0133425}, {"fusion_lat": 0.0, "name": "1741cacfbffa9c293b16e9db2566d504", "is_disabled": 0, "rental_uris": {"android": "https://dc.lft.to/lastmile_qr_scan", "ios": "https://dc.lft.to/lastmile_qr_scan"}, "fusion_lon": 0.0, "lat": 38.91709783333334, "bike_id": "1741cacfbffa9c293b16e9db2566d504", "type": "electric_bike", "is_reserved": 0, "lon": -77.03467733333333}, {"fusion_lat": 0.0, "name": "5e298b82ff1a0c90d68c022a35231a12", "is_disabled": 0, "rental_uris": {"android": "https://dc.lft.to/lastmile_qr_scan", "ios": "https://dc.lft.to/lastmile_qr_scan"}, "fusion_lon": 0.0, "lat": 38.921646, "bike_id": "5e298b82ff1a0c90d68c022a35231a12", "type": "electric_scooter", "is_reserved": 0, "lon": -76.99812983333334}, {"fusion_lat": 0.0, "name": "f7694f3877c35210443709ec57bb61b3", "is_disabled": 0, "rental_uris": {"android": "https://dc.lft.to/lastmile_qr_scan", "ios": "https://dc.lft.to/lastmile_qr_scan"}, "fusion_lon": 0.0, "lat": 38.901198, "bike_id": "f7694f3877c35210443709ec57bb61b3", "type": "electric_scooter", "is_reserved": 0, "lon": -77.03380283333334}, {"fusion_lat": 0.0, "name": "0631474691bb0ed3a2e34aafb25bfc32", "is_disabled": 0, "rental_uris": {"android": "https://dc.lft.to/lastmile_qr_scan", "ios": "https://dc.lft.to/lastmile_qr_scan"}, "fusion_lon": 0.0, "lat": 38.9095045, "bike_id": "0631474691bb0ed3a2e34aafb25bfc32", "type": "electric_scooter", "is_reserved": 0, "lon": -77.03207016666667}, {"fusion_lat": 0.0, "name": "ca89c7d1127518f4114ce67255581d1d", "is_disabled": 0, "rental_uris": {"android": "https://dc.lft.to/lastmile_qr_scan", "ios": "https://dc.lft.to/lastmile_qr_scan"}, "fusion_lon": 0.0, "lat": 38.9286185, "bike_id": "ca89c7d1127518f4114ce67255581d1d", "type": "electric_scooter", "is_reserved": 0, "lon": -77.0335365}, {"fusion_lat": 0.0, "name": "e37d35f5253242ac1a707fa4a58270ce", "is_disabled": 0, "rental_uris": {"android": "https://dc.lft.to/lastmile_qr_scan", "ios": "https://dc.lft.to/lastmile_qr_scan"}, "fusion_lon": 0.0, "lat": 38.994434166666665, "bike_id": "e37d35f5253242ac1a707fa4a58270ce", "type": "electric_bike", "is_reserved": 0, "lon": -76.99591883333333}, {"fusion_lat": 0.0, "name": "ce84a1cce60d55f3f87a39aaf3e25539", "is_disabled": 0, "rental_uris": {"android": "https://dc.lft.to/lastmile_qr_scan", "ios": "https://dc.lft.to/lastmile_qr_scan"}, "fusion_lon": 0.0, "lat": 38.940504833333335, "bike_id": "ce84a1cce60d55f3f87a39aaf3e25539", "type": "electric_bike", "is_reserved": 0, "lon": -76.90424833333333}, {"fusion_lat": 0.0, "name": "b1dec9c59937e81afb2c1cc46869823b", "is_disabled": 0, "rental_uris": {"android": "https://dc.lft.to/lastmile_qr_scan", "ios": "https://dc.lft.to/lastmile_qr_scan"}, "fusion_lon": 0.0, "lat": 38.903709, "bike_id": "b1dec9c59937e81afb2c1cc46869823b", "type": "electric_scooter", "is_reserved": 0, "lon": -77.03869066666667}, {"fusion_lat": 0.0, "name": "d7919a01180fc4191cf42982a57474c8", "is_disabled": 0, "rental_uris": {"android": "https://dc.lft.to/lastmile_qr_scan", "ios": "https://dc.lft.to/lastmile_qr_scan"}, "fusion_lon": 0.0, "lat": 38.92448916666667, "bike_id": "d7919a01180fc4191cf42982a57474c8", "type": "electric_scooter", "is_reserved": 0, "lon": -77.040228}, {"fusion_lat": 0.0, "name": "1e75a7aa5033c63130e07d50184f6ec4", "is_disabled": 0, "rental_uris": {"android": "https://dc.lft.to/lastmile_qr_scan", "ios": "https://dc.lft.to/lastmile_qr_scan"}, "fusion_lon": 0.0, "lat": 38.9531975, "bike_id": "1e75a7aa5033c63130e07d50184f6ec4", "type": "electric_scooter", "is_reserved": 0, "lon": -77.027814}, {"fusion_lat": 0.0, "name": "61d0056141c3e4a7df2cf9fa82d77f13", "is_disabled": 0, "rental_uris": {"android": "https://dc.lft.to/lastmile_qr_scan", "ios": "https://dc.lft.to/lastmile_qr_scan"}, "fusion_lon": 0.0, "lat": 38.91716533333334, "bike_id": "61d0056141c3e4a7df2cf9fa82d77f13", "type": "electric_scooter", "is_reserved": 0, "lon": -77.028922}, {"fusion_lat": 0.0, "name": "559ee23d928abe96e3af252abdf0f08e", "is_disabled": 0, "rental_uris": {"android": "https://dc.lft.to/lastmile_qr_scan", "ios": "https://dc.lft.to/lastmile_qr_scan"}, "fusion_lon": 0.0, "lat": 38.90696883333333, "bike_id": "559ee23d928abe96e3af252abdf0f08e", "type": "electric_scooter", "is_reserved": 0, "lon": -76.99980633333334}, {"fusion_lat": 0.0, "name": "ff3fdb9e0dfcc369ff20896a827da5f7", "is_disabled": 0, "rental_uris": {"android": "https://dc.lft.to/lastmile_qr_scan", "ios": "https://dc.lft.to/lastmile_qr_scan"}, "fusion_lon": 0.0, "lat": 38.912640833333334, "bike_id": "ff3fdb9e0dfcc369ff20896a827da5f7", "type": "electric_scooter", "is_reserved": 0, "lon": -77.04080033333334}, {"fusion_lat": 0.0, "name": "813cbf623bce43e3d977255416ffb635", "is_disabled": 0, "rental_uris": {"android": "https://dc.lft.to/lastmile_qr_scan", "ios": "https://dc.lft.to/lastmile_qr_scan"}, "fusion_lon": 0.0, "lat": 38.92220866666667, "bike_id": "813cbf623bce43e3d977255416ffb635", "type": "electric_scooter", "is_reserved": 0, "lon": -77.04241333333333}, {"fusion_lat": 0.0, "name": "f71f19c08165ddc4be3c24cf52edaf61", "is_disabled": 0, "rental_uris": {"android": "https://dc.lft.to/lastmile_qr_scan", "ios": "https://dc.lft.to/lastmile_qr_scan"}, "fusion_lon": 0.0, "lat": 38.90520333333333, "bike_id": "f71f19c08165ddc4be3c24cf52edaf61", "type": "electric_scooter", "is_reserved": 0, "lon": -77.04857133333333}, {"fusion_lat": 0.0, "name": "b83a99f70f6d06beb993f9328fa23100", "is_disabled": 0, "rental_uris": {"android": "https://dc.lft.to/lastmile_qr_scan", "ios": "https://dc.lft.to/lastmile_qr_scan"}, "fusion_lon": 0.0, "lat": 38.98667616666667, "bike_id": "b83a99f70f6d06beb993f9328fa23100", "type": "electric_bike", "is_reserved": 0, "lon": -77.00000766666666}, {"fusion_lat": 0.0, "name": "9e291ff0452ff260db24e4df7263845b", "is_disabled": 0, "rental_uris": {"android": "https://dc.lft.to/lastmile_qr_scan", "ios": "https://dc.lft.to/lastmile_qr_scan"}, "fusion_lon": 0.0, "lat": 38.9165945, "bike_id": "9e291ff0452ff260db24e4df7263845b", "type": "electric_scooter", "is_reserved": 0, "lon": -77.03463866666667}, {"fusion_lat": 0.0, "name": "044a0f431df4312961a85cb61ecde00b", "is_disabled": 0, "rental_uris": {"android": "https://dc.lft.to/lastmile_qr_scan", "ios": "https://dc.lft.to/lastmile_qr_scan"}, "fusion_lon": 0.0, "lat": 38.987893666666665, "bike_id": "044a0f431df4312961a85cb61ecde00b", "type": "electric_bike", "is_reserved": 0, "lon": -77.14098683333333}, {"fusion_lat": 0.0, "name": "f0dab68b665ddc9063effdbd7d672591", "is_disabled": 0, "rental_uris": {"android": "https://dc.lft.to/lastmile_qr_scan", "ios": "https://dc.lft.to/lastmile_qr_scan"}, "fusion_lon": 0.0, "lat": 38.9296625, "bike_id": "f0dab68b665ddc9063effdbd7d672591", "type": "electric_scooter", "is_reserved": 0, "lon": -77.03141633333334}, {"fusion_lat": 0.0, "name": "608e28495e53d889207ee2bad2ab1f2f", "is_disabled": 0, "rental_uris": {"android": "https://dc.lft.to/lastmile_qr_scan", "ios": "https://dc.lft.to/lastmile_qr_scan"}, "fusion_lon": 0.0, "lat": 38.89940216666667, "bike_id": "608e28495e53d889207ee2bad2ab1f2f", "type": "electric_scooter", "is_reserved": 0, "lon": -77.05005816666667}, {"fusion_lat": 0.0, "name": "f4098b8c2a8bfc65ba69798134e332fd", "is_disabled": 0, "rental_uris": {"android": "https://dc.lft.to/lastmile_qr_scan", "ios": "https://dc.lft.to/lastmile_qr_scan"}, "fusion_lon": 0.0, "lat": 38.9023445, "bike_id": "f4098b8c2a8bfc65ba69798134e332fd", "type": "electric_scooter", "is_reserved": 0, "lon": -77.0602325}, {"fusion_lat": 0.0, "name": "058dcb1eaaf8b66cad99e54df8cf5139", "is_disabled": 0, "rental_uris": {"android": "https://dc.lft.to/lastmile_qr_scan", "ios": "https://dc.lft.to/lastmile_qr_scan"}, "fusion_lon": 0.0, "lat": 38.904073333333336, "bike_id": "058dcb1eaaf8b66cad99e54df8cf5139", "type": "electric_scooter", "is_reserved": 0, "lon": -76.9732785}, {"fusion_lat": 0.0, "name": "cb54b1d37175aeab6a89b44199b9b05b", "is_disabled": 0, "rental_uris": {"android": "https://dc.lft.to/lastmile_qr_scan", "ios": "https://dc.lft.to/lastmile_qr_scan"}, "fusion_lon": 0.0, "lat": 38.94152666666667, "bike_id": "cb54b1d37175aeab6a89b44199b9b05b", "type": "electric_bike", "is_reserved": 0, "lon": -77.00193333333333}, {"fusion_lat": 0.0, "name": "c2b9f88db6d2476b6ec986d72bcf1261", "is_disabled": 0, "rental_uris": {"android": "https://dc.lft.to/lastmile_qr_scan", "ios": "https://dc.lft.to/lastmile_qr_scan"}, "fusion_lon": 0.0, "lat": 38.904091333333334, "bike_id": "c2b9f88db6d2476b6ec986d72bcf1261", "type": "electric_scooter", "is_reserved": 0, "lon": -77.01892483333333}, {"fusion_lat": 0.0, "name": "07b8f9cfe66771036855ba6df25ff96c", "is_disabled": 0, "rental_uris": {"android": "https://dc.lft.to/lastmile_qr_scan", "ios": "https://dc.lft.to/lastmile_qr_scan"}, "fusion_lon": 0.0, "lat": 38.88991466666667, "bike_id": "07b8f9cfe66771036855ba6df25ff96c", "type": "electric_scooter", "is_reserved": 0, "lon": -76.98228366666666}, {"fusion_lat": 0.0, "name": "9021b6e6bbbd55d69dc09633f039f79a", "is_disabled": 0, "rental_uris": {"android": "https://dc.lft.to/lastmile_qr_scan", "ios": "https://dc.lft.to/lastmile_qr_scan"}, "fusion_lon": 0.0, "lat": 38.931736666666666, "bike_id": "9021b6e6bbbd55d69dc09633f039f79a", "type": "electric_scooter", "is_reserved": 0, "lon": -77.02815633333333}, {"fusion_lat": 0.0, "name": "50dffa619ec03fd82b41a9eb5ea3729c", "is_disabled": 0, "rental_uris": {"android": "https://dc.lft.to/lastmile_qr_scan", "ios": "https://dc.lft.to/lastmile_qr_scan"}, "fusion_lon": 0.0, "lat": 38.93422866666667, "bike_id": "50dffa619ec03fd82b41a9eb5ea3729c", "type": "electric_scooter", "is_reserved": 0, "lon": -77.04007116666666}, {"fusion_lat": 0.0, "name": "219b936235715dcab1931659e6e37d66", "is_disabled": 0, "rental_uris": {"android": "https://dc.lft.to/lastmile_qr_scan", "ios": "https://dc.lft.to/lastmile_qr_scan"}, "fusion_lon": 0.0, "lat": 38.91818466666667, "bike_id": "219b936235715dcab1931659e6e37d66", "type": "electric_scooter", "is_reserved": 0, "lon": -77.03164416666667}, {"fusion_lat": 0.0, "name": "34729bb22d9b74d350485423bc5cc645", "is_disabled": 0, "rental_uris": {"android": "https://dc.lft.to/lastmile_qr_scan", "ios": "https://dc.lft.to/lastmile_qr_scan"}, "fusion_lon": 0.0, "lat": 38.927828833333336, "bike_id": "34729bb22d9b74d350485423bc5cc645", "type": "electric_scooter", "is_reserved": 0, "lon": -77.03148033333333}, {"fusion_lat": 0.0, "name": "fb74f6fb8589ea8e20dd5225698bad31", "is_disabled": 0, "rental_uris": {"android": "https://dc.lft.to/lastmile_qr_scan", "ios": "https://dc.lft.to/lastmile_qr_scan"}, "fusion_lon": 0.0, "lat": 38.931133333333335, "bike_id": "fb74f6fb8589ea8e20dd5225698bad31", "type": "electric_scooter", "is_reserved": 0, "lon": -77.02144766666666}, {"fusion_lat": 0.0, "name": "ac78fb702f256fee0529ca0242dc561d", "is_disabled": 0, "rental_uris": {"android": "https://dc.lft.to/lastmile_qr_scan", "ios": "https://dc.lft.to/lastmile_qr_scan"}, "fusion_lon": 0.0, "lat": 38.932808333333334, "bike_id": "ac78fb702f256fee0529ca0242dc561d", "type": "electric_scooter", "is_reserved": 0, "lon": -77.0326055}, {"fusion_lat": 0.0, "name": "a0236aa640c118828b943989c33cca10", "is_disabled": 0, "rental_uris": {"android": "https://dc.lft.to/lastmile_qr_scan", "ios": "https://dc.lft.to/lastmile_qr_scan"}, "fusion_lon": 0.0, "lat": 38.97345, "bike_id": "a0236aa640c118828b943989c33cca10", "type": "electric_bike", "is_reserved": 0, "lon": -77.0180055}, {"fusion_lat": 0.0, "name": "16946ed2dc636722c2faa9a61ea008a7", "is_disabled": 0, "rental_uris": {"android": "https://dc.lft.to/lastmile_qr_scan", "ios": "https://dc.lft.to/lastmile_qr_scan"}, "fusion_lon": 0.0, "lat": 38.922963, "bike_id": "16946ed2dc636722c2faa9a61ea008a7", "type": "electric_scooter", "is_reserved": 0, "lon": -77.042062}, {"fusion_lat": 0.0, "name": "b0584110147128d108e22ebcf3d5c7ae", "is_disabled": 0, "rental_uris": {"android": "https://dc.lft.to/lastmile_qr_scan", "ios": "https://dc.lft.to/lastmile_qr_scan"}, "fusion_lon": 0.0, "lat": 38.92064233333333, "bike_id": "b0584110147128d108e22ebcf3d5c7ae", "type": "electric_scooter", "is_reserved": 0, "lon": -77.0237065}, {"fusion_lat": 0.0, "name": "9e0281e85e0d9ebf78aca6cb20f955e1", "is_disabled": 0, "rental_uris": {"android": "https://dc.lft.to/lastmile_qr_scan", "ios": "https://dc.lft.to/lastmile_qr_scan"}, "fusion_lon": 0.0, "lat": 38.90722733333333, "bike_id": "9e0281e85e0d9ebf78aca6cb20f955e1", "type": "electric_scooter", "is_reserved": 0, "lon": -77.02888583333333}, {"fusion_lat": 0.0, "name": "7f1c3d212b25c84a99c1fe093a04847c", "is_disabled": 0, "rental_uris": {"android": "https://dc.lft.to/lastmile_qr_scan", "ios": "https://dc.lft.to/lastmile_qr_scan"}, "fusion_lon": 0.0, "lat": 38.913255, "bike_id": "7f1c3d212b25c84a99c1fe093a04847c", "type": "electric_scooter", "is_reserved": 0, "lon": -77.02160383333333}, {"fusion_lat": 0.0, "name": "b03abefe39a72a5fc6de058b2dc6d427", "is_disabled": 0, "rental_uris": {"android": "https://dc.lft.to/lastmile_qr_scan", "ios": "https://dc.lft.to/lastmile_qr_scan"}, "fusion_lon": 0.0, "lat": 38.90696666666667, "bike_id": "b03abefe39a72a5fc6de058b2dc6d427", "type": "electric_scooter", "is_reserved": 0, "lon": -77.06524833333333}, {"fusion_lat": 0.0, "name": "209b1699a791ac6c6a65b557e242971a", "is_disabled": 0, "rental_uris": {"android": "https://dc.lft.to/lastmile_qr_scan", "ios": "https://dc.lft.to/lastmile_qr_scan"}, "fusion_lon": 0.0, "lat": 38.9086145, "bike_id": "209b1699a791ac6c6a65b557e242971a", "type": "electric_scooter", "is_reserved": 0, "lon": -76.99961366666666}, {"fusion_lat": 0.0, "name": "285a3d32f6e6ee29ad68a5d2a57bf43e", "is_disabled": 0, "rental_uris": {"android": "https://dc.lft.to/lastmile_qr_scan", "ios": "https://dc.lft.to/lastmile_qr_scan"}, "fusion_lon": 0.0, "lat": 38.92327216666666, "bike_id": "285a3d32f6e6ee29ad68a5d2a57bf43e", "type": "electric_scooter", "is_reserved": 0, "lon": -77.04303733333333}, {"fusion_lat": 0.0, "name": "732e8a6a85d2687c59183761684f36e0", "is_disabled": 0, "rental_uris": {"android": "https://dc.lft.to/lastmile_qr_scan", "ios": "https://dc.lft.to/lastmile_qr_scan"}, "fusion_lon": 0.0, "lat": 38.890168333333335, "bike_id": "732e8a6a85d2687c59183761684f36e0", "type": "electric_scooter", "is_reserved": 0, "lon": -76.93732666666666}, {"fusion_lat": 0.0, "name": "8cd088b233cb0865376f6f323e331762", "is_disabled": 0, "rental_uris": {"android": "https://dc.lft.to/lastmile_qr_scan", "ios": "https://dc.lft.to/lastmile_qr_scan"}, "fusion_lon": 0.0, "lat": 38.92109, "bike_id": "8cd088b233cb0865376f6f323e331762", "type": "electric_scooter", "is_reserved": 0, "lon": -77.0222045}, {"fusion_lat": 0.0, "name": "0d81ca9024b1d9f9610d27dbf4dc8a18", "is_disabled": 0, "rental_uris": {"android": "https://dc.lft.to/lastmile_qr_scan", "ios": "https://dc.lft.to/lastmile_qr_scan"}, "fusion_lon": 0.0, "lat": 38.88492883333333, "bike_id": "0d81ca9024b1d9f9610d27dbf4dc8a18", "type": "electric_scooter", "is_reserved": 0, "lon": -77.01083066666666}, {"fusion_lat": 0.0, "name": "950fb675035da24e27a1c8aa7d560b17", "is_disabled": 0, "rental_uris": {"android": "https://dc.lft.to/lastmile_qr_scan", "ios": "https://dc.lft.to/lastmile_qr_scan"}, "fusion_lon": 0.0, "lat": 38.926556833333336, "bike_id": "950fb675035da24e27a1c8aa7d560b17", "type": "electric_scooter", "is_reserved": 0, "lon": -77.05352033333334}, {"fusion_lat": 0.0, "name": "765bccdcaa0989b22b0bfce3c64b348c", "is_disabled": 0, "rental_uris": {"android": "https://dc.lft.to/lastmile_qr_scan", "ios": "https://dc.lft.to/lastmile_qr_scan"}, "fusion_lon": 0.0, "lat": 38.958989, "bike_id": "765bccdcaa0989b22b0bfce3c64b348c", "type": "electric_bike", "is_reserved": 0, "lon": -76.92484516666667}, {"fusion_lat": 0.0, "name": "f318ef6c7ace19bd3b1f1a9d3cf86dd7", "is_disabled": 0, "rental_uris": {"android": "https://dc.lft.to/lastmile_qr_scan", "ios": "https://dc.lft.to/lastmile_qr_scan"}, "fusion_lon": 0.0, "lat": 38.84357716666667, "bike_id": "f318ef6c7ace19bd3b1f1a9d3cf86dd7", "type": "electric_bike", "is_reserved": 0, "lon": -76.97830233333333}, {"fusion_lat": 0.0, "name": "c60ff8a6dbf5e0275ba27de2cee4da87", "is_disabled": 0, "rental_uris": {"android": "https://dc.lft.to/lastmile_qr_scan", "ios": "https://dc.lft.to/lastmile_qr_scan"}, "fusion_lon": 0.0, "lat": 38.9286695, "bike_id": "c60ff8a6dbf5e0275ba27de2cee4da87", "type": "electric_scooter", "is_reserved": 0, "lon": -77.014149}, {"fusion_lat": 0.0, "name": "c6ae8b4a0b9d4ebe3cfe4ebb67f6ed2c", "is_disabled": 0, "rental_uris": {"android": "https://dc.lft.to/lastmile_qr_scan", "ios": "https://dc.lft.to/lastmile_qr_scan"}, "fusion_lon": 0.0, "lat": 38.922331, "bike_id": "c6ae8b4a0b9d4ebe3cfe4ebb67f6ed2c", "type": "electric_scooter", "is_reserved": 0, "lon": -77.01841116666667}, {"fusion_lat": 0.0, "name": "44858139642cf6c3a55949636c1db344", "is_disabled": 0, "rental_uris": {"android": "https://dc.lft.to/lastmile_qr_scan", "ios": "https://dc.lft.to/lastmile_qr_scan"}, "fusion_lon": 0.0, "lat": 38.961879333333336, "bike_id": "44858139642cf6c3a55949636c1db344", "type": "electric_bike", "is_reserved": 0, "lon": -77.0527065}, {"fusion_lat": 0.0, "name": "886b01e225358c51ab59ccbe17316846", "is_disabled": 0, "rental_uris": {"android": "https://dc.lft.to/lastmile_qr_scan", "ios": "https://dc.lft.to/lastmile_qr_scan"}, "fusion_lon": 0.0, "lat": 38.895947666666665, "bike_id": "886b01e225358c51ab59ccbe17316846", "type": "electric_scooter", "is_reserved": 0, "lon": -77.02984916666666}, {"fusion_lat": 0.0, "name": "1c2473affc22b2bb8e69311d04fc5e6b", "is_disabled": 0, "rental_uris": {"android": "https://dc.lft.to/lastmile_qr_scan", "ios": "https://dc.lft.to/lastmile_qr_scan"}, "fusion_lon": 0.0, "lat": 38.919688666666666, "bike_id": "1c2473affc22b2bb8e69311d04fc5e6b", "type": "electric_scooter", "is_reserved": 0, "lon": -77.01809666666666}, {"fusion_lat": 0.0, "name": "1253ac570d4d307b58f97887ac82f1aa", "is_disabled": 0, "rental_uris": {"android": "https://dc.lft.to/lastmile_qr_scan", "ios": "https://dc.lft.to/lastmile_qr_scan"}, "fusion_lon": 0.0, "lat": 38.883632166666665, "bike_id": "1253ac570d4d307b58f97887ac82f1aa", "type": "electric_scooter", "is_reserved": 0, "lon": -76.94159616666667}, {"fusion_lat": 0.0, "name": "1b8d03c8808aedff6a28f10c1c0e9bd3", "is_disabled": 0, "rental_uris": {"android": "https://dc.lft.to/lastmile_qr_scan", "ios": "https://dc.lft.to/lastmile_qr_scan"}, "fusion_lon": 0.0, "lat": 38.92488383333333, "bike_id": "1b8d03c8808aedff6a28f10c1c0e9bd3", "type": "electric_scooter", "is_reserved": 0, "lon": -77.03932416666666}, {"fusion_lat": 0.0, "name": "6ee325eb67a43852fd7a1793c8dd9041", "is_disabled": 0, "rental_uris": {"android": "https://dc.lft.to/lastmile_qr_scan", "ios": "https://dc.lft.to/lastmile_qr_scan"}, "fusion_lon": 0.0, "lat": 38.91778133333333, "bike_id": "6ee325eb67a43852fd7a1793c8dd9041", "type": "electric_scooter", "is_reserved": 0, "lon": -77.03209483333333}, {"fusion_lat": 0.0, "name": "2c47cbb8ffe0dba619dc0a742f7c500b", "is_disabled": 0, "rental_uris": {"android": "https://dc.lft.to/lastmile_qr_scan", "ios": "https://dc.lft.to/lastmile_qr_scan"}, "fusion_lon": 0.0, "lat": 38.874914833333335, "bike_id": "2c47cbb8ffe0dba619dc0a742f7c500b", "type": "electric_bike", "is_reserved": 0, "lon": -77.21124266666666}, {"fusion_lat": 0.0, "name": "ea407d3eabd094459bcded0abad6bf40", "is_disabled": 0, "rental_uris": {"android": "https://dc.lft.to/lastmile_qr_scan", "ios": "https://dc.lft.to/lastmile_qr_scan"}, "fusion_lon": 0.0, "lat": 38.9461495, "bike_id": "ea407d3eabd094459bcded0abad6bf40", "type": "electric_scooter", "is_reserved": 0, "lon": -77.0801365}, {"fusion_lat": 0.0, "name": "94ed7ae5a0ea56792b6af9060d90c5db", "is_disabled": 0, "rental_uris": {"android": "https://dc.lft.to/lastmile_qr_scan", "ios": "https://dc.lft.to/lastmile_qr_scan"}, "fusion_lon": 0.0, "lat": 38.878906, "bike_id": "94ed7ae5a0ea56792b6af9060d90c5db", "type": "electric_scooter", "is_reserved": 0, "lon": -76.99501733333334}, {"fusion_lat": 0.0, "name": "b6bb4269b47a8f61b9a490bf24f1157a", "is_disabled": 0, "rental_uris": {"android": "https://dc.lft.to/lastmile_qr_scan", "ios": "https://dc.lft.to/lastmile_qr_scan"}, "fusion_lon": 0.0, "lat": 38.8996385, "bike_id": "b6bb4269b47a8f61b9a490bf24f1157a", "type": "electric_bike", "is_reserved": 0, "lon": -76.98675783333333}, {"fusion_lat": 0.0, "name": "cdb19bcfb1ebd7e50324856b623ec5ac", "is_disabled": 0, "rental_uris": {"android": "https://dc.lft.to/lastmile_qr_scan", "ios": "https://dc.lft.to/lastmile_qr_scan"}, "fusion_lon": 0.0, "lat": 38.8951605, "bike_id": "cdb19bcfb1ebd7e50324856b623ec5ac", "type": "electric_scooter", "is_reserved": 0, "lon": -76.98082883333333}, {"fusion_lat": 0.0, "name": "42b5ca95eda2115108be1f024f15694d", "is_disabled": 0, "rental_uris": {"android": "https://dc.lft.to/lastmile_qr_scan", "ios": "https://dc.lft.to/lastmile_qr_scan"}, "fusion_lon": 0.0, "lat": 38.92894116666667, "bike_id": "42b5ca95eda2115108be1f024f15694d", "type": "electric_scooter", "is_reserved": 0, "lon": -77.0229955}, {"fusion_lat": 0.0, "name": "ec459956e29e48ad1cec31a7c5bf5e52", "is_disabled": 0, "rental_uris": {"android": "https://dc.lft.to/lastmile_qr_scan", "ios": "https://dc.lft.to/lastmile_qr_scan"}, "fusion_lon": 0.0, "lat": 38.949788833333336, "bike_id": "ec459956e29e48ad1cec31a7c5bf5e52", "type": "electric_scooter", "is_reserved": 0, "lon": -77.027022}, {"fusion_lat": 0.0, "name": "bc36b9e7eb3397164b557549a7442a2c", "is_disabled": 0, "rental_uris": {"android": "https://dc.lft.to/lastmile_qr_scan", "ios": "https://dc.lft.to/lastmile_qr_scan"}, "fusion_lon": 0.0, "lat": 38.92037216666667, "bike_id": "bc36b9e7eb3397164b557549a7442a2c", "type": "electric_bike", "is_reserved": 0, "lon": -76.9795835}, {"fusion_lat": 0.0, "name": "84aaef10e0afd603ea543a68da8f49d4", "is_disabled": 0, "rental_uris": {"android": "https://dc.lft.to/lastmile_qr_scan", "ios": "https://dc.lft.to/lastmile_qr_scan"}, "fusion_lon": 0.0, "lat": 38.9179315, "bike_id": "84aaef10e0afd603ea543a68da8f49d4", "type": "electric_scooter", "is_reserved": 0, "lon": -77.02320033333334}, {"fusion_lat": 0.0, "name": "bc8ef7b5a4e0c0cb344b9d9cec3d18b9", "is_disabled": 0, "rental_uris": {"android": "https://dc.lft.to/lastmile_qr_scan", "ios": "https://dc.lft.to/lastmile_qr_scan"}, "fusion_lon": 0.0, "lat": 38.94978866666666, "bike_id": "bc8ef7b5a4e0c0cb344b9d9cec3d18b9", "type": "electric_scooter", "is_reserved": 0, "lon": -77.02700766666666}, {"fusion_lat": 0.0, "name": "c32fb32e5e383809c15faef974508fad", "is_disabled": 0, "rental_uris": {"android": "https://dc.lft.to/lastmile_qr_scan", "ios": "https://dc.lft.to/lastmile_qr_scan"}, "fusion_lon": 0.0, "lat": 38.93061483333334, "bike_id": "c32fb32e5e383809c15faef974508fad", "type": "electric_scooter", "is_reserved": 0, "lon": -77.03946466666666}, {"fusion_lat": 0.0, "name": "aede8768f3a4cf467092e0598532d3ae", "is_disabled": 0, "rental_uris": {"android": "https://dc.lft.to/lastmile_qr_scan", "ios": "https://dc.lft.to/lastmile_qr_scan"}, "fusion_lon": 0.0, "lat": 38.9573185, "bike_id": "aede8768f3a4cf467092e0598532d3ae", "type": "electric_scooter", "is_reserved": 0, "lon": -77.02404116666666}, {"fusion_lat": 0.0, "name": "5cb1eff084ddb7f098f1eec23ad75a47", "is_disabled": 0, "rental_uris": {"android": "https://dc.lft.to/lastmile_qr_scan", "ios": "https://dc.lft.to/lastmile_qr_scan"}, "fusion_lon": 0.0, "lat": 38.935501, "bike_id": "5cb1eff084ddb7f098f1eec23ad75a47", "type": "electric_scooter", "is_reserved": 0, "lon": -77.08188033333333}, {"fusion_lat": 0.0, "name": "d9f08871606dbe906be410d6d68b2d0a", "is_disabled": 0, "rental_uris": {"android": "https://dc.lft.to/lastmile_qr_scan", "ios": "https://dc.lft.to/lastmile_qr_scan"}, "fusion_lon": 0.0, "lat": 38.892214, "bike_id": "d9f08871606dbe906be410d6d68b2d0a", "type": "electric_scooter", "is_reserved": 0, "lon": -77.0149825}, {"fusion_lat": 0.0, "name": "64bdf27b4e26779f9720b23f0f2a04a2", "is_disabled": 0, "rental_uris": {"android": "https://dc.lft.to/lastmile_qr_scan", "ios": "https://dc.lft.to/lastmile_qr_scan"}, "fusion_lon": 0.0, "lat": 38.916705666666665, "bike_id": "64bdf27b4e26779f9720b23f0f2a04a2", "type": "electric_bike", "is_reserved": 0, "lon": -76.98229416666666}, {"fusion_lat": 0.0, "name": "8c4afe2443f11d2ae359f82db59ae97b", "is_disabled": 0, "rental_uris": {"android": "https://dc.lft.to/lastmile_qr_scan", "ios": "https://dc.lft.to/lastmile_qr_scan"}, "fusion_lon": 0.0, "lat": 38.9099305, "bike_id": "8c4afe2443f11d2ae359f82db59ae97b", "type": "electric_scooter", "is_reserved": 0, "lon": -77.04657533333334}, {"fusion_lat": 0.0, "name": "56d978e989d7c0da1d230245a1d6ac62", "is_disabled": 0, "rental_uris": {"android": "https://dc.lft.to/lastmile_qr_scan", "ios": "https://dc.lft.to/lastmile_qr_scan"}, "fusion_lon": 0.0, "lat": 38.906924833333335, "bike_id": "56d978e989d7c0da1d230245a1d6ac62", "type": "electric_scooter", "is_reserved": 0, "lon": -77.03597366666666}, {"fusion_lat": 0.0, "name": "bc6b2f0e7dae6a7a0c9e0ea71588e2ca", "is_disabled": 0, "rental_uris": {"android": "https://dc.lft.to/lastmile_qr_scan", "ios": "https://dc.lft.to/lastmile_qr_scan"}, "fusion_lon": 0.0, "lat": 38.881286833333334, "bike_id": "bc6b2f0e7dae6a7a0c9e0ea71588e2ca", "type": "electric_scooter", "is_reserved": 0, "lon": -76.992819}, {"fusion_lat": 0.0, "name": "5643c5e066faca1fc1b2fe60ac84cd71", "is_disabled": 0, "rental_uris": {"android": "https://dc.lft.to/lastmile_qr_scan", "ios": "https://dc.lft.to/lastmile_qr_scan"}, "fusion_lon": 0.0, "lat": 38.88151883333333, "bike_id": "5643c5e066faca1fc1b2fe60ac84cd71", "type": "electric_scooter", "is_reserved": 0, "lon": -77.027419}, {"fusion_lat": 0.0, "name": "ba7c6543c08423189e2416d3a327a517", "is_disabled": 0, "rental_uris": {"android": "https://dc.lft.to/lastmile_qr_scan", "ios": "https://dc.lft.to/lastmile_qr_scan"}, "fusion_lon": 0.0, "lat": 38.8987465, "bike_id": "ba7c6543c08423189e2416d3a327a517", "type": "electric_scooter", "is_reserved": 0, "lon": -76.93185083333333}, {"fusion_lat": 0.0, "name": "1be9561010f53e34a319ea01ba7b4c6e", "is_disabled": 0, "rental_uris": {"android": "https://dc.lft.to/lastmile_qr_scan", "ios": "https://dc.lft.to/lastmile_qr_scan"}, "fusion_lon": 0.0, "lat": 38.93899183333333, "bike_id": "1be9561010f53e34a319ea01ba7b4c6e", "type": "electric_scooter", "is_reserved": 0, "lon": -77.03268833333334}, {"fusion_lat": 0.0, "name": "b1a00b15ec3e741ee53e6e83205a5447", "is_disabled": 0, "rental_uris": {"android": "https://dc.lft.to/lastmile_qr_scan", "ios": "https://dc.lft.to/lastmile_qr_scan"}, "fusion_lon": 0.0, "lat": 38.9286975, "bike_id": "b1a00b15ec3e741ee53e6e83205a5447", "type": "electric_scooter", "is_reserved": 0, "lon": -77.035019}, {"fusion_lat": 0.0, "name": "7084792919f9aeeb5f0d7c6bf6e66671", "is_disabled": 0, "rental_uris": {"android": "https://dc.lft.to/lastmile_qr_scan", "ios": "https://dc.lft.to/lastmile_qr_scan"}, "fusion_lon": 0.0, "lat": 38.924695166666666, "bike_id": "7084792919f9aeeb5f0d7c6bf6e66671", "type": "electric_scooter", "is_reserved": 0, "lon": -77.02076816666667}, {"fusion_lat": 0.0, "name": "fbdc719d63fecaf6b0e12c1187b499fc", "is_disabled": 0, "rental_uris": {"android": "https://dc.lft.to/lastmile_qr_scan", "ios": "https://dc.lft.to/lastmile_qr_scan"}, "fusion_lon": 0.0, "lat": 38.902225666666666, "bike_id": "fbdc719d63fecaf6b0e12c1187b499fc", "type": "electric_scooter", "is_reserved": 0, "lon": -77.0462155}, {"fusion_lat": 0.0, "name": "401d6549ec32b66ae6f3ef962419625e", "is_disabled": 0, "rental_uris": {"android": "https://dc.lft.to/lastmile_qr_scan", "ios": "https://dc.lft.to/lastmile_qr_scan"}, "fusion_lon": 0.0, "lat": 38.93183066666667, "bike_id": "401d6549ec32b66ae6f3ef962419625e", "type": "electric_scooter", "is_reserved": 0, "lon": -77.04304316666666}, {"fusion_lat": 0.0, "name": "7b7adf62be3de59cf495c0bfc90b97d4", "is_disabled": 0, "rental_uris": {"android": "https://dc.lft.to/lastmile_qr_scan", "ios": "https://dc.lft.to/lastmile_qr_scan"}, "fusion_lon": 0.0, "lat": 38.928500666666665, "bike_id": "7b7adf62be3de59cf495c0bfc90b97d4", "type": "electric_scooter", "is_reserved": 0, "lon": -77.03643016666666}, {"fusion_lat": 0.0, "name": "848f219c2371ffd74b54fd7bc83dc55d", "is_disabled": 0, "rental_uris": {"android": "https://dc.lft.to/lastmile_qr_scan", "ios": "https://dc.lft.to/lastmile_qr_scan"}, "fusion_lon": 0.0, "lat": 38.91709933333333, "bike_id": "848f219c2371ffd74b54fd7bc83dc55d", "type": "electric_scooter", "is_reserved": 0, "lon": -77.04091683333333}, {"fusion_lat": 0.0, "name": "8eb3bc04bb8f16d10abab63939d87023", "is_disabled": 0, "rental_uris": {"android": "https://dc.lft.to/lastmile_qr_scan", "ios": "https://dc.lft.to/lastmile_qr_scan"}, "fusion_lon": 0.0, "lat": 38.858999833333336, "bike_id": "8eb3bc04bb8f16d10abab63939d87023", "type": "electric_bike", "is_reserved": 0, "lon": -77.09547483333333}, {"fusion_lat": 0.0, "name": "66b7d4c74deccaa86af343f82eca285b", "is_disabled": 0, "rental_uris": {"android": "https://dc.lft.to/lastmile_qr_scan", "ios": "https://dc.lft.to/lastmile_qr_scan"}, "fusion_lon": 0.0, "lat": 38.914227, "bike_id": "66b7d4c74deccaa86af343f82eca285b", "type": "electric_scooter", "is_reserved": 0, "lon": -77.03181066666667}, {"fusion_lat": 0.0, "name": "e616d57da23512eecbae94d552486542", "is_disabled": 0, "rental_uris": {"android": "https://dc.lft.to/lastmile_qr_scan", "ios": "https://dc.lft.to/lastmile_qr_scan"}, "fusion_lon": 0.0, "lat": 38.909419166666666, "bike_id": "e616d57da23512eecbae94d552486542", "type": "electric_scooter", "is_reserved": 0, "lon": -77.0211925}, {"fusion_lat": 0.0, "name": "fdf2ceb09c71d6c8ba436ef0a5c67760", "is_disabled": 0, "rental_uris": {"android": "https://dc.lft.to/lastmile_qr_scan", "ios": "https://dc.lft.to/lastmile_qr_scan"}, "fusion_lon": 0.0, "lat": 38.90956516666667, "bike_id": "fdf2ceb09c71d6c8ba436ef0a5c67760", "type": "electric_scooter", "is_reserved": 0, "lon": -77.0489365}, {"fusion_lat": 0.0, "name": "8ec202f8405ed502ad7d53c2fa4daef1", "is_disabled": 0, "rental_uris": {"android": "https://dc.lft.to/lastmile_qr_scan", "ios": "https://dc.lft.to/lastmile_qr_scan"}, "fusion_lon": 0.0, "lat": 38.917119, "bike_id": "8ec202f8405ed502ad7d53c2fa4daef1", "type": "electric_scooter", "is_reserved": 0, "lon": -77.0295405}, {"fusion_lat": 0.0, "name": "9265f11550ed00e7b580eaebb03b9eb7", "is_disabled": 0, "rental_uris": {"android": "https://dc.lft.to/lastmile_qr_scan", "ios": "https://dc.lft.to/lastmile_qr_scan"}, "fusion_lon": 0.0, "lat": 38.939358166666665, "bike_id": "9265f11550ed00e7b580eaebb03b9eb7", "type": "electric_scooter", "is_reserved": 0, "lon": -77.03321433333333}, {"fusion_lat": 0.0, "name": "65050716a5121386a015967f7e48495c", "is_disabled": 0, "rental_uris": {"android": "https://dc.lft.to/lastmile_qr_scan", "ios": "https://dc.lft.to/lastmile_qr_scan"}, "fusion_lon": 0.0, "lat": 38.914256333333334, "bike_id": "65050716a5121386a015967f7e48495c", "type": "electric_scooter", "is_reserved": 0, "lon": -77.0318705}, {"fusion_lat": 0.0, "name": "3bac9e7eeffb9921db7e953f275e63cd", "is_disabled": 0, "rental_uris": {"android": "https://dc.lft.to/lastmile_qr_scan", "ios": "https://dc.lft.to/lastmile_qr_scan"}, "fusion_lon": 0.0, "lat": 38.897293833333336, "bike_id": "3bac9e7eeffb9921db7e953f275e63cd", "type": "electric_scooter", "is_reserved": 0, "lon": -76.99139283333334}, {"fusion_lat": 0.0, "name": "119e045b8c6ae215bbadace33dcf3fa2", "is_disabled": 0, "rental_uris": {"android": "https://dc.lft.to/lastmile_qr_scan", "ios": "https://dc.lft.to/lastmile_qr_scan"}, "fusion_lon": 0.0, "lat": 38.9305085, "bike_id": "119e045b8c6ae215bbadace33dcf3fa2", "type": "electric_scooter", "is_reserved": 0, "lon": -77.031953}, {"fusion_lat": 0.0, "name": "a797684365d07c92e0ca0267a28c13a1", "is_disabled": 0, "rental_uris": {"android": "https://dc.lft.to/lastmile_qr_scan", "ios": "https://dc.lft.to/lastmile_qr_scan"}, "fusion_lon": 0.0, "lat": 38.920420166666666, "bike_id": "a797684365d07c92e0ca0267a28c13a1", "type": "electric_scooter", "is_reserved": 0, "lon": -77.03398566666667}, {"fusion_lat": 0.0, "name": "11ca47432895728ee14b78f1f8f8386e", "is_disabled": 0, "rental_uris": {"android": "https://dc.lft.to/lastmile_qr_scan", "ios": "https://dc.lft.to/lastmile_qr_scan"}, "fusion_lon": 0.0, "lat": 38.88985516666666, "bike_id": "11ca47432895728ee14b78f1f8f8386e", "type": "electric_scooter", "is_reserved": 0, "lon": -76.98740283333333}, {"fusion_lat": 0.0, "name": "766325e7c601326b7bbb9dd3f2b5ee11", "is_disabled": 0, "rental_uris": {"android": "https://dc.lft.to/lastmile_qr_scan", "ios": "https://dc.lft.to/lastmile_qr_scan"}, "fusion_lon": 0.0, "lat": 38.8960555, "bike_id": "766325e7c601326b7bbb9dd3f2b5ee11", "type": "electric_scooter", "is_reserved": 0, "lon": -77.03169}, {"fusion_lat": 0.0, "name": "023ffe0c6c269c6b871482db6218ee26", "is_disabled": 0, "rental_uris": {"android": "https://dc.lft.to/lastmile_qr_scan", "ios": "https://dc.lft.to/lastmile_qr_scan"}, "fusion_lon": 0.0, "lat": 38.956420666666666, "bike_id": "023ffe0c6c269c6b871482db6218ee26", "type": "electric_scooter", "is_reserved": 0, "lon": -77.0330065}, {"fusion_lat": 0.0, "name": "da86972ec831c355ae143426a7b35aad", "is_disabled": 0, "rental_uris": {"android": "https://dc.lft.to/lastmile_qr_scan", "ios": "https://dc.lft.to/lastmile_qr_scan"}, "fusion_lon": 0.0, "lat": 38.93071183333333, "bike_id": "da86972ec831c355ae143426a7b35aad", "type": "electric_scooter", "is_reserved": 0, "lon": -77.03155866666667}, {"fusion_lat": 0.0, "name": "e63376beb9b0a095c3cd7ee5f7668ce7", "is_disabled": 0, "rental_uris": {"android": "https://dc.lft.to/lastmile_qr_scan", "ios": "https://dc.lft.to/lastmile_qr_scan"}, "fusion_lon": 0.0, "lat": 38.916437, "bike_id": "e63376beb9b0a095c3cd7ee5f7668ce7", "type": "electric_scooter", "is_reserved": 0, "lon": -77.03219083333333}, {"fusion_lat": 0.0, "name": "0cc516fa46c5b26ad9582928e47e791a", "is_disabled": 0, "rental_uris": {"android": "https://dc.lft.to/lastmile_qr_scan", "ios": "https://dc.lft.to/lastmile_qr_scan"}, "fusion_lon": 0.0, "lat": 38.90249816666667, "bike_id": "0cc516fa46c5b26ad9582928e47e791a", "type": "electric_scooter", "is_reserved": 0, "lon": -77.02359866666667}, {"fusion_lat": 0.0, "name": "53c889dead9797cd88ba2056fbe86450", "is_disabled": 0, "rental_uris": {"android": "https://dc.lft.to/lastmile_qr_scan", "ios": "https://dc.lft.to/lastmile_qr_scan"}, "fusion_lon": 0.0, "lat": 38.937149833333336, "bike_id": "53c889dead9797cd88ba2056fbe86450", "type": "electric_scooter", "is_reserved": 0, "lon": -77.02461833333334},