{"data": {"bikes": [{"rental_uris": {"android": "https://dc.lft.to/lastmile_qr_scan", "ios": "https://dc.lft.to/lastmile_qr_scan"}, "is_reserved": 0, "is_disabled": 0, "name": "cd6ef2caa28ff73dc77549c6d6d88b28", "bike_id": "cd6ef2caa28ff73dc77549c6d6d88b28", "fusion_lat": 0.0, "lon": -77.04653933333333, "type": "electric_scooter", "fusion_lon": 0.0, "lat": 38.9005405}, {"rental_uris": {"android": "https://dc.lft.to/lastmile_qr_scan", "ios": "https://dc.lft.to/lastmile_qr_scan"}, "is_reserved": 0, "is_disabled": 0, "name": "5b80ddc85499f4e326f9a1b422c99cb9", "bike_id": "5b80ddc85499f4e326f9a1b422c99cb9", "fusion_lat": 0.0, "lon": -77.03175766666666, "type": "electric_scooter", "fusion_lon": 0.0, "lat": 38.88737616666667}, {"rental_uris": {"android": "https://dc.lft.to/lastmile_qr_scan", "ios": "https://dc.lft.to/lastmile_qr_scan"}, "is_reserved": 0, "is_disabled": 0, "name": "397fe1714636deb4ff41371f24cf2e20", "bike_id": "397fe1714636deb4ff41371f24cf2e20", "fusion_lat": 0.0, "lon": -77.041693, "type": "electric_scooter", "fusion_lon": 0.0, "lat": 38.916044}, {"rental_uris": {"android": "https://dc.lft.to/lastmile_qr_scan", "ios": "https://dc.lft.to/lastmile_qr_scan"}, "is_reserved": 0, "is_disabled": 0, "name": "9523e2a707df45d1d897b351f80c0903", "bike_id": "9523e2a707df45d1d897b351f80c0903", "fusion_lat": 0.0, "lon": -77.043897, "type": "electric_scooter", "fusion_lon": 0.0, "lat": 38.900108}, {"rental_uris": {"android": "https://dc.lft.to/lastmile_qr_scan", "ios": "https://dc.lft.to/lastmile_qr_scan"}, "is_reserved": 0, "is_disabled": 0, "name": "2f4210c2bc7f4e546c1012f0505398f6", "bike_id": "2f4210c2bc7f4e546c1012f0505398f6", "fusion_lat": 0.0, "lon": -77.0512235, "type": "electric_scooter", "fusion_lon": 0.0, "lat": 38.90636966666667}, {"rental_uris": {"android": "https://dc.lft.to/lastmile_qr_scan", "ios": "https://dc.lft.to/lastmile_qr_scan"}, "is_reserved": 0, "is_disabled": 0, "name": "289f5215cbe6df9119812fab9983f32c", "bike_id": "289f5215cbe6df9119812fab9983f32c", "fusion_lat": 0.0, "lon": -77.03390366666666, "type": "electric_scooter", "fusion_lon": 0.0, "lat": 38.902749666666665}, {"rental_uris": {"android": "https://dc.lft.to/lastmile_qr_scan", "ios": "https://dc.lft.to/lastmile_qr_scan"}, "is_reserved": 0, "is_disabled": 0, "name": "b362cf1ac4830ede795d19238dc77b20", "bike_id": "b362cf1ac4830ede795d19238dc77b20", "fusion_lat": 0.0, "lon": -77.022005, "type": "electric_scooter", "fusion_lon": 0.0, "lat": 38.89618983333333}, {"rental_uris": {"android": "https://dc.lft.to/lastmile_qr_scan", "ios": "https://dc.lft.to/lastmile_qr_scan"}, "is_reserved": 0, "is_disabled": 0, "name": "db998e6fa8f5839cfa4661798ad41ad4", "bike_id": "db998e6fa8f5839cfa4661798ad41ad4", "fusion_lat": 0.0, "lon": -76.99002183333333, "type": "electric_scooter", "fusion_lon": 0.0, "lat": 38.858142}, {"rental_uris": {"android": "https://dc.lft.to/lastmile_qr_scan", "ios": "https://dc.lft.to/lastmile_qr_scan"}, "is_reserved": 0, "is_disabled": 0, "name": "f6e99ebfdc2bb940f4fc240c90d118dd", "bike_id": "f6e99ebfdc2bb940f4fc240c90d118dd", "fusion_lat": 0.0, "lon": -77.02142, "type": "electric_scooter", "fusion_lon": 0.0, "lat": 38.9048095}, {"rental_uris": {"android": "https://dc.lft.to/lastmile_qr_scan", "ios": "https://dc.lft.to/lastmile_qr_scan"}, "is_reserved": 0, "is_disabled": 0, "name": "2308e934e0fed9f82375fc0efdf23223", "bike_id": "2308e934e0fed9f82375fc0efdf23223", "fusion_lat": 0.0, "lon": -77.03622166666666, "type": "electric_scooter", "fusion_lon": 0.0, "lat": 38.942899}, {"rental_uris": {"android": "https://dc.lft.to/lastmile_qr_scan", "ios": "https://dc.lft.to/lastmile_qr_scan"}, "is_reserved": 0, "is_disabled": 0, "name": "82c3bbaf1eb53b1f9232ddaa319dbcef", "bike_id": "82c3bbaf1eb53b1f9232ddaa319dbcef", "fusion_lat": 0.0, "lon": -77.02700883333333, "type": "electric_scooter", "fusion_lon": 0.0, "lat": 38.94977183333334}, {"rental_uris": {"android": "https://dc.lft.to/lastmile_qr_scan", "ios": "https://dc.lft.to/lastmile_qr_scan"}, "is_reserved": 0, "is_disabled": 0, "name": "7efd0d27bc876550e7c7c4f179ea87c1", "bike_id": "7efd0d27bc876550e7c7c4f179ea87c1", "fusion_lat": 0.0, "lon": -77.00570416666666, "type": "electric_scooter", "fusion_lon": 0.0, "lat": 38.88506133333333}, {"rental_uris": {"android": "https://dc.lft.to/lastmile_qr_scan", "ios": "https://dc.lft.to/lastmile_qr_scan"}, "is_reserved": 0, "is_disabled": 0, "name": "da39dd53447345908091b0e550524d83", "bike_id": "da39dd53447345908091b0e550524d83", "fusion_lat": 0.0, "lon": -77.0331395, "type": "electric_scooter", "fusion_lon": 0.0, "lat": 38.90002766666667}, {"rental_uris": {"android": "https://dc.lft.to/lastmile_qr_scan", "ios": "https://dc.lft.to/lastmile_qr_scan"}, "is_reserved": 0, "is_disabled": 0, "name": "66093fd6c43459a5aeb04652596c02d0", "bike_id": "66093fd6c43459a5aeb04652596c02d0", "fusion_lat": 0.0, "lon": -77.03191, "type": "electric_scooter", "fusion_lon": 0.0, "lat": 38.912792}, {"rental_uris": {"android": "https://dc.lft.to/lastmile_qr_scan", "ios": "https://dc.lft.to/lastmile_qr_scan"}, "is_reserved": 0, "is_disabled": 0, "name": "f7f8e33c508f5439bb6bf82fac154190", "bike_id": "f7f8e33c508f5439bb6bf82fac154190", "fusion_lat": 0.0, "lon": -77.02092583333334, "type": "electric_scooter", "fusion_lon": 0.0, "lat": 38.92696}, {"rental_uris": {"android": "https://dc.lft.to/lastmile_qr_scan", "ios": "https://dc.lft.to/lastmile_qr_scan"}, "is_reserved": 0, "is_disabled": 0, "name": "56502e62727067a080b7033e601b34da", "bike_id": "56502e62727067a080b7033e601b34da", "fusion_lat": 0.0, "lon": -77.020986, "type": "electric_scooter", "fusion_lon": 0.0, "lat": 38.9217935}, {"rental_uris": {"android": "https://dc.lft.to/lastmile_qr_scan", "ios": "https://dc.lft.to/lastmile_qr_scan"}, "is_reserved": 0, "is_disabled": 0, "name": "4645fe1d0f3becd7de753b05dd8870ba", "bike_id": "4645fe1d0f3becd7de753b05dd8870ba", "fusion_lat": 0.0, "lon": -77.03213216666667, "type": "electric_scooter", "fusion_lon": 0.0, "lat": 38.91590583333333}, {"rental_uris": {"android": "https://dc.lft.to/lastmile_qr_scan", "ios": "https://dc.lft.to/lastmile_qr_scan"}, "is_reserved": 0, "is_disabled": 0, "name": "8ad93a6eecdb439659db75a03b26e463", "bike_id": "8ad93a6eecdb439659db75a03b26e463", "fusion_lat": 0.0, "lon": -77.03353266666667, "type": "electric_scooter", "fusion_lon": 0.0, "lat": 38.93574983333333}, {"rental_uris": {"android": "https://dc.lft.to/lastmile_qr_scan", "ios": "https://dc.lft.to/lastmile_qr_scan"}, "is_reserved": 0, "is_disabled": 0, "name": "6609b6164db718c1ef3bf42cc601a179", "bike_id": "6609b6164db718c1ef3bf42cc601a179", "fusion_lat": 0.0, "lon": -77.00600216666666, "type": "electric_scooter", "fusion_lon": 0.0, "lat": 38.905745}, {"rental_uris": {"android": "https://dc.lft.to/lastmile_qr_scan", "ios": "https://dc.lft.to/lastmile_qr_scan"}, "is_reserved": 0, "is_disabled": 0, "name": "2f69fbdf412b68a9cae57655e528707d", "bike_id": "2f69fbdf412b68a9cae57655e528707d", "fusion_lat": 0.0, "lon": -77.02537366666667, "type": "electric_scooter", "fusion_lon": 0.0, "lat": 38.89961566666667}, {"rental_uris": {"android": "https://dc.lft.to/lastmile_qr_scan", "ios": "https://dc.lft.to/lastmile_qr_scan"}, "is_reserved": 0, "is_disabled": 0, "name": "083e12b9cf76523853a31441e234afde", "bike_id": "083e12b9cf76523853a31441e234afde", "fusion_lat": 0.0, "lon": -77.04513283333333, "type": "electric_scooter", "fusion_lon": 0.0, "lat": 38.9128715}, {"rental_uris": {"android": "https://dc.lft.to/lastmile_qr_scan", "ios": "https://dc.lft.to/lastmile_qr_scan"}, "is_reserved": 0, "is_disabled": 0, "name": "da635e6e3dcb3a905ee3f1c820d990c0", "bike_id": "da635e6e3dcb3a905ee3f1c820d990c0", "fusion_lat": 0.0, "lon": -77.05131783333333, "type": "electric_scooter", "fusion_lon": 0.0, "lat": 38.90591366666666}, {"rental_uris": {"android": "https://dc.lft.to/lastmile_qr_scan", "ios": "https://dc.lft.to/lastmile_qr_scan"}, "is_reserved": 0, "is_disabled": 0, "name": "f318a499fc758968f69d632040a0dc60", "bike_id": "f318a499fc758968f69d632040a0dc60", "fusion_lat": 0.0, "lon": -77.0337725, "type": "electric_scooter", "fusion_lon": 0.0, "lat": 38.901212}, {"rental_uris": {"android": "https://dc.lft.to/lastmile_qr_scan", "ios": "https://dc.lft.to/lastmile_qr_scan"}, "is_reserved": 0, "is_disabled": 0, "name": "44dfd87813ddc02fc3d863e9bcf38556", "bike_id": "44dfd87813ddc02fc3d863e9bcf38556", "fusion_lat": 0.0, "lon": -77.0317465, "type": "electric_scooter", "fusion_lon": 0.0, "lat": 38.91419633333334}, {"rental_uris": {"android": "https://dc.lft.to/lastmile_qr_scan", "ios": "https://dc.lft.to/lastmile_qr_scan"}, "is_reserved": 0, "is_disabled": 0, "name": "d619e0b1421414c42c67ca4691e9f27c", "bike_id": "d619e0b1421414c42c67ca4691e9f27c", "fusion_lat": 0.0, "lon": -77.06800833333334, "type": "electric_scooter", "fusion_lon": 0.0, "lat": 38.91562316666667}, {"rental_uris": {"android": "https://dc.lft.to/lastmile_qr_scan", "ios": "https://dc.lft.to/lastmile_qr_scan"}, "is_reserved": 0, "is_disabled": 0, "name": "697ac30385bbfd284edb6221424b1eae", "bike_id": "697ac30385bbfd284edb6221424b1eae", "fusion_lat": 0.0, "lon": -77.03845133333333, "type": "electric_scooter", "fusion_lon": 0.0, "lat": 38.91693266666667}, {"rental_uris": {"android": "https://dc.lft.to/lastmile_qr_scan", "ios": "https://dc.lft.to/lastmile_qr_scan"}, "is_reserved": 0, "is_disabled": 0, "name": "bb1d8c1760b68ae6c89ab174d1f9ef12", "bike_id": "bb1d8c1760b68ae6c89ab174d1f9ef12", "fusion_lat": 0.0, "lon": -77.02009666666666, "type": "electric_scooter", "fusion_lon": 0.0, "lat": 38.89473183333333}, {"rental_uris": {"android": "https://dc.lft.to/lastmile_qr_scan", "ios": "https://dc.lft.to/lastmile_qr_scan"}, "is_reserved": 0, "is_disabled": 0, "name": "0171e29dded8900d9336d353c1b2b43d", "bike_id": "0171e29dded8900d9336d353c1b2b43d", "fusion_lat": 0.0, "lon": -77.08532633333333, "type": "electric_bike", "fusion_lon": 0.0, "lat": 38.85648833333333}, {"rental_uris": {"android": "https://dc.lft.to/lastmile_qr_scan", "ios": "https://dc.lft.to/lastmile_qr_scan"}, "is_reserved": 0, "is_disabled": 0, "name": "c122f804df86c38b565d3ee4b26b4a48", "bike_id": "c122f804df86c38b565d3ee4b26b4a48", "fusion_lat": 0.0, "lon": -77.02175766666667, "type": "electric_scooter", "fusion_lon": 0.0, "lat": 38.901843166666666}, {"rental_uris": {"android": "https://dc.lft.to/lastmile_qr_scan", "ios": "https://dc.lft.to/lastmile_qr_scan"}, "is_reserved": 0, "is_disabled": 0, "name": "034174592f5b38ca237cc168fff36381", "bike_id": "034174592f5b38ca237cc168fff36381", "fusion_lat": 0.0, "lon": -77.007579, "type": "electric_scooter", "fusion_lon": 0.0, "lat": 38.897239}, {"rental_uris": {"android": "https://dc.lft.to/lastmile_qr_scan", "ios": "https://dc.lft.to/lastmile_qr_scan"}, "is_reserved": 0, "is_disabled": 0, "name": "d74e051073d6e89234e293f2817a9e62", "bike_id": "d74e051073d6e89234e293f2817a9e62", "fusion_lat": 0.0, "lon": -77.026783, "type": "electric_scooter", "fusion_lon": 0.0, "lat": 38.898343833333335}, {"rental_uris": {"android": "https://dc.lft.to/lastmile_qr_scan", "ios": "https://dc.lft.to/lastmile_qr_scan"}, "is_reserved": 0, "is_disabled": 0, "name": "275cbc90f39a959ece5bf1bc1333f857", "bike_id": "275cbc90f39a959ece5bf1bc1333f857", "fusion_lat": 0.0, "lon": -77.01800166666666, "type": "electric_scooter", "fusion_lon": 0.0, "lat": 38.902491833333336}, {"rental_uris": {"android": "https://dc.lft.to/lastmile_qr_scan", "ios": "https://dc.lft.to/lastmile_qr_scan"}, "is_reserved": 0, "is_disabled": 0, "name": "f08f515ff77bdb63e32164c953122927", "bike_id": "f08f515ff77bdb63e32164c953122927", "fusion_lat": 0.0, "lon": -77.05588633333333, "type": "electric_scooter", "fusion_lon": 0.0, "lat": 38.931256833333336}, {"rental_uris": {"android": "https://dc.lft.to/lastmile_qr_scan", "ios": "https://dc.lft.to/lastmile_qr_scan"}, "is_reserved": 0, "is_disabled": 0, "name": "f6a73a8324a9fb6bf5d7478dc01f228c", "bike_id": "f6a73a8324a9fb6bf5d7478dc01f228c", "fusion_lat": 0.0, "lon": -77.040742, "type": "electric_scooter", "fusion_lon": 0.0, "lat": 38.8991625}, {"rental_uris": {"android": "https://dc.lft.to/lastmile_qr_scan", "ios": "https://dc.lft.to/lastmile_qr_scan"}, "is_reserved": 0, "is_disabled": 0, "name": "5b9d69158aa0a515b6dafb385cae88d4", "bike_id": "5b9d69158aa0a515b6dafb385cae88d4", "fusion_lat": 0.0, "lon": -77.00752983333334, "type": "electric_scooter", "fusion_lon": 0.0, "lat": 38.89727516666667}, {"rental_uris": {"android": "https://dc.lft.to/lastmile_qr_scan", "ios": "https://dc.lft.to/lastmile_qr_scan"}, "is_reserved": 0, "is_disabled": 0, "name": "8ec9b3cd94c8079538b6e5fc0b27b0af", "bike_id": "8ec9b3cd94c8079538b6e5fc0b27b0af", "fusion_lat": 0.0, "lon": -77.02200483333333, "type": "electric_scooter", "fusion_lon": 0.0, "lat": 38.88709883333333}, {"rental_uris": {"android": "https://dc.lft.to/lastmile_qr_scan", "ios": "https://dc.lft.to/lastmile_qr_scan"}, "is_reserved": 0, "is_disabled": 0, "name": "ba6e027ccb49965cb278c8dd8060138f", "bike_id": "ba6e027ccb49965cb278c8dd8060138f", "fusion_lat": 0.0, "lon": -77.0267575, "type": "electric_scooter", "fusion_lon": 0.0, "lat": 38.9247395}, {"rental_uris": {"android": "https://dc.lft.to/lastmile_qr_scan", "ios": "https://dc.lft.to/lastmile_qr_scan"}, "is_reserved": 0, "is_disabled": 0, "name": "511fe790b53ea0b5e100dc545c86c192", "bike_id": "511fe790b53ea0b5e100dc545c86c192", "fusion_lat": 0.0, "lon": -76.90749133333334, "type": "electric_bike", "fusion_lon": 0.0, "lat": 38.89619066666667}, {"rental_uris": {"android": "https://dc.lft.to/lastmile_qr_scan", "ios": "https://dc.lft.to/lastmile_qr_scan"}, "is_reserved": 0, "is_disabled": 0, "name": "f78986cdd2824b1bf3217beb2016cf7b", "bike_id": "f78986cdd2824b1bf3217beb2016cf7b", "fusion_lat": 0.0, "lon": -77.02989216666667, "type": "electric_scooter", "fusion_lon": 0.0, "lat": 38.920513}, {"rental_uris": {"android": "https://dc.lft.to/lastmile_qr_scan", "ios": "https://dc.lft.to/lastmile_qr_scan"}, "is_reserved": 0, "is_disabled": 0, "name": "1c80696fc3af00a9f5654d1061388787", "bike_id": "1c80696fc3af00a9f5654d1061388787", "fusion_lat": 0.0, "lon": -77.03199183333334, "type": "electric_scooter", "fusion_lon": 0.0, "lat": 38.91549633333333}, {"rental_uris": {"android": "https://dc.lft.to/lastmile_qr_scan", "ios": "https://dc.lft.to/lastmile_qr_scan"}, "is_reserved": 0, "is_disabled": 0, "name": "52121a5228365d05f02a6672967e9442", "bike_id": "52121a5228365d05f02a6672967e9442", "fusion_lat": 0.0, "lon": -76.92461483333334, "type": "electric_scooter", "fusion_lon": 0.0, "lat": 38.88518066666666}, {"rental_uris": {"android": "https://dc.lft.to/lastmile_qr_scan", "ios": "https://dc.lft.to/lastmile_qr_scan"}, "is_reserved": 0, "is_disabled": 0, "name": "f4a0d1aabeb17a995fe6c075771f0b40", "bike_id": "f4a0d1aabeb17a995fe6c075771f0b40", "fusion_lat": 0.0, "lon": -76.97225083333333, "type": "electric_bike", "fusion_lon": 0.0, "lat": 38.90040283333333}, {"rental_uris": {"android": "https://dc.lft.to/lastmile_qr_scan", "ios": "https://dc.lft.to/lastmile_qr_scan"}, "is_reserved": 0, "is_disabled": 0, "name": "ff77b998e446e06ae81d658d66bd3a29", "bike_id": "ff77b998e446e06ae81d658d66bd3a29", "fusion_lat": 0.0, "lon": -77.0150445, "type": "electric_scooter", "fusion_lon": 0.0, "lat": 38.891154666666665}, {"rental_uris": {"android": "https://dc.lft.to/lastmile_qr_scan", "ios": "https://dc.lft.to/lastmile_qr_scan"}, "is_reserved": 0, "is_disabled": 0, "name": "34c1f1698649ae66bfe1ebd4f3139237", "bike_id": "34c1f1698649ae66bfe1ebd4f3139237", "fusion_lat": 0.0, "lon": -77.02594366666666, "type": "electric_scooter", "fusion_lon": 0.0, "lat": 38.90341316666667}, {"rental_uris": {"android": "https://dc.lft.to/lastmile_qr_scan", "ios": "https://dc.lft.to/lastmile_qr_scan"}, "is_reserved": 0, "is_disabled": 0, "name": "c8a53c2b3fdab8afa9bab9fc3c0675c6", "bike_id": "c8a53c2b3fdab8afa9bab9fc3c0675c6", "fusion_lat": 0.0, "lon": -77.00363116666666, "type": "electric_scooter", "fusion_lon": 0.0, "lat": 38.8767335}, {"rental_uris": {"android": "https://dc.lft.to/lastmile_qr_scan", "ios": "https://dc.lft.to/lastmile_qr_scan"}, "is_reserved": 0, "is_disabled": 0, "name": "a08139c780abefa56bc9186d11a0871c", "bike_id": "a08139c780abefa56bc9186d11a0871c", "fusion_lat": 0.0, "lon": -77.03235066666667, "type": "electric_scooter", "fusion_lon": 0.0, "lat": 38.8971095}, {"rental_uris": {"android": "https://dc.lft.to/lastmile_qr_scan", "ios": "https://dc.lft.to/lastmile_qr_scan"}, "is_reserved": 0, "is_disabled": 0, "name": "644e1f66a91f606b97288526cceea2a7", "bike_id": "644e1f66a91f606b97288526cceea2a7", "fusion_lat": 0.0, "lon": -77.0218905, "type": "electric_scooter", "fusion_lon": 0.0, "lat": 38.88709733333334}, {"rental_uris": {"android": "https://dc.lft.to/lastmile_qr_scan", "ios": "https://dc.lft.to/lastmile_qr_scan"}, "is_reserved": 0, "is_disabled": 0, "name": "8dfc30858c77f24f7e3ea86a8ba4ea60", "bike_id": "8dfc30858c77f24f7e3ea86a8ba4ea60", "fusion_lat": 0.0, "lon": -77.01732183333333, "type": "electric_scooter", "fusion_lon": 0.0, "lat": 38.975112}, {"rental_uris": {"android": "https://dc.lft.to/lastmile_qr_scan", "ios": "https://dc.lft.to/lastmile_qr_scan"}, "is_reserved": 0, "is_disabled": 0, "name": "789f1c4f5cf6799a492a92d0743f1e09", "bike_id": "789f1c4f5cf6799a492a92d0743f1e09", "fusion_lat": 0.0, "lon": -76.96707366666666, "type": "electric_scooter", "fusion_lon": 0.0, "lat": 38.859697}, {"rental_uris": {"android": "https://dc.lft.to/lastmile_qr_scan", "ios": "https://dc.lft.to/lastmile_qr_scan"}, "is_reserved": 0, "is_disabled": 0, "name": "b803c6b5bf96c9070a3abd52615a4290", "bike_id": "b803c6b5bf96c9070a3abd52615a4290", "fusion_lat": 0.0, "lon": -77.02133983333333, "type": "electric_scooter", "fusion_lon": 0.0, "lat": 38.922735}, {"rental_uris": {"android": "https://dc.lft.to/lastmile_qr_scan", "ios": "https://dc.lft.to/lastmile_qr_scan"}, "is_reserved": 0, "is_disabled": 0, "name": "c2de052e26b540ff06f4106ee60ac94b", "bike_id": "c2de052e26b540ff06f4106ee60ac94b", "fusion_lat": 0.0, "lon": -77.0402295, "type": "electric_scooter", "fusion_lon": 0.0, "lat": 38.89829016666667}, {"rental_uris": {"android": "https://dc.lft.to/lastmile_qr_scan", "ios": "https://dc.lft.to/lastmile_qr_scan"}, "is_reserved": 0, "is_disabled": 0, "name": "74ff73b852345b3d12607e7588c9e745", "bike_id": "74ff73b852345b3d12607e7588c9e745", "fusion_lat": 0.0, "lon": -77.00678033333334, "type": "electric_scooter", "fusion_lon": 0.0, "lat": 38.89994433333333}, {"rental_uris": {"android": "https://dc.lft.to/lastmile_qr_scan", "ios": "https://dc.lft.to/lastmile_qr_scan"}, "is_reserved": 0, "is_disabled": 0, "name": "0dd76c5c8950203a9e2c36e70adcb83b", "bike_id": "0dd76c5c8950203a9e2c36e70adcb83b", "fusion_lat": 0.0, "lon": -76.96541533333334, "type": "electric_scooter", "fusion_lon": 0.0, "lat": 38.918547833333335}, {"rental_uris": {"android": "https://dc.lft.to/lastmile_qr_scan", "ios": "https://dc.lft.to/lastmile_qr_scan"}, "is_reserved": 0, "is_disabled": 0, "name": "059cb3f708e271519834cf3d670e39fe", "bike_id": "059cb3f708e271519834cf3d670e39fe", "fusion_lat": 0.0, "lon": -77.027854, "type": "electric_scooter", "fusion_lon": 0.0, "lat": 38.934066666666666}, {"rental_uris": {"android": "https://dc.lft.to/lastmile_qr_scan", "ios": "https://dc.lft.to/lastmile_qr_scan"}, "is_reserved": 0, "is_disabled": 0, "name": "970916e2f3dbfb9e3b6bc6621eef6cb2", "bike_id": "970916e2f3dbfb9e3b6bc6621eef6cb2", "fusion_lat": 0.0, "lon": -77.0060225, "type": "electric_scooter", "fusion_lon": 0.0, "lat": 38.87183516666666}, {"rental_uris": {"android": "https://dc.lft.to/lastmile_qr_scan", "ios": "https://dc.lft.to/lastmile_qr_scan"}, "is_reserved": 0, "is_disabled": 0, "name": "ebb646254ed10c1c6279f58d047b00b5", "bike_id": "ebb646254ed10c1c6279f58d047b00b5", "fusion_lat": 0.0, "lon": -77.02639383333333, "type": "electric_scooter", "fusion_lon": 0.0, "lat": 38.91105066666667}, {"rental_uris": {"android": "https://dc.lft.to/lastmile_qr_scan", "ios": "https://dc.lft.to/lastmile_qr_scan"}, "is_reserved": 0, "is_disabled": 0, "name": "6cac5ca84ecb03b1ca76b5a223c37b78", "bike_id": "6cac5ca84ecb03b1ca76b5a223c37b78", "fusion_lat": 0.0, "lon": -77.03039616666666, "type": "electric_scooter", "fusion_lon": 0.0, "lat": 38.950871166666666}, {"rental_uris": {"android": "https://dc.lft.to/lastmile_qr_scan", "ios": "https://dc.lft.to/lastmile_qr_scan"}, "is_reserved": 0, "is_disabled": 0, "name": "f9d57a097cf62f777b919b5fa866ccd9", "bike_id": "f9d57a097cf62f777b919b5fa866ccd9", "fusion_lat": 0.0, "lon": -77.07013233333333, "type": "electric_scooter", "fusion_lon": 0.0, "lat": 38.90590383333333}, {"rental_uris": {"android": "https://dc.lft.to/lastmile_qr_scan", "ios": "https://dc.lft.to/lastmile_qr_scan"}, "is_reserved": 0, "is_disabled": 0, "name": "cc3d6cec01c8189fefc650b9f35c4458", "bike_id": "cc3d6cec01c8189fefc650b9f35c4458", "fusion_lat": 0.0, "lon": -77.02823, "type": "electric_scooter", "fusion_lon": 0.0, "lat": 38.93122483333333}, {"rental_uris": {"android": "https://dc.lft.to/lastmile_qr_scan", "ios": "https://dc.lft.to/lastmile_qr_scan"}, "is_reserved": 0, "is_disabled": 0, "name": "cf441cdf97a1df9d82e04b8c72f3419d", "bike_id": "cf441cdf97a1df9d82e04b8c72f3419d", "fusion_lat": 0.0, "lon": -77.03303583333333, "type": "electric_scooter", "fusion_lon": 0.0, "lat": 38.92752433333333}, {"rental_uris": {"android": "https://dc.lft.to/lastmile_qr_scan", "ios": "https://dc.lft.to/lastmile_qr_scan"}, "is_reserved": 0, "is_disabled": 0, "name": "335e5f17fea93b15f240f7e261741881", "bike_id": "335e5f17fea93b15f240f7e261741881", "fusion_lat": 0.0, "lon": -77.02582083333333, "type": "electric_scooter", "fusion_lon": 0.0, "lat": 38.917053333333335}, {"rental_uris": {"android": "https://dc.lft.to/lastmile_qr_scan", "ios": "https://dc.lft.to/lastmile_qr_scan"}, "is_reserved": 0, "is_disabled": 0, "name": "3c745bcca0bd0cbf1181a69446615a74", "bike_id": "3c745bcca0bd0cbf1181a69446615a74", "fusion_lat": 0.0, "lon": -77.04483566666667, "type": "electric_scooter", "fusion_lon": 0.0, "lat": 38.900198333333336}, {"rental_uris": {"android": "https://dc.lft.to/lastmile_qr_scan", "ios": "https://dc.lft.to/lastmile_qr_scan"}, "is_reserved": 0, "is_disabled": 0, "name": "0059b0d2e09e7a069b007e6a8ca83fc0", "bike_id": "0059b0d2e09e7a069b007e6a8ca83fc0", "fusion_lat": 0.0, "lon": -77.04686516666666, "type": "electric_scooter", "fusion_lon": 0.0, "lat": 38.899618}, {"rental_uris": {"android": "https://dc.lft.to/lastmile_qr_scan", "ios": "https://dc.lft.to/lastmile_qr_scan"}, "is_reserved": 0, "is_disabled": 0, "name": "1a412033291dddc9f17ca98a5db8ac80", "bike_id": "1a412033291dddc9f17ca98a5db8ac80", "fusion_lat": 0.0, "lon": -76.99913333333333, "type": "electric_bike", "fusion_lon": 0.0, "lat": 38.8644905}, {"rental_uris": {"android": "https://dc.lft.to/lastmile_qr_scan", "ios": "https://dc.lft.to/lastmile_qr_scan"}, "is_reserved": 0, "is_disabled": 0, "name": "f68abebe3a0c263af638967a25821f16", "bike_id": "f68abebe3a0c263af638967a25821f16", "fusion_lat": 0.0, "lon": -77.01968266666667, "type": "electric_scooter", "fusion_lon": 0.0, "lat": 38.934219166666665}, {"rental_uris": {"android": "https://dc.lft.to/lastmile_qr_scan", "ios": "https://dc.lft.to/lastmile_qr_scan"}, "is_reserved": 0, "is_disabled": 0, "name": "e5d7b6a0b73bc9d86dfac8195af41d83", "bike_id": "e5d7b6a0b73bc9d86dfac8195af41d83", "fusion_lat": 0.0, "lon": -77.00421916666667, "type": "electric_bike", "fusion_lon": 0.0, "lat": 38.9852735}, {"rental_uris": {"android": "https://dc.lft.to/lastmile_qr_scan", "ios": "https://dc.lft.to/lastmile_qr_scan"}, "is_reserved": 0, "is_disabled": 0, "name": "889a603a30a673a2629978ece5c6c6d9", "bike_id": "889a603a30a673a2629978ece5c6c6d9", "fusion_lat": 0.0, "lon": -77.01950766666667, "type": "electric_scooter", "fusion_lon": 0.0, "lat": 38.924148}, {"rental_uris": {"android": "https://dc.lft.to/lastmile_qr_scan", "ios": "https://dc.lft.to/lastmile_qr_scan"}, "is_reserved": 0, "is_disabled": 0, "name": "f8854ce1e3ef1693997f53d502e95bd7", "bike_id": "f8854ce1e3ef1693997f53d502e95bd7", "fusion_lat": 0.0, "lon": -77.01765483333334, "type": "electric_scooter", "fusion_lon": 0.0, "lat": 38.902659666666665}, {"rental_uris": {"android": "https://dc.lft.to/lastmile_qr_scan", "ios": "https://dc.lft.to/lastmile_qr_scan"}, "is_reserved": 0, "is_disabled": 0, "name": "ba39b76a57d4c90abb39aad69e7ecd8f", "bike_id": "ba39b76a57d4c90abb39aad69e7ecd8f", "fusion_lat": 0.0, "lon": -77.01589416666667, "type": "electric_scooter", "fusion_lon": 0.0, "lat": 38.920572}, {"rental_uris": {"android": "https://dc.lft.to/lastmile_qr_scan", "ios": "https://dc.lft.to/lastmile_qr_scan"}, "is_reserved": 0, "is_disabled": 0, "name": "fcc8c0174b21d91d40031ef66424cd09", "bike_id": "fcc8c0174b21d91d40031ef66424cd09", "fusion_lat": 0.0, "lon": -76.93022566666667, "type": "electric_scooter", "fusion_lon": 0.0, "lat": 38.9012775}, {"rental_uris": {"android": "https://dc.lft.to/lastmile_qr_scan", "ios": "https://dc.lft.to/lastmile_qr_scan"}, "is_reserved": 0, "is_disabled": 0, "name": "628736ad0ef9e373e136321f74089798", "bike_id": "628736ad0ef9e373e136321f74089798", "fusion_lat": 0.0, "lon": -77.06234133333334, "type": "electric_scooter", "fusion_lon": 0.0, "lat": 38.911579333333336}, {"rental_uris": {"android": "https://dc.lft.to/lastmile_qr_scan", "ios": "https://dc.lft.to/lastmile_qr_scan"}, "is_reserved": 0, "is_disabled": 0, "name": "a943b90bbd5c7f261864cd05e5b5d8ef", "bike_id": "a943b90bbd5c7f261864cd05e5b5d8ef", "fusion_lat": 0.0, "lon": -77.01626483333334, "type": "electric_scooter", "fusion_lon": 0.0, "lat": 38.90308366666667}, {"rental_uris": {"android": "https://dc.lft.to/lastmile_qr_scan", "ios": "https://dc.lft.to/lastmile_qr_scan"}, "is_reserved": 0, "is_disabled": 0, "name": "9ae6572dd698ba9e4240f1b5733f4732", "bike_id": "9ae6572dd698ba9e4240f1b5733f4732", "fusion_lat": 0.0, "lon": -76.9840685, "type": "electric_scooter", "fusion_lon": 0.0, "lat": 38.90971283333333}, {"rental_uris": {"android": "https://dc.lft.to/lastmile_qr_scan", "ios": "https://dc.lft.to/lastmile_qr_scan"}, "is_reserved": 0, "is_disabled": 0, "name": "a4b13d6b1cf4d59b620f50536fddb76f", "bike_id": "a4b13d6b1cf4d59b620f50536fddb76f", "fusion_lat": 0.0, "lon": -77.0222375, "type": "electric_scooter", "fusion_lon": 0.0, "lat": 38.924743166666666}, {"rental_uris": {"android": "https://dc.lft.to/lastmile_qr_scan", "ios": "https://dc.lft.to/lastmile_qr_scan"}, "is_reserved": 0, "is_disabled": 0, "name": "1f18cb1dea49dd59e4919247be065a51", "bike_id": "1f18cb1dea49dd59e4919247be065a51", "fusion_lat": 0.0, "lon": -77.02594416666666, "type": "electric_scooter", "fusion_lon": 0.0, "lat": 38.90342}, {"rental_uris": {"android": "https://dc.lft.to/lastmile_qr_scan", "ios": "https://dc.lft.to/lastmile_qr_scan"}, "is_reserved": 0, "is_disabled": 0, "name": "225fa3ad539ebf1207992ab7fd3ef770", "bike_id": "225fa3ad539ebf1207992ab7fd3ef770", "fusion_lat": 0.0, "lon": -77.04161783333333, "type": "electric_scooter", "fusion_lon": 0.0, "lat": 38.917139666666664}, {"rental_uris": {"android": "https://dc.lft.to/lastmile_qr_scan", "ios": "https://dc.lft.to/lastmile_qr_scan"}, "is_reserved": 0, "is_disabled": 0, "name": "bb59565d314adb066e762566abf140b1", "bike_id": "bb59565d314adb066e762566abf140b1", "fusion_lat": 0.0, "lon": -76.99701983333334, "type": "electric_bike", "fusion_lon": 0.0, "lat": 38.838655333333335}, {"rental_uris": {"android": "https://dc.lft.to/lastmile_qr_scan", "ios": "https://dc.lft.to/lastmile_qr_scan"}, "is_reserved": 0, "is_disabled": 0, "name": "1ce115f4be3a4f9540f8710197d51dfc", "bike_id": "1ce115f4be3a4f9540f8710197d51dfc", "fusion_lat": 0.0, "lon": -77.02883216666666, "type": "electric_scooter", "fusion_lon": 0.0, "lat": 38.91350116666667}, {"rental_uris": {"android": "https://dc.lft.to/lastmile_qr_scan", "ios": "https://dc.lft.to/lastmile_qr_scan"}, "is_reserved": 0, "is_disabled": 0, "name": "bad783b0d8fb2fd982e72a0820d51e4b", "bike_id": "bad783b0d8fb2fd982e72a0820d51e4b", "fusion_lat": 0.0, "lon": -77.00436533333334, "type": "electric_scooter", "fusion_lon": 0.0, "lat": 38.91567383333334}, {"rental_uris": {"android": "https://dc.lft.to/lastmile_qr_scan", "ios": "https://dc.lft.to/lastmile_qr_scan"}, "is_reserved": 0, "is_disabled": 0, "name": "7f936283cf873e5a5b7147c6feccf535", "bike_id": "7f936283cf873e5a5b7147c6feccf535", "fusion_lat": 0.0, "lon": -77.04653283333333, "type": "electric_scooter", "fusion_lon": 0.0, "lat": 38.90011766666667}, {"rental_uris": {"android": "https://dc.lft.to/lastmile_qr_scan", "ios": "https://dc.lft.to/lastmile_qr_scan"}, "is_reserved": 0, "is_disabled": 0, "name": "61b1af084d6e3624a2373f0ea091716d", "bike_id": "61b1af084d6e3624a2373f0ea091716d", "fusion_lat": 0.0, "lon": -77.03438266666667, "type": "electric_scooter", "fusion_lon": 0.0, "lat": 38.9011995}, {"rental_uris": {"android": "https://dc.lft.to/lastmile_qr_scan", "ios": "https://dc.lft.to/lastmile_qr_scan"}, "is_reserved": 0, "is_disabled": 0, "name": "0ba6f80a94cd5f5c307a6a7431cbeffa", "bike_id": "0ba6f80a94cd5f5c307a6a7431cbeffa", "fusion_lat": 0.0, "lon": -77.02417933333334, "type": "electric_scooter", "fusion_lon": 0.0, "lat": 38.8922205}, {"rental_uris": {"android": "https://dc.lft.to/lastmile_qr_scan", "ios": "https://dc.lft.to/lastmile_qr_scan"}, "is_reserved": 0, "is_disabled": 0, "name": "4c3a5efca71ce1acae489a61ceb43272", "bike_id": "4c3a5efca71ce1acae489a61ceb43272", "fusion_lat": 0.0, "lon": -77.007569, "type": "electric_scooter", "fusion_lon": 0.0, "lat": 38.9061695}, {"rental_uris": {"android": "https://dc.lft.to/lastmile_qr_scan", "ios": "https://dc.lft.to/lastmile_qr_scan"}, "is_reserved": 0, "is_disabled": 0, "name": "a5c1e57a0fdfbf3866a2de6a47240adc", "bike_id": "a5c1e57a0fdfbf3866a2de6a47240adc", "fusion_lat": 0.0, "lon": -77.02979733333333, "type": "electric_scooter", "fusion_lon": 0.0, "lat": 38.8832065}, {"rental_uris": {"android": "https://dc.lft.to/lastmile_qr_scan", "ios": "https://dc.lft.to/lastmile_qr_scan"}, "is_reserved": 0, "is_disabled": 0, "name": "781f46e8740dc2f537d8628f5d06cbf6", "bike_id": "781f46e8740dc2f537d8628f5d06cbf6", "fusion_lat": 0.0, "lon": -77.04494283333334, "type": "electric_scooter", "fusion_lon": 0.0, "lat": 38.89750433333333}, {"rental_uris": {"android": "https://dc.lft.to/lastmile_qr_scan", "ios": "https://dc.lft.to/lastmile_qr_scan"}, "is_reserved": 0, "is_disabled": 0, "name": "f27e05517be0a44aadecaf217a055003", "bike_id": "f27e05517be0a44aadecaf217a055003", "fusion_lat": 0.0, "lon": -77.0173055, "type": "electric_scooter", "fusion_lon": 0.0, "lat": 38.9142215}, {"rental_uris": {"android": "https://dc.lft.to/lastmile_qr_scan", "ios": "https://dc.lft.to/lastmile_qr_scan"}, "is_reserved": 0, "is_disabled": 0, "name": "f61e531a8a356ca1ada27943fcc836db", "bike_id": "f61e531a8a356ca1ada27943fcc836db", "fusion_lat": 0.0, "lon": -77.044122, "type": "electric_scooter", "fusion_lon": 0.0, "lat": 38.925799}, {"rental_uris": {"android": "https://dc.lft.to/lastmile_qr_scan", "ios": "https://dc.lft.to/lastmile_qr_scan"}, "is_reserved": 0, "is_disabled": 0, "name": "e88888e3bd228af40f8452fe6356260b", "bike_id": "e88888e3bd228af40f8452fe6356260b", "fusion_lat": 0.0, "lon": -77.007604, "type": "electric_scooter", "fusion_lon": 0.0, "lat": 38.907530333333334}, {"rental_uris": {"android": "https://dc.lft.to/lastmile_qr_scan", "ios": "https://dc.lft.to/lastmile_qr_scan"}, "is_reserved": 0, "is_disabled": 0, "name": "313033116cc74e935a7a6cd648340878", "bike_id": "313033116cc74e935a7a6cd648340878", "fusion_lat": 0.0, "lon": -77.08030516666666, "type": "electric_scooter", "fusion_lon": 0.0, "lat": 38.94614133333333}, {"rental_uris": {"android": "https://dc.lft.to/lastmile_qr_scan", "ios": "https://dc.lft.to/lastmile_qr_scan"}, "is_reserved": 0, "is_disabled": 0, "name": "c5b1c078ceb423ac34a802452119d12b", "bike_id": "c5b1c078ceb423ac34a802452119d12b", "fusion_lat": 0.0, "lon": -77.03560883333333, "type": "electric_scooter", "fusion_lon": 0.0, "lat": 38.9044895}, {"rental_uris": {"android": "https://dc.lft.to/lastmile_qr_scan", "ios": "https://dc.lft.to/lastmile_qr_scan"}, "is_reserved": 0, "is_disabled": 0, "name": "9c3cce109292cb8f98610969b9b7054a", "bike_id": "9c3cce109292cb8f98610969b9b7054a", "fusion_lat": 0.0, "lon": -77.025691, "type": "electric_scooter", "fusion_lon": 0.0, "lat": 38.8874785}, {"rental_uris": {"android": "https://dc.lft.to/lastmile_qr_scan", "ios": "https://dc.lft.to/lastmile_qr_scan"}, "is_reserved": 0, "is_disabled": 0, "name": "756d79c255d908d8f40ff91ff9e5ab0c", "bike_id": "756d79c255d908d8f40ff91ff9e5ab0c", "fusion_lat": 0.0, "lon": -77.03521816666667, "type": "electric_scooter", "fusion_lon": 0.0, "lat": 38.922334}, {"rental_uris": {"android": "https://dc.lft.to/lastmile_qr_scan", "ios": "https://dc.lft.to/lastmile_qr_scan"}, "is_reserved": 0, "is_disabled": 0, "name": "385db06d0338ba57c25412955b1dee7b", "bike_id": "385db06d0338ba57c25412955b1dee7b", "fusion_lat": 0.0, "lon": -77.045492, "type": "electric_scooter", "fusion_lon": 0.0, "lat": 38.89878133333333}, {"rental_uris": {"android": "https://dc.lft.to/lastmile_qr_scan", "ios": "https://dc.lft.to/lastmile_qr_scan"}, "is_reserved": 0, "is_disabled": 0, "name": "95d3b25239e43b529799bc48515e7109", "bike_id": "95d3b25239e43b529799bc48515e7109", "fusion_lat": 0.0, "lon": -77.03010716666667, "type": "electric_scooter", "fusion_lon": 0.0, "lat": 38.903902333333335}, {"rental_uris": {"android": "https://dc.lft.to/lastmile_qr_scan", "ios": "https://dc.lft.to/lastmile_qr_scan"}, "is_reserved": 0, "is_disabled": 0, "name": "f66e459edf386486f9450dac89cc4ea9", "bike_id": "f66e459edf386486f9450dac89cc4ea9", "fusion_lat": 0.0, "lon": -77.183392, "type": "electric_bike", "fusion_lon": 0.0, "lat": 38.8908075}, {"rental_uris": {"android": "https://dc.lft.to/lastmile_qr_scan", "ios": "https://dc.lft.to/lastmile_qr_scan"}, "is_reserved": 0, "is_disabled": 0, "name": "020af0fb6eba792b972b9c11da36e3bc", "bike_id": "020af0fb6eba792b972b9c11da36e3bc", "fusion_lat": 0.0, "lon": -77.0433045, "type": "electric_scooter", "fusion_lon": 0.0, "lat": 38.90427483333333}, {"rental_uris": {"android": "https://dc.lft.to/lastmile_qr_scan", "ios": "https://dc.lft.to/lastmile_qr_scan"}, "is_reserved": 0, "is_disabled": 0, "name": "07f184d5b690e07b320210c93ca9d29c", "bike_id": "07f184d5b690e07b320210c93ca9d29c", "fusion_lat": 0.0, "lon": -77.03479516666667, "type": "electric_scooter", "fusion_lon": 0.0, "lat": 38.9013355}, {"rental_uris": {"android": "https://dc.lft.to/lastmile_qr_scan", "ios": "https://dc.lft.to/lastmile_qr_scan"}, "is_reserved": 0, "is_disabled": 0, "name": "e1547e929ab63090f028f434213983c9", "bike_id": "e1547e929ab63090f028f434213983c9", "fusion_lat": 0.0, "lon": -77.03457133333333, "type": "electric_scooter", "fusion_lon": 0.0, "lat": 38.904453833333335}, {"rental_uris": {"android": "https://dc.lft.to/lastmile_qr_scan", "ios": "https://dc.lft.to/lastmile_qr_scan"}, "is_reserved": 0, "is_disabled": 0, "name": "d4d6257be25fa064e9df9b92c60251f2", "bike_id": "d4d6257be25fa064e9df9b92c60251f2", "fusion_lat": 0.0, "lon": -77.024449, "type": "electric_scooter", "fusion_lon": 0.0, "lat": 38.93585016666667}, {"rental_uris": {"android": "https://dc.lft.to/lastmile_qr_scan", "ios": "https://dc.lft.to/lastmile_qr_scan"}, "is_reserved": 0, "is_disabled": 0, "name": "b4838ed05578938956bcbdcd4784be83", "bike_id": "b4838ed05578938956bcbdcd4784be83", "fusion_lat": 0.0, "lon": -77.23321366666667, "type": "electric_bike", "fusion_lon": 0.0, "lat": 38.87287083333333}, {"rental_uris": {"android": "https://dc.lft.to/lastmile_qr_scan", "ios": "https://dc.lft.to/lastmile_qr_scan"}, "is_reserved": 0, "is_disabled": 0, "name": "ee2e5b71f24d2e6324444b21b242e1cf", "bike_id": "ee2e5b71f24d2e6324444b21b242e1cf", "fusion_lat": 0.0, "lon": -77.046764, "type": "electric_scooter", "fusion_lon": 0.0, "lat": 38.8956045}, {"rental_uris": {"android": "https://dc.lft.to/lastmile_qr_scan", "ios": "https://dc.lft.to/lastmile_qr_scan"}, "is_reserved": 0, "is_disabled": 0, "name": "2160024d1789ec2e1bab81ec45f02e4c", "bike_id": "2160024d1789ec2e1bab81ec45f02e4c", "fusion_lat": 0.0, "lon": -77.02032133333333, "type": "electric_scooter", "fusion_lon": 0.0, "lat": 38.924574666666665}, {"rental_uris": {"android": "https://dc.lft.to/lastmile_qr_scan", "ios": "https://dc.lft.to/lastmile_qr_scan"}, "is_reserved": 0, "is_disabled": 0, "name": "193ee1c6f1834dcc3e76105183315575", "bike_id": "193ee1c6f1834dcc3e76105183315575", "fusion_lat": 0.0, "lon": -77.00742316666667, "type": "electric_scooter", "fusion_lon": 0.0, "lat": 38.876427166666666}, {"rental_uris": {"android": "https://dc.lft.to/lastmile_qr_scan", "ios": "https://dc.lft.to/lastmile_qr_scan"}, "is_reserved": 0, "is_disabled": 0, "name": "e26aa01c2bcea0c9268954890c403312", "bike_id": "e26aa01c2bcea0c9268954890c403312", "fusion_lat": 0.0, "lon": -77.03853766666667, "type": "electric_scooter", "fusion_lon": 0.0, "lat": 38.916579666666664}, {"rental_uris": {"android": "https://dc.lft.to/lastmile_qr_scan", "ios": "https://dc.lft.to/lastmile_qr_scan"}, "is_reserved": 0, "is_disabled": 0, "name": "796000cd35a8346e792480a812b21ece", "bike_id": "796000cd35a8346e792480a812b21ece", "fusion_lat": 0.0, "lon": -77.09560166666667, "type": "electric_bike", "fusion_lon": 0.0, "lat": 38.85901416666667}, {"rental_uris": {"android": "https://dc.lft.to/lastmile_qr_scan", "ios": "https://dc.lft.to/lastmile_qr_scan"}, "is_reserved": 0, "is_disabled": 0, "name": "cc76ecd2d2958c88dbf4e2eae71acbeb", "bike_id": "cc76ecd2d2958c88dbf4e2eae71acbeb", "fusion_lat": 0.0, "lon": -77.01781433333333, "type": "electric_scooter", "fusion_lon": 0.0, "lat": 38.92104583333333}, {"rental_uris": {"android": "https://dc.lft.to/lastmile_qr_scan", "ios": "https://dc.lft.to/lastmile_qr_scan"}, "is_reserved": 0, "is_disabled": 0, "name": "f3310eb7c81585bf726a18ec13030ade", "bike_id": "f3310eb7c81585bf726a18ec13030ade", "fusion_lat": 0.0, "lon": -77.02802433333333, "type": "electric_scooter", "fusion_lon": 0.0, "lat": 38.89229}, {"rental_uris": {"android": "https://dc.lft.to/lastmile_qr_scan", "ios": "https://dc.lft.to/lastmile_qr_scan"}, "is_reserved": 0, "is_disabled": 0, "name": "8fc6e93bc0a6618b82187c9e83b4464a", "bike_id": "8fc6e93bc0a6618b82187c9e83b4464a", "fusion_lat": 0.0, "lon": -76.973418, "type": "electric_bike", "fusion_lon": 0.0, "lat": 38.865591}, {"rental_uris": {"android": "https://dc.lft.to/lastmile_qr_scan", "ios": "https://dc.lft.to/lastmile_qr_scan"}, "is_reserved": 0, "is_disabled": 0, "name": "3ebd322a39fee080d10cf0bdea2bb9da", "bike_id": "3ebd322a39fee080d10cf0bdea2bb9da", "fusion_lat": 0.0, "lon": -77.00763933333333, "type": "electric_scooter", "fusion_lon": 0.0, "lat": 38.90955}, {"rental_uris": {"android": "https://dc.lft.to/lastmile_qr_scan", "ios": "https://dc.lft.to/lastmile_qr_scan"}, "is_reserved": 0, "is_disabled": 0, "name": "1a5013521704a5336a5de42840486a20", "bike_id": "1a5013521704a5336a5de42840486a20", "fusion_lat": 0.0, "lon": -77.04048733333333, "type": "electric_scooter", "fusion_lon": 0.0, "lat": 38.90607516666667}, {"rental_uris": {"android": "https://dc.lft.to/lastmile_qr_scan", "ios": "https://dc.lft.to/lastmile_qr_scan"}, "is_reserved": 0, "is_disabled": 0, "name": "37e4548bb8d706493df9c63e792d5b98", "bike_id": "37e4548bb8d706493df9c63e792d5b98", "fusion_lat": 0.0, "lon": -77.02155483333334, "type": "electric_scooter", "fusion_lon": 0.0, "lat": 38.925994}, {"rental_uris": {"android": "https://dc.lft.to/lastmile_qr_scan", "ios": "https://dc.lft.to/lastmile_qr_scan"}, "is_reserved": 0, "is_disabled": 0, "name": "b575ac03ec4c4a6723e3d2a7c0ed4f72", "bike_id": "b575ac03ec4c4a6723e3d2a7c0ed4f72", "fusion_lat": 0.0, "lon": -77.0273305, "type": "electric_scooter", "fusion_lon": 0.0, "lat": 38.95199933333333}, {"rental_uris": {"android": "https://dc.lft.to/lastmile_qr_scan", "ios": "https://dc.lft.to/lastmile_qr_scan"}, "is_reserved": 0, "is_disabled": 0, "name": "384d12351fb17b6fea3a57fb9491c137", "bike_id": "384d12351fb17b6fea3a57fb9491c137", "fusion_lat": 0.0, "lon": -76.985434, "type": "electric_scooter", "fusion_lon": 0.0, "lat": 38.8799975}, {"rental_uris": {"android": "https://dc.lft.to/lastmile_qr_scan", "ios": "https://dc.lft.to/lastmile_qr_scan"}, "is_reserved": 0, "is_disabled": 0, "name": "e54cd6f991be7b08e5edb898f2458102", "bike_id": "e54cd6f991be7b08e5edb898f2458102", "fusion_lat": 0.0, "lon": -76.99521616666667, "type": "electric_scooter", "fusion_lon": 0.0, "lat": 38.883699}, {"rental_uris": {"android": "https://dc.lft.to/lastmile_qr_scan", "ios": "https://dc.lft.to/lastmile_qr_scan"}, "is_reserved": 0, "is_disabled": 0, "name": "68240bb3ad5a5c04fee82f5ebe8d206d", "bike_id": "68240bb3ad5a5c04fee82f5ebe8d206d", "fusion_lat": 0.0, "lon": -77.0322825, "type": "electric_scooter", "fusion_lon": 0.0, "lat": 38.919980333333335}, {"rental_uris": {"android": "https://dc.lft.to/lastmile_qr_scan", "ios": "https://dc.lft.to/lastmile_qr_scan"}, "is_reserved": 0, "is_disabled": 0, "name": "73335a84b17218fa2fedaa7c8de46abf", "bike_id": "73335a84b17218fa2fedaa7c8de46abf", "fusion_lat": 0.0, "lon": -77.005789, "type": "electric_scooter", "fusion_lon": 0.0, "lat": 38.90645816666667}, {"rental_uris": {"android": "https://dc.lft.to/lastmile_qr_scan", "ios": "https://dc.lft.to/lastmile_qr_scan"}, "is_reserved": 0, "is_disabled": 0, "name": "7afa664d3abea10d2000df0dc8bb392d", "bike_id": "7afa664d3abea10d2000df0dc8bb392d", "fusion_lat": 0.0, "lon": -77.01378266666667, "type": "electric_scooter", "fusion_lon": 0.0, "lat": 38.887127666666665}, {"rental_uris": {"android": "https://dc.lft.to/lastmile_qr_scan", "ios": "https://dc.lft.to/lastmile_qr_scan"}, "is_reserved": 0, "is_disabled": 0, "name": "9cc410aba9976727bc4ccbb71f56c9b0", "bike_id": "9cc410aba9976727bc4ccbb71f56c9b0", "fusion_lat": 0.0, "lon": -77.03623516666667, "type": "electric_scooter", "fusion_lon": 0.0, "lat": 38.902579833333334}, {"rental_uris": {"android": "https://dc.lft.to/lastmile_qr_scan", "ios": "https://dc.lft.to/lastmile_qr_scan"}, "is_reserved": 0, "is_disabled": 0, "name": "62243b7eb8ab607ce9803f659b9d4f55", "bike_id": "62243b7eb8ab607ce9803f659b9d4f55", "fusion_lat": 0.0, "lon": -77.04455466666667, "type": "electric_scooter", "fusion_lon": 0.0, "lat": 38.9028665}, {"rental_uris": {"android": "https://dc.lft.to/lastmile_qr_scan", "ios": "https://dc.lft.to/lastmile_qr_scan"}, "is_reserved": 0, "is_disabled": 0, "name": "dd8c2f32f7fb95a37fa02eb3a118f1ef", "bike_id": "dd8c2f32f7fb95a37fa02eb3a118f1ef", "fusion_lat": 0.0, "lon": -77.04645183333334, "type": "electric_bike", "fusion_lon": 0.0, "lat": 38.81541133333333}, {"rental_uris": {"android": "https://dc.lft.to/lastmile_qr_scan", "ios": "https://dc.lft.to/lastmile_qr_scan"}, "is_reserved": 0, "is_disabled": 0, "name": "c31b2c75e85ea726b5bf5697149158d4", "bike_id": "c31b2c75e85ea726b5bf5697149158d4", "fusion_lat": 0.0, "lon": -77.03752183333333, "type": "electric_scooter", "fusion_lon": 0.0, "lat": 38.917046166666665}, {"rental_uris": {"android": "https://dc.lft.to/lastmile_qr_scan", "ios": "https://dc.lft.to/lastmile_qr_scan"}, "is_reserved": 0, "is_disabled": 0, "name": "3273d8b0a811ab8f6420d9e1bce4677b", "bike_id": "3273d8b0a811ab8f6420d9e1bce4677b", "fusion_lat": 0.0, "lon": -77.022851, "type": "electric_scooter", "fusion_lon": 0.0, "lat": 38.8998975}, {"rental_uris": {"android": "https://dc.lft.to/lastmile_qr_scan", "ios": "https://dc.lft.to/lastmile_qr_scan"}, "is_reserved": 0, "is_disabled": 0, "name": "2d1536d4722917830f4ab99a7db64354", "bike_id": "2d1536d4722917830f4ab99a7db64354", "fusion_lat": 0.0, "lon": -76.9880865, "type": "electric_scooter", "fusion_lon": 0.0, "lat": 38.89359316666667}, {"rental_uris": {"android": "https://dc.lft.to/lastmile_qr_scan", "ios": "https://dc.lft.to/lastmile_qr_scan"}, "is_reserved": 0, "is_disabled": 0, "name": "ba38f9fbbe8de36ea7550aaa1a706694", "bike_id": "ba38f9fbbe8de36ea7550aaa1a706694", "fusion_lat": 0.0, "lon": -77.02500533333334, "type": "electric_scooter", "fusion_lon": 0.0, "lat": 38.880341666666666}, {"rental_uris": {"android": "https://dc.lft.to/lastmile_qr_scan", "ios": "https://dc.lft.to/lastmile_qr_scan"}, "is_reserved": 0, "is_disabled": 0, "name": "acc537ac814354e35960887994efaa8b", "bike_id": "acc537ac814354e35960887994efaa8b", "fusion_lat": 0.0, "lon": -76.9795925, "type": "electric_scooter", "fusion_lon": 0.0, "lat": 38.897889}, {"rental_uris": {"android": "https://dc.lft.to/lastmile_qr_scan", "ios": "https://dc.lft.to/lastmile_qr_scan"}, "is_reserved": 0, "is_disabled": 0, "name": "a175693e18e99c6f14b4b643ac37100e", "bike_id": "a175693e18e99c6f14b4b643ac37100e", "fusion_lat": 0.0, "lon": -76.98340966666666, "type": "electric_scooter", "fusion_lon": 0.0, "lat": 38.895488666666665}, {"rental_uris": {"android": "https://dc.lft.to/lastmile_qr_scan", "ios": "https://dc.lft.to/lastmile_qr_scan"}, "is_reserved": 0, "is_disabled": 0, "name": "da5f958f770b73ef5657b5661251e321", "bike_id": "da5f958f770b73ef5657b5661251e321", "fusion_lat": 0.0, "lon": -77.0542355, "type": "electric_scooter", "fusion_lon": 0.0, "lat": 38.928504}, {"rental_uris": {"android": "https://dc.lft.to/lastmile_qr_scan", "ios": "https://dc.lft.to/lastmile_qr_scan"}, "is_reserved": 0, "is_disabled": 0, "name": "1026653e0dc413122c4c099797ae82a5", "bike_id": "1026653e0dc413122c4c099797ae82a5", "fusion_lat": 0.0, "lon": -77.03225316666666, "type": "electric_scooter", "fusion_lon": 0.0, "lat": 38.9199505}, {"rental_uris": {"android": "https://dc.lft.to/lastmile_qr_scan", "ios": "https://dc.lft.to/lastmile_qr_scan"}, "is_reserved": 0, "is_disabled": 0, "name": "6854a02c81218a6855aa7d424e461340", "bike_id": "6854a02c81218a6855aa7d424e461340", "fusion_lat": 0.0, "lon": -76.98636716666667, "type": "electric_scooter", "fusion_lon": 0.0, "lat": 38.906774}, {"rental_uris": {"android": "https://dc.lft.to/lastmile_qr_scan", "ios": "https://dc.lft.to/lastmile_qr_scan"}, "is_reserved": 0, "is_disabled": 0, "name": "09b7704d4c1f843f24ce154b7bd6fcf5", "bike_id": "09b7704d4c1f843f24ce154b7bd6fcf5", "fusion_lat": 0.0, "lon": -77.02207883333334, "type": "electric_bike", "fusion_lon": 0.0, "lat": 38.96497866666667}, {"rental_uris": {"android": "https://dc.lft.to/lastmile_qr_scan", "ios": "https://dc.lft.to/lastmile_qr_scan"}, "is_reserved": 0, "is_disabled": 0, "name": "3b3f5b606b3a7140461cecb374f4ff51", "bike_id": "3b3f5b606b3a7140461cecb374f4ff51", "fusion_lat": 0.0, "lon": -77.02137333333333, "type": "electric_scooter", "fusion_lon": 0.0, "lat": 38.9236525}, {"rental_uris": {"android": "https://dc.lft.to/lastmile_qr_scan", "ios": "https://dc.lft.to/lastmile_qr_scan"}, "is_reserved": 0, "is_disabled": 0, "name": "6cbfde2876ad7c5e1d344d226792b94c", "bike_id": "6cbfde2876ad7c5e1d344d226792b94c", "fusion_lat": 0.0, "lon": -77.02493916666667, "type": "electric_scooter", "fusion_lon": 0.0, "lat": 38.917468}, {"rental_uris": {"android": "https://dc.lft.to/lastmile_qr_scan", "ios": "https://dc.lft.to/lastmile_qr_scan"}, "is_reserved": 0, "is_disabled": 0, "name": "de425dbcc716e5c13dcd9557b63c4846", "bike_id": "de425dbcc716e5c13dcd9557b63c4846", "fusion_lat": 0.0, "lon": -77.02126566666666, "type": "electric_scooter", "fusion_lon": 0.0, "lat": 38.923746333333334}, {"rental_uris": {"android": "https://dc.lft.to/lastmile_qr_scan", "ios": "https://dc.lft.to/lastmile_qr_scan"}, "is_reserved": 0, "is_disabled": 0, "name": "ce24d3a49d467057624fe42d437d6624", "bike_id": "ce24d3a49d467057624fe42d437d6624", "fusion_lat": 0.0, "lon": -77.03185, "type": "electric_scooter", "fusion_lon": 0.0, "lat": 38.9113545}, {"rental_uris": {"android": "https://dc.lft.to/lastmile_qr_scan", "ios": "https://dc.lft.to/lastmile_qr_scan"}, "is_reserved": 0, "is_disabled": 0, "name": "1cc16b5c9afb10c7dba89faf2fd23583", "bike_id": "1cc16b5c9afb10c7dba89faf2fd23583", "fusion_lat": 0.0, "lon": -77.01689883333333, "type": "electric_scooter", "fusion_lon": 0.0, "lat": 38.906470666666664}, {"rental_uris": {"android": "https://dc.lft.to/lastmile_qr_scan", "ios": "https://dc.lft.to/lastmile_qr_scan"}, "is_reserved": 0, "is_disabled": 0, "name": "f9181729bd8011330d82c045582b6f83", "bike_id": "f9181729bd8011330d82c045582b6f83", "fusion_lat": 0.0, "lon": -77.028213, "type": "electric_scooter", "fusion_lon": 0.0, "lat": 38.90251}, {"rental_uris": {"android": "https://dc.lft.to/lastmile_qr_scan", "ios": "https://dc.lft.to/lastmile_qr_scan"}, "is_reserved": 0, "is_disabled": 0, "name": "0d3a194dc8eba96dce68bf35f13f229a", "bike_id": "0d3a194dc8eba96dce68bf35f13f229a", "fusion_lat": 0.0, "lon": -77.0282495, "type": "electric_scooter", "fusion_lon": 0.0, "lat": 38.8873965}, {"rental_uris": {"android": "https://dc.lft.to/lastmile_qr_scan", "ios": "https://dc.lft.to/lastmile_qr_scan"}, "is_reserved": 0, "is_disabled": 0, "name": "d52897c26ed11f9ac1cae2ffd35a25c1", "bike_id": "d52897c26ed11f9ac1cae2ffd35a25c1", "fusion_lat": 0.0, "lon": -77.03081683333333, "type": "electric_scooter", "fusion_lon": 0.0, "lat": 38.897962}, {"rental_uris": {"android": "https://dc.lft.to/lastmile_qr_scan", "ios": "https://dc.lft.to/lastmile_qr_scan"}, "is_reserved": 0, "is_disabled": 0, "name": "4af8194750401c9f2eb7d0df260c84e9", "bike_id": "4af8194750401c9f2eb7d0df260c84e9", "fusion_lat": 0.0, "lon": -77.02835766666666, "type": "electric_scooter", "fusion_lon": 0.0, "lat": 38.892768}, {"rental_uris": {"android": "https://dc.lft.to/lastmile_qr_scan", "ios": "https://dc.lft.to/lastmile_qr_scan"}, "is_reserved": 0, "is_disabled": 0, "name": "d8c5ec254a8d816d8f2c6469ba7451f4", "bike_id": "d8c5ec254a8d816d8f2c6469ba7451f4", "fusion_lat": 0.0, "lon": -77.045031, "type": "electric_scooter", "fusion_lon": 0.0, "lat": 38.89223883333333}, {"rental_uris": {"android": "https://dc.lft.to/lastmile_qr_scan", "ios": "https://dc.lft.to/lastmile_qr_scan"}, "is_reserved": 0, "is_disabled": 0, "name": "ab607458a59f4a53375ed9ae83f309b5", "bike_id": "ab607458a59f4a53375ed9ae83f309b5", "fusion_lat": 0.0, "lon": -76.925041, "type": "electric_scooter", "fusion_lon": 0.0, "lat": 38.88601466666667}, {"rental_uris": {"android": "https://dc.lft.to/lastmile_qr_scan", "ios": "https://dc.lft.to/lastmile_qr_scan"}, "is_reserved": 0, "is_disabled": 0, "name": "6467c6dd8a6aa26e5dc3c8cbd95cb082", "bike_id": "6467c6dd8a6aa26e5dc3c8cbd95cb082", "fusion_lat": 0.0, "lon": -77.05070566666667, "type": "electric_scooter", "fusion_lon": 0.0, "lat": 38.91139483333333}, {"rental_uris": {"android": "https://dc.lft.to/lastmile_qr_scan", "ios": "https://dc.lft.to/lastmile_qr_scan"}, "is_reserved": 0, "is_disabled": 0, "name": "f4d646d1ed717d971a89eab7146759e9", "bike_id": "f4d646d1ed717d971a89eab7146759e9", "fusion_lat": 0.0, "lon": -77.0645015, "type": "electric_scooter", "fusion_lon": 0.0, "lat": 38.94876716666667}, {"rental_uris": {"android": "https://dc.lft.to/lastmile_qr_scan", "ios": "https://dc.lft.to/lastmile_qr_scan"}, "is_reserved": 0, "is_disabled": 0, "name": "48efd6b688f6797d4b036eb1fae402cc", "bike_id": "48efd6b688f6797d4b036eb1fae402cc", "fusion_lat": 0.0, "lon": -77.03596283333333, "type": "electric_scooter", "fusion_lon": 0.0, "lat": 38.90967416666667}, {"rental_uris": {"android": "https://dc.lft.to/lastmile_qr_scan", "ios": "https://dc.lft.to/lastmile_qr_scan"}, "is_reserved": 0, "is_disabled": 0, "name": "ec0852f75fe924b2c8958dce56ecf4b7", "bike_id": "ec0852f75fe924b2c8958dce56ecf4b7", "fusion_lat": 0.0, "lon": -76.98829666666667, "type": "electric_scooter", "fusion_lon": 0.0, "lat": 38.90033316666667}, {"rental_uris": {"android": "https://dc.lft.to/lastmile_qr_scan", "ios": "https://dc.lft.to/lastmile_qr_scan"}, "is_reserved": 0, "is_disabled": 0, "name": "8b226da51bd7066166c96f3b5186f1ed", "bike_id": "8b226da51bd7066166c96f3b5186f1ed", "fusion_lat": 0.0, "lon": -77.03869916666666, "type": "electric_scooter", "fusion_lon": 0.0, "lat": 38.90812066666667}, {"rental_uris": {"android": "https://dc.lft.to/lastmile_qr_scan", "ios": "https://dc.lft.to/lastmile_qr_scan"}, "is_reserved": 0, "is_disabled": 0, "name": "d50b5f71684038c6653d0e843c8dac60", "bike_id": "d50b5f71684038c6653d0e843c8dac60", "fusion_lat": 0.0, "lon": -77.02391566666667, "type": "electric_scooter", "fusion_lon": 0.0, "lat": 38.896436333333334}, {"rental_uris": {"android": "https://dc.lft.to/lastmile_qr_scan", "ios": "https://dc.lft.to/lastmile_qr_scan"}, "is_reserved": 0, "is_disabled": 0, "name": "bb8d0355880a5bb7d0d867016f827aa5", "bike_id": "bb8d0355880a5bb7d0d867016f827aa5", "fusion_lat": 0.0, "lon": -77.02498616666666, "type": "electric_scooter", "fusion_lon": 0.0, "lat": 38.92598816666667}, {"rental_uris": {"android": "https://dc.lft.to/lastmile_qr_scan", "ios": "https://dc.lft.to/lastmile_qr_scan"}, "is_reserved": 0, "is_disabled": 0, "name": "0001f1ae63b22213b6c312fc8004cd92", "bike_id": "0001f1ae63b22213b6c312fc8004cd92", "fusion_lat": 0.0, "lon": -77.06533733333333, "type": "electric_bike", "fusion_lon": 0.0, "lat": 38.9922945}, {"rental_uris": {"android": "https://dc.lft.to/lastmile_qr_scan", "ios": "https://dc.lft.to/lastmile_qr_scan"}, "is_reserved": 0, "is_disabled": 0, "name": "8b038d707ff46ab0cb7b6b892563233a", "bike_id": "8b038d707ff46ab0cb7b6b892563233a", "fusion_lat": 0.0, "lon": -77.026985, "type": "electric_scooter", "fusion_lon": 0.0, "lat": 38.89870483333333}, {"rental_uris": {"android": "https://dc.lft.to/lastmile_qr_scan", "ios": "https://dc.lft.to/lastmile_qr_scan"}, "is_reserved": 0, "is_disabled": 0, "name": "ea2c413c5ec9c6e1b9211ab46cedccb6", "bike_id": "ea2c413c5ec9c6e1b9211ab46cedccb6", "fusion_lat": 0.0, "lon": -77.02409233333333, "type": "electric_scooter", "fusion_lon": 0.0, "lat": 38.90187433333333}, {"rental_uris": {"android": "https://dc.lft.to/lastmile_qr_scan", "ios": "https://dc.lft.to/lastmile_qr_scan"}, "is_reserved": 0, "is_disabled": 0, "name": "bfdaa3dfab3c36acdf0c09e2bf2ddec1", "bike_id": "bfdaa3dfab3c36acdf0c09e2bf2ddec1", "fusion_lat": 0.0, "lon": -77.00358883333334, "type": "electric_scooter", "fusion_lon": 0.0, "lat": 38.90733}, {"rental_uris": {"android": "https://dc.lft.to/lastmile_qr_scan", "ios": "https://dc.lft.to/lastmile_qr_scan"}, "is_reserved": 0, "is_disabled": 0, "name": "acaef77b4556471f8db54ff7a4633d14", "bike_id": "acaef77b4556471f8db54ff7a4633d14", "fusion_lat": 0.0, "lon": -77.007266, "type": "electric_scooter", "fusion_lon": 0.0, "lat": 38.9118805}, {"rental_uris": {"android": "https://dc.lft.to/lastmile_qr_scan", "ios": "https://dc.lft.to/lastmile_qr_scan"}, "is_reserved": 0, "is_disabled": 0, "name": "b8e5a5e9090ab01f927da2ed3b71f285", "bike_id": "b8e5a5e9090ab01f927da2ed3b71f285", "fusion_lat": 0.0, "lon": -77.00028983333333, "type": "electric_scooter", "fusion_lon": 0.0, "lat": 38.87384483333334}, {"rental_uris": {"android": "https://dc.lft.to/lastmile_qr_scan", "ios": "https://dc.lft.to/lastmile_qr_scan"}, "is_reserved": 0, "is_disabled": 0, "name": "28b170f21cd657f3c5725fdc6ded6347", "bike_id": "28b170f21cd657f3c5725fdc6ded6347", "fusion_lat": 0.0, "lon": -77.02948833333333, "type": "electric_scooter", "fusion_lon": 0.0, "lat": 38.9037535}, {"rental_uris": {"android": "https://dc.lft.to/lastmile_qr_scan", "ios": "https://dc.lft.to/lastmile_qr_scan"}, "is_reserved": 0, "is_disabled": 0, "name": "edd6b81054f5f95f212dc02b0624a447", "bike_id": "edd6b81054f5f95f212dc02b0624a447", "fusion_lat": 0.0, "lon": -77.01677216666667, "type": "electric_scooter", "fusion_lon": 0.0, "lat": 38.920426166666665}, {"rental_uris": {"android": "https://dc.lft.to/lastmile_qr_scan", "ios": "https://dc.lft.to/lastmile_qr_scan"}, "is_reserved": 0, "is_disabled": 0, "name": "369b580242f8098f3becec7b8cde1861", "bike_id": "369b580242f8098f3becec7b8cde1861", "fusion_lat": 0.0, "lon": -77.01554166666666, "type": "electric_scooter", "fusion_lon": 0.0, "lat": 38.89363266666667}, {"rental_uris": {"android": "https://dc.lft.to/lastmile_qr_scan", "ios": "https://dc.lft.to/lastmile_qr_scan"}, "is_reserved": 0, "is_disabled": 0, "name": "512dd2f40cdc67372b3cdf231643c53d", "bike_id": "512dd2f40cdc67372b3cdf231643c53d", "fusion_lat": 0.0, "lon": -77.02476783333333, "type": "electric_scooter", "fusion_lon": 0.0, "lat": 38.93102}, {"rental_uris": {"android": "https://dc.lft.to/lastmile_qr_scan", "ios": "https://dc.lft.to/lastmile_qr_scan"}, "is_reserved": 0, "is_disabled": 0, "name": "e62c2971a2a980fc47c1b6a42a8b12e6", "bike_id": "e62c2971a2a980fc47c1b6a42a8b12e6", "fusion_lat": 0.0, "lon": -77.0317275, "type": "electric_scooter", "fusion_lon": 0.0, "lat": 38.915652333333334}, {"rental_uris": {"android": "https://dc.lft.to/lastmile_qr_scan", "ios": "https://dc.lft.to/lastmile_qr_scan"}, "is_reserved": 0, "is_disabled": 0, "name": "a27d2f99ed85191980eecffc06dcec4c", "bike_id": "a27d2f99ed85191980eecffc06dcec4c", "fusion_lat": 0.0, "lon": -77.0196865, "type": "electric_scooter", "fusion_lon": 0.0, "lat": 38.920298833333334}, {"rental_uris": {"android": "https://dc.lft.to/lastmile_qr_scan", "ios": "https://dc.lft.to/lastmile_qr_scan"}, "is_reserved": 0, "is_disabled": 0, "name": "1f60bd2d29a1dffe6a7d4d4eb4369d90", "bike_id": "1f60bd2d29a1dffe6a7d4d4eb4369d90", "fusion_lat": 0.0, "lon": -76.99845966666666, "type": "electric_scooter", "fusion_lon": 0.0, "lat": 38.900260833333334}, {"rental_uris": {"android": "https://dc.lft.to/lastmile_qr_scan", "ios": "https://dc.lft.to/lastmile_qr_scan"}, "is_reserved": 0, "is_disabled": 0, "name": "bc4494e249eb99e4779118fd9c21b0a6", "bike_id": "bc4494e249eb99e4779118fd9c21b0a6", "fusion_lat": 0.0, "lon": -77.054426, "type": "electric_scooter", "fusion_lon": 0.0, "lat": 38.896030833333334}, {"rental_uris": {"android": "https://dc.lft.to/lastmile_qr_scan", "ios": "https://dc.lft.to/lastmile_qr_scan"}, "is_reserved": 0, "is_disabled": 0, "name": "3d6b98977d88b984e0d33ba51ee30550", "bike_id": "3d6b98977d88b984e0d33ba51ee30550", "fusion_lat": 0.0, "lon": -77.042069, "type": "electric_scooter", "fusion_lon": 0.0, "lat": 38.909159333333335}, {"rental_uris": {"android": "https://dc.lft.to/lastmile_qr_scan", "ios": "https://dc.lft.to/lastmile_qr_scan"}, "is_reserved": 0, "is_disabled": 0, "name": "11213b87ef26eeb5f0fd60d7e88e33a4", "bike_id": "11213b87ef26eeb5f0fd60d7e88e33a4", "fusion_lat": 0.0, "lon": -77.038399, "type": "electric_scooter", "fusion_lon": 0.0, "lat": 38.90241833333333}, {"rental_uris": {"android": "https://dc.lft.to/lastmile_qr_scan", "ios": "https://dc.lft.to/lastmile_qr_scan"}, "is_reserved": 0, "is_disabled": 0, "name": "c0bd1b8049394b46699ec7796b437ae2", "bike_id": "c0bd1b8049394b46699ec7796b437ae2", "fusion_lat": 0.0, "lon": -77.04521333333334, "type": "electric_scooter", "fusion_lon": 0.0, "lat": 38.9035555}, {"rental_uris": {"android": "https://dc.lft.to/lastmile_qr_scan", "ios": "https://dc.lft.to/lastmile_qr_scan"}, "is_reserved": 0, "is_disabled": 0, "name": "6a624ed29e8ee5fc5e69b4f68dc20224", "bike_id": "6a624ed29e8ee5fc5e69b4f68dc20224", "fusion_lat": 0.0, "lon": -77.02250483333333, "type": "electric_scooter", "fusion_lon": 0.0, "lat": 38.912822}, {"rental_uris": {"android": "https://dc.lft.to/lastmile_qr_scan", "ios": "https://dc.lft.to/lastmile_qr_scan"}, "is_reserved": 0, "is_disabled": 0, "name": "d395b4b344e469796ff6c39e53b709e6", "bike_id": "d395b4b344e469796ff6c39e53b709e6", "fusion_lat": 0.0, "lon": -77.032301, "type": "electric_scooter", "fusion_lon": 0.0, "lat": 38.89718033333333}, {"rental_uris": {"android": "https://dc.lft.to/lastmile_qr_scan", "ios": "https://dc.lft.to/lastmile_qr_scan"}, "is_reserved": 0, "is_disabled": 0, "name": "7487aa5743de1bde84032b09122a689e", "bike_id": "7487aa5743de1bde84032b09122a689e", "fusion_lat": 0.0, "lon": -77.12842766666667, "type": "electric_bike", "fusion_lon": 0.0, "lat": 38.8005175}, {"rental_uris": {"android": "https://dc.lft.to/lastmile_qr_scan", "ios": "https://dc.lft.to/lastmile_qr_scan"}, "is_reserved": 0, "is_disabled": 0, "name": "b41312105e685d439ec4da81fec48f88", "bike_id": "b41312105e685d439ec4da81fec48f88", "fusion_lat": 0.0, "lon": -77.019543, "type": "electric_scooter", "fusion_lon": 0.0, "lat": 38.923306833333335}, {"rental_uris": {"android": "https://dc.lft.to/lastmile_qr_scan", "ios": "https://dc.lft.to/lastmile_qr_scan"}, "is_reserved": 0, "is_disabled": 0, "name": "7d30edb1a1b63ab80897e36cbe6c8b4d", "bike_id": "7d30edb1a1b63ab80897e36cbe6c8b4d", "fusion_lat": 0.0, "lon": -77.03924583333334, "type": "electric_scooter", "fusion_lon": 0.0, "lat": 38.9249405}, {"rental_uris": {"android": "https://dc.lft.to/lastmile_qr_scan", "ios": "https://dc.lft.to/lastmile_qr_scan"}, "is_reserved": 0, "is_disabled": 0, "name": "b5b7340f756aadda7ea7d2bef223bf40", "bike_id": "b5b7340f756aadda7ea7d2bef223bf40", "fusion_lat": 0.0, "lon": -77.00792883333334, "type": "electric_scooter", "fusion_lon": 0.0, "lat": 38.95245716666667}, {"rental_uris": {"android": "https://dc.lft.to/lastmile_qr_scan", "ios": "https://dc.lft.to/lastmile_qr_scan"}, "is_reserved": 0, "is_disabled": 0, "name": "d216378f61bdad9db5fc4c89ead874e6", "bike_id": "d216378f61bdad9db5fc4c89ead874e6", "fusion_lat": 0.0, "lon": -77.0223715, "type": "electric_scooter", "fusion_lon": 0.0, "lat": 38.924739333333335}, {"rental_uris": {"android": "https://dc.lft.to/lastmile_qr_scan", "ios": "https://dc.lft.to/lastmile_qr_scan"}, "is_reserved": 0, "is_disabled": 0, "name": "95063b2d77cf68cee4c3daacb5529015", "bike_id": "95063b2d77cf68cee4c3daacb5529015", "fusion_lat": 0.0, "lon": -77.01358816666666, "type": "electric_scooter", "fusion_lon": 0.0, "lat": 38.89819216666667}, {"rental_uris": {"android": "https://dc.lft.to/lastmile_qr_scan", "ios": "https://dc.lft.to/lastmile_qr_scan"}, "is_reserved": 0, "is_disabled": 0, "name": "5b8f5f7c1733c100016fc80b7ff8b4ce", "bike_id": "5b8f5f7c1733c100016fc80b7ff8b4ce", "fusion_lat": 0.0, "lon": -77.021261, "type": "electric_scooter", "fusion_lon": 0.0, "lat": 38.922324833333334}, {"rental_uris": {"android": "https://dc.lft.to/lastmile_qr_scan", "ios": "https://dc.lft.to/lastmile_qr_scan"}, "is_reserved": 0, "is_disabled": 0, "name": "9e788d716835fd53a12b089ab738c667", "bike_id": "9e788d716835fd53a12b089ab738c667", "fusion_lat": 0.0, "lon": -77.0213665, "type": "electric_scooter", "fusion_lon": 0.0, "lat": 38.9190265}, {"rental_uris": {"android": "https://dc.lft.to/lastmile_qr_scan", "ios": "https://dc.lft.to/lastmile_qr_scan"}, "is_reserved": 0, "is_disabled": 0, "name": "c21f5157ac9c2a7fd6b252e99384234e", "bike_id": "c21f5157ac9c2a7fd6b252e99384234e", "fusion_lat": 0.0, "lon": -76.99332516666666, "type": "electric_scooter", "fusion_lon": 0.0, "lat": 38.906209}, {"rental_uris": {"android": "https://dc.lft.to/lastmile_qr_scan", "ios": "https://dc.lft.to/lastmile_qr_scan"}, "is_reserved": 0, "is_disabled": 0, "name": "146e9ae485436633cbc05605b94dd70c", "bike_id": "146e9ae485436633cbc05605b94dd70c", "fusion_lat": 0.0, "lon": -77.02850666666667, "type": "electric_scooter", "fusion_lon": 0.0, "lat": 38.901383833333334}, {"rental_uris": {"android": "https://dc.lft.to/lastmile_qr_scan", "ios": "https://dc.lft.to/lastmile_qr_scan"}, "is_reserved": 0, "is_disabled": 0, "name": "c1753ae865f3aec33b57f4c11eca5053", "bike_id": "c1753ae865f3aec33b57f4c11eca5053", "fusion_lat": 0.0, "lon": -77.04332633333334, "type": "electric_scooter", "fusion_lon": 0.0, "lat": 38.9088995}, {"rental_uris": {"android": "https://dc.lft.to/lastmile_qr_scan", "ios": "https://dc.lft.to/lastmile_qr_scan"}, "is_reserved": 0, "is_disabled": 0, "name": "be9a542d752fb52c8e6b5a39db6f5585", "bike_id": "be9a542d752fb52c8e6b5a39db6f5585", "fusion_lat": 0.0, "lon": -77.02164316666666, "type": "electric_scooter", "fusion_lon": 0.0, "lat": 38.92607366666667}, {"rental_uris": {"android": "https://dc.lft.to/lastmile_qr_scan", "ios": "https://dc.lft.to/lastmile_qr_scan"}, "is_reserved": 0, "is_disabled": 0, "name": "8081184cb3f3524b2a4fd4c57c40c306", "bike_id": "8081184cb3f3524b2a4fd4c57c40c306", "fusion_lat": 0.0, "lon": -77.04339083333333, "type": "electric_scooter", "fusion_lon": 0.0, "lat": 38.9053305}, {"rental_uris": {"android": "https://dc.lft.to/lastmile_qr_scan", "ios": "https://dc.lft.to/lastmile_qr_scan"}, "is_reserved": 0, "is_disabled": 0, "name": "9676fe7bf554225a13dc6dcb8afbd786", "bike_id": "9676fe7bf554225a13dc6dcb8afbd786", "fusion_lat": 0.0, "lon": -77.02574516666667, "type": "electric_scooter", "fusion_lon": 0.0, "lat": 38.926921666666665}, {"rental_uris": {"android": "https://dc.lft.to/lastmile_qr_scan", "ios": "https://dc.lft.to/lastmile_qr_scan"}, "is_reserved": 0, "is_disabled": 0, "name": "57435772781e6613a0ee856fe91cdcb7", "bike_id": "57435772781e6613a0ee856fe91cdcb7", "fusion_lat": 0.0, "lon": -77.02241583333333, "type": "electric_scooter", "fusion_lon": 0.0, "lat": 38.91275433333333}, {"rental_uris": {"android": "https://dc.lft.to/lastmile_qr_scan", "ios": "https://dc.lft.to/lastmile_qr_scan"}, "is_reserved": 0, "is_disabled": 0, "name": "78d7fe260dba1b9a32d6cf121c480e4f", "bike_id": "78d7fe260dba1b9a32d6cf121c480e4f", "fusion_lat": 0.0, "lon": -77.021588, "type": "electric_scooter", "fusion_lon": 0.0, "lat": 38.8832875}, {"rental_uris": {"android": "https://dc.lft.to/lastmile_qr_scan", "ios": "https://dc.lft.to/lastmile_qr_scan"}, "is_reserved": 0, "is_disabled": 0, "name": "11512a6a2cb26df6806fa1ce07247acd", "bike_id": "11512a6a2cb26df6806fa1ce07247acd", "fusion_lat": 0.0, "lon": -77.03818216666667, "type": "electric_scooter", "fusion_lon": 0.0, "lat": 38.930563666666664}, {"rental_uris": {"android": "https://dc.lft.to/lastmile_qr_scan", "ios": "https://dc.lft.to/lastmile_qr_scan"}, "is_reserved": 0, "is_disabled": 0, "name": "0665eab77f668db70b944d016d072fa3", "bike_id": "0665eab77f668db70b944d016d072fa3", "fusion_lat": 0.0, "lon": -77.02419183333333, "type": "electric_scooter", "fusion_lon": 0.0, "lat": 38.898017333333335}, {"rental_uris": {"android": "https://dc.lft.to/lastmile_qr_scan", "ios": "https://dc.lft.to/lastmile_qr_scan"}, "is_reserved": 0, "is_disabled": 0, "name": "c5f2f8e74fd76ab0efbbbab5c2c1d247", "bike_id": "c5f2f8e74fd76ab0efbbbab5c2c1d247", "fusion_lat": 0.0, "lon": -77.00348566666666, "type": "electric_scooter", "fusion_lon": 0.0, "lat": 38.887092833333334}, {"rental_uris": {"android": "https://dc.lft.to/lastmile_qr_scan", "ios": "https://dc.lft.to/lastmile_qr_scan"}, "is_reserved": 0, "is_disabled": 0, "name": "8c3c6188e67ede1939ab1b245db59d53", "bike_id": "8c3c6188e67ede1939ab1b245db59d53", "fusion_lat": 0.0, "lon": -77.02806733333334, "type": "electric_scooter", "fusion_lon": 0.0, "lat": 38.899687}, {"rental_uris": {"android": "https://dc.lft.to/lastmile_qr_scan", "ios": "https://dc.lft.to/lastmile_qr_scan"}, "is_reserved": 0, "is_disabled": 0, "name": "8ad5374de71bed32af2c298413896fa7", "bike_id": "8ad5374de71bed32af2c298413896fa7", "fusion_lat": 0.0, "lon": -77.03393483333333, "type": "electric_scooter", "fusion_lon": 0.0, "lat": 38.920506333333336}, {"rental_uris": {"android": "https://dc.lft.to/lastmile_qr_scan", "ios": "https://dc.lft.to/lastmile_qr_scan"}, "is_reserved": 0, "is_disabled": 0, "name": "6ee1e2e74dfc812e7ff3f95cb7d135da", "bike_id": "6ee1e2e74dfc812e7ff3f95cb7d135da", "fusion_lat": 0.0, "lon": -77.085213, "type": "electric_bike", "fusion_lon": 0.0, "lat": 38.85862866666667}, {"rental_uris": {"android": "https://dc.lft.to/lastmile_qr_scan", "ios": "https://dc.lft.to/lastmile_qr_scan"}, "is_reserved": 0, "is_disabled": 0, "name": "801bdb48ed2a7ef49ada52c512b40f80", "bike_id": "801bdb48ed2a7ef49ada52c512b40f80", "fusion_lat": 0.0, "lon": -77.03220816666666, "type": "electric_scooter", "fusion_lon": 0.0, "lat": 38.908683833333335}, {"rental_uris": {"android": "https://dc.lft.to/lastmile_qr_scan", "ios": "https://dc.lft.to/lastmile_qr_scan"}, "is_reserved": 0, "is_disabled": 0, "name": "9afbcfddd02a51e993724de2236a0873", "bike_id": "9afbcfddd02a51e993724de2236a0873", "fusion_lat": 0.0, "lon": -77.03451433333333, "type": "electric_scooter", "fusion_lon": 0.0, "lat": 38.918238333333335}, {"rental_uris": {"android": "https://dc.lft.to/lastmile_qr_scan", "ios": "https://dc.lft.to/lastmile_qr_scan"}, "is_reserved": 0, "is_disabled": 0, "name": "c4d245270c5bfa2558e36370503b15ce", "bike_id": "c4d245270c5bfa2558e36370503b15ce", "fusion_lat": 0.0, "lon": -77.04057866666666, "type": "electric_scooter", "fusion_lon": 0.0, "lat": 38.926716}, {"rental_uris": {"android": "https://dc.lft.to/lastmile_qr_scan", "ios": "https://dc.lft.to/lastmile_qr_scan"}, "is_reserved": 0, "is_disabled": 0, "name": "0ee7808d4fa7aa4f5d4b49d340213f41", "bike_id": "0ee7808d4fa7aa4f5d4b49d340213f41", "fusion_lat": 0.0, "lon": -77.02706766666667, "type": "electric_scooter", "fusion_lon": 0.0, "lat": 38.917892}, {"rental_uris": {"android": "https://dc.lft.to/lastmile_qr_scan", "ios": "https://dc.lft.to/lastmile_qr_scan"}, "is_reserved": 0, "is_disabled": 0, "name": "d6404b02c1dd3bebe3512a12580a7e8b", "bike_id": "d6404b02c1dd3bebe3512a12580a7e8b", "fusion_lat": 0.0, "lon": -77.03943766666667, "type": "electric_scooter", "fusion_lon": 0.0, "lat": 38.93056383333333}, {"rental_uris": {"android": "https://dc.lft.to/lastmile_qr_scan", "ios": "https://dc.lft.to/lastmile_qr_scan"}, "is_reserved": 0, "is_disabled": 0, "name": "9fb19988d10452ded289d00b95b38fa8", "bike_id": "9fb19988d10452ded289d00b95b38fa8", "fusion_lat": 0.0, "lon": -77.04169116666667, "type": "electric_scooter", "fusion_lon": 0.0, "lat": 38.9079055}, {"rental_uris": {"android": "https://dc.lft.to/lastmile_qr_scan", "ios": "https://dc.lft.to/lastmile_qr_scan"}, "is_reserved": 0, "is_disabled": 0, "name": "cbc2a51da65d49f63c41b85a862e01f7", "bike_id": "cbc2a51da65d49f63c41b85a862e01f7", "fusion_lat": 0.0, "lon": -76.983703, "type": "electric_scooter", "fusion_lon": 0.0, "lat": 38.892644}, {"rental_uris": {"android": "https://dc.lft.to/lastmile_qr_scan", "ios": "https://dc.lft.to/lastmile_qr_scan"}, "is_reserved": 0, "is_disabled": 0, "name": "72bf039effb2272b17df8afe234ec17a", "bike_id": "72bf039effb2272b17df8afe234ec17a", "fusion_lat": 0.0, "lon": -76.95738833333333, "type": "electric_scooter", "fusion_lon": 0.0, "lat": 38.8839085}, {"rental_uris": {"android": "https://dc.lft.to/lastmile_qr_scan", "ios": "https://dc.lft.to/lastmile_qr_scan"}, "is_reserved": 0, "is_disabled": 0, "name": "c0ef7ab4c483f29d960df98a6855d5e2", "bike_id": "c0ef7ab4c483f29d960df98a6855d5e2", "fusion_lat": 0.0, "lon": -77.021972, "type": "electric_scooter", "fusion_lon": 0.0, "lat": 38.89396833333333}, {"rental_uris": {"android": "https://dc.lft.to/lastmile_qr_scan", "ios": "https://dc.lft.to/lastmile_qr_scan"}, "is_reserved": 0, "is_disabled": 0, "name": "5d909d4612d7d15020b4d61823bf8e28", "bike_id": "5d909d4612d7d15020b4d61823bf8e28", "fusion_lat": 0.0, "lon": -77.03393433333333, "type": "electric_scooter", "fusion_lon": 0.0, "lat": 38.924821333333334}, {"rental_uris": {"android": "https://dc.lft.to/lastmile_qr_scan", "ios": "https://dc.lft.to/lastmile_qr_scan"}, "is_reserved": 0, "is_disabled": 0, "name": "73b88eb533569eed55a167557c76e229", "bike_id": "73b88eb533569eed55a167557c76e229", "fusion_lat": 0.0, "lon": -77.04357466666667, "type": "electric_scooter", "fusion_lon": 0.0, "lat": 38.910446666666665}, {"rental_uris": {"android": "https://dc.lft.to/lastmile_qr_scan", "ios": "https://dc.lft.to/lastmile_qr_scan"}, "is_reserved": 0, "is_disabled": 0, "name": "73adfcb2b12ac679e00a53345d2e2085", "bike_id": "73adfcb2b12ac679e00a53345d2e2085", "fusion_lat": 0.0, "lon": -77.05002016666667, "type": "electric_scooter", "fusion_lon": 0.0, "lat": 38.899131}, {"rental_uris": {"android": "https://dc.lft.to/lastmile_qr_scan", "ios": "https://dc.lft.to/lastmile_qr_scan"}, "is_reserved": 0, "is_disabled": 0, "name": "bca058a397df0e8900294b4b03bc043c", "bike_id": "bca058a397df0e8900294b4b03bc043c", "fusion_lat": 0.0, "lon": -77.04871166666666, "type": "electric_scooter", "fusion_lon": 0.0, "lat": 38.906413666666666}, {"rental_uris": {"android": "https://dc.lft.to/lastmile_qr_scan", "ios": "https://dc.lft.to/lastmile_qr_scan"}, "is_reserved": 0, "is_disabled": 0, "name": "352ef45dac29d3bb9ea5c6f05593f305", "bike_id": "352ef45dac29d3bb9ea5c6f05593f305", "fusion_lat": 0.0, "lon": -77.02211616666666, "type": "electric_scooter", "fusion_lon": 0.0, "lat": 38.887351833333334}, {"rental_uris": {"android": "https://dc.lft.to/lastmile_qr_scan", "ios": "https://dc.lft.to/lastmile_qr_scan"}, "is_reserved": 0, "is_disabled": 0, "name": "a5426111c147dcc9da0ed7d93c797b2a", "bike_id": "a5426111c147dcc9da0ed7d93c797b2a", "fusion_lat": 0.0, "lon": -77.00138366666667, "type": "electric_scooter", "fusion_lon": 0.0, "lat": 38.89471483333333}, {"rental_uris": {"android": "https://dc.lft.to/lastmile_qr_scan", "ios": "https://dc.lft.to/lastmile_qr_scan"}, "is_reserved": 0, "is_disabled": 0, "name": "6bf9a0e13f694392cadb2e1de8b93c17", "bike_id": "6bf9a0e13f694392cadb2e1de8b93c17", "fusion_lat": 0.0, "lon": -77.03408433333334, "type": "electric_scooter", "fusion_lon": 0.0, "lat": 38.9140795}, {"rental_uris": {"android": "https://dc.lft.to/lastmile_qr_scan", "ios": "https://dc.lft.to/lastmile_qr_scan"}, "is_reserved": 0, "is_disabled": 0, "name": "1822d471972bcd3ed387fb9f74687616", "bike_id": "1822d471972bcd3ed387fb9f74687616", "fusion_lat": 0.0, "lon": -77.02347516666667, "type": "electric_bike", "fusion_lon": 0.0, "lat": 38.92302633333333}, {"rental_uris": {"android": "https://dc.lft.to/lastmile_qr_scan", "ios": "https://dc.lft.to/lastmile_qr_scan"}, "is_reserved": 0, "is_disabled": 0, "name": "a9d613e5ff5637cd5d8904a1418a66c4", "bike_id": "a9d613e5ff5637cd5d8904a1418a66c4", "fusion_lat": 0.0, "lon": -77.02281283333333, "type": "electric_scooter", "fusion_lon": 0.0, "lat": 38.92657583333333}, {"rental_uris": {"android": "https://dc.lft.to/lastmile_qr_scan", "ios": "https://dc.lft.to/lastmile_qr_scan"}, "is_reserved": 0, "is_disabled": 0, "name": "4c72308cdc29fb0f5acc8782d21107c0", "bike_id": "4c72308cdc29fb0f5acc8782d21107c0", "fusion_lat": 0.0, "lon": -77.00389783333334, "type": "electric_bike", "fusion_lon": 0.0, "lat": 38.83434316666666}, {"rental_uris": {"android": "https://dc.lft.to/lastmile_qr_scan", "ios": "https://dc.lft.to/lastmile_qr_scan"}, "is_reserved": 0, "is_disabled": 0, "name": "598e432ced166fd3bbe2b838cc570192", "bike_id": "598e432ced166fd3bbe2b838cc570192", "fusion_lat": 0.0, "lon": -77.01958716666667, "type": "electric_scooter", "fusion_lon": 0.0, "lat": 38.9232785}, {"rental_uris": {"android": "https://dc.lft.to/lastmile_qr_scan", "ios": "https://dc.lft.to/lastmile_qr_scan"}, "is_reserved": 0, "is_disabled": 0, "name": "5b46c00e3df308e5c6dcbd8998d5655d", "bike_id": "5b46c00e3df308e5c6dcbd8998d5655d", "fusion_lat": 0.0, "lon": -77.02322166666667, "type": "electric_scooter", "fusion_lon": 0.0, "lat": 38.89463083333333}, {"rental_uris": {"android": "https://dc.lft.to/lastmile_qr_scan", "ios": "https://dc.lft.to/lastmile_qr_scan"}, "is_reserved": 0, "is_disabled": 0, "name": "1e65c38f997a940f77df35cc86460ccf", "bike_id": "1e65c38f997a940f77df35cc86460ccf", "fusion_lat": 0.0, "lon": -77.0515735, "type": "electric_scooter", "fusion_lon": 0.0, "lat": 38.923706333333335}, {"rental_uris": {"android": "https://dc.lft.to/lastmile_qr_scan", "ios": "https://dc.lft.to/lastmile_qr_scan"}, "is_reserved": 0, "is_disabled": 0, "name": "1e72bfe017af2f2f4d5a2e5d4b4de47b", "bike_id": "1e72bfe017af2f2f4d5a2e5d4b4de47b", "fusion_lat": 0.0, "lon": -77.11285633333334, "type": "electric_bike", "fusion_lon": 0.0, "lat": 38.831031}, {"rental_uris": {"android": "https://dc.lft.to/lastmile_qr_scan", "ios": "https://dc.lft.to/lastmile_qr_scan"}, "is_reserved": 0, "is_disabled": 0, "name": "c98c002c874a6e81e77250dd02b3d686", "bike_id": "c98c002c874a6e81e77250dd02b3d686", "fusion_lat": 0.0, "lon": -77.03833983333334, "type": "electric_scooter", "fusion_lon": 0.0, "lat": 38.9027235}, {"rental_uris": {"android": "https://dc.lft.to/lastmile_qr_scan", "ios": "https://dc.lft.to/lastmile_qr_scan"}, "is_reserved": 0, "is_disabled": 0, "name": "c5ba71fbfdf699d493e34f86e19dd861", "bike_id": "c5ba71fbfdf699d493e34f86e19dd861", "fusion_lat": 0.0, "lon": -77.03623083333333, "type": "electric_scooter", "fusion_lon": 0.0, "lat": 38.901399833333336}, {"rental_uris": {"android": "https://dc.lft.to/lastmile_qr_scan", "ios": "https://dc.lft.to/lastmile_qr_scan"}, "is_reserved": 0, "is_disabled": 0, "name": "4c3e6802740b366f0e45122d4c34096f", "bike_id": "4c3e6802740b366f0e45122d4c34096f", "fusion_lat": 0.0, "lon": -77.0103425, "type": "electric_bike", "fusion_lon": 0.0, "lat": 38.95875766666666}, {"rental_uris": {"android": "https://dc.lft.to/lastmile_qr_scan", "ios": "https://dc.lft.to/lastmile_qr_scan"}, "is_reserved": 0, "is_disabled": 0, "name": "187879fa41fd7254f36372959657e5a3", "bike_id": "187879fa41fd7254f36372959657e5a3", "fusion_lat": 0.0, "lon": -77.04150583333333, "type": "electric_scooter", "fusion_lon": 0.0, "lat": 38.92347783333334}, {"rental_uris": {"android": "https://dc.lft.to/lastmile_qr_scan", "ios": "https://dc.lft.to/lastmile_qr_scan"}, "is_reserved": 0, "is_disabled": 0, "name": "a116e9ceec6b2a72c14431737e60e709", "bike_id": "a116e9ceec6b2a72c14431737e60e709", "fusion_lat": 0.0, "lon": -77.0286305, "type": "electric_scooter", "fusion_lon": 0.0, "lat": 38.91712}, {"rental_uris": {"android": "https://dc.lft.to/lastmile_qr_scan", "ios": "https://dc.lft.to/lastmile_qr_scan"}, "is_reserved": 0, "is_disabled": 0, "name": "8fa430a1984a7a722e133b8afb4bf984", "bike_id": "8fa430a1984a7a722e133b8afb4bf984", "fusion_lat": 0.0, "lon": -77.0283175, "type": "electric_scooter", "fusion_lon": 0.0, "lat": 38.93880733333334}, {"rental_uris": {"android": "https://dc.lft.to/lastmile_qr_scan", "ios": "https://dc.lft.to/lastmile_qr_scan"}, "is_reserved": 0, "is_disabled": 0, "name": "755192f621e7738ebfd41bc88f1086b1", "bike_id": "755192f621e7738ebfd41bc88f1086b1", "fusion_lat": 0.0, "lon": -77.03986183333333, "type": "electric_scooter", "fusion_lon": 0.0, "lat": 38.90572}, {"rental_uris": {"android": "https://dc.lft.to/lastmile_qr_scan", "ios": "https://dc.lft.to/lastmile_qr_scan"}, "is_reserved": 0, "is_disabled": 0, "name": "ddd9c2193d6fe80a0b8aaf84cb6419eb", "bike_id": "ddd9c2193d6fe80a0b8aaf84cb6419eb", "fusion_lat": 0.0, "lon": -77.0239775, "type": "electric_scooter", "fusion_lon": 0.0, "lat": 38.8942245}, {"rental_uris": {"android": "https://dc.lft.to/lastmile_qr_scan", "ios": "https://dc.lft.to/lastmile_qr_scan"}, "is_reserved": 0, "is_disabled": 0, "name": "c43f6460ad98aa9918ad260fd394c948", "bike_id": "c43f6460ad98aa9918ad260fd394c948", "fusion_lat": 0.0, "lon": -77.02427616666667, "type": "electric_scooter", "fusion_lon": 0.0, "lat": 38.901446}, {"rental_uris": {"android": "https://dc.lft.to/lastmile_qr_scan", "ios": "https://dc.lft.to/lastmile_qr_scan"}, "is_reserved": 0, "is_disabled": 0, "name": "92637abd8a4dc3f35ef3f512b8c5dff2", "bike_id": "92637abd8a4dc3f35ef3f512b8c5dff2", "fusion_lat": 0.0, "lon": -77.00758116666667, "type": "electric_scooter", "fusion_lon": 0.0, "lat": 38.8979485}, {"rental_uris": {"android": "https://dc.lft.to/lastmile_qr_scan", "ios": "https://dc.lft.to/lastmile_qr_scan"}, "is_reserved": 0, "is_disabled": 0, "name": "86cefe2985c8f08e10812a67940138be", "bike_id": "86cefe2985c8f08e10812a67940138be", "fusion_lat": 0.0, "lon": -76.98693083333333, "type": "electric_bike", "fusion_lon": 0.0, "lat": 38.944701333333335}, {"rental_uris": {"android": "https://dc.lft.to/lastmile_qr_scan", "ios": "https://dc.lft.to/lastmile_qr_scan"}, "is_reserved": 0, "is_disabled": 0, "name": "67f061901257d1578d1766cd853379a5", "bike_id": "67f061901257d1578d1766cd853379a5", "fusion_lat": 0.0, "lon": -77.04691533333333, "type": "electric_scooter", "fusion_lon": 0.0, "lat": 38.8961245}, {"rental_uris": {"android": "https://dc.lft.to/lastmile_qr_scan", "ios": "https://dc.lft.to/lastmile_qr_scan"}, "is_reserved": 0, "is_disabled": 0, "name": "db5565a5cb6547441cafdbc6326aacd4", "bike_id": "db5565a5cb6547441cafdbc6326aacd4", "fusion_lat": 0.0, "lon": -77.05933816666666, "type": "electric_scooter", "fusion_lon": 0.0, "lat": 38.90935483333333}, {"rental_uris": {"android": "https://dc.lft.to/lastmile_qr_scan", "ios": "https://dc.lft.to/lastmile_qr_scan"}, "is_reserved": 0, "is_disabled": 0, "name": "aee3cbba5fa61dc99f2fc3a6f193f238", "bike_id": "aee3cbba5fa61dc99f2fc3a6f193f238", "fusion_lat": 0.0, "lon": -76.96093883333333, "type": "electric_bike", "fusion_lon": 0.0, "lat": 38.91865883333333}, {"rental_uris": {"android": "https://dc.lft.to/lastmile_qr_scan", "ios": "https://dc.lft.to/lastmile_qr_scan"}, "is_reserved": 0, "is_disabled": 0, "name": "934b810c33d83003f0c8f28a4ee51c01", "bike_id": "934b810c33d83003f0c8f28a4ee51c01", "fusion_lat": 0.0, "lon": -77.04767333333334, "type": "electric_scooter", "fusion_lon": 0.0, "lat": 38.91769933333333}, {"rental_uris": {"android": "https://dc.lft.to/lastmile_qr_scan", "ios": "https://dc.lft.to/lastmile_qr_scan"}, "is_reserved": 0, "is_disabled": 0, "name": "ed2ae3928e12ce10c2c2ab63b56fadcc", "bike_id": "ed2ae3928e12ce10c2c2ab63b56fadcc", "fusion_lat": 0.0, "lon": -77.04465683333333, "type": "electric_scooter", "fusion_lon": 0.0, "lat": 38.919337166666665}, {"rental_uris": {"android": "https://dc.lft.to/lastmile_qr_scan", "ios": "https://dc.lft.to/lastmile_qr_scan"}, "is_reserved": 0, "is_disabled": 0, "name": "750c7236f33b3d28d07c22e2076e36e9", "bike_id": "750c7236f33b3d28d07c22e2076e36e9", "fusion_lat": 0.0, "lon": -77.00266016666667, "type": "electric_bike", "fusion_lon": 0.0, "lat": 38.896545333333336}, {"rental_uris": {"android": "https://dc.lft.to/lastmile_qr_scan", "ios": "https://dc.lft.to/lastmile_qr_scan"}, "is_reserved": 0, "is_disabled": 0, "name": "4929a891e886e24afe302e189951556c", "bike_id": "4929a891e886e24afe302e189951556c", "fusion_lat": 0.0, "lon": -77.043245, "type": "electric_scooter", "fusion_lon": 0.0, "lat": 38.901840166666666}, {"rental_uris": {"android": "https://dc.lft.to/lastmile_qr_scan", "ios": "https://dc.lft.to/lastmile_qr_scan"}, "is_reserved": 0, "is_disabled": 0, "name": "98adbe85ceab87862e814c5a99999649", "bike_id": "98adbe85ceab87862e814c5a99999649", "fusion_lat": 0.0, "lon": -77.04268366666666, "type": "electric_scooter", "fusion_lon": 0.0, "lat": 38.923013833333336}, {"rental_uris": {"android": "https://dc.lft.to/lastmile_qr_scan", "ios": "https://dc.lft.to/lastmile_qr_scan"}, "is_reserved": 0, "is_disabled": 0, "name": "6876a02e40a40100fa8e5ebc754452a4", "bike_id": "6876a02e40a40100fa8e5ebc754452a4", "fusion_lat": 0.0, "lon": -77.02178416666666, "type": "electric_scooter", "fusion_lon": 0.0, "lat": 38.892286666666664}, {"rental_uris": {"android": "https://dc.lft.to/lastmile_qr_scan", "ios": "https://dc.lft.to/lastmile_qr_scan"}, "is_reserved": 0, "is_disabled": 0, "name": "e39171788a95bf0998e94182cb18e0e2", "bike_id": "e39171788a95bf0998e94182cb18e0e2", "fusion_lat": 0.0, "lon": -77.0346015, "type": "electric_scooter", "fusion_lon": 0.0, "lat": 38.902536166666664}, {"rental_uris": {"android": "https://dc.lft.to/lastmile_qr_scan", "ios": "https://dc.lft.to/lastmile_qr_scan"}, "is_reserved": 0, "is_disabled": 0, "name": "5cee33249adaa5406bd77040d0e8000f", "bike_id": "5cee33249adaa5406bd77040d0e8000f", "fusion_lat": 0.0, "lon": -77.034521, "type": "electric_scooter", "fusion_lon": 0.0, "lat": 38.906459}, {"rental_uris": {"android": "https://dc.lft.to/lastmile_qr_scan", "ios": "https://dc.lft.to/lastmile_qr_scan"}, "is_reserved": 0, "is_disabled": 0, "name": "94b47780c2e377bf47955648866e99cd", "bike_id": "94b47780c2e377bf47955648866e99cd", "fusion_lat": 0.0, "lon": -77.028302, "type": "electric_scooter", "fusion_lon": 0.0, "lat": 38.922318}, {"rental_uris": {"android": "https://dc.lft.to/lastmile_qr_scan", "ios": "https://dc.lft.to/lastmile_qr_scan"}, "is_reserved": 0, "is_disabled": 0, "name": "9ad85d219335f52fa70b79a77a0ef458", "bike_id": "9ad85d219335f52fa70b79a77a0ef458", "fusion_lat": 0.0, "lon": -76.9294605, "type": "electric_scooter", "fusion_lon": 0.0, "lat": 38.903491}, {"rental_uris": {"android": "https://dc.lft.to/lastmile_qr_scan", "ios": "https://dc.lft.to/lastmile_qr_scan"}, "is_reserved": 0, "is_disabled": 0, "name": "0dc65f01d946620f5fc2e5f6710c34dc", "bike_id": "0dc65f01d946620f5fc2e5f6710c34dc", "fusion_lat": 0.0, "lon": -77.0382775, "type": "electric_scooter", "fusion_lon": 0.0, "lat": 38.903435333333334}, {"rental_uris": {"android": "https://dc.lft.to/lastmile_qr_scan", "ios": "https://dc.lft.to/lastmile_qr_scan"}, "is_reserved": 0, "is_disabled": 0, "name": "8a0b6e58d61088f37dae20d6b1834de1", "bike_id": "8a0b6e58d61088f37dae20d6b1834de1", "fusion_lat": 0.0, "lon": -77.07233166666667, "type": "electric_scooter", "fusion_lon": 0.0, "lat": 38.923621833333335}, {"rental_uris": {"android": "https://dc.lft.to/lastmile_qr_scan", "ios": "https://dc.lft.to/lastmile_qr_scan"}, "is_reserved": 0, "is_disabled": 0, "name": "303db0f3f1480b1727f65bd2afb5196f", "bike_id": "303db0f3f1480b1727f65bd2afb5196f", "fusion_lat": 0.0, "lon": -77.04504733333333, "type": "electric_scooter", "fusion_lon": 0.0, "lat": 38.89217083333333}, {"rental_uris": {"android": "https://dc.lft.to/lastmile_qr_scan", "ios": "https://dc.lft.to/lastmile_qr_scan"}, "is_reserved": 0, "is_disabled": 0, "name": "d4d6ecb84a8887694274c1d0cb70a7f2", "bike_id": "d4d6ecb84a8887694274c1d0cb70a7f2", "fusion_lat": 0.0, "lon": -77.03486283333334, "type": "electric_scooter", "fusion_lon": 0.0, "lat": 38.929046}, {"rental_uris": {"android": "https://dc.lft.to/lastmile_qr_scan", "ios": "https://dc.lft.to/lastmile_qr_scan"}, "is_reserved": 0, "is_disabled": 0, "name": "384b96ab6a8918f8f5a78f2069d8cb91", "bike_id": "384b96ab6a8918f8f5a78f2069d8cb91", "fusion_lat": 0.0, "lon": -76.93530233333334, "type": "electric_scooter", "fusion_lon": 0.0, "lat": 38.87894033333333}, {"rental_uris": {"android": "https://dc.lft.to/lastmile_qr_scan", "ios": "https://dc.lft.to/lastmile_qr_scan"}, "is_reserved": 0, "is_disabled": 0, "name": "1f35738f37d171aed0c254818ea23f8c", "bike_id": "1f35738f37d171aed0c254818ea23f8c", "fusion_lat": 0.0, "lon": -77.0295165, "type": "electric_scooter", "fusion_lon": 0.0, "lat": 38.91714733333333}, {"rental_uris": {"android": "https://dc.lft.to/lastmile_qr_scan", "ios": "https://dc.lft.to/lastmile_qr_scan"}, "is_reserved": 0, "is_disabled": 0, "name": "bdc6108692418018d2939752a39e4c8d", "bike_id": "bdc6108692418018d2939752a39e4c8d", "fusion_lat": 0.0, "lon": -77.0241355, "type": "electric_scooter", "fusion_lon": 0.0, "lat": 38.917093666666666}, {"rental_uris": {"android": "https://dc.lft.to/lastmile_qr_scan", "ios": "https://dc.lft.to/lastmile_qr_scan"}, "is_reserved": 0, "is_disabled": 0, "name": "7445f6375cfc9999aaf36afc925c1bbb", "bike_id": "7445f6375cfc9999aaf36afc925c1bbb", "fusion_lat": 0.0, "lon": -76.98546983333334, "type": "electric_scooter", "fusion_lon": 0.0, "lat": 38.90591166666667}, {"rental_uris": {"android": "https://dc.lft.to/lastmile_qr_scan", "ios": "https://dc.lft.to/lastmile_qr_scan"}, "is_reserved": 0, "is_disabled": 0, "name": "d5a875c44f95ce18c0399a80fdb34fa4", "bike_id": "d5a875c44f95ce18c0399a80fdb34fa4", "fusion_lat": 0.0, "lon": -77.02509833333333, "type": "electric_scooter", "fusion_lon": 0.0, "lat": 38.91955016666667}, {"rental_uris": {"android": "https://dc.lft.to/lastmile_qr_scan", "ios": "https://dc.lft.to/lastmile_qr_scan"}, "is_reserved": 0, "is_disabled": 0, "name": "8a092f1b6c718ed4c9af4479855fcfd5", "bike_id": "8a092f1b6c718ed4c9af4479855fcfd5", "fusion_lat": 0.0, "lon": -77.00734733333333, "type": "electric_scooter", "fusion_lon": 0.0, "lat": 38.898508}, {"rental_uris": {"android": "https://dc.lft.to/lastmile_qr_scan", "ios": "https://dc.lft.to/lastmile_qr_scan"}, "is_reserved": 0, "is_disabled": 0, "name": "d97f949877bbbaf2860db38ad4c1ea90", "bike_id": "d97f949877bbbaf2860db38ad4c1ea90", "fusion_lat": 0.0, "lon": -77.0355915, "type": "electric_scooter", "fusion_lon": 0.0, "lat": 38.90819783333333}, {"rental_uris": {"android": "https://dc.lft.to/lastmile_qr_scan", "ios": "https://dc.lft.to/lastmile_qr_scan"}, "is_reserved": 0, "is_disabled": 0, "name": "8289378bf8eb1a7ef1ef6ca85e429b00", "bike_id": "8289378bf8eb1a7ef1ef6ca85e429b00", "fusion_lat": 0.0, "lon": -77.03394266666666, "type": "electric_scooter", "fusion_lon": 0.0, "lat": 38.908091666666664}, {"rental_uris": {"android": "https://dc.lft.to/lastmile_qr_scan", "ios": "https://dc.lft.to/lastmile_qr_scan"}, "is_reserved": 0, "is_disabled": 0, "name": "b30a8ab842101cf7772078bcefc02de5", "bike_id": "b30a8ab842101cf7772078bcefc02de5", "fusion_lat": 0.0, "lon": -77.02788833333334, "type": "electric_scooter", "fusion_lon": 0.0, "lat": 38.9612865}, {"rental_uris": {"android": "https://dc.lft.to/lastmile_qr_scan", "ios": "https://dc.lft.to/lastmile_qr_scan"}, "is_reserved": 0, "is_disabled": 0, "name": "b8fd97ebddba684a606d39aa948a4bda", "bike_id": "b8fd97ebddba684a606d39aa948a4bda", "fusion_lat": 0.0, "lon": -76.9770135, "type": "electric_bike", "fusion_lon": 0.0, "lat": 38.8220585}, {"rental_uris": {"android": "https://dc.lft.to/lastmile_qr_scan", "ios": "https://dc.lft.to/lastmile_qr_scan"}, "is_reserved": 0, "is_disabled": 0, "name": "76a54994a906c8d3334f2d4149a5fa74", "bike_id": "76a54994a906c8d3334f2d4149a5fa74", "fusion_lat": 0.0, "lon": -77.043617, "type": "electric_scooter", "fusion_lon": 0.0, "lat": 38.92112633333333}, {"rental_uris": {"android": "https://dc.lft.to/lastmile_qr_scan", "ios": "https://dc.lft.to/lastmile_qr_scan"}, "is_reserved": 0, "is_disabled": 0, "name": "aa25b7391c1b1be1301ebf4819434050", "bike_id": "aa25b7391c1b1be1301ebf4819434050", "fusion_lat": 0.0, "lon": -76.97339233333334, "type": "electric_bike", "fusion_lon": 0.0, "lat": 38.8651095}, {"rental_uris": {"android": "https://dc.lft.to/lastmile_qr_scan", "ios": "https://dc.lft.to/lastmile_qr_scan"}, "is_reserved": 0, "is_disabled": 0, "name": "bccf43715aaa868b8653268461cf5068", "bike_id": "bccf43715aaa868b8653268461cf5068", "fusion_lat": 0.0, "lon": -77.04340183333333, "type": "electric_scooter", "fusion_lon": 0.0, "lat": 38.90122266666667}, {"rental_uris": {"android": "https://dc.lft.to/lastmile_qr_scan", "ios": "https://dc.lft.to/lastmile_qr_scan"}, "is_reserved": 0, "is_disabled": 0, "name": "503d7b9ca926fee23def0a3e8f1c89e9", "bike_id": "503d7b9ca926fee23def0a3e8f1c89e9", "fusion_lat": 0.0, "lon": -77.03450233333334, "type": "electric_scooter", "fusion_lon": 0.0, "lat": 38.922192}, {"rental_uris": {"android": "https://dc.lft.to/lastmile_qr_scan", "ios": "https://dc.lft.to/lastmile_qr_scan"}, "is_reserved": 0, "is_disabled": 0, "name": "d869fe39634b0daa1aa16f74fe9f90ee", "bike_id": "d869fe39634b0daa1aa16f74fe9f90ee", "fusion_lat": 0.0, "lon": -77.00177183333334, "type": "electric_scooter", "fusion_lon": 0.0, "lat": 38.90798133333333}, {"rental_uris": {"android": "https://dc.lft.to/lastmile_qr_scan", "ios": "https://dc.lft.to/lastmile_qr_scan"}, "is_reserved": 0, "is_disabled": 0, "name": "52ce2d3659139c62e78d88ed0cf90ef4", "bike_id": "52ce2d3659139c62e78d88ed0cf90ef4", "fusion_lat": 0.0, "lon": -77.01298716666666, "type": "electric_scooter", "fusion_lon": 0.0, "lat": 38.89732383333333}, {"rental_uris": {"android": "https://dc.lft.to/lastmile_qr_scan", "ios": "https://dc.lft.to/lastmile_qr_scan"}, "is_reserved": 0, "is_disabled": 0, "name": "b3912a8b72f7e6316a0fda5173605d20", "bike_id": "b3912a8b72f7e6316a0fda5173605d20", "fusion_lat": 0.0, "lon": -77.0045685, "type": "electric_scooter", "fusion_lon": 0.0, "lat": 38.9106935}, {"rental_uris": {"android": "https://dc.lft.to/lastmile_qr_scan", "ios": "https://dc.lft.to/lastmile_qr_scan"}, "is_reserved": 0, "is_disabled": 0, "name": "0c07775570ef1e99aa6ae5fca0ec9363", "bike_id": "0c07775570ef1e99aa6ae5fca0ec9363", "fusion_lat": 0.0, "lon": -77.08536533333333, "type": "electric_bike", "fusion_lon": 0.0, "lat": 38.85666783333333}, {"rental_uris": {"android": "https://dc.lft.to/lastmile_qr_scan", "ios": "https://dc.lft.to/lastmile_qr_scan"}, "is_reserved": 0, "is_disabled": 0, "name": "ac45865bcbdf77fd001f420cc8517728", "bike_id": "ac45865bcbdf77fd001f420cc8517728", "fusion_lat": 0.0, "lon": -77.04057216666666, "type": "electric_scooter", "fusion_lon": 0.0, "lat": 38.90144983333333}, {"rental_uris": {"android": "https://dc.lft.to/lastmile_qr_scan", "ios": "https://dc.lft.to/lastmile_qr_scan"}, "is_reserved": 0, "is_disabled": 0, "name": "058ca00bc4ea0194fb4e3a4ddb3f0d60", "bike_id": "058ca00bc4ea0194fb4e3a4ddb3f0d60", "fusion_lat": 0.0, "lon": -77.04884066666666, "type": "electric_scooter", "fusion_lon": 0.0, "lat": 38.898582166666664}, {"rental_uris": {"android": "https://dc.lft.to/lastmile_qr_scan", "ios": "https://dc.lft.to/lastmile_qr_scan"}, "is_reserved": 0, "is_disabled": 0, "name": "a20670b6607cc83ab7a2d1803aa49df1", "bike_id": "a20670b6607cc83ab7a2d1803aa49df1", "fusion_lat": 0.0, "lon": -77.04664483333333, "type": "electric_scooter", "fusion_lon": 0.0, "lat": 38.90623266666667}, {"rental_uris": {"android": "https://dc.lft.to/lastmile_qr_scan", "ios": "https://dc.lft.to/lastmile_qr_scan"}, "is_reserved": 0, "is_disabled": 0, "name": "0eac61c944e12f59d8e5cb178328483a", "bike_id": "0eac61c944e12f59d8e5cb178328483a", "fusion_lat": 0.0, "lon": -77.02316733333333, "type": "electric_scooter", "fusion_lon": 0.0, "lat": 38.90215883333333}, {"rental_uris": {"android": "https://dc.lft.to/lastmile_qr_scan", "ios": "https://dc.lft.to/lastmile_qr_scan"}, "is_reserved": 0, "is_disabled": 0, "name": "1e51335ae5ef4a2bbacabc7a45828bd4", "bike_id": "1e51335ae5ef4a2bbacabc7a45828bd4", "fusion_lat": 0.0, "lon": -77.02811883333334, "type": "electric_scooter", "fusion_lon": 0.0, "lat": 38.8818655}, {"rental_uris": {"android": "https://dc.lft.to/lastmile_qr_scan", "ios": "https://dc.lft.to/lastmile_qr_scan"}, "is_reserved": 0, "is_disabled": 0, "name": "a8e318ec21b1e4738f15073c61b9f9e7", "bike_id": "a8e318ec21b1e4738f15073c61b9f9e7", "fusion_lat": 0.0, "lon": -77.01293233333334, "type": "electric_scooter", "fusion_lon": 0.0, "lat": 38.89836316666667}, {"rental_uris": {"android": "https://dc.lft.to/lastmile_qr_scan", "ios": "https://dc.lft.to/lastmile_qr_scan"}, "is_reserved": 0, "is_disabled": 0, "name": "fc63a0771621e55a7e03e0f3a87d251c", "bike_id": "fc63a0771621e55a7e03e0f3a87d251c", "fusion_lat": 0.0, "lon": -77.07242133333334, "type": "electric_scooter", "fusion_lon": 0.0, "lat": 38.939548}, {"rental_uris": {"android": "https://dc.lft.to/lastmile_qr_scan", "ios": "https://dc.lft.to/lastmile_qr_scan"}, "is_reserved": 0, "is_disabled": 0, "name": "e960e5327ab4ddb2a06ebcd535f2e208", "bike_id": "e960e5327ab4ddb2a06ebcd535f2e208", "fusion_lat": 0.0, "lon": -77.02967266666667, "type": "electric_scooter", "fusion_lon": 0.0, "lat": 38.892284833333335}, {"rental_uris": {"android": "https://dc.lft.to/lastmile_qr_scan", "ios": "https://dc.lft.to/lastmile_qr_scan"}, "is_reserved": 0, "is_disabled": 0, "name": "b8a8a4a76d606d0d18fa9711e02276c2", "bike_id": "b8a8a4a76d606d0d18fa9711e02276c2", "fusion_lat": 0.0, "lon": -77.029044, "type": "electric_bike", "fusion_lon": 0.0, "lat": 38.99461816666667}, {"rental_uris": {"android": "https://dc.lft.to/lastmile_qr_scan", "ios": "https://dc.lft.to/lastmile_qr_scan"}, "is_reserved": 0, "is_disabled": 0, "name": "94f3d8fc19da21b58e5ba6fd4b711fc3", "bike_id": "94f3d8fc19da21b58e5ba6fd4b711fc3", "fusion_lat": 0.0, "lon": -76.9106945, "type": "electric_bike", "fusion_lon": 0.0, "lat": 39.01090216666667}, {"rental_uris": {"android": "https://dc.lft.to/lastmile_qr_scan", "ios": "https://dc.lft.to/lastmile_qr_scan"}, "is_reserved": 0, "is_disabled": 0, "name": "91f1ed3514b00987081d1767488fb43c", "bike_id": "91f1ed3514b00987081d1767488fb43c", "fusion_lat": 0.0, "lon": -77.00884483333333, "type": "electric_scooter", "fusion_lon": 0.0, "lat": 38.906307}, {"rental_uris": {"android": "https://dc.lft.to/lastmile_qr_scan", "ios": "https://dc.lft.to/lastmile_qr_scan"}, "is_reserved": 0, "is_disabled": 0, "name": "9e1000f332527b88e5ee6015cf8ca252", "bike_id": "9e1000f332527b88e5ee6015cf8ca252", "fusion_lat": 0.0, "lon": -77.002226, "type": "electric_scooter", "fusion_lon": 0.0, "lat": 38.90019816666667}, {"rental_uris": {"android": "https://dc.lft.to/lastmile_qr_scan", "ios": "https://dc.lft.to/lastmile_qr_scan"}, "is_reserved": 0, "is_disabled": 0, "name": "43338ab83934d3a35e427cf62d796c3d", "bike_id": "43338ab83934d3a35e427cf62d796c3d", "fusion_lat": 0.0, "lon": -77.05154433333334, "type": "electric_scooter", "fusion_lon": 0.0, "lat": 38.923738666666665}, {"rental_uris": {"android": "https://dc.lft.to/lastmile_qr_scan", "ios": "https://dc.lft.to/lastmile_qr_scan"}, "is_reserved": 0, "is_disabled": 0, "name": "01cbde2b125904f962b43b65dbc7fc78", "bike_id": "01cbde2b125904f962b43b65dbc7fc78", "fusion_lat": 0.0, "lon": -77.0337535, "type": "electric_scooter", "fusion_lon": 0.0, "lat": 38.8996275}, {"rental_uris": {"android": "https://dc.lft.to/lastmile_qr_scan", "ios": "https://dc.lft.to/lastmile_qr_scan"}, "is_reserved": 0, "is_disabled": 0, "name": "283d562440e4b39f239336bb1899fabf", "bike_id": "283d562440e4b39f239336bb1899fabf", "fusion_lat": 0.0, "lon": -77.032893, "type": "electric_scooter", "fusion_lon": 0.0, "lat": 38.923497166666664}, {"rental_uris": {"android": "https://dc.lft.to/lastmile_qr_scan", "ios": "https://dc.lft.to/lastmile_qr_scan"}, "is_reserved": 0, "is_disabled": 0, "name": "a4cc59fe2a03466c81a5a9672f6421ac", "bike_id": "a4cc59fe2a03466c81a5a9672f6421ac", "fusion_lat": 0.0, "lon": -77.041783, "type": "electric_scooter", "fusion_lon": 0.0, "lat": 38.91721616666667}, {"rental_uris": {"android": "https://dc.lft.to/lastmile_qr_scan", "ios": "https://dc.lft.to/lastmile_qr_scan"}, "is_reserved": 0, "is_disabled": 0, "name": "fd7b8d4430addba1cd01214c9c1ae6b8", "bike_id": "fd7b8d4430addba1cd01214c9c1ae6b8", "fusion_lat": 0.0, "lon": -77.010182, "type": "electric_bike", "fusion_lon": 0.0, "lat": 38.955980333333336}, {"rental_uris": {"android": "https://dc.lft.to/lastmile_qr_scan", "ios": "https://dc.lft.to/lastmile_qr_scan"}, "is_reserved": 0, "is_disabled": 0, "name": "b59c928374dec092167d9bd2da9bb785", "bike_id": "b59c928374dec092167d9bd2da9bb785", "fusion_lat": 0.0, "lon": -77.01720233333333, "type": "electric_scooter", "fusion_lon": 0.0, "lat": 38.917335333333334}, {"rental_uris": {"android": "https://dc.lft.to/lastmile_qr_scan", "ios": "https://dc.lft.to/lastmile_qr_scan"}, "is_reserved": 0, "is_disabled": 0, "name": "ae96233c2236c6bcb265e776332773eb", "bike_id": "ae96233c2236c6bcb265e776332773eb", "fusion_lat": 0.0, "lon": -77.03163966666666, "type": "electric_scooter", "fusion_lon": 0.0, "lat": 38.89959}, {"rental_uris": {"android": "https://dc.lft.to/lastmile_qr_scan", "ios": "https://dc.lft.to/lastmile_qr_scan"}, "is_reserved": 0, "is_disabled": 0, "name": "03643dd3a5e432520317250da9d1a0ef", "bike_id": "03643dd3a5e432520317250da9d1a0ef", "fusion_lat": 0.0, "lon": -77.01234966666667, "type": "electric_scooter", "fusion_lon": 0.0, "lat": 38.9154575}, {"rental_uris": {"android": "https://dc.lft.to/lastmile_qr_scan", "ios": "https://dc.lft.to/lastmile_qr_scan"}, "is_reserved": 0, "is_disabled": 0, "name": "553e605cfdc0a98776d1e2e5b70ec98b", "bike_id": "553e605cfdc0a98776d1e2e5b70ec98b", "fusion_lat": 0.0, "lon": -77.03328083333334, "type": "electric_scooter", "fusion_lon": 0.0, "lat": 38.921650666666665}, {"rental_uris": {"android": "https://dc.lft.to/lastmile_qr_scan", "ios": "https://dc.lft.to/lastmile_qr_scan"}, "is_reserved": 0, "is_disabled": 0, "name": "dc80c3fde70361f9cbf9a8a3487f1d28", "bike_id": "dc80c3fde70361f9cbf9a8a3487f1d28", "fusion_lat": 0.0, "lon": -77.03531766666667, "type": "electric_scooter", "fusion_lon": 0.0, "lat": 38.90380833333333}, {"rental_uris": {"android": "https://dc.lft.to/lastmile_qr_scan", "ios": "https://dc.lft.to/lastmile_qr_scan"}, "is_reserved": 0, "is_disabled": 0, "name": "1db170a330288039bef800e2fe3e81b9", "bike_id": "1db170a330288039bef800e2fe3e81b9", "fusion_lat": 0.0, "lon": -76.98374083333333, "type": "electric_scooter", "fusion_lon": 0.0, "lat": 38.892644}, {"rental_uris": {"android": "https://dc.lft.to/lastmile_qr_scan", "ios": "https://dc.lft.to/lastmile_qr_scan"}, "is_reserved": 0, "is_disabled": 0, "name": "05726f50f67c0c38eda5b7f0b302fff8", "bike_id": "05726f50f67c0c38eda5b7f0b302fff8", "fusion_lat": 0.0, "lon": -76.9297695, "type": "electric_scooter", "fusion_lon": 0.0, "lat": 38.88432366666667}, {"rental_uris": {"android": "https://dc.lft.to/lastmile_qr_scan", "ios": "https://dc.lft.to/lastmile_qr_scan"},