{"data": {"bikes": [{"is_reserved": 0, "type": "electric_scooter", "bike_id": "e4345626050b8226c06b66d5b3931c18", "lat": 38.918639, "lon": -77.0417455, "rental_uris": {"android": "https://dc.lft.to/lastmile_qr_scan", "ios": "https://dc.lft.to/lastmile_qr_scan"}, "is_disabled": 0, "fusion_lat": 0.0, "name": "e4345626050b8226c06b66d5b3931c18", "fusion_lon": 0.0}, {"is_reserved": 0, "type": "electric_scooter", "bike_id": "ae6bcb857116abef0fe2116acbcb3f4a", "lat": 38.90578933333333, "lon": -77.007908, "rental_uris": {"android": "https://dc.lft.to/lastmile_qr_scan", "ios": "https://dc.lft.to/lastmile_qr_scan"}, "is_disabled": 0, "fusion_lat": 0.0, "name": "ae6bcb857116abef0fe2116acbcb3f4a", "fusion_lon": 0.0}, {"is_reserved": 0, "type": "electric_scooter", "bike_id": "b0e9c145ea64abbe3000d41f763e7b0b", "lat": 38.91688383333333, "lon": -77.02596783333334, "rental_uris": {"android": "https://dc.lft.to/lastmile_qr_scan", "ios": "https://dc.lft.to/lastmile_qr_scan"}, "is_disabled": 0, "fusion_lat": 0.0, "name": "b0e9c145ea64abbe3000d41f763e7b0b", "fusion_lon": 0.0}, {"is_reserved": 0, "type": "electric_scooter", "bike_id": "1de7773e771e083098674cb38e1908dd", "lat": 38.8896525, "lon": -76.999394, "rental_uris": {"android": "https://dc.lft.to/lastmile_qr_scan", "ios": "https://dc.lft.to/lastmile_qr_scan"}, "is_disabled": 0, "fusion_lat": 0.0, "name": "1de7773e771e083098674cb38e1908dd", "fusion_lon": 0.0}, {"is_reserved": 0, "type": "electric_scooter", "bike_id": "195c94caf8865b25f5d14bad1d0bf86c", "lat": 38.91535, "lon": -77.03197, "rental_uris": {"android": "https://dc.lft.to/lastmile_qr_scan", "ios": "https://dc.lft.to/lastmile_qr_scan"}, "is_disabled": 0, "fusion_lat": 0.0, "name": "195c94caf8865b25f5d14bad1d0bf86c", "fusion_lon": 0.0}, {"is_reserved": 0, "type": "electric_scooter", "bike_id": "295fc467dc343a5b7123a5daf2e6f89d", "lat": 38.9036505, "lon": -76.98490083333333, "rental_uris": {"android": "https://dc.lft.to/lastmile_qr_scan", "ios": "https://dc.lft.to/lastmile_qr_scan"}, "is_disabled": 0, "fusion_lat": 0.0, "name": "295fc467dc343a5b7123a5daf2e6f89d", "fusion_lon": 0.0}, {"is_reserved": 0, "type": "electric_scooter", "bike_id": "5b2cc28478b19c0567debdb876507cbb", "lat": 38.926528, "lon": -77.03714, "rental_uris": {"android": "https://dc.lft.to/lastmile_qr_scan", "ios": "https://dc.lft.to/lastmile_qr_scan"}, "is_disabled": 0, "fusion_lat": 0.0, "name": "5b2cc28478b19c0567debdb876507cbb", "fusion_lon": 0.0}, {"is_reserved": 0, "type": "electric_scooter", "bike_id": "ef6f25d3227f10820b1b0fb229e9440b", "lat": 38.9147725, "lon": -76.9844105, "rental_uris": {"android": "https://dc.lft.to/lastmile_qr_scan", "ios": "https://dc.lft.to/lastmile_qr_scan"}, "is_disabled": 0, "fusion_lat": 0.0, "name": "ef6f25d3227f10820b1b0fb229e9440b", "fusion_lon": 0.0}, {"is_reserved": 0, "type": "electric_scooter", "bike_id": "95c3c8b657639853ac0b4c8b77919305", "lat": 38.89489833333333, "lon": -77.02145883333333, "rental_uris": {"android": "https://dc.lft.to/lastmile_qr_scan", "ios": "https://dc.lft.to/lastmile_qr_scan"}, "is_disabled": 0, "fusion_lat": 0.0, "name": "95c3c8b657639853ac0b4c8b77919305", "fusion_lon": 0.0}, {"is_reserved": 0, "type": "electric_scooter", "bike_id": "991093338a05ea785f5651281f76e2dd", "lat": 38.892207666666664, "lon": -77.0468475, "rental_uris": {"android": "https://dc.lft.to/lastmile_qr_scan", "ios": "https://dc.lft.to/lastmile_qr_scan"}, "is_disabled": 0, "fusion_lat": 0.0, "name": "991093338a05ea785f5651281f76e2dd", "fusion_lon": 0.0}, {"is_reserved": 0, "type": "electric_scooter", "bike_id": "424aa2497b1f12a14458c153821d3fbb", "lat": 38.93748166666666, "lon": -77.02836733333334, "rental_uris": {"android": "https://dc.lft.to/lastmile_qr_scan", "ios": "https://dc.lft.to/lastmile_qr_scan"}, "is_disabled": 0, "fusion_lat": 0.0, "name": "424aa2497b1f12a14458c153821d3fbb", "fusion_lon": 0.0}, {"is_reserved": 0, "type": "electric_scooter", "bike_id": "5302e2ddba64e5b9ed850f97319118c5", "lat": 38.877272, "lon": -77.01878033333334, "rental_uris": {"android": "https://dc.lft.to/lastmile_qr_scan", "ios": "https://dc.lft.to/lastmile_qr_scan"}, "is_disabled": 0, "fusion_lat": 0.0, "name": "5302e2ddba64e5b9ed850f97319118c5", "fusion_lon": 0.0}, {"is_reserved": 0, "type": "electric_scooter", "bike_id": "08ae37e22b62c0823b3953e00b0245a1", "lat": 38.906277333333335, "lon": -77.00880816666667, "rental_uris": {"android": "https://dc.lft.to/lastmile_qr_scan", "ios": "https://dc.lft.to/lastmile_qr_scan"}, "is_disabled": 0, "fusion_lat": 0.0, "name": "08ae37e22b62c0823b3953e00b0245a1", "fusion_lon": 0.0}, {"is_reserved": 0, "type": "electric_scooter", "bike_id": "f5b611ba53156b78c38453e36c0b25b0", "lat": 38.92390366666667, "lon": -77.0430115, "rental_uris": {"android": "https://dc.lft.to/lastmile_qr_scan", "ios": "https://dc.lft.to/lastmile_qr_scan"}, "is_disabled": 0, "fusion_lat": 0.0, "name": "f5b611ba53156b78c38453e36c0b25b0", "fusion_lon": 0.0}, {"is_reserved": 0, "type": "electric_scooter", "bike_id": "f62d7ba978132031e2f47d2b288a441d", "lat": 38.887241833333334, "lon": -77.02826866666666, "rental_uris": {"android": "https://dc.lft.to/lastmile_qr_scan", "ios": "https://dc.lft.to/lastmile_qr_scan"}, "is_disabled": 0, "fusion_lat": 0.0, "name": "f62d7ba978132031e2f47d2b288a441d", "fusion_lon": 0.0}, {"is_reserved": 0, "type": "electric_scooter", "bike_id": "bb16d0f288b5f5955cc1affa8dcf15b3", "lat": 38.900680666666666, "lon": -77.052992, "rental_uris": {"android": "https://dc.lft.to/lastmile_qr_scan", "ios": "https://dc.lft.to/lastmile_qr_scan"}, "is_disabled": 0, "fusion_lat": 0.0, "name": "bb16d0f288b5f5955cc1affa8dcf15b3", "fusion_lon": 0.0}, {"is_reserved": 0, "type": "electric_scooter", "bike_id": "6e7f1098f865a042a5d9c65486b77094", "lat": 38.910129166666664, "lon": -76.9937265, "rental_uris": {"android": "https://dc.lft.to/lastmile_qr_scan", "ios": "https://dc.lft.to/lastmile_qr_scan"}, "is_disabled": 0, "fusion_lat": 0.0, "name": "6e7f1098f865a042a5d9c65486b77094", "fusion_lon": 0.0}, {"is_reserved": 0, "type": "electric_scooter", "bike_id": "36a07e73a4ecc3dbb37213b041dcc70e", "lat": 38.89349983333334, "lon": -77.01971066666667, "rental_uris": {"android": "https://dc.lft.to/lastmile_qr_scan", "ios": "https://dc.lft.to/lastmile_qr_scan"}, "is_disabled": 0, "fusion_lat": 0.0, "name": "36a07e73a4ecc3dbb37213b041dcc70e", "fusion_lon": 0.0}, {"is_reserved": 0, "type": "electric_scooter", "bike_id": "5a7964af417a811a742612161a72101f", "lat": 38.9006175, "lon": -77.0496125, "rental_uris": {"android": "https://dc.lft.to/lastmile_qr_scan", "ios": "https://dc.lft.to/lastmile_qr_scan"}, "is_disabled": 0, "fusion_lat": 0.0, "name": "5a7964af417a811a742612161a72101f", "fusion_lon": 0.0}, {"is_reserved": 0, "type": "electric_scooter", "bike_id": "ab231a55d5dbc7ac57e16892ab3cccd8", "lat": 38.91799616666667, "lon": -77.03177583333333, "rental_uris": {"android": "https://dc.lft.to/lastmile_qr_scan", "ios": "https://dc.lft.to/lastmile_qr_scan"}, "is_disabled": 0, "fusion_lat": 0.0, "name": "ab231a55d5dbc7ac57e16892ab3cccd8", "fusion_lon": 0.0}, {"is_reserved": 0, "type": "electric_scooter", "bike_id": "82e5d79c020f7e802e68a7ab541cd7ee", "lat": 38.92200233333333, "lon": -77.0203685, "rental_uris": {"android": "https://dc.lft.to/lastmile_qr_scan", "ios": "https://dc.lft.to/lastmile_qr_scan"}, "is_disabled": 0, "fusion_lat": 0.0, "name": "82e5d79c020f7e802e68a7ab541cd7ee", "fusion_lon": 0.0}, {"is_reserved": 0, "type": "electric_scooter", "bike_id": "d3fccc237e696750c3c0a5496493fe12", "lat": 38.931176666666666, "lon": -77.02317233333333, "rental_uris": {"android": "https://dc.lft.to/lastmile_qr_scan", "ios": "https://dc.lft.to/lastmile_qr_scan"}, "is_disabled": 0, "fusion_lat": 0.0, "name": "d3fccc237e696750c3c0a5496493fe12", "fusion_lon": 0.0}, {"is_reserved": 0, "type": "electric_scooter", "bike_id": "5420daeb98ebd3a41c5f07f2bf9c0ac8", "lat": 38.93540633333333, "lon": -77.0727085, "rental_uris": {"android": "https://dc.lft.to/lastmile_qr_scan", "ios": "https://dc.lft.to/lastmile_qr_scan"}, "is_disabled": 0, "fusion_lat": 0.0, "name": "5420daeb98ebd3a41c5f07f2bf9c0ac8", "fusion_lon": 0.0}, {"is_reserved": 0, "type": "electric_scooter", "bike_id": "04c91f28f997dcc92de774a04e6bd666", "lat": 38.895449166666666, "lon": -76.98332566666667, "rental_uris": {"android": "https://dc.lft.to/lastmile_qr_scan", "ios": "https://dc.lft.to/lastmile_qr_scan"}, "is_disabled": 0, "fusion_lat": 0.0, "name": "04c91f28f997dcc92de774a04e6bd666", "fusion_lon": 0.0}, {"is_reserved": 0, "type": "electric_scooter", "bike_id": "0cec367a3b40035fe1290f206a37d6ad", "lat": 38.92634116666667, "lon": -77.02706583333334, "rental_uris": {"android": "https://dc.lft.to/lastmile_qr_scan", "ios": "https://dc.lft.to/lastmile_qr_scan"}, "is_disabled": 0, "fusion_lat": 0.0, "name": "0cec367a3b40035fe1290f206a37d6ad", "fusion_lon": 0.0}, {"is_reserved": 0, "type": "electric_scooter", "bike_id": "e161d113a7317df7cdcb68a46210c975", "lat": 38.90263266666667, "lon": -77.03976683333333, "rental_uris": {"android": "https://dc.lft.to/lastmile_qr_scan", "ios": "https://dc.lft.to/lastmile_qr_scan"}, "is_disabled": 0, "fusion_lat": 0.0, "name": "e161d113a7317df7cdcb68a46210c975", "fusion_lon": 0.0}, {"is_reserved": 0, "type": "electric_scooter", "bike_id": "b396c57dcfb2b7d7492921ba8cc8e9a2", "lat": 38.923388833333334, "lon": -77.01899516666667, "rental_uris": {"android": "https://dc.lft.to/lastmile_qr_scan", "ios": "https://dc.lft.to/lastmile_qr_scan"}, "is_disabled": 0, "fusion_lat": 0.0, "name": "b396c57dcfb2b7d7492921ba8cc8e9a2", "fusion_lon": 0.0}, {"is_reserved": 0, "type": "electric_scooter", "bike_id": "415e61d556559115071318bce95dd34b", "lat": 38.9125975, "lon": -77.031434, "rental_uris": {"android": "https://dc.lft.to/lastmile_qr_scan", "ios": "https://dc.lft.to/lastmile_qr_scan"}, "is_disabled": 0, "fusion_lat": 0.0, "name": "415e61d556559115071318bce95dd34b", "fusion_lon": 0.0}, {"is_reserved": 0, "type": "electric_scooter", "bike_id": "60a5e92ec1e87e5a48f7eeb094ecf594", "lat": 38.94027466666667, "lon": -77.02519683333334, "rental_uris": {"android": "https://dc.lft.to/lastmile_qr_scan", "ios": "https://dc.lft.to/lastmile_qr_scan"}, "is_disabled": 0, "fusion_lat": 0.0, "name": "60a5e92ec1e87e5a48f7eeb094ecf594", "fusion_lon": 0.0}, {"is_reserved": 0, "type": "electric_scooter", "bike_id": "0f84259743e1bc2a36b32d8a733f1ec0", "lat": 38.93971783333333, "lon": -77.05472683333333, "rental_uris": {"android": "https://dc.lft.to/lastmile_qr_scan", "ios": "https://dc.lft.to/lastmile_qr_scan"}, "is_disabled": 0, "fusion_lat": 0.0, "name": "0f84259743e1bc2a36b32d8a733f1ec0", "fusion_lon": 0.0}, {"is_reserved": 0, "type": "electric_scooter", "bike_id": "3f50835d0c16793586afad86831ccd95", "lat": 38.90514266666667, "lon": -77.04331633333334, "rental_uris": {"android": "https://dc.lft.to/lastmile_qr_scan", "ios": "https://dc.lft.to/lastmile_qr_scan"}, "is_disabled": 0, "fusion_lat": 0.0, "name": "3f50835d0c16793586afad86831ccd95", "fusion_lon": 0.0}, {"is_reserved": 0, "type": "electric_scooter", "bike_id": "b68dc32c87483e316ccfc7194a68e917", "lat": 38.91710333333333, "lon": -77.02677183333333, "rental_uris": {"android": "https://dc.lft.to/lastmile_qr_scan", "ios": "https://dc.lft.to/lastmile_qr_scan"}, "is_disabled": 0, "fusion_lat": 0.0, "name": "b68dc32c87483e316ccfc7194a68e917", "fusion_lon": 0.0}, {"is_reserved": 0, "type": "electric_scooter", "bike_id": "8385982d0b376915bf95ce968983e546", "lat": 38.909597833333336, "lon": -77.0213, "rental_uris": {"android": "https://dc.lft.to/lastmile_qr_scan", "ios": "https://dc.lft.to/lastmile_qr_scan"}, "is_disabled": 0, "fusion_lat": 0.0, "name": "8385982d0b376915bf95ce968983e546", "fusion_lon": 0.0}, {"is_reserved": 0, "type": "electric_scooter", "bike_id": "798feab7df2be60f3bcd51962883a371", "lat": 38.974979833333336, "lon": -77.01699316666667, "rental_uris": {"android": "https://dc.lft.to/lastmile_qr_scan", "ios": "https://dc.lft.to/lastmile_qr_scan"}, "is_disabled": 0, "fusion_lat": 0.0, "name": "798feab7df2be60f3bcd51962883a371", "fusion_lon": 0.0}, {"is_reserved": 0, "type": "electric_scooter", "bike_id": "e5e6bd6905bc38aef3d272bee3ed0feb", "lat": 38.8972895, "lon": -77.05476666666667, "rental_uris": {"android": "https://dc.lft.to/lastmile_qr_scan", "ios": "https://dc.lft.to/lastmile_qr_scan"}, "is_disabled": 0, "fusion_lat": 0.0, "name": "e5e6bd6905bc38aef3d272bee3ed0feb", "fusion_lon": 0.0}, {"is_reserved": 0, "type": "electric_scooter", "bike_id": "d8d7b861a0d63ea6c02cc695c2c65816", "lat": 38.92423266666667, "lon": -77.0194495, "rental_uris": {"android": "https://dc.lft.to/lastmile_qr_scan", "ios": "https://dc.lft.to/lastmile_qr_scan"}, "is_disabled": 0, "fusion_lat": 0.0, "name": "d8d7b861a0d63ea6c02cc695c2c65816", "fusion_lon": 0.0}, {"is_reserved": 0, "type": "electric_scooter", "bike_id": "cbdb60e29c9f3526b55f130a17b03091", "lat": 38.89889333333333, "lon": -77.02165216666667, "rental_uris": {"android": "https://dc.lft.to/lastmile_qr_scan", "ios": "https://dc.lft.to/lastmile_qr_scan"}, "is_disabled": 0, "fusion_lat": 0.0, "name": "cbdb60e29c9f3526b55f130a17b03091", "fusion_lon": 0.0}, {"is_reserved": 0, "type": "electric_scooter", "bike_id": "add1dac7971901d09d296f810f0e20c0", "lat": 38.90249083333333, "lon": -77.02944966666666, "rental_uris": {"android": "https://dc.lft.to/lastmile_qr_scan", "ios": "https://dc.lft.to/lastmile_qr_scan"}, "is_disabled": 0, "fusion_lat": 0.0, "name": "add1dac7971901d09d296f810f0e20c0", "fusion_lon": 0.0}, {"is_reserved": 0, "type": "electric_scooter", "bike_id": "45a42d03cb0373a087210271d4e6910f", "lat": 38.898854166666666, "lon": -77.0323025, "rental_uris": {"android": "https://dc.lft.to/lastmile_qr_scan", "ios": "https://dc.lft.to/lastmile_qr_scan"}, "is_disabled": 0, "fusion_lat": 0.0, "name": "45a42d03cb0373a087210271d4e6910f", "fusion_lon": 0.0}, {"is_reserved": 0, "type": "electric_scooter", "bike_id": "009969e8fc7682a195f68e73e7333601", "lat": 38.95149133333334, "lon": -77.01866466666667, "rental_uris": {"android": "https://dc.lft.to/lastmile_qr_scan", "ios": "https://dc.lft.to/lastmile_qr_scan"}, "is_disabled": 0, "fusion_lat": 0.0, "name": "009969e8fc7682a195f68e73e7333601", "fusion_lon": 0.0}, {"is_reserved": 0, "type": "electric_scooter", "bike_id": "2231c3eb2175d0547808cf2491f1e1f8", "lat": 38.90426016666667, "lon": -77.01899483333334, "rental_uris": {"android": "https://dc.lft.to/lastmile_qr_scan", "ios": "https://dc.lft.to/lastmile_qr_scan"}, "is_disabled": 0, "fusion_lat": 0.0, "name": "2231c3eb2175d0547808cf2491f1e1f8", "fusion_lon": 0.0}, {"is_reserved": 0, "type": "electric_scooter", "bike_id": "838e8d91c3d6a6b2636752cd2589161d", "lat": 38.887553833333335, "lon": -77.0335425, "rental_uris": {"android": "https://dc.lft.to/lastmile_qr_scan", "ios": "https://dc.lft.to/lastmile_qr_scan"}, "is_disabled": 0, "fusion_lat": 0.0, "name": "838e8d91c3d6a6b2636752cd2589161d", "fusion_lon": 0.0}, {"is_reserved": 0, "type": "electric_scooter", "bike_id": "af1f075effd255dce5358743668111e3", "lat": 38.920672833333334, "lon": -76.98076966666666, "rental_uris": {"android": "https://dc.lft.to/lastmile_qr_scan", "ios": "https://dc.lft.to/lastmile_qr_scan"}, "is_disabled": 0, "fusion_lat": 0.0, "name": "af1f075effd255dce5358743668111e3", "fusion_lon": 0.0}, {"is_reserved": 0, "type": "electric_scooter", "bike_id": "153463f24802ad2bad44eae21e0cb519", "lat": 38.89605133333333, "lon": -77.04691033333333, "rental_uris": {"android": "https://dc.lft.to/lastmile_qr_scan", "ios": "https://dc.lft.to/lastmile_qr_scan"}, "is_disabled": 0, "fusion_lat": 0.0, "name": "153463f24802ad2bad44eae21e0cb519", "fusion_lon": 0.0}, {"is_reserved": 0, "type": "electric_scooter", "bike_id": "5bd054508fca5a5844088098424717d3", "lat": 38.915594, "lon": -77.01164183333333, "rental_uris": {"android": "https://dc.lft.to/lastmile_qr_scan", "ios": "https://dc.lft.to/lastmile_qr_scan"}, "is_disabled": 0, "fusion_lat": 0.0, "name": "5bd054508fca5a5844088098424717d3", "fusion_lon": 0.0}, {"is_reserved": 0, "type": "electric_scooter", "bike_id": "91f383473c47372ae16142281ea72cc4", "lat": 38.91326633333333, "lon": -77.0479715, "rental_uris": {"android": "https://dc.lft.to/lastmile_qr_scan", "ios": "https://dc.lft.to/lastmile_qr_scan"}, "is_disabled": 0, "fusion_lat": 0.0, "name": "91f383473c47372ae16142281ea72cc4", "fusion_lon": 0.0}, {"is_reserved": 0, "type": "electric_bike", "bike_id": "f5f22f2f6ead40dfa473b25c613469d2", "lat": 38.8877575, "lon": -76.92340116666666, "rental_uris": {"android": "https://dc.lft.to/lastmile_qr_scan", "ios": "https://dc.lft.to/lastmile_qr_scan"}, "is_disabled": 0, "fusion_lat": 0.0, "name": "f5f22f2f6ead40dfa473b25c613469d2", "fusion_lon": 0.0}, {"is_reserved": 0, "type": "electric_scooter", "bike_id": "1d2cfb62a3103135eeab8e877b00db3b", "lat": 38.9192575, "lon": -77.03399216666666, "rental_uris": {"android": "https://dc.lft.to/lastmile_qr_scan", "ios": "https://dc.lft.to/lastmile_qr_scan"}, "is_disabled": 0, "fusion_lat": 0.0, "name": "1d2cfb62a3103135eeab8e877b00db3b", "fusion_lon": 0.0}, {"is_reserved": 0, "type": "electric_scooter", "bike_id": "9c99869f4752e3b8e53b78c59a016d06", "lat": 38.91344683333333, "lon": -77.03187766666667, "rental_uris": {"android": "https://dc.lft.to/lastmile_qr_scan", "ios": "https://dc.lft.to/lastmile_qr_scan"}, "is_disabled": 0, "fusion_lat": 0.0, "name": "9c99869f4752e3b8e53b78c59a016d06", "fusion_lon": 0.0}, {"is_reserved": 0, "type": "electric_scooter", "bike_id": "1c469e9a7dde091a6cfd272b71b172df", "lat": 38.9095535, "lon": -76.98536616666667, "rental_uris": {"android": "https://dc.lft.to/lastmile_qr_scan", "ios": "https://dc.lft.to/lastmile_qr_scan"}, "is_disabled": 0, "fusion_lat": 0.0, "name": "1c469e9a7dde091a6cfd272b71b172df", "fusion_lon": 0.0}, {"is_reserved": 0, "type": "electric_scooter", "bike_id": "66417ab020b149e08516c63b0c3f9f6c", "lat": 38.9027865, "lon": -77.02275266666666, "rental_uris": {"android": "https://dc.lft.to/lastmile_qr_scan", "ios": "https://dc.lft.to/lastmile_qr_scan"}, "is_disabled": 0, "fusion_lat": 0.0, "name": "66417ab020b149e08516c63b0c3f9f6c", "fusion_lon": 0.0}, {"is_reserved": 0, "type": "electric_scooter", "bike_id": "cdcbe2def1c713a5f16538d4748c0150", "lat": 38.92442966666667, "lon": -77.03403116666667, "rental_uris": {"android": "https://dc.lft.to/lastmile_qr_scan", "ios": "https://dc.lft.to/lastmile_qr_scan"}, "is_disabled": 0, "fusion_lat": 0.0, "name": "cdcbe2def1c713a5f16538d4748c0150", "fusion_lon": 0.0}, {"is_reserved": 0, "type": "electric_scooter", "bike_id": "85ef8050392eed93645e04ab85d488fb", "lat": 38.89732333333333, "lon": -77.026075, "rental_uris": {"android": "https://dc.lft.to/lastmile_qr_scan", "ios": "https://dc.lft.to/lastmile_qr_scan"}, "is_disabled": 0, "fusion_lat": 0.0, "name": "85ef8050392eed93645e04ab85d488fb", "fusion_lon": 0.0}, {"is_reserved": 0, "type": "electric_scooter", "bike_id": "7b978e98154d59f505ffca718a32797e", "lat": 38.906837333333335, "lon": -77.062599, "rental_uris": {"android": "https://dc.lft.to/lastmile_qr_scan", "ios": "https://dc.lft.to/lastmile_qr_scan"}, "is_disabled": 0, "fusion_lat": 0.0, "name": "7b978e98154d59f505ffca718a32797e", "fusion_lon": 0.0}, {"is_reserved": 0, "type": "electric_bike", "bike_id": "20e2f82efe418ae37554902d8ee06101", "lat": 39.03821083333333, "lon": -77.042423, "rental_uris": {"android": "https://dc.lft.to/lastmile_qr_scan", "ios": "https://dc.lft.to/lastmile_qr_scan"}, "is_disabled": 0, "fusion_lat": 0.0, "name": "20e2f82efe418ae37554902d8ee06101", "fusion_lon": 0.0}, {"is_reserved": 0, "type": "electric_scooter", "bike_id": "3bee5be89333d9899b54b76dcf9b4e76", "lat": 38.905341666666665, "lon": -77.06282116666667, "rental_uris": {"android": "https://dc.lft.to/lastmile_qr_scan", "ios": "https://dc.lft.to/lastmile_qr_scan"}, "is_disabled": 0, "fusion_lat": 0.0, "name": "3bee5be89333d9899b54b76dcf9b4e76", "fusion_lon": 0.0}, {"is_reserved": 0, "type": "electric_scooter", "bike_id": "04ea103d84f3ba402682583a142a6453", "lat": 38.9077585, "lon": -77.04243433333333, "rental_uris": {"android": "https://dc.lft.to/lastmile_qr_scan", "ios": "https://dc.lft.to/lastmile_qr_scan"}, "is_disabled": 0, "fusion_lat": 0.0, "name": "04ea103d84f3ba402682583a142a6453", "fusion_lon": 0.0}, {"is_reserved": 0, "type": "electric_scooter", "bike_id": "a80e3f0ce9d7342e45958c7555442419", "lat": 38.9179145, "lon": -77.03440016666667, "rental_uris": {"android": "https://dc.lft.to/lastmile_qr_scan", "ios": "https://dc.lft.to/lastmile_qr_scan"}, "is_disabled": 0, "fusion_lat": 0.0, "name": "a80e3f0ce9d7342e45958c7555442419", "fusion_lon": 0.0}, {"is_reserved": 0, "type": "electric_scooter", "bike_id": "d3d3c54bb9cffd132ae993b4c8e02adf", "lat": 38.884939, "lon": -77.00712216666666, "rental_uris": {"android": "https://dc.lft.to/lastmile_qr_scan", "ios": "https://dc.lft.to/lastmile_qr_scan"}, "is_disabled": 0, "fusion_lat": 0.0, "name": "d3d3c54bb9cffd132ae993b4c8e02adf", "fusion_lon": 0.0}, {"is_reserved": 0, "type": "electric_scooter", "bike_id": "f8f1b21a33054317b7b0aa0e493c3822", "lat": 38.883679, "lon": -76.99496083333334, "rental_uris": {"android": "https://dc.lft.to/lastmile_qr_scan", "ios": "https://dc.lft.to/lastmile_qr_scan"}, "is_disabled": 0, "fusion_lat": 0.0, "name": "f8f1b21a33054317b7b0aa0e493c3822", "fusion_lon": 0.0}, {"is_reserved": 0, "type": "electric_scooter", "bike_id": "544d653d28f70f243c32e343c13e1240", "lat": 38.897992333333335, "lon": -77.03353016666667, "rental_uris": {"android": "https://dc.lft.to/lastmile_qr_scan", "ios": "https://dc.lft.to/lastmile_qr_scan"}, "is_disabled": 0, "fusion_lat": 0.0, "name": "544d653d28f70f243c32e343c13e1240", "fusion_lon": 0.0}, {"is_reserved": 0, "type": "electric_scooter", "bike_id": "d16a903f5714ea9e09490d7340326820", "lat": 38.9204815, "lon": -77.02574033333333, "rental_uris": {"android": "https://dc.lft.to/lastmile_qr_scan", "ios": "https://dc.lft.to/lastmile_qr_scan"}, "is_disabled": 0, "fusion_lat": 0.0, "name": "d16a903f5714ea9e09490d7340326820", "fusion_lon": 0.0}, {"is_reserved": 0, "type": "electric_scooter", "bike_id": "b5087324923055289073ac61210c5ae6", "lat": 38.897143666666665, "lon": -77.00801316666667, "rental_uris": {"android": "https://dc.lft.to/lastmile_qr_scan", "ios": "https://dc.lft.to/lastmile_qr_scan"}, "is_disabled": 0, "fusion_lat": 0.0, "name": "b5087324923055289073ac61210c5ae6", "fusion_lon": 0.0}, {"is_reserved": 0, "type": "electric_scooter", "bike_id": "98b3dae54fe580472fd15c415304a616", "lat": 38.90860516666667, "lon": -77.0022075, "rental_uris": {"android": "https://dc.lft.to/lastmile_qr_scan", "ios": "https://dc.lft.to/lastmile_qr_scan"}, "is_disabled": 0, "fusion_lat": 0.0, "name": "98b3dae54fe580472fd15c415304a616", "fusion_lon": 0.0}, {"is_reserved": 0, "type": "electric_bike", "bike_id": "290217138a2cedaff034703d08e99ca0", "lat": 38.896136166666665, "lon": -76.90733366666667, "rental_uris": {"android": "https://dc.lft.to/lastmile_qr_scan", "ios": "https://dc.lft.to/lastmile_qr_scan"}, "is_disabled": 0, "fusion_lat": 0.0, "name": "290217138a2cedaff034703d08e99ca0", "fusion_lon": 0.0}, {"is_reserved": 0, "type": "electric_scooter", "bike_id": "bece0fc16c5e2c36dcc69980178aa3da", "lat": 38.92347766666666, "lon": -77.03506316666666, "rental_uris": {"android": "https://dc.lft.to/lastmile_qr_scan", "ios": "https://dc.lft.to/lastmile_qr_scan"}, "is_disabled": 0, "fusion_lat": 0.0, "name": "bece0fc16c5e2c36dcc69980178aa3da", "fusion_lon": 0.0}, {"is_reserved": 0, "type": "electric_scooter", "bike_id": "f3b472bcd3bb2479609d751202c59a06", "lat": 38.894808166666664, "lon": -76.995812, "rental_uris": {"android": "https://dc.lft.to/lastmile_qr_scan", "ios": "https://dc.lft.to/lastmile_qr_scan"}, "is_disabled": 0, "fusion_lat": 0.0, "name": "f3b472bcd3bb2479609d751202c59a06", "fusion_lon": 0.0}, {"is_reserved": 0, "type": "electric_scooter", "bike_id": "1f0e62b31ba8db804c1f4d14ee8f300a", "lat": 38.86490233333333, "lon": -76.97743183333333, "rental_uris": {"android": "https://dc.lft.to/lastmile_qr_scan", "ios": "https://dc.lft.to/lastmile_qr_scan"}, "is_disabled": 0, "fusion_lat": 0.0, "name": "1f0e62b31ba8db804c1f4d14ee8f300a", "fusion_lon": 0.0}, {"is_reserved": 0, "type": "electric_scooter", "bike_id": "2b4f86b4ddd31f861babe5e078022b19", "lat": 38.894683666666666, "lon": -77.00258383333333, "rental_uris": {"android": "https://dc.lft.to/lastmile_qr_scan", "ios": "https://dc.lft.to/lastmile_qr_scan"}, "is_disabled": 0, "fusion_lat": 0.0, "name": "2b4f86b4ddd31f861babe5e078022b19", "fusion_lon": 0.0}, {"is_reserved": 0, "type": "electric_scooter", "bike_id": "1c2d13d77a5e76e338a0a08c166c5f81", "lat": 38.89342116666667, "lon": -77.04869366666667, "rental_uris": {"android": "https://dc.lft.to/lastmile_qr_scan", "ios": "https://dc.lft.to/lastmile_qr_scan"}, "is_disabled": 0, "fusion_lat": 0.0, "name": "1c2d13d77a5e76e338a0a08c166c5f81", "fusion_lon": 0.0}, {"is_reserved": 0, "type": "electric_scooter", "bike_id": "489f4b22da6956d91559d2267fdac24c", "lat": 38.926658833333335, "lon": -77.02594233333333, "rental_uris": {"android": "https://dc.lft.to/lastmile_qr_scan", "ios": "https://dc.lft.to/lastmile_qr_scan"}, "is_disabled": 0, "fusion_lat": 0.0, "name": "489f4b22da6956d91559d2267fdac24c", "fusion_lon": 0.0}, {"is_reserved": 0, "type": "electric_scooter", "bike_id": "25f60b79fa6c42f13b018423398fbac0", "lat": 38.89426483333333, "lon": -77.0559705, "rental_uris": {"android": "https://dc.lft.to/lastmile_qr_scan", "ios": "https://dc.lft.to/lastmile_qr_scan"}, "is_disabled": 0, "fusion_lat": 0.0, "name": "25f60b79fa6c42f13b018423398fbac0", "fusion_lon": 0.0}, {"is_reserved": 0, "type": "electric_scooter", "bike_id": "f9a1d04d8e8e89ed2659fe71d03e75be", "lat": 38.893514, "lon": -77.017321, "rental_uris": {"android": "https://dc.lft.to/lastmile_qr_scan", "ios": "https://dc.lft.to/lastmile_qr_scan"}, "is_disabled": 0, "fusion_lat": 0.0, "name": "f9a1d04d8e8e89ed2659fe71d03e75be", "fusion_lon": 0.0}, {"is_reserved": 0, "type": "electric_bike", "bike_id": "70345a96a0f4b9df4846bc96cb7c6466", "lat": 38.919918, "lon": -76.99277016666667, "rental_uris": {"android": "https://dc.lft.to/lastmile_qr_scan", "ios": "https://dc.lft.to/lastmile_qr_scan"}, "is_disabled": 0, "fusion_lat": 0.0, "name": "70345a96a0f4b9df4846bc96cb7c6466", "fusion_lon": 0.0}, {"is_reserved": 0, "type": "electric_bike", "bike_id": "772ea865bb3e8a0752a14fa1d51f8961", "lat": 38.855996833333336, "lon": -76.97452683333333, "rental_uris": {"android": "https://dc.lft.to/lastmile_qr_scan", "ios": "https://dc.lft.to/lastmile_qr_scan"}, "is_disabled": 0, "fusion_lat": 0.0, "name": "772ea865bb3e8a0752a14fa1d51f8961", "fusion_lon": 0.0}, {"is_reserved": 0, "type": "electric_scooter", "bike_id": "a5789c6f4301b0d885ee7df1a9396ca2", "lat": 38.910874, "lon": -77.0220365, "rental_uris": {"android": "https://dc.lft.to/lastmile_qr_scan", "ios": "https://dc.lft.to/lastmile_qr_scan"}, "is_disabled": 0, "fusion_lat": 0.0, "name": "a5789c6f4301b0d885ee7df1a9396ca2", "fusion_lon": 0.0}, {"is_reserved": 0, "type": "electric_scooter", "bike_id": "7269a850036903941ce58c015014b2fc", "lat": 38.914164, "lon": -77.03141016666666, "rental_uris": {"android": "https://dc.lft.to/lastmile_qr_scan", "ios": "https://dc.lft.to/lastmile_qr_scan"}, "is_disabled": 0, "fusion_lat": 0.0, "name": "7269a850036903941ce58c015014b2fc", "fusion_lon": 0.0}, {"is_reserved": 0, "type": "electric_scooter", "bike_id": "cc0c484e3e23db74cde4741373b8391b", "lat": 38.91909583333333, "lon": -77.03126016666667, "rental_uris": {"android": "https://dc.lft.to/lastmile_qr_scan", "ios": "https://dc.lft.to/lastmile_qr_scan"}, "is_disabled": 0, "fusion_lat": 0.0, "name": "cc0c484e3e23db74cde4741373b8391b", "fusion_lon": 0.0}, {"is_reserved": 0, "type": "electric_scooter", "bike_id": "15863a22a1d1453b84ff1fd1737804c2", "lat": 38.905695333333334, "lon": -77.00642433333333, "rental_uris": {"android": "https://dc.lft.to/lastmile_qr_scan", "ios": "https://dc.lft.to/lastmile_qr_scan"}, "is_disabled": 0, "fusion_lat": 0.0, "name": "15863a22a1d1453b84ff1fd1737804c2", "fusion_lon": 0.0}, {"is_reserved": 0, "type": "electric_scooter", "bike_id": "348f85547596dc5718ddf85a89ab7e6c", "lat": 38.9175135, "lon": -77.041572, "rental_uris": {"android": "https://dc.lft.to/lastmile_qr_scan", "ios": "https://dc.lft.to/lastmile_qr_scan"}, "is_disabled": 0, "fusion_lat": 0.0, "name": "348f85547596dc5718ddf85a89ab7e6c", "fusion_lon": 0.0}, {"is_reserved": 0, "type": "electric_scooter", "bike_id": "721cedaaa5501439e5cca3ceb8c211ea", "lat": 38.92134583333333, "lon": -77.04714183333333, "rental_uris": {"android": "https://dc.lft.to/lastmile_qr_scan", "ios": "https://dc.lft.to/lastmile_qr_scan"}, "is_disabled": 0, "fusion_lat": 0.0, "name": "721cedaaa5501439e5cca3ceb8c211ea", "fusion_lon": 0.0}, {"is_reserved": 0, "type": "electric_bike", "bike_id": "10cce0c213188793133b2bcff818ed7e", "lat": 38.857874833333334, "lon": -76.9875505, "rental_uris": {"android": "https://dc.lft.to/lastmile_qr_scan", "ios": "https://dc.lft.to/lastmile_qr_scan"}, "is_disabled": 0, "fusion_lat": 0.0, "name": "10cce0c213188793133b2bcff818ed7e", "fusion_lon": 0.0}, {"is_reserved": 0, "type": "electric_scooter", "bike_id": "90affd1e7f4a6d079244ec89f83ba7be", "lat": 38.884998833333334, "lon": -77.017666, "rental_uris": {"android": "https://dc.lft.to/lastmile_qr_scan", "ios": "https://dc.lft.to/lastmile_qr_scan"}, "is_disabled": 0, "fusion_lat": 0.0, "name": "90affd1e7f4a6d079244ec89f83ba7be", "fusion_lon": 0.0}, {"is_reserved": 0, "type": "electric_scooter", "bike_id": "9bdf6d61ac3b9dfe032e119bbf7b72dc", "lat": 38.907137166666665, "lon": -77.02504066666667, "rental_uris": {"android": "https://dc.lft.to/lastmile_qr_scan", "ios": "https://dc.lft.to/lastmile_qr_scan"}, "is_disabled": 0, "fusion_lat": 0.0, "name": "9bdf6d61ac3b9dfe032e119bbf7b72dc", "fusion_lon": 0.0}, {"is_reserved": 0, "type": "electric_scooter", "bike_id": "8dff36ddfb8ed9936369fcd13879cd39", "lat": 38.919611333333336, "lon": -77.01441933333334, "rental_uris": {"android": "https://dc.lft.to/lastmile_qr_scan", "ios": "https://dc.lft.to/lastmile_qr_scan"}, "is_disabled": 0, "fusion_lat": 0.0, "name": "8dff36ddfb8ed9936369fcd13879cd39", "fusion_lon": 0.0}, {"is_reserved": 0, "type": "electric_bike", "bike_id": "ee2714e204e94038d041736d42f9b872", "lat": 38.80671066666667, "lon": -77.0875795, "rental_uris": {"android": "https://dc.lft.to/lastmile_qr_scan", "ios": "https://dc.lft.to/lastmile_qr_scan"}, "is_disabled": 0, "fusion_lat": 0.0, "name": "ee2714e204e94038d041736d42f9b872", "fusion_lon": 0.0}, {"is_reserved": 0, "type": "electric_scooter", "bike_id": "a207acf2c8e1962b8b37d85cec1b285c", "lat": 38.89861883333333, "lon": -76.97759233333333, "rental_uris": {"android": "https://dc.lft.to/lastmile_qr_scan", "ios": "https://dc.lft.to/lastmile_qr_scan"}, "is_disabled": 0, "fusion_lat": 0.0, "name": "a207acf2c8e1962b8b37d85cec1b285c", "fusion_lon": 0.0}, {"is_reserved": 0, "type": "electric_bike", "bike_id": "3cbcffeae81c02a4c89e436a5a67a9f3", "lat": 38.9430535, "lon": -76.990233, "rental_uris": {"android": "https://dc.lft.to/lastmile_qr_scan", "ios": "https://dc.lft.to/lastmile_qr_scan"}, "is_disabled": 0, "fusion_lat": 0.0, "name": "3cbcffeae81c02a4c89e436a5a67a9f3", "fusion_lon": 0.0}, {"is_reserved": 0, "type": "electric_scooter", "bike_id": "a806ff65f013275e6b251a695828aa3a", "lat": 38.904946, "lon": -76.98870966666667, "rental_uris": {"android": "https://dc.lft.to/lastmile_qr_scan", "ios": "https://dc.lft.to/lastmile_qr_scan"}, "is_disabled": 0, "fusion_lat": 0.0, "name": "a806ff65f013275e6b251a695828aa3a", "fusion_lon": 0.0}, {"is_reserved": 0, "type": "electric_scooter", "bike_id": "db7dbb9968b677acd2a337bbd710cb76", "lat": 38.955192833333335, "lon": -77.02403516666666, "rental_uris": {"android": "https://dc.lft.to/lastmile_qr_scan", "ios": "https://dc.lft.to/lastmile_qr_scan"}, "is_disabled": 0, "fusion_lat": 0.0, "name": "db7dbb9968b677acd2a337bbd710cb76", "fusion_lon": 0.0}, {"is_reserved": 0, "type": "electric_bike", "bike_id": "4e042b49aebf9f37a1f64b632cccff48", "lat": 38.8720725, "lon": -77.1174195, "rental_uris": {"android": "https://dc.lft.to/lastmile_qr_scan", "ios": "https://dc.lft.to/lastmile_qr_scan"}, "is_disabled": 0, "fusion_lat": 0.0, "name": "4e042b49aebf9f37a1f64b632cccff48", "fusion_lon": 0.0}, {"is_reserved": 0, "type": "electric_scooter", "bike_id": "b5e4be0c6bee6971d7ed28d372e0f780", "lat": 38.90574633333333, "lon": -77.036475, "rental_uris": {"android": "https://dc.lft.to/lastmile_qr_scan", "ios": "https://dc.lft.to/lastmile_qr_scan"}, "is_disabled": 0, "fusion_lat": 0.0, "name": "b5e4be0c6bee6971d7ed28d372e0f780", "fusion_lon": 0.0}, {"is_reserved": 0, "type": "electric_scooter", "bike_id": "3c02ddce559ca1ff5724a0fd1db8949b", "lat": 38.897435333333334, "lon": -76.9976675, "rental_uris": {"android": "https://dc.lft.to/lastmile_qr_scan", "ios": "https://dc.lft.to/lastmile_qr_scan"}, "is_disabled": 0, "fusion_lat": 0.0, "name": "3c02ddce559ca1ff5724a0fd1db8949b", "fusion_lon": 0.0}, {"is_reserved": 0, "type": "electric_scooter", "bike_id": "cdf47f7059e5bb6575da764840f162d5", "lat": 38.915472, "lon": -77.03989083333333, "rental_uris": {"android": "https://dc.lft.to/lastmile_qr_scan", "ios": "https://dc.lft.to/lastmile_qr_scan"}, "is_disabled": 0, "fusion_lat": 0.0, "name": "cdf47f7059e5bb6575da764840f162d5", "fusion_lon": 0.0}, {"is_reserved": 0, "type": "electric_scooter", "bike_id": "778eaaaebcb510e840cdd372c7e67fbf", "lat": 38.91634783333333, "lon": -77.02367316666667, "rental_uris": {"android": "https://dc.lft.to/lastmile_qr_scan", "ios": "https://dc.lft.to/lastmile_qr_scan"}, "is_disabled": 0, "fusion_lat": 0.0, "name": "778eaaaebcb510e840cdd372c7e67fbf", "fusion_lon": 0.0}, {"is_reserved": 0, "type": "electric_scooter", "bike_id": "5bdf655114ee4a891d2685acac910b67", "lat": 38.904233166666664, "lon": -77.02506366666667, "rental_uris": {"android": "https://dc.lft.to/lastmile_qr_scan", "ios": "https://dc.lft.to/lastmile_qr_scan"}, "is_disabled": 0, "fusion_lat": 0.0, "name": "5bdf655114ee4a891d2685acac910b67", "fusion_lon": 0.0}, {"is_reserved": 0, "type": "electric_scooter", "bike_id": "dc4bfe845b911f9921b22fc9e437dbf9", "lat": 38.906664, "lon": -77.0271355, "rental_uris": {"android": "https://dc.lft.to/lastmile_qr_scan", "ios": "https://dc.lft.to/lastmile_qr_scan"}, "is_disabled": 0, "fusion_lat": 0.0, "name": "dc4bfe845b911f9921b22fc9e437dbf9", "fusion_lon": 0.0}, {"is_reserved": 0, "type": "electric_bike", "bike_id": "901083db09654b9f3f0279e50ffe966c", "lat": 38.946658666666664, "lon": -76.993302, "rental_uris": {"android": "https://dc.lft.to/lastmile_qr_scan", "ios": "https://dc.lft.to/lastmile_qr_scan"}, "is_disabled": 0, "fusion_lat": 0.0, "name": "901083db09654b9f3f0279e50ffe966c", "fusion_lon": 0.0}, {"is_reserved": 0, "type": "electric_scooter", "bike_id": "91da604de2ae726badb71b07ec693021", "lat": 38.91405183333333, "lon": -77.0224725, "rental_uris": {"android": "https://dc.lft.to/lastmile_qr_scan", "ios": "https://dc.lft.to/lastmile_qr_scan"}, "is_disabled": 0, "fusion_lat": 0.0, "name": "91da604de2ae726badb71b07ec693021", "fusion_lon": 0.0}, {"is_reserved": 0, "type": "electric_scooter", "bike_id": "299f580558b74dd1b80614d8899fd93f", "lat": 38.933272, "lon": -77.02913516666666, "rental_uris": {"android": "https://dc.lft.to/lastmile_qr_scan", "ios": "https://dc.lft.to/lastmile_qr_scan"}, "is_disabled": 0, "fusion_lat": 0.0, "name": "299f580558b74dd1b80614d8899fd93f", "fusion_lon": 0.0}, {"is_reserved": 0, "type": "electric_scooter", "bike_id": "e8b042d3938ae28aa8b492e964faf072", "lat": 38.89227833333333, "lon": -77.050005, "rental_uris": {"android": "https://dc.lft.to/lastmile_qr_scan", "ios": "https://dc.lft.to/lastmile_qr_scan"}, "is_disabled": 0, "fusion_lat": 0.0, "name": "e8b042d3938ae28aa8b492e964faf072", "fusion_lon": 0.0}, {"is_reserved": 0, "type": "electric_scooter", "bike_id": "2e12d188996483a049bf9c5a648d22f5", "lat": 38.92677716666667, "lon": -77.00873016666667, "rental_uris": {"android": "https://dc.lft.to/lastmile_qr_scan", "ios": "https://dc.lft.to/lastmile_qr_scan"}, "is_disabled": 0, "fusion_lat": 0.0, "name": "2e12d188996483a049bf9c5a648d22f5", "fusion_lon": 0.0}, {"is_reserved": 0, "type": "electric_scooter", "bike_id": "246e6821b1ce423a6ba1ff72220336d2", "lat": 38.905146, "lon": -77.06037366666666, "rental_uris": {"android": "https://dc.lft.to/lastmile_qr_scan", "ios": "https://dc.lft.to/lastmile_qr_scan"}, "is_disabled": 0, "fusion_lat": 0.0, "name": "246e6821b1ce423a6ba1ff72220336d2", "fusion_lon": 0.0}, {"is_reserved": 0, "type": "electric_scooter", "bike_id": "41b30e4db4f4d48ef75f2ca574f8b6d4", "lat": 38.94975016666667, "lon": -77.024489, "rental_uris": {"android": "https://dc.lft.to/lastmile_qr_scan", "ios": "https://dc.lft.to/lastmile_qr_scan"}, "is_disabled": 0, "fusion_lat": 0.0, "name": "41b30e4db4f4d48ef75f2ca574f8b6d4", "fusion_lon": 0.0}, {"is_reserved": 0, "type": "electric_scooter", "bike_id": "f0c65d794499d37d6aa8622fb957b81b", "lat": 38.87655633333333, "lon": -77.00759233333333, "rental_uris": {"android": "https://dc.lft.to/lastmile_qr_scan", "ios": "https://dc.lft.to/lastmile_qr_scan"}, "is_disabled": 0, "fusion_lat": 0.0, "name": "f0c65d794499d37d6aa8622fb957b81b", "fusion_lon": 0.0}, {"is_reserved": 0, "type": "electric_scooter", "bike_id": "f580f5de76f80f06635c8a862fef77ff", "lat": 38.88964633333333, "lon": -76.9883815, "rental_uris": {"android": "https://dc.lft.to/lastmile_qr_scan", "ios": "https://dc.lft.to/lastmile_qr_scan"}, "is_disabled": 0, "fusion_lat": 0.0, "name": "f580f5de76f80f06635c8a862fef77ff", "fusion_lon": 0.0}, {"is_reserved": 0, "type": "electric_bike", "bike_id": "7218900ab7d4913b54b2f26e994ae42e", "lat": 38.98826733333333, "lon": -77.026542, "rental_uris": {"android": "https://dc.lft.to/lastmile_qr_scan", "ios": "https://dc.lft.to/lastmile_qr_scan"}, "is_disabled": 0, "fusion_lat": 0.0, "name": "7218900ab7d4913b54b2f26e994ae42e", "fusion_lon": 0.0}, {"is_reserved": 0, "type": "electric_scooter", "bike_id": "9a1f95c92ff39a44e967dac0a24bc64a", "lat": 38.90063, "lon": -77.04882433333333, "rental_uris": {"android": "https://dc.lft.to/lastmile_qr_scan", "ios": "https://dc.lft.to/lastmile_qr_scan"}, "is_disabled": 0, "fusion_lat": 0.0, "name": "9a1f95c92ff39a44e967dac0a24bc64a", "fusion_lon": 0.0}, {"is_reserved": 0, "type": "electric_bike", "bike_id": "fd16b07132781e6ba105bef423dfb2c1", "lat": 38.92132483333334, "lon": -77.00401116666667, "rental_uris": {"android": "https://dc.lft.to/lastmile_qr_scan", "ios": "https://dc.lft.to/lastmile_qr_scan"}, "is_disabled": 0, "fusion_lat": 0.0, "name": "fd16b07132781e6ba105bef423dfb2c1", "fusion_lon": 0.0}, {"is_reserved": 0, "type": "electric_scooter", "bike_id": "02b9d974712aa2085dc20a8a8fa55e72", "lat": 38.905011, "lon": -77.02966416666666, "rental_uris": {"android": "https://dc.lft.to/lastmile_qr_scan", "ios": "https://dc.lft.to/lastmile_qr_scan"}, "is_disabled": 0, "fusion_lat": 0.0, "name": "02b9d974712aa2085dc20a8a8fa55e72", "fusion_lon": 0.0}, {"is_reserved": 0, "type": "electric_scooter", "bike_id": "be19901e8cd0698027911e986c158563", "lat": 38.902126833333334, "lon": -77.02165716666667, "rental_uris": {"android": "https://dc.lft.to/lastmile_qr_scan", "ios": "https://dc.lft.to/lastmile_qr_scan"}, "is_disabled": 0, "fusion_lat": 0.0, "name": "be19901e8cd0698027911e986c158563", "fusion_lon": 0.0}, {"is_reserved": 0, "type": "electric_bike", "bike_id": "acda2f9197c4a93bdd027a162b31811a", "lat": 38.8734, "lon": -77.01856583333333, "rental_uris": {"android": "https://dc.lft.to/lastmile_qr_scan", "ios": "https://dc.lft.to/lastmile_qr_scan"}, "is_disabled": 0, "fusion_lat": 0.0, "name": "acda2f9197c4a93bdd027a162b31811a", "fusion_lon": 0.0}, {"is_reserved": 0, "type": "electric_scooter", "bike_id": "4ac4d9e0f4e0e31b4334601f80e7db85", "lat": 38.92668233333333, "lon": -77.03201716666666, "rental_uris": {"android": "https://dc.lft.to/lastmile_qr_scan", "ios": "https://dc.lft.to/lastmile_qr_scan"}, "is_disabled": 0, "fusion_lat": 0.0, "name": "4ac4d9e0f4e0e31b4334601f80e7db85", "fusion_lon": 0.0}, {"is_reserved": 0, "type": "electric_scooter", "bike_id": "1c2eae6b5f250232197f281da59aa572", "lat": 38.872947333333336, "lon": -77.0107495, "rental_uris": {"android": "https://dc.lft.to/lastmile_qr_scan", "ios": "https://dc.lft.to/lastmile_qr_scan"}, "is_disabled": 0, "fusion_lat": 0.0, "name": "1c2eae6b5f250232197f281da59aa572", "fusion_lon": 0.0}, {"is_reserved": 0, "type": "electric_scooter", "bike_id": "4a7ce557b9de699dd59ac68f2254fcd0", "lat": 38.90099266666667, "lon": -77.05786416666666, "rental_uris": {"android": "https://dc.lft.to/lastmile_qr_scan", "ios": "https://dc.lft.to/lastmile_qr_scan"}, "is_disabled": 0, "fusion_lat": 0.0, "name": "4a7ce557b9de699dd59ac68f2254fcd0", "fusion_lon": 0.0}, {"is_reserved": 0, "type": "electric_scooter", "bike_id": "8c423edfc92967b318bde051a1ff432d", "lat": 38.893408, "lon": -77.04869416666666, "rental_uris": {"android": "https://dc.lft.to/lastmile_qr_scan", "ios": "https://dc.lft.to/lastmile_qr_scan"}, "is_disabled": 0, "fusion_lat": 0.0, "name": "8c423edfc92967b318bde051a1ff432d", "fusion_lon": 0.0}, {"is_reserved": 0, "type": "electric_scooter", "bike_id": "f3721fe018e602dc9f709186afc7a06e", "lat": 38.89310566666666, "lon": -77.01211416666666, "rental_uris": {"android": "https://dc.lft.to/lastmile_qr_scan", "ios": "https://dc.lft.to/lastmile_qr_scan"}, "is_disabled": 0, "fusion_lat": 0.0, "name": "f3721fe018e602dc9f709186afc7a06e", "fusion_lon": 0.0}, {"is_reserved": 0, "type": "electric_scooter", "bike_id": "c4fb78a15d10e0b9da722fdf19ead650", "lat": 38.93119766666667, "lon": -77.0388145, "rental_uris": {"android": "https://dc.lft.to/lastmile_qr_scan", "ios": "https://dc.lft.to/lastmile_qr_scan"}, "is_disabled": 0, "fusion_lat": 0.0, "name": "c4fb78a15d10e0b9da722fdf19ead650", "fusion_lon": 0.0}, {"is_reserved": 0, "type": "electric_scooter", "bike_id": "314247259aaf040fbf4a143560557d8c", "lat": 38.8963625, "lon": -77.00925666666667, "rental_uris": {"android": "https://dc.lft.to/lastmile_qr_scan", "ios": "https://dc.lft.to/lastmile_qr_scan"}, "is_disabled": 0, "fusion_lat": 0.0, "name": "314247259aaf040fbf4a143560557d8c", "fusion_lon": 0.0}, {"is_reserved": 0, "type": "electric_bike", "bike_id": "684b6493737c62ffd2e02649653a012c", "lat": 38.942652833333334, "lon": -76.9907265, "rental_uris": {"android": "https://dc.lft.to/lastmile_qr_scan", "ios": "https://dc.lft.to/lastmile_qr_scan"}, "is_disabled": 0, "fusion_lat": 0.0, "name": "684b6493737c62ffd2e02649653a012c", "fusion_lon": 0.0}, {"is_reserved": 0, "type": "electric_scooter", "bike_id": "ef06b248ef4ba31c528a7a7b7aa21c05", "lat": 38.896048666666665, "lon": -77.0299685, "rental_uris": {"android": "https://dc.lft.to/lastmile_qr_scan", "ios": "https://dc.lft.to/lastmile_qr_scan"}, "is_disabled": 0, "fusion_lat": 0.0, "name": "ef06b248ef4ba31c528a7a7b7aa21c05", "fusion_lon": 0.0}, {"is_reserved": 0, "type": "electric_scooter", "bike_id": "38cfaf0582e84ab8b6a30852f7275aba", "lat": 38.89635366666667, "lon": -76.9279955, "rental_uris": {"android": "https://dc.lft.to/lastmile_qr_scan", "ios": "https://dc.lft.to/lastmile_qr_scan"}, "is_disabled": 0, "fusion_lat": 0.0, "name": "38cfaf0582e84ab8b6a30852f7275aba", "fusion_lon": 0.0}, {"is_reserved": 0, "type": "electric_bike", "bike_id": "4d095a38d400f4e253808c0d9f91757f", "lat": 38.90347466666667, "lon": -77.0507125, "rental_uris": {"android": "https://dc.lft.to/lastmile_qr_scan", "ios": "https://dc.lft.to/lastmile_qr_scan"}, "is_disabled": 0, "fusion_lat": 0.0, "name": "4d095a38d400f4e253808c0d9f91757f", "fusion_lon": 0.0}, {"is_reserved": 0, "type": "electric_scooter", "bike_id": "91858cbedfdf92e227efb5fd953e57a6", "lat": 38.907609, "lon": -77.03210366666667, "rental_uris": {"android": "https://dc.lft.to/lastmile_qr_scan", "ios": "https://dc.lft.to/lastmile_qr_scan"}, "is_disabled": 0, "fusion_lat": 0.0, "name": "91858cbedfdf92e227efb5fd953e57a6", "fusion_lon": 0.0}, {"is_reserved": 0, "type": "electric_scooter", "bike_id": "131f0e7966f6b7f87094f83afbce8bf4", "lat": 38.959161333333334, "lon": -77.0001705, "rental_uris": {"android": "https://dc.lft.to/lastmile_qr_scan", "ios": "https://dc.lft.to/lastmile_qr_scan"}, "is_disabled": 0, "fusion_lat": 0.0, "name": "131f0e7966f6b7f87094f83afbce8bf4", "fusion_lon": 0.0}, {"is_reserved": 0, "type": "electric_bike", "bike_id": "3f2df0fba5b7f37a04c8ec1f14bd3ba4", "lat": 38.89939066666667, "lon": -77.03922883333334, "rental_uris": {"android": "https://dc.lft.to/lastmile_qr_scan", "ios": "https://dc.lft.to/lastmile_qr_scan"}, "is_disabled": 0, "fusion_lat": 0.0, "name": "3f2df0fba5b7f37a04c8ec1f14bd3ba4", "fusion_lon": 0.0}, {"is_reserved": 0, "type": "electric_scooter", "bike_id": "c492d65bdbb84f91290584cb215b2256", "lat": 38.94593033333334, "lon": -77.0202905, "rental_uris": {"android": "https://dc.lft.to/lastmile_qr_scan", "ios": "https://dc.lft.to/lastmile_qr_scan"}, "is_disabled": 0, "fusion_lat": 0.0, "name": "c492d65bdbb84f91290584cb215b2256", "fusion_lon": 0.0}, {"is_reserved": 0, "type": "electric_scooter", "bike_id": "baba2c41aba7c1d0b2f4310099df469b", "lat": 38.903865833333334, "lon": -77.001993, "rental_uris": {"android": "https://dc.lft.to/lastmile_qr_scan", "ios": "https://dc.lft.to/lastmile_qr_scan"}, "is_disabled": 0, "fusion_lat": 0.0, "name": "baba2c41aba7c1d0b2f4310099df469b", "fusion_lon": 0.0}, {"is_reserved": 0, "type": "electric_scooter", "bike_id": "c1d35ab325cb246d312e84179a9d58a2", "lat": 38.91135716666667, "lon": -77.03658366666667, "rental_uris": {"android": "https://dc.lft.to/lastmile_qr_scan", "ios": "https://dc.lft.to/lastmile_qr_scan"}, "is_disabled": 0, "fusion_lat": 0.0, "name": "c1d35ab325cb246d312e84179a9d58a2", "fusion_lon": 0.0}, {"is_reserved": 0, "type": "electric_scooter", "bike_id": "4b7e50b1c3def41db95d7c02371a8de4", "lat": 38.905194333333334, "lon": -76.98404483333333, "rental_uris": {"android": "https://dc.lft.to/lastmile_qr_scan", "ios": "https://dc.lft.to/lastmile_qr_scan"}, "is_disabled": 0, "fusion_lat": 0.0, "name": "4b7e50b1c3def41db95d7c02371a8de4", "fusion_lon": 0.0}, {"is_reserved": 0, "type": "electric_scooter", "bike_id": "a0677e751a8139c977ebe15163201b6a", "lat": 38.912253, "lon": -76.98707033333334, "rental_uris": {"android": "https://dc.lft.to/lastmile_qr_scan", "ios": "https://dc.lft.to/lastmile_qr_scan"}, "is_disabled": 0, "fusion_lat": 0.0, "name": "a0677e751a8139c977ebe15163201b6a", "fusion_lon": 0.0}, {"is_reserved": 0, "type": "electric_scooter", "bike_id": "650ffded6a90bee3aa6e7efaa51dae3f", "lat": 38.945113, "lon": -77.02979683333334, "rental_uris": {"android": "https://dc.lft.to/lastmile_qr_scan", "ios": "https://dc.lft.to/lastmile_qr_scan"}, "is_disabled": 0, "fusion_lat": 0.0, "name": "650ffded6a90bee3aa6e7efaa51dae3f", "fusion_lon": 0.0}, {"is_reserved": 0, "type": "electric_scooter", "bike_id": "7974a7fda2381fef1dbad150235a361d", "lat": 38.929692833333334, "lon": -77.054999, "rental_uris": {"android": "https://dc.lft.to/lastmile_qr_scan", "ios": "https://dc.lft.to/lastmile_qr_scan"}, "is_disabled": 0, "fusion_lat": 0.0, "name": "7974a7fda2381fef1dbad150235a361d", "fusion_lon": 0.0}, {"is_reserved": 0, "type": "electric_scooter", "bike_id": "b281bc5041d7651683d27a04a9465bce", "lat": 38.9236315, "lon": -77.01918933333333, "rental_uris": {"android": "https://dc.lft.to/lastmile_qr_scan", "ios": "https://dc.lft.to/lastmile_qr_scan"}, "is_disabled": 0, "fusion_lat": 0.0, "name": "b281bc5041d7651683d27a04a9465bce", "fusion_lon": 0.0}, {"is_reserved": 0, "type": "electric_scooter", "bike_id": "170f08905fb3bb74ddbccb04fc94d13e", "lat": 38.930560166666666, "lon": -77.02967216666667, "rental_uris": {"android": "https://dc.lft.to/lastmile_qr_scan", "ios": "https://dc.lft.to/lastmile_qr_scan"}, "is_disabled": 0, "fusion_lat": 0.0, "name": "170f08905fb3bb74ddbccb04fc94d13e", "fusion_lon": 0.0}, {"is_reserved": 0, "type": "electric_scooter", "bike_id": "082c278fe3f6441eb23735f5aeec7b80", "lat": 38.8921375, "lon": -77.0170575, "rental_uris": {"android": "https://dc.lft.to/lastmile_qr_scan", "ios": "https://dc.lft.to/lastmile_qr_scan"}, "is_disabled": 0, "fusion_lat": 0.0, "name": "082c278fe3f6441eb23735f5aeec7b80", "fusion_lon": 0.0}, {"is_reserved": 0, "type": "electric_scooter", "bike_id": "36be6fab284ae39d665e1f4c0dd5b4b7", "lat": 38.925522, "lon": -76.98146083333333, "rental_uris": {"android": "https://dc.lft.to/lastmile_qr_scan", "ios": "https://dc.lft.to/lastmile_qr_scan"}, "is_disabled": 0, "fusion_lat": 0.0, "name": "36be6fab284ae39d665e1f4c0dd5b4b7", "fusion_lon": 0.0}, {"is_reserved": 0, "type": "electric_scooter", "bike_id": "d0fd676161332bc19a2d980dd943585f", "lat": 38.9043985, "lon": -77.06269133333333, "rental_uris": {"android": "https://dc.lft.to/lastmile_qr_scan", "ios": "https://dc.lft.to/lastmile_qr_scan"}, "is_disabled": 0, "fusion_lat": 0.0, "name": "d0fd676161332bc19a2d980dd943585f", "fusion_lon": 0.0}, {"is_reserved": 0, "type": "electric_scooter", "bike_id": "ffa4a20de963c302dfbce9f2bb284cf1", "lat": 38.87281633333333, "lon": -77.00985483333334, "rental_uris": {"android": "https://dc.lft.to/lastmile_qr_scan", "ios": "https://dc.lft.to/lastmile_qr_scan"}, "is_disabled": 0, "fusion_lat": 0.0, "name": "ffa4a20de963c302dfbce9f2bb284cf1", "fusion_lon": 0.0}, {"is_reserved": 0, "type": "electric_scooter", "bike_id": "8402937dcadc8b3607acd8f62bad0c58", "lat": 38.9336865, "lon": -77.020328, "rental_uris": {"android": "https://dc.lft.to/lastmile_qr_scan", "ios": "https://dc.lft.to/lastmile_qr_scan"}, "is_disabled": 0, "fusion_lat": 0.0, "name": "8402937dcadc8b3607acd8f62bad0c58", "fusion_lon": 0.0}, {"is_reserved": 0, "type": "electric_scooter", "bike_id": "1b3e5a617760854585e2663fa99b2933", "lat": 38.91410366666667, "lon": -77.022454, "rental_uris": {"android": "https://dc.lft.to/lastmile_qr_scan", "ios": "https://dc.lft.to/lastmile_qr_scan"}, "is_disabled": 0, "fusion_lat": 0.0, "name": "1b3e5a617760854585e2663fa99b2933", "fusion_lon": 0.0}, {"is_reserved": 0, "type": "electric_scooter", "bike_id": "d59f8a5850178f63778f44eeee9ec2b2", "lat": 38.912227333333334, "lon": -77.0112115, "rental_uris": {"android": "https://dc.lft.to/lastmile_qr_scan", "ios": "https://dc.lft.to/lastmile_qr_scan"}, "is_disabled": 0, "fusion_lat": 0.0, "name": "d59f8a5850178f63778f44eeee9ec2b2", "fusion_lon": 0.0}, {"is_reserved": 0, "type": "electric_scooter", "bike_id": "bd0dc67e9beb9392e527eff8fe325f7e", "lat": 38.9432045, "lon": -77.07574783333334, "rental_uris": {"android": "https://dc.lft.to/lastmile_qr_scan", "ios": "https://dc.lft.to/lastmile_qr_scan"}, "is_disabled": 0, "fusion_lat": 0.0, "name": "bd0dc67e9beb9392e527eff8fe325f7e", "fusion_lon": 0.0}, {"is_reserved": 0, "type": "electric_scooter", "bike_id": "baba1c244118b50e1aabfbd650d00c7f", "lat": 38.89480183333333, "lon": -77.049515, "rental_uris": {"android": "https://dc.lft.to/lastmile_qr_scan", "ios": "https://dc.lft.to/lastmile_qr_scan"}, "is_disabled": 0, "fusion_lat": 0.0, "name": "baba1c244118b50e1aabfbd650d00c7f", "fusion_lon": 0.0}, {"is_reserved": 0, "type": "electric_scooter", "bike_id": "37ee357194b28db53ce4a5f8b6f70145", "lat": 38.926083, "lon": -77.05699766666666, "rental_uris": {"android": "https://dc.lft.to/lastmile_qr_scan", "ios": "https://dc.lft.to/lastmile_qr_scan"}, "is_disabled": 0, "fusion_lat": 0.0, "name": "37ee357194b28db53ce4a5f8b6f70145", "fusion_lon": 0.0}, {"is_reserved": 0, "type": "electric_scooter", "bike_id": "4d4e2c83049c0f6113c13b9b1ffe69be", "lat": 38.92892916666667, "lon": -77.032555, "rental_uris": {"android": "https://dc.lft.to/lastmile_qr_scan", "ios": "https://dc.lft.to/lastmile_qr_scan"}, "is_disabled": 0, "fusion_lat": 0.0, "name": "4d4e2c83049c0f6113c13b9b1ffe69be", "fusion_lon": 0.0}, {"is_reserved": 0, "type": "electric_scooter", "bike_id": "ab4d1321bfb3b4b7c7e20bbd6de6eaca", "lat": 38.91636966666667, "lon": -77.0210185, "rental_uris": {"android": "https://dc.lft.to/lastmile_qr_scan", "ios": "https://dc.lft.to/lastmile_qr_scan"}, "is_disabled": 0, "fusion_lat": 0.0, "name": "ab4d1321bfb3b4b7c7e20bbd6de6eaca", "fusion_lon": 0.0}, {"is_reserved": 0, "type": "electric_bike", "bike_id": "1be5bfb1691465426ddf9473020d38e6", "lat": 38.972744666666664, "lon": -77.0364755, "rental_uris": {"android": "https://dc.lft.to/lastmile_qr_scan", "ios": "https://dc.lft.to/lastmile_qr_scan"}, "is_disabled": 0, "fusion_lat": 0.0, "name": "1be5bfb1691465426ddf9473020d38e6", "fusion_lon": 0.0}, {"is_reserved": 0, "type": "electric_bike", "bike_id": "90fbbbb3d82a84894b5e70a4d09dcf3a", "lat": 38.802574, "lon": -77.12172, "rental_uris": {"android": "https://dc.lft.to/lastmile_qr_scan", "ios": "https://dc.lft.to/lastmile_qr_scan"}, "is_disabled": 0, "fusion_lat": 0.0, "name": "90fbbbb3d82a84894b5e70a4d09dcf3a", "fusion_lon": 0.0}, {"is_reserved": 0, "type": "electric_scooter", "bike_id": "588167b04def2605d270de1e9cb4f58d", "lat": 38.92156516666667, "lon": -77.033549, "rental_uris": {"android": "https://dc.lft.to/lastmile_qr_scan", "ios": "https://dc.lft.to/lastmile_qr_scan"}, "is_disabled": 0, "fusion_lat": 0.0, "name": "588167b04def2605d270de1e9cb4f58d", "fusion_lon": 0.0}, {"is_reserved": 0, "type": "electric_scooter", "bike_id": "5f5ac0a10bcf1f13ccd96066ac8722ec", "lat": 38.90507483333333, "lon": -77.06379483333333, "rental_uris": {"android": "https://dc.lft.to/lastmile_qr_scan", "ios": "https://dc.lft.to/lastmile_qr_scan"}, "is_disabled": 0, "fusion_lat": 0.0, "name": "5f5ac0a10bcf1f13ccd96066ac8722ec", "fusion_lon": 0.0}, {"is_reserved": 0, "type": "electric_scooter", "bike_id": "d890c36129344f4e7dc5cc321de88f56", "lat": 38.876070666666664, "lon": -76.96563283333333, "rental_uris": {"android": "https://dc.lft.to/lastmile_qr_scan", "ios": "https://dc.lft.to/lastmile_qr_scan"}, "is_disabled": 0, "fusion_lat": 0.0, "name": "d890c36129344f4e7dc5cc321de88f56", "fusion_lon": 0.0}, {"is_reserved": 0, "type": "electric_scooter", "bike_id": "9e66eedd82f0f73dd6b4c2c9c9b5988d", "lat": 38.928204666666666, "lon": -77.05439016666666, "rental_uris": {"android": "https://dc.lft.to/lastmile_qr_scan", "ios": "https://dc.lft.to/lastmile_qr_scan"}, "is_disabled": 0, "fusion_lat": 0.0, "name": "9e66eedd82f0f73dd6b4c2c9c9b5988d", "fusion_lon": 0.0}, {"is_reserved": 0, "type": "electric_scooter", "bike_id": "e9e2b515b7bdefe1b19cd3db447e1309", "lat": 38.90591666666667, "lon": -77.07228683333334, "rental_uris": {"android": "https://dc.lft.to/lastmile_qr_scan", "ios": "https://dc.lft.to/lastmile_qr_scan"}, "is_disabled": 0, "fusion_lat": 0.0, "name": "e9e2b515b7bdefe1b19cd3db447e1309", "fusion_lon": 0.0}, {"is_reserved": 0, "type": "electric_scooter", "bike_id": "2e97596603dad2d6d46ca9859e9184b8", "lat": 38.91979033333333, "lon": -77.04073016666666, "rental_uris": {"android": "https://dc.lft.to/lastmile_qr_scan", "ios": "https://dc.lft.to/lastmile_qr_scan"}, "is_disabled": 0, "fusion_lat": 0.0, "name": "2e97596603dad2d6d46ca9859e9184b8", "fusion_lon": 0.0}, {"is_reserved": 0, "type": "electric_scooter", "bike_id": "a87d85fe01c0f712ca9cd66040fe6fbe", "lat": 38.8744165, "lon": -77.00924733333333, "rental_uris": {"android": "https://dc.lft.to/lastmile_qr_scan", "ios": "https://dc.lft.to/lastmile_qr_scan"}, "is_disabled": 0, "fusion_lat": 0.0, "name": "a87d85fe01c0f712ca9cd66040fe6fbe", "fusion_lon": 0.0}, {"is_reserved": 0, "type": "electric_scooter", "bike_id": "92f0bb288dbe18f300cfd11f4eb46b70", "lat": 38.90998333333334, "lon": -77.0449765, "rental_uris": {"android": "https://dc.lft.to/lastmile_qr_scan", "ios": "https://dc.lft.to/lastmile_qr_scan"}, "is_disabled": 0, "fusion_lat": 0.0, "name": "92f0bb288dbe18f300cfd11f4eb46b70", "fusion_lon": 0.0}, {"is_reserved": 0, "type": "electric_scooter", "bike_id": "fb36059f74dc36d2729c33821affa7c9", "lat": 38.90027383333333, "lon": -77.03623016666667, "rental_uris": {"android": "https://dc.lft.to/lastmile_qr_scan", "ios": "https://dc.lft.to/lastmile_qr_scan"}, "is_disabled": 0, "fusion_lat": 0.0, "name": "fb36059f74dc36d2729c33821affa7c9", "fusion_lon": 0.0}, {"is_reserved": 0, "type": "electric_scooter", "bike_id": "ec7bdadf223c6ca1d231dff5739c6c0c", "lat": 38.93741333333333, "lon": -77.0325595, "rental_uris": {"android": "https://dc.lft.to/lastmile_qr_scan", "ios": "https://dc.lft.to/lastmile_qr_scan"}, "is_disabled": 0, "fusion_lat": 0.0, "name": "ec7bdadf223c6ca1d231dff5739c6c0c", "fusion_lon": 0.0}, {"is_reserved": 0, "type": "electric_scooter", "bike_id": "0e5e5d37afedf74160b9d8101612ffe0", "lat": 38.9430895, "lon": -77.02177066666667, "rental_uris": {"android": "https://dc.lft.to/lastmile_qr_scan", "ios": "https://dc.lft.to/lastmile_qr_scan"}, "is_disabled": 0, "fusion_lat": 0.0, "name": "0e5e5d37afedf74160b9d8101612ffe0", "fusion_lon": 0.0}, {"is_reserved": 0, "type": "electric_scooter", "bike_id": "e9588cadaa6fdb002d2d1480313b8d37", "lat": 38.8992205, "lon": -77.0268635, "rental_uris": {"android": "https://dc.lft.to/lastmile_qr_scan", "ios": "https://dc.lft.to/lastmile_qr_scan"}, "is_disabled": 0, "fusion_lat": 0.0, "name": "e9588cadaa6fdb002d2d1480313b8d37", "fusion_lon": 0.0}, {"is_reserved": 0, "type": "electric_scooter", "bike_id": "b846077df2b8e92f0cbe524347573ac5", "lat": 38.92026633333333, "lon": -77.01033083333333, "rental_uris": {"android": "https://dc.lft.to/lastmile_qr_scan", "ios": "https://dc.lft.to/lastmile_qr_scan"}, "is_disabled": 0, "fusion_lat": 0.0, "name": "b846077df2b8e92f0cbe524347573ac5", "fusion_lon": 0.0}, {"is_reserved": 0, "type": "electric_scooter", "bike_id": "0543a926e375b3df30c1a58da0d17304", "lat": 38.900789, "lon": -77.029983, "rental_uris": {"android": "https://dc.lft.to/lastmile_qr_scan", "ios": "https://dc.lft.to/lastmile_qr_scan"}, "is_disabled": 0, "fusion_lat": 0.0, "name": "0543a926e375b3df30c1a58da0d17304", "fusion_lon": 0.0}, {"is_reserved": 0, "type": "electric_scooter", "bike_id": "6f5649b0f77bdd357a0f936608caaa91", "lat": 38.90120983333333, "lon": -77.03362233333333, "rental_uris": {"android": "https://dc.lft.to/lastmile_qr_scan", "ios": "https://dc.lft.to/lastmile_qr_scan"}, "is_disabled": 0, "fusion_lat": 0.0, "name": "6f5649b0f77bdd357a0f936608caaa91", "fusion_lon": 0.0}, {"is_reserved": 0, "type": "electric_scooter", "bike_id": "98b4e25fc9a23666a00f069ff78c540a", "lat": 38.91406383333333, "lon": -77.02246166666667, "rental_uris": {"android": "https://dc.lft.to/lastmile_qr_scan", "ios": "https://dc.lft.to/lastmile_qr_scan"}, "is_disabled": 0, "fusion_lat": 0.0, "name": "98b4e25fc9a23666a00f069ff78c540a", "fusion_lon": 0.0}, {"is_reserved": 0, "type": "electric_scooter", "bike_id": "10359a852e776afea6edd3288ae359a1", "lat": 38.91920733333333, "lon": -77.0491855, "rental_uris": {"android": "https://dc.lft.to/lastmile_qr_scan", "ios": "https://dc.lft.to/lastmile_qr_scan"}, "is_disabled": 0, "fusion_lat": 0.0, "name": "10359a852e776afea6edd3288ae359a1", "fusion_lon": 0.0}, {"is_reserved": 0, "type": "electric_scooter", "bike_id": "8c3a54347a0a6a54759ced9f5e9d5394", "lat": 38.89896233333333, "lon": -76.97996633333334, "rental_uris": {"android": "https://dc.lft.to/lastmile_qr_scan", "ios": "https://dc.lft.to/lastmile_qr_scan"}, "is_disabled": 0, "fusion_lat": 0.0, "name": "8c3a54347a0a6a54759ced9f5e9d5394", "fusion_lon": 0.0}, {"is_reserved": 0, "type": "electric_scooter", "bike_id": "503fe60782f495a1673d255419164e65", "lat": 38.906790666666666, "lon": -77.034755, "rental_uris": {"android": "https://dc.lft.to/lastmile_qr_scan", "ios": "https://dc.lft.to/lastmile_qr_scan"}, "is_disabled": 0, "fusion_lat": 0.0, "name": "503fe60782f495a1673d255419164e65", "fusion_lon": 0.0}, {"is_reserved": 0, "type": "electric_scooter", "bike_id": "11b515dce19cb6238b5754c0b0359e04", "lat": 38.935925833333336, "lon": -77.0336945, "rental_uris": {"android": "https://dc.lft.to/lastmile_qr_scan", "ios": "https://dc.lft.to/lastmile_qr_scan"}, "is_disabled": 0, "fusion_lat": 0.0, "name": "11b515dce19cb6238b5754c0b0359e04", "fusion_lon": 0.0}, {"is_reserved": 0, "type": "electric_scooter", "bike_id": "bab09cc01fdff210b35a4ff240b385ed", "lat": 38.88738383333333, "lon": -77.03175733333333, "rental_uris": {"android": "https://dc.lft.to/lastmile_qr_scan", "ios": "https://dc.lft.to/lastmile_qr_scan"}, "is_disabled": 0, "fusion_lat": 0.0, "name": "bab09cc01fdff210b35a4ff240b385ed", "fusion_lon": 0.0}, {"is_reserved": 0, "type": "electric_bike", "bike_id": "a30a1495e3166d46756e8de0543f8e31", "lat": 38.973107, "lon": -76.99482883333333, "rental_uris": {"android": "https://dc.lft.to/lastmile_qr_scan", "ios": "https://dc.lft.to/lastmile_qr_scan"}, "is_disabled": 0, "fusion_lat": 0.0, "name": "a30a1495e3166d46756e8de0543f8e31", "fusion_lon": 0.0}, {"is_reserved": 0, "type": "electric_scooter", "bike_id": "cddadd77bb6b30a95e8dd1a81b636ba0", "lat": 38.89626633333334, "lon": -77.03222916666667, "rental_uris": {"android": "https://dc.lft.to/lastmile_qr_scan", "ios": "https://dc.lft.to/lastmile_qr_scan"}, "is_disabled": 0, "fusion_lat": 0.0, "name": "cddadd77bb6b30a95e8dd1a81b636ba0", "fusion_lon": 0.0}, {"is_reserved": 0, "type": "electric_scooter", "bike_id": "2d6785dd7185d0265e7d676fe941a2bf", "lat": 38.91478216666667, "lon": -77.03184883333333, "rental_uris": {"android": "https://dc.lft.to/lastmile_qr_scan", "ios": "https://dc.lft.to/lastmile_qr_scan"}, "is_disabled": 0, "fusion_lat": 0.0, "name": "2d6785dd7185d0265e7d676fe941a2bf", "fusion_lon": 0.0}, {"is_reserved": 0, "type": "electric_scooter", "bike_id": "91990b1291592343ab372fd1562a6671", "lat": 38.91289716666667, "lon": -76.9854115, "rental_uris": {"android": "https://dc.lft.to/lastmile_qr_scan", "ios": "https://dc.lft.to/lastmile_qr_scan"}, "is_disabled": 0, "fusion_lat": 0.0, "name": "91990b1291592343ab372fd1562a6671", "fusion_lon": 0.0}, {"is_reserved": 0, "type": "electric_scooter", "bike_id": "59a7bef57c257cb9e47f410ab317b612", "lat": 38.90959866666667, "lon": -77.03294116666666, "rental_uris": {"android": "https://dc.lft.to/lastmile_qr_scan", "ios": "https://dc.lft.to/lastmile_qr_scan"}, "is_disabled": 0, "fusion_lat": 0.0, "name": "59a7bef57c257cb9e47f410ab317b612", "fusion_lon": 0.0}, {"is_reserved": 0, "type": "electric_scooter", "bike_id": "e86d9e2e09d8c93565052dacab386816", "lat": 38.928728166666666, "lon": -77.0270685, "rental_uris": {"android": "https://dc.lft.to/lastmile_qr_scan", "ios": "https://dc.lft.to/lastmile_qr_scan"}, "is_disabled": 0, "fusion_lat": 0.0, "name": "e86d9e2e09d8c93565052dacab386816", "fusion_lon": 0.0}, {"is_reserved": 0, "type": "electric_scooter", "bike_id": "d2387822edbd1dfabefaa66b70707fc7", "lat": 38.90587166666667, "lon": -77.04666883333333, "rental_uris": {"android": "https://dc.lft.to/lastmile_qr_scan", "ios": "https://dc.lft.to/lastmile_qr_scan"}, "is_disabled": 0, "fusion_lat": 0.0, "name": "d2387822edbd1dfabefaa66b70707fc7", "fusion_lon": 0.0}, {"is_reserved": 0, "type": "electric_scooter", "bike_id": "29f7cb82be1cceed10961e9da43faced", "lat": 38.9167205, "lon": -77.029642, "rental_uris": {"android": "https://dc.lft.to/lastmile_qr_scan", "ios": "https://dc.lft.to/lastmile_qr_scan"}, "is_disabled": 0, "fusion_lat": 0.0, "name": "29f7cb82be1cceed10961e9da43faced", "fusion_lon": 0.0}, {"is_reserved": 0, "type": "electric_scooter", "bike_id": "97dc49e4bd2aca6019565800936ffb25", "lat": 38.865736166666665, "lon": -76.990277, "rental_uris": {"android": "https://dc.lft.to/lastmile_qr_scan", "ios": "https://dc.lft.to/lastmile_qr_scan"}, "is_disabled": 0, "fusion_lat": 0.0, "name": "97dc49e4bd2aca6019565800936ffb25", "fusion_lon": 0.0}, {"is_reserved": 0, "type": "electric_scooter", "bike_id": "1d1505bd2e621f872ca658a0dd44e0dc", "lat": 38.898389333333334, "lon": -77.0221715, "rental_uris": {"android": "https://dc.lft.to/lastmile_qr_scan", "ios": "https://dc.lft.to/lastmile_qr_scan"}, "is_disabled": 0, "fusion_lat": 0.0, "name": "1d1505bd2e621f872ca658a0dd44e0dc", "fusion_lon": 0.0}, {"is_reserved": 0, "type": "electric_scooter", "bike_id": "ade5babd3c97ccdd37b5820b880f97f1", "lat": 38.892208833333335, "lon": -77.02414266666666, "rental_uris": {"android": "https://dc.lft.to/lastmile_qr_scan", "ios": "https://dc.lft.to/lastmile_qr_scan"}, "is_disabled": 0, "fusion_lat": 0.0, "name": "ade5babd3c97ccdd37b5820b880f97f1", "fusion_lon": 0.0}, {"is_reserved": 0, "type": "electric_scooter", "bike_id": "e4a076e480c815e00fbd00b51bdb1d3f", "lat": 38.89226516666667, "lon": -77.045058, "rental_uris": {"android": "https://dc.lft.to/lastmile_qr_scan", "ios": "https://dc.lft.to/lastmile_qr_scan"}, "is_disabled": 0, "fusion_lat": 0.0, "name": "e4a076e480c815e00fbd00b51bdb1d3f", "fusion_lon": 0.0}, {"is_reserved": 0, "type": "electric_scooter", "bike_id": "29ff27c559c22d4946b9dd09c77a4d47", "lat": 38.9239, "lon": -77.0445665, "rental_uris": {"android": "https://dc.lft.to/lastmile_qr_scan", "ios": "https://dc.lft.to/lastmile_qr_scan"}, "is_disabled": 0, "fusion_lat": 0.0, "name": "29ff27c559c22d4946b9dd09c77a4d47", "fusion_lon": 0.0}, {"is_reserved": 0, "type": "electric_scooter", "bike_id": "7e312103fa2d47354d6df4f32a293c2e", "lat": 38.89221833333333, "lon": -77.02594383333333, "rental_uris": {"android": "https://dc.lft.to/lastmile_qr_scan", "ios": "https://dc.lft.to/lastmile_qr_scan"}, "is_disabled": 0, "fusion_lat": 0.0, "name": "7e312103fa2d47354d6df4f32a293c2e", "fusion_lon": 0.0}, {"is_reserved": 0, "type": "electric_scooter", "bike_id": "ad978d5348fcc6062d5c41dd23bab983", "lat": 38.91224116666667, "lon": -77.02690716666666, "rental_uris": {"android": "https://dc.lft.to/lastmile_qr_scan", "ios": "https://dc.lft.to/lastmile_qr_scan"}, "is_disabled": 0, "fusion_lat": 0.0, "name": "ad978d5348fcc6062d5c41dd23bab983", "fusion_lon": 0.0}, {"is_reserved": 0, "type": "electric_scooter", "bike_id": "ff93710223595947e6a09e98a84e0530", "lat": 38.895928833333336, "lon": -76.92980033333333, "rental_uris": {"android": "https://dc.lft.to/lastmile_qr_scan", "ios": "https://dc.lft.to/lastmile_qr_scan"}, "is_disabled": 0, "fusion_lat": 0.0, "name": "ff93710223595947e6a09e98a84e0530", "fusion_lon": 0.0}, {"is_reserved": 0, "type": "electric_scooter", "bike_id": "3594e0587bb322a6b388692c40e44c19", "lat": 38.90040233333333, "lon": -76.99856633333333, "rental_uris": {"android": "https://dc.lft.to/lastmile_qr_scan", "ios": "https://dc.lft.to/lastmile_qr_scan"}, "is_disabled": 0, "fusion_lat": 0.0, "name": "3594e0587bb322a6b388692c40e44c19", "fusion_lon": 0.0}, {"is_reserved": 0, "type": "electric_scooter", "bike_id": "41d8564c174f9245364795b8f764cd8a", "lat": 38.914693666666665, "lon": -77.0321475, "rental_uris": {"android": "https://dc.lft.to/lastmile_qr_scan", "ios": "https://dc.lft.to/lastmile_qr_scan"}, "is_disabled": 0, "fusion_lat": 0.0, "name": "41d8564c174f9245364795b8f764cd8a", "fusion_lon": 0.0}, {"is_reserved": 0, "type": "electric_scooter", "bike_id": "ed273da8a559cd76a10cf8619df38a43", "lat": 38.89913766666667, "lon": -76.97834633333333, "rental_uris": {"android": "https://dc.lft.to/lastmile_qr_scan", "ios": "https://dc.lft.to/lastmile_qr_scan"}, "is_disabled": 0, "fusion_lat": 0.0, "name": "ed273da8a559cd76a10cf8619df38a43", "fusion_lon": 0.0}, {"is_reserved": 0, "type": "electric_scooter", "bike_id": "1df72e34695d7ed2e048a0ded44fec43", "lat": 38.8873915, "lon": -77.0318, "rental_uris": {"android": "https://dc.lft.to/lastmile_qr_scan", "ios": "https://dc.lft.to/lastmile_qr_scan"}, "is_disabled": 0, "fusion_lat": 0.0, "name": "1df72e34695d7ed2e048a0ded44fec43", "fusion_lon": 0.0}, {"is_reserved": 0, "type": "electric_scooter", "bike_id": "9bcb60eb0a28f80cb391b3e4a0427488", "lat": 38.91171633333333, "lon": -77.02691283333333, "rental_uris": {"android": "https://dc.lft.to/lastmile_qr_scan", "ios": "https://dc.lft.to/lastmile_qr_scan"}, "is_disabled": 0, "fusion_lat": 0.0, "name": "9bcb60eb0a28f80cb391b3e4a0427488", "fusion_lon": 0.0}, {"is_reserved": 0, "type": "electric_scooter", "bike_id": "2c6b173dff5aef0d5d7e7b6e09543efc", "lat": 38.926865166666666, "lon": -77.03760583333333, "rental_uris": {"android": "https://dc.lft.to/lastmile_qr_scan", "ios": "https://dc.lft.to/lastmile_qr_scan"}, "is_disabled": 0, "fusion_lat": 0.0, "name": "2c6b173dff5aef0d5d7e7b6e09543efc", "fusion_lon": 0.0}, {"is_reserved": 0, "type": "electric_scooter", "bike_id": "d88aca29f513db19f7818b8075c445de", "lat": 38.89606033333333, "lon": -77.0469175, "rental_uris": {"android": "https://dc.lft.to/lastmile_qr_scan", "ios": "https://dc.lft.to/lastmile_qr_scan"}, "is_disabled": 0, "fusion_lat": 0.0, "name": "d88aca29f513db19f7818b8075c445de", "fusion_lon": 0.0}, {"is_reserved": 0, "type": "electric_scooter", "bike_id": "d4b8bcee84d7f645f93da6f66d94eecc", "lat": 38.93696533333333, "lon": -77.0211655, "rental_uris": {"android": "https://dc.lft.to/lastmile_qr_scan", "ios": "https://dc.lft.to/lastmile_qr_scan"}, "is_disabled": 0, "fusion_lat": 0.0, "name": "d4b8bcee84d7f645f93da6f66d94eecc", "fusion_lon": 0.0}, {"is_reserved": 0, "type": "electric_scooter", "bike_id": "d40866811f11c08492dd76b81ecf527f", "lat": 38.9191705, "lon": -77.04172416666667, "rental_uris": {"android": "https://dc.lft.to/lastmile_qr_scan", "ios": "https://dc.lft.to/lastmile_qr_scan"}, "is_disabled": 0, "fusion_lat": 0.0, "name": "d40866811f11c08492dd76b81ecf527f", "fusion_lon": 0.0}, {"is_reserved": 0, "type": "electric_scooter", "bike_id": "f71f06a85b7548e362f7a88d02876d4f", "lat": 38.9195865, "lon": -77.04488566666667, "rental_uris": {"android": "https://dc.lft.to/lastmile_qr_scan", "ios": "https://dc.lft.to/lastmile_qr_scan"}, "is_disabled": 0, "fusion_lat": 0.0, "name": "f71f06a85b7548e362f7a88d02876d4f", "fusion_lon": 0.0}, {"is_reserved": 0, "type": "electric_scooter", "bike_id": "e5e754ee1340133597d92c1934bd9cc5", "lat": 38.90685583333333, "lon": -77.03453916666666, "rental_uris": {"android": "https://dc.lft.to/lastmile_qr_scan", "ios": "https://dc.lft.to/lastmile_qr_scan"}, "is_disabled": 0, "fusion_lat": 0.0, "name": "e5e754ee1340133597d92c1934bd9cc5", "fusion_lon": 0.0}, {"is_reserved": 0, "type": "electric_scooter", "bike_id": "9c36ac11c02637af5217846fa89e64fb", "lat": 38.9198095, "lon": -77.04172383333334, "rental_uris": {"android": "https://dc.lft.to/lastmile_qr_scan", "ios": "https://dc.lft.to/lastmile_qr_scan"}, "is_disabled": 0, "fusion_lat": 0.0, "name": "9c36ac11c02637af5217846fa89e64fb", "fusion_lon": 0.0}, {"is_reserved": 0, "type": "electric_scooter", "bike_id": "a02e94e44c811e14c3e978d2fe4b9247", "lat": 38.91798133333333, "lon": -77.032004, "rental_uris": {"android": "https://dc.lft.to/lastmile_qr_scan", "ios": "https://dc.lft.to/lastmile_qr_scan"}, "is_disabled": 0, "fusion_lat": 0.0, "name": "a02e94e44c811e14c3e978d2fe4b9247", "fusion_lon": 0.0}, {"is_reserved": 0, "type": "electric_bike", "bike_id": "3e7705b7a920c8ce1c2fad200aa928cb", "lat": 38.99931566666667, "lon": -77.05132933333333, "rental_uris": {"android": "https://dc.lft.to/lastmile_qr_scan", "ios": "https://dc.lft.to/lastmile_qr_scan"}, "is_disabled": 0, "fusion_lat": 0.0, "name": "3e7705b7a920c8ce1c2fad200aa928cb", "fusion_lon": 0.0}, {"is_reserved": 0, "type": "electric_scooter", "bike_id": "ccc9281fd5af7a7fb0e3123876203503", "lat": 38.916799, "lon": -77.029686, "rental_uris": {"android": "https://dc.lft.to/lastmile_qr_scan", "ios": "https://dc.lft.to/lastmile_qr_scan"}, "is_disabled": 0, "fusion_lat": 0.0, "name": "ccc9281fd5af7a7fb0e3123876203503", "fusion_lon": 0.0}, {"is_reserved": 0, "type": "electric_scooter", "bike_id": "4989ee862ec366102c8dc262bb3b3e06", "lat": 38.892351, "lon": -77.04871816666666, "rental_uris": {"android": "https://dc.lft.to/lastmile_qr_scan", "ios": "https://dc.lft.to/lastmile_qr_scan"}, "is_disabled": 0, "fusion_lat": 0.0, "name": "4989ee862ec366102c8dc262bb3b3e06", "fusion_lon": 0.0}, {"is_reserved": 0, "type": "electric_scooter", "bike_id": "0f4fbce93639425d62f5c5828750f97a", "lat": 38.924196, "lon": -77.0194885, "rental_uris": {"android": "https://dc.lft.to/lastmile_qr_scan", "ios": "https://dc.lft.to/lastmile_qr_scan"}, "is_disabled": 0, "fusion_lat": 0.0, "name": "0f4fbce93639425d62f5c5828750f97a", "fusion_lon": 0.0}, {"is_reserved": 0, "type": "electric_scooter", "bike_id": "a6cc0e4341dd42365e29beea438cb17c", "lat": 38.923353166666665, "lon": -77.01897066666666, "rental_uris": {"android": "https://dc.lft.to/lastmile_qr_scan", "ios": "https://dc.lft.to/lastmile_qr_scan"}, "is_disabled": 0, "fusion_lat": 0.0, "name": "a6cc0e4341dd42365e29beea438cb17c", "fusion_lon": 0.0}, {"is_reserved": 0, "type": "electric_scooter", "bike_id": "3407cd9b95c307a430836f59a55d2dd0", "lat": 38.89823666666667, "lon": -76.94647816666667, "rental_uris": {"android": "https://dc.lft.to/lastmile_qr_scan", "ios": "https://dc.lft.to/lastmile_qr_scan"}, "is_disabled": 0, "fusion_lat": 0.0, "name": "3407cd9b95c307a430836f59a55d2dd0", "fusion_lon": 0.0}, {"is_reserved": 0, "type": "electric_scooter", "bike_id": "dda994e5ab4abf480b38afbc8dd9ce4e", "lat": 38.91579516666667, "lon": -77.012331, "rental_uris": {"android": "https://dc.lft.to/lastmile_qr_scan", "ios": "https://dc.lft.to/lastmile_qr_scan"}, "is_disabled": 0, "fusion_lat": 0.0, "name": "dda994e5ab4abf480b38afbc8dd9ce4e", "fusion_lon": 0.0}, {"is_reserved": 0, "type": "electric_bike", "bike_id": "33f14fa73b01caa25ecbd8cbd9f43864", "lat": 38.987173166666665, "lon": -76.94586533333333, "rental_uris": {"android": "https://dc.lft.to/lastmile_qr_scan", "ios": "https://dc.lft.to/lastmile_qr_scan"}, "is_disabled": 0, "fusion_lat": 0.0, "name": "33f14fa73b01caa25ecbd8cbd9f43864", "fusion_lon": 0.0}, {"is_reserved": 0, "type": "electric_scooter", "bike_id": "504be5289460db40cac1b6239343cf65", "lat": 38.9155545, "lon": -77.03118466666666, "rental_uris": {"android": "https://dc.lft.to/lastmile_qr_scan", "ios": "https://dc.lft.to/lastmile_qr_scan"}, "is_disabled": 0, "fusion_lat": 0.0, "name": "504be5289460db40cac1b6239343cf65", "fusion_lon": 0.0}, {"is_reserved": 0, "type": "electric_bike", "bike_id": "7444548e586e1bf2aa38692078982756", "lat": 38.947933, "lon": -76.94250516666666, "rental_uris": {"android": "https://dc.lft.to/lastmile_qr_scan", "ios": "https://dc.lft.to/lastmile_qr_scan"}, "is_disabled": 0, "fusion_lat": 0.0, "name": "7444548e586e1bf2aa38692078982756", "fusion_lon": 0.0}, {"is_reserved": 0, "type": "electric_scooter", "bike_id": "90401ca124940794347d815d701057cc", "lat": 38.911058833333335, "lon": -77.00260083333333, "rental_uris": {"android": "https://dc.lft.to/lastmile_qr_scan", "ios": "https://dc.lft.to/lastmile_qr_scan"}, "is_disabled": 0, "fusion_lat": 0.0, "name": "90401ca124940794347d815d701057cc", "fusion_lon": 0.0}, {"is_reserved": 0, "type": "electric_scooter", "bike_id": "c220448207eb2edccc33dbae425c0475", "lat": 38.916223, "lon": -77.03201416666667, "rental_uris": {"android": "https://dc.lft.to/lastmile_qr_scan", "ios": "https://dc.lft.to/lastmile_qr_scan"}, "is_disabled": 0, "fusion_lat": 0.0, "name": "c220448207eb2edccc33dbae425c0475", "fusion_lon": 0.0}, {"is_reserved": 0, "type": "electric_bike", "bike_id": "4fd455dba1435f646be538a7e2dd508f", "lat": 38.844556, "lon": -76.9316525, "rental_uris": {"android": "https://dc.lft.to/lastmile_qr_scan", "ios": "https://dc.lft.to/lastmile_qr_scan"}, "is_disabled": 0, "fusion_lat": 0.0, "name": "4fd455dba1435f646be538a7e2dd508f", "fusion_lon": 0.0}, {"is_reserved": 0, "type": "electric_scooter", "bike_id": "260a093c9f6cfc78d1dda72d46dff883", "lat": 38.92258733333333, "lon": -77.03662266666667, "rental_uris": {"android": "https://dc.lft.to/lastmile_qr_scan", "ios": "https://dc.lft.to/lastmile_qr_scan"}, "is_disabled": 0, "fusion_lat": 0.0, "name": "260a093c9f6cfc78d1dda72d46dff883", "fusion_lon": 0.0}, {"is_reserved": 0, "type": "electric_scooter", "bike_id": "97157d106ece7ae2d92a4c898507f573", "lat": 38.9266805, "lon": -77.00743533333333, "rental_uris": {"android": "https://dc.lft.to/lastmile_qr_scan", "ios": "https://dc.lft.to/lastmile_qr_scan"}, "is_disabled": 0, "fusion_lat": 0.0, "name": "97157d106ece7ae2d92a4c898507f573", "fusion_lon": 0.0}, {"is_reserved": 0, "type": "electric_scooter", "bike_id": "d4e39c9a9c107f288d47ee0e663b124f", "lat": 38.89829316666667, "lon": -77.0266415, "rental_uris": {"android": "https://dc.lft.to/lastmile_qr_scan", "ios": "https://dc.lft.to/lastmile_qr_scan"}, "is_disabled": 0, "fusion_lat": 0.0, "name": "d4e39c9a9c107f288d47ee0e663b124f", "fusion_lon": 0.0}, {"is_reserved": 0, "type": "electric_scooter", "bike_id": "cba784e54f574eb71d8409686c41476e", "lat": 38.900144833333336, "lon": -77.036271, "rental_uris": {"android": "https://dc.lft.to/lastmile_qr_scan", "ios": "https://dc.lft.to/lastmile_qr_scan"}, "is_disabled": 0, "fusion_lat": 0.0, "name": "cba784e54f574eb71d8409686c41476e", "fusion_lon": 0.0}, {"is_reserved": 0, "type": "electric_scooter", "bike_id": "d9272398966608fa7f0ec203ad6e955b", "lat": 38.895453, "lon": -76.98339433333334, "rental_uris": {"android": "https://dc.lft.to/lastmile_qr_scan", "ios": "https://dc.lft.to/lastmile_qr_scan"}, "is_disabled": 0, "fusion_lat": 0.0, "name": "d9272398966608fa7f0ec203ad6e955b", "fusion_lon": 0.0}, {"is_reserved": 0, "type": "electric_scooter", "bike_id": "421d4f83900d2f7ce4be853ff698078d", "lat": 38.91170416666667, "lon": -77.03179916666667, "rental_uris": {"android": "https://dc.lft.to/lastmile_qr_scan", "ios": "https://dc.lft.to/lastmile_qr_scan"}, "is_disabled": 0, "fusion_lat": 0.0, "name": "421d4f83900d2f7ce4be853ff698078d", "fusion_lon": 0.0}, {"is_reserved": 0, "type": "electric_scooter", "bike_id": "fa0eb23d44e0571fd9113eb9288bf7db", "lat": 38.9009575, "lon": -77.033647, "rental_uris": {"android": "https://dc.lft.to/lastmile_qr_scan", "ios": "https://dc.lft.to/lastmile_qr_scan"}, "is_disabled": 0, "fusion_lat": 0.0, "name": "fa0eb23d44e0571fd9113eb9288bf7db", "fusion_lon": 0.0}, {"is_reserved": 0, "type": "electric_scooter", "bike_id": "8b4832c125e4afddd279e51307097862", "lat": 38.906393333333334, "lon": -77.07024116666666, "rental_uris": {"android": "https://dc.lft.to/lastmile_qr_scan", "ios": "https://dc.lft.to/lastmile_qr_scan"}, "is_disabled": 0, "fusion_lat": 0.0, "name": "8b4832c125e4afddd279e51307097862", "fusion_lon": 0.0}, {"is_reserved": 0, "type": "electric_scooter", "bike_id": "b5dbc3cf2f232f5b7eba3cf0f21ee2e6", "lat": 38.922438, "lon": -77.04253716666666, "rental_uris": {"android": "https://dc.lft.to/lastmile_qr_scan", "ios": "https://dc.lft.to/lastmile_qr_scan"}, "is_disabled": 0, "fusion_lat": 0.0, "name": "b5dbc3cf2f232f5b7eba3cf0f21ee2e6", "fusion_lon": 0.0}, {"is_reserved": 0, "type": "electric_scooter", "bike_id": "4213cf97eee25b95d96fa85de8489f3d", "lat": 38.91873866666667, "lon": -77.040486, "rental_uris": {"android": "https://dc.lft.to/lastmile_qr_scan", "ios": "https://dc.lft.to/lastmile_qr_scan"}, "is_disabled": 0, "fusion_lat": 0.0, "name": "4213cf97eee25b95d96fa85de8489f3d", "fusion_lon": 0.0}, {"is_reserved": 0, "type": "electric_scooter", "bike_id": "bdeb280c19014c026e49a7716161f597", "lat": 38.902610333333335, "lon": -77.03561633333334, "rental_uris": {"android": "https://dc.lft.to/lastmile_qr_scan", "ios": "https://dc.lft.to/lastmile_qr_scan"}, "is_disabled": 0, "fusion_lat": 0.0, "name": "bdeb280c19014c026e49a7716161f597", "fusion_lon": 0.0}, {"is_reserved": 0, "type": "electric_scooter", "bike_id": "720d83c9801077e89e827fba4b93cf9d", "lat": 38.907198666666666, "lon": -77.00704233333333, "rental_uris": {"android": "https://dc.lft.to/lastmile_qr_scan", "ios": "https://dc.lft.to/lastmile_qr_scan"}, "is_disabled": 0, "fusion_lat": 0.0, "name": "720d83c9801077e89e827fba4b93cf9d", "fusion_lon": 0.0}, {"is_reserved": 0, "type": "electric_scooter", "bike_id": "ad34f52b689995e8a67bf39daf8785d2", "lat": 38.9127245, "lon": -77.04848716666666, "rental_uris": {"android": "https://dc.lft.to/lastmile_qr_scan", "ios": "https://dc.lft.to/lastmile_qr_scan"}, "is_disabled": 0, "fusion_lat": 0.0, "name": "ad34f52b689995e8a67bf39daf8785d2", "fusion_lon": 0.0}, {"is_reserved": 0, "type": "electric_scooter", "bike_id": "b9c2243827b224fee8d917ad0029290e", "lat": 38.923508, "lon": -77.04151683333333, "rental_uris": {"android": "https://dc.lft.to/lastmile_qr_scan", "ios": "https://dc.lft.to/lastmile_qr_scan"}, "is_disabled": 0, "fusion_lat": 0.0, "name": "b9c2243827b224fee8d917ad0029290e", "fusion_lon": 0.0}, {"is_reserved": 0, "type": "electric_scooter", "bike_id": "ce1a3af7daba58ead8d938be31cc6d44", "lat": 38.89340966666666, "lon": -76.99378983333334, "rental_uris": {"android": "https://dc.lft.to/lastmile_qr_scan", "ios": "https://dc.lft.to/lastmile_qr_scan"}, "is_disabled": 0, "fusion_lat": 0.0, "name": "ce1a3af7daba58ead8d938be31cc6d44", "fusion_lon": 0.0}, {"is_reserved": 0, "type": "electric_scooter", "bike_id": "fe503c5a9809b4281aa33b40ae12132f", "lat": 38.89218283333334, "lon": -77.03109066666667, "rental_uris": {"android": "https://dc.lft.to/lastmile_qr_scan", "ios": "https://dc.lft.to/lastmile_qr_scan"}, "is_disabled": 0, "fusion_lat": 0.0, "name": "fe503c5a9809b4281aa33b40ae12132f", "fusion_lon": 0.0}, {"is_reserved": 0, "type": "electric_scooter", "bike_id": "2eccd413590a87069c6f12442289b955", "lat": 38.905843833333336, "lon": -77.009172, "rental_uris": {"android": "https://dc.lft.to/lastmile_qr_scan", "ios": "https://dc.lft.to/lastmile_qr_scan"}, "is_disabled": 0, "fusion_lat": 0.0, "name": "2eccd413590a87069c6f12442289b955", "fusion_lon": 0.0}, {"is_reserved": 0, "type": "electric_bike", "bike_id": "1bd704aba7027e6d41e03d2d7f9063f6", "lat": 38.929064, "lon": -77.09739566666667, "rental_uris": {"android": "https://dc.lft.to/lastmile_qr_scan", "ios": "https://dc.lft.to/lastmile_qr_scan"}, "is_disabled": 0, "fusion_lat": 0.0, "name": "1bd704aba7027e6d41e03d2d7f9063f6", "fusion_lon": 0.0}, {"is_reserved": 0, "type": "electric_scooter", "bike_id": "a95a77607b3d4dcf33db0d96e7b9c407", "lat": 38.92383366666667, "lon": -77.0504255, "rental_uris": {"android": "https://dc.lft.to/lastmile_qr_scan", "ios": "https://dc.lft.to/lastmile_qr_scan"}, "is_disabled": 0, "fusion_lat": 0.0, "name": "a95a77607b3d4dcf33db0d96e7b9c407", "fusion_lon": 0.0}, {"is_reserved": 0, "type": "electric_scooter", "bike_id": "c31f95f45e3844111718f50e2ce7bf3f", "lat": 38.887229, "lon": -76.983783, "rental_uris": {"android": "https://dc.lft.to/lastmile_qr_scan", "ios": "https://dc.lft.to/lastmile_qr_scan"}, "is_disabled": 0, "fusion_lat": 0.0, "name": "c31f95f45e3844111718f50e2ce7bf3f", "fusion_lon": 0.0}, {"is_reserved": 0, "type": "electric_scooter", "bike_id": "f2173267504d960f7f0357ddf6912e81", "lat": 38.90901783333333, "lon": -77.0449165, "rental_uris": {"android": "https://dc.lft.to/lastmile_qr_scan", "ios": "https://dc.lft.to/lastmile_qr_scan"}, "is_disabled": 0, "fusion_lat": 0.0, "name": "f2173267504d960f7f0357ddf6912e81", "fusion_lon": 0.0}, {"is_reserved": 0, "type": "electric_scooter", "bike_id": "2f488d04e2d32f6027abf60805a70748", "lat": 38.90078833333333, "lon": -77.05069466666667, "rental_uris": {"android": "https://dc.lft.to/lastmile_qr_scan", "ios": "https://dc.lft.to/lastmile_qr_scan"}, "is_disabled": 0, "fusion_lat": 0.0, "name": "2f488d04e2d32f6027abf60805a70748", "fusion_lon": 0.0}, {"is_reserved": 0, "type": "electric_bike", "bike_id": "c16cee7640c456543132927b1b30bbaf", "lat": 38.87467383333333, "lon": -77.00897766666667, "rental_uris": {"android": "https://dc.lft.to/lastmile_qr_scan", "ios": "https://dc.lft.to/lastmile_qr_scan"}, "is_disabled": 0, "fusion_lat": 0.0, "name": "c16cee7640c456543132927b1b30bbaf", "fusion_lon": 0.0}, {"is_reserved": 0, "type": "electric_scooter", "bike_id": "57103e62917f6f987fc7466db35510a1", "lat": 38.89234166666667, "lon": -77.01350166666667, "rental_uris": {"android": "https://dc.lft.to/lastmile_qr_scan", "ios": "https://dc.lft.to/lastmile_qr_scan"}, "is_disabled": 0, "fusion_lat": 0.0, "name": "57103e62917f6f987fc7466db35510a1", "fusion_lon": 0.0}, {"is_reserved": 0, "type": "electric_scooter", "bike_id": "ef32fb0ae29532e9a0cf17b16bc828e4", "lat": 38.915228666666664, "lon": -77.0198705, "rental_uris": {"android": "https://dc.lft.to/lastmile_qr_scan", "ios": "https://dc.lft.to/lastmile_qr_scan"}, "is_disabled": 0, "fusion_lat": 0.0, "name": "ef32fb0ae29532e9a0cf17b16bc828e4", "fusion_lon": 0.0}, {"is_reserved": 0, "type": "electric_scooter", "bike_id": "4a1dfb25af23582cb9006ef49adb7c33", "lat": 38.897243, "lon": -77.02079333333333, "rental_uris": {"android": "https://dc.lft.to/lastmile_qr_scan", "ios": "https://dc.lft.to/lastmile_qr_scan"}, "is_disabled": 0, "fusion_lat": 0.0, "name": "4a1dfb25af23582cb9006ef49adb7c33", "fusion_lon": 0.0}, {"is_reserved": 0, "type": "electric_scooter", "bike_id": "5529b5e6141cb40bb3f362285cdb657b", "lat": 38.864827, "lon": -76.97746366666667, "rental_uris": {"android": "https://dc.lft.to/lastmile_qr_scan", "ios": "https://dc.lft.to/lastmile_qr_scan"}, "is_disabled": 0, "fusion_lat": 0.0, "name": "5529b5e6141cb40bb3f362285cdb657b", "fusion_lon": 0.0}, {"is_reserved": 0, "type": "electric_scooter", "bike_id": "9bfe66a7bc8d7c808de503b22e330940", "lat": 38.90019983333333, "lon": -77.01219533333334, "rental_uris": {"android": "https://dc.lft.to/lastmile_qr_scan", "ios": "https://dc.lft.to/lastmile_qr_scan"}, "is_disabled": 0, "fusion_lat": 0.0, "name": "9bfe66a7bc8d7c808de503b22e330940", "fusion_lon": 0.0}, {"is_reserved": 0, "type": "electric_bike", "bike_id": "b0200e726e90446df548a25c5a534c7f", "lat": 38.88930916666666, "lon": -76.9132485, "rental_uris": {"android": "https://dc.lft.to/lastmile_qr_scan", "ios": "https://dc.lft.to/lastmile_qr_scan"}, "is_disabled": 0, "fusion_lat": 0.0, "name": "b0200e726e90446df548a25c5a534c7f", "fusion_lon": 0.0}, {"is_reserved": 0, "type": "electric_scooter", "bike_id": "27bbe6dce1e84b12f7d3ec5cf1fa9f83", "lat": 38.924812, "lon": -77.02271583333334, "rental_uris": {"android": "https://dc.lft.to/lastmile_qr_scan", "ios": "https://dc.lft.to/lastmile_qr_scan"}, "is_disabled": 0, "fusion_lat": 0.0, "name": "27bbe6dce1e84b12f7d3ec5cf1fa9f83", "fusion_lon": 0.0}, {"is_reserved": 0, "type": "electric_scooter", "bike_id": "03bbd66fe114e04e9ac8894bab126e87", "lat": 38.9062485, "lon": -77.03146933333333, "rental_uris": {"android": "https://dc.lft.to/lastmile_qr_scan", "ios": "https://dc.lft.to/lastmile_qr_scan"}, "is_disabled": 0, "fusion_lat": 0.0, "name": "03bbd66fe114e04e9ac8894bab126e87", "fusion_lon": 0.0}, {"is_reserved": 0, "type": "electric_scooter", "bike_id": "484aae9c1a09dd16c6f9d2793bd6b030", "lat": 38.926366333333334, "lon": -77.0368725, "rental_uris": {"android": "https://dc.lft.to/lastmile_qr_scan", "ios": "https://dc.lft.to/lastmile_qr_scan"}, "is_disabled": 0, "fusion_lat": 0.0, "name": "484aae9c1a09dd16c6f9d2793bd6b030", "fusion_lon": 0.0}, {"is_reserved": 0, "type": "electric_scooter", "bike_id": "37864c0445af5db3141d7e39d89331bb", "lat": 38.883697833333336, "lon": -76.99517583333333, "rental_uris": {"android": "https://dc.lft.to/lastmile_qr_scan", "ios": "https://dc.lft.to/lastmile_qr_scan"}, "is_disabled": 0, "fusion_lat": 0.0, "name": "37864c0445af5db3141d7e39d89331bb", "fusion_lon": 0.0}, {"is_reserved": 0, "type": "electric_scooter", "bike_id": "695da5d949e65f9d6053112ea4d33cd0", "lat": 38.92893333333333, "lon": -77.03746683333334, "rental_uris": {"android": "https://dc.lft.to/lastmile_qr_scan", "ios": "https://dc.lft.to/lastmile_qr_scan"}, "is_disabled": 0, "fusion_lat": 0.0, "name": "695da5d949e65f9d6053112ea4d33cd0", "fusion_lon": 0.0}, {"is_reserved": 0, "type": "electric_scooter", "bike_id": "fd380b340694fda08aa5cab5d388a31c", "lat": 38.900990666666665, "lon": -77.03362383333334, "rental_uris": {"android": "https://dc.lft.to/lastmile_qr_scan", "ios": "https://dc.lft.to/lastmile_qr_scan"}, "is_disabled": 0, "fusion_lat": 0.0, "name": "fd380b340694fda08aa5cab5d388a31c", "fusion_lon": 0.0}, {"is_reserved": 0, "type": "electric_scooter", "bike_id": "a09da9a58365e5bcc38a1f33b3e8a74b", "lat": 38.918019, "lon": -77.03441266666667, "rental_uris": {"android": "https://dc.lft.to/lastmile_qr_scan", "ios": "https://dc.lft.to/lastmile_qr_scan"}, "is_disabled": 0, "fusion_lat": 0.0, "name": "a09da9a58365e5bcc38a1f33b3e8a74b", "fusion_lon": 0.0}, {"is_reserved": 0, "type": "electric_scooter", "bike_id": "d64dbd124107f3880b175579989f335d", "lat": 38.915246333333336, "lon": -77.0199635, "rental_uris": {"android": "https://dc.lft.to/lastmile_qr_scan", "ios": "https://dc.lft.to/lastmile_qr_scan"}, "is_disabled": 0, "fusion_lat": 0.0, "name": "d64dbd124107f3880b175579989f335d", "fusion_lon": 0.0}, {"is_reserved": 0, "type": "electric_scooter", "bike_id": "fddb7461dc2655ad2f27c870921ca5a6", "lat": 38.89741383333333, "lon": -77.02806133333333, "rental_uris": {"android": "https://dc.lft.to/lastmile_qr_scan", "ios": "https://dc.lft.to/lastmile_qr_scan"}, "is_disabled": 0, "fusion_lat": 0.0, "name": "fddb7461dc2655ad2f27c870921ca5a6", "fusion_lon": 0.0}, {"is_reserved": 0, "type": "electric_scooter", "bike_id": "913f24d687841365157db24566aafd06", "lat": 38.92754166666667, "lon": -77.02111016666667, "rental_uris": {"android": "https://dc.lft.to/lastmile_qr_scan", "ios": "https://dc.lft.to/lastmile_qr_scan"}, "is_disabled": 0, "fusion_lat": 0.0, "name": "913f24d687841365157db24566aafd06", "fusion_lon": 0.0}, {"is_reserved": 0, "type": "electric_bike", "bike_id": "ac9a616d97fe236313bb98a44b92a36a", "lat": 38.9891545, "lon": -77.02541366666667, "rental_uris": {"android": "https://dc.lft.to/lastmile_qr_scan", "ios": "https://dc.lft.to/lastmile_qr_scan"}, "is_disabled": 0, "fusion_lat": 0.0, "name": "ac9a616d97fe236313bb98a44b92a36a", "fusion_lon": 0.0}, {"is_reserved": 0, "type": "electric_bike", "bike_id": "9e5c0a14eb2a1dfb6be1e365cd939231", "lat": 38.8984915, "lon": -77.1186065, "rental_uris": {"android": "https://dc.lft.to/lastmile_qr_scan", "ios": "https://dc.lft.to/lastmile_qr_scan"}, "is_disabled": 0, "fusion_lat": 0.0, "name": "9e5c0a14eb2a1dfb6be1e365cd939231", "fusion_lon": 0.0}, {"is_reserved": 0, "type": "electric_scooter", "bike_id": "a933b16e76e921a22c089f1129e0fad2", "lat": 38.9346905, "lon": -77.04153283333333, "rental_uris": {"android": "https://dc.lft.to/lastmile_qr_scan", "ios": "https://dc.lft.to/lastmile_qr_scan"}, "is_disabled": 0, "fusion_lat": 0.0, "name": "a933b16e76e921a22c089f1129e0fad2", "fusion_lon": 0.0}, {"is_reserved": 0, "type": "electric_scooter", "bike_id": "7f645069c09cb2edabfd330543ed6b3e", "lat": 38.958241, "lon": -77.07644633333334, "rental_uris": {"android": "https://dc.lft.to/lastmile_qr_scan", "ios": "https://dc.lft.to/lastmile_qr_scan"}, "is_disabled": 0, "fusion_lat": 0.0, "name": "7f645069c09cb2edabfd330543ed6b3e", "fusion_lon": 0.0}, {"is_reserved": 0, "type": "electric_scooter", "bike_id": "e6432d3d8c47da65d1ade1400061534c", "lat": 38.92159483333333, "lon": -77.03207316666666, "rental_uris": {"android": "https://dc.lft.to/lastmile_qr_scan", "ios": "https://dc.lft.to/lastmile_qr_scan"}, "is_disabled": 0, "fusion_lat": 0.0, "name": "e6432d3d8c47da65d1ade1400061534c", "fusion_lon": 0.0}, {"is_reserved": 0, "type": "electric_scooter", "bike_id": "a05eb7441d4e0051000896c85e3af44e", "lat": 38.9140435, "lon": -77.04677583333333, "rental_uris": {"android": "https://dc.lft.to/lastmile_qr_scan", "ios": "https://dc.lft.to/lastmile_qr_scan"}, "is_disabled": 0, "fusion_lat": 0.0, "name": "a05eb7441d4e0051000896c85e3af44e", "fusion_lon": 0.0}, {"is_reserved": 0, "type": "electric_scooter", "bike_id": "d7eba4d30962f004b9e524edd7cdb5ca", "lat": 38.90404933333333, "lon": -77.03295, "rental_uris": {"android": "https://dc.lft.to/lastmile_qr_scan", "ios": "https://dc.lft.to/lastmile_qr_scan"}, "is_disabled": 0, "fusion_lat": 0.0, "name": "d7eba4d30962f004b9e524edd7cdb5ca", "fusion_lon": 0.0}, {"is_reserved": 0, "type": "electric_scooter", "bike_id": "fa0eed95ad1aba69f6527197e60c30a3", "lat": 38.88511166666667, "lon": -77.011168, "rental_uris": {"android": "https://dc.lft.to/lastmile_qr_scan", "ios": "https://dc.lft.to/lastmile_qr_scan"}, "is_disabled": 0, "fusion_lat": 0.0, "name": "fa0eed95ad1aba69f6527197e60c30a3", "fusion_lon": 0.0}, {"is_reserved": 0, "type": "electric_scooter", "bike_id": "f20cc423a4bb8b480e108507531a15cf", "lat": 38.915648833333336, "lon": -77.02970866666666, "rental_uris": {"android": "https://dc.lft.to/lastmile_qr_scan", "ios": "https://dc.lft.to/lastmile_qr_scan"}, "is_disabled": 0, "fusion_lat": 0.0, "name": "f20cc423a4bb8b480e108507531a15cf", "fusion_lon": 0.0}, {"is_reserved": 0, "type": "electric_scooter", "bike_id": "b45cadd7afc2d54ddcfe378f3a2d5c96", "lat": 38.897565, "lon": -77.02684366666666, "rental_uris": {"android": "https://dc.lft.to/lastmile_qr_scan", "ios": "https://dc.lft.to/lastmile_qr_scan"}, "is_disabled": 0, "fusion_lat": 0.0, "name": "b45cadd7afc2d54ddcfe378f3a2d5c96", "fusion_lon": 0.0}, {"is_reserved": 0, "type": "electric_scooter", "bike_id": "b13eb1aab3664b4b840fbabcb79d7007", "lat": 38.915879333333336, "lon": -77.02392616666667, "rental_uris": {"android": "https://dc.lft.to/lastmile_qr_scan", "ios": "https://dc.lft.to/lastmile_qr_scan"}, "is_disabled": 0, "fusion_lat": 0.0, "name": "b13eb1aab3664b4b840fbabcb79d7007", "fusion_lon": 0.0}, {"is_reserved": 0, "type": "electric_scooter", "bike_id": "5ca4cebe411f49cc80afd7f9f7b9ee4f", "lat": 38.94691666666667, "lon": -77.02250366666667, "rental_uris": {"android": "https://dc.lft.to/lastmile_qr_scan", "ios": "https://dc.lft.to/lastmile_qr_scan"}, "is_disabled": 0, "fusion_lat": 0.0, "name": "5ca4cebe411f49cc80afd7f9f7b9ee4f", "fusion_lon": 0.0}, {"is_reserved": 0, "type": "electric_scooter", "bike_id": "6a3bb23e987dc3ddc72dc25eddf6cc06", "lat": 38.92982966666667, "lon": -77.0347325, "rental_uris": {"android": "https://dc.lft.to/lastmile_qr_scan", "ios": "https://dc.lft.to/lastmile_qr_scan"}, "is_disabled": 0, "fusion_lat": 0.0, "name": "6a3bb23e987dc3ddc72dc25eddf6cc06", "fusion_lon": 0.0}, {"is_reserved": 0, "type": "electric_scooter", "bike_id": "72d1615919cc080d6ecb1d99f0cd8ba8", "lat": 38.8922215, "lon": -77.02412983333333, "rental_uris": {"android": "https://dc.lft.to/lastmile_qr_scan", "ios": "https://dc.lft.to/lastmile_qr_scan"}, "is_disabled": 0, "fusion_lat": 0.0, "name": "72d1615919cc080d6ecb1d99f0cd8ba8", "fusion_lon": 0.0}, {"is_reserved": 0, "type": "electric_scooter", "bike_id": "f10d2326bba6e7170c097c492f6c81dd", "lat": 38.91269333333334, "lon": -77.01250216666666, "rental_uris": {"android": "https://dc.lft.to/lastmile_qr_scan", "ios": "https://dc.lft.to/lastmile_qr_scan"}, "is_disabled": 0, "fusion_lat": 0.0, "name": "f10d2326bba6e7170c097c492f6c81dd", "fusion_lon": 0.0}, {"is_reserved": 0, "type": "electric_scooter", "bike_id": "e0b8ccbe1504bbe70add8f7f9ba5c4ac", "lat": 38.902881666666666, "lon": -77.039948, "rental_uris": {"android": "https://dc.lft.to/lastmile_qr_scan", "ios": "https://dc.lft.to/lastmile_qr_scan"}, "is_disabled": 0, "fusion_lat": 0.0, "name": "e0b8ccbe1504bbe70add8f7f9ba5c4ac", "fusion_lon": 0.0}, {"is_reserved": 0, "type": "electric_scooter", "bike_id": "27e2b04030266a6db825fbc318fea75e", "lat": 38.918397166666665, "lon": -77.03899233333334, "rental_uris": {"android": "https://dc.lft.to/lastmile_qr_scan", "ios": "https://dc.lft.to/lastmile_qr_scan"}, "is_disabled": 0, "fusion_lat": 0.0, "name": "27e2b04030266a6db825fbc318fea75e", "fusion_lon": 0.0}, {"is_reserved": 0, "type": "electric_scooter", "bike_id": "69c7584ea488a5716be2fe438001a43d", "lat": 38.913449, "lon": -77.03211866666666, "rental_uris": {"android": "https://dc.lft.to/lastmile_qr_scan", "ios": "https://dc.lft.to/lastmile_qr_scan"}, "is_disabled": 0, "fusion_lat": 0.0, "name": "69c7584ea488a5716be2fe438001a43d", "fusion_lon": 0.0}, {"is_reserved": 0, "type": "electric_scooter", "bike_id": "12d22279ee31ee2401d27abce32e388f", "lat": 38.90062016666667, "lon": -76.927413, "rental_uris": {"android": "https://dc.lft.to/lastmile_qr_scan", "ios": "https://dc.lft.to/lastmile_qr_scan"}, "is_disabled": 0, "fusion_lat": 0.0, "name": "12d22279ee31ee2401d27abce32e388f", "fusion_lon": 0.0}, {"is_reserved": 0, "type": "electric_scooter", "bike_id": "61f029eeb625216d6fb7666637671681", "lat": 38.929476, "lon": -77.004089, "rental_uris": {"android": "https://dc.lft.to/lastmile_qr_scan", "ios": "https://dc.lft.to/lastmile_qr_scan"}, "is_disabled": 0, "fusion_lat": 0.0, "name": "61f029eeb625216d6fb7666637671681", "fusion_lon": 0.0}, {"is_reserved": 0, "type": "electric_scooter", "bike_id": "feee4e070a7b15be3258ef480012e5c3", "lat": 38.9423445, "lon": -77.0358315, "rental_uris": {"android": "https://dc.lft.to/lastmile_qr_scan", "ios": "https://dc.lft.to/lastmile_qr_scan"}, "is_disabled": 0, "fusion_lat": 0.0, "name": "feee4e070a7b15be3258ef480012e5c3", "fusion_lon": 0.0}, {"is_reserved": 0, "type": "electric_scooter", "bike_id": "2d6697f57465dc0a7de8fe89df7277cc", "lat": 38.931180833333336, "lon": -77.02083183333333, "rental_uris": {"android": "https://dc.lft.to/lastmile_qr_scan", "ios": "https://dc.lft.to/lastmile_qr_scan"}, "is_disabled": 0, "fusion_lat": 0.0, "name": "2d6697f57465dc0a7de8fe89df7277cc", "fusion_lon": 0.0}, {"is_reserved": 0, "type": "electric_scooter", "bike_id": "f42748883d4b46910b4eb8f5343f3229", "lat": 38.91376433333333, "lon": -77.00046633333334, "rental_uris": {"android": "https://dc.lft.to/lastmile_qr_scan", "ios": "https://dc.lft.to/lastmile_qr_scan"}, "is_disabled": 0, "fusion_lat": 0.0, "name": "f42748883d4b46910b4eb8f5343f3229", "fusion_lon": 0.0}, {"is_reserved": 0, "type": "electric_scooter", "bike_id": "0ef3de7e796ac77d15b6c66e2c178052", "lat": 38.90998416666667, "lon": -77.04004283333333, "rental_uris": {"android": "https://dc.lft.to/lastmile_qr_scan", "ios": "https://dc.lft.to/lastmile_qr_scan"}, "is_disabled": 0, "fusion_lat": 0.0, "name": "0ef3de7e796ac77d15b6c66e2c178052", "fusion_lon": 0.0}, {"is_reserved": 0, "type": "electric_scooter", "bike_id": "bdffb9dfaea04152bf720ad57c5996fd", "lat": 38.88391933333333, "lon": -76.98977283333333, "rental_uris": {"android": "https://dc.lft.to/lastmile_qr_scan", "ios": "https://dc.lft.to/lastmile_qr_scan"}, "is_disabled": 0, "fusion_lat": 0.0, "name": "bdffb9dfaea04152bf720ad57c5996fd", "fusion_lon": 0.0}, {"is_reserved": 0, "type": "electric_scooter", "bike_id": "18cab694378d1e71f42b5067e621cc51", "lat": 38.929519166666665, "lon": -77.0233625, "rental_uris": {"android": "https://dc.lft.to/lastmile_qr_scan", "ios": "https://dc.lft.to/lastmile_qr_scan"}, "is_disabled": 0, "fusion_lat": 0.0, "name": "18cab694378d1e71f42b5067e621cc51", "fusion_lon": 0.0}, {"is_reserved": 0, "type": "electric_scooter", "bike_id": "44e38ecaceb6ee402ae66ffd67516e46", "lat": 38.905271, "lon": -77.0021815, "rental_uris": {"android": "https://dc.lft.to/lastmile_qr_scan", "ios": "https://dc.lft.to/lastmile_qr_scan"}, "is_disabled": 0, "fusion_lat": 0.0, "name": "44e38ecaceb6ee402ae66ffd67516e46", "fusion_lon": 0.0}, {"is_reserved": 0, "type": "electric_scooter", "bike_id": "d912dd3a2f29b1439679adda359f610d", "lat": 38.90533466666667, "lon": -77.0628165, "rental_uris": {"android": "https://dc.lft.to/lastmile_qr_scan", "ios": "https://dc.lft.to/lastmile_qr_scan"}, "is_disabled": 0, "fusion_lat": 0.0, "name": "d912dd3a2f29b1439679adda359f610d", "fusion_lon": 0.0}, {"is_reserved": 0, "type": "electric_scooter", "bike_id": "fb96676d38ee7fd1a2dc2a764b213547", "lat": 38.94078416666667, "lon": -77.03329883333333, "rental_uris": {"android": "https://dc.lft.to/lastmile_qr_scan", "ios": "https://dc.lft.to/lastmile_qr_scan"}, "is_disabled": 0, "fusion_lat": 0.0, "name": "fb96676d38ee7fd1a2dc2a764b213547", "fusion_lon": 0.0}, {"is_reserved": 0, "type": "electric_scooter", "bike_id": "7fe832239905c9e5f4fbf23fce8dcef4", "lat": 38.877571, "lon": -76.99423416666667, "rental_uris": {"android": "https://dc.lft.to/lastmile_qr_scan", "ios": "https://dc.lft.to/lastmile_qr_scan"}, "is_disabled": 0, "fusion_lat": 0.0, "name": "7fe832239905c9e5f4fbf23fce8dcef4", "fusion_lon": 0.0}, {"is_reserved": 0, "type": "electric_scooter", "bike_id": "4264bca346689f684ac768b5555bfe11", "lat": 38.89608066666667, "lon": -77.044147, "rental_uris": {"android": "https://dc.lft.to/lastmile_qr_scan", "ios": "https://dc.lft.to/lastmile_qr_scan"}, "is_disabled": 0, "fusion_lat": 0.0, "name": "4264bca346689f684ac768b5555bfe11", "fusion_lon": 0.0}, {"is_reserved": 0, "type": "electric_scooter", "bike_id": "fa619626a4440d750309794e8184d773", "lat": 38.89880733333333, "lon": -76.93176833333334, "rental_uris": {"android": "https://dc.lft.to/lastmile_qr_scan", "ios": "https://dc.lft.to/lastmile_qr_scan"},