{"data": {"bikes": [{"rental_uris": {"ios": "https://dc.lft.to/lastmile_qr_scan", "android": "https://dc.lft.to/lastmile_qr_scan"}, "lon": -77.0230735, "type": "electric_scooter", "fusion_lat": 0.0, "lat": 38.91788016666667, "name": "5932c76c0bf7a2e7d41004a15e291853", "fusion_lon": 0.0, "bike_id": "5932c76c0bf7a2e7d41004a15e291853", "is_disabled": 0, "is_reserved": 0}, {"rental_uris": {"ios": "https://dc.lft.to/lastmile_qr_scan", "android": "https://dc.lft.to/lastmile_qr_scan"}, "lon": -77.03838133333333, "type": "electric_scooter", "fusion_lat": 0.0, "lat": 38.921774666666664, "name": "3010ff4ed4f0d43cdffb1bbcf2ef3980", "fusion_lon": 0.0, "bike_id": "3010ff4ed4f0d43cdffb1bbcf2ef3980", "is_disabled": 0, "is_reserved": 0}, {"rental_uris": {"ios": "https://dc.lft.to/lastmile_qr_scan", "android": "https://dc.lft.to/lastmile_qr_scan"}, "lon": -77.01881433333334, "type": "electric_scooter", "fusion_lat": 0.0, "lat": 38.90618833333333, "name": "38dd7d0691cf3065dbd77dff70404833", "fusion_lon": 0.0, "bike_id": "38dd7d0691cf3065dbd77dff70404833", "is_disabled": 0, "is_reserved": 0}, {"rental_uris": {"ios": "https://dc.lft.to/lastmile_qr_scan", "android": "https://dc.lft.to/lastmile_qr_scan"}, "lon": -77.04039316666666, "type": "electric_scooter", "fusion_lat": 0.0, "lat": 38.9243505, "name": "f332ab2c4fa76c07f5305ecf746597ec", "fusion_lon": 0.0, "bike_id": "f332ab2c4fa76c07f5305ecf746597ec", "is_disabled": 0, "is_reserved": 0}, {"rental_uris": {"ios": "https://dc.lft.to/lastmile_qr_scan", "android": "https://dc.lft.to/lastmile_qr_scan"}, "lon": -77.04484433333333, "type": "electric_scooter", "fusion_lat": 0.0, "lat": 38.919336666666666, "name": "ca5058c880e901335f80e22ecdbdd92e", "fusion_lon": 0.0, "bike_id": "ca5058c880e901335f80e22ecdbdd92e", "is_disabled": 0, "is_reserved": 0}, {"rental_uris": {"ios": "https://dc.lft.to/lastmile_qr_scan", "android": "https://dc.lft.to/lastmile_qr_scan"}, "lon": -76.977302, "type": "electric_scooter", "fusion_lat": 0.0, "lat": 38.87286366666667, "name": "b813cb2431c54e378a5eee8e131e4f6c", "fusion_lon": 0.0, "bike_id": "b813cb2431c54e378a5eee8e131e4f6c", "is_disabled": 0, "is_reserved": 0}, {"rental_uris": {"ios": "https://dc.lft.to/lastmile_qr_scan", "android": "https://dc.lft.to/lastmile_qr_scan"}, "lon": -77.03801783333333, "type": "electric_bike", "fusion_lat": 0.0, "lat": 38.99675933333333, "name": "9e21d897c348b02c4f5946ab2ca39fc9", "fusion_lon": 0.0, "bike_id": "9e21d897c348b02c4f5946ab2ca39fc9", "is_disabled": 0, "is_reserved": 0}, {"rental_uris": {"ios": "https://dc.lft.to/lastmile_qr_scan", "android": "https://dc.lft.to/lastmile_qr_scan"}, "lon": -77.03065716666667, "type": "electric_scooter", "fusion_lat": 0.0, "lat": 38.88045816666666, "name": "d8cbf31c614948378e9a086c9455dba4", "fusion_lon": 0.0, "bike_id": "d8cbf31c614948378e9a086c9455dba4", "is_disabled": 0, "is_reserved": 0}, {"rental_uris": {"ios": "https://dc.lft.to/lastmile_qr_scan", "android": "https://dc.lft.to/lastmile_qr_scan"}, "lon": -76.949464, "type": "electric_scooter", "fusion_lat": 0.0, "lat": 38.88379416666667, "name": "98bb56a49d949accea31abc9ef3e8482", "fusion_lon": 0.0, "bike_id": "98bb56a49d949accea31abc9ef3e8482", "is_disabled": 0, "is_reserved": 0}, {"rental_uris": {"ios": "https://dc.lft.to/lastmile_qr_scan", "android": "https://dc.lft.to/lastmile_qr_scan"}, "lon": -77.04340583333334, "type": "electric_scooter", "fusion_lat": 0.0, "lat": 38.9105465, "name": "f38d75df03bc493a95bcfcb6eb2b0770", "fusion_lon": 0.0, "bike_id": "f38d75df03bc493a95bcfcb6eb2b0770", "is_disabled": 0, "is_reserved": 0}, {"rental_uris": {"ios": "https://dc.lft.to/lastmile_qr_scan", "android": "https://dc.lft.to/lastmile_qr_scan"}, "lon": -77.1317805, "type": "electric_bike", "fusion_lat": 0.0, "lat": 38.869074, "name": "d4af3c86e3683bb717344994ee5916c2", "fusion_lon": 0.0, "bike_id": "d4af3c86e3683bb717344994ee5916c2", "is_disabled": 0, "is_reserved": 0}, {"rental_uris": {"ios": "https://dc.lft.to/lastmile_qr_scan", "android": "https://dc.lft.to/lastmile_qr_scan"}, "lon": -77.03337883333333, "type": "electric_scooter", "fusion_lat": 0.0, "lat": 38.90337433333333, "name": "50690d48e7fc172cf0362e02ac488bc4", "fusion_lon": 0.0, "bike_id": "50690d48e7fc172cf0362e02ac488bc4", "is_disabled": 0, "is_reserved": 0}, {"rental_uris": {"ios": "https://dc.lft.to/lastmile_qr_scan", "android": "https://dc.lft.to/lastmile_qr_scan"}, "lon": -77.0168235, "type": "electric_scooter", "fusion_lat": 0.0, "lat": 38.902737333333334, "name": "c58ab6b711ce8d68ae277c8dc7b5d8b4", "fusion_lon": 0.0, "bike_id": "c58ab6b711ce8d68ae277c8dc7b5d8b4", "is_disabled": 0, "is_reserved": 0}, {"rental_uris": {"ios": "https://dc.lft.to/lastmile_qr_scan", "android": "https://dc.lft.to/lastmile_qr_scan"}, "lon": -77.04689916666666, "type": "electric_scooter", "fusion_lat": 0.0, "lat": 38.908659666666665, "name": "aab55f509103d85273e0155b6c318b2b", "fusion_lon": 0.0, "bike_id": "aab55f509103d85273e0155b6c318b2b", "is_disabled": 0, "is_reserved": 0}, {"rental_uris": {"ios": "https://dc.lft.to/lastmile_qr_scan", "android": "https://dc.lft.to/lastmile_qr_scan"}, "lon": -77.0427695, "type": "electric_scooter", "fusion_lat": 0.0, "lat": 38.907202833333336, "name": "2c68ccbe63b97c8d65715282fc77979a", "fusion_lon": 0.0, "bike_id": "2c68ccbe63b97c8d65715282fc77979a", "is_disabled": 0, "is_reserved": 0}, {"rental_uris": {"ios": "https://dc.lft.to/lastmile_qr_scan", "android": "https://dc.lft.to/lastmile_qr_scan"}, "lon": -76.95741616666666, "type": "electric_scooter", "fusion_lat": 0.0, "lat": 38.89226516666667, "name": "d8c05327d90c7bfca0c6f8e50379654e", "fusion_lon": 0.0, "bike_id": "d8c05327d90c7bfca0c6f8e50379654e", "is_disabled": 0, "is_reserved": 0}, {"rental_uris": {"ios": "https://dc.lft.to/lastmile_qr_scan", "android": "https://dc.lft.to/lastmile_qr_scan"}, "lon": -77.0342165, "type": "electric_scooter", "fusion_lat": 0.0, "lat": 38.92941616666667, "name": "3c4d004e45ac3029dac42ac108adb8b0", "fusion_lon": 0.0, "bike_id": "3c4d004e45ac3029dac42ac108adb8b0", "is_disabled": 0, "is_reserved": 0}, {"rental_uris": {"ios": "https://dc.lft.to/lastmile_qr_scan", "android": "https://dc.lft.to/lastmile_qr_scan"}, "lon": -77.03943416666667, "type": "electric_scooter", "fusion_lat": 0.0, "lat": 38.9315245, "name": "0ab5f18f475519f97d3c2ac6db6860db", "fusion_lon": 0.0, "bike_id": "0ab5f18f475519f97d3c2ac6db6860db", "is_disabled": 0, "is_reserved": 0}, {"rental_uris": {"ios": "https://dc.lft.to/lastmile_qr_scan", "android": "https://dc.lft.to/lastmile_qr_scan"}, "lon": -77.02996333333333, "type": "electric_bike", "fusion_lat": 0.0, "lat": 38.900359, "name": "13525baf906e1c025919717e12964f1d", "fusion_lon": 0.0, "bike_id": "13525baf906e1c025919717e12964f1d", "is_disabled": 0, "is_reserved": 0}, {"rental_uris": {"ios": "https://dc.lft.to/lastmile_qr_scan", "android": "https://dc.lft.to/lastmile_qr_scan"}, "lon": -77.04814483333334, "type": "electric_scooter", "fusion_lat": 0.0, "lat": 38.897273166666665, "name": "450895cfa6fe68f93c1da29a8748dfa7", "fusion_lon": 0.0, "bike_id": "450895cfa6fe68f93c1da29a8748dfa7", "is_disabled": 0, "is_reserved": 0}, {"rental_uris": {"ios": "https://dc.lft.to/lastmile_qr_scan", "android": "https://dc.lft.to/lastmile_qr_scan"}, "lon": -76.990317, "type": "electric_scooter", "fusion_lat": 0.0, "lat": 38.888843333333334, "name": "7ac44494714a1b0edb065893d468fe6c", "fusion_lon": 0.0, "bike_id": "7ac44494714a1b0edb065893d468fe6c", "is_disabled": 0, "is_reserved": 0}, {"rental_uris": {"ios": "https://dc.lft.to/lastmile_qr_scan", "android": "https://dc.lft.to/lastmile_qr_scan"}, "lon": -77.014248, "type": "electric_scooter", "fusion_lat": 0.0, "lat": 38.942249, "name": "5b6a4072c71bce64da28390995109abb", "fusion_lon": 0.0, "bike_id": "5b6a4072c71bce64da28390995109abb", "is_disabled": 0, "is_reserved": 0}, {"rental_uris": {"ios": "https://dc.lft.to/lastmile_qr_scan", "android": "https://dc.lft.to/lastmile_qr_scan"}, "lon": -77.0303425, "type": "electric_scooter", "fusion_lat": 0.0, "lat": 38.931219666666664, "name": "57f4ad7fa8e5cb7001095c9e35a1860f", "fusion_lon": 0.0, "bike_id": "57f4ad7fa8e5cb7001095c9e35a1860f", "is_disabled": 0, "is_reserved": 0}, {"rental_uris": {"ios": "https://dc.lft.to/lastmile_qr_scan", "android": "https://dc.lft.to/lastmile_qr_scan"}, "lon": -77.05318966666667, "type": "electric_scooter", "fusion_lat": 0.0, "lat": 38.923538666666666, "name": "bfac194de5153c2243876687e3383431", "fusion_lon": 0.0, "bike_id": "bfac194de5153c2243876687e3383431", "is_disabled": 0, "is_reserved": 0}, {"rental_uris": {"ios": "https://dc.lft.to/lastmile_qr_scan", "android": "https://dc.lft.to/lastmile_qr_scan"}, "lon": -77.03876983333333, "type": "electric_scooter", "fusion_lat": 0.0, "lat": 38.9081625, "name": "36a7518bc04ecb95af7816d1f7438802", "fusion_lon": 0.0, "bike_id": "36a7518bc04ecb95af7816d1f7438802", "is_disabled": 0, "is_reserved": 0}, {"rental_uris": {"ios": "https://dc.lft.to/lastmile_qr_scan", "android": "https://dc.lft.to/lastmile_qr_scan"}, "lon": -77.02204, "type": "electric_scooter", "fusion_lat": 0.0, "lat": 38.89633883333333, "name": "e31c1671e42a08539ff7b7081a4f9494", "fusion_lon": 0.0, "bike_id": "e31c1671e42a08539ff7b7081a4f9494", "is_disabled": 0, "is_reserved": 0}, {"rental_uris": {"ios": "https://dc.lft.to/lastmile_qr_scan", "android": "https://dc.lft.to/lastmile_qr_scan"}, "lon": -77.01184916666666, "type": "electric_scooter", "fusion_lat": 0.0, "lat": 38.9002115, "name": "e7b7348bdd58ad0f61fca790ab55e143", "fusion_lon": 0.0, "bike_id": "e7b7348bdd58ad0f61fca790ab55e143", "is_disabled": 0, "is_reserved": 0}, {"rental_uris": {"ios": "https://dc.lft.to/lastmile_qr_scan", "android": "https://dc.lft.to/lastmile_qr_scan"}, "lon": -77.005676, "type": "electric_scooter", "fusion_lat": 0.0, "lat": 38.927266333333336, "name": "c06dfbb7580e99dcc9447bf8e531f87b", "fusion_lon": 0.0, "bike_id": "c06dfbb7580e99dcc9447bf8e531f87b", "is_disabled": 0, "is_reserved": 0}, {"rental_uris": {"ios": "https://dc.lft.to/lastmile_qr_scan", "android": "https://dc.lft.to/lastmile_qr_scan"}, "lon": -77.0388625, "type": "electric_scooter", "fusion_lat": 0.0, "lat": 38.917090333333334, "name": "43cc34b9ad37999f7c8060b959727e15", "fusion_lon": 0.0, "bike_id": "43cc34b9ad37999f7c8060b959727e15", "is_disabled": 0, "is_reserved": 0}, {"rental_uris": {"ios": "https://dc.lft.to/lastmile_qr_scan", "android": "https://dc.lft.to/lastmile_qr_scan"}, "lon": -77.02344383333333, "type": "electric_scooter", "fusion_lat": 0.0, "lat": 38.962075666666664, "name": "68772d79f7c8f0111edc2ba5fd0d7c72", "fusion_lon": 0.0, "bike_id": "68772d79f7c8f0111edc2ba5fd0d7c72", "is_disabled": 0, "is_reserved": 0}, {"rental_uris": {"ios": "https://dc.lft.to/lastmile_qr_scan", "android": "https://dc.lft.to/lastmile_qr_scan"}, "lon": -77.057341, "type": "electric_scooter", "fusion_lat": 0.0, "lat": 38.933694333333335, "name": "976fa4918cd20abab35235ea14c1c409", "fusion_lon": 0.0, "bike_id": "976fa4918cd20abab35235ea14c1c409", "is_disabled": 0, "is_reserved": 0}, {"rental_uris": {"ios": "https://dc.lft.to/lastmile_qr_scan", "android": "https://dc.lft.to/lastmile_qr_scan"}, "lon": -77.06343833333334, "type": "electric_scooter", "fusion_lat": 0.0, "lat": 38.9445005, "name": "cd098da25f1fa2c1b0f6a8af950dd200", "fusion_lon": 0.0, "bike_id": "cd098da25f1fa2c1b0f6a8af950dd200", "is_disabled": 0, "is_reserved": 0}, {"rental_uris": {"ios": "https://dc.lft.to/lastmile_qr_scan", "android": "https://dc.lft.to/lastmile_qr_scan"}, "lon": -77.00521866666666, "type": "electric_scooter", "fusion_lat": 0.0, "lat": 38.929019, "name": "fa640b8b48577ec8ae5c76623f5d1d8a", "fusion_lon": 0.0, "bike_id": "fa640b8b48577ec8ae5c76623f5d1d8a", "is_disabled": 0, "is_reserved": 0}, {"rental_uris": {"ios": "https://dc.lft.to/lastmile_qr_scan", "android": "https://dc.lft.to/lastmile_qr_scan"}, "lon": -77.03960033333334, "type": "electric_scooter", "fusion_lat": 0.0, "lat": 38.91482333333333, "name": "6e4ff59c51482059e7e09e0d50b6f6ea", "fusion_lon": 0.0, "bike_id": "6e4ff59c51482059e7e09e0d50b6f6ea", "is_disabled": 0, "is_reserved": 0}, {"rental_uris": {"ios": "https://dc.lft.to/lastmile_qr_scan", "android": "https://dc.lft.to/lastmile_qr_scan"}, "lon": -77.03183883333334, "type": "electric_scooter", "fusion_lat": 0.0, "lat": 38.917335, "name": "a784fe96037d133aecc1f778e9f94009", "fusion_lon": 0.0, "bike_id": "a784fe96037d133aecc1f778e9f94009", "is_disabled": 0, "is_reserved": 0}, {"rental_uris": {"ios": "https://dc.lft.to/lastmile_qr_scan", "android": "https://dc.lft.to/lastmile_qr_scan"}, "lon": -77.02832766666667, "type": "electric_scooter", "fusion_lat": 0.0, "lat": 38.91255866666667, "name": "01917961e8216ca73706357a271df72b", "fusion_lon": 0.0, "bike_id": "01917961e8216ca73706357a271df72b", "is_disabled": 0, "is_reserved": 0}, {"rental_uris": {"ios": "https://dc.lft.to/lastmile_qr_scan", "android": "https://dc.lft.to/lastmile_qr_scan"}, "lon": -77.03648083333333, "type": "electric_scooter", "fusion_lat": 0.0, "lat": 38.90787866666667, "name": "82e49ca09e2141b1d051cc7b204a0e1f", "fusion_lon": 0.0, "bike_id": "82e49ca09e2141b1d051cc7b204a0e1f", "is_disabled": 0, "is_reserved": 0}, {"rental_uris": {"ios": "https://dc.lft.to/lastmile_qr_scan", "android": "https://dc.lft.to/lastmile_qr_scan"}, "lon": -76.94842133333333, "type": "electric_scooter", "fusion_lat": 0.0, "lat": 38.894841, "name": "3aaf1cfcc44516651816ded23a844816", "fusion_lon": 0.0, "bike_id": "3aaf1cfcc44516651816ded23a844816", "is_disabled": 0, "is_reserved": 0}, {"rental_uris": {"ios": "https://dc.lft.to/lastmile_qr_scan", "android": "https://dc.lft.to/lastmile_qr_scan"}, "lon": -76.99516, "type": "electric_scooter", "fusion_lat": 0.0, "lat": 38.894817, "name": "d721259038062cb5664e7128b6d0b05c", "fusion_lon": 0.0, "bike_id": "d721259038062cb5664e7128b6d0b05c", "is_disabled": 0, "is_reserved": 0}, {"rental_uris": {"ios": "https://dc.lft.to/lastmile_qr_scan", "android": "https://dc.lft.to/lastmile_qr_scan"}, "lon": -76.93173333333333, "type": "electric_scooter", "fusion_lat": 0.0, "lat": 38.8988255, "name": "3d47d7756659f4ed1d4feef857ae3d81", "fusion_lon": 0.0, "bike_id": "3d47d7756659f4ed1d4feef857ae3d81", "is_disabled": 0, "is_reserved": 0}, {"rental_uris": {"ios": "https://dc.lft.to/lastmile_qr_scan", "android": "https://dc.lft.to/lastmile_qr_scan"}, "lon": -77.107175, "type": "electric_bike", "fusion_lat": 0.0, "lat": 38.8554425, "name": "0753a8d6c49cf091c1b2cf47cf064c4f", "fusion_lon": 0.0, "bike_id": "0753a8d6c49cf091c1b2cf47cf064c4f", "is_disabled": 0, "is_reserved": 0}, {"rental_uris": {"ios": "https://dc.lft.to/lastmile_qr_scan", "android": "https://dc.lft.to/lastmile_qr_scan"}, "lon": -76.94852033333333, "type": "electric_scooter", "fusion_lat": 0.0, "lat": 38.883052166666666, "name": "d0af31656a81ee94f42397bce4fca87e", "fusion_lon": 0.0, "bike_id": "d0af31656a81ee94f42397bce4fca87e", "is_disabled": 0, "is_reserved": 0}, {"rental_uris": {"ios": "https://dc.lft.to/lastmile_qr_scan", "android": "https://dc.lft.to/lastmile_qr_scan"}, "lon": -77.03355633333334, "type": "electric_scooter", "fusion_lat": 0.0, "lat": 38.88505083333333, "name": "49b4fd3f30371b3cae64fded5628eb7e", "fusion_lon": 0.0, "bike_id": "49b4fd3f30371b3cae64fded5628eb7e", "is_disabled": 0, "is_reserved": 0}, {"rental_uris": {"ios": "https://dc.lft.to/lastmile_qr_scan", "android": "https://dc.lft.to/lastmile_qr_scan"}, "lon": -77.02329866666666, "type": "electric_scooter", "fusion_lat": 0.0, "lat": 38.92897083333333, "name": "7e4d48ff9ccb85ab6c28a32cfdb3eb63", "fusion_lon": 0.0, "bike_id": "7e4d48ff9ccb85ab6c28a32cfdb3eb63", "is_disabled": 0, "is_reserved": 0}, {"rental_uris": {"ios": "https://dc.lft.to/lastmile_qr_scan", "android": "https://dc.lft.to/lastmile_qr_scan"}, "lon": -76.99267816666666, "type": "electric_scooter", "fusion_lat": 0.0, "lat": 38.89688816666666, "name": "e46ac524fc15dc2ef9afd62d09118c31", "fusion_lon": 0.0, "bike_id": "e46ac524fc15dc2ef9afd62d09118c31", "is_disabled": 0, "is_reserved": 0}, {"rental_uris": {"ios": "https://dc.lft.to/lastmile_qr_scan", "android": "https://dc.lft.to/lastmile_qr_scan"}, "lon": -77.03209433333333, "type": "electric_scooter", "fusion_lat": 0.0, "lat": 38.9116015, "name": "30839a336d71a64ad8cca3603584bf71", "fusion_lon": 0.0, "bike_id": "30839a336d71a64ad8cca3603584bf71", "is_disabled": 0, "is_reserved": 0}, {"rental_uris": {"ios": "https://dc.lft.to/lastmile_qr_scan", "android": "https://dc.lft.to/lastmile_qr_scan"}, "lon": -77.03709116666667, "type": "electric_bike", "fusion_lat": 0.0, "lat": 38.93558933333333, "name": "03a6ed34d1fc7461aadbb36f4c9322d2", "fusion_lon": 0.0, "bike_id": "03a6ed34d1fc7461aadbb36f4c9322d2", "is_disabled": 0, "is_reserved": 0}, {"rental_uris": {"ios": "https://dc.lft.to/lastmile_qr_scan", "android": "https://dc.lft.to/lastmile_qr_scan"}, "lon": -77.044385, "type": "electric_scooter", "fusion_lat": 0.0, "lat": 38.90560516666667, "name": "82f71796d1ea2abe484e30ade8fe4607", "fusion_lon": 0.0, "bike_id": "82f71796d1ea2abe484e30ade8fe4607", "is_disabled": 0, "is_reserved": 0}, {"rental_uris": {"ios": "https://dc.lft.to/lastmile_qr_scan", "android": "https://dc.lft.to/lastmile_qr_scan"}, "lon": -77.0653035, "type": "electric_scooter", "fusion_lat": 0.0, "lat": 38.91125433333333, "name": "f2348f5e89fae16d14a9e9691e35b40b", "fusion_lon": 0.0, "bike_id": "f2348f5e89fae16d14a9e9691e35b40b", "is_disabled": 0, "is_reserved": 0}, {"rental_uris": {"ios": "https://dc.lft.to/lastmile_qr_scan", "android": "https://dc.lft.to/lastmile_qr_scan"}, "lon": -77.01502266666667, "type": "electric_scooter", "fusion_lat": 0.0, "lat": 38.90718616666667, "name": "044171bc9c1d85624cb44e7469e30e57", "fusion_lon": 0.0, "bike_id": "044171bc9c1d85624cb44e7469e30e57", "is_disabled": 0, "is_reserved": 0}, {"rental_uris": {"ios": "https://dc.lft.to/lastmile_qr_scan", "android": "https://dc.lft.to/lastmile_qr_scan"}, "lon": -77.02845783333333, "type": "electric_scooter", "fusion_lat": 0.0, "lat": 38.94264066666667, "name": "035e033b1ebddf18ff243d96c8ad80bc", "fusion_lon": 0.0, "bike_id": "035e033b1ebddf18ff243d96c8ad80bc", "is_disabled": 0, "is_reserved": 0}, {"rental_uris": {"ios": "https://dc.lft.to/lastmile_qr_scan", "android": "https://dc.lft.to/lastmile_qr_scan"}, "lon": -77.0072675, "type": "electric_scooter", "fusion_lat": 0.0, "lat": 38.884933, "name": "8093f3809bbb4928f93edf449e0f4984", "fusion_lon": 0.0, "bike_id": "8093f3809bbb4928f93edf449e0f4984", "is_disabled": 0, "is_reserved": 0}, {"rental_uris": {"ios": "https://dc.lft.to/lastmile_qr_scan", "android": "https://dc.lft.to/lastmile_qr_scan"}, "lon": -77.04746666666666, "type": "electric_scooter", "fusion_lat": 0.0, "lat": 38.91773366666666, "name": "ed963bec67ff6814e621973d8e0f1e42", "fusion_lon": 0.0, "bike_id": "ed963bec67ff6814e621973d8e0f1e42", "is_disabled": 0, "is_reserved": 0}, {"rental_uris": {"ios": "https://dc.lft.to/lastmile_qr_scan", "android": "https://dc.lft.to/lastmile_qr_scan"}, "lon": -77.033263, "type": "electric_scooter", "fusion_lat": 0.0, "lat": 38.901536, "name": "3ae7134fb9d0cf63d14ff771aa6bfbce", "fusion_lon": 0.0, "bike_id": "3ae7134fb9d0cf63d14ff771aa6bfbce", "is_disabled": 0, "is_reserved": 0}, {"rental_uris": {"ios": "https://dc.lft.to/lastmile_qr_scan", "android": "https://dc.lft.to/lastmile_qr_scan"}, "lon": -76.998097, "type": "electric_scooter", "fusion_lat": 0.0, "lat": 38.900018833333334, "name": "089a3b4b88a01139c92af0a08b19aa7e", "fusion_lon": 0.0, "bike_id": "089a3b4b88a01139c92af0a08b19aa7e", "is_disabled": 0, "is_reserved": 0}, {"rental_uris": {"ios": "https://dc.lft.to/lastmile_qr_scan", "android": "https://dc.lft.to/lastmile_qr_scan"}, "lon": -77.3530975, "type": "electric_bike", "fusion_lat": 0.0, "lat": 38.950028333333336, "name": "f0644844a9b2f14ff5739cbff994c02a", "fusion_lon": 0.0, "bike_id": "f0644844a9b2f14ff5739cbff994c02a", "is_disabled": 0, "is_reserved": 0}, {"rental_uris": {"ios": "https://dc.lft.to/lastmile_qr_scan", "android": "https://dc.lft.to/lastmile_qr_scan"}, "lon": -76.93176016666666, "type": "electric_scooter", "fusion_lat": 0.0, "lat": 38.898859, "name": "473e5d1ac21dffbfa635cb883ea9f06b", "fusion_lon": 0.0, "bike_id": "473e5d1ac21dffbfa635cb883ea9f06b", "is_disabled": 0, "is_reserved": 0}, {"rental_uris": {"ios": "https://dc.lft.to/lastmile_qr_scan", "android": "https://dc.lft.to/lastmile_qr_scan"}, "lon": -77.02583583333333, "type": "electric_scooter", "fusion_lat": 0.0, "lat": 38.8924425, "name": "9828ed019ec0a4b14d7eae56e2a58450", "fusion_lon": 0.0, "bike_id": "9828ed019ec0a4b14d7eae56e2a58450", "is_disabled": 0, "is_reserved": 0}, {"rental_uris": {"ios": "https://dc.lft.to/lastmile_qr_scan", "android": "https://dc.lft.to/lastmile_qr_scan"}, "lon": -77.0218335, "type": "electric_scooter", "fusion_lat": 0.0, "lat": 38.91569233333333, "name": "ecd91a67375c9cbce5621aa2ab2749dc", "fusion_lon": 0.0, "bike_id": "ecd91a67375c9cbce5621aa2ab2749dc", "is_disabled": 0, "is_reserved": 0}, {"rental_uris": {"ios": "https://dc.lft.to/lastmile_qr_scan", "android": "https://dc.lft.to/lastmile_qr_scan"}, "lon": -77.00868933333334, "type": "electric_bike", "fusion_lat": 0.0, "lat": 38.82726483333333, "name": "5852d26265f2c71938b0ae5e7c336ac7", "fusion_lon": 0.0, "bike_id": "5852d26265f2c71938b0ae5e7c336ac7", "is_disabled": 0, "is_reserved": 0}, {"rental_uris": {"ios": "https://dc.lft.to/lastmile_qr_scan", "android": "https://dc.lft.to/lastmile_qr_scan"}, "lon": -77.04713783333334, "type": "electric_scooter", "fusion_lat": 0.0, "lat": 38.922375, "name": "cbba672f32c7ab82a76dd857186120e0", "fusion_lon": 0.0, "bike_id": "cbba672f32c7ab82a76dd857186120e0", "is_disabled": 0, "is_reserved": 0}, {"rental_uris": {"ios": "https://dc.lft.to/lastmile_qr_scan", "android": "https://dc.lft.to/lastmile_qr_scan"}, "lon": -77.03175133333333, "type": "electric_scooter", "fusion_lat": 0.0, "lat": 38.9016105, "name": "ee226f54848005c12717adacd9cd3bfb", "fusion_lon": 0.0, "bike_id": "ee226f54848005c12717adacd9cd3bfb", "is_disabled": 0, "is_reserved": 0}, {"rental_uris": {"ios": "https://dc.lft.to/lastmile_qr_scan", "android": "https://dc.lft.to/lastmile_qr_scan"}, "lon": -77.04008683333333, "type": "electric_scooter", "fusion_lat": 0.0, "lat": 38.910025166666664, "name": "65d1a4c47b0066e2c9763cc603c18937", "fusion_lon": 0.0, "bike_id": "65d1a4c47b0066e2c9763cc603c18937", "is_disabled": 0, "is_reserved": 0}, {"rental_uris": {"ios": "https://dc.lft.to/lastmile_qr_scan", "android": "https://dc.lft.to/lastmile_qr_scan"}, "lon": -77.03462083333334, "type": "electric_scooter", "fusion_lat": 0.0, "lat": 38.908859, "name": "01a3ca487a21fff8699fc1002c4dbb48", "fusion_lon": 0.0, "bike_id": "01a3ca487a21fff8699fc1002c4dbb48", "is_disabled": 0, "is_reserved": 0}, {"rental_uris": {"ios": "https://dc.lft.to/lastmile_qr_scan", "android": "https://dc.lft.to/lastmile_qr_scan"}, "lon": -77.0417265, "type": "electric_scooter", "fusion_lat": 0.0, "lat": 38.91705, "name": "3b209a95d57ab3ab32ad8b2904b13277", "fusion_lon": 0.0, "bike_id": "3b209a95d57ab3ab32ad8b2904b13277", "is_disabled": 0, "is_reserved": 0}, {"rental_uris": {"ios": "https://dc.lft.to/lastmile_qr_scan", "android": "https://dc.lft.to/lastmile_qr_scan"}, "lon": -77.0037265, "type": "electric_scooter", "fusion_lat": 0.0, "lat": 38.876625, "name": "2f01fd2a2e38ef176652fe6e7dd179a2", "fusion_lon": 0.0, "bike_id": "2f01fd2a2e38ef176652fe6e7dd179a2", "is_disabled": 0, "is_reserved": 0}, {"rental_uris": {"ios": "https://dc.lft.to/lastmile_qr_scan", "android": "https://dc.lft.to/lastmile_qr_scan"}, "lon": -77.02599083333334, "type": "electric_scooter", "fusion_lat": 0.0, "lat": 38.90357733333333, "name": "1f8339c4b5080306fb7ac55ee81ce64d", "fusion_lon": 0.0, "bike_id": "1f8339c4b5080306fb7ac55ee81ce64d", "is_disabled": 0, "is_reserved": 0}, {"rental_uris": {"ios": "https://dc.lft.to/lastmile_qr_scan", "android": "https://dc.lft.to/lastmile_qr_scan"}, "lon": -77.01947166666666, "type": "electric_scooter", "fusion_lat": 0.0, "lat": 38.924162333333335, "name": "dd2487ac103ce332d92ac9bb476e1301", "fusion_lon": 0.0, "bike_id": "dd2487ac103ce332d92ac9bb476e1301", "is_disabled": 0, "is_reserved": 0}, {"rental_uris": {"ios": "https://dc.lft.to/lastmile_qr_scan", "android": "https://dc.lft.to/lastmile_qr_scan"}, "lon": -77.044928, "type": "electric_scooter", "fusion_lat": 0.0, "lat": 38.919513, "name": "36e050138ffad45b61f0b2884bab4a9d", "fusion_lon": 0.0, "bike_id": "36e050138ffad45b61f0b2884bab4a9d", "is_disabled": 0, "is_reserved": 0}, {"rental_uris": {"ios": "https://dc.lft.to/lastmile_qr_scan", "android": "https://dc.lft.to/lastmile_qr_scan"}, "lon": -76.9855705, "type": "electric_scooter", "fusion_lat": 0.0, "lat": 38.855867, "name": "f09d305790e9be8823fa9051af7b9a77", "fusion_lon": 0.0, "bike_id": "f09d305790e9be8823fa9051af7b9a77", "is_disabled": 0, "is_reserved": 0}, {"rental_uris": {"ios": "https://dc.lft.to/lastmile_qr_scan", "android": "https://dc.lft.to/lastmile_qr_scan"}, "lon": -77.041923, "type": "electric_scooter", "fusion_lat": 0.0, "lat": 38.90349883333333, "name": "dfb01397528c582b29422995c2ff648d", "fusion_lon": 0.0, "bike_id": "dfb01397528c582b29422995c2ff648d", "is_disabled": 0, "is_reserved": 0}, {"rental_uris": {"ios": "https://dc.lft.to/lastmile_qr_scan", "android": "https://dc.lft.to/lastmile_qr_scan"}, "lon": -77.02394166666667, "type": "electric_scooter", "fusion_lat": 0.0, "lat": 38.91679933333333, "name": "c5c2beaa0c49107df04f30c6f2e1964a", "fusion_lon": 0.0, "bike_id": "c5c2beaa0c49107df04f30c6f2e1964a", "is_disabled": 0, "is_reserved": 0}, {"rental_uris": {"ios": "https://dc.lft.to/lastmile_qr_scan", "android": "https://dc.lft.to/lastmile_qr_scan"}, "lon": -77.07908483333334, "type": "electric_scooter", "fusion_lat": 0.0, "lat": 38.948052833333335, "name": "0d2d88188dc5cc9b597e15155c49969c", "fusion_lon": 0.0, "bike_id": "0d2d88188dc5cc9b597e15155c49969c", "is_disabled": 0, "is_reserved": 0}, {"rental_uris": {"ios": "https://dc.lft.to/lastmile_qr_scan", "android": "https://dc.lft.to/lastmile_qr_scan"}, "lon": -76.983717, "type": "electric_scooter", "fusion_lat": 0.0, "lat": 38.91545883333333, "name": "51e4cd2e52217fa573a4d84066864984", "fusion_lon": 0.0, "bike_id": "51e4cd2e52217fa573a4d84066864984", "is_disabled": 0, "is_reserved": 0}, {"rental_uris": {"ios": "https://dc.lft.to/lastmile_qr_scan", "android": "https://dc.lft.to/lastmile_qr_scan"}, "lon": -76.96760166666667, "type": "electric_scooter", "fusion_lat": 0.0, "lat": 38.861596166666665, "name": "5a8eb640f4cb1f1b389e0a3b2378298f", "fusion_lon": 0.0, "bike_id": "5a8eb640f4cb1f1b389e0a3b2378298f", "is_disabled": 0, "is_reserved": 0}, {"rental_uris": {"ios": "https://dc.lft.to/lastmile_qr_scan", "android": "https://dc.lft.to/lastmile_qr_scan"}, "lon": -76.983692, "type": "electric_scooter", "fusion_lat": 0.0, "lat": 38.864804666666664, "name": "784e6bb3b8da66927627b160c3813953", "fusion_lon": 0.0, "bike_id": "784e6bb3b8da66927627b160c3813953", "is_disabled": 0, "is_reserved": 0}, {"rental_uris": {"ios": "https://dc.lft.to/lastmile_qr_scan", "android": "https://dc.lft.to/lastmile_qr_scan"}, "lon": -76.984163, "type": "electric_scooter", "fusion_lat": 0.0, "lat": 38.913839833333334, "name": "77d80d1e3b726110d24b9be06c56895d", "fusion_lon": 0.0, "bike_id": "77d80d1e3b726110d24b9be06c56895d", "is_disabled": 0, "is_reserved": 0}, {"rental_uris": {"ios": "https://dc.lft.to/lastmile_qr_scan", "android": "https://dc.lft.to/lastmile_qr_scan"}, "lon": -77.05126766666666, "type": "electric_scooter", "fusion_lat": 0.0, "lat": 38.92363916666667, "name": "265efe96e5232605d45c927080c1a229", "fusion_lon": 0.0, "bike_id": "265efe96e5232605d45c927080c1a229", "is_disabled": 0, "is_reserved": 0}, {"rental_uris": {"ios": "https://dc.lft.to/lastmile_qr_scan", "android": "https://dc.lft.to/lastmile_qr_scan"}, "lon": -77.02188866666667, "type": "electric_scooter", "fusion_lat": 0.0, "lat": 38.915545, "name": "7bc3967be59ab12fccc6b5080ea66550", "fusion_lon": 0.0, "bike_id": "7bc3967be59ab12fccc6b5080ea66550", "is_disabled": 0, "is_reserved": 0}, {"rental_uris": {"ios": "https://dc.lft.to/lastmile_qr_scan", "android": "https://dc.lft.to/lastmile_qr_scan"}, "lon": -77.07815333333333, "type": "electric_scooter", "fusion_lat": 0.0, "lat": 38.9262865, "name": "3e574ece70e7f6ed8f389568a47e20ca", "fusion_lon": 0.0, "bike_id": "3e574ece70e7f6ed8f389568a47e20ca", "is_disabled": 0, "is_reserved": 0}, {"rental_uris": {"ios": "https://dc.lft.to/lastmile_qr_scan", "android": "https://dc.lft.to/lastmile_qr_scan"}, "lon": -77.030764, "type": "electric_scooter", "fusion_lat": 0.0, "lat": 38.89977833333333, "name": "36fba454ab9e01898f44ea35c0859713", "fusion_lon": 0.0, "bike_id": "36fba454ab9e01898f44ea35c0859713", "is_disabled": 0, "is_reserved": 0}, {"rental_uris": {"ios": "https://dc.lft.to/lastmile_qr_scan", "android": "https://dc.lft.to/lastmile_qr_scan"}, "lon": -77.02214066666667, "type": "electric_scooter", "fusion_lat": 0.0, "lat": 38.887721166666665, "name": "67e293b0909f65ab05d88d54fde3641e", "fusion_lon": 0.0, "bike_id": "67e293b0909f65ab05d88d54fde3641e", "is_disabled": 0, "is_reserved": 0}, {"rental_uris": {"ios": "https://dc.lft.to/lastmile_qr_scan", "android": "https://dc.lft.to/lastmile_qr_scan"}, "lon": -77.11430916666667, "type": "electric_bike", "fusion_lat": 0.0, "lat": 38.852436, "name": "085a1c30a7525edf2aa30a4b3c900673", "fusion_lon": 0.0, "bike_id": "085a1c30a7525edf2aa30a4b3c900673", "is_disabled": 0, "is_reserved": 0}, {"rental_uris": {"ios": "https://dc.lft.to/lastmile_qr_scan", "android": "https://dc.lft.to/lastmile_qr_scan"}, "lon": -77.03224316666666, "type": "electric_scooter", "fusion_lat": 0.0, "lat": 38.89226716666667, "name": "490a2d24fd7114b4a5ff993fc94fa5f0", "fusion_lon": 0.0, "bike_id": "490a2d24fd7114b4a5ff993fc94fa5f0", "is_disabled": 0, "is_reserved": 0}, {"rental_uris": {"ios": "https://dc.lft.to/lastmile_qr_scan", "android": "https://dc.lft.to/lastmile_qr_scan"}, "lon": -77.04270033333333, "type": "electric_scooter", "fusion_lat": 0.0, "lat": 38.922392, "name": "04b068ea68ac3e6d18ddfc59aa61e7f1", "fusion_lon": 0.0, "bike_id": "04b068ea68ac3e6d18ddfc59aa61e7f1", "is_disabled": 0, "is_reserved": 0}, {"rental_uris": {"ios": "https://dc.lft.to/lastmile_qr_scan", "android": "https://dc.lft.to/lastmile_qr_scan"}, "lon": -77.04178566666667, "type": "electric_scooter", "fusion_lat": 0.0, "lat": 38.90733133333333, "name": "b2026990f52c20a4d41cf269c2acbcbb", "fusion_lon": 0.0, "bike_id": "b2026990f52c20a4d41cf269c2acbcbb", "is_disabled": 0, "is_reserved": 0}, {"rental_uris": {"ios": "https://dc.lft.to/lastmile_qr_scan", "android": "https://dc.lft.to/lastmile_qr_scan"}, "lon": -77.03427933333333, "type": "electric_scooter", "fusion_lat": 0.0, "lat": 38.92745716666667, "name": "eba7ec136cd2c0745f2a101211712360", "fusion_lon": 0.0, "bike_id": "eba7ec136cd2c0745f2a101211712360", "is_disabled": 0, "is_reserved": 0}, {"rental_uris": {"ios": "https://dc.lft.to/lastmile_qr_scan", "android": "https://dc.lft.to/lastmile_qr_scan"}, "lon": -77.0488815, "type": "electric_scooter", "fusion_lat": 0.0, "lat": 38.9058965, "name": "9f6a67b602fe8bbf8b564b61b5e40552", "fusion_lon": 0.0, "bike_id": "9f6a67b602fe8bbf8b564b61b5e40552", "is_disabled": 0, "is_reserved": 0}, {"rental_uris": {"ios": "https://dc.lft.to/lastmile_qr_scan", "android": "https://dc.lft.to/lastmile_qr_scan"}, "lon": -76.9782785, "type": "electric_bike", "fusion_lat": 0.0, "lat": 38.84612816666667, "name": "15ec8e34527f39c5602d50a153a00209", "fusion_lon": 0.0, "bike_id": "15ec8e34527f39c5602d50a153a00209", "is_disabled": 0, "is_reserved": 0}, {"rental_uris": {"ios": "https://dc.lft.to/lastmile_qr_scan", "android": "https://dc.lft.to/lastmile_qr_scan"}, "lon": -77.03147616666666, "type": "electric_scooter", "fusion_lat": 0.0, "lat": 38.910374, "name": "fe184c4b9ed6c938e2504b05ff1e91c0", "fusion_lon": 0.0, "bike_id": "fe184c4b9ed6c938e2504b05ff1e91c0", "is_disabled": 0, "is_reserved": 0}, {"rental_uris": {"ios": "https://dc.lft.to/lastmile_qr_scan", "android": "https://dc.lft.to/lastmile_qr_scan"}, "lon": -77.043256, "type": "electric_scooter", "fusion_lat": 0.0, "lat": 38.90353233333333, "name": "f70f1238d2121c8db87e11593cb8b86d", "fusion_lon": 0.0, "bike_id": "f70f1238d2121c8db87e11593cb8b86d", "is_disabled": 0, "is_reserved": 0}, {"rental_uris": {"ios": "https://dc.lft.to/lastmile_qr_scan", "android": "https://dc.lft.to/lastmile_qr_scan"}, "lon": -76.98396883333334, "type": "electric_bike", "fusion_lat": 0.0, "lat": 38.922043333333335, "name": "4a366372017da32251a47c53c3e1da95", "fusion_lon": 0.0, "bike_id": "4a366372017da32251a47c53c3e1da95", "is_disabled": 0, "is_reserved": 0}, {"rental_uris": {"ios": "https://dc.lft.to/lastmile_qr_scan", "android": "https://dc.lft.to/lastmile_qr_scan"}, "lon": -77.12628, "type": "electric_bike", "fusion_lat": 0.0, "lat": 39.058139, "name": "b004ea015c0ccee8b0c09f4669cf97a3", "fusion_lon": 0.0, "bike_id": "b004ea015c0ccee8b0c09f4669cf97a3", "is_disabled": 0, "is_reserved": 0}, {"rental_uris": {"ios": "https://dc.lft.to/lastmile_qr_scan", "android": "https://dc.lft.to/lastmile_qr_scan"}, "lon": -77.02174616666667, "type": "electric_scooter", "fusion_lat": 0.0, "lat": 38.9156975, "name": "58ef87d7059a11601d1056c5e50bcf0c", "fusion_lon": 0.0, "bike_id": "58ef87d7059a11601d1056c5e50bcf0c", "is_disabled": 0, "is_reserved": 0}, {"rental_uris": {"ios": "https://dc.lft.to/lastmile_qr_scan", "android": "https://dc.lft.to/lastmile_qr_scan"}, "lon": -77.03220233333333, "type": "electric_scooter", "fusion_lat": 0.0, "lat": 38.8922095, "name": "84aeaf91e7cf8a7e8ac6282a5cbbcb0a", "fusion_lon": 0.0, "bike_id": "84aeaf91e7cf8a7e8ac6282a5cbbcb0a", "is_disabled": 0, "is_reserved": 0}, {"rental_uris": {"ios": "https://dc.lft.to/lastmile_qr_scan", "android": "https://dc.lft.to/lastmile_qr_scan"}, "lon": -77.02049066666666, "type": "electric_scooter", "fusion_lat": 0.0, "lat": 38.9155695, "name": "fb41411bdc200dc2572bc9aae2d6c106", "fusion_lon": 0.0, "bike_id": "fb41411bdc200dc2572bc9aae2d6c106", "is_disabled": 0, "is_reserved": 0}, {"rental_uris": {"ios": "https://dc.lft.to/lastmile_qr_scan", "android": "https://dc.lft.to/lastmile_qr_scan"}, "lon": -77.03321116666666, "type": "electric_scooter", "fusion_lat": 0.0, "lat": 38.898992, "name": "506782e6e1aa34cf9f61cb2f0d93171a", "fusion_lon": 0.0, "bike_id": "506782e6e1aa34cf9f61cb2f0d93171a", "is_disabled": 0, "is_reserved": 0}, {"rental_uris": {"ios": "https://dc.lft.to/lastmile_qr_scan", "android": "https://dc.lft.to/lastmile_qr_scan"}, "lon": -77.07169916666666, "type": "electric_scooter", "fusion_lat": 0.0, "lat": 38.907782166666664, "name": "a20cbf300ae11fdb31b414594c8d704b", "fusion_lon": 0.0, "bike_id": "a20cbf300ae11fdb31b414594c8d704b", "is_disabled": 0, "is_reserved": 0}, {"rental_uris": {"ios": "https://dc.lft.to/lastmile_qr_scan", "android": "https://dc.lft.to/lastmile_qr_scan"}, "lon": -77.03420583333333, "type": "electric_scooter", "fusion_lat": 0.0, "lat": 38.9354165, "name": "227a3a6630c14e479f54dd6b3e610c66", "fusion_lon": 0.0, "bike_id": "227a3a6630c14e479f54dd6b3e610c66", "is_disabled": 0, "is_reserved": 0}, {"rental_uris": {"ios": "https://dc.lft.to/lastmile_qr_scan", "android": "https://dc.lft.to/lastmile_qr_scan"}, "lon": -77.02958783333334, "type": "electric_scooter", "fusion_lat": 0.0, "lat": 38.892027, "name": "17c5b1af737454179ad2a28b2e245668", "fusion_lon": 0.0, "bike_id": "17c5b1af737454179ad2a28b2e245668", "is_disabled": 0, "is_reserved": 0}, {"rental_uris": {"ios": "https://dc.lft.to/lastmile_qr_scan", "android": "https://dc.lft.to/lastmile_qr_scan"}, "lon": -77.00677466666667, "type": "electric_bike", "fusion_lat": 0.0, "lat": 38.94511516666667, "name": "33a3453e27a87286d207b23684f9442b", "fusion_lon": 0.0, "bike_id": "33a3453e27a87286d207b23684f9442b", "is_disabled": 0, "is_reserved": 0}, {"rental_uris": {"ios": "https://dc.lft.to/lastmile_qr_scan", "android": "https://dc.lft.to/lastmile_qr_scan"}, "lon": -77.00713216666666, "type": "electric_scooter", "fusion_lat": 0.0, "lat": 38.88489783333333, "name": "8cbdeeff056e4d630722175081384f46", "fusion_lon": 0.0, "bike_id": "8cbdeeff056e4d630722175081384f46", "is_disabled": 0, "is_reserved": 0}, {"rental_uris": {"ios": "https://dc.lft.to/lastmile_qr_scan", "android": "https://dc.lft.to/lastmile_qr_scan"}, "lon": -77.03563483333333, "type": "electric_scooter", "fusion_lat": 0.0, "lat": 38.918149666666665, "name": "ce58ccf4f6faff1c542e159e1f3ae56e", "fusion_lon": 0.0, "bike_id": "ce58ccf4f6faff1c542e159e1f3ae56e", "is_disabled": 0, "is_reserved": 0}, {"rental_uris": {"ios": "https://dc.lft.to/lastmile_qr_scan", "android": "https://dc.lft.to/lastmile_qr_scan"}, "lon": -77.05886483333333, "type": "electric_scooter", "fusion_lat": 0.0, "lat": 38.9363825, "name": "cb4f24c1a3831ac9879513a89fac8560", "fusion_lon": 0.0, "bike_id": "cb4f24c1a3831ac9879513a89fac8560", "is_disabled": 0, "is_reserved": 0}, {"rental_uris": {"ios": "https://dc.lft.to/lastmile_qr_scan", "android": "https://dc.lft.to/lastmile_qr_scan"}, "lon": -77.04730016666667, "type": "electric_scooter", "fusion_lat": 0.0, "lat": 38.91119466666667, "name": "0918ed416818ec6ed8dc4c6073cf54cf", "fusion_lon": 0.0, "bike_id": "0918ed416818ec6ed8dc4c6073cf54cf", "is_disabled": 0, "is_reserved": 0}, {"rental_uris": {"ios": "https://dc.lft.to/lastmile_qr_scan", "android": "https://dc.lft.to/lastmile_qr_scan"}, "lon": -77.02760416666666, "type": "electric_scooter", "fusion_lat": 0.0, "lat": 38.956147333333334, "name": "53855285cd50d11e780ed8bae7c0a54a", "fusion_lon": 0.0, "bike_id": "53855285cd50d11e780ed8bae7c0a54a", "is_disabled": 0, "is_reserved": 0}, {"rental_uris": {"ios": "https://dc.lft.to/lastmile_qr_scan", "android": "https://dc.lft.to/lastmile_qr_scan"}, "lon": -77.029643, "type": "electric_scooter", "fusion_lat": 0.0, "lat": 38.954232, "name": "d6022a7b9dc23224e2ecbe0bc180d593", "fusion_lon": 0.0, "bike_id": "d6022a7b9dc23224e2ecbe0bc180d593", "is_disabled": 0, "is_reserved": 0}, {"rental_uris": {"ios": "https://dc.lft.to/lastmile_qr_scan", "android": "https://dc.lft.to/lastmile_qr_scan"}, "lon": -77.06948933333334, "type": "electric_bike", "fusion_lat": 0.0, "lat": 38.99043616666667, "name": "9117829b95c04a523bc723a145ff21c6", "fusion_lon": 0.0, "bike_id": "9117829b95c04a523bc723a145ff21c6", "is_disabled": 0, "is_reserved": 0}, {"rental_uris": {"ios": "https://dc.lft.to/lastmile_qr_scan", "android": "https://dc.lft.to/lastmile_qr_scan"}, "lon": -77.02277166666667, "type": "electric_scooter", "fusion_lat": 0.0, "lat": 38.91659833333333, "name": "7cda1311de3f24186169e46497e6de79", "fusion_lon": 0.0, "bike_id": "7cda1311de3f24186169e46497e6de79", "is_disabled": 0, "is_reserved": 0}, {"rental_uris": {"ios": "https://dc.lft.to/lastmile_qr_scan", "android": "https://dc.lft.to/lastmile_qr_scan"}, "lon": -77.03449233333333, "type": "electric_scooter", "fusion_lat": 0.0, "lat": 38.90947383333334, "name": "660c3de1204057bb37cb5388d73aee04", "fusion_lon": 0.0, "bike_id": "660c3de1204057bb37cb5388d73aee04", "is_disabled": 0, "is_reserved": 0}, {"rental_uris": {"ios": "https://dc.lft.to/lastmile_qr_scan", "android": "https://dc.lft.to/lastmile_qr_scan"}, "lon": -76.98612083333333, "type": "electric_bike", "fusion_lat": 0.0, "lat": 38.90628366666667, "name": "4c615cd68179e25bd3d56f47ae1018d3", "fusion_lon": 0.0, "bike_id": "4c615cd68179e25bd3d56f47ae1018d3", "is_disabled": 0, "is_reserved": 0}, {"rental_uris": {"ios": "https://dc.lft.to/lastmile_qr_scan", "android": "https://dc.lft.to/lastmile_qr_scan"}, "lon": -76.968827, "type": "electric_scooter", "fusion_lat": 0.0, "lat": 38.924446333333336, "name": "5b514d0c52e2363230ce8c26450b75e2", "fusion_lon": 0.0, "bike_id": "5b514d0c52e2363230ce8c26450b75e2", "is_disabled": 0, "is_reserved": 0}, {"rental_uris": {"ios": "https://dc.lft.to/lastmile_qr_scan", "android": "https://dc.lft.to/lastmile_qr_scan"}, "lon": -77.02418666666667, "type": "electric_scooter", "fusion_lat": 0.0, "lat": 38.918227333333334, "name": "a90ffbd4bd553ab813ef764a78976530", "fusion_lon": 0.0, "bike_id": "a90ffbd4bd553ab813ef764a78976530", "is_disabled": 0, "is_reserved": 0}, {"rental_uris": {"ios": "https://dc.lft.to/lastmile_qr_scan", "android": "https://dc.lft.to/lastmile_qr_scan"}, "lon": -77.0512055, "type": "electric_bike", "fusion_lat": 0.0, "lat": 38.9997145, "name": "022230c27aab6c46e29142d41e08903c", "fusion_lon": 0.0, "bike_id": "022230c27aab6c46e29142d41e08903c", "is_disabled": 0, "is_reserved": 0}, {"rental_uris": {"ios": "https://dc.lft.to/lastmile_qr_scan", "android": "https://dc.lft.to/lastmile_qr_scan"}, "lon": -77.08830583333334, "type": "electric_bike", "fusion_lat": 0.0, "lat": 38.9097355, "name": "3ec7da2cc73314351048f4cf6feff892", "fusion_lon": 0.0, "bike_id": "3ec7da2cc73314351048f4cf6feff892", "is_disabled": 0, "is_reserved": 0}, {"rental_uris": {"ios": "https://dc.lft.to/lastmile_qr_scan", "android": "https://dc.lft.to/lastmile_qr_scan"}, "lon": -77.02444883333334, "type": "electric_scooter", "fusion_lat": 0.0, "lat": 38.918454, "name": "4d745d46e1a6f8b390f3094a399e523e", "fusion_lon": 0.0, "bike_id": "4d745d46e1a6f8b390f3094a399e523e", "is_disabled": 0, "is_reserved": 0}, {"rental_uris": {"ios": "https://dc.lft.to/lastmile_qr_scan", "android": "https://dc.lft.to/lastmile_qr_scan"}, "lon": -77.01619416666666, "type": "electric_scooter", "fusion_lat": 0.0, "lat": 38.90335733333333, "name": "faa7f2b2c878c8dff607e5fd39e6a47f", "fusion_lon": 0.0, "bike_id": "faa7f2b2c878c8dff607e5fd39e6a47f", "is_disabled": 0, "is_reserved": 0}, {"rental_uris": {"ios": "https://dc.lft.to/lastmile_qr_scan", "android": "https://dc.lft.to/lastmile_qr_scan"}, "lon": -77.05443466666667, "type": "electric_scooter", "fusion_lat": 0.0, "lat": 38.896081, "name": "a9f2eb7b71e2bcfbe11a0e96bf51ac94", "fusion_lon": 0.0, "bike_id": "a9f2eb7b71e2bcfbe11a0e96bf51ac94", "is_disabled": 0, "is_reserved": 0}, {"rental_uris": {"ios": "https://dc.lft.to/lastmile_qr_scan", "android": "https://dc.lft.to/lastmile_qr_scan"}, "lon": -77.04413216666667, "type": "electric_scooter", "fusion_lat": 0.0, "lat": 38.90580666666666, "name": "32db7f38a5276d293d1d480b40593260", "fusion_lon": 0.0, "bike_id": "32db7f38a5276d293d1d480b40593260", "is_disabled": 0, "is_reserved": 0}, {"rental_uris": {"ios": "https://dc.lft.to/lastmile_qr_scan", "android": "https://dc.lft.to/lastmile_qr_scan"}, "lon": -77.01838766666667, "type": "electric_scooter", "fusion_lat": 0.0, "lat": 38.9087995, "name": "a004df3b8da7034d0eeaa104ad1091bb", "fusion_lon": 0.0, "bike_id": "a004df3b8da7034d0eeaa104ad1091bb", "is_disabled": 0, "is_reserved": 0}, {"rental_uris": {"ios": "https://dc.lft.to/lastmile_qr_scan", "android": "https://dc.lft.to/lastmile_qr_scan"}, "lon": -77.04791633333333, "type": "electric_scooter", "fusion_lat": 0.0, "lat": 38.89368416666667, "name": "fc39ead4f54df05705fdb7f2f2a25147", "fusion_lon": 0.0, "bike_id": "fc39ead4f54df05705fdb7f2f2a25147", "is_disabled": 0, "is_reserved": 0}, {"rental_uris": {"ios": "https://dc.lft.to/lastmile_qr_scan", "android": "https://dc.lft.to/lastmile_qr_scan"}, "lon": -77.03367933333334, "type": "electric_scooter", "fusion_lat": 0.0, "lat": 38.93845866666667, "name": "7f0d3d39f6ca8075bd215c01a32a62c2", "fusion_lon": 0.0, "bike_id": "7f0d3d39f6ca8075bd215c01a32a62c2", "is_disabled": 0, "is_reserved": 0}, {"rental_uris": {"ios": "https://dc.lft.to/lastmile_qr_scan", "android": "https://dc.lft.to/lastmile_qr_scan"}, "lon": -77.03490166666667, "type": "electric_scooter", "fusion_lat": 0.0, "lat": 38.917088666666665, "name": "229f5306af678f580847bc29fb71bee1", "fusion_lon": 0.0, "bike_id": "229f5306af678f580847bc29fb71bee1", "is_disabled": 0, "is_reserved": 0}, {"rental_uris": {"ios": "https://dc.lft.to/lastmile_qr_scan", "android": "https://dc.lft.to/lastmile_qr_scan"}, "lon": -77.01113966666666, "type": "electric_scooter", "fusion_lat": 0.0, "lat": 38.90013866666666, "name": "69eedee21110598876b486f83b2c5086", "fusion_lon": 0.0, "bike_id": "69eedee21110598876b486f83b2c5086", "is_disabled": 0, "is_reserved": 0}, {"rental_uris": {"ios": "https://dc.lft.to/lastmile_qr_scan", "android": "https://dc.lft.to/lastmile_qr_scan"}, "lon": -76.98261983333333, "type": "electric_scooter", "fusion_lat": 0.0, "lat": 38.863533, "name": "e4e50864de7c2cde9d639867e3f4ca58", "fusion_lon": 0.0, "bike_id": "e4e50864de7c2cde9d639867e3f4ca58", "is_disabled": 0, "is_reserved": 0}, {"rental_uris": {"ios": "https://dc.lft.to/lastmile_qr_scan", "android": "https://dc.lft.to/lastmile_qr_scan"}, "lon": -77.01654466666666, "type": "electric_scooter", "fusion_lat": 0.0, "lat": 38.95331, "name": "2c5119d6ea3d59c15e737aeaa7ca234c", "fusion_lon": 0.0, "bike_id": "2c5119d6ea3d59c15e737aeaa7ca234c", "is_disabled": 0, "is_reserved": 0}, {"rental_uris": {"ios": "https://dc.lft.to/lastmile_qr_scan", "android": "https://dc.lft.to/lastmile_qr_scan"}, "lon": -77.0382175, "type": "electric_scooter", "fusion_lat": 0.0, "lat": 38.909773666666666, "name": "2c63e27c6e637652aa0b42662d3daf7b", "fusion_lon": 0.0, "bike_id": "2c63e27c6e637652aa0b42662d3daf7b", "is_disabled": 0, "is_reserved": 0}, {"rental_uris": {"ios": "https://dc.lft.to/lastmile_qr_scan", "android": "https://dc.lft.to/lastmile_qr_scan"}, "lon": -77.00262016666667, "type": "electric_scooter", "fusion_lat": 0.0, "lat": 38.877525, "name": "be580ac8b34921d157f3404e148d04fa", "fusion_lon": 0.0, "bike_id": "be580ac8b34921d157f3404e148d04fa", "is_disabled": 0, "is_reserved": 0}, {"rental_uris": {"ios": "https://dc.lft.to/lastmile_qr_scan", "android": "https://dc.lft.to/lastmile_qr_scan"}, "lon": -76.99593883333333, "type": "electric_scooter", "fusion_lat": 0.0, "lat": 38.92227316666666, "name": "651e53d9b36264083b66a88e3d04d93b", "fusion_lon": 0.0, "bike_id": "651e53d9b36264083b66a88e3d04d93b", "is_disabled": 0, "is_reserved": 0}, {"rental_uris": {"ios": "https://dc.lft.to/lastmile_qr_scan", "android": "https://dc.lft.to/lastmile_qr_scan"}, "lon": -77.029799, "type": "electric_scooter", "fusion_lat": 0.0, "lat": 38.9404785, "name": "81648b1836e9ce55136bd3d7b792bdcb", "fusion_lon": 0.0, "bike_id": "81648b1836e9ce55136bd3d7b792bdcb", "is_disabled": 0, "is_reserved": 0}, {"rental_uris": {"ios": "https://dc.lft.to/lastmile_qr_scan", "android": "https://dc.lft.to/lastmile_qr_scan"}, "lon": -77.00796616666666, "type": "electric_bike", "fusion_lat": 0.0, "lat": 38.94921316666667, "name": "9d56745d1f20f0ec389470fa19ef53a5", "fusion_lon": 0.0, "bike_id": "9d56745d1f20f0ec389470fa19ef53a5", "is_disabled": 0, "is_reserved": 0}, {"rental_uris": {"ios": "https://dc.lft.to/lastmile_qr_scan", "android": "https://dc.lft.to/lastmile_qr_scan"}, "lon": -77.006743, "type": "electric_scooter", "fusion_lat": 0.0, "lat": 38.87494733333333, "name": "836cf33fed9516c81919cdf0995304c5", "fusion_lon": 0.0, "bike_id": "836cf33fed9516c81919cdf0995304c5", "is_disabled": 0, "is_reserved": 0}, {"rental_uris": {"ios": "https://dc.lft.to/lastmile_qr_scan", "android": "https://dc.lft.to/lastmile_qr_scan"}, "lon": -77.03934133333334, "type": "electric_scooter", "fusion_lat": 0.0, "lat": 38.926191333333335, "name": "d0d50bc9e1315232eb03fd4ce31ca0b1", "fusion_lon": 0.0, "bike_id": "d0d50bc9e1315232eb03fd4ce31ca0b1", "is_disabled": 0, "is_reserved": 0}, {"rental_uris": {"ios": "https://dc.lft.to/lastmile_qr_scan", "android": "https://dc.lft.to/lastmile_qr_scan"}, "lon": -77.02770083333333, "type": "electric_scooter", "fusion_lat": 0.0, "lat": 38.892033166666664, "name": "f1db6ec54cab73a2b981d0d034ce8eb8", "fusion_lon": 0.0, "bike_id": "f1db6ec54cab73a2b981d0d034ce8eb8", "is_disabled": 0, "is_reserved": 0}, {"rental_uris": {"ios": "https://dc.lft.to/lastmile_qr_scan", "android": "https://dc.lft.to/lastmile_qr_scan"}, "lon": -77.000421, "type": "electric_scooter", "fusion_lat": 0.0, "lat": 38.873908666666665, "name": "066a4125f27cb2d8efe8a5ec0c17dfbd", "fusion_lon": 0.0, "bike_id": "066a4125f27cb2d8efe8a5ec0c17dfbd", "is_disabled": 0, "is_reserved": 0}, {"rental_uris": {"ios": "https://dc.lft.to/lastmile_qr_scan", "android": "https://dc.lft.to/lastmile_qr_scan"}, "lon": -77.03835616666667, "type": "electric_scooter", "fusion_lat": 0.0, "lat": 38.903685, "name": "cb8cac282afd5c9a7529d13e4d58907a", "fusion_lon": 0.0, "bike_id": "cb8cac282afd5c9a7529d13e4d58907a", "is_disabled": 0, "is_reserved": 0}, {"rental_uris": {"ios": "https://dc.lft.to/lastmile_qr_scan", "android": "https://dc.lft.to/lastmile_qr_scan"}, "lon": -77.14120583333333, "type": "electric_bike", "fusion_lat": 0.0, "lat": 38.816035666666664, "name": "9dff25bbc5665c6f492c6c004305e49b", "fusion_lon": 0.0, "bike_id": "9dff25bbc5665c6f492c6c004305e49b", "is_disabled": 0, "is_reserved": 0}, {"rental_uris": {"ios": "https://dc.lft.to/lastmile_qr_scan", "android": "https://dc.lft.to/lastmile_qr_scan"}, "lon": -77.03931933333334, "type": "electric_scooter", "fusion_lat": 0.0, "lat": 38.917524666666665, "name": "cb532c6d9186cf90e696bf85a22c71d4", "fusion_lon": 0.0, "bike_id": "cb532c6d9186cf90e696bf85a22c71d4", "is_disabled": 0, "is_reserved": 0}, {"rental_uris": {"ios": "https://dc.lft.to/lastmile_qr_scan", "android": "https://dc.lft.to/lastmile_qr_scan"}, "lon": -77.05918116666666, "type": "electric_bike", "fusion_lat": 0.0, "lat": 38.904346833333335, "name": "1e2c6e40984ce821e1d918d34005930b", "fusion_lon": 0.0, "bike_id": "1e2c6e40984ce821e1d918d34005930b", "is_disabled": 0, "is_reserved": 0}, {"rental_uris": {"ios": "https://dc.lft.to/lastmile_qr_scan", "android": "https://dc.lft.to/lastmile_qr_scan"}, "lon": -77.0345825, "type": "electric_scooter", "fusion_lat": 0.0, "lat": 38.905393, "name": "b3eb563f7631dbddeb80b6eb4b7fa785", "fusion_lon": 0.0, "bike_id": "b3eb563f7631dbddeb80b6eb4b7fa785", "is_disabled": 0, "is_reserved": 0}, {"rental_uris": {"ios": "https://dc.lft.to/lastmile_qr_scan", "android": "https://dc.lft.to/lastmile_qr_scan"}, "lon": -76.949751, "type": "electric_scooter", "fusion_lat": 0.0, "lat": 38.89372066666667, "name": "6af7d7cead1e6f719c3e8acf1858f959", "fusion_lon": 0.0, "bike_id": "6af7d7cead1e6f719c3e8acf1858f959", "is_disabled": 0, "is_reserved": 0}, {"rental_uris": {"ios": "https://dc.lft.to/lastmile_qr_scan", "android": "https://dc.lft.to/lastmile_qr_scan"}, "lon": -76.9317825, "type": "electric_scooter", "fusion_lat": 0.0, "lat": 38.8988675, "name": "7e366cf5d12f4beacff4ec33bf5e4f2b", "fusion_lon": 0.0, "bike_id": "7e366cf5d12f4beacff4ec33bf5e4f2b", "is_disabled": 0, "is_reserved": 0}, {"rental_uris": {"ios": "https://dc.lft.to/lastmile_qr_scan", "android": "https://dc.lft.to/lastmile_qr_scan"}, "lon": -77.00213383333333, "type": "electric_scooter", "fusion_lat": 0.0, "lat": 38.9022285, "name": "d857443d4f042bfadb22a16ac529eb6f", "fusion_lon": 0.0, "bike_id": "d857443d4f042bfadb22a16ac529eb6f", "is_disabled": 0, "is_reserved": 0}, {"rental_uris": {"ios": "https://dc.lft.to/lastmile_qr_scan", "android": "https://dc.lft.to/lastmile_qr_scan"}, "lon": -77.05157666666666, "type": "electric_scooter", "fusion_lat": 0.0, "lat": 38.89768016666667, "name": "b97b1d7a640a0db4a5cd861797bc26e2", "fusion_lon": 0.0, "bike_id": "b97b1d7a640a0db4a5cd861797bc26e2", "is_disabled": 0, "is_reserved": 0}, {"rental_uris": {"ios": "https://dc.lft.to/lastmile_qr_scan", "android": "https://dc.lft.to/lastmile_qr_scan"}, "lon": -77.04659266666667, "type": "electric_scooter", "fusion_lat": 0.0, "lat": 38.89333933333333, "name": "ad73ed2fb8180f555654d0d175fbf6b6", "fusion_lon": 0.0, "bike_id": "ad73ed2fb8180f555654d0d175fbf6b6", "is_disabled": 0, "is_reserved": 0}, {"rental_uris": {"ios": "https://dc.lft.to/lastmile_qr_scan", "android": "https://dc.lft.to/lastmile_qr_scan"}, "lon": -76.99464183333333, "type": "electric_bike", "fusion_lat": 0.0, "lat": 38.94067616666667, "name": "8e2b17e80bdc7346433ae62743c76524", "fusion_lon": 0.0, "bike_id": "8e2b17e80bdc7346433ae62743c76524", "is_disabled": 0, "is_reserved": 0}, {"rental_uris": {"ios": "https://dc.lft.to/lastmile_qr_scan", "android": "https://dc.lft.to/lastmile_qr_scan"}, "lon": -77.1203925, "type": "electric_bike", "fusion_lat": 0.0, "lat": 38.855099, "name": "1a702ccfea8e10eea0fcd6574c78211f", "fusion_lon": 0.0, "bike_id": "1a702ccfea8e10eea0fcd6574c78211f", "is_disabled": 0, "is_reserved": 0}, {"rental_uris": {"ios": "https://dc.lft.to/lastmile_qr_scan", "android": "https://dc.lft.to/lastmile_qr_scan"}, "lon": -77.03177016666666, "type": "electric_scooter", "fusion_lat": 0.0, "lat": 38.886269666666664, "name": "5fa312693161642bdc0998c1a23d26bd", "fusion_lon": 0.0, "bike_id": "5fa312693161642bdc0998c1a23d26bd", "is_disabled": 0, "is_reserved": 0}, {"rental_uris": {"ios": "https://dc.lft.to/lastmile_qr_scan", "android": "https://dc.lft.to/lastmile_qr_scan"}, "lon": -77.033306, "type": "electric_scooter", "fusion_lat": 0.0, "lat": 38.89918316666667, "name": "0d1cd56c2ce01574ae8ba684fde20e53", "fusion_lon": 0.0, "bike_id": "0d1cd56c2ce01574ae8ba684fde20e53", "is_disabled": 0, "is_reserved": 0}, {"rental_uris": {"ios": "https://dc.lft.to/lastmile_qr_scan", "android": "https://dc.lft.to/lastmile_qr_scan"}, "lon": -76.9837425, "type": "electric_scooter", "fusion_lat": 0.0, "lat": 38.86029416666667, "name": "e516d57c700a138eab2ab78891ad3b74", "fusion_lon": 0.0, "bike_id": "e516d57c700a138eab2ab78891ad3b74", "is_disabled": 0, "is_reserved": 0}, {"rental_uris": {"ios": "https://dc.lft.to/lastmile_qr_scan", "android": "https://dc.lft.to/lastmile_qr_scan"}, "lon": -76.97506016666667, "type": "electric_bike", "fusion_lat": 0.0, "lat": 38.91936116666667, "name": "cba9a18fb231a4de8f160581b0ac1a30", "fusion_lon": 0.0, "bike_id": "cba9a18fb231a4de8f160581b0ac1a30", "is_disabled": 0, "is_reserved": 0}, {"rental_uris": {"ios": "https://dc.lft.to/lastmile_qr_scan", "android": "https://dc.lft.to/lastmile_qr_scan"}, "lon": -77.04261333333334, "type": "electric_scooter", "fusion_lat": 0.0, "lat": 38.90853416666667, "name": "af84fc83a78e3575826a1aa918f60b99", "fusion_lon": 0.0, "bike_id": "af84fc83a78e3575826a1aa918f60b99", "is_disabled": 0, "is_reserved": 0}, {"rental_uris": {"ios": "https://dc.lft.to/lastmile_qr_scan", "android": "https://dc.lft.to/lastmile_qr_scan"}, "lon": -76.9732785, "type": "electric_scooter", "fusion_lat": 0.0, "lat": 38.93028266666666, "name": "30098a2a3f5809641d9cf05ce879453b", "fusion_lon": 0.0, "bike_id": "30098a2a3f5809641d9cf05ce879453b", "is_disabled": 0, "is_reserved": 0}, {"rental_uris": {"ios": "https://dc.lft.to/lastmile_qr_scan", "android": "https://dc.lft.to/lastmile_qr_scan"}, "lon": -76.97558666666667, "type": "electric_scooter", "fusion_lat": 0.0, "lat": 38.90443483333333, "name": "dac2b4ee28ef228ba2f49dc3269981df", "fusion_lon": 0.0, "bike_id": "dac2b4ee28ef228ba2f49dc3269981df", "is_disabled": 0, "is_reserved": 0}, {"rental_uris": {"ios": "https://dc.lft.to/lastmile_qr_scan", "android": "https://dc.lft.to/lastmile_qr_scan"}, "lon": -76.99610583333333, "type": "electric_scooter", "fusion_lat": 0.0, "lat": 38.886240666666666, "name": "ca78691f66e91a24a2f75dca6325fb77", "fusion_lon": 0.0, "bike_id": "ca78691f66e91a24a2f75dca6325fb77", "is_disabled": 0, "is_reserved": 0}, {"rental_uris": {"ios": "https://dc.lft.to/lastmile_qr_scan", "android": "https://dc.lft.to/lastmile_qr_scan"}, "lon": -77.044951, "type": "electric_scooter", "fusion_lat": 0.0, "lat": 38.91522, "name": "abca0279ad73d011f941d47f5486fa80", "fusion_lon": 0.0, "bike_id": "abca0279ad73d011f941d47f5486fa80", "is_disabled": 0, "is_reserved": 0}, {"rental_uris": {"ios": "https://dc.lft.to/lastmile_qr_scan", "android": "https://dc.lft.to/lastmile_qr_scan"}, "lon": -76.9856355, "type": "electric_scooter", "fusion_lat": 0.0, "lat": 38.861485333333334, "name": "7b2ab39637a75a9bc32d636f405a4277", "fusion_lon": 0.0, "bike_id": "7b2ab39637a75a9bc32d636f405a4277", "is_disabled": 0, "is_reserved": 0}, {"rental_uris": {"ios": "https://dc.lft.to/lastmile_qr_scan", "android": "https://dc.lft.to/lastmile_qr_scan"}, "lon": -77.0318755, "type": "electric_scooter", "fusion_lat": 0.0, "lat": 38.907933166666666, "name": "351716f187fb0ad276cdcb66f4ecf589", "fusion_lon": 0.0, "bike_id": "351716f187fb0ad276cdcb66f4ecf589", "is_disabled": 0, "is_reserved": 0}, {"rental_uris": {"ios": "https://dc.lft.to/lastmile_qr_scan", "android": "https://dc.lft.to/lastmile_qr_scan"}, "lon": -77.04325416666667, "type": "electric_scooter", "fusion_lat": 0.0, "lat": 38.92618183333333, "name": "c24d392b8cb2f71d8645225e86ce0ae0", "fusion_lon": 0.0, "bike_id": "c24d392b8cb2f71d8645225e86ce0ae0", "is_disabled": 0, "is_reserved": 0}, {"rental_uris": {"ios": "https://dc.lft.to/lastmile_qr_scan", "android": "https://dc.lft.to/lastmile_qr_scan"}, "lon": -77.04635733333333, "type": "electric_scooter", "fusion_lat": 0.0, "lat": 38.89223416666667, "name": "d0c3ac0689c49550f1a2e6bd2af60ce3", "fusion_lon": 0.0, "bike_id": "d0c3ac0689c49550f1a2e6bd2af60ce3", "is_disabled": 0, "is_reserved": 0}, {"rental_uris": {"ios": "https://dc.lft.to/lastmile_qr_scan", "android": "https://dc.lft.to/lastmile_qr_scan"}, "lon": -77.04045066666667, "type": "electric_bike", "fusion_lat": 0.0, "lat": 38.8042415, "name": "45f4f5a81741a059e0ec8e6186b9168c", "fusion_lon": 0.0, "bike_id": "45f4f5a81741a059e0ec8e6186b9168c", "is_disabled": 0, "is_reserved": 0}, {"rental_uris": {"ios": "https://dc.lft.to/lastmile_qr_scan", "android": "https://dc.lft.to/lastmile_qr_scan"}, "lon": -77.03876916666667, "type": "electric_scooter", "fusion_lat": 0.0, "lat": 38.908135333333334, "name": "c5dfb83dd673f35058eee2487e7a8014", "fusion_lon": 0.0, "bike_id": "c5dfb83dd673f35058eee2487e7a8014", "is_disabled": 0, "is_reserved": 0}, {"rental_uris": {"ios": "https://dc.lft.to/lastmile_qr_scan", "android": "https://dc.lft.to/lastmile_qr_scan"}, "lon": -77.03621166666667, "type": "electric_scooter", "fusion_lat": 0.0, "lat": 38.937373666666666, "name": "d5343090c0268d6a98672ea22fbf42fe", "fusion_lon": 0.0, "bike_id": "d5343090c0268d6a98672ea22fbf42fe", "is_disabled": 0, "is_reserved": 0}, {"rental_uris": {"ios": "https://dc.lft.to/lastmile_qr_scan", "android": "https://dc.lft.to/lastmile_qr_scan"}, "lon": -77.06380316666667, "type": "electric_scooter", "fusion_lat": 0.0, "lat": 38.90516433333333, "name": "4f511ea403ad7512cee2c2325656eae4", "fusion_lon": 0.0, "bike_id": "4f511ea403ad7512cee2c2325656eae4", "is_disabled": 0, "is_reserved": 0}, {"rental_uris": {"ios": "https://dc.lft.to/lastmile_qr_scan", "android": "https://dc.lft.to/lastmile_qr_scan"}, "lon": -77.0025235, "type": "electric_bike", "fusion_lat": 0.0, "lat": 38.91177716666667, "name": "845284e148d83c3e617f2cff751361eb", "fusion_lon": 0.0, "bike_id": "845284e148d83c3e617f2cff751361eb", "is_disabled": 0, "is_reserved": 0}, {"rental_uris": {"ios": "https://dc.lft.to/lastmile_qr_scan", "android": "https://dc.lft.to/lastmile_qr_scan"}, "lon": -77.01863233333333, "type": "electric_scooter", "fusion_lat": 0.0, "lat": 38.89262866666667, "name": "66d3927cd0241b26085fe16ef8bc4b6f", "fusion_lon": 0.0, "bike_id": "66d3927cd0241b26085fe16ef8bc4b6f", "is_disabled": 0, "is_reserved": 0}, {"rental_uris": {"ios": "https://dc.lft.to/lastmile_qr_scan", "android": "https://dc.lft.to/lastmile_qr_scan"}, "lon": -77.00463066666667, "type": "electric_scooter", "fusion_lat": 0.0, "lat": 38.91186, "name": "e0dc312350a0e6fb5123cfccd5977db4", "fusion_lon": 0.0, "bike_id": "e0dc312350a0e6fb5123cfccd5977db4", "is_disabled": 0, "is_reserved": 0}, {"rental_uris": {"ios": "https://dc.lft.to/lastmile_qr_scan", "android": "https://dc.lft.to/lastmile_qr_scan"}, "lon": -77.02552083333333, "type": "electric_scooter", "fusion_lat": 0.0, "lat": 38.89225966666667, "name": "13a8b1e09f623b24c8dbe46161ea0b4e", "fusion_lon": 0.0, "bike_id": "13a8b1e09f623b24c8dbe46161ea0b4e", "is_disabled": 0, "is_reserved": 0}, {"rental_uris": {"ios": "https://dc.lft.to/lastmile_qr_scan", "android": "https://dc.lft.to/lastmile_qr_scan"}, "lon": -77.04848933333334, "type": "electric_scooter", "fusion_lat": 0.0, "lat": 38.919672166666665, "name": "06f35265f175bf8e5da2c57ee7a8d57d", "fusion_lon": 0.0, "bike_id": "06f35265f175bf8e5da2c57ee7a8d57d", "is_disabled": 0, "is_reserved": 0}, {"rental_uris": {"ios": "https://dc.lft.to/lastmile_qr_scan", "android": "https://dc.lft.to/lastmile_qr_scan"}, "lon": -77.182943, "type": "electric_bike", "fusion_lat": 0.0, "lat": 38.88347483333333, "name": "a1a884d19dad7d8af63e9cc78471c591", "fusion_lon": 0.0, "bike_id": "a1a884d19dad7d8af63e9cc78471c591", "is_disabled": 0, "is_reserved": 0}, {"rental_uris": {"ios": "https://dc.lft.to/lastmile_qr_scan", "android": "https://dc.lft.to/lastmile_qr_scan"}, "lon": -77.02192216666667, "type": "electric_scooter", "fusion_lat": 0.0, "lat": 38.915689, "name": "43e6cbeb48aeb5b1f8f4323927514023", "fusion_lon": 0.0, "bike_id": "43e6cbeb48aeb5b1f8f4323927514023", "is_disabled": 0, "is_reserved": 0}, {"rental_uris": {"ios": "https://dc.lft.to/lastmile_qr_scan", "android": "https://dc.lft.to/lastmile_qr_scan"}, "lon": -77.03490333333333, "type": "electric_scooter", "fusion_lat": 0.0, "lat": 38.91710283333333, "name": "6acdbc0c660af7b141dd67ce90130fb2", "fusion_lon": 0.0, "bike_id": "6acdbc0c660af7b141dd67ce90130fb2", "is_disabled": 0, "is_reserved": 0}, {"rental_uris": {"ios": "https://dc.lft.to/lastmile_qr_scan", "android": "https://dc.lft.to/lastmile_qr_scan"}, "lon": -77.03313633333333, "type": "electric_scooter", "fusion_lat": 0.0, "lat": 38.90154533333333, "name": "c8befdfd9f2ce8c2af058e0bdda2115a", "fusion_lon": 0.0, "bike_id": "c8befdfd9f2ce8c2af058e0bdda2115a", "is_disabled": 0, "is_reserved": 0}, {"rental_uris": {"ios": "https://dc.lft.to/lastmile_qr_scan", "android": "https://dc.lft.to/lastmile_qr_scan"}, "lon": -76.97821633333334, "type": "electric_scooter", "fusion_lat": 0.0, "lat": 38.89521583333333, "name": "13c8e9df3ea256ead69db6b4d6188d9c", "fusion_lon": 0.0, "bike_id": "13c8e9df3ea256ead69db6b4d6188d9c", "is_disabled": 0, "is_reserved": 0}, {"rental_uris": {"ios": "https://dc.lft.to/lastmile_qr_scan", "android": "https://dc.lft.to/lastmile_qr_scan"}, "lon": -76.9902295, "type": "electric_scooter", "fusion_lat": 0.0, "lat": 38.858669666666664, "name": "7385f82be0815b1bed0d02bd1afc2897", "fusion_lon": 0.0, "bike_id": "7385f82be0815b1bed0d02bd1afc2897", "is_disabled": 0, "is_reserved": 0}, {"rental_uris": {"ios": "https://dc.lft.to/lastmile_qr_scan", "android": "https://dc.lft.to/lastmile_qr_scan"}, "lon": -77.03995966666666, "type": "electric_scooter", "fusion_lat": 0.0, "lat": 38.900057333333336, "name": "d82caa06bf17643411cffe3e3d31f077", "fusion_lon": 0.0, "bike_id": "d82caa06bf17643411cffe3e3d31f077", "is_disabled": 0, "is_reserved": 0}, {"rental_uris": {"ios": "https://dc.lft.to/lastmile_qr_scan", "android": "https://dc.lft.to/lastmile_qr_scan"}, "lon": -77.01746433333334, "type": "electric_scooter", "fusion_lat": 0.0, "lat": 38.90559183333333, "name": "8eb61bc22bc784209b6ad58e5feb962f", "fusion_lon": 0.0, "bike_id": "8eb61bc22bc784209b6ad58e5feb962f", "is_disabled": 0, "is_reserved": 0}, {"rental_uris": {"ios": "https://dc.lft.to/lastmile_qr_scan", "android": "https://dc.lft.to/lastmile_qr_scan"}, "lon": -77.06349933333334, "type": "electric_scooter", "fusion_lat": 0.0, "lat": 38.944489, "name": "2ce248e99ef96d5a59cbc75a3bcad170", "fusion_lon": 0.0, "bike_id": "2ce248e99ef96d5a59cbc75a3bcad170", "is_disabled": 0, "is_reserved": 0}, {"rental_uris": {"ios": "https://dc.lft.to/lastmile_qr_scan", "android": "https://dc.lft.to/lastmile_qr_scan"}, "lon": -77.05086216666666, "type": "electric_scooter", "fusion_lat": 0.0, "lat": 38.92449216666667, "name": "76032458f1a5c1055dba3f08cf1e1efb", "fusion_lon": 0.0, "bike_id": "76032458f1a5c1055dba3f08cf1e1efb", "is_disabled": 0, "is_reserved": 0}, {"rental_uris": {"ios": "https://dc.lft.to/lastmile_qr_scan", "android": "https://dc.lft.to/lastmile_qr_scan"}, "lon": -77.0318565, "type": "electric_scooter", "fusion_lat": 0.0, "lat": 38.917900833333334, "name": "eb41e429a9037fba2819da918ae802c9", "fusion_lon": 0.0, "bike_id": "eb41e429a9037fba2819da918ae802c9", "is_disabled": 0, "is_reserved": 0}, {"rental_uris": {"ios": "https://dc.lft.to/lastmile_qr_scan", "android": "https://dc.lft.to/lastmile_qr_scan"}, "lon": -77.02697666666667, "type": "electric_scooter", "fusion_lat": 0.0, "lat": 38.91634466666667, "name": "0f45902de7b1b022e1a8c435543ebad7", "fusion_lon": 0.0, "bike_id": "0f45902de7b1b022e1a8c435543ebad7", "is_disabled": 0, "is_reserved": 0}, {"rental_uris": {"ios": "https://dc.lft.to/lastmile_qr_scan", "android": "https://dc.lft.to/lastmile_qr_scan"}, "lon": -76.874968, "type": "electric_bike", "fusion_lat": 0.0, "lat": 38.99092983333333, "name": "4cb859a1fc70aa7a6741c21a55b60163", "fusion_lon": 0.0, "bike_id": "4cb859a1fc70aa7a6741c21a55b60163", "is_disabled": 0, "is_reserved": 0}, {"rental_uris": {"ios": "https://dc.lft.to/lastmile_qr_scan", "android": "https://dc.lft.to/lastmile_qr_scan"}, "lon": -76.93159383333334, "type": "electric_scooter", "fusion_lat": 0.0, "lat": 38.898796, "name": "82d1ed5c1794bc0c0577387bf4476208", "fusion_lon": 0.0, "bike_id": "82d1ed5c1794bc0c0577387bf4476208", "is_disabled": 0, "is_reserved": 0}, {"rental_uris": {"ios": "https://dc.lft.to/lastmile_qr_scan", "android": "https://dc.lft.to/lastmile_qr_scan"}, "lon": -77.022043, "type": "electric_scooter", "fusion_lat": 0.0, "lat": 38.91560533333333, "name": "a77e5359217927d756816258f532b763", "fusion_lon": 0.0, "bike_id": "a77e5359217927d756816258f532b763", "is_disabled": 0, "is_reserved": 0}, {"rental_uris": {"ios": "https://dc.lft.to/lastmile_qr_scan", "android": "https://dc.lft.to/lastmile_qr_scan"}, "lon": -76.99174933333333, "type": "electric_scooter", "fusion_lat": 0.0, "lat": 38.90456916666667, "name": "8d603196f04216d0d5544b2cdce9f310", "fusion_lon": 0.0, "bike_id": "8d603196f04216d0d5544b2cdce9f310", "is_disabled": 0, "is_reserved": 0}, {"rental_uris": {"ios": "https://dc.lft.to/lastmile_qr_scan", "android": "https://dc.lft.to/lastmile_qr_scan"}, "lon": -77.11220566666667, "type": "electric_bike", "fusion_lat": 0.0, "lat": 38.828761166666666, "name": "142de7e26374d1efbd4da874fa0aa2c7", "fusion_lon": 0.0, "bike_id": "142de7e26374d1efbd4da874fa0aa2c7", "is_disabled": 0, "is_reserved": 0}, {"rental_uris": {"ios": "https://dc.lft.to/lastmile_qr_scan", "android": "https://dc.lft.to/lastmile_qr_scan"}, "lon": -77.03747216666666, "type": "electric_scooter", "fusion_lat": 0.0, "lat": 38.92914183333333, "name": "ce4a78032568b7d1acbbc42eed845da5", "fusion_lon": 0.0, "bike_id": "ce4a78032568b7d1acbbc42eed845da5", "is_disabled": 0, "is_reserved": 0}, {"rental_uris": {"ios": "https://dc.lft.to/lastmile_qr_scan", "android": "https://dc.lft.to/lastmile_qr_scan"}, "lon": -77.01976116666667, "type": "electric_scooter", "fusion_lat": 0.0, "lat": 38.883776166666664, "name": "64ff75df0a61369145abaf1bcfb44cd9", "fusion_lon": 0.0, "bike_id": "64ff75df0a61369145abaf1bcfb44cd9", "is_disabled": 0, "is_reserved": 0}, {"rental_uris": {"ios": "https://dc.lft.to/lastmile_qr_scan", "android": "https://dc.lft.to/lastmile_qr_scan"}, "lon": -77.03910133333333, "type": "electric_scooter", "fusion_lat": 0.0, "lat": 38.914207833333336, "name": "dd1de98bed12b3d03192c0a2700b71ed", "fusion_lon": 0.0, "bike_id": "dd1de98bed12b3d03192c0a2700b71ed", "is_disabled": 0, "is_reserved": 0}, {"rental_uris": {"ios": "https://dc.lft.to/lastmile_qr_scan", "android": "https://dc.lft.to/lastmile_qr_scan"}, "lon": -77.036392, "type": "electric_scooter", "fusion_lat": 0.0, "lat": 38.924855, "name": "c6cf9dd36998341f4a8bfd192a3e0e9c", "fusion_lon": 0.0, "bike_id": "c6cf9dd36998341f4a8bfd192a3e0e9c", "is_disabled": 0, "is_reserved": 0}, {"rental_uris": {"ios": "https://dc.lft.to/lastmile_qr_scan", "android": "https://dc.lft.to/lastmile_qr_scan"}, "lon": -77.03180383333333, "type": "electric_scooter", "fusion_lat": 0.0, "lat": 38.919222, "name": "53821761e2ce4f5a7b774933119e8bc8", "fusion_lon": 0.0, "bike_id": "53821761e2ce4f5a7b774933119e8bc8", "is_disabled": 0, "is_reserved": 0}, {"rental_uris": {"ios": "https://dc.lft.to/lastmile_qr_scan", "android": "https://dc.lft.to/lastmile_qr_scan"}, "lon": -77.01145233333334, "type": "electric_scooter", "fusion_lat": 0.0, "lat": 38.9567235, "name": "55a54ddab71ba134cfc8c47cd3679d6a", "fusion_lon": 0.0, "bike_id": "55a54ddab71ba134cfc8c47cd3679d6a", "is_disabled": 0, "is_reserved": 0}, {"rental_uris": {"ios": "https://dc.lft.to/lastmile_qr_scan", "android": "https://dc.lft.to/lastmile_qr_scan"}, "lon": -77.0346355, "type": "electric_scooter", "fusion_lat": 0.0, "lat": 38.91814, "name": "a0316e02381bbb87934c5cce0b1c984b", "fusion_lon": 0.0, "bike_id": "a0316e02381bbb87934c5cce0b1c984b", "is_disabled": 0, "is_reserved": 0}, {"rental_uris": {"ios": "https://dc.lft.to/lastmile_qr_scan", "android": "https://dc.lft.to/lastmile_qr_scan"}, "lon": -77.0439935, "type": "electric_scooter", "fusion_lat": 0.0, "lat": 38.91079916666666, "name": "399feee70de43e807dde19d3207ce3f0", "fusion_lon": 0.0, "bike_id": "399feee70de43e807dde19d3207ce3f0", "is_disabled": 0, "is_reserved": 0}, {"rental_uris": {"ios": "https://dc.lft.to/lastmile_qr_scan", "android": "https://dc.lft.to/lastmile_qr_scan"}, "lon": -76.9899625, "type": "electric_scooter", "fusion_lat": 0.0, "lat": 38.8643435, "name": "a53c91358696010b629084ba926a9574", "fusion_lon": 0.0, "bike_id": "a53c91358696010b629084ba926a9574", "is_disabled": 0, "is_reserved": 0}, {"rental_uris": {"ios": "https://dc.lft.to/lastmile_qr_scan", "android": "https://dc.lft.to/lastmile_qr_scan"}, "lon": -77.00207616666667, "type": "electric_scooter", "fusion_lat": 0.0, "lat": 38.82259333333333, "name": "b90866939f7a7bb0370039c611c1ebec", "fusion_lon": 0.0, "bike_id": "b90866939f7a7bb0370039c611c1ebec", "is_disabled": 0, "is_reserved": 0}, {"rental_uris": {"ios": "https://dc.lft.to/lastmile_qr_scan", "android": "https://dc.lft.to/lastmile_qr_scan"}, "lon": -77.01440383333333, "type": "electric_scooter", "fusion_lat": 0.0, "lat": 38.877698333333335, "name": "88c054549989634e687ee9cf68f777bc", "fusion_lon": 0.0, "bike_id": "88c054549989634e687ee9cf68f777bc", "is_disabled": 0, "is_reserved": 0}, {"rental_uris": {"ios": "https://dc.lft.to/lastmile_qr_scan", "android": "https://dc.lft.to/lastmile_qr_scan"}, "lon": -77.04306216666667, "type": "electric_scooter", "fusion_lat": 0.0, "lat": 38.92248716666667, "name": "14a951f43e41dd59ba9544e9c38cc77c", "fusion_lon": 0.0, "bike_id": "14a951f43e41dd59ba9544e9c38cc77c", "is_disabled": 0, "is_reserved": 0}, {"rental_uris": {"ios": "https://dc.lft.to/lastmile_qr_scan", "android": "https://dc.lft.to/lastmile_qr_scan"}, "lon": -77.03644916666667, "type": "electric_scooter", "fusion_lat": 0.0, "lat": 38.91302783333333, "name": "39dd35e7ee3da4acba475af985d79b86", "fusion_lon": 0.0, "bike_id": "39dd35e7ee3da4acba475af985d79b86", "is_disabled": 0, "is_reserved": 0}, {"rental_uris": {"ios": "https://dc.lft.to/lastmile_qr_scan", "android": "https://dc.lft.to/lastmile_qr_scan"}, "lon": -76.94870333333333, "type": "electric_scooter", "fusion_lat": 0.0, "lat": 38.89462366666667, "name": "168469e54dd891eb9afc229dd4b9caca", "fusion_lon": 0.0, "bike_id": "168469e54dd891eb9afc229dd4b9caca", "is_disabled": 0, "is_reserved": 0}, {"rental_uris": {"ios": "https://dc.lft.to/lastmile_qr_scan", "android": "https://dc.lft.to/lastmile_qr_scan"}, "lon": -76.98609366666666, "type": "electric_scooter", "fusion_lat": 0.0, "lat": 38.8682355, "name": "6d93133f7a5617bc024c7fdf1cc56817", "fusion_lon": 0.0, "bike_id": "6d93133f7a5617bc024c7fdf1cc56817", "is_disabled": 0, "is_reserved": 0}, {"rental_uris": {"ios": "https://dc.lft.to/lastmile_qr_scan", "android": "https://dc.lft.to/lastmile_qr_scan"}, "lon": -77.01164766666666, "type": "electric_scooter", "fusion_lat": 0.0, "lat": 38.89705516666667, "name": "54574834e100fa1d050286f3f72d58d4", "fusion_lon": 0.0, "bike_id": "54574834e100fa1d050286f3f72d58d4", "is_disabled": 0, "is_reserved": 0}, {"rental_uris": {"ios": "https://dc.lft.to/lastmile_qr_scan", "android": "https://dc.lft.to/lastmile_qr_scan"}, "lon": -77.03642716666667, "type": "electric_scooter", "fusion_lat": 0.0, "lat": 38.9291345, "name": "4f060cc8049f887195fbebc1a265696a", "fusion_lon": 0.0, "bike_id": "4f060cc8049f887195fbebc1a265696a", "is_disabled": 0, "is_reserved": 0}, {"rental_uris": {"ios": "https://dc.lft.to/lastmile_qr_scan", "android": "https://dc.lft.to/lastmile_qr_scan"}, "lon": -77.04502566666666, "type": "electric_scooter", "fusion_lat": 0.0, "lat": 38.906577, "name": "9086325dfdba61b4e7976e9ec56d801d", "fusion_lon": 0.0, "bike_id": "9086325dfdba61b4e7976e9ec56d801d", "is_disabled": 0, "is_reserved": 0}, {"rental_uris": {"ios": "https://dc.lft.to/lastmile_qr_scan", "android": "https://dc.lft.to/lastmile_qr_scan"}, "lon": -77.052563, "type": "electric_scooter", "fusion_lat": 0.0, "lat": 38.923781166666664, "name": "d40edf5bc12878cdc847237627d297ad", "fusion_lon": 0.0, "bike_id": "d40edf5bc12878cdc847237627d297ad", "is_disabled": 0, "is_reserved": 0}, {"rental_uris": {"ios": "https://dc.lft.to/lastmile_qr_scan", "android": "https://dc.lft.to/lastmile_qr_scan"}, "lon": -77.01260683333334, "type": "electric_scooter", "fusion_lat": 0.0, "lat": 38.89969416666667, "name": "36aa68fc036653679dc0aee97f8c781f", "fusion_lon": 0.0, "bike_id": "36aa68fc036653679dc0aee97f8c781f", "is_disabled": 0, "is_reserved": 0}, {"rental_uris": {"ios": "https://dc.lft.to/lastmile_qr_scan", "android": "https://dc.lft.to/lastmile_qr_scan"}, "lon": -77.1359735, "type": "electric_bike", "fusion_lat": 0.0, "lat": 39.053472166666666, "name": "e128c2647445aa692d8233e7803ceff4", "fusion_lon": 0.0, "bike_id": "e128c2647445aa692d8233e7803ceff4", "is_disabled": 0, "is_reserved": 0}, {"rental_uris": {"ios": "https://dc.lft.to/lastmile_qr_scan", "android": "https://dc.lft.to/lastmile_qr_scan"}, "lon": -77.04426366666667, "type": "electric_scooter", "fusion_lat": 0.0, "lat": 38.9092115, "name": "e1136f0ed35b367672b77a7b88b19409", "fusion_lon": 0.0, "bike_id": "e1136f0ed35b367672b77a7b88b19409", "is_disabled": 0, "is_reserved": 0}, {"rental_uris": {"ios": "https://dc.lft.to/lastmile_qr_scan", "android": "https://dc.lft.to/lastmile_qr_scan"}, "lon": -77.00046283333333, "type": "electric_bike", "fusion_lat": 0.0, "lat": 38.874432666666664, "name": "69545759c5d86ade1be67fdc98c1043c", "fusion_lon": 0.0, "bike_id": "69545759c5d86ade1be67fdc98c1043c", "is_disabled": 0, "is_reserved": 0}, {"rental_uris": {"ios": "https://dc.lft.to/lastmile_qr_scan", "android": "https://dc.lft.to/lastmile_qr_scan"}, "lon": -77.09562533333333, "type": "electric_bike", "fusion_lat": 0.0, "lat": 38.91703316666667, "name": "61ccc18ddadedb58f5cd720d4cd06816", "fusion_lon": 0.0, "bike_id": "61ccc18ddadedb58f5cd720d4cd06816", "is_disabled": 0, "is_reserved": 0}, {"rental_uris": {"ios": "https://dc.lft.to/lastmile_qr_scan", "android": "https://dc.lft.to/lastmile_qr_scan"}, "lon": -76.9081775, "type": "electric_bike", "fusion_lat": 0.0, "lat": 38.9945755, "name": "1611933d19356e067834a6417bf3dc40", "fusion_lon": 0.0, "bike_id": "1611933d19356e067834a6417bf3dc40", "is_disabled": 0, "is_reserved": 0}, {"rental_uris": {"ios": "https://dc.lft.to/lastmile_qr_scan", "android": "https://dc.lft.to/lastmile_qr_scan"}, "lon": -77.02530066666667, "type": "electric_scooter", "fusion_lat": 0.0, "lat": 38.918198, "name": "eaa22ef3fae52113cfddb3f9197e1c7c", "fusion_lon": 0.0, "bike_id": "eaa22ef3fae52113cfddb3f9197e1c7c", "is_disabled": 0, "is_reserved": 0}, {"rental_uris": {"ios": "https://dc.lft.to/lastmile_qr_scan", "android": "https://dc.lft.to/lastmile_qr_scan"}, "lon": -77.06528733333333, "type": "electric_scooter", "fusion_lat": 0.0, "lat": 38.9347465, "name": "d4ac7065ec65825991266df954706232", "fusion_lon": 0.0, "bike_id": "d4ac7065ec65825991266df954706232", "is_disabled": 0, "is_reserved": 0}, {"rental_uris": {"ios": "https://dc.lft.to/lastmile_qr_scan", "android": "https://dc.lft.to/lastmile_qr_scan"}, "lon": -77.02140516666667, "type": "electric_scooter", "fusion_lat": 0.0, "lat": 38.89993366666667, "name": "152712f280b7351708e78fcf43df089e", "fusion_lon": 0.0, "bike_id": "152712f280b7351708e78fcf43df089e", "is_disabled": 0, "is_reserved": 0}, {"rental_uris": {"ios": "https://dc.lft.to/lastmile_qr_scan", "android": "https://dc.lft.to/lastmile_qr_scan"}, "lon": -77.01328433333333, "type": "electric_scooter", "fusion_lat": 0.0, "lat": 38.89235983333333, "name": "aea3bee20b8c361829e17ac2eae59fa2", "fusion_lon": 0.0, "bike_id": "aea3bee20b8c361829e17ac2eae59fa2", "is_disabled": 0, "is_reserved": 0}, {"rental_uris": {"ios": "https://dc.lft.to/lastmile_qr_scan", "android": "https://dc.lft.to/lastmile_qr_scan"}, "lon": -76.98447483333334, "type": "electric_scooter", "fusion_lat": 0.0, "lat": 38.914212, "name": "ff1f631f2164fde11d7894f5f965bc3f", "fusion_lon": 0.0, "bike_id": "ff1f631f2164fde11d7894f5f965bc3f", "is_disabled": 0, "is_reserved": 0}, {"rental_uris": {"ios": "https://dc.lft.to/lastmile_qr_scan", "android": "https://dc.lft.to/lastmile_qr_scan"}, "lon": -77.04818466666667, "type": "electric_scooter", "fusion_lat": 0.0, "lat": 38.91334333333333, "name": "fdbe85975b27dba7947546cb323041e1", "fusion_lon": 0.0, "bike_id": "fdbe85975b27dba7947546cb323041e1", "is_disabled": 0, "is_reserved": 0}, {"rental_uris": {"ios": "https://dc.lft.to/lastmile_qr_scan", "android": "https://dc.lft.to/lastmile_qr_scan"}, "lon": -76.965234, "type": "electric_scooter", "fusion_lat": 0.0, "lat": 38.8763005, "name": "c9348b08ab91ec9be503766bca15c11c", "fusion_lon": 0.0, "bike_id": "c9348b08ab91ec9be503766bca15c11c", "is_disabled": 0, "is_reserved": 0}, {"rental_uris": {"ios": "https://dc.lft.to/lastmile_qr_scan", "android": "https://dc.lft.to/lastmile_qr_scan"}, "lon": -76.9762855, "type": "electric_scooter", "fusion_lat": 0.0, "lat": 38.905732666666665, "name": "eb1433db13396285ace26cca6777791b", "fusion_lon": 0.0, "bike_id": "eb1433db13396285ace26cca6777791b", "is_disabled": 0, "is_reserved": 0}, {"rental_uris": {"ios": "https://dc.lft.to/lastmile_qr_scan", "android": "https://dc.lft.to/lastmile_qr_scan"}, "lon": -77.0318505, "type": "electric_scooter", "fusion_lat": 0.0, "lat": 38.908459, "name": "d2db9c4514326860a3f743c8c437e06a", "fusion_lon": 0.0, "bike_id": "d2db9c4514326860a3f743c8c437e06a", "is_disabled": 0, "is_reserved": 0}, {"rental_uris": {"ios": "https://dc.lft.to/lastmile_qr_scan", "android": "https://dc.lft.to/lastmile_qr_scan"}, "lon": -76.99338383333334, "type": "electric_bike", "fusion_lat": 0.0, "lat": 38.9619565, "name": "56383142149abd9859813b70cbcf728e", "fusion_lon": 0.0, "bike_id": "56383142149abd9859813b70cbcf728e", "is_disabled": 0, "is_reserved": 0}, {"rental_uris": {"ios": "https://dc.lft.to/lastmile_qr_scan", "android": "https://dc.lft.to/lastmile_qr_scan"}, "lon": -77.0556245, "type": "electric_scooter", "fusion_lat": 0.0, "lat": 38.899823, "name": "45ff2dc052987f78a69f1e9eed92289a", "fusion_lon": 0.0, "bike_id": "45ff2dc052987f78a69f1e9eed92289a", "is_disabled": 0, "is_reserved": 0}, {"rental_uris": {"ios": "https://dc.lft.to/lastmile_qr_scan", "android": "https://dc.lft.to/lastmile_qr_scan"}, "lon": -77.04616516666667, "type": "electric_scooter", "fusion_lat": 0.0, "lat": 38.902762, "name": "0070cab5c17a81966c561f443adb2ae2", "fusion_lon": 0.0, "bike_id": "0070cab5c17a81966c561f443adb2ae2", "is_disabled": 0, "is_reserved": 0}, {"rental_uris": {"ios": "https://dc.lft.to/lastmile_qr_scan", "android": "https://dc.lft.to/lastmile_qr_scan"}, "lon": -77.02501233333334, "type": "electric_scooter", "fusion_lat": 0.0, "lat": 38.919109666666664, "name": "6ec4198a91b91358a79f71ecc2b5d722", "fusion_lon": 0.0, "bike_id": "6ec4198a91b91358a79f71ecc2b5d722", "is_disabled": 0, "is_reserved": 0}, {"rental_uris": {"ios": "https://dc.lft.to/lastmile_qr_scan", "android": "https://dc.lft.to/lastmile_qr_scan"}, "lon": -77.02928183333333, "type": "electric_scooter", "fusion_lat": 0.0, "lat": 38.88218166666667, "name": "01aaa3f5b31bbdbdc18c7b4625296a71", "fusion_lon": 0.0, "bike_id": "01aaa3f5b31bbdbdc18c7b4625296a71", "is_disabled": 0, "is_reserved": 0}, {"rental_uris": {"ios": "https://dc.lft.to/lastmile_qr_scan", "android": "https://dc.lft.to/lastmile_qr_scan"}, "lon": -77.01867683333333, "type": "electric_scooter", "fusion_lat": 0.0, "lat": 38.948978, "name": "8172c63c3947e2bd1491a5f255da208d", "fusion_lon": 0.0, "bike_id": "8172c63c3947e2bd1491a5f255da208d", "is_disabled": 0, "is_reserved": 0}, {"rental_uris": {"ios": "https://dc.lft.to/lastmile_qr_scan", "android": "https://dc.lft.to/lastmile_qr_scan"}, "lon": -77.07361033333333, "type": "electric_scooter", "fusion_lat": 0.0, "lat": 38.93739216666667, "name": "2245fbd727204461ca94fde86d5aaf33", "fusion_lon": 0.0, "bike_id": "2245fbd727204461ca94fde86d5aaf33", "is_disabled": 0, "is_reserved": 0}, {"rental_uris": {"ios": "https://dc.lft.to/lastmile_qr_scan", "android": "https://dc.lft.to/lastmile_qr_scan"}, "lon": -77.02980266666667, "type": "electric_bike", "fusion_lat": 0.0, "lat": 38.9370215, "name": "d39c4f7b55492ae1583c2ce0421ca1aa", "fusion_lon": 0.0, "bike_id": "d39c4f7b55492ae1583c2ce0421ca1aa", "is_disabled": 0, "is_reserved": 0}, {"rental_uris": {"ios": "https://dc.lft.to/lastmile_qr_scan", "android": "https://dc.lft.to/lastmile_qr_scan"}, "lon": -77.06645033333334, "type": "electric_scooter", "fusion_lat": 0.0, "lat": 38.91376916666667, "name": "3b6b59e8a9a9b1876a1e89a3594b8c0e", "fusion_lon": 0.0, "bike_id": "3b6b59e8a9a9b1876a1e89a3594b8c0e", "is_disabled": 0, "is_reserved": 0}, {"rental_uris": {"ios": "https://dc.lft.to/lastmile_qr_scan", "android": "https://dc.lft.to/lastmile_qr_scan"}, "lon": -77.04811933333333, "type": "electric_scooter", "fusion_lat": 0.0, "lat": 38.8972895, "name": "e0b97e85e39fee72e2c007a356ea2a45", "fusion_lon": 0.0, "bike_id": "e0b97e85e39fee72e2c007a356ea2a45", "is_disabled": 0, "is_reserved": 0}, {"rental_uris": {"ios": "https://dc.lft.to/lastmile_qr_scan", "android": "https://dc.lft.to/lastmile_qr_scan"}, "lon": -77.0380465, "type": "electric_scooter", "fusion_lat": 0.0, "lat": 38.915636666666664, "name": "92ec5090785d15eb490727a66bcd87ae", "fusion_lon": 0.0, "bike_id": "92ec5090785d15eb490727a66bcd87ae", "is_disabled": 0, "is_reserved": 0}, {"rental_uris": {"ios": "https://dc.lft.to/lastmile_qr_scan", "android": "https://dc.lft.to/lastmile_qr_scan"}, "lon": -77.02346833333333, "type": "electric_scooter", "fusion_lat": 0.0, "lat": 38.9294295, "name": "94c33555ad1ffb164532055bc291caa6", "fusion_lon": 0.0, "bike_id": "94c33555ad1ffb164532055bc291caa6", "is_disabled": 0, "is_reserved": 0}, {"rental_uris": {"ios": "https://dc.lft.to/lastmile_qr_scan", "android": "https://dc.lft.to/lastmile_qr_scan"}, "lon": -76.98906883333333, "type": "electric_scooter", "fusion_lat": 0.0, "lat": 38.8669705, "name": "83540733f4fb045df2e3614866724cec", "fusion_lon": 0.0, "bike_id": "83540733f4fb045df2e3614866724cec", "is_disabled": 0, "is_reserved": 0}, {"rental_uris": {"ios": "https://dc.lft.to/lastmile_qr_scan", "android": "https://dc.lft.to/lastmile_qr_scan"}, "lon": -76.92711233333333, "type": "electric_scooter", "fusion_lat": 0.0, "lat": 38.88767166666667, "name": "3d3fd79c89a8fb8e57503b51c7f8dfca", "fusion_lon": 0.0, "bike_id": "3d3fd79c89a8fb8e57503b51c7f8dfca", "is_disabled": 0, "is_reserved": 0}, {"rental_uris": {"ios": "https://dc.lft.to/lastmile_qr_scan", "android": "https://dc.lft.to/lastmile_qr_scan"}, "lon": -77.01742283333333, "type": "electric_scooter", "fusion_lat": 0.0, "lat": 38.882070166666665, "name": "ce0ce00a6819232b793be8742e4ddffd", "fusion_lon": 0.0, "bike_id": "ce0ce00a6819232b793be8742e4ddffd", "is_disabled": 0, "is_reserved": 0}, {"rental_uris": {"ios": "https://dc.lft.to/lastmile_qr_scan", "android": "https://dc.lft.to/lastmile_qr_scan"}, "lon": -77.052057, "type": "electric_scooter", "fusion_lat": 0.0, "lat": 38.92433233333333, "name": "7d2ada12d43b68fd368f29bafb1c1658", "fusion_lon": 0.0, "bike_id": "7d2ada12d43b68fd368f29bafb1c1658", "is_disabled": 0, "is_reserved": 0}, {"rental_uris": {"ios": "https://dc.lft.to/lastmile_qr_scan", "android": "https://dc.lft.to/lastmile_qr_scan"}, "lon": -77.10781316666667, "type": "electric_bike", "fusion_lat": 0.0, "lat": 38.89217333333333, "name": "ceb4d35c60394f9ff14cea545e01324c", "fusion_lon": 0.0, "bike_id": "ceb4d35c60394f9ff14cea545e01324c", "is_disabled": 0, "is_reserved": 0}, {"rental_uris": {"ios": "https://dc.lft.to/lastmile_qr_scan", "android": "https://dc.lft.to/lastmile_qr_scan"}, "lon": -77.06634033333333, "type": "electric_scooter", "fusion_lat": 0.0, "lat": 38.928049666666666, "name": "e8bd6b53a3eb1976ee2947b216359e4f", "fusion_lon": 0.0, "bike_id": "e8bd6b53a3eb1976ee2947b216359e4f", "is_disabled": 0, "is_reserved": 0}, {"rental_uris": {"ios": "https://dc.lft.to/lastmile_qr_scan", "android": "https://dc.lft.to/lastmile_qr_scan"}, "lon": -77.00534083333334, "type": "electric_scooter", "fusion_lat": 0.0, "lat": 38.8804365, "name": "aa59243074d8ba4d5b8368f3a5d0b851", "fusion_lon": 0.0, "bike_id": "aa59243074d8ba4d5b8368f3a5d0b851", "is_disabled": 0, "is_reserved": 0}, {"rental_uris": {"ios": "https://dc.lft.to/lastmile_qr_scan", "android": "https://dc.lft.to/lastmile_qr_scan"}, "lon": -77.039652, "type": "electric_scooter", "fusion_lat": 0.0, "lat": 38.91991066666667, "name": "099341600cb78d20dfb898696b6eaeeb", "fusion_lon": 0.0, "bike_id": "099341600cb78d20dfb898696b6eaeeb", "is_disabled": 0, "is_reserved": 0}, {"rental_uris": {"ios": "https://dc.lft.to/lastmile_qr_scan", "android": "https://dc.lft.to/lastmile_qr_scan"}, "lon": -77.0072105, "type": "electric_scooter", "fusion_lat": 0.0, "lat": 38.9134385, "name": "9f4e302c6012ece258c8ffc8e087efbb", "fusion_lon": 0.0, "bike_id": "9f4e302c6012ece258c8ffc8e087efbb", "is_disabled": 0, "is_reserved": 0}, {"rental_uris": {"ios": "https://dc.lft.to/lastmile_qr_scan", "android": "https://dc.lft.to/lastmile_qr_scan"}, "lon": -77.05283833333333, "type": "electric_scooter", "fusion_lat": 0.0, "lat": 38.910160833333336, "name": "6e747f15276a287046f5c784c0d4b246", "fusion_lon": 0.0, "bike_id": "6e747f15276a287046f5c784c0d4b246", "is_disabled": 0, "is_reserved": 0}, {"rental_uris": {"ios": "https://dc.lft.to/lastmile_qr_scan", "android": "https://dc.lft.to/lastmile_qr_scan"}, "lon": -76.930002, "type": "electric_bike", "fusion_lat": 0.0, "lat": 38.88799016666667, "name": "1fab277b8bef2b224822b99367dedced", "fusion_lon": 0.0, "bike_id": "1fab277b8bef2b224822b99367dedced", "is_disabled": 0, "is_reserved": 0}, {"rental_uris": {"ios": "https://dc.lft.to/lastmile_qr_scan", "android": "https://dc.lft.to/lastmile_qr_scan"}, "lon": -77.0262175, "type": "electric_scooter", "fusion_lat": 0.0, "lat": 38.91915066666667, "name": "f3ffe7044baed0daa5191f15bdd64c9c", "fusion_lon": 0.0, "bike_id": "f3ffe7044baed0daa5191f15bdd64c9c", "is_disabled": 0, "is_reserved": 0}, {"rental_uris": {"ios": "https://dc.lft.to/lastmile_qr_scan", "android": "https://dc.lft.to/lastmile_qr_scan"}, "lon": -77.00214916666667, "type": "electric_scooter", "fusion_lat": 0.0, "lat": 38.9085435, "name": "c58cbc382f3a575e612741541f415d9f", "fusion_lon": 0.0, "bike_id": "c58cbc382f3a575e612741541f415d9f", "is_disabled": 0, "is_reserved": 0}, {"rental_uris": {"ios": "https://dc.lft.to/lastmile_qr_scan", "android": "https://dc.lft.to/lastmile_qr_scan"}, "lon": -77.04352383333334, "type": "electric_scooter", "fusion_lat": 0.0, "lat": 38.90711783333333, "name": "f8686000f256a825270e19cb9e9a49ec", "fusion_lon": 0.0, "bike_id": "f8686000f256a825270e19cb9e9a49ec", "is_disabled": 0, "is_reserved": 0}, {"rental_uris": {"ios": "https://dc.lft.to/lastmile_qr_scan", "android": "https://dc.lft.to/lastmile_qr_scan"}, "lon": -77.0160005, "type": "electric_scooter", "fusion_lat": 0.0, "lat": 38.896216833333334, "name": "da096aa5958941ec8aa40f5393bebfff", "fusion_lon": 0.0, "bike_id": "da096aa5958941ec8aa40f5393bebfff", "is_disabled": 0, "is_reserved": 0}, {"rental_uris": {"ios": "https://dc.lft.to/lastmile_qr_scan", "android": "https://dc.lft.to/lastmile_qr_scan"}, "lon": -76.990272, "type": "electric_scooter", "fusion_lat": 0.0, "lat": 38.86412383333333, "name": "805f8dd00c7531051851316e9df9cbad", "fusion_lon": 0.0, "bike_id": "805f8dd00c7531051851316e9df9cbad", "is_disabled": 0, "is_reserved": 0}, {"rental_uris": {"ios": "https://dc.lft.to/lastmile_qr_scan", "android": "https://dc.lft.to/lastmile_qr_scan"}, "lon": -77.0749705, "type": "electric_bike", "fusion_lat": 0.0, "lat": 38.89292116666667, "name": "cc198994e634e23c542c8b8a509929f9", "fusion_lon": 0.0, "bike_id": "cc198994e634e23c542c8b8a509929f9", "is_disabled": 0, "is_reserved": 0}, {"rental_uris": {"ios": "https://dc.lft.to/lastmile_qr_scan", "android": "https://dc.lft.to/lastmile_qr_scan"}, "lon": -77.0136425, "type": "electric_scooter", "fusion_lat": 0.0, "lat": 38.87598833333333, "name": "403261b9d5a671e882e52c08b780b7f8", "fusion_lon": 0.0, "bike_id": "403261b9d5a671e882e52c08b780b7f8", "is_disabled": 0, "is_reserved": 0}, {"rental_uris": {"ios": "https://dc.lft.to/lastmile_qr_scan", "android": "https://dc.lft.to/lastmile_qr_scan"}, "lon": -77.03081166666666, "type": "electric_scooter", "fusion_lat": 0.0, "lat": 38.899784, "name": "089e98cc2be5ee1750039f0900997358", "fusion_lon": 0.0, "bike_id": "089e98cc2be5ee1750039f0900997358", "is_disabled": 0, "is_reserved": 0}, {"rental_uris": {"ios": "https://dc.lft.to/lastmile_qr_scan", "android": "https://dc.lft.to/lastmile_qr_scan"}, "lon": -77.07943916666666, "type": "electric_scooter", "fusion_lat": 0.0, "lat": 38.94870566666667, "name": "3393165d5a7fda9199654b10670cb015", "fusion_lon": 0.0, "bike_id": "3393165d5a7fda9199654b10670cb015", "is_disabled": 0, "is_reserved": 0}, {"rental_uris": {"ios": "https://dc.lft.to/lastmile_qr_scan", "android": "https://dc.lft.to/lastmile_qr_scan"}, "lon": -77.02887483333333, "type": "electric_scooter", "fusion_lat": 0.0, "lat": 38.9169055, "name": "d14ef278dc396853d04240febe61b0f1", "fusion_lon": 0.0, "bike_id": "d14ef278dc396853d04240febe61b0f1", "is_disabled": 0, "is_reserved": 0}, {"rental_uris": {"ios": "https://dc.lft.to/lastmile_qr_scan", "android": "https://dc.lft.to/lastmile_qr_scan"}, "lon": -77.01901866666667, "type": "electric_scooter", "fusion_lat": 0.0, "lat": 38.9056115, "name": "f3583a430db0c5401bc9edb592c37382", "fusion_lon": 0.0, "bike_id": "f3583a430db0c5401bc9edb592c37382", "is_disabled": 0, "is_reserved": 0}, {"rental_uris": {"ios": "https://dc.lft.to/lastmile_qr_scan", "android": "https://dc.lft.to/lastmile_qr_scan"}, "lon": -77.02421016666666, "type": "electric_scooter", "fusion_lat": 0.0, "lat": 38.88474566666667, "name": "ac965f8e0b14d70ba500e6d561cbb99c", "fusion_lon": 0.0, "bike_id": "ac965f8e0b14d70ba500e6d561cbb99c", "is_disabled": 0, "is_reserved": 0}, {"rental_uris": {"ios": "https://dc.lft.to/lastmile_qr_scan", "android": "https://dc.lft.to/lastmile_qr_scan"}, "lon": -77.03855416666667, "type": "electric_scooter", "fusion_lat": 0.0, "lat": 38.91205183333334, "name": "cc3ec4092062f924c91c37d59797a287", "fusion_lon": 0.0, "bike_id": "cc3ec4092062f924c91c37d59797a287", "is_disabled": 0, "is_reserved": 0}, {"rental_uris": {"ios": "https://dc.lft.to/lastmile_qr_scan", "android": "https://dc.lft.to/lastmile_qr_scan"}, "lon": -77.03661433333333, "type": "electric_scooter", "fusion_lat": 0.0, "lat": 38.9181155, "name": "81d8cdec846ebc701a1a759a9e90768c", "fusion_lon": 0.0, "bike_id": "81d8cdec846ebc701a1a759a9e90768c", "is_disabled": 0, "is_reserved": 0}, {"rental_uris": {"ios": "https://dc.lft.to/lastmile_qr_scan", "android": "https://dc.lft.to/lastmile_qr_scan"}, "lon": -77.04229716666667, "type": "electric_scooter", "fusion_lat": 0.0, "lat": 38.911074666666664, "name": "26b060230315f27dc3960678415c94e0", "fusion_lon": 0.0, "bike_id": "26b060230315f27dc3960678415c94e0", "is_disabled": 0, "is_reserved": 0}, {"rental_uris": {"ios": "https://dc.lft.to/lastmile_qr_scan", "android": "https://dc.lft.to/lastmile_qr_scan"}, "lon": -77.03255833333333, "type": "electric_scooter", "fusion_lat": 0.0, "lat": 38.921708, "name": "d645131644cb4a00603ce60e743d1282", "fusion_lon": 0.0, "bike_id": "d645131644cb4a00603ce60e743d1282", "is_disabled": 0, "is_reserved": 0}, {"rental_uris": {"ios": "https://dc.lft.to/lastmile_qr_scan", "android": "https://dc.lft.to/lastmile_qr_scan"}, "lon": -76.98697516666667, "type": "electric_scooter", "fusion_lat": 0.0, "lat": 38.912893833333335, "name": "d1aa97a23930505af450c5f5df96375b", "fusion_lon": 0.0, "bike_id": "d1aa97a23930505af450c5f5df96375b", "is_disabled": 0, "is_reserved": 0}, {"rental_uris": {"ios": "https://dc.lft.to/lastmile_qr_scan", "android": "https://dc.lft.to/lastmile_qr_scan"}, "lon": -77.010915, "type": "electric_scooter", "fusion_lat": 0.0, "lat": 38.89401016666667, "name": "714ae7286d40101e3b556bc6d2cc3461", "fusion_lon": 0.0, "bike_id": "714ae7286d40101e3b556bc6d2cc3461", "is_disabled": 0, "is_reserved": 0}, {"rental_uris": {"ios": "https://dc.lft.to/lastmile_qr_scan", "android": "https://dc.lft.to/lastmile_qr_scan"}, "lon": -77.04474083333334, "type": "electric_scooter", "fusion_lat": 0.0, "lat": 38.906563166666665, "name": "6bcfd09d2f3a6357e252b59c27dc5c5e", "fusion_lon": 0.0, "bike_id": "6bcfd09d2f3a6357e252b59c27dc5c5e", "is_disabled": 0, "is_reserved": 0}, {"rental_uris": {"ios": "https://dc.lft.to/lastmile_qr_scan", "android": "https://dc.lft.to/lastmile_qr_scan"}, "lon": -76.98832283333333, "type": "electric_scooter", "fusion_lat": 0.0, "lat": 38.88026683333333, "name": "d141f3e4530bc4afcab24fbf027b2902", "fusion_lon": 0.0, "bike_id": "d141f3e4530bc4afcab24fbf027b2902", "is_disabled": 0, "is_reserved": 0}, {"rental_uris": {"ios": "https://dc.lft.to/lastmile_qr_scan", "android": "https://dc.lft.to/lastmile_qr_scan"}, "lon": -77.1131595, "type": "electric_bike", "fusion_lat": 0.0, "lat": 38.85565, "name": "989ff9163c35d81069d313f5170237a9", "fusion_lon": 0.0, "bike_id": "989ff9163c35d81069d313f5170237a9", "is_disabled": 0, "is_reserved": 0}, {"rental_uris": {"ios": "https://dc.lft.to/lastmile_qr_scan", "android": "https://dc.lft.to/lastmile_qr_scan"}, "lon": -77.0321985, "type": "electric_scooter", "fusion_lat": 0.0, "lat": 38.887030333333335, "name": "31a0c87595e0642d18cc0b1f8c6a6600", "fusion_lon": 0.0, "bike_id": "31a0c87595e0642d18cc0b1f8c6a6600", "is_disabled": 0, "is_reserved": 0}, {"rental_uris": {"ios": "https://dc.lft.to/lastmile_qr_scan", "android": "https://dc.lft.to/lastmile_qr_scan"}, "lon": -77.03358183333333, "type": "electric_scooter", "fusion_lat": 0.0, "lat": 38.8996125, "name": "913ada5a0b4df151273b53a2807d2096", "fusion_lon": 0.0, "bike_id": "913ada5a0b4df151273b53a2807d2096", "is_disabled": 0, "is_reserved": 0}, {"rental_uris": {"ios": "https://dc.lft.to/lastmile_qr_scan", "android": "https://dc.lft.to/lastmile_qr_scan"}, "lon": -76.99563516666667, "type": "electric_scooter", "fusion_lat": 0.0, "lat": 38.928786333333335, "name": "2ce96773671fe2c6af67c28a98b013f6", "fusion_lon": 0.0, "bike_id": "2ce96773671fe2c6af67c28a98b013f6", "is_disabled": 0, "is_reserved": 0}, {"rental_uris": {"ios": "https://dc.lft.to/lastmile_qr_scan", "android": "https://dc.lft.to/lastmile_qr_scan"}, "lon": -77.025826, "type": "electric_scooter", "fusion_lat": 0.0, "lat": 38.892466666666664, "name": "4b2da382be90316ff975ed28ee69b9d5", "fusion_lon": 0.0, "bike_id": "4b2da382be90316ff975ed28ee69b9d5", "is_disabled": 0, "is_reserved": 0}, {"rental_uris": {"ios": "https://dc.lft.to/lastmile_qr_scan", "android": "https://dc.lft.to/lastmile_qr_scan"}, "lon": -77.02430016666666, "type": "electric_scooter", "fusion_lat": 0.0, "lat": 38.91555283333334, "name": "c6e9bafc0764fb57f3ce8259aabd271f", "fusion_lon": 0.0, "bike_id": "c6e9bafc0764fb57f3ce8259aabd271f", "is_disabled": 0, "is_reserved": 0}, {"rental_uris": {"ios": "https://dc.lft.to/lastmile_qr_scan", "android": "https://dc.lft.to/lastmile_qr_scan"}, "lon": -76.93869566666666, "type": "electric_scooter", "fusion_lat": 0.0, "lat": 38.9008435, "name": "062a3a905604205ab1df22a6456cb814", "fusion_lon": 0.0, "bike_id": "062a3a905604205ab1df22a6456cb814", "is_disabled": 0, "is_reserved": 0}, {"rental_uris": {"ios": "https://dc.lft.to/lastmile_qr_scan", "android": "https://dc.lft.to/lastmile_qr_scan"}, "lon": -77.00622466666667, "type": "electric_scooter", "fusion_lat": 0.0, "lat": 38.90262166666667, "name": "10cb4f3f1cb3e7c6f2f34268689de40f", "fusion_lon": 0.0, "bike_id": "10cb4f3f1cb3e7c6f2f34268689de40f", "is_disabled": 0, "is_reserved": 0}, {"rental_uris": {"ios": "https://dc.lft.to/lastmile_qr_scan", "android": "https://dc.lft.to/lastmile_qr_scan"}, "lon": -76.93116833333333, "type": "electric_scooter", "fusion_lat": 0.0, "lat": 38.898312833333335, "name": "609b7301376151c6e1cfbbca66c47dab", "fusion_lon": 0.0, "bike_id": "609b7301376151c6e1cfbbca66c47dab", "is_disabled": 0, "is_reserved": 0}, {"rental_uris": {"ios": "https://dc.lft.to/lastmile_qr_scan", "android": "https://dc.lft.to/lastmile_qr_scan"}, "lon": -77.01640933333333, "type": "electric_scooter", "fusion_lat": 0.0, "lat": 38.9038265, "name": "0df3f839de5ee6645d9ca26479e76a87", "fusion_lon": 0.0, "bike_id": "0df3f839de5ee6645d9ca26479e76a87", "is_disabled": 0, "is_reserved": 0}, {"rental_uris": {"ios": "https://dc.lft.to/lastmile_qr_scan", "android": "https://dc.lft.to/lastmile_qr_scan"}, "lon": -77.02688183333333, "type": "electric_scooter", "fusion_lat": 0.0, "lat": 38.89225533333333, "name": "b325f6ace856bf5b399d1c715d881593", "fusion_lon": 0.0, "bike_id": "b325f6ace856bf5b399d1c715d881593", "is_disabled": 0, "is_reserved": 0}, {"rental_uris": {"ios": "https://dc.lft.to/lastmile_qr_scan", "android": "https://dc.lft.to/lastmile_qr_scan"}, "lon": -76.99676983333333, "type": "electric_scooter", "fusion_lat": 0.0, "lat": 38.9101485, "name": "59ce5369bb8c9ce603e9fb2caa13416b", "fusion_lon": 0.0, "bike_id": "59ce5369bb8c9ce603e9fb2caa13416b", "is_disabled": 0, "is_reserved": 0}, {"rental_uris": {"ios": "https://dc.lft.to/lastmile_qr_scan", "android": "https://dc.lft.to/lastmile_qr_scan"}, "lon": -77.03193133333333, "type": "electric_scooter", "fusion_lat": 0.0, "lat": 38.91789033333333, "name": "57ecf0ea4ede78fca5724c4bfbaac65b", "fusion_lon": 0.0, "bike_id": "57ecf0ea4ede78fca5724c4bfbaac65b", "is_disabled": 0, "is_reserved": 0}, {"rental_uris": {"ios": "https://dc.lft.to/lastmile_qr_scan", "android": "https://dc.lft.to/lastmile_qr_scan"}, "lon": -77.02720083333334, "type": "electric_scooter", "fusion_lat": 0.0, "lat": 38.89222983333333, "name": "e2a15a4367aa56a059e28444391ed02a", "fusion_lon": 0.0, "bike_id": "e2a15a4367aa56a059e28444391ed02a", "is_disabled": 0, "is_reserved": 0}, {"rental_uris": {"ios": "https://dc.lft.to/lastmile_qr_scan", "android": "https://dc.lft.to/lastmile_qr_scan"}, "lon": -77.03550633333333, "type": "electric_scooter", "fusion_lat": 0.0, "lat": 38.92419116666667, "name": "0e8988a878080cfd9d0c62f3ae98065c", "fusion_lon": 0.0, "bike_id": "0e8988a878080cfd9d0c62f3ae98065c", "is_disabled": 0, "is_reserved": 0}, {"rental_uris": {"ios": "https://dc.lft.to/lastmile_qr_scan", "android": "https://dc.lft.to/lastmile_qr_scan"}, "lon": -76.9948915, "type": "electric_scooter", "fusion_lat": 0.0, "lat": 38.932020666666666, "name": "018975b64c8fbdb8acdca07872bc7dcf", "fusion_lon": 0.0, "bike_id": "018975b64c8fbdb8acdca07872bc7dcf", "is_disabled": 0, "is_reserved": 0}, {"rental_uris": {"ios": "https://dc.lft.to/lastmile_qr_scan", "android": "https://dc.lft.to/lastmile_qr_scan"}, "lon": -77.02217783333333, "type": "electric_scooter", "fusion_lat": 0.0, "lat": 38.90574866666667, "name": "735ee39ecc3936fc5be93402f6b2e5b6", "fusion_lon": 0.0, "bike_id": "735ee39ecc3936fc5be93402f6b2e5b6", "is_disabled": 0, "is_reserved": 0}, {"rental_uris": {"ios": "https://dc.lft.to/lastmile_qr_scan", "android": "https://dc.lft.to/lastmile_qr_scan"}, "lon": -77.00115433333333, "type": "electric_scooter", "fusion_lat": 0.0, "lat": 38.89436716666667, "name": "69f38f8db934dc49fd7c690011e99e95", "fusion_lon": 0.0, "bike_id": "69f38f8db934dc49fd7c690011e99e95", "is_disabled": 0, "is_reserved": 0}, {"rental_uris": {"ios": "https://dc.lft.to/lastmile_qr_scan", "android": "https://dc.lft.to/lastmile_qr_scan"}, "lon": -77.03257416666666, "type": "electric_scooter", "fusion_lat": 0.0, "lat": 38.93527183333333, "name": "5575b6e5fb9fb306f73434bd63a081df", "fusion_lon": 0.0, "bike_id": "5575b6e5fb9fb306f73434bd63a081df", "is_disabled": 0, "is_reserved": 0}, {"rental_uris": {"ios": "https://dc.lft.to/lastmile_qr_scan", "android": "https://dc.lft.to/lastmile_qr_scan"},