{"data": {"bikes": [{"is_reserved": 0, "bike_id": "5a5e45033455d5fa7019c4b366f792cb", "type": "electric_scooter", "name": "5a5e45033455d5fa7019c4b366f792cb", "is_disabled": 0, "fusion_lon": 0.0, "rental_uris": {"android": "https://dc.lft.to/lastmile_qr_scan", "ios": "https://dc.lft.to/lastmile_qr_scan"}, "lat": 38.91269066666667, "lon": -77.03924483333333, "fusion_lat": 0.0}, {"is_reserved": 0, "bike_id": "6d507f6fe462293a11b12102990c60a0", "type": "electric_scooter", "name": "6d507f6fe462293a11b12102990c60a0", "is_disabled": 0, "fusion_lon": 0.0, "rental_uris": {"android": "https://dc.lft.to/lastmile_qr_scan", "ios": "https://dc.lft.to/lastmile_qr_scan"}, "lat": 38.88429033333333, "lon": -77.03047066666667, "fusion_lat": 0.0}, {"is_reserved": 0, "bike_id": "8431b2f0a0c890917a2ff7976013d16a", "type": "electric_bike", "name": "8431b2f0a0c890917a2ff7976013d16a", "is_disabled": 0, "fusion_lon": 0.0, "rental_uris": {"android": "https://dc.lft.to/lastmile_qr_scan", "ios": "https://dc.lft.to/lastmile_qr_scan"}, "lat": 38.95886316666667, "lon": -76.97052383333333, "fusion_lat": 0.0}, {"is_reserved": 0, "bike_id": "17ff3e2806851487543b3c10c307e5db", "type": "electric_scooter", "name": "17ff3e2806851487543b3c10c307e5db", "is_disabled": 0, "fusion_lon": 0.0, "rental_uris": {"android": "https://dc.lft.to/lastmile_qr_scan", "ios": "https://dc.lft.to/lastmile_qr_scan"}, "lat": 38.89619783333333, "lon": -76.9856245, "fusion_lat": 0.0}, {"is_reserved": 0, "bike_id": "d712c3f92bc759266bcb696da94beab8", "type": "electric_scooter", "name": "d712c3f92bc759266bcb696da94beab8", "is_disabled": 0, "fusion_lon": 0.0, "rental_uris": {"android": "https://dc.lft.to/lastmile_qr_scan", "ios": "https://dc.lft.to/lastmile_qr_scan"}, "lat": 38.9140605, "lon": -77.01011766666667, "fusion_lat": 0.0}, {"is_reserved": 0, "bike_id": "781ec1ccad2468c471c93e5d080b4f60", "type": "electric_scooter", "name": "781ec1ccad2468c471c93e5d080b4f60", "is_disabled": 0, "fusion_lon": 0.0, "rental_uris": {"android": "https://dc.lft.to/lastmile_qr_scan", "ios": "https://dc.lft.to/lastmile_qr_scan"}, "lat": 38.9064815, "lon": -77.05338116666667, "fusion_lat": 0.0}, {"is_reserved": 0, "bike_id": "fc781ed652a8d3d3de57223f9927c316", "type": "electric_scooter", "name": "fc781ed652a8d3d3de57223f9927c316", "is_disabled": 0, "fusion_lon": 0.0, "rental_uris": {"android": "https://dc.lft.to/lastmile_qr_scan", "ios": "https://dc.lft.to/lastmile_qr_scan"}, "lat": 38.92268083333333, "lon": -77.02960533333334, "fusion_lat": 0.0}, {"is_reserved": 0, "bike_id": "27666a87c834218a793b99ce86d2f5f1", "type": "electric_scooter", "name": "27666a87c834218a793b99ce86d2f5f1", "is_disabled": 0, "fusion_lon": 0.0, "rental_uris": {"android": "https://dc.lft.to/lastmile_qr_scan", "ios": "https://dc.lft.to/lastmile_qr_scan"}, "lat": 38.923347666666665, "lon": -77.05677633333333, "fusion_lat": 0.0}, {"is_reserved": 0, "bike_id": "25486df3c94c3a74864b5621e1cbcfcd", "type": "electric_scooter", "name": "25486df3c94c3a74864b5621e1cbcfcd", "is_disabled": 0, "fusion_lon": 0.0, "rental_uris": {"android": "https://dc.lft.to/lastmile_qr_scan", "ios": "https://dc.lft.to/lastmile_qr_scan"}, "lat": 38.954223999999996, "lon": -77.0277125, "fusion_lat": 0.0}, {"is_reserved": 0, "bike_id": "dbb3a87bf2f883c418afdcaa08471479", "type": "electric_scooter", "name": "dbb3a87bf2f883c418afdcaa08471479", "is_disabled": 0, "fusion_lon": 0.0, "rental_uris": {"android": "https://dc.lft.to/lastmile_qr_scan", "ios": "https://dc.lft.to/lastmile_qr_scan"}, "lat": 38.93183, "lon": -77.03699533333334, "fusion_lat": 0.0}, {"is_reserved": 0, "bike_id": "e537904f430c17574c4e60bf9f267357", "type": "electric_scooter", "name": "e537904f430c17574c4e60bf9f267357", "is_disabled": 0, "fusion_lon": 0.0, "rental_uris": {"android": "https://dc.lft.to/lastmile_qr_scan", "ios": "https://dc.lft.to/lastmile_qr_scan"}, "lat": 38.912731666666666, "lon": -77.022083, "fusion_lat": 0.0}, {"is_reserved": 0, "bike_id": "107361a898694536c02d51c67cd38c38", "type": "electric_scooter", "name": "107361a898694536c02d51c67cd38c38", "is_disabled": 0, "fusion_lon": 0.0, "rental_uris": {"android": "https://dc.lft.to/lastmile_qr_scan", "ios": "https://dc.lft.to/lastmile_qr_scan"}, "lat": 38.9207965, "lon": -77.02389633333334, "fusion_lat": 0.0}, {"is_reserved": 0, "bike_id": "5c224cd5b9575c6cbea74c3c20917220", "type": "electric_scooter", "name": "5c224cd5b9575c6cbea74c3c20917220", "is_disabled": 0, "fusion_lon": 0.0, "rental_uris": {"android": "https://dc.lft.to/lastmile_qr_scan", "ios": "https://dc.lft.to/lastmile_qr_scan"}, "lat": 38.914077, "lon": -77.02210183333334, "fusion_lat": 0.0}, {"is_reserved": 0, "bike_id": "addcb4d7d11f36db1488152e540f134c", "type": "electric_bike", "name": "addcb4d7d11f36db1488152e540f134c", "is_disabled": 0, "fusion_lon": 0.0, "rental_uris": {"android": "https://dc.lft.to/lastmile_qr_scan", "ios": "https://dc.lft.to/lastmile_qr_scan"}, "lat": 38.96472133333333, "lon": -77.03561116666667, "fusion_lat": 0.0}, {"is_reserved": 0, "bike_id": "bfd7bf2687a7f47a5ba2ec6c30b59f8e", "type": "electric_bike", "name": "bfd7bf2687a7f47a5ba2ec6c30b59f8e", "is_disabled": 0, "fusion_lon": 0.0, "rental_uris": {"android": "https://dc.lft.to/lastmile_qr_scan", "ios": "https://dc.lft.to/lastmile_qr_scan"}, "lat": 38.997872, "lon": -77.00756833333334, "fusion_lat": 0.0}, {"is_reserved": 0, "bike_id": "cf9fe7d2f5f36a854584bfb8cb07cef3", "type": "electric_scooter", "name": "cf9fe7d2f5f36a854584bfb8cb07cef3", "is_disabled": 0, "fusion_lon": 0.0, "rental_uris": {"android": "https://dc.lft.to/lastmile_qr_scan", "ios": "https://dc.lft.to/lastmile_qr_scan"}, "lat": 38.895010666666664, "lon": -76.992553, "fusion_lat": 0.0}, {"is_reserved": 0, "bike_id": "c49bd99720e02bf8104b8cbd984e3f51", "type": "electric_bike", "name": "c49bd99720e02bf8104b8cbd984e3f51", "is_disabled": 0, "fusion_lon": 0.0, "rental_uris": {"android": "https://dc.lft.to/lastmile_qr_scan", "ios": "https://dc.lft.to/lastmile_qr_scan"}, "lat": 38.952535166666664, "lon": -77.0962775, "fusion_lat": 0.0}, {"is_reserved": 0, "bike_id": "46fc3836418f3283c39311a48563c006", "type": "electric_bike", "name": "46fc3836418f3283c39311a48563c006", "is_disabled": 0, "fusion_lon": 0.0, "rental_uris": {"android": "https://dc.lft.to/lastmile_qr_scan", "ios": "https://dc.lft.to/lastmile_qr_scan"}, "lat": 38.93518516666666, "lon": -77.05419233333333, "fusion_lat": 0.0}, {"is_reserved": 0, "bike_id": "9ab8f8ccdd96fdab7796d401ba8ae7dc", "type": "electric_scooter", "name": "9ab8f8ccdd96fdab7796d401ba8ae7dc", "is_disabled": 0, "fusion_lon": 0.0, "rental_uris": {"android": "https://dc.lft.to/lastmile_qr_scan", "ios": "https://dc.lft.to/lastmile_qr_scan"}, "lat": 38.9271955, "lon": -77.05991566666667, "fusion_lat": 0.0}, {"is_reserved": 0, "bike_id": "a07b129b1f4ac6336b679fada77231b9", "type": "electric_scooter", "name": "a07b129b1f4ac6336b679fada77231b9", "is_disabled": 0, "fusion_lon": 0.0, "rental_uris": {"android": "https://dc.lft.to/lastmile_qr_scan", "ios": "https://dc.lft.to/lastmile_qr_scan"}, "lat": 38.926051333333334, "lon": -77.021584, "fusion_lat": 0.0}, {"is_reserved": 0, "bike_id": "83c4997ef6ed99f92baa4847a1a845db", "type": "electric_scooter", "name": "83c4997ef6ed99f92baa4847a1a845db", "is_disabled": 0, "fusion_lon": 0.0, "rental_uris": {"android": "https://dc.lft.to/lastmile_qr_scan", "ios": "https://dc.lft.to/lastmile_qr_scan"}, "lat": 38.90139966666667, "lon": -77.01781066666666, "fusion_lat": 0.0}, {"is_reserved": 0, "bike_id": "d1f7ad7e3228cd7a3437c5f3b8bcfc20", "type": "electric_bike", "name": "d1f7ad7e3228cd7a3437c5f3b8bcfc20", "is_disabled": 0, "fusion_lon": 0.0, "rental_uris": {"android": "https://dc.lft.to/lastmile_qr_scan", "ios": "https://dc.lft.to/lastmile_qr_scan"}, "lat": 39.00386533333333, "lon": -77.01281766666666, "fusion_lat": 0.0}, {"is_reserved": 0, "bike_id": "c5a5e0464cd1d6947f52ef0f1ee6243d", "type": "electric_scooter", "name": "c5a5e0464cd1d6947f52ef0f1ee6243d", "is_disabled": 0, "fusion_lon": 0.0, "rental_uris": {"android": "https://dc.lft.to/lastmile_qr_scan", "ios": "https://dc.lft.to/lastmile_qr_scan"}, "lat": 38.94453716666666, "lon": -77.0233435, "fusion_lat": 0.0}, {"is_reserved": 0, "bike_id": "80bc729676b68983a70ad53ed52321d0", "type": "electric_scooter", "name": "80bc729676b68983a70ad53ed52321d0", "is_disabled": 0, "fusion_lon": 0.0, "rental_uris": {"android": "https://dc.lft.to/lastmile_qr_scan", "ios": "https://dc.lft.to/lastmile_qr_scan"}, "lat": 38.9353735, "lon": -77.0308855, "fusion_lat": 0.0}, {"is_reserved": 0, "bike_id": "6b534c707602784f1841ae3c520839da", "type": "electric_scooter", "name": "6b534c707602784f1841ae3c520839da", "is_disabled": 0, "fusion_lon": 0.0, "rental_uris": {"android": "https://dc.lft.to/lastmile_qr_scan", "ios": "https://dc.lft.to/lastmile_qr_scan"}, "lat": 38.89743566666667, "lon": -77.02696316666666, "fusion_lat": 0.0}, {"is_reserved": 0, "bike_id": "46d59321fbbb476f364aac734eebec5b", "type": "electric_scooter", "name": "46d59321fbbb476f364aac734eebec5b", "is_disabled": 0, "fusion_lon": 0.0, "rental_uris": {"android": "https://dc.lft.to/lastmile_qr_scan", "ios": "https://dc.lft.to/lastmile_qr_scan"}, "lat": 38.942846, "lon": -77.02939466666666, "fusion_lat": 0.0}, {"is_reserved": 0, "bike_id": "029eec3471ec12320687fa5e0a0f2775", "type": "electric_scooter", "name": "029eec3471ec12320687fa5e0a0f2775", "is_disabled": 0, "fusion_lon": 0.0, "rental_uris": {"android": "https://dc.lft.to/lastmile_qr_scan", "ios": "https://dc.lft.to/lastmile_qr_scan"}, "lat": 38.897245166666664, "lon": -76.98360166666667, "fusion_lat": 0.0}, {"is_reserved": 0, "bike_id": "d3f45f9da62677abf9bcdcddb5e5301c", "type": "electric_scooter", "name": "d3f45f9da62677abf9bcdcddb5e5301c", "is_disabled": 0, "fusion_lon": 0.0, "rental_uris": {"android": "https://dc.lft.to/lastmile_qr_scan", "ios": "https://dc.lft.to/lastmile_qr_scan"}, "lat": 38.8763245, "lon": -77.00957416666667, "fusion_lat": 0.0}, {"is_reserved": 0, "bike_id": "1819cc5714532098484c150139b492fb", "type": "electric_scooter", "name": "1819cc5714532098484c150139b492fb", "is_disabled": 0, "fusion_lon": 0.0, "rental_uris": {"android": "https://dc.lft.to/lastmile_qr_scan", "ios": "https://dc.lft.to/lastmile_qr_scan"}, "lat": 38.90155083333333, "lon": -77.05900716666666, "fusion_lat": 0.0}, {"is_reserved": 0, "bike_id": "9e44d779c57ae12a719045697b949bec", "type": "electric_scooter", "name": "9e44d779c57ae12a719045697b949bec", "is_disabled": 0, "fusion_lon": 0.0, "rental_uris": {"android": "https://dc.lft.to/lastmile_qr_scan", "ios": "https://dc.lft.to/lastmile_qr_scan"}, "lat": 38.88126283333333, "lon": -76.99347516666667, "fusion_lat": 0.0}, {"is_reserved": 0, "bike_id": "24069e44cc1cb5e1142fad64f4b787ff", "type": "electric_scooter", "name": "24069e44cc1cb5e1142fad64f4b787ff", "is_disabled": 0, "fusion_lon": 0.0, "rental_uris": {"android": "https://dc.lft.to/lastmile_qr_scan", "ios": "https://dc.lft.to/lastmile_qr_scan"}, "lat": 38.89845116666667, "lon": -77.01381566666667, "fusion_lat": 0.0}, {"is_reserved": 0, "bike_id": "994d972d02b51efaf41e042c475a2edc", "type": "electric_scooter", "name": "994d972d02b51efaf41e042c475a2edc", "is_disabled": 0, "fusion_lon": 0.0, "rental_uris": {"android": "https://dc.lft.to/lastmile_qr_scan", "ios": "https://dc.lft.to/lastmile_qr_scan"}, "lat": 38.92668116666667, "lon": -76.99538433333333, "fusion_lat": 0.0}, {"is_reserved": 0, "bike_id": "c2399152857b27b7e4800e158d2967f6", "type": "electric_scooter", "name": "c2399152857b27b7e4800e158d2967f6", "is_disabled": 0, "fusion_lon": 0.0, "rental_uris": {"android": "https://dc.lft.to/lastmile_qr_scan", "ios": "https://dc.lft.to/lastmile_qr_scan"}, "lat": 38.911937333333334, "lon": -77.00731166666667, "fusion_lat": 0.0}, {"is_reserved": 0, "bike_id": "522fa111dd47fac47a2d80270b628045", "type": "electric_scooter", "name": "522fa111dd47fac47a2d80270b628045", "is_disabled": 0, "fusion_lon": 0.0, "rental_uris": {"android": "https://dc.lft.to/lastmile_qr_scan", "ios": "https://dc.lft.to/lastmile_qr_scan"}, "lat": 38.914882166666665, "lon": -77.0456235, "fusion_lat": 0.0}, {"is_reserved": 0, "bike_id": "363c6be3769c627adcc8d83008479bff", "type": "electric_bike", "name": "363c6be3769c627adcc8d83008479bff", "is_disabled": 0, "fusion_lon": 0.0, "rental_uris": {"android": "https://dc.lft.to/lastmile_qr_scan", "ios": "https://dc.lft.to/lastmile_qr_scan"}, "lat": 38.906962166666666, "lon": -76.9525235, "fusion_lat": 0.0}, {"is_reserved": 0, "bike_id": "2ddcdae9185ca9fb78cd356919136721", "type": "electric_scooter", "name": "2ddcdae9185ca9fb78cd356919136721", "is_disabled": 0, "fusion_lon": 0.0, "rental_uris": {"android": "https://dc.lft.to/lastmile_qr_scan", "ios": "https://dc.lft.to/lastmile_qr_scan"}, "lat": 38.89359183333333, "lon": -77.0033575, "fusion_lat": 0.0}, {"is_reserved": 0, "bike_id": "91682e5109ab77c3498a4a48ad36a16b", "type": "electric_scooter", "name": "91682e5109ab77c3498a4a48ad36a16b", "is_disabled": 0, "fusion_lon": 0.0, "rental_uris": {"android": "https://dc.lft.to/lastmile_qr_scan", "ios": "https://dc.lft.to/lastmile_qr_scan"}, "lat": 38.92360866666667, "lon": -77.03404766666667, "fusion_lat": 0.0}, {"is_reserved": 0, "bike_id": "dc465b268ab7e1d4395f704ece5a49ea", "type": "electric_scooter", "name": "dc465b268ab7e1d4395f704ece5a49ea", "is_disabled": 0, "fusion_lon": 0.0, "rental_uris": {"android": "https://dc.lft.to/lastmile_qr_scan", "ios": "https://dc.lft.to/lastmile_qr_scan"}, "lat": 38.922382, "lon": -77.03364333333333, "fusion_lat": 0.0}, {"is_reserved": 0, "bike_id": "de27d86e61e6bb270e54075f3e01891d", "type": "electric_scooter", "name": "de27d86e61e6bb270e54075f3e01891d", "is_disabled": 0, "fusion_lon": 0.0, "rental_uris": {"android": "https://dc.lft.to/lastmile_qr_scan", "ios": "https://dc.lft.to/lastmile_qr_scan"}, "lat": 38.93199416666667, "lon": -77.03748816666666, "fusion_lat": 0.0}, {"is_reserved": 0, "bike_id": "c807f443ca73d426668fad0284a4bc01", "type": "electric_scooter", "name": "c807f443ca73d426668fad0284a4bc01", "is_disabled": 0, "fusion_lon": 0.0, "rental_uris": {"android": "https://dc.lft.to/lastmile_qr_scan", "ios": "https://dc.lft.to/lastmile_qr_scan"}, "lat": 38.93620516666667, "lon": -77.03277416666667, "fusion_lat": 0.0}, {"is_reserved": 0, "bike_id": "897359a4b001413dc70ecfcfe7aa6da0", "type": "electric_scooter", "name": "897359a4b001413dc70ecfcfe7aa6da0", "is_disabled": 0, "fusion_lon": 0.0, "rental_uris": {"android": "https://dc.lft.to/lastmile_qr_scan", "ios": "https://dc.lft.to/lastmile_qr_scan"}, "lat": 38.909704, "lon": -77.0402085, "fusion_lat": 0.0}, {"is_reserved": 0, "bike_id": "29596e71f05200e934238a6a07057144", "type": "electric_scooter", "name": "29596e71f05200e934238a6a07057144", "is_disabled": 0, "fusion_lon": 0.0, "rental_uris": {"android": "https://dc.lft.to/lastmile_qr_scan", "ios": "https://dc.lft.to/lastmile_qr_scan"}, "lat": 38.9036705, "lon": -77.01106816666666, "fusion_lat": 0.0}, {"is_reserved": 0, "bike_id": "5f97f0e84764c19d641d97db00e9542d", "type": "electric_scooter", "name": "5f97f0e84764c19d641d97db00e9542d", "is_disabled": 0, "fusion_lon": 0.0, "rental_uris": {"android": "https://dc.lft.to/lastmile_qr_scan", "ios": "https://dc.lft.to/lastmile_qr_scan"}, "lat": 38.90019216666666, "lon": -77.04662466666667, "fusion_lat": 0.0}, {"is_reserved": 0, "bike_id": "7409b701c09e8bb9ce0f78aab5b60fd4", "type": "electric_scooter", "name": "7409b701c09e8bb9ce0f78aab5b60fd4", "is_disabled": 0, "fusion_lon": 0.0, "rental_uris": {"android": "https://dc.lft.to/lastmile_qr_scan", "ios": "https://dc.lft.to/lastmile_qr_scan"}, "lat": 38.913646, "lon": -77.02048716666667, "fusion_lat": 0.0}, {"is_reserved": 0, "bike_id": "13c7964afabcf9ac45218331b07a79b3", "type": "electric_scooter", "name": "13c7964afabcf9ac45218331b07a79b3", "is_disabled": 0, "fusion_lon": 0.0, "rental_uris": {"android": "https://dc.lft.to/lastmile_qr_scan", "ios": "https://dc.lft.to/lastmile_qr_scan"}, "lat": 38.904706, "lon": -77.03562566666666, "fusion_lat": 0.0}, {"is_reserved": 0, "bike_id": "9f1c550d1989a89a82bcf2ab7a053729", "type": "electric_bike", "name": "9f1c550d1989a89a82bcf2ab7a053729", "is_disabled": 0, "fusion_lon": 0.0, "rental_uris": {"android": "https://dc.lft.to/lastmile_qr_scan", "ios": "https://dc.lft.to/lastmile_qr_scan"}, "lat": 38.952951666666664, "lon": -77.06874883333333, "fusion_lat": 0.0}, {"is_reserved": 0, "bike_id": "a26cfb2fc367cd200e70e929be462a8e", "type": "electric_scooter", "name": "a26cfb2fc367cd200e70e929be462a8e", "is_disabled": 0, "fusion_lon": 0.0, "rental_uris": {"android": "https://dc.lft.to/lastmile_qr_scan", "ios": "https://dc.lft.to/lastmile_qr_scan"}, "lat": 38.90727866666667, "lon": -77.00751616666666, "fusion_lat": 0.0}, {"is_reserved": 0, "bike_id": "7119fc2a48d1bd265e190ab8e1a570ab", "type": "electric_scooter", "name": "7119fc2a48d1bd265e190ab8e1a570ab", "is_disabled": 0, "fusion_lon": 0.0, "rental_uris": {"android": "https://dc.lft.to/lastmile_qr_scan", "ios": "https://dc.lft.to/lastmile_qr_scan"}, "lat": 38.8999595, "lon": -76.99008183333333, "fusion_lat": 0.0}, {"is_reserved": 0, "bike_id": "f659efd55a41764ec2aa4f8f99dab2f3", "type": "electric_scooter", "name": "f659efd55a41764ec2aa4f8f99dab2f3", "is_disabled": 0, "fusion_lon": 0.0, "rental_uris": {"android": "https://dc.lft.to/lastmile_qr_scan", "ios": "https://dc.lft.to/lastmile_qr_scan"}, "lat": 38.89886166666667, "lon": -77.04545416666667, "fusion_lat": 0.0}, {"is_reserved": 0, "bike_id": "102c96f6df11901296c74407434fe058", "type": "electric_scooter", "name": "102c96f6df11901296c74407434fe058", "is_disabled": 0, "fusion_lon": 0.0, "rental_uris": {"android": "https://dc.lft.to/lastmile_qr_scan", "ios": "https://dc.lft.to/lastmile_qr_scan"}, "lat": 38.897717, "lon": -77.02695066666666, "fusion_lat": 0.0}, {"is_reserved": 0, "bike_id": "6a1d53415181ea0c58c261d25e6b4472", "type": "electric_scooter", "name": "6a1d53415181ea0c58c261d25e6b4472", "is_disabled": 0, "fusion_lon": 0.0, "rental_uris": {"android": "https://dc.lft.to/lastmile_qr_scan", "ios": "https://dc.lft.to/lastmile_qr_scan"}, "lat": 38.89223633333334, "lon": -77.02416683333334, "fusion_lat": 0.0}, {"is_reserved": 0, "bike_id": "160001e31464f32e81cbf1b49eb3bb22", "type": "electric_bike", "name": "160001e31464f32e81cbf1b49eb3bb22", "is_disabled": 0, "fusion_lon": 0.0, "rental_uris": {"android": "https://dc.lft.to/lastmile_qr_scan", "ios": "https://dc.lft.to/lastmile_qr_scan"}, "lat": 38.88860566666666, "lon": -77.08172333333333, "fusion_lat": 0.0}, {"is_reserved": 0, "bike_id": "f411737d0bd7882571d8d7af6a6fe2bb", "type": "electric_scooter", "name": "f411737d0bd7882571d8d7af6a6fe2bb", "is_disabled": 0, "fusion_lon": 0.0, "rental_uris": {"android": "https://dc.lft.to/lastmile_qr_scan", "ios": "https://dc.lft.to/lastmile_qr_scan"}, "lat": 38.92592116666667, "lon": -77.04401383333334, "fusion_lat": 0.0}, {"is_reserved": 0, "bike_id": "8735a5e171c4aa45df034c922d63ee32", "type": "electric_scooter", "name": "8735a5e171c4aa45df034c922d63ee32", "is_disabled": 0, "fusion_lon": 0.0, "rental_uris": {"android": "https://dc.lft.to/lastmile_qr_scan", "ios": "https://dc.lft.to/lastmile_qr_scan"}, "lat": 38.924964333333335, "lon": -77.05249583333334, "fusion_lat": 0.0}, {"is_reserved": 0, "bike_id": "8d97ca885b95e01fdb9d199864fd4f75", "type": "electric_scooter", "name": "8d97ca885b95e01fdb9d199864fd4f75", "is_disabled": 0, "fusion_lon": 0.0, "rental_uris": {"android": "https://dc.lft.to/lastmile_qr_scan", "ios": "https://dc.lft.to/lastmile_qr_scan"}, "lat": 38.883213166666664, "lon": -77.02993433333333, "fusion_lat": 0.0}, {"is_reserved": 0, "bike_id": "be5ddd25a2030157fb9f9fcc49d28470", "type": "electric_scooter", "name": "be5ddd25a2030157fb9f9fcc49d28470", "is_disabled": 0, "fusion_lon": 0.0, "rental_uris": {"android": "https://dc.lft.to/lastmile_qr_scan", "ios": "https://dc.lft.to/lastmile_qr_scan"}, "lat": 38.9191555, "lon": -77.03245966666667, "fusion_lat": 0.0}, {"is_reserved": 0, "bike_id": "eba3e040e4f396a097b6ba3ede8bec81", "type": "electric_scooter", "name": "eba3e040e4f396a097b6ba3ede8bec81", "is_disabled": 0, "fusion_lon": 0.0, "rental_uris": {"android": "https://dc.lft.to/lastmile_qr_scan", "ios": "https://dc.lft.to/lastmile_qr_scan"}, "lat": 38.91705283333334, "lon": -77.0312335, "fusion_lat": 0.0}, {"is_reserved": 0, "bike_id": "2522d0396a874cf8bafdcd3c4cb821bf", "type": "electric_scooter", "name": "2522d0396a874cf8bafdcd3c4cb821bf", "is_disabled": 0, "fusion_lon": 0.0, "rental_uris": {"android": "https://dc.lft.to/lastmile_qr_scan", "ios": "https://dc.lft.to/lastmile_qr_scan"}, "lat": 38.91848783333333, "lon": -77.02268866666667, "fusion_lat": 0.0}, {"is_reserved": 0, "bike_id": "6af4de162903784ddba58d5aef857fdf", "type": "electric_scooter", "name": "6af4de162903784ddba58d5aef857fdf", "is_disabled": 0, "fusion_lon": 0.0, "rental_uris": {"android": "https://dc.lft.to/lastmile_qr_scan", "ios": "https://dc.lft.to/lastmile_qr_scan"}, "lat": 38.91256966666667, "lon": -77.00763666666667, "fusion_lat": 0.0}, {"is_reserved": 0, "bike_id": "3b3ff37500ba6a7af8eeac87be45fc22", "type": "electric_scooter", "name": "3b3ff37500ba6a7af8eeac87be45fc22", "is_disabled": 0, "fusion_lon": 0.0, "rental_uris": {"android": "https://dc.lft.to/lastmile_qr_scan", "ios": "https://dc.lft.to/lastmile_qr_scan"}, "lat": 38.92065566666667, "lon": -77.07166133333334, "fusion_lat": 0.0}, {"is_reserved": 0, "bike_id": "41c7910a7a3405ca831319becfda14e9", "type": "electric_scooter", "name": "41c7910a7a3405ca831319becfda14e9", "is_disabled": 0, "fusion_lon": 0.0, "rental_uris": {"android": "https://dc.lft.to/lastmile_qr_scan", "ios": "https://dc.lft.to/lastmile_qr_scan"}, "lat": 38.914137, "lon": -77.02230066666667, "fusion_lat": 0.0}, {"is_reserved": 0, "bike_id": "cddd0926c39bdc20c39dccdb9fac693c", "type": "electric_scooter", "name": "cddd0926c39bdc20c39dccdb9fac693c", "is_disabled": 0, "fusion_lon": 0.0, "rental_uris": {"android": "https://dc.lft.to/lastmile_qr_scan", "ios": "https://dc.lft.to/lastmile_qr_scan"}, "lat": 38.91645283333333, "lon": -77.02879733333333, "fusion_lat": 0.0}, {"is_reserved": 0, "bike_id": "ceda483ce5ec21acda287cac90163078", "type": "electric_scooter", "name": "ceda483ce5ec21acda287cac90163078", "is_disabled": 0, "fusion_lon": 0.0, "rental_uris": {"android": "https://dc.lft.to/lastmile_qr_scan", "ios": "https://dc.lft.to/lastmile_qr_scan"}, "lat": 38.97494366666667, "lon": -77.01713016666666, "fusion_lat": 0.0}, {"is_reserved": 0, "bike_id": "f7ea167b0ace697570ace83cc4d296ad", "type": "electric_scooter", "name": "f7ea167b0ace697570ace83cc4d296ad", "is_disabled": 0, "fusion_lon": 0.0, "rental_uris": {"android": "https://dc.lft.to/lastmile_qr_scan", "ios": "https://dc.lft.to/lastmile_qr_scan"}, "lat": 38.9005985, "lon": -77.02604733333334, "fusion_lat": 0.0}, {"is_reserved": 0, "bike_id": "761926f28979c9e3586f04edfe3e6d14", "type": "electric_scooter", "name": "761926f28979c9e3586f04edfe3e6d14", "is_disabled": 0, "fusion_lon": 0.0, "rental_uris": {"android": "https://dc.lft.to/lastmile_qr_scan", "ios": "https://dc.lft.to/lastmile_qr_scan"}, "lat": 38.90956583333333, "lon": -77.01276333333334, "fusion_lat": 0.0}, {"is_reserved": 0, "bike_id": "0a3ce00d2847b6fb6e971fed69044abc", "type": "electric_scooter", "name": "0a3ce00d2847b6fb6e971fed69044abc", "is_disabled": 0, "fusion_lon": 0.0, "rental_uris": {"android": "https://dc.lft.to/lastmile_qr_scan", "ios": "https://dc.lft.to/lastmile_qr_scan"}, "lat": 38.92077416666667, "lon": -77.0231835, "fusion_lat": 0.0}, {"is_reserved": 0, "bike_id": "57c4082fb007e175479cc4b9b471d795", "type": "electric_scooter", "name": "57c4082fb007e175479cc4b9b471d795", "is_disabled": 0, "fusion_lon": 0.0, "rental_uris": {"android": "https://dc.lft.to/lastmile_qr_scan", "ios": "https://dc.lft.to/lastmile_qr_scan"}, "lat": 38.898313, "lon": -77.0447785, "fusion_lat": 0.0}, {"is_reserved": 0, "bike_id": "15a3dad7c1e9a197adcb9f42020a4f56", "type": "electric_scooter", "name": "15a3dad7c1e9a197adcb9f42020a4f56", "is_disabled": 0, "fusion_lon": 0.0, "rental_uris": {"android": "https://dc.lft.to/lastmile_qr_scan", "ios": "https://dc.lft.to/lastmile_qr_scan"}, "lat": 38.938052666666664, "lon": -76.992298, "fusion_lat": 0.0}, {"is_reserved": 0, "bike_id": "c17db70ed41656357dfeb129e79b4307", "type": "electric_bike", "name": "c17db70ed41656357dfeb129e79b4307", "is_disabled": 0, "fusion_lon": 0.0, "rental_uris": {"android": "https://dc.lft.to/lastmile_qr_scan", "ios": "https://dc.lft.to/lastmile_qr_scan"}, "lat": 38.924739833333334, "lon": -77.03750033333333, "fusion_lat": 0.0}, {"is_reserved": 0, "bike_id": "b43961ff42209273164910a986ad7f44", "type": "electric_scooter", "name": "b43961ff42209273164910a986ad7f44", "is_disabled": 0, "fusion_lon": 0.0, "rental_uris": {"android": "https://dc.lft.to/lastmile_qr_scan", "ios": "https://dc.lft.to/lastmile_qr_scan"}, "lat": 38.9089905, "lon": -77.00260433333334, "fusion_lat": 0.0}, {"is_reserved": 0, "bike_id": "8f664f5e91d22fd8ebc517e551bac8e3", "type": "electric_scooter", "name": "8f664f5e91d22fd8ebc517e551bac8e3", "is_disabled": 0, "fusion_lon": 0.0, "rental_uris": {"android": "https://dc.lft.to/lastmile_qr_scan", "ios": "https://dc.lft.to/lastmile_qr_scan"}, "lat": 38.9156815, "lon": -77.0679695, "fusion_lat": 0.0}, {"is_reserved": 0, "bike_id": "84f25304e85bcb9e0d042e828ddf7ad4", "type": "electric_scooter", "name": "84f25304e85bcb9e0d042e828ddf7ad4", "is_disabled": 0, "fusion_lon": 0.0, "rental_uris": {"android": "https://dc.lft.to/lastmile_qr_scan", "ios": "https://dc.lft.to/lastmile_qr_scan"}, "lat": 38.916639833333335, "lon": -77.038457, "fusion_lat": 0.0}, {"is_reserved": 0, "bike_id": "bff770975a36f95f7127b1c29b5da25c", "type": "electric_scooter", "name": "bff770975a36f95f7127b1c29b5da25c", "is_disabled": 0, "fusion_lon": 0.0, "rental_uris": {"android": "https://dc.lft.to/lastmile_qr_scan", "ios": "https://dc.lft.to/lastmile_qr_scan"}, "lat": 38.911885166666664, "lon": -77.06084916666667, "fusion_lat": 0.0}, {"is_reserved": 0, "bike_id": "4209bef1347b6f5af4667b7701006f4a", "type": "electric_scooter", "name": "4209bef1347b6f5af4667b7701006f4a", "is_disabled": 0, "fusion_lon": 0.0, "rental_uris": {"android": "https://dc.lft.to/lastmile_qr_scan", "ios": "https://dc.lft.to/lastmile_qr_scan"}, "lat": 38.94179616666667, "lon": -77.036525, "fusion_lat": 0.0}, {"is_reserved": 0, "bike_id": "2e19de725fd95da4aaae132c58ced293", "type": "electric_scooter", "name": "2e19de725fd95da4aaae132c58ced293", "is_disabled": 0, "fusion_lon": 0.0, "rental_uris": {"android": "https://dc.lft.to/lastmile_qr_scan", "ios": "https://dc.lft.to/lastmile_qr_scan"}, "lat": 38.934313, "lon": -77.03447383333334, "fusion_lat": 0.0}, {"is_reserved": 0, "bike_id": "76ee51019824aed0290e3b2ca525b59e", "type": "electric_scooter", "name": "76ee51019824aed0290e3b2ca525b59e", "is_disabled": 0, "fusion_lon": 0.0, "rental_uris": {"android": "https://dc.lft.to/lastmile_qr_scan", "ios": "https://dc.lft.to/lastmile_qr_scan"}, "lat": 38.927139, "lon": -77.02084166666667, "fusion_lat": 0.0}, {"is_reserved": 0, "bike_id": "c391e65e6cdc1cab23f631a6385e9352", "type": "electric_scooter", "name": "c391e65e6cdc1cab23f631a6385e9352", "is_disabled": 0, "fusion_lon": 0.0, "rental_uris": {"android": "https://dc.lft.to/lastmile_qr_scan", "ios": "https://dc.lft.to/lastmile_qr_scan"}, "lat": 38.9357625, "lon": -77.033503, "fusion_lat": 0.0}, {"is_reserved": 0, "bike_id": "20e74c14e2784b2ff930591ce9e16cc6", "type": "electric_scooter", "name": "20e74c14e2784b2ff930591ce9e16cc6", "is_disabled": 0, "fusion_lon": 0.0, "rental_uris": {"android": "https://dc.lft.to/lastmile_qr_scan", "ios": "https://dc.lft.to/lastmile_qr_scan"}, "lat": 38.91334483333333, "lon": -77.04531783333333, "fusion_lat": 0.0}, {"is_reserved": 0, "bike_id": "7118a9d61276a97d623dd460f7ec9302", "type": "electric_scooter", "name": "7118a9d61276a97d623dd460f7ec9302", "is_disabled": 0, "fusion_lon": 0.0, "rental_uris": {"android": "https://dc.lft.to/lastmile_qr_scan", "ios": "https://dc.lft.to/lastmile_qr_scan"}, "lat": 38.9157005, "lon": -77.0460825, "fusion_lat": 0.0}, {"is_reserved": 0, "bike_id": "4cd6adfd29da17753db3b47f1a13550d", "type": "electric_bike", "name": "4cd6adfd29da17753db3b47f1a13550d", "is_disabled": 0, "fusion_lon": 0.0, "rental_uris": {"android": "https://dc.lft.to/lastmile_qr_scan", "ios": "https://dc.lft.to/lastmile_qr_scan"}, "lat": 38.873187333333334, "lon": -77.1141145, "fusion_lat": 0.0}, {"is_reserved": 0, "bike_id": "fa4db3b3071276d5bb59df671a192aed", "type": "electric_scooter", "name": "fa4db3b3071276d5bb59df671a192aed", "is_disabled": 0, "fusion_lon": 0.0, "rental_uris": {"android": "https://dc.lft.to/lastmile_qr_scan", "ios": "https://dc.lft.to/lastmile_qr_scan"}, "lat": 38.92365816666667, "lon": -77.04313766666667, "fusion_lat": 0.0}, {"is_reserved": 0, "bike_id": "1b484e7dde47e856952f37a32bfba45c", "type": "electric_scooter", "name": "1b484e7dde47e856952f37a32bfba45c", "is_disabled": 0, "fusion_lon": 0.0, "rental_uris": {"android": "https://dc.lft.to/lastmile_qr_scan", "ios": "https://dc.lft.to/lastmile_qr_scan"}, "lat": 38.9497585, "lon": -77.02447733333334, "fusion_lat": 0.0}, {"is_reserved": 0, "bike_id": "655758cbce18589060a0f8c2ee5eb78f", "type": "electric_scooter", "name": "655758cbce18589060a0f8c2ee5eb78f", "is_disabled": 0, "fusion_lon": 0.0, "rental_uris": {"android": "https://dc.lft.to/lastmile_qr_scan", "ios": "https://dc.lft.to/lastmile_qr_scan"}, "lat": 38.94963883333333, "lon": -77.06665466666666, "fusion_lat": 0.0}, {"is_reserved": 0, "bike_id": "bed8261892493a39c49b20e18eeb95dd", "type": "electric_scooter", "name": "bed8261892493a39c49b20e18eeb95dd", "is_disabled": 0, "fusion_lon": 0.0, "rental_uris": {"android": "https://dc.lft.to/lastmile_qr_scan", "ios": "https://dc.lft.to/lastmile_qr_scan"}, "lat": 38.897506166666666, "lon": -77.04161616666667, "fusion_lat": 0.0}, {"is_reserved": 0, "bike_id": "3cb221060028e806d86b3a8afab9bd47", "type": "electric_scooter", "name": "3cb221060028e806d86b3a8afab9bd47", "is_disabled": 0, "fusion_lon": 0.0, "rental_uris": {"android": "https://dc.lft.to/lastmile_qr_scan", "ios": "https://dc.lft.to/lastmile_qr_scan"}, "lat": 38.879346166666664, "lon": -77.02155183333333, "fusion_lat": 0.0}, {"is_reserved": 0, "bike_id": "ebe98ca2626936f2ec308c39965072fb", "type": "electric_scooter", "name": "ebe98ca2626936f2ec308c39965072fb", "is_disabled": 0, "fusion_lon": 0.0, "rental_uris": {"android": "https://dc.lft.to/lastmile_qr_scan", "ios": "https://dc.lft.to/lastmile_qr_scan"}, "lat": 38.8993365, "lon": -77.00479966666667, "fusion_lat": 0.0}, {"is_reserved": 0, "bike_id": "6409c01fe5ddceeb4797d973b68b717a", "type": "electric_scooter", "name": "6409c01fe5ddceeb4797d973b68b717a", "is_disabled": 0, "fusion_lon": 0.0, "rental_uris": {"android": "https://dc.lft.to/lastmile_qr_scan", "ios": "https://dc.lft.to/lastmile_qr_scan"}, "lat": 38.922663166666666, "lon": -77.00343516666666, "fusion_lat": 0.0}, {"is_reserved": 0, "bike_id": "fd1ad1a81d34e51a4f5e8e39fce8cbcb", "type": "electric_scooter", "name": "fd1ad1a81d34e51a4f5e8e39fce8cbcb", "is_disabled": 0, "fusion_lon": 0.0, "rental_uris": {"android": "https://dc.lft.to/lastmile_qr_scan", "ios": "https://dc.lft.to/lastmile_qr_scan"}, "lat": 38.91107483333333, "lon": -77.03724033333333, "fusion_lat": 0.0}, {"is_reserved": 0, "bike_id": "61520be4d8740dd77dafcfc98cd7d49c", "type": "electric_scooter", "name": "61520be4d8740dd77dafcfc98cd7d49c", "is_disabled": 0, "fusion_lon": 0.0, "rental_uris": {"android": "https://dc.lft.to/lastmile_qr_scan", "ios": "https://dc.lft.to/lastmile_qr_scan"}, "lat": 38.90420566666667, "lon": -77.02636616666666, "fusion_lat": 0.0}, {"is_reserved": 0, "bike_id": "e1ebd92473bfea98c491d1905310c524", "type": "electric_scooter", "name": "e1ebd92473bfea98c491d1905310c524", "is_disabled": 0, "fusion_lon": 0.0, "rental_uris": {"android": "https://dc.lft.to/lastmile_qr_scan", "ios": "https://dc.lft.to/lastmile_qr_scan"}, "lat": 38.8954595, "lon": -76.98336916666666, "fusion_lat": 0.0}, {"is_reserved": 0, "bike_id": "ff93f286eee8165014d6684229a0a10e", "type": "electric_scooter", "name": "ff93f286eee8165014d6684229a0a10e", "is_disabled": 0, "fusion_lon": 0.0, "rental_uris": {"android": "https://dc.lft.to/lastmile_qr_scan", "ios": "https://dc.lft.to/lastmile_qr_scan"}, "lat": 38.91349266666667, "lon": -77.00927466666667, "fusion_lat": 0.0}, {"is_reserved": 0, "bike_id": "b78aeb19eccd37271df7eabe9b70bcb6", "type": "electric_scooter", "name": "b78aeb19eccd37271df7eabe9b70bcb6", "is_disabled": 0, "fusion_lon": 0.0, "rental_uris": {"android": "https://dc.lft.to/lastmile_qr_scan", "ios": "https://dc.lft.to/lastmile_qr_scan"}, "lat": 38.92448433333333, "lon": -77.02034233333333, "fusion_lat": 0.0}, {"is_reserved": 0, "bike_id": "b5e908d847274282d26ce7e679c81d48", "type": "electric_scooter", "name": "b5e908d847274282d26ce7e679c81d48", "is_disabled": 0, "fusion_lon": 0.0, "rental_uris": {"android": "https://dc.lft.to/lastmile_qr_scan", "ios": "https://dc.lft.to/lastmile_qr_scan"}, "lat": 38.89852583333333, "lon": -76.99034283333333, "fusion_lat": 0.0}, {"is_reserved": 0, "bike_id": "b420b526a6dfaea6a2ecf0426f6a8542", "type": "electric_scooter", "name": "b420b526a6dfaea6a2ecf0426f6a8542", "is_disabled": 0, "fusion_lon": 0.0, "rental_uris": {"android": "https://dc.lft.to/lastmile_qr_scan", "ios": "https://dc.lft.to/lastmile_qr_scan"}, "lat": 38.91543566666667, "lon": -77.038475, "fusion_lat": 0.0}, {"is_reserved": 0, "bike_id": "190a967aa9d425bd00fd22f42a0dc1fc", "type": "electric_scooter", "name": "190a967aa9d425bd00fd22f42a0dc1fc", "is_disabled": 0, "fusion_lon": 0.0, "rental_uris": {"android": "https://dc.lft.to/lastmile_qr_scan", "ios": "https://dc.lft.to/lastmile_qr_scan"}, "lat": 38.92318933333333, "lon": -77.043362, "fusion_lat": 0.0}, {"is_reserved": 0, "bike_id": "730087110b1367e0a0047eca43918ecb", "type": "electric_scooter", "name": "730087110b1367e0a0047eca43918ecb", "is_disabled": 0, "fusion_lon": 0.0, "rental_uris": {"android": "https://dc.lft.to/lastmile_qr_scan", "ios": "https://dc.lft.to/lastmile_qr_scan"}, "lat": 38.905218, "lon": -77.05149233333333, "fusion_lat": 0.0}, {"is_reserved": 0, "bike_id": "e85d2fbf1581d92c7f7f6dc454e26580", "type": "electric_scooter", "name": "e85d2fbf1581d92c7f7f6dc454e26580", "is_disabled": 0, "fusion_lon": 0.0, "rental_uris": {"android": "https://dc.lft.to/lastmile_qr_scan", "ios": "https://dc.lft.to/lastmile_qr_scan"}, "lat": 38.893913166666664, "lon": -77.02213766666667, "fusion_lat": 0.0}, {"is_reserved": 0, "bike_id": "55a87e8d3b65c0ad0863008c8e6ef234", "type": "electric_bike", "name": "55a87e8d3b65c0ad0863008c8e6ef234", "is_disabled": 0, "fusion_lon": 0.0, "rental_uris": {"android": "https://dc.lft.to/lastmile_qr_scan", "ios": "https://dc.lft.to/lastmile_qr_scan"}, "lat": 39.0018895, "lon": -76.9017785, "fusion_lat": 0.0}, {"is_reserved": 0, "bike_id": "d0d2ee11b3d75c5c8f626fe98fb40646", "type": "electric_scooter", "name": "d0d2ee11b3d75c5c8f626fe98fb40646", "is_disabled": 0, "fusion_lon": 0.0, "rental_uris": {"android": "https://dc.lft.to/lastmile_qr_scan", "ios": "https://dc.lft.to/lastmile_qr_scan"}, "lat": 38.9009145, "lon": -77.049873, "fusion_lat": 0.0}, {"is_reserved": 0, "bike_id": "0f60abdfc0f988290d002dc5bbb00918", "type": "electric_scooter", "name": "0f60abdfc0f988290d002dc5bbb00918", "is_disabled": 0, "fusion_lon": 0.0, "rental_uris": {"android": "https://dc.lft.to/lastmile_qr_scan", "ios": "https://dc.lft.to/lastmile_qr_scan"}, "lat": 38.908039333333335, "lon": -76.99693066666667, "fusion_lat": 0.0}, {"is_reserved": 0, "bike_id": "64ffa81353c56d8b3d1253e808a29d2e", "type": "electric_scooter", "name": "64ffa81353c56d8b3d1253e808a29d2e", "is_disabled": 0, "fusion_lon": 0.0, "rental_uris": {"android": "https://dc.lft.to/lastmile_qr_scan", "ios": "https://dc.lft.to/lastmile_qr_scan"}, "lat": 38.937622166666664, "lon": -77.03290616666666, "fusion_lat": 0.0}, {"is_reserved": 0, "bike_id": "898ef39310f824654ee4327d7c573bd3", "type": "electric_scooter", "name": "898ef39310f824654ee4327d7c573bd3", "is_disabled": 0, "fusion_lon": 0.0, "rental_uris": {"android": "https://dc.lft.to/lastmile_qr_scan", "ios": "https://dc.lft.to/lastmile_qr_scan"}, "lat": 38.90092933333333, "lon": -76.97683183333334, "fusion_lat": 0.0}, {"is_reserved": 0, "bike_id": "61e0dd69d3db38ab139d5b290c1ae694", "type": "electric_scooter", "name": "61e0dd69d3db38ab139d5b290c1ae694", "is_disabled": 0, "fusion_lon": 0.0, "rental_uris": {"android": "https://dc.lft.to/lastmile_qr_scan", "ios": "https://dc.lft.to/lastmile_qr_scan"}, "lat": 38.92981833333333, "lon": -77.03466916666666, "fusion_lat": 0.0}, {"is_reserved": 0, "bike_id": "776e673dca887773e83d83536d920dde", "type": "electric_scooter", "name": "776e673dca887773e83d83536d920dde", "is_disabled": 0, "fusion_lon": 0.0, "rental_uris": {"android": "https://dc.lft.to/lastmile_qr_scan", "ios": "https://dc.lft.to/lastmile_qr_scan"}, "lat": 38.914097, "lon": -77.017972, "fusion_lat": 0.0}, {"is_reserved": 0, "bike_id": "a4fbf8fe2df90149ce4145cb06f53bb1", "type": "electric_bike", "name": "a4fbf8fe2df90149ce4145cb06f53bb1", "is_disabled": 0, "fusion_lon": 0.0, "rental_uris": {"android": "https://dc.lft.to/lastmile_qr_scan", "ios": "https://dc.lft.to/lastmile_qr_scan"}, "lat": 38.90598833333333, "lon": -77.12880566666666, "fusion_lat": 0.0}, {"is_reserved": 0, "bike_id": "efe0f97e81512c3c2c6cbd43da99f76b", "type": "electric_scooter", "name": "efe0f97e81512c3c2c6cbd43da99f76b", "is_disabled": 0, "fusion_lon": 0.0, "rental_uris": {"android": "https://dc.lft.to/lastmile_qr_scan", "ios": "https://dc.lft.to/lastmile_qr_scan"}, "lat": 38.90974766666667, "lon": -76.98462583333334, "fusion_lat": 0.0}, {"is_reserved": 0, "bike_id": "51e8e688181cb9975296e5fad5954441", "type": "electric_scooter", "name": "51e8e688181cb9975296e5fad5954441", "is_disabled": 0, "fusion_lon": 0.0, "rental_uris": {"android": "https://dc.lft.to/lastmile_qr_scan", "ios": "https://dc.lft.to/lastmile_qr_scan"}, "lat": 38.93070133333333, "lon": -77.02332433333333, "fusion_lat": 0.0}, {"is_reserved": 0, "bike_id": "d5f384488ad0d7c0450d523a9ebaf08d", "type": "electric_scooter", "name": "d5f384488ad0d7c0450d523a9ebaf08d", "is_disabled": 0, "fusion_lon": 0.0, "rental_uris": {"android": "https://dc.lft.to/lastmile_qr_scan", "ios": "https://dc.lft.to/lastmile_qr_scan"}, "lat": 38.8989335, "lon": -77.003418, "fusion_lat": 0.0}, {"is_reserved": 0, "bike_id": "2d6e16bf474f0b537c5094349a0ee719", "type": "electric_scooter", "name": "2d6e16bf474f0b537c5094349a0ee719", "is_disabled": 0, "fusion_lon": 0.0, "rental_uris": {"android": "https://dc.lft.to/lastmile_qr_scan", "ios": "https://dc.lft.to/lastmile_qr_scan"}, "lat": 38.86212183333333, "lon": -76.99475733333334, "fusion_lat": 0.0}, {"is_reserved": 0, "bike_id": "ba8b13d49c3119d77828e85ac6f1478c", "type": "electric_scooter", "name": "ba8b13d49c3119d77828e85ac6f1478c", "is_disabled": 0, "fusion_lon": 0.0, "rental_uris": {"android": "https://dc.lft.to/lastmile_qr_scan", "ios": "https://dc.lft.to/lastmile_qr_scan"}, "lat": 38.882704833333335, "lon": -77.00352783333334, "fusion_lat": 0.0}, {"is_reserved": 0, "bike_id": "b8afc923917aa51fb08806e8df223226", "type": "electric_scooter", "name": "b8afc923917aa51fb08806e8df223226", "is_disabled": 0, "fusion_lon": 0.0, "rental_uris": {"android": "https://dc.lft.to/lastmile_qr_scan", "ios": "https://dc.lft.to/lastmile_qr_scan"}, "lat": 38.909706166666666, "lon": -77.08132883333333, "fusion_lat": 0.0}, {"is_reserved": 0, "bike_id": "94d632ec81aad3b7d35d6af53c82debc", "type": "electric_scooter", "name": "94d632ec81aad3b7d35d6af53c82debc", "is_disabled": 0, "fusion_lon": 0.0, "rental_uris": {"android": "https://dc.lft.to/lastmile_qr_scan", "ios": "https://dc.lft.to/lastmile_qr_scan"}, "lat": 38.908655833333334, "lon": -77.0858885, "fusion_lat": 0.0}, {"is_reserved": 0, "bike_id": "45f6f788211e19adbf92dd156f00fb48", "type": "electric_scooter", "name": "45f6f788211e19adbf92dd156f00fb48", "is_disabled": 0, "fusion_lon": 0.0, "rental_uris": {"android": "https://dc.lft.to/lastmile_qr_scan", "ios": "https://dc.lft.to/lastmile_qr_scan"}, "lat": 38.929501, "lon": -77.04401533333333, "fusion_lat": 0.0}, {"is_reserved": 0, "bike_id": "8411b10097b01df605ae2497c69747cc", "type": "electric_scooter", "name": "8411b10097b01df605ae2497c69747cc", "is_disabled": 0, "fusion_lon": 0.0, "rental_uris": {"android": "https://dc.lft.to/lastmile_qr_scan", "ios": "https://dc.lft.to/lastmile_qr_scan"}, "lat": 38.912626833333334, "lon": -77.030476, "fusion_lat": 0.0}, {"is_reserved": 0, "bike_id": "e16cb60c4d61eff9f01ee646ebc7b3bc", "type": "electric_scooter", "name": "e16cb60c4d61eff9f01ee646ebc7b3bc", "is_disabled": 0, "fusion_lon": 0.0, "rental_uris": {"android": "https://dc.lft.to/lastmile_qr_scan", "ios": "https://dc.lft.to/lastmile_qr_scan"}, "lat": 38.87545866666667, "lon": -77.00537533333333, "fusion_lat": 0.0}, {"is_reserved": 0, "bike_id": "7c8dc63640d9cd3d843f25b056f09a7b", "type": "electric_scooter", "name": "7c8dc63640d9cd3d843f25b056f09a7b", "is_disabled": 0, "fusion_lon": 0.0, "rental_uris": {"android": "https://dc.lft.to/lastmile_qr_scan", "ios": "https://dc.lft.to/lastmile_qr_scan"}, "lat": 38.9217565, "lon": -77.01911233333334, "fusion_lat": 0.0}, {"is_reserved": 0, "bike_id": "039f7e1d7aaa268c5dbee814ab761117", "type": "electric_scooter", "name": "039f7e1d7aaa268c5dbee814ab761117", "is_disabled": 0, "fusion_lon": 0.0, "rental_uris": {"android": "https://dc.lft.to/lastmile_qr_scan", "ios": "https://dc.lft.to/lastmile_qr_scan"}, "lat": 38.906150833333335, "lon": -77.05680516666666, "fusion_lat": 0.0}, {"is_reserved": 0, "bike_id": "9faef9c771437e00498a0b03f98bfbc7", "type": "electric_scooter", "name": "9faef9c771437e00498a0b03f98bfbc7", "is_disabled": 0, "fusion_lon": 0.0, "rental_uris": {"android": "https://dc.lft.to/lastmile_qr_scan", "ios": "https://dc.lft.to/lastmile_qr_scan"}, "lat": 38.87917, "lon": -76.98541816666666, "fusion_lat": 0.0}, {"is_reserved": 0, "bike_id": "bd4b73ee9f42c536ffc47ac2fc686bea", "type": "electric_scooter", "name": "bd4b73ee9f42c536ffc47ac2fc686bea", "is_disabled": 0, "fusion_lon": 0.0, "rental_uris": {"android": "https://dc.lft.to/lastmile_qr_scan", "ios": "https://dc.lft.to/lastmile_qr_scan"}, "lat": 38.90239866666667, "lon": -77.00200566666666, "fusion_lat": 0.0}, {"is_reserved": 0, "bike_id": "d2e1cd50f650cb4fb7c5e70693f0995c", "type": "electric_scooter", "name": "d2e1cd50f650cb4fb7c5e70693f0995c", "is_disabled": 0, "fusion_lon": 0.0, "rental_uris": {"android": "https://dc.lft.to/lastmile_qr_scan", "ios": "https://dc.lft.to/lastmile_qr_scan"}, "lat": 38.872883333333334, "lon": -77.00985633333333, "fusion_lat": 0.0}, {"is_reserved": 0, "bike_id": "070363d6e135e773257a7c42c656dff0", "type": "electric_scooter", "name": "070363d6e135e773257a7c42c656dff0", "is_disabled": 0, "fusion_lon": 0.0, "rental_uris": {"android": "https://dc.lft.to/lastmile_qr_scan", "ios": "https://dc.lft.to/lastmile_qr_scan"}, "lat": 38.8982565, "lon": -77.0499275, "fusion_lat": 0.0}, {"is_reserved": 0, "bike_id": "481d9848e82533a73559df933bf02b7d", "type": "electric_scooter", "name": "481d9848e82533a73559df933bf02b7d", "is_disabled": 0, "fusion_lon": 0.0, "rental_uris": {"android": "https://dc.lft.to/lastmile_qr_scan", "ios": "https://dc.lft.to/lastmile_qr_scan"}, "lat": 38.928066, "lon": -77.014151, "fusion_lat": 0.0}, {"is_reserved": 0, "bike_id": "db9794255ac26463d1b08af0dcc89a8f", "type": "electric_scooter", "name": "db9794255ac26463d1b08af0dcc89a8f", "is_disabled": 0, "fusion_lon": 0.0, "rental_uris": {"android": "https://dc.lft.to/lastmile_qr_scan", "ios": "https://dc.lft.to/lastmile_qr_scan"}, "lat": 38.898940833333334, "lon": -77.04333166666666, "fusion_lat": 0.0}, {"is_reserved": 0, "bike_id": "6d841c5920eb4de54978103840c80c46", "type": "electric_scooter", "name": "6d841c5920eb4de54978103840c80c46", "is_disabled": 0, "fusion_lon": 0.0, "rental_uris": {"android": "https://dc.lft.to/lastmile_qr_scan", "ios": "https://dc.lft.to/lastmile_qr_scan"}, "lat": 38.881408666666665, "lon": -77.0234385, "fusion_lat": 0.0}, {"is_reserved": 0, "bike_id": "4efa22b1918588fceb6513a8079f4f03", "type": "electric_scooter", "name": "4efa22b1918588fceb6513a8079f4f03", "is_disabled": 0, "fusion_lon": 0.0, "rental_uris": {"android": "https://dc.lft.to/lastmile_qr_scan", "ios": "https://dc.lft.to/lastmile_qr_scan"}, "lat": 38.90267766666667, "lon": -77.01752633333334, "fusion_lat": 0.0}, {"is_reserved": 0, "bike_id": "9d56cc01270299f249d8cee1fcf2cd27", "type": "electric_scooter", "name": "9d56cc01270299f249d8cee1fcf2cd27", "is_disabled": 0, "fusion_lon": 0.0, "rental_uris": {"android": "https://dc.lft.to/lastmile_qr_scan", "ios": "https://dc.lft.to/lastmile_qr_scan"}, "lat": 38.887317333333336, "lon": -76.98361266666667, "fusion_lat": 0.0}, {"is_reserved": 0, "bike_id": "49e5b6f0f61a5630efa78ef158d3cf62", "type": "electric_scooter", "name": "49e5b6f0f61a5630efa78ef158d3cf62", "is_disabled": 0, "fusion_lon": 0.0, "rental_uris": {"android": "https://dc.lft.to/lastmile_qr_scan", "ios": "https://dc.lft.to/lastmile_qr_scan"}, "lat": 38.91417633333333, "lon": -77.01337266666667, "fusion_lat": 0.0}, {"is_reserved": 0, "bike_id": "016c530a714b3cc8b5dc9a942bf8d71f", "type": "electric_scooter", "name": "016c530a714b3cc8b5dc9a942bf8d71f", "is_disabled": 0, "fusion_lon": 0.0, "rental_uris": {"android": "https://dc.lft.to/lastmile_qr_scan", "ios": "https://dc.lft.to/lastmile_qr_scan"}, "lat": 38.90025166666667, "lon": -77.04869766666667, "fusion_lat": 0.0}, {"is_reserved": 0, "bike_id": "061080915fecb77ae78646425752b3f9", "type": "electric_scooter", "name": "061080915fecb77ae78646425752b3f9", "is_disabled": 0, "fusion_lon": 0.0, "rental_uris": {"android": "https://dc.lft.to/lastmile_qr_scan", "ios": "https://dc.lft.to/lastmile_qr_scan"}, "lat": 38.91560533333333, "lon": -77.02822283333333, "fusion_lat": 0.0}, {"is_reserved": 0, "bike_id": "b9da4530d71d764082fa6ed43e434d41", "type": "electric_scooter", "name": "b9da4530d71d764082fa6ed43e434d41", "is_disabled": 0, "fusion_lon": 0.0, "rental_uris": {"android": "https://dc.lft.to/lastmile_qr_scan", "ios": "https://dc.lft.to/lastmile_qr_scan"}, "lat": 38.90855283333333, "lon": -77.02323283333334, "fusion_lat": 0.0}, {"is_reserved": 0, "bike_id": "a8b0abc7f607fa6005651e2b64897fab", "type": "electric_scooter", "name": "a8b0abc7f607fa6005651e2b64897fab", "is_disabled": 0, "fusion_lon": 0.0, "rental_uris": {"android": "https://dc.lft.to/lastmile_qr_scan", "ios": "https://dc.lft.to/lastmile_qr_scan"}, "lat": 38.920762333333336, "lon": -77.0230805, "fusion_lat": 0.0}, {"is_reserved": 0, "bike_id": "c092082a19c3af9dc7be6908fd980eea", "type": "electric_bike", "name": "c092082a19c3af9dc7be6908fd980eea", "is_disabled": 0, "fusion_lon": 0.0, "rental_uris": {"android": "https://dc.lft.to/lastmile_qr_scan", "ios": "https://dc.lft.to/lastmile_qr_scan"}, "lat": 38.92183683333333, "lon": -77.038175, "fusion_lat": 0.0}, {"is_reserved": 0, "bike_id": "35655299fc52a3b043564bee9b398af1", "type": "electric_scooter", "name": "35655299fc52a3b043564bee9b398af1", "is_disabled": 0, "fusion_lon": 0.0, "rental_uris": {"android": "https://dc.lft.to/lastmile_qr_scan", "ios": "https://dc.lft.to/lastmile_qr_scan"}, "lat": 38.94417083333333, "lon": -77.063392, "fusion_lat": 0.0}, {"is_reserved": 0, "bike_id": "52f6c5b3269e4665ac7b892ab3b4a716", "type": "electric_bike", "name": "52f6c5b3269e4665ac7b892ab3b4a716", "is_disabled": 0, "fusion_lon": 0.0, "rental_uris": {"android": "https://dc.lft.to/lastmile_qr_scan", "ios": "https://dc.lft.to/lastmile_qr_scan"}, "lat": 38.842871333333335, "lon": -76.98825066666667, "fusion_lat": 0.0}, {"is_reserved": 0, "bike_id": "6bb7ceac3d451cca60b915ced6138caa", "type": "electric_scooter", "name": "6bb7ceac3d451cca60b915ced6138caa", "is_disabled": 0, "fusion_lon": 0.0, "rental_uris": {"android": "https://dc.lft.to/lastmile_qr_scan", "ios": "https://dc.lft.to/lastmile_qr_scan"}, "lat": 38.92131966666667, "lon": -77.01799833333334, "fusion_lat": 0.0}, {"is_reserved": 0, "bike_id": "aabed1c071b3d5f9cc7b42d54187038a", "type": "electric_scooter", "name": "aabed1c071b3d5f9cc7b42d54187038a", "is_disabled": 0, "fusion_lon": 0.0, "rental_uris": {"android": "https://dc.lft.to/lastmile_qr_scan", "ios": "https://dc.lft.to/lastmile_qr_scan"}, "lat": 38.9143665, "lon": -77.02808866666666, "fusion_lat": 0.0}, {"is_reserved": 0, "bike_id": "4d3bf1ccd49f8be880ae235742f8f60b", "type": "electric_scooter", "name": "4d3bf1ccd49f8be880ae235742f8f60b", "is_disabled": 0, "fusion_lon": 0.0, "rental_uris": {"android": "https://dc.lft.to/lastmile_qr_scan", "ios": "https://dc.lft.to/lastmile_qr_scan"}, "lat": 38.923409166666666, "lon": -77.0092105, "fusion_lat": 0.0}, {"is_reserved": 0, "bike_id": "0561c13260a41abe2ff589b29e4fe393", "type": "electric_scooter", "name": "0561c13260a41abe2ff589b29e4fe393", "is_disabled": 0, "fusion_lon": 0.0, "rental_uris": {"android": "https://dc.lft.to/lastmile_qr_scan", "ios": "https://dc.lft.to/lastmile_qr_scan"}, "lat": 38.919301, "lon": -77.04505083333333, "fusion_lat": 0.0}, {"is_reserved": 0, "bike_id": "b3c10e042c78f5d31937fa610353842c", "type": "electric_scooter", "name": "b3c10e042c78f5d31937fa610353842c", "is_disabled": 0, "fusion_lon": 0.0, "rental_uris": {"android": "https://dc.lft.to/lastmile_qr_scan", "ios": "https://dc.lft.to/lastmile_qr_scan"}, "lat": 38.90381266666667, "lon": -77.05370416666666, "fusion_lat": 0.0}, {"is_reserved": 0, "bike_id": "4cef241fb62a9da073dd39dcc9178431", "type": "electric_scooter", "name": "4cef241fb62a9da073dd39dcc9178431", "is_disabled": 0, "fusion_lon": 0.0, "rental_uris": {"android": "https://dc.lft.to/lastmile_qr_scan", "ios": "https://dc.lft.to/lastmile_qr_scan"}, "lat": 38.89974866666667, "lon": -77.00341133333333, "fusion_lat": 0.0}, {"is_reserved": 0, "bike_id": "ac1437d4f74c13124f0baf8c275df388", "type": "electric_scooter", "name": "ac1437d4f74c13124f0baf8c275df388", "is_disabled": 0, "fusion_lon": 0.0, "rental_uris": {"android": "https://dc.lft.to/lastmile_qr_scan", "ios": "https://dc.lft.to/lastmile_qr_scan"}, "lat": 38.92052666666667, "lon": -77.0243045, "fusion_lat": 0.0}, {"is_reserved": 0, "bike_id": "051fcd813ae4364a1977b99642692204", "type": "electric_scooter", "name": "051fcd813ae4364a1977b99642692204", "is_disabled": 0, "fusion_lon": 0.0, "rental_uris": {"android": "https://dc.lft.to/lastmile_qr_scan", "ios": "https://dc.lft.to/lastmile_qr_scan"}, "lat": 38.918496166666664, "lon": -76.9654645, "fusion_lat": 0.0}, {"is_reserved": 0, "bike_id": "71cb2fe5594ebcd7020d020dc5d7a909", "type": "electric_scooter", "name": "71cb2fe5594ebcd7020d020dc5d7a909", "is_disabled": 0, "fusion_lon": 0.0, "rental_uris": {"android": "https://dc.lft.to/lastmile_qr_scan", "ios": "https://dc.lft.to/lastmile_qr_scan"}, "lat": 38.911076333333334, "lon": -77.02639966666666, "fusion_lat": 0.0}, {"is_reserved": 0, "bike_id": "95c86668646d830ee83fa499c3fc0518", "type": "electric_scooter", "name": "95c86668646d830ee83fa499c3fc0518", "is_disabled": 0, "fusion_lon": 0.0, "rental_uris": {"android": "https://dc.lft.to/lastmile_qr_scan", "ios": "https://dc.lft.to/lastmile_qr_scan"}, "lat": 38.966061333333336, "lon": -77.021054, "fusion_lat": 0.0}, {"is_reserved": 0, "bike_id": "dfbd3a29c121920c073537ee48b89780", "type": "electric_scooter", "name": "dfbd3a29c121920c073537ee48b89780", "is_disabled": 0, "fusion_lon": 0.0, "rental_uris": {"android": "https://dc.lft.to/lastmile_qr_scan", "ios": "https://dc.lft.to/lastmile_qr_scan"}, "lat": 38.93563983333333, "lon": -77.05877766666667, "fusion_lat": 0.0}, {"is_reserved": 0, "bike_id": "ad27fc9bc21c7922d23ddd624ee6ab25", "type": "electric_scooter", "name": "ad27fc9bc21c7922d23ddd624ee6ab25", "is_disabled": 0, "fusion_lon": 0.0, "rental_uris": {"android": "https://dc.lft.to/lastmile_qr_scan", "ios": "https://dc.lft.to/lastmile_qr_scan"}, "lat": 38.87532216666666, "lon": -77.0006995, "fusion_lat": 0.0}, {"is_reserved": 0, "bike_id": "f05b1317cf8424fc1ffa2878e5d2f096", "type": "electric_scooter", "name": "f05b1317cf8424fc1ffa2878e5d2f096", "is_disabled": 0, "fusion_lon": 0.0, "rental_uris": {"android": "https://dc.lft.to/lastmile_qr_scan", "ios": "https://dc.lft.to/lastmile_qr_scan"}, "lat": 38.887207, "lon": -77.02159716666667, "fusion_lat": 0.0}, {"is_reserved": 0, "bike_id": "dca4246c6b7718716c3fd7d415d2ce2f", "type": "electric_scooter", "name": "dca4246c6b7718716c3fd7d415d2ce2f", "is_disabled": 0, "fusion_lon": 0.0, "rental_uris": {"android": "https://dc.lft.to/lastmile_qr_scan", "ios": "https://dc.lft.to/lastmile_qr_scan"}, "lat": 38.89078816666667, "lon": -76.99506933333333, "fusion_lat": 0.0}, {"is_reserved": 0, "bike_id": "114877bc652348d80dabebf7d2b2509d", "type": "electric_scooter", "name": "114877bc652348d80dabebf7d2b2509d", "is_disabled": 0, "fusion_lon": 0.0, "rental_uris": {"android": "https://dc.lft.to/lastmile_qr_scan", "ios": "https://dc.lft.to/lastmile_qr_scan"}, "lat": 38.88500416666667, "lon": -77.0059625, "fusion_lat": 0.0}, {"is_reserved": 0, "bike_id": "77bb3dc21e69eabd0f43cae2c7adac9c", "type": "electric_scooter", "name": "77bb3dc21e69eabd0f43cae2c7adac9c", "is_disabled": 0, "fusion_lon": 0.0, "rental_uris": {"android": "https://dc.lft.to/lastmile_qr_scan", "ios": "https://dc.lft.to/lastmile_qr_scan"}, "lat": 38.91711466666667, "lon": -77.02392916666666, "fusion_lat": 0.0}, {"is_reserved": 0, "bike_id": "6f0fd50d61646a684cf32b92403610ac", "type": "electric_scooter", "name": "6f0fd50d61646a684cf32b92403610ac", "is_disabled": 0, "fusion_lon": 0.0, "rental_uris": {"android": "https://dc.lft.to/lastmile_qr_scan", "ios": "https://dc.lft.to/lastmile_qr_scan"}, "lat": 38.90809766666667, "lon": -77.08406116666667, "fusion_lat": 0.0}, {"is_reserved": 0, "bike_id": "8e8c82ad51ed3cf2ed056d19a823beb2", "type": "electric_scooter", "name": "8e8c82ad51ed3cf2ed056d19a823beb2", "is_disabled": 0, "fusion_lon": 0.0, "rental_uris": {"android": "https://dc.lft.to/lastmile_qr_scan", "ios": "https://dc.lft.to/lastmile_qr_scan"}, "lat": 38.912986333333336, "lon": -77.01744666666667, "fusion_lat": 0.0}, {"is_reserved": 0, "bike_id": "01f1171b72ad5d969b1f6ae87c92993e", "type": "electric_scooter", "name": "01f1171b72ad5d969b1f6ae87c92993e", "is_disabled": 0, "fusion_lon": 0.0, "rental_uris": {"android": "https://dc.lft.to/lastmile_qr_scan", "ios": "https://dc.lft.to/lastmile_qr_scan"}, "lat": 38.956573666666664, "lon": -77.01324866666667, "fusion_lat": 0.0}, {"is_reserved": 0, "bike_id": "ee006fbaefa9402d2b8c84bc9f8031be", "type": "electric_scooter", "name": "ee006fbaefa9402d2b8c84bc9f8031be", "is_disabled": 0, "fusion_lon": 0.0, "rental_uris": {"android": "https://dc.lft.to/lastmile_qr_scan", "ios": "https://dc.lft.to/lastmile_qr_scan"}, "lat": 38.9024715, "lon": -76.9896475, "fusion_lat": 0.0}, {"is_reserved": 0, "bike_id": "6247de3bfc59455e0e1786fe495f6708", "type": "electric_scooter", "name": "6247de3bfc59455e0e1786fe495f6708", "is_disabled": 0, "fusion_lon": 0.0, "rental_uris": {"android": "https://dc.lft.to/lastmile_qr_scan", "ios": "https://dc.lft.to/lastmile_qr_scan"}, "lat": 38.886159166666665, "lon": -77.01782166666666, "fusion_lat": 0.0}, {"is_reserved": 0, "bike_id": "8f1a0ff04b6353c45e9383ba4c31f2c0", "type": "electric_scooter", "name": "8f1a0ff04b6353c45e9383ba4c31f2c0", "is_disabled": 0, "fusion_lon": 0.0, "rental_uris": {"android": "https://dc.lft.to/lastmile_qr_scan", "ios": "https://dc.lft.to/lastmile_qr_scan"}, "lat": 38.944621833333336, "lon": -77.00655883333333, "fusion_lat": 0.0}, {"is_reserved": 0, "bike_id": "a344305e1600405fbcb591dc3c328d4a", "type": "electric_scooter", "name": "a344305e1600405fbcb591dc3c328d4a", "is_disabled": 0, "fusion_lon": 0.0, "rental_uris": {"android": "https://dc.lft.to/lastmile_qr_scan", "ios": "https://dc.lft.to/lastmile_qr_scan"}, "lat": 38.9048555, "lon": -77.04866083333333, "fusion_lat": 0.0}, {"is_reserved": 0, "bike_id": "d4a95a98815432f5f524065a7ba7bdd5", "type": "electric_scooter", "name": "d4a95a98815432f5f524065a7ba7bdd5", "is_disabled": 0, "fusion_lon": 0.0, "rental_uris": {"android": "https://dc.lft.to/lastmile_qr_scan", "ios": "https://dc.lft.to/lastmile_qr_scan"}, "lat": 38.92433416666667, "lon": -77.04251516666666, "fusion_lat": 0.0}, {"is_reserved": 0, "bike_id": "c3a9860708593c9a6bdf174bb1968598", "type": "electric_bike", "name": "c3a9860708593c9a6bdf174bb1968598", "is_disabled": 0, "fusion_lon": 0.0, "rental_uris": {"android": "https://dc.lft.to/lastmile_qr_scan", "ios": "https://dc.lft.to/lastmile_qr_scan"}, "lat": 38.86486266666667, "lon": -76.977475, "fusion_lat": 0.0}, {"is_reserved": 0, "bike_id": "5e2a97a396d26b6e3db4b7bf97aba3fa", "type": "electric_scooter", "name": "5e2a97a396d26b6e3db4b7bf97aba3fa", "is_disabled": 0, "fusion_lon": 0.0, "rental_uris": {"android": "https://dc.lft.to/lastmile_qr_scan", "ios": "https://dc.lft.to/lastmile_qr_scan"}, "lat": 38.926058, "lon": -77.02156066666667, "fusion_lat": 0.0}, {"is_reserved": 0, "bike_id": "8eb45deae3157d4a160e35ab1f5ba460", "type": "electric_scooter", "name": "8eb45deae3157d4a160e35ab1f5ba460", "is_disabled": 0, "fusion_lon": 0.0, "rental_uris": {"android": "https://dc.lft.to/lastmile_qr_scan", "ios": "https://dc.lft.to/lastmile_qr_scan"}, "lat": 38.8874765, "lon": -77.02574016666667, "fusion_lat": 0.0}, {"is_reserved": 0, "bike_id": "b71ca4c76ee927c71b98d75d475bb974", "type": "electric_scooter", "name": "b71ca4c76ee927c71b98d75d475bb974", "is_disabled": 0, "fusion_lon": 0.0, "rental_uris": {"android": "https://dc.lft.to/lastmile_qr_scan", "ios": "https://dc.lft.to/lastmile_qr_scan"}, "lat": 38.930999166666666, "lon": -77.091054, "fusion_lat": 0.0}, {"is_reserved": 0, "bike_id": "5e0e94b1b039b4f0383a03d430ced9ae", "type": "electric_scooter", "name": "5e0e94b1b039b4f0383a03d430ced9ae", "is_disabled": 0, "fusion_lon": 0.0, "rental_uris": {"android": "https://dc.lft.to/lastmile_qr_scan", "ios": "https://dc.lft.to/lastmile_qr_scan"}, "lat": 38.921565, "lon": -77.03391383333333, "fusion_lat": 0.0}, {"is_reserved": 0, "bike_id": "5c3a15ada0e9c315f8377d36e91267db", "type": "electric_scooter", "name": "5c3a15ada0e9c315f8377d36e91267db", "is_disabled": 0, "fusion_lon": 0.0, "rental_uris": {"android": "https://dc.lft.to/lastmile_qr_scan", "ios": "https://dc.lft.to/lastmile_qr_scan"}, "lat": 38.908524, "lon": -77.04738, "fusion_lat": 0.0}, {"is_reserved": 0, "bike_id": "7270b825b1befc62ded2a1ac3c1f95c0", "type": "electric_scooter", "name": "7270b825b1befc62ded2a1ac3c1f95c0", "is_disabled": 0, "fusion_lon": 0.0, "rental_uris": {"android": "https://dc.lft.to/lastmile_qr_scan", "ios": "https://dc.lft.to/lastmile_qr_scan"}, "lat": 38.898689166666664, "lon": -76.94666966666666, "fusion_lat": 0.0}, {"is_reserved": 0, "bike_id": "00aa0f1ff01f54c85bbcca1d393cb7c1", "type": "electric_scooter", "name": "00aa0f1ff01f54c85bbcca1d393cb7c1", "is_disabled": 0, "fusion_lon": 0.0, "rental_uris": {"android": "https://dc.lft.to/lastmile_qr_scan", "ios": "https://dc.lft.to/lastmile_qr_scan"}, "lat": 38.87665833333333, "lon": -77.00643983333333, "fusion_lat": 0.0}, {"is_reserved": 0, "bike_id": "06c713c476adcf6717894f3a3fc1ff1c", "type": "electric_scooter", "name": "06c713c476adcf6717894f3a3fc1ff1c", "is_disabled": 0, "fusion_lon": 0.0, "rental_uris": {"android": "https://dc.lft.to/lastmile_qr_scan", "ios": "https://dc.lft.to/lastmile_qr_scan"}, "lat": 38.9224015, "lon": -77.02910266666666, "fusion_lat": 0.0}, {"is_reserved": 0, "bike_id": "e53d2c1f4ffba2fa53576319381e7b64", "type": "electric_scooter", "name": "e53d2c1f4ffba2fa53576319381e7b64", "is_disabled": 0, "fusion_lon": 0.0, "rental_uris": {"android": "https://dc.lft.to/lastmile_qr_scan", "ios": "https://dc.lft.to/lastmile_qr_scan"}, "lat": 38.926001666666664, "lon": -77.022921, "fusion_lat": 0.0}, {"is_reserved": 0, "bike_id": "524e763a56cc4c5ae2f58ff6fb1eb358", "type": "electric_scooter", "name": "524e763a56cc4c5ae2f58ff6fb1eb358", "is_disabled": 0, "fusion_lon": 0.0, "rental_uris": {"android": "https://dc.lft.to/lastmile_qr_scan", "ios": "https://dc.lft.to/lastmile_qr_scan"}, "lat": 38.938961, "lon": -77.03335933333334, "fusion_lat": 0.0}, {"is_reserved": 0, "bike_id": "7cb33cf353b0c7d67534883a8f0e99f4", "type": "electric_scooter", "name": "7cb33cf353b0c7d67534883a8f0e99f4", "is_disabled": 0, "fusion_lon": 0.0, "rental_uris": {"android": "https://dc.lft.to/lastmile_qr_scan", "ios": "https://dc.lft.to/lastmile_qr_scan"}, "lat": 38.930694833333334, "lon": -77.03821966666666, "fusion_lat": 0.0}, {"is_reserved": 0, "bike_id": "55b9cc6d810838dc3090b6f16ecde2cf", "type": "electric_scooter", "name": "55b9cc6d810838dc3090b6f16ecde2cf", "is_disabled": 0, "fusion_lon": 0.0, "rental_uris": {"android": "https://dc.lft.to/lastmile_qr_scan", "ios": "https://dc.lft.to/lastmile_qr_scan"}, "lat": 38.885998666666666, "lon": -77.03120033333333, "fusion_lat": 0.0}, {"is_reserved": 0, "bike_id": "4c4a422160d3ee6d495bf589b596684c", "type": "electric_scooter", "name": "4c4a422160d3ee6d495bf589b596684c", "is_disabled": 0, "fusion_lon": 0.0, "rental_uris": {"android": "https://dc.lft.to/lastmile_qr_scan", "ios": "https://dc.lft.to/lastmile_qr_scan"}, "lat": 38.916904, "lon": -77.03860583333334, "fusion_lat": 0.0}, {"is_reserved": 0, "bike_id": "4c11602d52b4493f00f898e5555be2f8", "type": "electric_scooter", "name": "4c11602d52b4493f00f898e5555be2f8", "is_disabled": 0, "fusion_lon": 0.0, "rental_uris": {"android": "https://dc.lft.to/lastmile_qr_scan", "ios": "https://dc.lft.to/lastmile_qr_scan"}, "lat": 38.90436916666667, "lon": -77.02867216666667, "fusion_lat": 0.0}, {"is_reserved": 0, "bike_id": "f6880cc343a471519c89746ee524004e", "type": "electric_scooter", "name": "f6880cc343a471519c89746ee524004e", "is_disabled": 0, "fusion_lon": 0.0, "rental_uris": {"android": "https://dc.lft.to/lastmile_qr_scan", "ios": "https://dc.lft.to/lastmile_qr_scan"}, "lat": 38.907318, "lon": -77.007003, "fusion_lat": 0.0}, {"is_reserved": 0, "bike_id": "925293e767d4bad3909d216a78aa984e", "type": "electric_scooter", "name": "925293e767d4bad3909d216a78aa984e", "is_disabled": 0, "fusion_lon": 0.0, "rental_uris": {"android": "https://dc.lft.to/lastmile_qr_scan", "ios": "https://dc.lft.to/lastmile_qr_scan"}, "lat": 38.86508666666667, "lon": -76.97341666666667, "fusion_lat": 0.0}, {"is_reserved": 0, "bike_id": "42c48924e9d12c0ff218dd482a7e11ad", "type": "electric_scooter", "name": "42c48924e9d12c0ff218dd482a7e11ad", "is_disabled": 0, "fusion_lon": 0.0, "rental_uris": {"android": "https://dc.lft.to/lastmile_qr_scan", "ios": "https://dc.lft.to/lastmile_qr_scan"}, "lat": 38.89859166666667, "lon": -77.04242166666667, "fusion_lat": 0.0}, {"is_reserved": 0, "bike_id": "8b9e797cfaa87c6506ed047ee881a178", "type": "electric_scooter", "name": "8b9e797cfaa87c6506ed047ee881a178", "is_disabled": 0, "fusion_lon": 0.0, "rental_uris": {"android": "https://dc.lft.to/lastmile_qr_scan", "ios": "https://dc.lft.to/lastmile_qr_scan"}, "lat": 38.9104195, "lon": -76.99745633333333, "fusion_lat": 0.0}, {"is_reserved": 0, "bike_id": "ed1bdb1425e6b9a321c5aa3ccbba2662", "type": "electric_scooter", "name": "ed1bdb1425e6b9a321c5aa3ccbba2662", "is_disabled": 0, "fusion_lon": 0.0, "rental_uris": {"android": "https://dc.lft.to/lastmile_qr_scan", "ios": "https://dc.lft.to/lastmile_qr_scan"}, "lat": 38.90258016666667, "lon": -76.99513383333333, "fusion_lat": 0.0}, {"is_reserved": 0, "bike_id": "40b4e6ffd7f21cf51a7068a18fe33c23", "type": "electric_scooter", "name": "40b4e6ffd7f21cf51a7068a18fe33c23", "is_disabled": 0, "fusion_lon": 0.0, "rental_uris": {"android": "https://dc.lft.to/lastmile_qr_scan", "ios": "https://dc.lft.to/lastmile_qr_scan"}, "lat": 38.911381666666664, "lon": -77.02200916666666, "fusion_lat": 0.0}, {"is_reserved": 0, "bike_id": "813e3f01b185776e10316f84e01c76aa", "type": "electric_scooter", "name": "813e3f01b185776e10316f84e01c76aa", "is_disabled": 0, "fusion_lon": 0.0, "rental_uris": {"android": "https://dc.lft.to/lastmile_qr_scan", "ios": "https://dc.lft.to/lastmile_qr_scan"}, "lat": 38.90977, "lon": -77.03830533333333, "fusion_lat": 0.0}, {"is_reserved": 0, "bike_id": "0ef4d6944cd0e59b0e7bca79c5436f80", "type": "electric_scooter", "name": "0ef4d6944cd0e59b0e7bca79c5436f80", "is_disabled": 0, "fusion_lon": 0.0, "rental_uris": {"android": "https://dc.lft.to/lastmile_qr_scan", "ios": "https://dc.lft.to/lastmile_qr_scan"}, "lat": 38.90682483333333, "lon": -77.0363305, "fusion_lat": 0.0}, {"is_reserved": 0, "bike_id": "b63a01c84cbfef031bbfa8f914c99e35", "type": "electric_scooter", "name": "b63a01c84cbfef031bbfa8f914c99e35", "is_disabled": 0, "fusion_lon": 0.0, "rental_uris": {"android": "https://dc.lft.to/lastmile_qr_scan", "ios": "https://dc.lft.to/lastmile_qr_scan"}, "lat": 38.8773035, "lon": -77.00599916666667, "fusion_lat": 0.0}, {"is_reserved": 0, "bike_id": "0d36708aa5012e69cad753627ed81f9a", "type": "electric_scooter", "name": "0d36708aa5012e69cad753627ed81f9a", "is_disabled": 0, "fusion_lon": 0.0, "rental_uris": {"android": "https://dc.lft.to/lastmile_qr_scan", "ios": "https://dc.lft.to/lastmile_qr_scan"}, "lat": 38.923264, "lon": -77.01958366666666, "fusion_lat": 0.0}, {"is_reserved": 0, "bike_id": "aed7491f9eb16ebbbe514879f03b765f", "type": "electric_scooter", "name": "aed7491f9eb16ebbbe514879f03b765f", "is_disabled": 0, "fusion_lon": 0.0, "rental_uris": {"android": "https://dc.lft.to/lastmile_qr_scan", "ios": "https://dc.lft.to/lastmile_qr_scan"}, "lat": 38.92971983333333, "lon": -77.03178666666666, "fusion_lat": 0.0}, {"is_reserved": 0, "bike_id": "70bf605ad79e9171c9bd7f5f58aef2ec", "type": "electric_scooter", "name": "70bf605ad79e9171c9bd7f5f58aef2ec", "is_disabled": 0, "fusion_lon": 0.0, "rental_uris": {"android": "https://dc.lft.to/lastmile_qr_scan", "ios": "https://dc.lft.to/lastmile_qr_scan"}, "lat": 38.92020866666667, "lon": -77.063659, "fusion_lat": 0.0}, {"is_reserved": 0, "bike_id": "d4a8b9e171f0d9b5b72a23d7df957943", "type": "electric_scooter", "name": "d4a8b9e171f0d9b5b72a23d7df957943", "is_disabled": 0, "fusion_lon": 0.0, "rental_uris": {"android": "https://dc.lft.to/lastmile_qr_scan", "ios": "https://dc.lft.to/lastmile_qr_scan"}, "lat": 38.940781666666666, "lon": -77.06130783333333, "fusion_lat": 0.0}, {"is_reserved": 0, "bike_id": "275e287c073b3a5c18baca7d7513a5e9", "type": "electric_scooter", "name": "275e287c073b3a5c18baca7d7513a5e9", "is_disabled": 0, "fusion_lon": 0.0, "rental_uris": {"android": "https://dc.lft.to/lastmile_qr_scan", "ios": "https://dc.lft.to/lastmile_qr_scan"}, "lat": 38.89976683333333, "lon": -77.02713533333333, "fusion_lat": 0.0}, {"is_reserved": 0, "bike_id": "dab92da1b92fe1741a47924e382f9f2c", "type": "electric_scooter", "name": "dab92da1b92fe1741a47924e382f9f2c", "is_disabled": 0, "fusion_lon": 0.0, "rental_uris": {"android": "https://dc.lft.to/lastmile_qr_scan", "ios": "https://dc.lft.to/lastmile_qr_scan"}, "lat": 38.919720166666664, "lon": -77.0177435, "fusion_lat": 0.0}, {"is_reserved": 0, "bike_id": "45a582443f0dba0fd7bb20b85a6f03f7", "type": "electric_scooter", "name": "45a582443f0dba0fd7bb20b85a6f03f7", "is_disabled": 0, "fusion_lon": 0.0, "rental_uris": {"android": "https://dc.lft.to/lastmile_qr_scan", "ios": "https://dc.lft.to/lastmile_qr_scan"}, "lat": 38.942019333333334, "lon": -77.02350116666666, "fusion_lat": 0.0}, {"is_reserved": 0, "bike_id": "0dfc74c21b871fa0d01e761bbdd0c7bc", "type": "electric_scooter", "name": "0dfc74c21b871fa0d01e761bbdd0c7bc", "is_disabled": 0, "fusion_lon": 0.0, "rental_uris": {"android": "https://dc.lft.to/lastmile_qr_scan", "ios": "https://dc.lft.to/lastmile_qr_scan"}, "lat": 38.931085, "lon": -77.03483916666667, "fusion_lat": 0.0}, {"is_reserved": 0, "bike_id": "a9621d952f0fe76a41d606fb2ed44613", "type": "electric_scooter", "name": "a9621d952f0fe76a41d606fb2ed44613", "is_disabled": 0, "fusion_lon": 0.0, "rental_uris": {"android": "https://dc.lft.to/lastmile_qr_scan", "ios": "https://dc.lft.to/lastmile_qr_scan"}, "lat": 38.91410166666667, "lon": -77.02592933333334, "fusion_lat": 0.0}, {"is_reserved": 0, "bike_id": "a6370d8bd000e602d8846b8659982a00", "type": "electric_scooter", "name": "a6370d8bd000e602d8846b8659982a00", "is_disabled": 0, "fusion_lon": 0.0, "rental_uris": {"android": "https://dc.lft.to/lastmile_qr_scan", "ios": "https://dc.lft.to/lastmile_qr_scan"}, "lat": 38.934741333333335, "lon": -77.0726555, "fusion_lat": 0.0}, {"is_reserved": 0, "bike_id": "9d3cb67570cbc009775a2ff9326f563a", "type": "electric_scooter", "name": "9d3cb67570cbc009775a2ff9326f563a", "is_disabled": 0, "fusion_lon": 0.0, "rental_uris": {"android": "https://dc.lft.to/lastmile_qr_scan", "ios": "https://dc.lft.to/lastmile_qr_scan"}, "lat": 38.907217833333334, "lon": -76.930087, "fusion_lat": 0.0}, {"is_reserved": 0, "bike_id": "e965441704be733c6dbf72a1937c7930", "type": "electric_scooter", "name": "e965441704be733c6dbf72a1937c7930", "is_disabled": 0, "fusion_lon": 0.0, "rental_uris": {"android": "https://dc.lft.to/lastmile_qr_scan", "ios": "https://dc.lft.to/lastmile_qr_scan"}, "lat": 38.891155499999996, "lon": -76.94381283333334, "fusion_lat": 0.0}, {"is_reserved": 0, "bike_id": "dc6296ffa9355c4ad83f17fbf818fafa", "type": "electric_scooter", "name": "dc6296ffa9355c4ad83f17fbf818fafa", "is_disabled": 0, "fusion_lon": 0.0, "rental_uris": {"android": "https://dc.lft.to/lastmile_qr_scan", "ios": "https://dc.lft.to/lastmile_qr_scan"}, "lat": 38.92074916666667, "lon": -77.031828, "fusion_lat": 0.0}, {"is_reserved": 0, "bike_id": "9909303d3ddf7f3c4db968ad15cf05cf", "type": "electric_scooter", "name": "9909303d3ddf7f3c4db968ad15cf05cf", "is_disabled": 0, "fusion_lon": 0.0, "rental_uris": {"android": "https://dc.lft.to/lastmile_qr_scan", "ios": "https://dc.lft.to/lastmile_qr_scan"}, "lat": 38.91410233333333, "lon": -77.01280483333333, "fusion_lat": 0.0}, {"is_reserved": 0, "bike_id": "eba058a1b0e17fca1f72c20efa446620", "type": "electric_scooter", "name": "eba058a1b0e17fca1f72c20efa446620", "is_disabled": 0, "fusion_lon": 0.0, "rental_uris": {"android": "https://dc.lft.to/lastmile_qr_scan", "ios": "https://dc.lft.to/lastmile_qr_scan"}, "lat": 38.899330666666664, "lon": -77.03916666666667, "fusion_lat": 0.0}, {"is_reserved": 0, "bike_id": "356b89b6b6b3b208a1d06cd02e571af7", "type": "electric_bike", "name": "356b89b6b6b3b208a1d06cd02e571af7", "is_disabled": 0, "fusion_lon": 0.0, "rental_uris": {"android": "https://dc.lft.to/lastmile_qr_scan", "ios": "https://dc.lft.to/lastmile_qr_scan"}, "lat": 38.838102, "lon": -77.09521283333333, "fusion_lat": 0.0}, {"is_reserved": 0, "bike_id": "0f73386e98ca8b16e06ad119cb102f7a", "type": "electric_scooter", "name": "0f73386e98ca8b16e06ad119cb102f7a", "is_disabled": 0, "fusion_lon": 0.0, "rental_uris": {"android": "https://dc.lft.to/lastmile_qr_scan", "ios": "https://dc.lft.to/lastmile_qr_scan"}, "lat": 38.914047, "lon": -77.01807133333334, "fusion_lat": 0.0}, {"is_reserved": 0, "bike_id": "8e21355b356f14f07b287adcff84ee09", "type": "electric_scooter", "name": "8e21355b356f14f07b287adcff84ee09", "is_disabled": 0, "fusion_lon": 0.0, "rental_uris": {"android": "https://dc.lft.to/lastmile_qr_scan", "ios": "https://dc.lft.to/lastmile_qr_scan"}, "lat": 38.892732, "lon": -77.048743, "fusion_lat": 0.0}, {"is_reserved": 0, "bike_id": "3937b0205c905505c2b3f602d8b9583e", "type": "electric_scooter", "name": "3937b0205c905505c2b3f602d8b9583e", "is_disabled": 0, "fusion_lon": 0.0, "rental_uris": {"android": "https://dc.lft.to/lastmile_qr_scan", "ios": "https://dc.lft.to/lastmile_qr_scan"}, "lat": 38.88505883333333, "lon": -77.00570466666667, "fusion_lat": 0.0}, {"is_reserved": 0, "bike_id": "56caaa64240cc0d19a468012061d10fe", "type": "electric_scooter", "name": "56caaa64240cc0d19a468012061d10fe", "is_disabled": 0, "fusion_lon": 0.0, "rental_uris": {"android": "https://dc.lft.to/lastmile_qr_scan", "ios": "https://dc.lft.to/lastmile_qr_scan"}, "lat": 38.900281, "lon": -77.0020665, "fusion_lat": 0.0}, {"is_reserved": 0, "bike_id": "a750dce4de889e25f3c29330b790ff85", "type": "electric_scooter", "name": "a750dce4de889e25f3c29330b790ff85", "is_disabled": 0, "fusion_lon": 0.0, "rental_uris": {"android": "https://dc.lft.to/lastmile_qr_scan", "ios": "https://dc.lft.to/lastmile_qr_scan"}, "lat": 38.90754716666667, "lon": -77.00022733333333, "fusion_lat": 0.0}, {"is_reserved": 0, "bike_id": "89ce5d9678f0b3361da0f41ffbb55fcd", "type": "electric_bike", "name": "89ce5d9678f0b3361da0f41ffbb55fcd", "is_disabled": 0, "fusion_lon": 0.0, "rental_uris": {"android": "https://dc.lft.to/lastmile_qr_scan", "ios": "https://dc.lft.to/lastmile_qr_scan"}, "lat": 39.034277833333334, "lon": -77.0430405, "fusion_lat": 0.0}, {"is_reserved": 0, "bike_id": "ba308fa5b172a47c6e353a92945c0722", "type": "electric_scooter", "name": "ba308fa5b172a47c6e353a92945c0722", "is_disabled": 0, "fusion_lon": 0.0, "rental_uris": {"android": "https://dc.lft.to/lastmile_qr_scan", "ios": "https://dc.lft.to/lastmile_qr_scan"}, "lat": 38.87391233333334, "lon": -77.00124433333333, "fusion_lat": 0.0}, {"is_reserved": 0, "bike_id": "11ddaba8be6449953b21a27fb0ac99a8", "type": "electric_scooter", "name": "11ddaba8be6449953b21a27fb0ac99a8", "is_disabled": 0, "fusion_lon": 0.0, "rental_uris": {"android": "https://dc.lft.to/lastmile_qr_scan", "ios": "https://dc.lft.to/lastmile_qr_scan"}, "lat": 38.903655666666666, "lon": -77.04299933333333, "fusion_lat": 0.0}, {"is_reserved": 0, "bike_id": "e8a404da515b00556c54a8c4ca87f039", "type": "electric_scooter", "name": "e8a404da515b00556c54a8c4ca87f039", "is_disabled": 0, "fusion_lon": 0.0, "rental_uris": {"android": "https://dc.lft.to/lastmile_qr_scan", "ios": "https://dc.lft.to/lastmile_qr_scan"}, "lat": 38.90497766666667, "lon": -77.05132533333334, "fusion_lat": 0.0}, {"is_reserved": 0, "bike_id": "86b38c628ebf26f472fdcb3216aebfae", "type": "electric_bike", "name": "86b38c628ebf26f472fdcb3216aebfae", "is_disabled": 0, "fusion_lon": 0.0, "rental_uris": {"android": "https://dc.lft.to/lastmile_qr_scan", "ios": "https://dc.lft.to/lastmile_qr_scan"}, "lat": 38.9225565, "lon": -76.98314766666667, "fusion_lat": 0.0}, {"is_reserved": 0, "bike_id": "98c039d78e586f225c77796899c1a63e", "type": "electric_scooter", "name": "98c039d78e586f225c77796899c1a63e", "is_disabled": 0, "fusion_lon": 0.0, "rental_uris": {"android": "https://dc.lft.to/lastmile_qr_scan", "ios": "https://dc.lft.to/lastmile_qr_scan"}, "lat": 38.92926033333333, "lon": -77.01854183333333, "fusion_lat": 0.0}, {"is_reserved": 0, "bike_id": "39cce1daf4bea2b31bd299a9ed731de4", "type": "electric_scooter", "name": "39cce1daf4bea2b31bd299a9ed731de4", "is_disabled": 0, "fusion_lon": 0.0, "rental_uris": {"android": "https://dc.lft.to/lastmile_qr_scan", "ios": "https://dc.lft.to/lastmile_qr_scan"}, "lat": 38.91485266666667, "lon": -77.021902, "fusion_lat": 0.0}, {"is_reserved": 0, "bike_id": "412511aecd406afdd593111442d95b7a", "type": "electric_scooter", "name": "412511aecd406afdd593111442d95b7a", "is_disabled": 0, "fusion_lon": 0.0, "rental_uris": {"android": "https://dc.lft.to/lastmile_qr_scan", "ios": "https://dc.lft.to/lastmile_qr_scan"}, "lat": 38.90252916666667, "lon": -77.0283725, "fusion_lat": 0.0}, {"is_reserved": 0, "bike_id": "e99abff53282bd78a7469164d8668055", "type": "electric_scooter", "name": "e99abff53282bd78a7469164d8668055", "is_disabled": 0, "fusion_lon": 0.0, "rental_uris": {"android": "https://dc.lft.to/lastmile_qr_scan", "ios": "https://dc.lft.to/lastmile_qr_scan"}, "lat": 38.9119475, "lon": -77.03179816666666, "fusion_lat": 0.0}, {"is_reserved": 0, "bike_id": "3b2cc35a25aa19a4d8447aef98f322e2", "type": "electric_scooter", "name": "3b2cc35a25aa19a4d8447aef98f322e2", "is_disabled": 0, "fusion_lon": 0.0, "rental_uris": {"android": "https://dc.lft.to/lastmile_qr_scan", "ios": "https://dc.lft.to/lastmile_qr_scan"}, "lat": 38.888748, "lon": -76.990461, "fusion_lat": 0.0}, {"is_reserved": 0, "bike_id": "0ef54c0724277f6cb257f6e461e937f3", "type": "electric_scooter", "name": "0ef54c0724277f6cb257f6e461e937f3", "is_disabled": 0, "fusion_lon": 0.0, "rental_uris": {"android": "https://dc.lft.to/lastmile_qr_scan", "ios": "https://dc.lft.to/lastmile_qr_scan"}, "lat": 38.91548183333333, "lon": -77.02203766666666, "fusion_lat": 0.0}, {"is_reserved": 0, "bike_id": "002da3786d2576f97db854570a09b5a3", "type": "electric_scooter", "name": "002da3786d2576f97db854570a09b5a3", "is_disabled": 0, "fusion_lon": 0.0, "rental_uris": {"android": "https://dc.lft.to/lastmile_qr_scan", "ios": "https://dc.lft.to/lastmile_qr_scan"}, "lat": 38.894757, "lon": -76.95833283333333, "fusion_lat": 0.0}, {"is_reserved": 0, "bike_id": "c8ccc2cc56a98204eaf0281926320578", "type": "electric_scooter", "name": "c8ccc2cc56a98204eaf0281926320578", "is_disabled": 0, "fusion_lon": 0.0, "rental_uris": {"android": "https://dc.lft.to/lastmile_qr_scan", "ios": "https://dc.lft.to/lastmile_qr_scan"}, "lat": 38.928431833333335, "lon": -77.0201085, "fusion_lat": 0.0}, {"is_reserved": 0, "bike_id": "4d26053586d38f21d3ce7aa496832fac", "type": "electric_scooter", "name": "4d26053586d38f21d3ce7aa496832fac", "is_disabled": 0, "fusion_lon": 0.0, "rental_uris": {"android": "https://dc.lft.to/lastmile_qr_scan", "ios": "https://dc.lft.to/lastmile_qr_scan"}, "lat": 38.897275, "lon": -77.02674916666666, "fusion_lat": 0.0}, {"is_reserved": 0, "bike_id": "bbc2a15b4c7567debe0b3b94458beab0", "type": "electric_scooter", "name": "bbc2a15b4c7567debe0b3b94458beab0", "is_disabled": 0, "fusion_lon": 0.0, "rental_uris": {"android": "https://dc.lft.to/lastmile_qr_scan", "ios": "https://dc.lft.to/lastmile_qr_scan"}, "lat": 38.899632833333335, "lon": -77.01620116666666, "fusion_lat": 0.0}, {"is_reserved": 0, "bike_id": "f79071a800fe92fa68350d43328e9947", "type": "electric_scooter", "name": "f79071a800fe92fa68350d43328e9947", "is_disabled": 0, "fusion_lon": 0.0, "rental_uris": {"android": "https://dc.lft.to/lastmile_qr_scan", "ios": "https://dc.lft.to/lastmile_qr_scan"}, "lat": 38.91603083333333, "lon": -77.0318325, "fusion_lat": 0.0}, {"is_reserved": 0, "bike_id": "6a8bb53514b1b08a85fe011496eeff73", "type": "electric_scooter", "name": "6a8bb53514b1b08a85fe011496eeff73", "is_disabled": 0, "fusion_lon": 0.0, "rental_uris": {"android": "https://dc.lft.to/lastmile_qr_scan", "ios": "https://dc.lft.to/lastmile_qr_scan"}, "lat": 38.920783666666665, "lon": -77.0239065, "fusion_lat": 0.0}, {"is_reserved": 0, "bike_id": "4ec62a608a3bfcfe1f462ddfcbcf8bf4", "type": "electric_scooter", "name": "4ec62a608a3bfcfe1f462ddfcbcf8bf4", "is_disabled": 0, "fusion_lon": 0.0, "rental_uris": {"android": "https://dc.lft.to/lastmile_qr_scan", "ios": "https://dc.lft.to/lastmile_qr_scan"}, "lat": 38.89721083333333, "lon": -77.01302283333334, "fusion_lat": 0.0}, {"is_reserved": 0, "bike_id": "8567c9c65bf3ab73f746c89caac718a0", "type": "electric_scooter", "name": "8567c9c65bf3ab73f746c89caac718a0", "is_disabled": 0, "fusion_lon": 0.0, "rental_uris": {"android": "https://dc.lft.to/lastmile_qr_scan", "ios": "https://dc.lft.to/lastmile_qr_scan"}, "lat": 38.914001666666664, "lon": -77.03705, "fusion_lat": 0.0}, {"is_reserved": 0, "bike_id": "02c538949b877bc7cc3f62564b8c074c", "type": "electric_scooter", "name": "02c538949b877bc7cc3f62564b8c074c", "is_disabled": 0, "fusion_lon": 0.0, "rental_uris": {"android": "https://dc.lft.to/lastmile_qr_scan", "ios": "https://dc.lft.to/lastmile_qr_scan"}, "lat": 38.90144133333333, "lon": -77.039663, "fusion_lat": 0.0}, {"is_reserved": 0, "bike_id": "742d405d3cf622f74860fc28552ea411", "type": "electric_scooter", "name": "742d405d3cf622f74860fc28552ea411", "is_disabled": 0, "fusion_lon": 0.0, "rental_uris": {"android": "https://dc.lft.to/lastmile_qr_scan", "ios": "https://dc.lft.to/lastmile_qr_scan"}, "lat": 38.88184066666667, "lon": -77.02813366666666, "fusion_lat": 0.0}, {"is_reserved": 0, "bike_id": "91e3b80b4b5ed104fd45aa6be1cde846", "type": "electric_scooter", "name": "91e3b80b4b5ed104fd45aa6be1cde846", "is_disabled": 0, "fusion_lon": 0.0, "rental_uris": {"android": "https://dc.lft.to/lastmile_qr_scan", "ios": "https://dc.lft.to/lastmile_qr_scan"}, "lat": 38.9188015, "lon": -77.043146, "fusion_lat": 0.0}, {"is_reserved": 0, "bike_id": "0da9557b2d53245b58fc2c3220979a24", "type": "electric_scooter", "name": "0da9557b2d53245b58fc2c3220979a24", "is_disabled": 0, "fusion_lon": 0.0, "rental_uris": {"android": "https://dc.lft.to/lastmile_qr_scan", "ios": "https://dc.lft.to/lastmile_qr_scan"}, "lat": 38.92055666666667, "lon": -77.02427616666667, "fusion_lat": 0.0}, {"is_reserved": 0, "bike_id": "daeb622ae58286a6b85fc0300e6441ff", "type": "electric_scooter", "name": "daeb622ae58286a6b85fc0300e6441ff", "is_disabled": 0, "fusion_lon": 0.0, "rental_uris": {"android": "https://dc.lft.to/lastmile_qr_scan", "ios": "https://dc.lft.to/lastmile_qr_scan"}, "lat": 38.91673633333333, "lon": -77.02707383333333, "fusion_lat": 0.0}, {"is_reserved": 0, "bike_id": "b2720b5a99f0751f61b587ca7f299c0a", "type": "electric_bike", "name": "b2720b5a99f0751f61b587ca7f299c0a", "is_disabled": 0, "fusion_lon": 0.0, "rental_uris": {"android": "https://dc.lft.to/lastmile_qr_scan", "ios": "https://dc.lft.to/lastmile_qr_scan"}, "lat": 38.85650833333333, "lon": -77.08532683333334, "fusion_lat": 0.0}, {"is_reserved": 0, "bike_id": "fd93b03393a679d7ca9e1d64fb9c1318", "type": "electric_scooter", "name": "fd93b03393a679d7ca9e1d64fb9c1318", "is_disabled": 0, "fusion_lon": 0.0, "rental_uris": {"android": "https://dc.lft.to/lastmile_qr_scan", "ios": "https://dc.lft.to/lastmile_qr_scan"}, "lat": 38.900617, "lon": -77.012307, "fusion_lat": 0.0}, {"is_reserved": 0, "bike_id": "e7610db5bcab443b73d72dee9c739a9b", "type": "electric_scooter", "name": "e7610db5bcab443b73d72dee9c739a9b", "is_disabled": 0, "fusion_lon": 0.0, "rental_uris": {"android": "https://dc.lft.to/lastmile_qr_scan", "ios": "https://dc.lft.to/lastmile_qr_scan"}, "lat": 38.922444166666665, "lon": -77.03520283333333, "fusion_lat": 0.0}, {"is_reserved": 0, "bike_id": "84d7bc994b4815d55c158a2fbe1768aa", "type": "electric_scooter", "name": "84d7bc994b4815d55c158a2fbe1768aa", "is_disabled": 0, "fusion_lon": 0.0, "rental_uris": {"android": "https://dc.lft.to/lastmile_qr_scan", "ios": "https://dc.lft.to/lastmile_qr_scan"}, "lat": 38.900525, "lon": -77.01747916666666, "fusion_lat": 0.0}, {"is_reserved": 0, "bike_id": "a29adb665793ff90ad718c5240dcf162", "type": "electric_scooter", "name": "a29adb665793ff90ad718c5240dcf162", "is_disabled": 0, "fusion_lon": 0.0, "rental_uris": {"android": "https://dc.lft.to/lastmile_qr_scan", "ios": "https://dc.lft.to/lastmile_qr_scan"}, "lat": 38.92226333333333, "lon": -77.034491, "fusion_lat": 0.0}, {"is_reserved": 0, "bike_id": "4fefaad93b14fa923f7de411b7624c1a", "type": "electric_bike", "name": "4fefaad93b14fa923f7de411b7624c1a", "is_disabled": 0, "fusion_lon": 0.0, "rental_uris": {"android": "https://dc.lft.to/lastmile_qr_scan", "ios": "https://dc.lft.to/lastmile_qr_scan"}, "lat": 38.865535333333334, "lon": -76.94155633333334, "fusion_lat": 0.0}, {"is_reserved": 0, "bike_id": "c5d2aea6aecf93f547f460ca8cd98056", "type": "electric_scooter", "name": "c5d2aea6aecf93f547f460ca8cd98056", "is_disabled": 0, "fusion_lon": 0.0, "rental_uris": {"android": "https://dc.lft.to/lastmile_qr_scan", "ios": "https://dc.lft.to/lastmile_qr_scan"}, "lat": 38.90137683333333, "lon": -77.04045683333334, "fusion_lat": 0.0}, {"is_reserved": 0, "bike_id": "75788cf3bdf04d098089653a05e74000", "type": "electric_scooter", "name": "75788cf3bdf04d098089653a05e74000", "is_disabled": 0, "fusion_lon": 0.0, "rental_uris": {"android": "https://dc.lft.to/lastmile_qr_scan", "ios": "https://dc.lft.to/lastmile_qr_scan"}, "lat": 38.8993165, "lon": -77.03912783333334, "fusion_lat": 0.0}, {"is_reserved": 0, "bike_id": "547a8af8a12700d6d8cb6995828f89c9", "type": "electric_scooter", "name": "547a8af8a12700d6d8cb6995828f89c9", "is_disabled": 0, "fusion_lon": 0.0, "rental_uris": {"android": "https://dc.lft.to/lastmile_qr_scan", "ios": "https://dc.lft.to/lastmile_qr_scan"}, "lat": 38.907357, "lon": -77.03451616666666, "fusion_lat": 0.0}, {"is_reserved": 0, "bike_id": "8fca332e9eb0fc4e6e94d9cfcc6d6e2f", "type": "electric_scooter", "name": "8fca332e9eb0fc4e6e94d9cfcc6d6e2f", "is_disabled": 0, "fusion_lon": 0.0, "rental_uris": {"android": "https://dc.lft.to/lastmile_qr_scan", "ios": "https://dc.lft.to/lastmile_qr_scan"}, "lat": 38.906205166666666, "lon": -77.024087, "fusion_lat": 0.0}, {"is_reserved": 0, "bike_id": "dee4af88136e73b284081d5461ad2091", "type": "electric_scooter", "name": "dee4af88136e73b284081d5461ad2091", "is_disabled": 0, "fusion_lon": 0.0, "rental_uris": {"android": "https://dc.lft.to/lastmile_qr_scan", "ios": "https://dc.lft.to/lastmile_qr_scan"}, "lat": 38.91692066666667, "lon": -77.00813366666667, "fusion_lat": 0.0}, {"is_reserved": 0, "bike_id": "4c91af347ca1ecc969237615b8c7f5fd", "type": "electric_scooter", "name": "4c91af347ca1ecc969237615b8c7f5fd", "is_disabled": 0, "fusion_lon": 0.0, "rental_uris": {"android": "https://dc.lft.to/lastmile_qr_scan", "ios": "https://dc.lft.to/lastmile_qr_scan"}, "lat": 38.8809515, "lon": -77.02655, "fusion_lat": 0.0}, {"is_reserved": 0, "bike_id": "6ced578399148e70807931358cc6d39d", "type": "electric_scooter", "name": "6ced578399148e70807931358cc6d39d", "is_disabled": 0, "fusion_lon": 0.0, "rental_uris": {"android": "https://dc.lft.to/lastmile_qr_scan", "ios": "https://dc.lft.to/lastmile_qr_scan"}, "lat": 38.921691, "lon": -77.02674616666667, "fusion_lat": 0.0}, {"is_reserved": 0, "bike_id": "04416758890b7ed37c2ab7ad33148c95", "type": "electric_scooter", "name": "04416758890b7ed37c2ab7ad33148c95", "is_disabled": 0, "fusion_lon": 0.0, "rental_uris": {"android": "https://dc.lft.to/lastmile_qr_scan", "ios": "https://dc.lft.to/lastmile_qr_scan"}, "lat": 38.8961105, "lon": -77.022478, "fusion_lat": 0.0}, {"is_reserved": 0, "bike_id": "5145870ba656e98d6ab775e133654e79", "type": "electric_scooter", "name": "5145870ba656e98d6ab775e133654e79", "is_disabled": 0, "fusion_lon": 0.0, "rental_uris": {"android": "https://dc.lft.to/lastmile_qr_scan", "ios": "https://dc.lft.to/lastmile_qr_scan"}, "lat": 38.93472116666667, "lon": -76.98871066666666, "fusion_lat": 0.0}, {"is_reserved": 0, "bike_id": "1f746475aeaf675b7559b860d5ef3ccf", "type": "electric_scooter", "name": "1f746475aeaf675b7559b860d5ef3ccf", "is_disabled": 0, "fusion_lon": 0.0, "rental_uris": {"android": "https://dc.lft.to/lastmile_qr_scan", "ios": "https://dc.lft.to/lastmile_qr_scan"}, "lat": 38.9192015, "lon": -77.03262066666667, "fusion_lat": 0.0}, {"is_reserved": 0, "bike_id": "961c7a5bfef2a714c2fc43c5a6528b41", "type": "electric_scooter", "name": "961c7a5bfef2a714c2fc43c5a6528b41", "is_disabled": 0, "fusion_lon": 0.0, "rental_uris": {"android": "https://dc.lft.to/lastmile_qr_scan", "ios": "https://dc.lft.to/lastmile_qr_scan"}, "lat": 38.91831966666667, "lon": -77.032031, "fusion_lat": 0.0}, {"is_reserved": 0, "bike_id": "7a8e3c1339ff30fe184a57b33beb608c", "type": "electric_scooter", "name": "7a8e3c1339ff30fe184a57b33beb608c", "is_disabled": 0, "fusion_lon": 0.0, "rental_uris": {"android": "https://dc.lft.to/lastmile_qr_scan", "ios": "https://dc.lft.to/lastmile_qr_scan"}, "lat": 38.92407033333333, "lon": -77.0213295, "fusion_lat": 0.0}, {"is_reserved": 0, "bike_id": "b4b16f0d416868b73bbdf729c8ffcc87", "type": "electric_scooter", "name": "b4b16f0d416868b73bbdf729c8ffcc87", "is_disabled": 0, "fusion_lon": 0.0, "rental_uris": {"android": "https://dc.lft.to/lastmile_qr_scan", "ios": "https://dc.lft.to/lastmile_qr_scan"}, "lat": 38.89732933333333, "lon": -77.024546, "fusion_lat": 0.0}, {"is_reserved": 0, "bike_id": "d8c9bc629905190da9499cbe9075dcca", "type": "electric_scooter", "name": "d8c9bc629905190da9499cbe9075dcca", "is_disabled": 0, "fusion_lon": 0.0, "rental_uris": {"android": "https://dc.lft.to/lastmile_qr_scan", "ios": "https://dc.lft.to/lastmile_qr_scan"}, "lat": 38.924779, "lon": -77.03065266666667, "fusion_lat": 0.0}, {"is_reserved": 0, "bike_id": "65cdfb1f26e39bb8f09106cb00d64bd9", "type": "electric_scooter", "name": "65cdfb1f26e39bb8f09106cb00d64bd9", "is_disabled": 0, "fusion_lon": 0.0, "rental_uris": {"android": "https://dc.lft.to/lastmile_qr_scan", "ios": "https://dc.lft.to/lastmile_qr_scan"}, "lat": 38.909759, "lon": -77.0462405, "fusion_lat": 0.0}, {"is_reserved": 0, "bike_id": "8555badc4428f96a58f7fe16192e6492", "type": "electric_scooter", "name": "8555badc4428f96a58f7fe16192e6492", "is_disabled": 0, "fusion_lon": 0.0, "rental_uris": {"android": "https://dc.lft.to/lastmile_qr_scan", "ios": "https://dc.lft.to/lastmile_qr_scan"}, "lat": 38.953043, "lon": -77.02766866666667, "fusion_lat": 0.0}, {"is_reserved": 0, "bike_id": "6f9c08ca7ec30d329bfa12f8a7e2c1c8", "type": "electric_scooter", "name": "6f9c08ca7ec30d329bfa12f8a7e2c1c8", "is_disabled": 0, "fusion_lon": 0.0, "rental_uris": {"android": "https://dc.lft.to/lastmile_qr_scan", "ios": "https://dc.lft.to/lastmile_qr_scan"}, "lat": 38.9221465, "lon": -77.0203005, "fusion_lat": 0.0}, {"is_reserved": 0, "bike_id": "e2c6a1d63051b09f0ef0e631ce82e88d", "type": "electric_scooter", "name": "e2c6a1d63051b09f0ef0e631ce82e88d", "is_disabled": 0, "fusion_lon": 0.0, "rental_uris": {"android": "https://dc.lft.to/lastmile_qr_scan", "ios": "https://dc.lft.to/lastmile_qr_scan"}, "lat": 38.91213583333333, "lon": -77.03851033333333, "fusion_lat": 0.0}, {"is_reserved": 0, "bike_id": "9d9cf6892a94bcd371fd02d950328849", "type": "electric_scooter", "name": "9d9cf6892a94bcd371fd02d950328849", "is_disabled": 0, "fusion_lon": 0.0, "rental_uris": {"android": "https://dc.lft.to/lastmile_qr_scan", "ios": "https://dc.lft.to/lastmile_qr_scan"}, "lat": 38.917676166666666, "lon": -77.04767116666666, "fusion_lat": 0.0}, {"is_reserved": 0, "bike_id": "f0e2ab4d8ce032703930698362c1d4f5", "type": "electric_scooter", "name": "f0e2ab4d8ce032703930698362c1d4f5", "is_disabled": 0, "fusion_lon": 0.0, "rental_uris": {"android": "https://dc.lft.to/lastmile_qr_scan", "ios": "https://dc.lft.to/lastmile_qr_scan"}, "lat": 38.904414, "lon": -77.028274, "fusion_lat": 0.0}, {"is_reserved": 0, "bike_id": "f941dcf4a54bd66c1633b3d0b034a851", "type": "electric_scooter", "name": "f941dcf4a54bd66c1633b3d0b034a851", "is_disabled": 0, "fusion_lon": 0.0, "rental_uris": {"android": "https://dc.lft.to/lastmile_qr_scan", "ios": "https://dc.lft.to/lastmile_qr_scan"}, "lat": 38.9036025, "lon": -77.01880883333334, "fusion_lat": 0.0}, {"is_reserved": 0, "bike_id": "5313c43e943905ba74cd5caaad8830d0", "type": "electric_scooter", "name": "5313c43e943905ba74cd5caaad8830d0", "is_disabled": 0, "fusion_lon": 0.0, "rental_uris": {"android": "https://dc.lft.to/lastmile_qr_scan", "ios": "https://dc.lft.to/lastmile_qr_scan"}, "lat": 38.921003, "lon": -77.031698, "fusion_lat": 0.0}, {"is_reserved": 0, "bike_id": "4dfc21a1c3a2e9dd7fe8a56f075376c7", "type": "electric_scooter", "name": "4dfc21a1c3a2e9dd7fe8a56f075376c7", "is_disabled": 0, "fusion_lon": 0.0, "rental_uris": {"android": "https://dc.lft.to/lastmile_qr_scan", "ios": "https://dc.lft.to/lastmile_qr_scan"}, "lat": 38.923050833333335, "lon": -77.04259816666666, "fusion_lat": 0.0}, {"is_reserved": 0, "bike_id": "17a52c26e5e0d0b565d4cfde05058fff", "type": "electric_scooter", "name": "17a52c26e5e0d0b565d4cfde05058fff", "is_disabled": 0, "fusion_lon": 0.0, "rental_uris": {"android": "https://dc.lft.to/lastmile_qr_scan", "ios": "https://dc.lft.to/lastmile_qr_scan"}, "lat": 38.93524033333333, "lon": -77.03696533333333, "fusion_lat": 0.0}, {"is_reserved": 0, "bike_id": "4ff9b71a27cb238dcd6a4344ffce0347", "type": "electric_scooter", "name": "4ff9b71a27cb238dcd6a4344ffce0347", "is_disabled": 0, "fusion_lon": 0.0, "rental_uris": {"android": "https://dc.lft.to/lastmile_qr_scan", "ios": "https://dc.lft.to/lastmile_qr_scan"}, "lat": 38.90305933333333, "lon": -77.03075716666666, "fusion_lat": 0.0}, {"is_reserved": 0, "bike_id": "d41db2b4bfa68e0e70b7fb7a2d17736f", "type": "electric_scooter", "name": "d41db2b4bfa68e0e70b7fb7a2d17736f", "is_disabled": 0, "fusion_lon": 0.0, "rental_uris": {"android": "https://dc.lft.to/lastmile_qr_scan", "ios": "https://dc.lft.to/lastmile_qr_scan"}, "lat": 38.93733483333333, "lon": -77.01908133333333, "fusion_lat": 0.0}, {"is_reserved": 0, "bike_id": "0fb0e1a6d8d276b7eede306896adeea0", "type": "electric_scooter", "name": "0fb0e1a6d8d276b7eede306896adeea0", "is_disabled": 0, "fusion_lon": 0.0, "rental_uris": {"android": "https://dc.lft.to/lastmile_qr_scan", "ios": "https://dc.lft.to/lastmile_qr_scan"}, "lat": 38.918205, "lon": -77.02478916666666, "fusion_lat": 0.0}, {"is_reserved": 0, "bike_id": "c0212d112b9bd661b511d438fd029378", "type": "electric_scooter", "name": "c0212d112b9bd661b511d438fd029378", "is_disabled": 0, "fusion_lon": 0.0, "rental_uris": {"android": "https://dc.lft.to/lastmile_qr_scan", "ios": "https://dc.lft.to/lastmile_qr_scan"}, "lat": 38.895295833333336, "lon": -77.0335105, "fusion_lat": 0.0}, {"is_reserved": 0, "bike_id": "003e5377c00a2b22c77efa428d6ea7da", "type": "electric_scooter", "name": "003e5377c00a2b22c77efa428d6ea7da", "is_disabled": 0, "fusion_lon": 0.0, "rental_uris": {"android": "https://dc.lft.to/lastmile_qr_scan", "ios": "https://dc.lft.to/lastmile_qr_scan"}, "lat": 38.91637266666667, "lon": -77.02236833333333, "fusion_lat": 0.0}, {"is_reserved": 0, "bike_id": "023d8a5540f4383ee828b4f489880771", "type": "electric_scooter", "name": "023d8a5540f4383ee828b4f489880771", "is_disabled": 0, "fusion_lon": 0.0, "rental_uris": {"android": "https://dc.lft.to/lastmile_qr_scan", "ios": "https://dc.lft.to/lastmile_qr_scan"}, "lat": 38.902504, "lon": -77.0616865, "fusion_lat": 0.0}, {"is_reserved": 0, "bike_id": "3e5a533cea0156f94c652e84b805b653", "type": "electric_bike", "name": "3e5a533cea0156f94c652e84b805b653", "is_disabled": 0, "fusion_lon": 0.0, "rental_uris": {"android": "https://dc.lft.to/lastmile_qr_scan", "ios": "https://dc.lft.to/lastmile_qr_scan"}, "lat": 38.83790483333333, "lon": -77.09351633333333, "fusion_lat": 0.0}, {"is_reserved": 0, "bike_id": "5bb636386650224c20cc8897353ec4b4", "type": "electric_scooter", "name": "5bb636386650224c20cc8897353ec4b4", "is_disabled": 0, "fusion_lon": 0.0, "rental_uris": {"android": "https://dc.lft.to/lastmile_qr_scan", "ios": "https://dc.lft.to/lastmile_qr_scan"}, "lat": 38.935837, "lon": -77.0244745, "fusion_lat": 0.0}, {"is_reserved": 0, "bike_id": "79c4e627209c4ce79aa39e108a96e3b1", "type": "electric_scooter", "name": "79c4e627209c4ce79aa39e108a96e3b1", "is_disabled": 0, "fusion_lon": 0.0, "rental_uris": {"android": "https://dc.lft.to/lastmile_qr_scan", "ios": "https://dc.lft.to/lastmile_qr_scan"}, "lat": 38.916744, "lon": -77.03851033333333, "fusion_lat": 0.0}, {"is_reserved": 0, "bike_id": "901101dd521037ee281f91bd59b7c5f7", "type": "electric_bike", "name": "901101dd521037ee281f91bd59b7c5f7", "is_disabled": 0, "fusion_lon": 0.0, "rental_uris": {"android": "https://dc.lft.to/lastmile_qr_scan", "ios": "https://dc.lft.to/lastmile_qr_scan"}, "lat": 38.89101633333333, "lon": -77.18348133333333, "fusion_lat": 0.0}, {"is_reserved": 0, "bike_id": "6c34de3459e8b4d78b8d58b355d0cc8c", "type": "electric_scooter", "name": "6c34de3459e8b4d78b8d58b355d0cc8c", "is_disabled": 0, "fusion_lon": 0.0, "rental_uris": {"android": "https://dc.lft.to/lastmile_qr_scan", "ios": "https://dc.lft.to/lastmile_qr_scan"}, "lat": 38.9146755, "lon": -77.00208016666667, "fusion_lat": 0.0}, {"is_reserved": 0, "bike_id": "94b4a9d64544fa8532e507693bff5d21", "type": "electric_scooter", "name": "94b4a9d64544fa8532e507693bff5d21", "is_disabled": 0, "fusion_lon": 0.0, "rental_uris": {"android": "https://dc.lft.to/lastmile_qr_scan", "ios": "https://dc.lft.to/lastmile_qr_scan"}, "lat": 38.91564433333333, "lon": -77.0387585, "fusion_lat": 0.0}, {"is_reserved": 0, "bike_id": "2d0a0c7dffde38ad870e5b7db2ccb07a", "type": "electric_scooter", "name": "2d0a0c7dffde38ad870e5b7db2ccb07a", "is_disabled": 0, "fusion_lon": 0.0, "rental_uris": {"android": "https://dc.lft.to/lastmile_qr_scan", "ios": "https://dc.lft.to/lastmile_qr_scan"}, "lat": 38.923223166666666, "lon": -77.02883833333334, "fusion_lat": 0.0}, {"is_reserved": 0, "bike_id": "ec45a999dc9f6e202535c78cb485058c", "type": "electric_scooter", "name": "ec45a999dc9f6e202535c78cb485058c", "is_disabled": 0, "fusion_lon": 0.0, "rental_uris": {"android": "https://dc.lft.to/lastmile_qr_scan", "ios": "https://dc.lft.to/lastmile_qr_scan"}, "lat": 38.88737283333333, "lon": -77.015326, "fusion_lat": 0.0}, {"is_reserved": 0, "bike_id": "43d183fbb5d287edf67ab409e31fda33", "type": "electric_scooter", "name": "43d183fbb5d287edf67ab409e31fda33", "is_disabled": 0, "fusion_lon": 0.0, "rental_uris": {"android": "https://dc.lft.to/lastmile_qr_scan", "ios": "https://dc.lft.to/lastmile_qr_scan"}, "lat": 38.89230466666667, "lon": -77.02791166666667, "fusion_lat": 0.0}, {"is_reserved": 0, "bike_id": "77cb07e6d76fd178502de81bf94e7347", "type": "electric_scooter", "name": "77cb07e6d76fd178502de81bf94e7347", "is_disabled": 0, "fusion_lon": 0.0, "rental_uris": {"android": "https://dc.lft.to/lastmile_qr_scan", "ios": "https://dc.lft.to/lastmile_qr_scan"}, "lat": 38.920434, "lon": -77.0243425, "fusion_lat": 0.0}, {"is_reserved": 0, "bike_id": "f33a2b8ae25bfa19f25cf08bfc9a609e", "type": "electric_bike", "name": "f33a2b8ae25bfa19f25cf08bfc9a609e", "is_disabled": 0, "fusion_lon": 0.0, "rental_uris": {"android": "https://dc.lft.to/lastmile_qr_scan", "ios": "https://dc.lft.to/lastmile_qr_scan"}, "lat": 38.865671166666665, "lon": -76.973587, "fusion_lat": 0.0}, {"is_reserved": 0, "bike_id": "c5a2daaa63c5a7df18bdc7bc46efd59e", "type": "electric_bike", "name": "c5a2daaa63c5a7df18bdc7bc46efd59e", "is_disabled": 0, "fusion_lon": 0.0, "rental_uris": {"android": "https://dc.lft.to/lastmile_qr_scan", "ios": "https://dc.lft.to/lastmile_qr_scan"}, "lat": 38.87284316666667, "lon": -77.233197, "fusion_lat": 0.0}, {"is_reserved": 0, "bike_id": "c6d134625b71d89b199f047397efc21b", "type": "electric_scooter", "name": "c6d134625b71d89b199f047397efc21b", "is_disabled": 0, "fusion_lon": 0.0, "rental_uris": {"android": "https://dc.lft.to/lastmile_qr_scan", "ios": "https://dc.lft.to/lastmile_qr_scan"}, "lat": 38.88737916666667, "lon": -77.031853, "fusion_lat": 0.0}, {"is_reserved": 0, "bike_id": "f909f7cec0d5d3631592ed91ceaea4ba", "type": "electric_scooter", "name": "f909f7cec0d5d3631592ed91ceaea4ba", "is_disabled": 0, "fusion_lon": 0.0, "rental_uris": {"android": "https://dc.lft.to/lastmile_qr_scan", "ios": "https://dc.lft.to/lastmile_qr_scan"}, "lat": 38.858366, "lon": -76.99012, "fusion_lat": 0.0}, {"is_reserved": 0, "bike_id": "dfdb6c8677ddc5462e2a16afca513a34", "type": "electric_scooter", "name": "dfdb6c8677ddc5462e2a16afca513a34", "is_disabled": 0, "fusion_lon": 0.0, "rental_uris": {"android": "https://dc.lft.to/lastmile_qr_scan", "ios": "https://dc.lft.to/lastmile_qr_scan"}, "lat": 38.902511, "lon": -77.01751266666666, "fusion_lat": 0.0}, {"is_reserved": 0, "bike_id": "cea4f65ce9e7d3093dfa85c6d11efba6", "type": "electric_scooter", "name": "cea4f65ce9e7d3093dfa85c6d11efba6", "is_disabled": 0, "fusion_lon": 0.0, "rental_uris": {"android": "https://dc.lft.to/lastmile_qr_scan", "ios": "https://dc.lft.to/lastmile_qr_scan"}, "lat": 38.906555166666664, "lon": -77.051419, "fusion_lat": 0.0}, {"is_reserved": 0, "bike_id": "2e641018ac211314518cd55e49fa3708", "type": "electric_scooter", "name": "2e641018ac211314518cd55e49fa3708", "is_disabled": 0, "fusion_lon": 0.0, "rental_uris": {"android": "https://dc.lft.to/lastmile_qr_scan", "ios": "https://dc.lft.to/lastmile_qr_scan"}, "lat": 38.94983333333333, "lon": -77.02698933333333, "fusion_lat": 0.0}, {"is_reserved": 0, "bike_id": "61a4260a7fe06e3b4a2dcd6558874c45", "type": "electric_scooter", "name": "61a4260a7fe06e3b4a2dcd6558874c45", "is_disabled": 0, "fusion_lon": 0.0, "rental_uris": {"android": "https://dc.lft.to/lastmile_qr_scan", "ios": "https://dc.lft.to/lastmile_qr_scan"}, "lat": 38.92097583333333, "lon": -77.025955, "fusion_lat": 0.0}, {"is_reserved": 0, "bike_id": "ca48194ef87de94b66841e8a3ed225f1", "type": "electric_scooter", "name": "ca48194ef87de94b66841e8a3ed225f1", "is_disabled": 0, "fusion_lon": 0.0, "rental_uris": {"android": "https://dc.lft.to/lastmile_qr_scan", "ios": "https://dc.lft.to/lastmile_qr_scan"}, "lat": 38.9428785, "lon": -77.03619483333334, "fusion_lat": 0.0},