{"data": {"bikes": [{"is_reserved": 0, "type": "electric_bike", "bike_id": "4ab22c0ee49be225719f5e94d12f63de", "lat": 38.876825333333336, "lon": -77.000272, "rental_uris": {"android": "https://dc.lft.to/lastmile_qr_scan", "ios": "https://dc.lft.to/lastmile_qr_scan"}, "is_disabled": 0, "fusion_lat": 0.0, "name": "4ab22c0ee49be225719f5e94d12f63de", "fusion_lon": 0.0}, {"is_reserved": 0, "type": "electric_scooter", "bike_id": "859c915feef23d1ad204434edd81c738", "lat": 38.890024, "lon": -76.93749633333333, "rental_uris": {"android": "https://dc.lft.to/lastmile_qr_scan", "ios": "https://dc.lft.to/lastmile_qr_scan"}, "is_disabled": 0, "fusion_lat": 0.0, "name": "859c915feef23d1ad204434edd81c738", "fusion_lon": 0.0}, {"is_reserved": 0, "type": "electric_scooter", "bike_id": "02108c28d0bcdfbeb0f2a7eb57e7fa4c", "lat": 38.897326166666666, "lon": -77.01958616666667, "rental_uris": {"android": "https://dc.lft.to/lastmile_qr_scan", "ios": "https://dc.lft.to/lastmile_qr_scan"}, "is_disabled": 0, "fusion_lat": 0.0, "name": "02108c28d0bcdfbeb0f2a7eb57e7fa4c", "fusion_lon": 0.0}, {"is_reserved": 0, "type": "electric_bike", "bike_id": "5500832441ab32e1173b228d87982496", "lat": 39.0423275, "lon": -76.99733383333333, "rental_uris": {"android": "https://dc.lft.to/lastmile_qr_scan", "ios": "https://dc.lft.to/lastmile_qr_scan"}, "is_disabled": 0, "fusion_lat": 0.0, "name": "5500832441ab32e1173b228d87982496", "fusion_lon": 0.0}, {"is_reserved": 0, "type": "electric_scooter", "bike_id": "eb90779c58565d18c9f7f4dc77b42155", "lat": 38.910428833333334, "lon": -77.03327716666666, "rental_uris": {"android": "https://dc.lft.to/lastmile_qr_scan", "ios": "https://dc.lft.to/lastmile_qr_scan"}, "is_disabled": 0, "fusion_lat": 0.0, "name": "eb90779c58565d18c9f7f4dc77b42155", "fusion_lon": 0.0}, {"is_reserved": 0, "type": "electric_bike", "bike_id": "135ac73889d27ddf7fdbce21fddd71a0", "lat": 38.9733415, "lon": -76.9959075, "rental_uris": {"android": "https://dc.lft.to/lastmile_qr_scan", "ios": "https://dc.lft.to/lastmile_qr_scan"}, "is_disabled": 0, "fusion_lat": 0.0, "name": "135ac73889d27ddf7fdbce21fddd71a0", "fusion_lon": 0.0}, {"is_reserved": 0, "type": "electric_bike", "bike_id": "2ee30293159e203c71f9e2dfa62ec75b", "lat": 38.9170875, "lon": -77.04119766666666, "rental_uris": {"android": "https://dc.lft.to/lastmile_qr_scan", "ios": "https://dc.lft.to/lastmile_qr_scan"}, "is_disabled": 0, "fusion_lat": 0.0, "name": "2ee30293159e203c71f9e2dfa62ec75b", "fusion_lon": 0.0}, {"is_reserved": 0, "type": "electric_scooter", "bike_id": "2d5bc4780709ef337d52b95b432b9708", "lat": 38.91367533333333, "lon": -77.06561233333333, "rental_uris": {"android": "https://dc.lft.to/lastmile_qr_scan", "ios": "https://dc.lft.to/lastmile_qr_scan"}, "is_disabled": 0, "fusion_lat": 0.0, "name": "2d5bc4780709ef337d52b95b432b9708", "fusion_lon": 0.0}, {"is_reserved": 0, "type": "electric_scooter", "bike_id": "5418370aaf587de2d027472b322d4608", "lat": 38.9521485, "lon": -77.01595816666666, "rental_uris": {"android": "https://dc.lft.to/lastmile_qr_scan", "ios": "https://dc.lft.to/lastmile_qr_scan"}, "is_disabled": 0, "fusion_lat": 0.0, "name": "5418370aaf587de2d027472b322d4608", "fusion_lon": 0.0}, {"is_reserved": 0, "type": "electric_scooter", "bike_id": "a1b8f62183e66f74c4e75bfaa40979ff", "lat": 38.973651, "lon": -77.01860866666667, "rental_uris": {"android": "https://dc.lft.to/lastmile_qr_scan", "ios": "https://dc.lft.to/lastmile_qr_scan"}, "is_disabled": 0, "fusion_lat": 0.0, "name": "a1b8f62183e66f74c4e75bfaa40979ff", "fusion_lon": 0.0}, {"is_reserved": 0, "type": "electric_scooter", "bike_id": "efd67ab1f48d762d1b3849be0a3ce702", "lat": 38.927798833333334, "lon": -77.02564833333334, "rental_uris": {"android": "https://dc.lft.to/lastmile_qr_scan", "ios": "https://dc.lft.to/lastmile_qr_scan"}, "is_disabled": 0, "fusion_lat": 0.0, "name": "efd67ab1f48d762d1b3849be0a3ce702", "fusion_lon": 0.0}, {"is_reserved": 0, "type": "electric_scooter", "bike_id": "362755123ade2c96fbe0ab90f131cafd", "lat": 38.900386166666664, "lon": -77.0019485, "rental_uris": {"android": "https://dc.lft.to/lastmile_qr_scan", "ios": "https://dc.lft.to/lastmile_qr_scan"}, "is_disabled": 0, "fusion_lat": 0.0, "name": "362755123ade2c96fbe0ab90f131cafd", "fusion_lon": 0.0}, {"is_reserved": 0, "type": "electric_scooter", "bike_id": "f042fc05d516e1b5b1c75d253f53d260", "lat": 38.9014095, "lon": -77.02769683333334, "rental_uris": {"android": "https://dc.lft.to/lastmile_qr_scan", "ios": "https://dc.lft.to/lastmile_qr_scan"}, "is_disabled": 0, "fusion_lat": 0.0, "name": "f042fc05d516e1b5b1c75d253f53d260", "fusion_lon": 0.0}, {"is_reserved": 0, "type": "electric_scooter", "bike_id": "d9aff18e09e9923ed73587f61e2f7c62", "lat": 38.90492716666667, "lon": -77.01994316666666, "rental_uris": {"android": "https://dc.lft.to/lastmile_qr_scan", "ios": "https://dc.lft.to/lastmile_qr_scan"}, "is_disabled": 0, "fusion_lat": 0.0, "name": "d9aff18e09e9923ed73587f61e2f7c62", "fusion_lon": 0.0}, {"is_reserved": 0, "type": "electric_scooter", "bike_id": "f82758f07663dd439b42539cc99f3b91", "lat": 38.946569333333336, "lon": -77.03282733333333, "rental_uris": {"android": "https://dc.lft.to/lastmile_qr_scan", "ios": "https://dc.lft.to/lastmile_qr_scan"}, "is_disabled": 0, "fusion_lat": 0.0, "name": "f82758f07663dd439b42539cc99f3b91", "fusion_lon": 0.0}, {"is_reserved": 0, "type": "electric_scooter", "bike_id": "713e2637229bb78a7d74e320f1c5e730", "lat": 38.87644266666667, "lon": -77.00751466666667, "rental_uris": {"android": "https://dc.lft.to/lastmile_qr_scan", "ios": "https://dc.lft.to/lastmile_qr_scan"}, "is_disabled": 0, "fusion_lat": 0.0, "name": "713e2637229bb78a7d74e320f1c5e730", "fusion_lon": 0.0}, {"is_reserved": 0, "type": "electric_scooter", "bike_id": "ecd28db2d7a4a16c0506518284e5a79d", "lat": 38.899102, "lon": -76.933646, "rental_uris": {"android": "https://dc.lft.to/lastmile_qr_scan", "ios": "https://dc.lft.to/lastmile_qr_scan"}, "is_disabled": 0, "fusion_lat": 0.0, "name": "ecd28db2d7a4a16c0506518284e5a79d", "fusion_lon": 0.0}, {"is_reserved": 0, "type": "electric_scooter", "bike_id": "f741002a4339e509676d4e7c53361195", "lat": 38.907341, "lon": -77.00501633333333, "rental_uris": {"android": "https://dc.lft.to/lastmile_qr_scan", "ios": "https://dc.lft.to/lastmile_qr_scan"}, "is_disabled": 0, "fusion_lat": 0.0, "name": "f741002a4339e509676d4e7c53361195", "fusion_lon": 0.0}, {"is_reserved": 0, "type": "electric_scooter", "bike_id": "c15dc5cba83db5e18fc5f7e512d8e0d3", "lat": 38.924243, "lon": -77.04040066666667, "rental_uris": {"android": "https://dc.lft.to/lastmile_qr_scan", "ios": "https://dc.lft.to/lastmile_qr_scan"}, "is_disabled": 0, "fusion_lat": 0.0, "name": "c15dc5cba83db5e18fc5f7e512d8e0d3", "fusion_lon": 0.0}, {"is_reserved": 0, "type": "electric_scooter", "bike_id": "f90c88a70295e09d53b4d1209d990045", "lat": 38.90502166666667, "lon": -77.02944466666666, "rental_uris": {"android": "https://dc.lft.to/lastmile_qr_scan", "ios": "https://dc.lft.to/lastmile_qr_scan"}, "is_disabled": 0, "fusion_lat": 0.0, "name": "f90c88a70295e09d53b4d1209d990045", "fusion_lon": 0.0}, {"is_reserved": 0, "type": "electric_scooter", "bike_id": "21fa33d71f368dd02621a2c984fee60f", "lat": 38.9388975, "lon": -77.032612, "rental_uris": {"android": "https://dc.lft.to/lastmile_qr_scan", "ios": "https://dc.lft.to/lastmile_qr_scan"}, "is_disabled": 0, "fusion_lat": 0.0, "name": "21fa33d71f368dd02621a2c984fee60f", "fusion_lon": 0.0}, {"is_reserved": 0, "type": "electric_scooter", "bike_id": "b9469a187883d5292e0b81ced54390ff", "lat": 38.8522295, "lon": -76.99427016666667, "rental_uris": {"android": "https://dc.lft.to/lastmile_qr_scan", "ios": "https://dc.lft.to/lastmile_qr_scan"}, "is_disabled": 0, "fusion_lat": 0.0, "name": "b9469a187883d5292e0b81ced54390ff", "fusion_lon": 0.0}, {"is_reserved": 0, "type": "electric_scooter", "bike_id": "01acff7cd3f7c3cbd4d99fe675102f50", "lat": 38.914045333333334, "lon": -77.0322355, "rental_uris": {"android": "https://dc.lft.to/lastmile_qr_scan", "ios": "https://dc.lft.to/lastmile_qr_scan"}, "is_disabled": 0, "fusion_lat": 0.0, "name": "01acff7cd3f7c3cbd4d99fe675102f50", "fusion_lon": 0.0}, {"is_reserved": 0, "type": "electric_scooter", "bike_id": "7db1e305701ee010b052994bc64449ee", "lat": 38.92022433333333, "lon": -77.0179685, "rental_uris": {"android": "https://dc.lft.to/lastmile_qr_scan", "ios": "https://dc.lft.to/lastmile_qr_scan"}, "is_disabled": 0, "fusion_lat": 0.0, "name": "7db1e305701ee010b052994bc64449ee", "fusion_lon": 0.0}, {"is_reserved": 0, "type": "electric_scooter", "bike_id": "103395cf34ae0dbd435afad623687f9b", "lat": 38.922965166666664, "lon": -77.0302355, "rental_uris": {"android": "https://dc.lft.to/lastmile_qr_scan", "ios": "https://dc.lft.to/lastmile_qr_scan"}, "is_disabled": 0, "fusion_lat": 0.0, "name": "103395cf34ae0dbd435afad623687f9b", "fusion_lon": 0.0}, {"is_reserved": 0, "type": "electric_scooter", "bike_id": "b4e893b2647a63658c60901f44c3dbcb", "lat": 38.91102766666667, "lon": -77.07345566666666, "rental_uris": {"android": "https://dc.lft.to/lastmile_qr_scan", "ios": "https://dc.lft.to/lastmile_qr_scan"}, "is_disabled": 0, "fusion_lat": 0.0, "name": "b4e893b2647a63658c60901f44c3dbcb", "fusion_lon": 0.0}, {"is_reserved": 0, "type": "electric_scooter", "bike_id": "64416162c6ddaddc5447ef5719e02cc3", "lat": 38.878489, "lon": -77.00699366666667, "rental_uris": {"android": "https://dc.lft.to/lastmile_qr_scan", "ios": "https://dc.lft.to/lastmile_qr_scan"}, "is_disabled": 0, "fusion_lat": 0.0, "name": "64416162c6ddaddc5447ef5719e02cc3", "fusion_lon": 0.0}, {"is_reserved": 0, "type": "electric_scooter", "bike_id": "776bcef55600202c4f6b81276cccf771", "lat": 38.930042, "lon": -77.02307566666667, "rental_uris": {"android": "https://dc.lft.to/lastmile_qr_scan", "ios": "https://dc.lft.to/lastmile_qr_scan"}, "is_disabled": 0, "fusion_lat": 0.0, "name": "776bcef55600202c4f6b81276cccf771", "fusion_lon": 0.0}, {"is_reserved": 0, "type": "electric_scooter", "bike_id": "630f22d3972adda04570208455097a56", "lat": 38.92163, "lon": -77.033808, "rental_uris": {"android": "https://dc.lft.to/lastmile_qr_scan", "ios": "https://dc.lft.to/lastmile_qr_scan"}, "is_disabled": 0, "fusion_lat": 0.0, "name": "630f22d3972adda04570208455097a56", "fusion_lon": 0.0}, {"is_reserved": 0, "type": "electric_scooter", "bike_id": "2c35138be8d6b46d03e80000850d9a7f", "lat": 38.91866183333333, "lon": -77.04449016666666, "rental_uris": {"android": "https://dc.lft.to/lastmile_qr_scan", "ios": "https://dc.lft.to/lastmile_qr_scan"}, "is_disabled": 0, "fusion_lat": 0.0, "name": "2c35138be8d6b46d03e80000850d9a7f", "fusion_lon": 0.0}, {"is_reserved": 0, "type": "electric_scooter", "bike_id": "94006cfbe0b6ef1a5c3043f9f7263d9f", "lat": 38.91413, "lon": -77.0187095, "rental_uris": {"android": "https://dc.lft.to/lastmile_qr_scan", "ios": "https://dc.lft.to/lastmile_qr_scan"}, "is_disabled": 0, "fusion_lat": 0.0, "name": "94006cfbe0b6ef1a5c3043f9f7263d9f", "fusion_lon": 0.0}, {"is_reserved": 0, "type": "electric_scooter", "bike_id": "0724ec24c1ec6f3f589838a439aeeccc", "lat": 38.91404133333333, "lon": -77.03167216666667, "rental_uris": {"android": "https://dc.lft.to/lastmile_qr_scan", "ios": "https://dc.lft.to/lastmile_qr_scan"}, "is_disabled": 0, "fusion_lat": 0.0, "name": "0724ec24c1ec6f3f589838a439aeeccc", "fusion_lon": 0.0}, {"is_reserved": 0, "type": "electric_scooter", "bike_id": "e20493f4de5c88c46ea6bc21ba106a4e", "lat": 38.883011833333335, "lon": -76.9485195, "rental_uris": {"android": "https://dc.lft.to/lastmile_qr_scan", "ios": "https://dc.lft.to/lastmile_qr_scan"}, "is_disabled": 0, "fusion_lat": 0.0, "name": "e20493f4de5c88c46ea6bc21ba106a4e", "fusion_lon": 0.0}, {"is_reserved": 0, "type": "electric_scooter", "bike_id": "c2a7434c596e1fd67651c1cd535812df", "lat": 38.900636, "lon": -77.04956, "rental_uris": {"android": "https://dc.lft.to/lastmile_qr_scan", "ios": "https://dc.lft.to/lastmile_qr_scan"}, "is_disabled": 0, "fusion_lat": 0.0, "name": "c2a7434c596e1fd67651c1cd535812df", "fusion_lon": 0.0}, {"is_reserved": 0, "type": "electric_scooter", "bike_id": "046875e5ec3c23a78b4ac7b434ab1993", "lat": 38.884165, "lon": -77.02552016666667, "rental_uris": {"android": "https://dc.lft.to/lastmile_qr_scan", "ios": "https://dc.lft.to/lastmile_qr_scan"}, "is_disabled": 0, "fusion_lat": 0.0, "name": "046875e5ec3c23a78b4ac7b434ab1993", "fusion_lon": 0.0}, {"is_reserved": 0, "type": "electric_scooter", "bike_id": "ffae2a80c6a4b59614f9c84a42f76256", "lat": 38.914748, "lon": -77.03186783333334, "rental_uris": {"android": "https://dc.lft.to/lastmile_qr_scan", "ios": "https://dc.lft.to/lastmile_qr_scan"}, "is_disabled": 0, "fusion_lat": 0.0, "name": "ffae2a80c6a4b59614f9c84a42f76256", "fusion_lon": 0.0}, {"is_reserved": 0, "type": "electric_scooter", "bike_id": "b417becc5f4fcdf5a9f210b2859893ce", "lat": 38.88334966666667, "lon": -76.94289516666667, "rental_uris": {"android": "https://dc.lft.to/lastmile_qr_scan", "ios": "https://dc.lft.to/lastmile_qr_scan"}, "is_disabled": 0, "fusion_lat": 0.0, "name": "b417becc5f4fcdf5a9f210b2859893ce", "fusion_lon": 0.0}, {"is_reserved": 0, "type": "electric_scooter", "bike_id": "9a4452de16ac43904eff8911de1bcd4a", "lat": 38.887253666666666, "lon": -77.02829833333334, "rental_uris": {"android": "https://dc.lft.to/lastmile_qr_scan", "ios": "https://dc.lft.to/lastmile_qr_scan"}, "is_disabled": 0, "fusion_lat": 0.0, "name": "9a4452de16ac43904eff8911de1bcd4a", "fusion_lon": 0.0}, {"is_reserved": 0, "type": "electric_scooter", "bike_id": "c9d8634ec50c72b7f5ce108a54b66f26", "lat": 38.8924895, "lon": -76.99496033333334, "rental_uris": {"android": "https://dc.lft.to/lastmile_qr_scan", "ios": "https://dc.lft.to/lastmile_qr_scan"}, "is_disabled": 0, "fusion_lat": 0.0, "name": "c9d8634ec50c72b7f5ce108a54b66f26", "fusion_lon": 0.0}, {"is_reserved": 0, "type": "electric_scooter", "bike_id": "b9f0bdd9f65402f240f9de60a7c18ee2", "lat": 38.896746666666665, "lon": -77.005161, "rental_uris": {"android": "https://dc.lft.to/lastmile_qr_scan", "ios": "https://dc.lft.to/lastmile_qr_scan"}, "is_disabled": 0, "fusion_lat": 0.0, "name": "b9f0bdd9f65402f240f9de60a7c18ee2", "fusion_lon": 0.0}, {"is_reserved": 0, "type": "electric_scooter", "bike_id": "784b091262d6a09ce5f34ce6350359df", "lat": 38.9179705, "lon": -77.02704133333333, "rental_uris": {"android": "https://dc.lft.to/lastmile_qr_scan", "ios": "https://dc.lft.to/lastmile_qr_scan"}, "is_disabled": 0, "fusion_lat": 0.0, "name": "784b091262d6a09ce5f34ce6350359df", "fusion_lon": 0.0}, {"is_reserved": 0, "type": "electric_scooter", "bike_id": "3b88c7255b83c4da072d47b9bdc02ced", "lat": 38.923264833333334, "lon": -77.008871, "rental_uris": {"android": "https://dc.lft.to/lastmile_qr_scan", "ios": "https://dc.lft.to/lastmile_qr_scan"}, "is_disabled": 0, "fusion_lat": 0.0, "name": "3b88c7255b83c4da072d47b9bdc02ced", "fusion_lon": 0.0}, {"is_reserved": 0, "type": "electric_scooter", "bike_id": "4658d2c9d99bf35dbd254d60fd599565", "lat": 38.905462666666665, "lon": -77.0417235, "rental_uris": {"android": "https://dc.lft.to/lastmile_qr_scan", "ios": "https://dc.lft.to/lastmile_qr_scan"}, "is_disabled": 0, "fusion_lat": 0.0, "name": "4658d2c9d99bf35dbd254d60fd599565", "fusion_lon": 0.0}, {"is_reserved": 0, "type": "electric_scooter", "bike_id": "3420485465a6b1007c3b49aac2b92c60", "lat": 38.92426783333333, "lon": -76.99677966666667, "rental_uris": {"android": "https://dc.lft.to/lastmile_qr_scan", "ios": "https://dc.lft.to/lastmile_qr_scan"}, "is_disabled": 0, "fusion_lat": 0.0, "name": "3420485465a6b1007c3b49aac2b92c60", "fusion_lon": 0.0}, {"is_reserved": 0, "type": "electric_scooter", "bike_id": "a1c46965c5b47eab3df247cf0136b03d", "lat": 38.940377, "lon": -77.02905466666667, "rental_uris": {"android": "https://dc.lft.to/lastmile_qr_scan", "ios": "https://dc.lft.to/lastmile_qr_scan"}, "is_disabled": 0, "fusion_lat": 0.0, "name": "a1c46965c5b47eab3df247cf0136b03d", "fusion_lon": 0.0}, {"is_reserved": 0, "type": "electric_bike", "bike_id": "1060e635d3a5024f3b7165cc50dffda9", "lat": 38.849182, "lon": -77.08371666666666, "rental_uris": {"android": "https://dc.lft.to/lastmile_qr_scan", "ios": "https://dc.lft.to/lastmile_qr_scan"}, "is_disabled": 0, "fusion_lat": 0.0, "name": "1060e635d3a5024f3b7165cc50dffda9", "fusion_lon": 0.0}, {"is_reserved": 0, "type": "electric_scooter", "bike_id": "88ae5a0d95373a3cb5aec554a094a9a7", "lat": 38.902159, "lon": -77.04866333333334, "rental_uris": {"android": "https://dc.lft.to/lastmile_qr_scan", "ios": "https://dc.lft.to/lastmile_qr_scan"}, "is_disabled": 0, "fusion_lat": 0.0, "name": "88ae5a0d95373a3cb5aec554a094a9a7", "fusion_lon": 0.0}, {"is_reserved": 0, "type": "electric_scooter", "bike_id": "b904b3e5286731d37bd0f5eb12e3bc78", "lat": 38.895653333333335, "lon": -76.98215466666667, "rental_uris": {"android": "https://dc.lft.to/lastmile_qr_scan", "ios": "https://dc.lft.to/lastmile_qr_scan"}, "is_disabled": 0, "fusion_lat": 0.0, "name": "b904b3e5286731d37bd0f5eb12e3bc78", "fusion_lon": 0.0}, {"is_reserved": 0, "type": "electric_scooter", "bike_id": "40b2a4d47e9d08d939d8c2ac66ee7558", "lat": 38.910691166666666, "lon": -76.99131433333334, "rental_uris": {"android": "https://dc.lft.to/lastmile_qr_scan", "ios": "https://dc.lft.to/lastmile_qr_scan"}, "is_disabled": 0, "fusion_lat": 0.0, "name": "40b2a4d47e9d08d939d8c2ac66ee7558", "fusion_lon": 0.0}, {"is_reserved": 0, "type": "electric_scooter", "bike_id": "8cf8017bad65db232d840fd88e3efa81", "lat": 38.915455666666666, "lon": -77.02083016666667, "rental_uris": {"android": "https://dc.lft.to/lastmile_qr_scan", "ios": "https://dc.lft.to/lastmile_qr_scan"}, "is_disabled": 0, "fusion_lat": 0.0, "name": "8cf8017bad65db232d840fd88e3efa81", "fusion_lon": 0.0}, {"is_reserved": 0, "type": "electric_scooter", "bike_id": "f8ef2f627cabcc1ed26a724cf0a6817a", "lat": 38.8747675, "lon": -77.0174405, "rental_uris": {"android": "https://dc.lft.to/lastmile_qr_scan", "ios": "https://dc.lft.to/lastmile_qr_scan"}, "is_disabled": 0, "fusion_lat": 0.0, "name": "f8ef2f627cabcc1ed26a724cf0a6817a", "fusion_lon": 0.0}, {"is_reserved": 0, "type": "electric_scooter", "bike_id": "d5b5f67ae297720b524b9864c8505b31", "lat": 38.92612366666667, "lon": -77.021569, "rental_uris": {"android": "https://dc.lft.to/lastmile_qr_scan", "ios": "https://dc.lft.to/lastmile_qr_scan"}, "is_disabled": 0, "fusion_lat": 0.0, "name": "d5b5f67ae297720b524b9864c8505b31", "fusion_lon": 0.0}, {"is_reserved": 0, "type": "electric_scooter", "bike_id": "6ed552d256f307a1e591217c1f592e5e", "lat": 38.9001755, "lon": -77.0450025, "rental_uris": {"android": "https://dc.lft.to/lastmile_qr_scan", "ios": "https://dc.lft.to/lastmile_qr_scan"}, "is_disabled": 0, "fusion_lat": 0.0, "name": "6ed552d256f307a1e591217c1f592e5e", "fusion_lon": 0.0}, {"is_reserved": 0, "type": "electric_scooter", "bike_id": "85d1b4a9eab385081c9c008228d24ccd", "lat": 38.8997915, "lon": -77.02712366666667, "rental_uris": {"android": "https://dc.lft.to/lastmile_qr_scan", "ios": "https://dc.lft.to/lastmile_qr_scan"}, "is_disabled": 0, "fusion_lat": 0.0, "name": "85d1b4a9eab385081c9c008228d24ccd", "fusion_lon": 0.0}, {"is_reserved": 0, "type": "electric_bike", "bike_id": "da8a392ea1dad6d0cf6e80af4eccc01b", "lat": 38.995293, "lon": -77.07461283333333, "rental_uris": {"android": "https://dc.lft.to/lastmile_qr_scan", "ios": "https://dc.lft.to/lastmile_qr_scan"}, "is_disabled": 0, "fusion_lat": 0.0, "name": "da8a392ea1dad6d0cf6e80af4eccc01b", "fusion_lon": 0.0}, {"is_reserved": 0, "type": "electric_scooter", "bike_id": "60e6a2bb36f8395467c278f1ec8358e1", "lat": 38.9207265, "lon": -77.02395183333333, "rental_uris": {"android": "https://dc.lft.to/lastmile_qr_scan", "ios": "https://dc.lft.to/lastmile_qr_scan"}, "is_disabled": 0, "fusion_lat": 0.0, "name": "60e6a2bb36f8395467c278f1ec8358e1", "fusion_lon": 0.0}, {"is_reserved": 0, "type": "electric_scooter", "bike_id": "b635c66a381dfe3e18310306c875c219", "lat": 38.952463333333334, "lon": -77.02394383333333, "rental_uris": {"android": "https://dc.lft.to/lastmile_qr_scan", "ios": "https://dc.lft.to/lastmile_qr_scan"}, "is_disabled": 0, "fusion_lat": 0.0, "name": "b635c66a381dfe3e18310306c875c219", "fusion_lon": 0.0}, {"is_reserved": 0, "type": "electric_scooter", "bike_id": "4af8062d768918a0fec655726d842f62", "lat": 38.905872333333335, "lon": -77.03635933333334, "rental_uris": {"android": "https://dc.lft.to/lastmile_qr_scan", "ios": "https://dc.lft.to/lastmile_qr_scan"}, "is_disabled": 0, "fusion_lat": 0.0, "name": "4af8062d768918a0fec655726d842f62", "fusion_lon": 0.0}, {"is_reserved": 0, "type": "electric_scooter", "bike_id": "fa3a5c561f479aeabbb94653f6cb6feb", "lat": 38.91710883333333, "lon": -77.03218966666667, "rental_uris": {"android": "https://dc.lft.to/lastmile_qr_scan", "ios": "https://dc.lft.to/lastmile_qr_scan"}, "is_disabled": 0, "fusion_lat": 0.0, "name": "fa3a5c561f479aeabbb94653f6cb6feb", "fusion_lon": 0.0}, {"is_reserved": 0, "type": "electric_scooter", "bike_id": "0740a1868b2739b428059fdcc1a33948", "lat": 38.92258483333333, "lon": -77.036648, "rental_uris": {"android": "https://dc.lft.to/lastmile_qr_scan", "ios": "https://dc.lft.to/lastmile_qr_scan"}, "is_disabled": 0, "fusion_lat": 0.0, "name": "0740a1868b2739b428059fdcc1a33948", "fusion_lon": 0.0}, {"is_reserved": 0, "type": "electric_scooter", "bike_id": "9199de564c7dbb438c39d8e27269d344", "lat": 38.9186285, "lon": -77.013531, "rental_uris": {"android": "https://dc.lft.to/lastmile_qr_scan", "ios": "https://dc.lft.to/lastmile_qr_scan"}, "is_disabled": 0, "fusion_lat": 0.0, "name": "9199de564c7dbb438c39d8e27269d344", "fusion_lon": 0.0}, {"is_reserved": 0, "type": "electric_scooter", "bike_id": "183de3875a3a1b28a473db72c5870fe7", "lat": 38.93855533333333, "lon": -77.02556366666667, "rental_uris": {"android": "https://dc.lft.to/lastmile_qr_scan", "ios": "https://dc.lft.to/lastmile_qr_scan"}, "is_disabled": 0, "fusion_lat": 0.0, "name": "183de3875a3a1b28a473db72c5870fe7", "fusion_lon": 0.0}, {"is_reserved": 0, "type": "electric_scooter", "bike_id": "0cb066e902e31d97a1618e3bc1be6c8b", "lat": 38.96648483333333, "lon": -77.00891416666667, "rental_uris": {"android": "https://dc.lft.to/lastmile_qr_scan", "ios": "https://dc.lft.to/lastmile_qr_scan"}, "is_disabled": 0, "fusion_lat": 0.0, "name": "0cb066e902e31d97a1618e3bc1be6c8b", "fusion_lon": 0.0}, {"is_reserved": 0, "type": "electric_scooter", "bike_id": "a886ddcac632e5055d9ab857a14d9c68", "lat": 38.918344, "lon": -77.01470933333333, "rental_uris": {"android": "https://dc.lft.to/lastmile_qr_scan", "ios": "https://dc.lft.to/lastmile_qr_scan"}, "is_disabled": 0, "fusion_lat": 0.0, "name": "a886ddcac632e5055d9ab857a14d9c68", "fusion_lon": 0.0}, {"is_reserved": 0, "type": "electric_scooter", "bike_id": "7649867dabe2054adcb575cbf5ea4bcd", "lat": 38.89930783333333, "lon": -76.97697633333334, "rental_uris": {"android": "https://dc.lft.to/lastmile_qr_scan", "ios": "https://dc.lft.to/lastmile_qr_scan"}, "is_disabled": 0, "fusion_lat": 0.0, "name": "7649867dabe2054adcb575cbf5ea4bcd", "fusion_lon": 0.0}, {"is_reserved": 0, "type": "electric_bike", "bike_id": "b92e2ac130799389d2df24a08f06280a", "lat": 39.00025516666667, "lon": -77.04742766666666, "rental_uris": {"android": "https://dc.lft.to/lastmile_qr_scan", "ios": "https://dc.lft.to/lastmile_qr_scan"}, "is_disabled": 0, "fusion_lat": 0.0, "name": "b92e2ac130799389d2df24a08f06280a", "fusion_lon": 0.0}, {"is_reserved": 0, "type": "electric_scooter", "bike_id": "0f6e374accbb17717bd6d3d49b95d598", "lat": 38.8922195, "lon": -77.04355283333334, "rental_uris": {"android": "https://dc.lft.to/lastmile_qr_scan", "ios": "https://dc.lft.to/lastmile_qr_scan"}, "is_disabled": 0, "fusion_lat": 0.0, "name": "0f6e374accbb17717bd6d3d49b95d598", "fusion_lon": 0.0}, {"is_reserved": 0, "type": "electric_scooter", "bike_id": "6ff63bfa9e083cc3c2ce04c83361e2b5", "lat": 38.95373883333333, "lon": -77.001852, "rental_uris": {"android": "https://dc.lft.to/lastmile_qr_scan", "ios": "https://dc.lft.to/lastmile_qr_scan"}, "is_disabled": 0, "fusion_lat": 0.0, "name": "6ff63bfa9e083cc3c2ce04c83361e2b5", "fusion_lon": 0.0}, {"is_reserved": 0, "type": "electric_scooter", "bike_id": "87ee6451b1b1c0c674092cf7fc778d9b", "lat": 38.928258666666665, "lon": -77.0543645, "rental_uris": {"android": "https://dc.lft.to/lastmile_qr_scan", "ios": "https://dc.lft.to/lastmile_qr_scan"}, "is_disabled": 0, "fusion_lat": 0.0, "name": "87ee6451b1b1c0c674092cf7fc778d9b", "fusion_lon": 0.0}, {"is_reserved": 0, "type": "electric_scooter", "bike_id": "a17a2731f42df7b1f2246d2ff0523a66", "lat": 38.90558333333333, "lon": -77.00587483333334, "rental_uris": {"android": "https://dc.lft.to/lastmile_qr_scan", "ios": "https://dc.lft.to/lastmile_qr_scan"}, "is_disabled": 0, "fusion_lat": 0.0, "name": "a17a2731f42df7b1f2246d2ff0523a66", "fusion_lon": 0.0}, {"is_reserved": 0, "type": "electric_scooter", "bike_id": "0fc3e9377bd485b08bd6af1bf1d03578", "lat": 38.86372, "lon": -76.99058716666667, "rental_uris": {"android": "https://dc.lft.to/lastmile_qr_scan", "ios": "https://dc.lft.to/lastmile_qr_scan"}, "is_disabled": 0, "fusion_lat": 0.0, "name": "0fc3e9377bd485b08bd6af1bf1d03578", "fusion_lon": 0.0}, {"is_reserved": 0, "type": "electric_scooter", "bike_id": "e011a7e9c4c035261ab3858910fd5e11", "lat": 38.92453616666667, "lon": -77.05223566666666, "rental_uris": {"android": "https://dc.lft.to/lastmile_qr_scan", "ios": "https://dc.lft.to/lastmile_qr_scan"}, "is_disabled": 0, "fusion_lat": 0.0, "name": "e011a7e9c4c035261ab3858910fd5e11", "fusion_lon": 0.0}, {"is_reserved": 0, "type": "electric_scooter", "bike_id": "adcd025bc567ca9c8e039ecfd94e9718", "lat": 38.92482666666667, "lon": -77.02272116666667, "rental_uris": {"android": "https://dc.lft.to/lastmile_qr_scan", "ios": "https://dc.lft.to/lastmile_qr_scan"}, "is_disabled": 0, "fusion_lat": 0.0, "name": "adcd025bc567ca9c8e039ecfd94e9718", "fusion_lon": 0.0}, {"is_reserved": 0, "type": "electric_scooter", "bike_id": "4e8486811c5311277e880541eeeafaa0", "lat": 38.927456, "lon": -77.03306533333334, "rental_uris": {"android": "https://dc.lft.to/lastmile_qr_scan", "ios": "https://dc.lft.to/lastmile_qr_scan"}, "is_disabled": 0, "fusion_lat": 0.0, "name": "4e8486811c5311277e880541eeeafaa0", "fusion_lon": 0.0}, {"is_reserved": 0, "type": "electric_scooter", "bike_id": "881aee43fa3203d7957b05185262bb12", "lat": 38.92819566666667, "lon": -77.05439466666667, "rental_uris": {"android": "https://dc.lft.to/lastmile_qr_scan", "ios": "https://dc.lft.to/lastmile_qr_scan"}, "is_disabled": 0, "fusion_lat": 0.0, "name": "881aee43fa3203d7957b05185262bb12", "fusion_lon": 0.0}, {"is_reserved": 0, "type": "electric_scooter", "bike_id": "b426772e8dde4d0e24a794284bd9ea56", "lat": 38.90140666666667, "lon": -77.02850616666667, "rental_uris": {"android": "https://dc.lft.to/lastmile_qr_scan", "ios": "https://dc.lft.to/lastmile_qr_scan"}, "is_disabled": 0, "fusion_lat": 0.0, "name": "b426772e8dde4d0e24a794284bd9ea56", "fusion_lon": 0.0}, {"is_reserved": 0, "type": "electric_scooter", "bike_id": "67f211ff532a0203d805f7a10a1e9972", "lat": 38.895236, "lon": -77.03019183333333, "rental_uris": {"android": "https://dc.lft.to/lastmile_qr_scan", "ios": "https://dc.lft.to/lastmile_qr_scan"}, "is_disabled": 0, "fusion_lat": 0.0, "name": "67f211ff532a0203d805f7a10a1e9972", "fusion_lon": 0.0}, {"is_reserved": 0, "type": "electric_scooter", "bike_id": "71e29a661aa6d714144b8e380adc9848", "lat": 38.93699383333333, "lon": -77.021202, "rental_uris": {"android": "https://dc.lft.to/lastmile_qr_scan", "ios": "https://dc.lft.to/lastmile_qr_scan"}, "is_disabled": 0, "fusion_lat": 0.0, "name": "71e29a661aa6d714144b8e380adc9848", "fusion_lon": 0.0}, {"is_reserved": 0, "type": "electric_scooter", "bike_id": "98d782a3f39b743c1d033f24e5f34fd4", "lat": 38.923567, "lon": -77.05030716666667, "rental_uris": {"android": "https://dc.lft.to/lastmile_qr_scan", "ios": "https://dc.lft.to/lastmile_qr_scan"}, "is_disabled": 0, "fusion_lat": 0.0, "name": "98d782a3f39b743c1d033f24e5f34fd4", "fusion_lon": 0.0}, {"is_reserved": 0, "type": "electric_scooter", "bike_id": "e7fa0a856cb1175390fea1edc08cfa30", "lat": 38.899178666666664, "lon": -76.978373, "rental_uris": {"android": "https://dc.lft.to/lastmile_qr_scan", "ios": "https://dc.lft.to/lastmile_qr_scan"}, "is_disabled": 0, "fusion_lat": 0.0, "name": "e7fa0a856cb1175390fea1edc08cfa30", "fusion_lon": 0.0}, {"is_reserved": 0, "type": "electric_scooter", "bike_id": "ad226dd6038fe52ee08f3f091781dd93", "lat": 38.89722666666667, "lon": -77.02272566666667, "rental_uris": {"android": "https://dc.lft.to/lastmile_qr_scan", "ios": "https://dc.lft.to/lastmile_qr_scan"}, "is_disabled": 0, "fusion_lat": 0.0, "name": "ad226dd6038fe52ee08f3f091781dd93", "fusion_lon": 0.0}, {"is_reserved": 0, "type": "electric_scooter", "bike_id": "898f7dea8b02a4f20e07b5252754c754", "lat": 38.882621666666665, "lon": -77.00358783333333, "rental_uris": {"android": "https://dc.lft.to/lastmile_qr_scan", "ios": "https://dc.lft.to/lastmile_qr_scan"}, "is_disabled": 0, "fusion_lat": 0.0, "name": "898f7dea8b02a4f20e07b5252754c754", "fusion_lon": 0.0}, {"is_reserved": 0, "type": "electric_scooter", "bike_id": "37db8545ceb2c71b44559c33a6afe202", "lat": 38.93128766666667, "lon": -77.03851266666666, "rental_uris": {"android": "https://dc.lft.to/lastmile_qr_scan", "ios": "https://dc.lft.to/lastmile_qr_scan"}, "is_disabled": 0, "fusion_lat": 0.0, "name": "37db8545ceb2c71b44559c33a6afe202", "fusion_lon": 0.0}, {"is_reserved": 0, "type": "electric_scooter", "bike_id": "936726740dedc5ce898262485f5185cb", "lat": 38.918020166666665, "lon": -77.03443633333333, "rental_uris": {"android": "https://dc.lft.to/lastmile_qr_scan", "ios": "https://dc.lft.to/lastmile_qr_scan"}, "is_disabled": 0, "fusion_lat": 0.0, "name": "936726740dedc5ce898262485f5185cb", "fusion_lon": 0.0}, {"is_reserved": 0, "type": "electric_scooter", "bike_id": "ff22b98c2eca171da443b0577a33be8c", "lat": 38.95086083333333, "lon": -77.02805266666667, "rental_uris": {"android": "https://dc.lft.to/lastmile_qr_scan", "ios": "https://dc.lft.to/lastmile_qr_scan"}, "is_disabled": 0, "fusion_lat": 0.0, "name": "ff22b98c2eca171da443b0577a33be8c", "fusion_lon": 0.0}, {"is_reserved": 0, "type": "electric_scooter", "bike_id": "1252038bf5eee7a4d771111d9cb91736", "lat": 38.90056583333333, "lon": -76.98687633333333, "rental_uris": {"android": "https://dc.lft.to/lastmile_qr_scan", "ios": "https://dc.lft.to/lastmile_qr_scan"}, "is_disabled": 0, "fusion_lat": 0.0, "name": "1252038bf5eee7a4d771111d9cb91736", "fusion_lon": 0.0}, {"is_reserved": 0, "type": "electric_scooter", "bike_id": "e4acb589cfe41bd3d96c635a47c47a00", "lat": 38.903520666666665, "lon": -77.011141, "rental_uris": {"android": "https://dc.lft.to/lastmile_qr_scan", "ios": "https://dc.lft.to/lastmile_qr_scan"}, "is_disabled": 0, "fusion_lat": 0.0, "name": "e4acb589cfe41bd3d96c635a47c47a00", "fusion_lon": 0.0}, {"is_reserved": 0, "type": "electric_scooter", "bike_id": "eb1a64ff4394bdd13eceef9fff423aab", "lat": 38.9300215, "lon": -77.0230515, "rental_uris": {"android": "https://dc.lft.to/lastmile_qr_scan", "ios": "https://dc.lft.to/lastmile_qr_scan"}, "is_disabled": 0, "fusion_lat": 0.0, "name": "eb1a64ff4394bdd13eceef9fff423aab", "fusion_lon": 0.0}, {"is_reserved": 0, "type": "electric_scooter", "bike_id": "960a23fb872bdb1ebb0969f622ee6b84", "lat": 38.91541566666667, "lon": -77.01222683333333, "rental_uris": {"android": "https://dc.lft.to/lastmile_qr_scan", "ios": "https://dc.lft.to/lastmile_qr_scan"}, "is_disabled": 0, "fusion_lat": 0.0, "name": "960a23fb872bdb1ebb0969f622ee6b84", "fusion_lon": 0.0}, {"is_reserved": 0, "type": "electric_scooter", "bike_id": "4c59c8701470c5d764e2a4364111dbd5", "lat": 38.94027366666667, "lon": -77.02640366666667, "rental_uris": {"android": "https://dc.lft.to/lastmile_qr_scan", "ios": "https://dc.lft.to/lastmile_qr_scan"}, "is_disabled": 0, "fusion_lat": 0.0, "name": "4c59c8701470c5d764e2a4364111dbd5", "fusion_lon": 0.0}, {"is_reserved": 0, "type": "electric_scooter", "bike_id": "317832f516a14e333dc22f7be1397cad", "lat": 38.911760666666666, "lon": -77.02832533333333, "rental_uris": {"android": "https://dc.lft.to/lastmile_qr_scan", "ios": "https://dc.lft.to/lastmile_qr_scan"}, "is_disabled": 0, "fusion_lat": 0.0, "name": "317832f516a14e333dc22f7be1397cad", "fusion_lon": 0.0}, {"is_reserved": 0, "type": "electric_scooter", "bike_id": "585bb1442d0de652ce2d4723fa3e6a4c", "lat": 38.8642955, "lon": -76.99861516666667, "rental_uris": {"android": "https://dc.lft.to/lastmile_qr_scan", "ios": "https://dc.lft.to/lastmile_qr_scan"}, "is_disabled": 0, "fusion_lat": 0.0, "name": "585bb1442d0de652ce2d4723fa3e6a4c", "fusion_lon": 0.0}, {"is_reserved": 0, "type": "electric_bike", "bike_id": "f106e9b0fafa88ea46b2b41fb7b71d1c", "lat": 38.8956315, "lon": -77.12735716666667, "rental_uris": {"android": "https://dc.lft.to/lastmile_qr_scan", "ios": "https://dc.lft.to/lastmile_qr_scan"}, "is_disabled": 0, "fusion_lat": 0.0, "name": "f106e9b0fafa88ea46b2b41fb7b71d1c", "fusion_lon": 0.0}, {"is_reserved": 0, "type": "electric_scooter", "bike_id": "2b483947204c56d35af816320f071074", "lat": 38.934582666666664, "lon": -77.02240266666666, "rental_uris": {"android": "https://dc.lft.to/lastmile_qr_scan", "ios": "https://dc.lft.to/lastmile_qr_scan"}, "is_disabled": 0, "fusion_lat": 0.0, "name": "2b483947204c56d35af816320f071074", "fusion_lon": 0.0}, {"is_reserved": 0, "type": "electric_scooter", "bike_id": "68cf607217e2f61801ecf065ea0cacc4", "lat": 38.928964666666666, "lon": -77.02247333333334, "rental_uris": {"android": "https://dc.lft.to/lastmile_qr_scan", "ios": "https://dc.lft.to/lastmile_qr_scan"}, "is_disabled": 0, "fusion_lat": 0.0, "name": "68cf607217e2f61801ecf065ea0cacc4", "fusion_lon": 0.0}, {"is_reserved": 0, "type": "electric_scooter", "bike_id": "3e130fa4dc1aeca98820d7aea0c56d32", "lat": 38.900672, "lon": -77.04865166666667, "rental_uris": {"android": "https://dc.lft.to/lastmile_qr_scan", "ios": "https://dc.lft.to/lastmile_qr_scan"}, "is_disabled": 0, "fusion_lat": 0.0, "name": "3e130fa4dc1aeca98820d7aea0c56d32", "fusion_lon": 0.0}, {"is_reserved": 0, "type": "electric_scooter", "bike_id": "ff1411cc6ff14a9338ef1d161d20c050", "lat": 38.89704966666667, "lon": -77.004894, "rental_uris": {"android": "https://dc.lft.to/lastmile_qr_scan", "ios": "https://dc.lft.to/lastmile_qr_scan"}, "is_disabled": 0, "fusion_lat": 0.0, "name": "ff1411cc6ff14a9338ef1d161d20c050", "fusion_lon": 0.0}, {"is_reserved": 0, "type": "electric_scooter", "bike_id": "8d1f26719d4897a75d9697a7b2e5e77d", "lat": 38.92603833333333, "lon": -77.02488866666667, "rental_uris": {"android": "https://dc.lft.to/lastmile_qr_scan", "ios": "https://dc.lft.to/lastmile_qr_scan"}, "is_disabled": 0, "fusion_lat": 0.0, "name": "8d1f26719d4897a75d9697a7b2e5e77d", "fusion_lon": 0.0}, {"is_reserved": 0, "type": "electric_bike", "bike_id": "73216a1e3bba1184b248bbdf6621c6fc", "lat": 38.882408, "lon": -76.96253766666666, "rental_uris": {"android": "https://dc.lft.to/lastmile_qr_scan", "ios": "https://dc.lft.to/lastmile_qr_scan"}, "is_disabled": 0, "fusion_lat": 0.0, "name": "73216a1e3bba1184b248bbdf6621c6fc", "fusion_lon": 0.0}, {"is_reserved": 0, "type": "electric_scooter", "bike_id": "03386258dac87713fc192379236435ff", "lat": 38.92692866666667, "lon": -77.0257875, "rental_uris": {"android": "https://dc.lft.to/lastmile_qr_scan", "ios": "https://dc.lft.to/lastmile_qr_scan"}, "is_disabled": 0, "fusion_lat": 0.0, "name": "03386258dac87713fc192379236435ff", "fusion_lon": 0.0}, {"is_reserved": 0, "type": "electric_bike", "bike_id": "092f188cd62a14182ae337b4f87b0f2a", "lat": 38.930690166666665, "lon": -77.03807766666667, "rental_uris": {"android": "https://dc.lft.to/lastmile_qr_scan", "ios": "https://dc.lft.to/lastmile_qr_scan"}, "is_disabled": 0, "fusion_lat": 0.0, "name": "092f188cd62a14182ae337b4f87b0f2a", "fusion_lon": 0.0}, {"is_reserved": 0, "type": "electric_scooter", "bike_id": "15c8919e1ddbb813aabda25face7fbf9", "lat": 38.896718666666665, "lon": -77.05038783333333, "rental_uris": {"android": "https://dc.lft.to/lastmile_qr_scan", "ios": "https://dc.lft.to/lastmile_qr_scan"}, "is_disabled": 0, "fusion_lat": 0.0, "name": "15c8919e1ddbb813aabda25face7fbf9", "fusion_lon": 0.0}, {"is_reserved": 0, "type": "electric_bike", "bike_id": "ee96c5c141d5f442f70236d7eeb10b23", "lat": 38.941524, "lon": -77.001886, "rental_uris": {"android": "https://dc.lft.to/lastmile_qr_scan", "ios": "https://dc.lft.to/lastmile_qr_scan"}, "is_disabled": 0, "fusion_lat": 0.0, "name": "ee96c5c141d5f442f70236d7eeb10b23", "fusion_lon": 0.0}, {"is_reserved": 0, "type": "electric_scooter", "bike_id": "e95fbdbde39d56d021225265b295fab1", "lat": 38.92612316666667, "lon": -77.021613, "rental_uris": {"android": "https://dc.lft.to/lastmile_qr_scan", "ios": "https://dc.lft.to/lastmile_qr_scan"}, "is_disabled": 0, "fusion_lat": 0.0, "name": "e95fbdbde39d56d021225265b295fab1", "fusion_lon": 0.0}, {"is_reserved": 0, "type": "electric_scooter", "bike_id": "bdf4f80b02747887522ac3a16a82100a", "lat": 38.9154075, "lon": -77.0122375, "rental_uris": {"android": "https://dc.lft.to/lastmile_qr_scan", "ios": "https://dc.lft.to/lastmile_qr_scan"}, "is_disabled": 0, "fusion_lat": 0.0, "name": "bdf4f80b02747887522ac3a16a82100a", "fusion_lon": 0.0}, {"is_reserved": 0, "type": "electric_scooter", "bike_id": "36ff59811d131044e84fe7b2932acfaa", "lat": 38.90607216666667, "lon": -76.95009566666667, "rental_uris": {"android": "https://dc.lft.to/lastmile_qr_scan", "ios": "https://dc.lft.to/lastmile_qr_scan"}, "is_disabled": 0, "fusion_lat": 0.0, "name": "36ff59811d131044e84fe7b2932acfaa", "fusion_lon": 0.0}, {"is_reserved": 0, "type": "electric_scooter", "bike_id": "60b25301105417ca56a38622d717a770", "lat": 38.941791333333335, "lon": -77.02493483333333, "rental_uris": {"android": "https://dc.lft.to/lastmile_qr_scan", "ios": "https://dc.lft.to/lastmile_qr_scan"}, "is_disabled": 0, "fusion_lat": 0.0, "name": "60b25301105417ca56a38622d717a770", "fusion_lon": 0.0}, {"is_reserved": 0, "type": "electric_bike", "bike_id": "7dda26417ba44ff9db8625d683c051d2", "lat": 38.831381, "lon": -77.11343816666667, "rental_uris": {"android": "https://dc.lft.to/lastmile_qr_scan", "ios": "https://dc.lft.to/lastmile_qr_scan"}, "is_disabled": 0, "fusion_lat": 0.0, "name": "7dda26417ba44ff9db8625d683c051d2", "fusion_lon": 0.0}, {"is_reserved": 0, "type": "electric_scooter", "bike_id": "d17be5892434b3a739c4659d18fe5a44", "lat": 38.9126615, "lon": -77.0125215, "rental_uris": {"android": "https://dc.lft.to/lastmile_qr_scan", "ios": "https://dc.lft.to/lastmile_qr_scan"}, "is_disabled": 0, "fusion_lat": 0.0, "name": "d17be5892434b3a739c4659d18fe5a44", "fusion_lon": 0.0}, {"is_reserved": 0, "type": "electric_scooter", "bike_id": "ef53a1b9adc197077594a0c0d1c636f5", "lat": 38.905247333333335, "lon": -77.065319, "rental_uris": {"android": "https://dc.lft.to/lastmile_qr_scan", "ios": "https://dc.lft.to/lastmile_qr_scan"}, "is_disabled": 0, "fusion_lat": 0.0, "name": "ef53a1b9adc197077594a0c0d1c636f5", "fusion_lon": 0.0}, {"is_reserved": 0, "type": "electric_scooter", "bike_id": "e25451187d5c10cef7d67e4fe899c719", "lat": 38.90094933333334, "lon": -77.038567, "rental_uris": {"android": "https://dc.lft.to/lastmile_qr_scan", "ios": "https://dc.lft.to/lastmile_qr_scan"}, "is_disabled": 0, "fusion_lat": 0.0, "name": "e25451187d5c10cef7d67e4fe899c719", "fusion_lon": 0.0}, {"is_reserved": 0, "type": "electric_scooter", "bike_id": "9803e48958524826301730f8e05ed239", "lat": 38.8850695, "lon": -77.01114916666667, "rental_uris": {"android": "https://dc.lft.to/lastmile_qr_scan", "ios": "https://dc.lft.to/lastmile_qr_scan"}, "is_disabled": 0, "fusion_lat": 0.0, "name": "9803e48958524826301730f8e05ed239", "fusion_lon": 0.0}, {"is_reserved": 0, "type": "electric_scooter", "bike_id": "f45e6ed51f92069020d74fbd99e0866f", "lat": 38.915672, "lon": -77.02972666666666, "rental_uris": {"android": "https://dc.lft.to/lastmile_qr_scan", "ios": "https://dc.lft.to/lastmile_qr_scan"}, "is_disabled": 0, "fusion_lat": 0.0, "name": "f45e6ed51f92069020d74fbd99e0866f", "fusion_lon": 0.0}, {"is_reserved": 0, "type": "electric_scooter", "bike_id": "bed4de2fcbec645ec0753ad24da6a2ee", "lat": 38.94694916666667, "lon": -77.022451, "rental_uris": {"android": "https://dc.lft.to/lastmile_qr_scan", "ios": "https://dc.lft.to/lastmile_qr_scan"}, "is_disabled": 0, "fusion_lat": 0.0, "name": "bed4de2fcbec645ec0753ad24da6a2ee", "fusion_lon": 0.0}, {"is_reserved": 0, "type": "electric_scooter", "bike_id": "0af0a66782ffe1fbbdef40451c80da81", "lat": 38.900274333333336, "lon": -76.99868383333333, "rental_uris": {"android": "https://dc.lft.to/lastmile_qr_scan", "ios": "https://dc.lft.to/lastmile_qr_scan"}, "is_disabled": 0, "fusion_lat": 0.0, "name": "0af0a66782ffe1fbbdef40451c80da81", "fusion_lon": 0.0}, {"is_reserved": 0, "type": "electric_scooter", "bike_id": "a97d994354f1d7b4d554f9faab1c2c40", "lat": 38.892138333333335, "lon": -77.02421766666667, "rental_uris": {"android": "https://dc.lft.to/lastmile_qr_scan", "ios": "https://dc.lft.to/lastmile_qr_scan"}, "is_disabled": 0, "fusion_lat": 0.0, "name": "a97d994354f1d7b4d554f9faab1c2c40", "fusion_lon": 0.0}, {"is_reserved": 0, "type": "electric_scooter", "bike_id": "a91cea37ede28af20f87bd530badfdf9", "lat": 38.92235766666667, "lon": -77.03347566666666, "rental_uris": {"android": "https://dc.lft.to/lastmile_qr_scan", "ios": "https://dc.lft.to/lastmile_qr_scan"}, "is_disabled": 0, "fusion_lat": 0.0, "name": "a91cea37ede28af20f87bd530badfdf9", "fusion_lon": 0.0}, {"is_reserved": 0, "type": "electric_scooter", "bike_id": "16314bd8cb220e3e1659d7f18b4be2aa", "lat": 38.94177366666667, "lon": -77.02567633333334, "rental_uris": {"android": "https://dc.lft.to/lastmile_qr_scan", "ios": "https://dc.lft.to/lastmile_qr_scan"}, "is_disabled": 0, "fusion_lat": 0.0, "name": "16314bd8cb220e3e1659d7f18b4be2aa", "fusion_lon": 0.0}, {"is_reserved": 0, "type": "electric_scooter", "bike_id": "2dfc613e0c019489ac11517a63bc388a", "lat": 38.878666333333335, "lon": -76.962583, "rental_uris": {"android": "https://dc.lft.to/lastmile_qr_scan", "ios": "https://dc.lft.to/lastmile_qr_scan"}, "is_disabled": 0, "fusion_lat": 0.0, "name": "2dfc613e0c019489ac11517a63bc388a", "fusion_lon": 0.0}, {"is_reserved": 0, "type": "electric_scooter", "bike_id": "b0022099eda4142fc69fce894b6378d8", "lat": 38.92433533333333, "lon": -77.02032966666667, "rental_uris": {"android": "https://dc.lft.to/lastmile_qr_scan", "ios": "https://dc.lft.to/lastmile_qr_scan"}, "is_disabled": 0, "fusion_lat": 0.0, "name": "b0022099eda4142fc69fce894b6378d8", "fusion_lon": 0.0}, {"is_reserved": 0, "type": "electric_bike", "bike_id": "7ed9f5b73557cf2b08631a4028dfbe11", "lat": 38.958415333333335, "lon": -76.986065, "rental_uris": {"android": "https://dc.lft.to/lastmile_qr_scan", "ios": "https://dc.lft.to/lastmile_qr_scan"}, "is_disabled": 0, "fusion_lat": 0.0, "name": "7ed9f5b73557cf2b08631a4028dfbe11", "fusion_lon": 0.0}, {"is_reserved": 0, "type": "electric_scooter", "bike_id": "83390bff97ff24f06e3ff9b6a2917a3f", "lat": 38.900438666666666, "lon": -77.00754666666667, "rental_uris": {"android": "https://dc.lft.to/lastmile_qr_scan", "ios": "https://dc.lft.to/lastmile_qr_scan"}, "is_disabled": 0, "fusion_lat": 0.0, "name": "83390bff97ff24f06e3ff9b6a2917a3f", "fusion_lon": 0.0}, {"is_reserved": 0, "type": "electric_scooter", "bike_id": "6c92917cfba5b79ad39eaafbb77f5065", "lat": 38.924268166666664, "lon": -77.01940483333334, "rental_uris": {"android": "https://dc.lft.to/lastmile_qr_scan", "ios": "https://dc.lft.to/lastmile_qr_scan"}, "is_disabled": 0, "fusion_lat": 0.0, "name": "6c92917cfba5b79ad39eaafbb77f5065", "fusion_lon": 0.0}, {"is_reserved": 0, "type": "electric_scooter", "bike_id": "38d9d72a5f2a3fc24e32405868313b33", "lat": 38.8978305, "lon": -77.016682, "rental_uris": {"android": "https://dc.lft.to/lastmile_qr_scan", "ios": "https://dc.lft.to/lastmile_qr_scan"}, "is_disabled": 0, "fusion_lat": 0.0, "name": "38d9d72a5f2a3fc24e32405868313b33", "fusion_lon": 0.0}, {"is_reserved": 0, "type": "electric_scooter", "bike_id": "ab73185338d68cf36feb475764cbc2b1", "lat": 38.92238533333333, "lon": -77.03518216666667, "rental_uris": {"android": "https://dc.lft.to/lastmile_qr_scan", "ios": "https://dc.lft.to/lastmile_qr_scan"}, "is_disabled": 0, "fusion_lat": 0.0, "name": "ab73185338d68cf36feb475764cbc2b1", "fusion_lon": 0.0}, {"is_reserved": 0, "type": "electric_scooter", "bike_id": "1322b345ad4f001fdd513e4d3395ec48", "lat": 38.90127716666667, "lon": -77.04998416666666, "rental_uris": {"android": "https://dc.lft.to/lastmile_qr_scan", "ios": "https://dc.lft.to/lastmile_qr_scan"}, "is_disabled": 0, "fusion_lat": 0.0, "name": "1322b345ad4f001fdd513e4d3395ec48", "fusion_lon": 0.0}, {"is_reserved": 0, "type": "electric_scooter", "bike_id": "b0cbccdbdb80f49fdb478c32a6f3a8f7", "lat": 38.960309, "lon": -77.02433233333333, "rental_uris": {"android": "https://dc.lft.to/lastmile_qr_scan", "ios": "https://dc.lft.to/lastmile_qr_scan"}, "is_disabled": 0, "fusion_lat": 0.0, "name": "b0cbccdbdb80f49fdb478c32a6f3a8f7", "fusion_lon": 0.0}, {"is_reserved": 0, "type": "electric_bike", "bike_id": "a0dd481b8496dcb9907388f5479dd0a3", "lat": 38.900246333333335, "lon": -76.98036233333333, "rental_uris": {"android": "https://dc.lft.to/lastmile_qr_scan", "ios": "https://dc.lft.to/lastmile_qr_scan"}, "is_disabled": 0, "fusion_lat": 0.0, "name": "a0dd481b8496dcb9907388f5479dd0a3", "fusion_lon": 0.0}, {"is_reserved": 0, "type": "electric_scooter", "bike_id": "d719171ba6ed86cc9c9e46693c5edd16", "lat": 38.924488333333336, "lon": -77.03972566666667, "rental_uris": {"android": "https://dc.lft.to/lastmile_qr_scan", "ios": "https://dc.lft.to/lastmile_qr_scan"}, "is_disabled": 0, "fusion_lat": 0.0, "name": "d719171ba6ed86cc9c9e46693c5edd16", "fusion_lon": 0.0}, {"is_reserved": 0, "type": "electric_scooter", "bike_id": "4ea6eb3b583c4ff263d7358362e1fcf7", "lat": 38.898270333333336, "lon": -76.94648716666667, "rental_uris": {"android": "https://dc.lft.to/lastmile_qr_scan", "ios": "https://dc.lft.to/lastmile_qr_scan"}, "is_disabled": 0, "fusion_lat": 0.0, "name": "4ea6eb3b583c4ff263d7358362e1fcf7", "fusion_lon": 0.0}, {"is_reserved": 0, "type": "electric_scooter", "bike_id": "bab59f8b1a772a7e015130a10fbe2303", "lat": 38.9363065, "lon": -77.072965, "rental_uris": {"android": "https://dc.lft.to/lastmile_qr_scan", "ios": "https://dc.lft.to/lastmile_qr_scan"}, "is_disabled": 0, "fusion_lat": 0.0, "name": "bab59f8b1a772a7e015130a10fbe2303", "fusion_lon": 0.0}, {"is_reserved": 0, "type": "electric_scooter", "bike_id": "7269f60ff7d7af21b3f06bb1fdc3e738", "lat": 38.917527666666665, "lon": -77.014656, "rental_uris": {"android": "https://dc.lft.to/lastmile_qr_scan", "ios": "https://dc.lft.to/lastmile_qr_scan"}, "is_disabled": 0, "fusion_lat": 0.0, "name": "7269f60ff7d7af21b3f06bb1fdc3e738", "fusion_lon": 0.0}, {"is_reserved": 0, "type": "electric_scooter", "bike_id": "897576b3c8aaf460d32ea2863ac618ca", "lat": 38.837989, "lon": -76.998571, "rental_uris": {"android": "https://dc.lft.to/lastmile_qr_scan", "ios": "https://dc.lft.to/lastmile_qr_scan"}, "is_disabled": 0, "fusion_lat": 0.0, "name": "897576b3c8aaf460d32ea2863ac618ca", "fusion_lon": 0.0}, {"is_reserved": 0, "type": "electric_scooter", "bike_id": "26442c46f64a15f8289d57772f5aecb6", "lat": 38.89964616666666, "lon": -77.044871, "rental_uris": {"android": "https://dc.lft.to/lastmile_qr_scan", "ios": "https://dc.lft.to/lastmile_qr_scan"}, "is_disabled": 0, "fusion_lat": 0.0, "name": "26442c46f64a15f8289d57772f5aecb6", "fusion_lon": 0.0}, {"is_reserved": 0, "type": "electric_scooter", "bike_id": "650f68f39297848bc6be3765e8edd0b7", "lat": 38.9124715, "lon": -77.02858966666666, "rental_uris": {"android": "https://dc.lft.to/lastmile_qr_scan", "ios": "https://dc.lft.to/lastmile_qr_scan"}, "is_disabled": 0, "fusion_lat": 0.0, "name": "650f68f39297848bc6be3765e8edd0b7", "fusion_lon": 0.0}, {"is_reserved": 0, "type": "electric_scooter", "bike_id": "5bcb034d623cff05dbb079df9f988521", "lat": 38.931048833333335, "lon": -77.02477766666667, "rental_uris": {"android": "https://dc.lft.to/lastmile_qr_scan", "ios": "https://dc.lft.to/lastmile_qr_scan"}, "is_disabled": 0, "fusion_lat": 0.0, "name": "5bcb034d623cff05dbb079df9f988521", "fusion_lon": 0.0}, {"is_reserved": 0, "type": "electric_scooter", "bike_id": "16cfe84986d7201eca2b21de50a3fba9", "lat": 38.933535666666664, "lon": -77.057208, "rental_uris": {"android": "https://dc.lft.to/lastmile_qr_scan", "ios": "https://dc.lft.to/lastmile_qr_scan"}, "is_disabled": 0, "fusion_lat": 0.0, "name": "16cfe84986d7201eca2b21de50a3fba9", "fusion_lon": 0.0}, {"is_reserved": 0, "type": "electric_scooter", "bike_id": "8834e73f0eca11297a4c6ce01149429c", "lat": 38.93246366666666, "lon": -77.02945366666667, "rental_uris": {"android": "https://dc.lft.to/lastmile_qr_scan", "ios": "https://dc.lft.to/lastmile_qr_scan"}, "is_disabled": 0, "fusion_lat": 0.0, "name": "8834e73f0eca11297a4c6ce01149429c", "fusion_lon": 0.0}, {"is_reserved": 0, "type": "electric_scooter", "bike_id": "1bac662285df8fee5d956ac5d4445463", "lat": 38.91121016666666, "lon": -77.02196833333333, "rental_uris": {"android": "https://dc.lft.to/lastmile_qr_scan", "ios": "https://dc.lft.to/lastmile_qr_scan"}, "is_disabled": 0, "fusion_lat": 0.0, "name": "1bac662285df8fee5d956ac5d4445463", "fusion_lon": 0.0}, {"is_reserved": 0, "type": "electric_scooter", "bike_id": "632d4c3fe986f9537173a7451fd4dabd", "lat": 38.879564333333335, "lon": -77.02365333333333, "rental_uris": {"android": "https://dc.lft.to/lastmile_qr_scan", "ios": "https://dc.lft.to/lastmile_qr_scan"}, "is_disabled": 0, "fusion_lat": 0.0, "name": "632d4c3fe986f9537173a7451fd4dabd", "fusion_lon": 0.0}, {"is_reserved": 0, "type": "electric_scooter", "bike_id": "ce789b6430abcd8a0e7bff588e2e6752", "lat": 38.9241845, "lon": -77.0200485, "rental_uris": {"android": "https://dc.lft.to/lastmile_qr_scan", "ios": "https://dc.lft.to/lastmile_qr_scan"}, "is_disabled": 0, "fusion_lat": 0.0, "name": "ce789b6430abcd8a0e7bff588e2e6752", "fusion_lon": 0.0}, {"is_reserved": 0, "type": "electric_scooter", "bike_id": "99f8f0f5ddd22555d8b04903632c5386", "lat": 38.939508000000004, "lon": -77.02758883333334, "rental_uris": {"android": "https://dc.lft.to/lastmile_qr_scan", "ios": "https://dc.lft.to/lastmile_qr_scan"}, "is_disabled": 0, "fusion_lat": 0.0, "name": "99f8f0f5ddd22555d8b04903632c5386", "fusion_lon": 0.0}, {"is_reserved": 0, "type": "electric_scooter", "bike_id": "39839dbd15a385a1ea6cc1ea806f6852", "lat": 38.9196155, "lon": -77.02221066666667, "rental_uris": {"android": "https://dc.lft.to/lastmile_qr_scan", "ios": "https://dc.lft.to/lastmile_qr_scan"}, "is_disabled": 0, "fusion_lat": 0.0, "name": "39839dbd15a385a1ea6cc1ea806f6852", "fusion_lon": 0.0}, {"is_reserved": 0, "type": "electric_scooter", "bike_id": "c59f0f99accbaf15a9b9d741f0d16ae7", "lat": 38.907949, "lon": -77.042359, "rental_uris": {"android": "https://dc.lft.to/lastmile_qr_scan", "ios": "https://dc.lft.to/lastmile_qr_scan"}, "is_disabled": 0, "fusion_lat": 0.0, "name": "c59f0f99accbaf15a9b9d741f0d16ae7", "fusion_lon": 0.0}, {"is_reserved": 0, "type": "electric_scooter", "bike_id": "07c34dc2c2928e77f3420f1d33d1a8d2", "lat": 38.9254955, "lon": -77.032221, "rental_uris": {"android": "https://dc.lft.to/lastmile_qr_scan", "ios": "https://dc.lft.to/lastmile_qr_scan"}, "is_disabled": 0, "fusion_lat": 0.0, "name": "07c34dc2c2928e77f3420f1d33d1a8d2", "fusion_lon": 0.0}, {"is_reserved": 0, "type": "electric_scooter", "bike_id": "61a041d235983b1b7d523cfa67b0b90c", "lat": 38.914934333333335, "lon": -77.01996533333333, "rental_uris": {"android": "https://dc.lft.to/lastmile_qr_scan", "ios": "https://dc.lft.to/lastmile_qr_scan"}, "is_disabled": 0, "fusion_lat": 0.0, "name": "61a041d235983b1b7d523cfa67b0b90c", "fusion_lon": 0.0}, {"is_reserved": 0, "type": "electric_scooter", "bike_id": "b5b7ea9936e6ae2e5d6c398f9bbb4e4b", "lat": 38.917927, "lon": -77.02334966666666, "rental_uris": {"android": "https://dc.lft.to/lastmile_qr_scan", "ios": "https://dc.lft.to/lastmile_qr_scan"}, "is_disabled": 0, "fusion_lat": 0.0, "name": "b5b7ea9936e6ae2e5d6c398f9bbb4e4b", "fusion_lon": 0.0}, {"is_reserved": 0, "type": "electric_scooter", "bike_id": "11eca22b78d4fd1832049a3ae5049cbb", "lat": 38.8969325, "lon": -77.05023916666667, "rental_uris": {"android": "https://dc.lft.to/lastmile_qr_scan", "ios": "https://dc.lft.to/lastmile_qr_scan"}, "is_disabled": 0, "fusion_lat": 0.0, "name": "11eca22b78d4fd1832049a3ae5049cbb", "fusion_lon": 0.0}, {"is_reserved": 0, "type": "electric_scooter", "bike_id": "e8c8744a2c6bfe94a9096c22ef08a33d", "lat": 38.919229, "lon": -77.00968816666666, "rental_uris": {"android": "https://dc.lft.to/lastmile_qr_scan", "ios": "https://dc.lft.to/lastmile_qr_scan"}, "is_disabled": 0, "fusion_lat": 0.0, "name": "e8c8744a2c6bfe94a9096c22ef08a33d", "fusion_lon": 0.0}, {"is_reserved": 0, "type": "electric_scooter", "bike_id": "fb372d021465849200d6a533de45004c", "lat": 38.8862535, "lon": -77.033516, "rental_uris": {"android": "https://dc.lft.to/lastmile_qr_scan", "ios": "https://dc.lft.to/lastmile_qr_scan"}, "is_disabled": 0, "fusion_lat": 0.0, "name": "fb372d021465849200d6a533de45004c", "fusion_lon": 0.0}, {"is_reserved": 0, "type": "electric_scooter", "bike_id": "dd9775eac1136190816a342d79d68f1f", "lat": 38.9059375, "lon": -77.0467365, "rental_uris": {"android": "https://dc.lft.to/lastmile_qr_scan", "ios": "https://dc.lft.to/lastmile_qr_scan"}, "is_disabled": 0, "fusion_lat": 0.0, "name": "dd9775eac1136190816a342d79d68f1f", "fusion_lon": 0.0}, {"is_reserved": 0, "type": "electric_scooter", "bike_id": "018f8cdc365823a05b6ab2e511738c84", "lat": 38.8657725, "lon": -76.990327, "rental_uris": {"android": "https://dc.lft.to/lastmile_qr_scan", "ios": "https://dc.lft.to/lastmile_qr_scan"}, "is_disabled": 0, "fusion_lat": 0.0, "name": "018f8cdc365823a05b6ab2e511738c84", "fusion_lon": 0.0}, {"is_reserved": 0, "type": "electric_scooter", "bike_id": "b3e6216f33f2fd94e68b9ca294154846", "lat": 38.924039, "lon": -77.0297535, "rental_uris": {"android": "https://dc.lft.to/lastmile_qr_scan", "ios": "https://dc.lft.to/lastmile_qr_scan"}, "is_disabled": 0, "fusion_lat": 0.0, "name": "b3e6216f33f2fd94e68b9ca294154846", "fusion_lon": 0.0}, {"is_reserved": 0, "type": "electric_scooter", "bike_id": "6c07b3e63d69c806e2b3ae01a6c020b9", "lat": 38.912922, "lon": -76.98541233333333, "rental_uris": {"android": "https://dc.lft.to/lastmile_qr_scan", "ios": "https://dc.lft.to/lastmile_qr_scan"}, "is_disabled": 0, "fusion_lat": 0.0, "name": "6c07b3e63d69c806e2b3ae01a6c020b9", "fusion_lon": 0.0}, {"is_reserved": 0, "type": "electric_scooter", "bike_id": "6e5074959771b21f6d484f834d682fe6", "lat": 38.928702, "lon": -77.02705866666666, "rental_uris": {"android": "https://dc.lft.to/lastmile_qr_scan", "ios": "https://dc.lft.to/lastmile_qr_scan"}, "is_disabled": 0, "fusion_lat": 0.0, "name": "6e5074959771b21f6d484f834d682fe6", "fusion_lon": 0.0}, {"is_reserved": 0, "type": "electric_scooter", "bike_id": "23be3625f5bfaff2ef0890ccea765eab", "lat": 38.911128833333336, "lon": -77.03741483333333, "rental_uris": {"android": "https://dc.lft.to/lastmile_qr_scan", "ios": "https://dc.lft.to/lastmile_qr_scan"}, "is_disabled": 0, "fusion_lat": 0.0, "name": "23be3625f5bfaff2ef0890ccea765eab", "fusion_lon": 0.0}, {"is_reserved": 0, "type": "electric_scooter", "bike_id": "6c47132ddf9761527eb7cca1c8ff2c10", "lat": 38.8973615, "lon": -77.00750083333334, "rental_uris": {"android": "https://dc.lft.to/lastmile_qr_scan", "ios": "https://dc.lft.to/lastmile_qr_scan"}, "is_disabled": 0, "fusion_lat": 0.0, "name": "6c47132ddf9761527eb7cca1c8ff2c10", "fusion_lon": 0.0}, {"is_reserved": 0, "type": "electric_scooter", "bike_id": "7b9d5667a7b9d5d36a047c21f06c107a", "lat": 38.894233666666665, "lon": -77.05596866666667, "rental_uris": {"android": "https://dc.lft.to/lastmile_qr_scan", "ios": "https://dc.lft.to/lastmile_qr_scan"}, "is_disabled": 0, "fusion_lat": 0.0, "name": "7b9d5667a7b9d5d36a047c21f06c107a", "fusion_lon": 0.0}, {"is_reserved": 0, "type": "electric_scooter", "bike_id": "82e8a484e9ac54bfc896ba4e12ccdb6b", "lat": 38.93247683333333, "lon": -77.0327735, "rental_uris": {"android": "https://dc.lft.to/lastmile_qr_scan", "ios": "https://dc.lft.to/lastmile_qr_scan"}, "is_disabled": 0, "fusion_lat": 0.0, "name": "82e8a484e9ac54bfc896ba4e12ccdb6b", "fusion_lon": 0.0}, {"is_reserved": 0, "type": "electric_scooter", "bike_id": "454fd5a3e5652fd9ea5c74496214e226", "lat": 38.889298333333336, "lon": -76.9937225, "rental_uris": {"android": "https://dc.lft.to/lastmile_qr_scan", "ios": "https://dc.lft.to/lastmile_qr_scan"}, "is_disabled": 0, "fusion_lat": 0.0, "name": "454fd5a3e5652fd9ea5c74496214e226", "fusion_lon": 0.0}, {"is_reserved": 0, "type": "electric_scooter", "bike_id": "4851a4f42beecd58df0c45cf4d6b9175", "lat": 38.89784266666667, "lon": -77.0501295, "rental_uris": {"android": "https://dc.lft.to/lastmile_qr_scan", "ios": "https://dc.lft.to/lastmile_qr_scan"}, "is_disabled": 0, "fusion_lat": 0.0, "name": "4851a4f42beecd58df0c45cf4d6b9175", "fusion_lon": 0.0}, {"is_reserved": 0, "type": "electric_scooter", "bike_id": "35c7513c7cf6e7a60656c8e9e135fcb8", "lat": 38.89502, "lon": -76.93478366666666, "rental_uris": {"android": "https://dc.lft.to/lastmile_qr_scan", "ios": "https://dc.lft.to/lastmile_qr_scan"}, "is_disabled": 0, "fusion_lat": 0.0, "name": "35c7513c7cf6e7a60656c8e9e135fcb8", "fusion_lon": 0.0}, {"is_reserved": 0, "type": "electric_scooter", "bike_id": "cded16a5a3747d3a18d481be42cc74a5", "lat": 38.883617, "lon": -76.941535, "rental_uris": {"android": "https://dc.lft.to/lastmile_qr_scan", "ios": "https://dc.lft.to/lastmile_qr_scan"}, "is_disabled": 0, "fusion_lat": 0.0, "name": "cded16a5a3747d3a18d481be42cc74a5", "fusion_lon": 0.0}, {"is_reserved": 0, "type": "electric_scooter", "bike_id": "8f116904fa2e8b516ad3ba17fc372cee", "lat": 38.9039775, "lon": -77.04710333333334, "rental_uris": {"android": "https://dc.lft.to/lastmile_qr_scan", "ios": "https://dc.lft.to/lastmile_qr_scan"}, "is_disabled": 0, "fusion_lat": 0.0, "name": "8f116904fa2e8b516ad3ba17fc372cee", "fusion_lon": 0.0}, {"is_reserved": 0, "type": "electric_scooter", "bike_id": "a09102dfa0d7054ce6c05e21426a428b", "lat": 38.86688633333333, "lon": -76.97896866666666, "rental_uris": {"android": "https://dc.lft.to/lastmile_qr_scan", "ios": "https://dc.lft.to/lastmile_qr_scan"}, "is_disabled": 0, "fusion_lat": 0.0, "name": "a09102dfa0d7054ce6c05e21426a428b", "fusion_lon": 0.0}, {"is_reserved": 0, "type": "electric_scooter", "bike_id": "72ff772aadacf0c2c9cab0e74b964dbb", "lat": 38.89251733333333, "lon": -76.92764766666667, "rental_uris": {"android": "https://dc.lft.to/lastmile_qr_scan", "ios": "https://dc.lft.to/lastmile_qr_scan"}, "is_disabled": 0, "fusion_lat": 0.0, "name": "72ff772aadacf0c2c9cab0e74b964dbb", "fusion_lon": 0.0}, {"is_reserved": 0, "type": "electric_scooter", "bike_id": "cf1b964aec579122852bb1087a27d0b9", "lat": 38.8945685, "lon": -77.0190165, "rental_uris": {"android": "https://dc.lft.to/lastmile_qr_scan", "ios": "https://dc.lft.to/lastmile_qr_scan"}, "is_disabled": 0, "fusion_lat": 0.0, "name": "cf1b964aec579122852bb1087a27d0b9", "fusion_lon": 0.0}, {"is_reserved": 0, "type": "electric_scooter", "bike_id": "8ec87a87a6e20eab9d5635c9ae2acf99", "lat": 38.926554833333334, "lon": -77.03704716666667, "rental_uris": {"android": "https://dc.lft.to/lastmile_qr_scan", "ios": "https://dc.lft.to/lastmile_qr_scan"}, "is_disabled": 0, "fusion_lat": 0.0, "name": "8ec87a87a6e20eab9d5635c9ae2acf99", "fusion_lon": 0.0}, {"is_reserved": 0, "type": "electric_bike", "bike_id": "f63eb09fb6752c037c60e250700d634f", "lat": 38.92343566666667, "lon": -77.053582, "rental_uris": {"android": "https://dc.lft.to/lastmile_qr_scan", "ios": "https://dc.lft.to/lastmile_qr_scan"}, "is_disabled": 0, "fusion_lat": 0.0, "name": "f63eb09fb6752c037c60e250700d634f", "fusion_lon": 0.0}, {"is_reserved": 0, "type": "electric_scooter", "bike_id": "180e8913e4555f7638547a3478c7bba8", "lat": 38.922165166666666, "lon": -77.02286366666667, "rental_uris": {"android": "https://dc.lft.to/lastmile_qr_scan", "ios": "https://dc.lft.to/lastmile_qr_scan"}, "is_disabled": 0, "fusion_lat": 0.0, "name": "180e8913e4555f7638547a3478c7bba8", "fusion_lon": 0.0}, {"is_reserved": 0, "type": "electric_bike", "bike_id": "e35f1cf7f06d0dfecc3e9140f265c4be", "lat": 38.8037915, "lon": -76.988118, "rental_uris": {"android": "https://dc.lft.to/lastmile_qr_scan", "ios": "https://dc.lft.to/lastmile_qr_scan"}, "is_disabled": 0, "fusion_lat": 0.0, "name": "e35f1cf7f06d0dfecc3e9140f265c4be", "fusion_lon": 0.0}, {"is_reserved": 0, "type": "electric_scooter", "bike_id": "ec19673e7a52926284166d8bf89064fe", "lat": 38.9025295, "lon": -77.039587, "rental_uris": {"android": "https://dc.lft.to/lastmile_qr_scan", "ios": "https://dc.lft.to/lastmile_qr_scan"}, "is_disabled": 0, "fusion_lat": 0.0, "name": "ec19673e7a52926284166d8bf89064fe", "fusion_lon": 0.0}, {"is_reserved": 0, "type": "electric_scooter", "bike_id": "183f11afd375013eb76c5edb7884eb6f", "lat": 38.901816333333336, "lon": -77.00117966666667, "rental_uris": {"android": "https://dc.lft.to/lastmile_qr_scan", "ios": "https://dc.lft.to/lastmile_qr_scan"}, "is_disabled": 0, "fusion_lat": 0.0, "name": "183f11afd375013eb76c5edb7884eb6f", "fusion_lon": 0.0}, {"is_reserved": 0, "type": "electric_scooter", "bike_id": "52a104062e67173103619876a54b5439", "lat": 38.91706816666667, "lon": -77.039004, "rental_uris": {"android": "https://dc.lft.to/lastmile_qr_scan", "ios": "https://dc.lft.to/lastmile_qr_scan"}, "is_disabled": 0, "fusion_lat": 0.0, "name": "52a104062e67173103619876a54b5439", "fusion_lon": 0.0}, {"is_reserved": 0, "type": "electric_bike", "bike_id": "75dfbccc11bd94b41ae7da991eab82f1", "lat": 38.840317166666665, "lon": -76.976174, "rental_uris": {"android": "https://dc.lft.to/lastmile_qr_scan", "ios": "https://dc.lft.to/lastmile_qr_scan"}, "is_disabled": 0, "fusion_lat": 0.0, "name": "75dfbccc11bd94b41ae7da991eab82f1", "fusion_lon": 0.0}, {"is_reserved": 0, "type": "electric_scooter", "bike_id": "a69c335f9e2865d86ace4981432346b9", "lat": 38.89215933333333, "lon": -77.02618383333333, "rental_uris": {"android": "https://dc.lft.to/lastmile_qr_scan", "ios": "https://dc.lft.to/lastmile_qr_scan"}, "is_disabled": 0, "fusion_lat": 0.0, "name": "a69c335f9e2865d86ace4981432346b9", "fusion_lon": 0.0}, {"is_reserved": 0, "type": "electric_scooter", "bike_id": "061aca4922a5c1fdc6bf4bf898dad3b2", "lat": 38.90254133333333, "lon": -77.02720833333333, "rental_uris": {"android": "https://dc.lft.to/lastmile_qr_scan", "ios": "https://dc.lft.to/lastmile_qr_scan"}, "is_disabled": 0, "fusion_lat": 0.0, "name": "061aca4922a5c1fdc6bf4bf898dad3b2", "fusion_lon": 0.0}, {"is_reserved": 0, "type": "electric_scooter", "bike_id": "a2e11ffb5ecf759eea5ea6a888284d08", "lat": 38.931301833333336, "lon": -77.0234355, "rental_uris": {"android": "https://dc.lft.to/lastmile_qr_scan", "ios": "https://dc.lft.to/lastmile_qr_scan"}, "is_disabled": 0, "fusion_lat": 0.0, "name": "a2e11ffb5ecf759eea5ea6a888284d08", "fusion_lon": 0.0}, {"is_reserved": 0, "type": "electric_scooter", "bike_id": "65e7667e58bb26e78562c357fd6eddf2", "lat": 38.93660233333333, "lon": -77.054925, "rental_uris": {"android": "https://dc.lft.to/lastmile_qr_scan", "ios": "https://dc.lft.to/lastmile_qr_scan"}, "is_disabled": 0, "fusion_lat": 0.0, "name": "65e7667e58bb26e78562c357fd6eddf2", "fusion_lon": 0.0}, {"is_reserved": 0, "type": "electric_scooter", "bike_id": "5cbf684063e4db6c431b20a9e83ab83c", "lat": 38.90501966666667, "lon": -77.02946216666666, "rental_uris": {"android": "https://dc.lft.to/lastmile_qr_scan", "ios": "https://dc.lft.to/lastmile_qr_scan"}, "is_disabled": 0, "fusion_lat": 0.0, "name": "5cbf684063e4db6c431b20a9e83ab83c", "fusion_lon": 0.0}, {"is_reserved": 0, "type": "electric_scooter", "bike_id": "eb5bf18083d0a5a49e91872d63ebd317", "lat": 38.935030833333336, "lon": -77.02004783333334, "rental_uris": {"android": "https://dc.lft.to/lastmile_qr_scan", "ios": "https://dc.lft.to/lastmile_qr_scan"}, "is_disabled": 0, "fusion_lat": 0.0, "name": "eb5bf18083d0a5a49e91872d63ebd317", "fusion_lon": 0.0}, {"is_reserved": 0, "type": "electric_scooter", "bike_id": "0be5388d546e1e5069461bfda975bb5a", "lat": 38.895702, "lon": -77.02977066666666, "rental_uris": {"android": "https://dc.lft.to/lastmile_qr_scan", "ios": "https://dc.lft.to/lastmile_qr_scan"}, "is_disabled": 0, "fusion_lat": 0.0, "name": "0be5388d546e1e5069461bfda975bb5a", "fusion_lon": 0.0}, {"is_reserved": 0, "type": "electric_scooter", "bike_id": "09a8cf74d2a1b2379e15fafa38d96f88", "lat": 38.9193585, "lon": -77.04170133333334, "rental_uris": {"android": "https://dc.lft.to/lastmile_qr_scan", "ios": "https://dc.lft.to/lastmile_qr_scan"}, "is_disabled": 0, "fusion_lat": 0.0, "name": "09a8cf74d2a1b2379e15fafa38d96f88", "fusion_lon": 0.0}, {"is_reserved": 0, "type": "electric_scooter", "bike_id": "881ee3cd70f237be2608bcdbc4d8fa8f", "lat": 38.919272166666666, "lon": -77.0342445, "rental_uris": {"android": "https://dc.lft.to/lastmile_qr_scan", "ios": "https://dc.lft.to/lastmile_qr_scan"}, "is_disabled": 0, "fusion_lat": 0.0, "name": "881ee3cd70f237be2608bcdbc4d8fa8f", "fusion_lon": 0.0}, {"is_reserved": 0, "type": "electric_scooter", "bike_id": "4dbaed17dae88680655ee3ec340cbdaa", "lat": 38.920594333333334, "lon": -77.02509816666667, "rental_uris": {"android": "https://dc.lft.to/lastmile_qr_scan", "ios": "https://dc.lft.to/lastmile_qr_scan"}, "is_disabled": 0, "fusion_lat": 0.0, "name": "4dbaed17dae88680655ee3ec340cbdaa", "fusion_lon": 0.0}, {"is_reserved": 0, "type": "electric_scooter", "bike_id": "59b0a9ea8f119f8e1c17b7be5ffb786b", "lat": 38.929732666666666, "lon": -77.03250483333333, "rental_uris": {"android": "https://dc.lft.to/lastmile_qr_scan", "ios": "https://dc.lft.to/lastmile_qr_scan"}, "is_disabled": 0, "fusion_lat": 0.0, "name": "59b0a9ea8f119f8e1c17b7be5ffb786b", "fusion_lon": 0.0}, {"is_reserved": 0, "type": "electric_bike", "bike_id": "00cd3105dbdd042b992702a16c3af6ba", "lat": 38.838080166666664, "lon": -77.09522083333333, "rental_uris": {"android": "https://dc.lft.to/lastmile_qr_scan", "ios": "https://dc.lft.to/lastmile_qr_scan"}, "is_disabled": 0, "fusion_lat": 0.0, "name": "00cd3105dbdd042b992702a16c3af6ba", "fusion_lon": 0.0}, {"is_reserved": 0, "type": "electric_scooter", "bike_id": "9dd6c449d204c5ece0fc69bd360824f4", "lat": 38.89324033333333, "lon": -77.029644, "rental_uris": {"android": "https://dc.lft.to/lastmile_qr_scan", "ios": "https://dc.lft.to/lastmile_qr_scan"}, "is_disabled": 0, "fusion_lat": 0.0, "name": "9dd6c449d204c5ece0fc69bd360824f4", "fusion_lon": 0.0}, {"is_reserved": 0, "type": "electric_scooter", "bike_id": "6085098b4a6c5201272830ddd3edd2a0", "lat": 38.91413883333333, "lon": -77.0260765, "rental_uris": {"android": "https://dc.lft.to/lastmile_qr_scan", "ios": "https://dc.lft.to/lastmile_qr_scan"}, "is_disabled": 0, "fusion_lat": 0.0, "name": "6085098b4a6c5201272830ddd3edd2a0", "fusion_lon": 0.0}, {"is_reserved": 0, "type": "electric_scooter", "bike_id": "f546521a2c258c88ddb2aa752f2ff977", "lat": 38.90545, "lon": -77.04747816666666, "rental_uris": {"android": "https://dc.lft.to/lastmile_qr_scan", "ios": "https://dc.lft.to/lastmile_qr_scan"}, "is_disabled": 0, "fusion_lat": 0.0, "name": "f546521a2c258c88ddb2aa752f2ff977", "fusion_lon": 0.0}, {"is_reserved": 0, "type": "electric_scooter", "bike_id": "7937772a8f522884901289b3f897eae8", "lat": 38.906435333333334, "lon": -77.04875416666667, "rental_uris": {"android": "https://dc.lft.to/lastmile_qr_scan", "ios": "https://dc.lft.to/lastmile_qr_scan"}, "is_disabled": 0, "fusion_lat": 0.0, "name": "7937772a8f522884901289b3f897eae8", "fusion_lon": 0.0}, {"is_reserved": 0, "type": "electric_scooter", "bike_id": "372be6f110674f9b502e9ca4513f2695", "lat": 38.8838315, "lon": -76.93037066666666, "rental_uris": {"android": "https://dc.lft.to/lastmile_qr_scan", "ios": "https://dc.lft.to/lastmile_qr_scan"}, "is_disabled": 0, "fusion_lat": 0.0, "name": "372be6f110674f9b502e9ca4513f2695", "fusion_lon": 0.0}, {"is_reserved": 0, "type": "electric_scooter", "bike_id": "07853137b8b619091ab28d9a4a187a71", "lat": 38.932080166666665, "lon": -77.03901333333333, "rental_uris": {"android": "https://dc.lft.to/lastmile_qr_scan", "ios": "https://dc.lft.to/lastmile_qr_scan"}, "is_disabled": 0, "fusion_lat": 0.0, "name": "07853137b8b619091ab28d9a4a187a71", "fusion_lon": 0.0}, {"is_reserved": 0, "type": "electric_scooter", "bike_id": "73602469494947c534f7171a02b62f38", "lat": 38.905926666666666, "lon": -76.9504865, "rental_uris": {"android": "https://dc.lft.to/lastmile_qr_scan", "ios": "https://dc.lft.to/lastmile_qr_scan"}, "is_disabled": 0, "fusion_lat": 0.0, "name": "73602469494947c534f7171a02b62f38", "fusion_lon": 0.0}, {"is_reserved": 0, "type": "electric_scooter", "bike_id": "d1a3c9395ee054ec504b882e3c2614c2", "lat": 38.9064595, "lon": -77.01135016666667, "rental_uris": {"android": "https://dc.lft.to/lastmile_qr_scan", "ios": "https://dc.lft.to/lastmile_qr_scan"}, "is_disabled": 0, "fusion_lat": 0.0, "name": "d1a3c9395ee054ec504b882e3c2614c2", "fusion_lon": 0.0}, {"is_reserved": 0, "type": "electric_bike", "bike_id": "af3bf9d9b92fed629a6c8bd1486677a4", "lat": 38.894542, "lon": -77.19135316666667, "rental_uris": {"android": "https://dc.lft.to/lastmile_qr_scan", "ios": "https://dc.lft.to/lastmile_qr_scan"}, "is_disabled": 0, "fusion_lat": 0.0, "name": "af3bf9d9b92fed629a6c8bd1486677a4", "fusion_lon": 0.0}, {"is_reserved": 0, "type": "electric_scooter", "bike_id": "dfbb0e18e6073dcccba1baa3d81ca0a3", "lat": 38.944369, "lon": -77.06353216666666, "rental_uris": {"android": "https://dc.lft.to/lastmile_qr_scan", "ios": "https://dc.lft.to/lastmile_qr_scan"}, "is_disabled": 0, "fusion_lat": 0.0, "name": "dfbb0e18e6073dcccba1baa3d81ca0a3", "fusion_lon": 0.0}, {"is_reserved": 0, "type": "electric_scooter", "bike_id": "dacc7e8b6951c7e81f9bb666f3c8ed61", "lat": 38.908364166666665, "lon": -77.04345416666666, "rental_uris": {"android": "https://dc.lft.to/lastmile_qr_scan", "ios": "https://dc.lft.to/lastmile_qr_scan"}, "is_disabled": 0, "fusion_lat": 0.0, "name": "dacc7e8b6951c7e81f9bb666f3c8ed61", "fusion_lon": 0.0}, {"is_reserved": 0, "type": "electric_scooter", "bike_id": "3b022735e85da2e3808d324a59a97e8f", "lat": 38.920487666666666, "lon": -77.0417805, "rental_uris": {"android": "https://dc.lft.to/lastmile_qr_scan", "ios": "https://dc.lft.to/lastmile_qr_scan"}, "is_disabled": 0, "fusion_lat": 0.0, "name": "3b022735e85da2e3808d324a59a97e8f", "fusion_lon": 0.0}, {"is_reserved": 0, "type": "electric_scooter", "bike_id": "15688db096ed0c340c448cb7640a199b", "lat": 38.90521283333333, "lon": -77.04165833333333, "rental_uris": {"android": "https://dc.lft.to/lastmile_qr_scan", "ios": "https://dc.lft.to/lastmile_qr_scan"}, "is_disabled": 0, "fusion_lat": 0.0, "name": "15688db096ed0c340c448cb7640a199b", "fusion_lon": 0.0}, {"is_reserved": 0, "type": "electric_scooter", "bike_id": "36861245850dfcac8b7fbffea800ace6", "lat": 38.933012833333336, "lon": -77.021393, "rental_uris": {"android": "https://dc.lft.to/lastmile_qr_scan", "ios": "https://dc.lft.to/lastmile_qr_scan"}, "is_disabled": 0, "fusion_lat": 0.0, "name": "36861245850dfcac8b7fbffea800ace6", "fusion_lon": 0.0}, {"is_reserved": 0, "type": "electric_bike", "bike_id": "afc835b62c10c02b3625c3f5a3616a98", "lat": 39.085959, "lon": -77.12269933333333, "rental_uris": {"android": "https://dc.lft.to/lastmile_qr_scan", "ios": "https://dc.lft.to/lastmile_qr_scan"}, "is_disabled": 0, "fusion_lat": 0.0, "name": "afc835b62c10c02b3625c3f5a3616a98", "fusion_lon": 0.0}, {"is_reserved": 0, "type": "electric_scooter", "bike_id": "1c8bed153a8429eb4dedbe52f599ce40", "lat": 38.9155035, "lon": -77.0141485, "rental_uris": {"android": "https://dc.lft.to/lastmile_qr_scan", "ios": "https://dc.lft.to/lastmile_qr_scan"}, "is_disabled": 0, "fusion_lat": 0.0, "name": "1c8bed153a8429eb4dedbe52f599ce40", "fusion_lon": 0.0}, {"is_reserved": 0, "type": "electric_scooter", "bike_id": "97fb4f8087cddd40e780a0d359d6b774", "lat": 38.90768716666667, "lon": -77.04517566666667, "rental_uris": {"android": "https://dc.lft.to/lastmile_qr_scan", "ios": "https://dc.lft.to/lastmile_qr_scan"}, "is_disabled": 0, "fusion_lat": 0.0, "name": "97fb4f8087cddd40e780a0d359d6b774", "fusion_lon": 0.0}, {"is_reserved": 0, "type": "electric_scooter", "bike_id": "e436b1c051072c88afe7ad0e202a995d", "lat": 38.917311833333336, "lon": -77.03640033333333, "rental_uris": {"android": "https://dc.lft.to/lastmile_qr_scan", "ios": "https://dc.lft.to/lastmile_qr_scan"}, "is_disabled": 0, "fusion_lat": 0.0, "name": "e436b1c051072c88afe7ad0e202a995d", "fusion_lon": 0.0}, {"is_reserved": 0, "type": "electric_scooter", "bike_id": "0a53962566e56667d789a39760f44a17", "lat": 38.9169835, "lon": -77.03162466666667, "rental_uris": {"android": "https://dc.lft.to/lastmile_qr_scan", "ios": "https://dc.lft.to/lastmile_qr_scan"}, "is_disabled": 0, "fusion_lat": 0.0, "name": "0a53962566e56667d789a39760f44a17", "fusion_lon": 0.0}, {"is_reserved": 0, "type": "electric_scooter", "bike_id": "abb0ec3f2e46457a83e8b2f061706338", "lat": 38.8995765, "lon": -77.031696, "rental_uris": {"android": "https://dc.lft.to/lastmile_qr_scan", "ios": "https://dc.lft.to/lastmile_qr_scan"}, "is_disabled": 0, "fusion_lat": 0.0, "name": "abb0ec3f2e46457a83e8b2f061706338", "fusion_lon": 0.0}, {"is_reserved": 0, "type": "electric_scooter", "bike_id": "fd903cc17b8edd5c964e38057286e318", "lat": 38.9246015, "lon": -77.0088995, "rental_uris": {"android": "https://dc.lft.to/lastmile_qr_scan", "ios": "https://dc.lft.to/lastmile_qr_scan"}, "is_disabled": 0, "fusion_lat": 0.0, "name": "fd903cc17b8edd5c964e38057286e318", "fusion_lon": 0.0}, {"is_reserved": 0, "type": "electric_scooter", "bike_id": "4697a729e92a1d23a88d01a282da79a1", "lat": 38.87718266666667, "lon": -77.0175675, "rental_uris": {"android": "https://dc.lft.to/lastmile_qr_scan", "ios": "https://dc.lft.to/lastmile_qr_scan"}, "is_disabled": 0, "fusion_lat": 0.0, "name": "4697a729e92a1d23a88d01a282da79a1", "fusion_lon": 0.0}, {"is_reserved": 0, "type": "electric_scooter", "bike_id": "256dd62108582650ab0415d980fea5c3", "lat": 38.9249155, "lon": -77.052131, "rental_uris": {"android": "https://dc.lft.to/lastmile_qr_scan", "ios": "https://dc.lft.to/lastmile_qr_scan"}, "is_disabled": 0, "fusion_lat": 0.0, "name": "256dd62108582650ab0415d980fea5c3", "fusion_lon": 0.0}, {"is_reserved": 0, "type": "electric_scooter", "bike_id": "7d7ec174848fffa0f596a3e7d69e57ba", "lat": 38.90672983333333, "lon": -77.07505716666667, "rental_uris": {"android": "https://dc.lft.to/lastmile_qr_scan", "ios": "https://dc.lft.to/lastmile_qr_scan"}, "is_disabled": 0, "fusion_lat": 0.0, "name": "7d7ec174848fffa0f596a3e7d69e57ba", "fusion_lon": 0.0}, {"is_reserved": 0, "type": "electric_scooter", "bike_id": "f7fd8608c67c25b6d3748b6f62bc63b4", "lat": 38.9163195, "lon": -77.02256116666666, "rental_uris": {"android": "https://dc.lft.to/lastmile_qr_scan", "ios": "https://dc.lft.to/lastmile_qr_scan"}, "is_disabled": 0, "fusion_lat": 0.0, "name": "f7fd8608c67c25b6d3748b6f62bc63b4", "fusion_lon": 0.0}, {"is_reserved": 0, "type": "electric_scooter", "bike_id": "7516ca2fc109dac614f317331f96c9d3", "lat": 38.90534133333333, "lon": -77.04166416666666, "rental_uris": {"android": "https://dc.lft.to/lastmile_qr_scan", "ios": "https://dc.lft.to/lastmile_qr_scan"}, "is_disabled": 0, "fusion_lat": 0.0, "name": "7516ca2fc109dac614f317331f96c9d3", "fusion_lon": 0.0}, {"is_reserved": 0, "type": "electric_scooter", "bike_id": "e3166a68d03a0339cce245c43fb7fafb", "lat": 38.893442666666665, "lon": -77.01171216666667, "rental_uris": {"android": "https://dc.lft.to/lastmile_qr_scan", "ios": "https://dc.lft.to/lastmile_qr_scan"}, "is_disabled": 0, "fusion_lat": 0.0, "name": "e3166a68d03a0339cce245c43fb7fafb", "fusion_lon": 0.0}, {"is_reserved": 0, "type": "electric_scooter", "bike_id": "0178948b13be5f954a6655b1ee28fb37", "lat": 38.89224683333333, "lon": -77.04158483333333, "rental_uris": {"android": "https://dc.lft.to/lastmile_qr_scan", "ios": "https://dc.lft.to/lastmile_qr_scan"}, "is_disabled": 0, "fusion_lat": 0.0, "name": "0178948b13be5f954a6655b1ee28fb37", "fusion_lon": 0.0}, {"is_reserved": 0, "type": "electric_scooter", "bike_id": "305263d839050a702f6d284ed516b70d", "lat": 38.94185133333333, "lon": -77.02345683333333, "rental_uris": {"android": "https://dc.lft.to/lastmile_qr_scan", "ios": "https://dc.lft.to/lastmile_qr_scan"}, "is_disabled": 0, "fusion_lat": 0.0, "name": "305263d839050a702f6d284ed516b70d", "fusion_lon": 0.0}, {"is_reserved": 0, "type": "electric_scooter", "bike_id": "3e5132e6006c52728b93d1e5e70def6e", "lat": 38.9324395, "lon": -76.99707166666667, "rental_uris": {"android": "https://dc.lft.to/lastmile_qr_scan", "ios": "https://dc.lft.to/lastmile_qr_scan"}, "is_disabled": 0, "fusion_lat": 0.0, "name": "3e5132e6006c52728b93d1e5e70def6e", "fusion_lon": 0.0}, {"is_reserved": 0, "type": "electric_scooter", "bike_id": "f99ff69c238db807b092f7687bc185fe", "lat": 38.864459333333336, "lon": -76.9911555, "rental_uris": {"android": "https://dc.lft.to/lastmile_qr_scan", "ios": "https://dc.lft.to/lastmile_qr_scan"}, "is_disabled": 0, "fusion_lat": 0.0, "name": "f99ff69c238db807b092f7687bc185fe", "fusion_lon": 0.0}, {"is_reserved": 0, "type": "electric_bike", "bike_id": "5ec749588472c52fc4baa25cea85eab7", "lat": 39.094438833333335, "lon": -77.134538, "rental_uris": {"android": "https://dc.lft.to/lastmile_qr_scan", "ios": "https://dc.lft.to/lastmile_qr_scan"}, "is_disabled": 0, "fusion_lat": 0.0, "name": "5ec749588472c52fc4baa25cea85eab7", "fusion_lon": 0.0}, {"is_reserved": 0, "type": "electric_scooter", "bike_id": "0c1a4017b2eb01a0c7e3abdb970f4810", "lat": 38.89707383333333, "lon": -76.99117833333334, "rental_uris": {"android": "https://dc.lft.to/lastmile_qr_scan", "ios": "https://dc.lft.to/lastmile_qr_scan"}, "is_disabled": 0, "fusion_lat": 0.0, "name": "0c1a4017b2eb01a0c7e3abdb970f4810", "fusion_lon": 0.0}, {"is_reserved": 0, "type": "electric_scooter", "bike_id": "26c88129885f83c6734302f8a397e29e", "lat": 38.91488866666667, "lon": -77.0199505, "rental_uris": {"android": "https://dc.lft.to/lastmile_qr_scan", "ios": "https://dc.lft.to/lastmile_qr_scan"}, "is_disabled": 0, "fusion_lat": 0.0, "name": "26c88129885f83c6734302f8a397e29e", "fusion_lon": 0.0}, {"is_reserved": 0, "type": "electric_scooter", "bike_id": "16ae7be5bddcac5a50f5cfc283609233", "lat": 38.93637583333334, "lon": -77.060084, "rental_uris": {"android": "https://dc.lft.to/lastmile_qr_scan", "ios": "https://dc.lft.to/lastmile_qr_scan"}, "is_disabled": 0, "fusion_lat": 0.0, "name": "16ae7be5bddcac5a50f5cfc283609233", "fusion_lon": 0.0}, {"is_reserved": 0, "type": "electric_scooter", "bike_id": "12e1bd1dc3c7db4acf18b874d3d63d47", "lat": 38.923715, "lon": -77.08057433333333, "rental_uris": {"android": "https://dc.lft.to/lastmile_qr_scan", "ios": "https://dc.lft.to/lastmile_qr_scan"}, "is_disabled": 0, "fusion_lat": 0.0, "name": "12e1bd1dc3c7db4acf18b874d3d63d47", "fusion_lon": 0.0}, {"is_reserved": 0, "type": "electric_scooter", "bike_id": "ddeb0bc53545910397311cb9fbe2220b", "lat": 38.91703416666667, "lon": -77.01070183333333, "rental_uris": {"android": "https://dc.lft.to/lastmile_qr_scan", "ios": "https://dc.lft.to/lastmile_qr_scan"}, "is_disabled": 0, "fusion_lat": 0.0, "name": "ddeb0bc53545910397311cb9fbe2220b", "fusion_lon": 0.0}, {"is_reserved": 0, "type": "electric_scooter", "bike_id": "8d61dde79874a9d0fbb8b7dd2999ac42", "lat": 38.972947166666664, "lon": -77.03627816666666, "rental_uris": {"android": "https://dc.lft.to/lastmile_qr_scan", "ios": "https://dc.lft.to/lastmile_qr_scan"}, "is_disabled": 0, "fusion_lat": 0.0, "name": "8d61dde79874a9d0fbb8b7dd2999ac42", "fusion_lon": 0.0}, {"is_reserved": 0, "type": "electric_scooter", "bike_id": "108b3f9f1014f5c0b899ba463563130c", "lat": 38.924936, "lon": -77.052176, "rental_uris": {"android": "https://dc.lft.to/lastmile_qr_scan", "ios": "https://dc.lft.to/lastmile_qr_scan"}, "is_disabled": 0, "fusion_lat": 0.0, "name": "108b3f9f1014f5c0b899ba463563130c", "fusion_lon": 0.0}, {"is_reserved": 0, "type": "electric_scooter", "bike_id": "d3551c7e95cce1d44af34bd5269f8b50", "lat": 38.9171585, "lon": -77.0385565, "rental_uris": {"android": "https://dc.lft.to/lastmile_qr_scan", "ios": "https://dc.lft.to/lastmile_qr_scan"}, "is_disabled": 0, "fusion_lat": 0.0, "name": "d3551c7e95cce1d44af34bd5269f8b50", "fusion_lon": 0.0}, {"is_reserved": 0, "type": "electric_scooter", "bike_id": "3c7ee70dc84f9f70b1bbb640a76228da", "lat": 38.92484666666667, "lon": -77.02814483333333, "rental_uris": {"android": "https://dc.lft.to/lastmile_qr_scan", "ios": "https://dc.lft.to/lastmile_qr_scan"}, "is_disabled": 0, "fusion_lat": 0.0, "name": "3c7ee70dc84f9f70b1bbb640a76228da", "fusion_lon": 0.0}, {"is_reserved": 0, "type": "electric_scooter", "bike_id": "9b947740f5a4c3432e5842a6b864cf2a", "lat": 38.91419416666667, "lon": -77.0179965, "rental_uris": {"android": "https://dc.lft.to/lastmile_qr_scan", "ios": "https://dc.lft.to/lastmile_qr_scan"}, "is_disabled": 0, "fusion_lat": 0.0, "name": "9b947740f5a4c3432e5842a6b864cf2a", "fusion_lon": 0.0}, {"is_reserved": 0, "type": "electric_bike", "bike_id": "41c86746e77385467f0935d4e19056a3", "lat": 38.920295, "lon": -77.04187266666666, "rental_uris": {"android": "https://dc.lft.to/lastmile_qr_scan", "ios": "https://dc.lft.to/lastmile_qr_scan"}, "is_disabled": 0, "fusion_lat": 0.0, "name": "41c86746e77385467f0935d4e19056a3", "fusion_lon": 0.0}, {"is_reserved": 0, "type": "electric_scooter", "bike_id": "cdf1f40699335c34ce065cb45b060eb2", "lat": 38.91925616666666, "lon": -77.03420933333334, "rental_uris": {"android": "https://dc.lft.to/lastmile_qr_scan", "ios": "https://dc.lft.to/lastmile_qr_scan"}, "is_disabled": 0, "fusion_lat": 0.0, "name": "cdf1f40699335c34ce065cb45b060eb2", "fusion_lon": 0.0}, {"is_reserved": 0, "type": "electric_scooter", "bike_id": "b0579e955c0f48f42f167f9bd7adb6fe", "lat": 38.92471616666667, "lon": -77.02987733333333, "rental_uris": {"android": "https://dc.lft.to/lastmile_qr_scan", "ios": "https://dc.lft.to/lastmile_qr_scan"}, "is_disabled": 0, "fusion_lat": 0.0, "name": "b0579e955c0f48f42f167f9bd7adb6fe", "fusion_lon": 0.0}, {"is_reserved": 0, "type": "electric_scooter", "bike_id": "6a4fecfb7d101ecfa3a08366466edd82", "lat": 38.93024583333333, "lon": -77.03783066666666, "rental_uris": {"android": "https://dc.lft.to/lastmile_qr_scan", "ios": "https://dc.lft.to/lastmile_qr_scan"}, "is_disabled": 0, "fusion_lat": 0.0, "name": "6a4fecfb7d101ecfa3a08366466edd82", "fusion_lon": 0.0}, {"is_reserved": 0, "type": "electric_scooter", "bike_id": "430db57431cf18cd0745609e7ca721c7", "lat": 38.90439883333333, "lon": -77.03183666666666, "rental_uris": {"android": "https://dc.lft.to/lastmile_qr_scan", "ios": "https://dc.lft.to/lastmile_qr_scan"}, "is_disabled": 0, "fusion_lat": 0.0, "name": "430db57431cf18cd0745609e7ca721c7", "fusion_lon": 0.0}, {"is_reserved": 0, "type": "electric_scooter", "bike_id": "a9c9d0d6f9749da786f83be180beaef3", "lat": 38.90666266666667, "lon": -77.02709466666667, "rental_uris": {"android": "https://dc.lft.to/lastmile_qr_scan", "ios": "https://dc.lft.to/lastmile_qr_scan"}, "is_disabled": 0, "fusion_lat": 0.0, "name": "a9c9d0d6f9749da786f83be180beaef3", "fusion_lon": 0.0}, {"is_reserved": 0, "type": "electric_scooter", "bike_id": "0e67fc16a577b992bb010769f9f38e0a", "lat": 38.89743933333333, "lon": -76.997664, "rental_uris": {"android": "https://dc.lft.to/lastmile_qr_scan", "ios": "https://dc.lft.to/lastmile_qr_scan"}, "is_disabled": 0, "fusion_lat": 0.0, "name": "0e67fc16a577b992bb010769f9f38e0a", "fusion_lon": 0.0}, {"is_reserved": 0, "type": "electric_bike", "bike_id": "3c8ad0ef9cebd20b3667926099523b27", "lat": 38.9466255, "lon": -76.99335733333334, "rental_uris": {"android": "https://dc.lft.to/lastmile_qr_scan", "ios": "https://dc.lft.to/lastmile_qr_scan"}, "is_disabled": 0, "fusion_lat": 0.0, "name": "3c8ad0ef9cebd20b3667926099523b27", "fusion_lon": 0.0}, {"is_reserved": 0, "type": "electric_scooter", "bike_id": "f5a67e69adb9dc5ab2633554a2e4f2cd", "lat": 38.904233833333336, "lon": -77.024951, "rental_uris": {"android": "https://dc.lft.to/lastmile_qr_scan", "ios": "https://dc.lft.to/lastmile_qr_scan"}, "is_disabled": 0, "fusion_lat": 0.0, "name": "f5a67e69adb9dc5ab2633554a2e4f2cd", "fusion_lon": 0.0}, {"is_reserved": 0, "type": "electric_scooter", "bike_id": "4ebb47c618a08553ecbd30a71e3145cd", "lat": 38.915543, "lon": -77.03990916666666, "rental_uris": {"android": "https://dc.lft.to/lastmile_qr_scan", "ios": "https://dc.lft.to/lastmile_qr_scan"}, "is_disabled": 0, "fusion_lat": 0.0, "name": "4ebb47c618a08553ecbd30a71e3145cd", "fusion_lon": 0.0}, {"is_reserved": 0, "type": "electric_scooter", "bike_id": "7f02759912f584cd4472da87461a12c2", "lat": 38.89928183333333, "lon": -77.03312583333333, "rental_uris": {"android": "https://dc.lft.to/lastmile_qr_scan", "ios": "https://dc.lft.to/lastmile_qr_scan"}, "is_disabled": 0, "fusion_lat": 0.0, "name": "7f02759912f584cd4472da87461a12c2", "fusion_lon": 0.0}, {"is_reserved": 0, "type": "electric_scooter", "bike_id": "1acc337674975d04493516ca741ee311", "lat": 38.916407666666665, "lon": -77.02390166666666, "rental_uris": {"android": "https://dc.lft.to/lastmile_qr_scan", "ios": "https://dc.lft.to/lastmile_qr_scan"}, "is_disabled": 0, "fusion_lat": 0.0, "name": "1acc337674975d04493516ca741ee311", "fusion_lon": 0.0}, {"is_reserved": 0, "type": "electric_bike", "bike_id": "6137de61346f56917f90cc0213344870", "lat": 38.886021166666666, "lon": -77.14231033333333, "rental_uris": {"android": "https://dc.lft.to/lastmile_qr_scan", "ios": "https://dc.lft.to/lastmile_qr_scan"}, "is_disabled": 0, "fusion_lat": 0.0, "name": "6137de61346f56917f90cc0213344870", "fusion_lon": 0.0}, {"is_reserved": 0, "type": "electric_scooter", "bike_id": "f36b5a52a8107e6c0909f2d46d0e542c", "lat": 38.883801, "lon": -77.046058, "rental_uris": {"android": "https://dc.lft.to/lastmile_qr_scan", "ios": "https://dc.lft.to/lastmile_qr_scan"}, "is_disabled": 0, "fusion_lat": 0.0, "name": "f36b5a52a8107e6c0909f2d46d0e542c", "fusion_lon": 0.0}, {"is_reserved": 0, "type": "electric_scooter", "bike_id": "d5643d8efe1b2e8ec337fcc87cc3e724", "lat": 38.89228216666667, "lon": -77.0448705, "rental_uris": {"android": "https://dc.lft.to/lastmile_qr_scan", "ios": "https://dc.lft.to/lastmile_qr_scan"}, "is_disabled": 0, "fusion_lat": 0.0, "name": "d5643d8efe1b2e8ec337fcc87cc3e724", "fusion_lon": 0.0}, {"is_reserved": 0, "type": "electric_scooter", "bike_id": "211e8e1135bbb3bca413ec810b4175b5", "lat": 38.93360233333333, "lon": -77.05721066666666, "rental_uris": {"android": "https://dc.lft.to/lastmile_qr_scan", "ios": "https://dc.lft.to/lastmile_qr_scan"}, "is_disabled": 0, "fusion_lat": 0.0, "name": "211e8e1135bbb3bca413ec810b4175b5", "fusion_lon": 0.0}, {"is_reserved": 0, "type": "electric_scooter", "bike_id": "a29b0aef00090b3de4d6e8a3deeadd11", "lat": 38.89888666666667, "lon": -77.00731366666666, "rental_uris": {"android": "https://dc.lft.to/lastmile_qr_scan", "ios": "https://dc.lft.to/lastmile_qr_scan"}, "is_disabled": 0, "fusion_lat": 0.0, "name": "a29b0aef00090b3de4d6e8a3deeadd11", "fusion_lon": 0.0}, {"is_reserved": 0, "type": "electric_scooter", "bike_id": "1b3a488d7f339ae4340a0f6dc83604c4", "lat": 38.91822416666667, "lon": -77.01206966666666, "rental_uris": {"android": "https://dc.lft.to/lastmile_qr_scan", "ios": "https://dc.lft.to/lastmile_qr_scan"}, "is_disabled": 0, "fusion_lat": 0.0, "name": "1b3a488d7f339ae4340a0f6dc83604c4", "fusion_lon": 0.0}, {"is_reserved": 0, "type": "electric_scooter", "bike_id": "a6306cda9101726fdd1ce5a4b724420f", "lat": 38.92632966666667, "lon": -77.04248516666667, "rental_uris": {"android": "https://dc.lft.to/lastmile_qr_scan", "ios": "https://dc.lft.to/lastmile_qr_scan"}, "is_disabled": 0, "fusion_lat": 0.0, "name": "a6306cda9101726fdd1ce5a4b724420f", "fusion_lon": 0.0}, {"is_reserved": 0, "type": "electric_scooter", "bike_id": "136ebdf7a66646329f089ecf0e05e1f8", "lat": 38.905864333333334, "lon": -77.02977316666667, "rental_uris": {"android": "https://dc.lft.to/lastmile_qr_scan", "ios": "https://dc.lft.to/lastmile_qr_scan"}, "is_disabled": 0, "fusion_lat": 0.0, "name": "136ebdf7a66646329f089ecf0e05e1f8", "fusion_lon": 0.0}, {"is_reserved": 0, "type": "electric_scooter", "bike_id": "513c0dcd2c45c946aeacf7b87c9c0dc7", "lat": 38.894346, "lon": -77.02637466666667, "rental_uris": {"android": "https://dc.lft.to/lastmile_qr_scan", "ios": "https://dc.lft.to/lastmile_qr_scan"}, "is_disabled": 0, "fusion_lat": 0.0, "name": "513c0dcd2c45c946aeacf7b87c9c0dc7", "fusion_lon": 0.0}, {"is_reserved": 0, "type": "electric_scooter", "bike_id": "ff7f1fc213fa24e808e88eb18d03cffe", "lat": 38.92340083333333, "lon": -77.05232966666667, "rental_uris": {"android": "https://dc.lft.to/lastmile_qr_scan", "ios": "https://dc.lft.to/lastmile_qr_scan"}, "is_disabled": 0, "fusion_lat": 0.0, "name": "ff7f1fc213fa24e808e88eb18d03cffe", "fusion_lon": 0.0}, {"is_reserved": 0, "type": "electric_scooter", "bike_id": "1877952c1f85d37f6af694ca5ca75030", "lat": 38.924065666666664, "lon": -77.04263733333333, "rental_uris": {"android": "https://dc.lft.to/lastmile_qr_scan", "ios": "https://dc.lft.to/lastmile_qr_scan"}, "is_disabled": 0, "fusion_lat": 0.0, "name": "1877952c1f85d37f6af694ca5ca75030", "fusion_lon": 0.0}, {"is_reserved": 0, "type": "electric_scooter", "bike_id": "57360a29f01bf4e23b2c27e3bbeaffdc", "lat": 38.94323716666667, "lon": -77.01254233333333, "rental_uris": {"android": "https://dc.lft.to/lastmile_qr_scan", "ios": "https://dc.lft.to/lastmile_qr_scan"}, "is_disabled": 0, "fusion_lat": 0.0, "name": "57360a29f01bf4e23b2c27e3bbeaffdc", "fusion_lon": 0.0}, {"is_reserved": 0, "type": "electric_scooter", "bike_id": "5d13d6376c52e52195daeccd3ce60a7f", "lat": 38.908977166666666, "lon": -76.9962085, "rental_uris": {"android": "https://dc.lft.to/lastmile_qr_scan", "ios": "https://dc.lft.to/lastmile_qr_scan"}, "is_disabled": 0, "fusion_lat": 0.0, "name": "5d13d6376c52e52195daeccd3ce60a7f", "fusion_lon": 0.0}, {"is_reserved": 0, "type": "electric_scooter", "bike_id": "84033075414a4df0b184a4f5f2bb3bbd", "lat": 38.93701633333333, "lon": -77.02398116666667, "rental_uris": {"android": "https://dc.lft.to/lastmile_qr_scan", "ios": "https://dc.lft.to/lastmile_qr_scan"}, "is_disabled": 0, "fusion_lat": 0.0, "name": "84033075414a4df0b184a4f5f2bb3bbd", "fusion_lon": 0.0}, {"is_reserved": 0, "type": "electric_scooter", "bike_id": "1a6935614003dbe5b4f66f644bb50a38", "lat": 38.975148833333336, "lon": -77.017391, "rental_uris": {"android": "https://dc.lft.to/lastmile_qr_scan", "ios": "https://dc.lft.to/lastmile_qr_scan"}, "is_disabled": 0, "fusion_lat": 0.0, "name": "1a6935614003dbe5b4f66f644bb50a38", "fusion_lon": 0.0}, {"is_reserved": 0, "type": "electric_scooter", "bike_id": "29878be769d4d0c2f549a59157eacefb", "lat": 38.94318783333333, "lon": -77.065246, "rental_uris": {"android": "https://dc.lft.to/lastmile_qr_scan", "ios": "https://dc.lft.to/lastmile_qr_scan"}, "is_disabled": 0, "fusion_lat": 0.0, "name": "29878be769d4d0c2f549a59157eacefb", "fusion_lon": 0.0}, {"is_reserved": 0, "type": "electric_scooter", "bike_id": "7208021a2dd111b0afc53fed3c315199", "lat": 38.89973033333333, "lon": -77.02308416666666, "rental_uris": {"android": "https://dc.lft.to/lastmile_qr_scan", "ios": "https://dc.lft.to/lastmile_qr_scan"}, "is_disabled": 0, "fusion_lat": 0.0, "name": "7208021a2dd111b0afc53fed3c315199", "fusion_lon": 0.0}, {"is_reserved": 0, "type": "electric_scooter", "bike_id": "ba72314e56174df36c95c727deb41a7f", "lat": 38.92751, "lon": -77.02430583333333, "rental_uris": {"android": "https://dc.lft.to/lastmile_qr_scan", "ios": "https://dc.lft.to/lastmile_qr_scan"}, "is_disabled": 0, "fusion_lat": 0.0, "name": "ba72314e56174df36c95c727deb41a7f", "fusion_lon": 0.0}, {"is_reserved": 0, "type": "electric_scooter", "bike_id": "6b9de170a2e68c9d8030452d1ad28e26", "lat": 38.92142366666667, "lon": -77.03503266666667, "rental_uris": {"android": "https://dc.lft.to/lastmile_qr_scan", "ios": "https://dc.lft.to/lastmile_qr_scan"}, "is_disabled": 0, "fusion_lat": 0.0, "name": "6b9de170a2e68c9d8030452d1ad28e26", "fusion_lon": 0.0}, {"is_reserved": 0, "type": "electric_scooter", "bike_id": "cfa15ecc1a031fad55684646dfac30a7", "lat": 38.923494, "lon": -77.04308816666666, "rental_uris": {"android": "https://dc.lft.to/lastmile_qr_scan", "ios": "https://dc.lft.to/lastmile_qr_scan"}, "is_disabled": 0, "fusion_lat": 0.0, "name": "cfa15ecc1a031fad55684646dfac30a7", "fusion_lon": 0.0}, {"is_reserved": 0, "type": "electric_scooter", "bike_id": "c0116641100988d417a7279d9614806c", "lat": 38.892249, "lon": -77.017646, "rental_uris": {"android": "https://dc.lft.to/lastmile_qr_scan", "ios": "https://dc.lft.to/lastmile_qr_scan"}, "is_disabled": 0, "fusion_lat": 0.0, "name": "c0116641100988d417a7279d9614806c", "fusion_lon": 0.0}, {"is_reserved": 0, "type": "electric_bike", "bike_id": "fdf00654eb9111ba92503bb06b653424", "lat": 38.909009166666664, "lon": -77.0727435, "rental_uris": {"android": "https://dc.lft.to/lastmile_qr_scan", "ios": "https://dc.lft.to/lastmile_qr_scan"}, "is_disabled": 0, "fusion_lat": 0.0, "name": "fdf00654eb9111ba92503bb06b653424", "fusion_lon": 0.0}, {"is_reserved": 0, "type": "electric_scooter", "bike_id": "a8989ee39ed98760b5c52db773cf701e", "lat": 38.89237816666667, "lon": -77.05035033333333, "rental_uris": {"android": "https://dc.lft.to/lastmile_qr_scan", "ios": "https://dc.lft.to/lastmile_qr_scan"}, "is_disabled": 0, "fusion_lat": 0.0, "name": "a8989ee39ed98760b5c52db773cf701e", "fusion_lon": 0.0}, {"is_reserved": 0, "type": "electric_scooter", "bike_id": "d6b1be2307b499cc75ad9ec1474c5fe7", "lat": 38.95186283333334, "lon": -77.0261015, "rental_uris": {"android": "https://dc.lft.to/lastmile_qr_scan", "ios": "https://dc.lft.to/lastmile_qr_scan"}, "is_disabled": 0, "fusion_lat": 0.0, "name": "d6b1be2307b499cc75ad9ec1474c5fe7", "fusion_lon": 0.0}, {"is_reserved": 0, "type": "electric_scooter", "bike_id": "ba449f813a63da41bc95be50da250673", "lat": 38.906493, "lon": -77.07560383333333, "rental_uris": {"android": "https://dc.lft.to/lastmile_qr_scan", "ios": "https://dc.lft.to/lastmile_qr_scan"}, "is_disabled": 0, "fusion_lat": 0.0, "name": "ba449f813a63da41bc95be50da250673", "fusion_lon": 0.0}, {"is_reserved": 0, "type": "electric_scooter", "bike_id": "6ce914195f08511d0d2e8bd76a7f4dd8", "lat": 38.92258616666667, "lon": -77.03664666666667, "rental_uris": {"android": "https://dc.lft.to/lastmile_qr_scan", "ios": "https://dc.lft.to/lastmile_qr_scan"}, "is_disabled": 0, "fusion_lat": 0.0, "name": "6ce914195f08511d0d2e8bd76a7f4dd8", "fusion_lon": 0.0}, {"is_reserved": 0, "type": "electric_scooter", "bike_id": "ace4137249e31655e1454acf938150a9", "lat": 38.905784, "lon": -76.98428916666667, "rental_uris": {"android": "https://dc.lft.to/lastmile_qr_scan", "ios": "https://dc.lft.to/lastmile_qr_scan"}, "is_disabled": 0, "fusion_lat": 0.0, "name": "ace4137249e31655e1454acf938150a9", "fusion_lon": 0.0}, {"is_reserved": 0, "type": "electric_scooter", "bike_id": "54d1c9599aaa46dfdd46226ae265c80b", "lat": 38.936974166666666, "lon": -77.05596133333333, "rental_uris": {"android": "https://dc.lft.to/lastmile_qr_scan", "ios": "https://dc.lft.to/lastmile_qr_scan"}, "is_disabled": 0, "fusion_lat": 0.0, "name": "54d1c9599aaa46dfdd46226ae265c80b", "fusion_lon": 0.0}, {"is_reserved": 0, "type": "electric_scooter", "bike_id": "54fba881373dc2af92856f6f36f7d3b1", "lat": 38.90971866666667, "lon": -77.024032, "rental_uris": {"android": "https://dc.lft.to/lastmile_qr_scan", "ios": "https://dc.lft.to/lastmile_qr_scan"}, "is_disabled": 0, "fusion_lat": 0.0, "name": "54fba881373dc2af92856f6f36f7d3b1", "fusion_lon": 0.0}, {"is_reserved": 0, "type": "electric_scooter", "bike_id": "66ef21a13b0e1b7852421df740ead55e", "lat": 38.895148666666664, "lon": -77.02202933333334, "rental_uris": {"android": "https://dc.lft.to/lastmile_qr_scan", "ios": "https://dc.lft.to/lastmile_qr_scan"}, "is_disabled": 0, "fusion_lat": 0.0, "name": "66ef21a13b0e1b7852421df740ead55e", "fusion_lon": 0.0}, {"is_reserved": 0, "type": "electric_scooter", "bike_id": "9f0ec6276fe94615a17da585d4498d79", "lat": 38.887418, "lon": -76.98357916666667, "rental_uris": {"android": "https://dc.lft.to/lastmile_qr_scan", "ios": "https://dc.lft.to/lastmile_qr_scan"}, "is_disabled": 0, "fusion_lat": 0.0, "name": "9f0ec6276fe94615a17da585d4498d79", "fusion_lon": 0.0}, {"is_reserved": 0, "type": "electric_scooter", "bike_id": "fd1bbf8af1ebd4df9c782362d11fe04c", "lat": 38.895102, "lon": -76.99219466666666, "rental_uris": {"android": "https://dc.lft.to/lastmile_qr_scan", "ios": "https://dc.lft.to/lastmile_qr_scan"}, "is_disabled": 0, "fusion_lat": 0.0, "name": "fd1bbf8af1ebd4df9c782362d11fe04c", "fusion_lon": 0.0}, {"is_reserved": 0, "type": "electric_scooter", "bike_id": "64088ba45ba9822dccebda6fe4483ec8", "lat": 38.956254333333334, "lon": -77.02779066666666, "rental_uris": {"android": "https://dc.lft.to/lastmile_qr_scan", "ios": "https://dc.lft.to/lastmile_qr_scan"}, "is_disabled": 0, "fusion_lat": 0.0, "name": "64088ba45ba9822dccebda6fe4483ec8", "fusion_lon": 0.0}, {"is_reserved": 0, "type": "electric_scooter", "bike_id": "52585786a7f75f2e1812b2990b663073", "lat": 38.918003666666664, "lon": -77.033032, "rental_uris": {"android": "https://dc.lft.to/lastmile_qr_scan", "ios": "https://dc.lft.to/lastmile_qr_scan"}, "is_disabled": 0, "fusion_lat": 0.0, "name": "52585786a7f75f2e1812b2990b663073", "fusion_lon": 0.0}, {"is_reserved": 0, "type": "electric_scooter", "bike_id": "55135d4f1dc556154082db1f8ea4063a", "lat": 38.93553633333333, "lon": -77.02215983333333, "rental_uris": {"android": "https://dc.lft.to/lastmile_qr_scan", "ios": "https://dc.lft.to/lastmile_qr_scan"}, "is_disabled": 0, "fusion_lat": 0.0, "name": "55135d4f1dc556154082db1f8ea4063a", "fusion_lon": 0.0}, {"is_reserved": 0, "type": "electric_scooter", "bike_id": "760905e1a2b05cbfc8bf395fabaf381d", "lat": 38.924439666666665, "lon": -77.04403133333334, "rental_uris": {"android": "https://dc.lft.to/lastmile_qr_scan", "ios": "https://dc.lft.to/lastmile_qr_scan"}, "is_disabled": 0, "fusion_lat": 0.0, "name": "760905e1a2b05cbfc8bf395fabaf381d", "fusion_lon": 0.0}, {"is_reserved": 0, "type": "electric_scooter", "bike_id": "67c6c6bfe30162d4fa65b4b3fef7ea42", "lat": 38.90880166666667, "lon": -77.02347533333334, "rental_uris": {"android": "https://dc.lft.to/lastmile_qr_scan", "ios": "https://dc.lft.to/lastmile_qr_scan"}, "is_disabled": 0, "fusion_lat": 0.0, "name": "67c6c6bfe30162d4fa65b4b3fef7ea42", "fusion_lon": 0.0}, {"is_reserved": 0, "type": "electric_scooter", "bike_id": "019a1a8c70742fef04af122e132be9dd", "lat": 38.90033016666667, "lon": -76.98825166666667, "rental_uris": {"android": "https://dc.lft.to/lastmile_qr_scan", "ios": "https://dc.lft.to/lastmile_qr_scan"}, "is_disabled": 0, "fusion_lat": 0.0, "name": "019a1a8c70742fef04af122e132be9dd", "fusion_lon": 0.0}, {"is_reserved": 0, "type": "electric_scooter", "bike_id": "26d4321b44a68a5ad09ec67563dd9c8a", "lat": 38.9170205, "lon": -77.02898383333333, "rental_uris": {"android": "https://dc.lft.to/lastmile_qr_scan", "ios": "https://dc.lft.to/lastmile_qr_scan"}, "is_disabled": 0, "fusion_lat": 0.0, "name": "26d4321b44a68a5ad09ec67563dd9c8a", "fusion_lon": 0.0}, {"is_reserved": 0, "type": "electric_scooter", "bike_id": "ecee25f035b51d98495dd4a12b87e7b0", "lat": 38.91928933333333, "lon": -77.0341855, "rental_uris": {"android": "https://dc.lft.to/lastmile_qr_scan", "ios": "https://dc.lft.to/lastmile_qr_scan"}, "is_disabled": 0, "fusion_lat": 0.0, "name": "ecee25f035b51d98495dd4a12b87e7b0", "fusion_lon": 0.0}, {"is_reserved": 0, "type": "electric_scooter", "bike_id": "a3014681641fc6ee18d52184e7423511", "lat": 38.90727016666666, "lon": -76.93447033333334, "rental_uris": {"android": "https://dc.lft.to/lastmile_qr_scan", "ios": "https://dc.lft.to/lastmile_qr_scan"}, "is_disabled": 0, "fusion_lat": 0.0, "name": "a3014681641fc6ee18d52184e7423511", "fusion_lon": 0.0},