{"data": {"bikes": [{"lat": 38.89622216666667, "is_disabled": 0, "type": "electric_scooter", "lon": -76.9984855, "bike_id": "fdc709069e32495f0bc94e757d01fd13", "fusion_lat": 0.0, "name": "fdc709069e32495f0bc94e757d01fd13", "is_reserved": 0, "rental_uris": {"android": "https://dc.lft.to/lastmile_qr_scan", "ios": "https://dc.lft.to/lastmile_qr_scan"}, "fusion_lon": 0.0}, {"lat": 38.90975666666667, "is_disabled": 0, "type": "electric_scooter", "lon": -77.03836133333333, "bike_id": "3883e5be5d08e1c7807bb9266c3ce6a7", "fusion_lat": 0.0, "name": "3883e5be5d08e1c7807bb9266c3ce6a7", "is_reserved": 0, "rental_uris": {"android": "https://dc.lft.to/lastmile_qr_scan", "ios": "https://dc.lft.to/lastmile_qr_scan"}, "fusion_lon": 0.0}, {"lat": 38.90735383333333, "is_disabled": 0, "type": "electric_scooter", "lon": -77.02769333333333, "bike_id": "08816f4fa29dec683d107ae417f816af", "fusion_lat": 0.0, "name": "08816f4fa29dec683d107ae417f816af", "is_reserved": 0, "rental_uris": {"android": "https://dc.lft.to/lastmile_qr_scan", "ios": "https://dc.lft.to/lastmile_qr_scan"}, "fusion_lon": 0.0}, {"lat": 38.909226, "is_disabled": 0, "type": "electric_scooter", "lon": -77.08024333333333, "bike_id": "7828f1c62bdfdf0de66823c9c4c891ee", "fusion_lat": 0.0, "name": "7828f1c62bdfdf0de66823c9c4c891ee", "is_reserved": 0, "rental_uris": {"android": "https://dc.lft.to/lastmile_qr_scan", "ios": "https://dc.lft.to/lastmile_qr_scan"}, "fusion_lon": 0.0}, {"lat": 38.892230833333336, "is_disabled": 0, "type": "electric_scooter", "lon": -77.0316365, "bike_id": "af7d899b734145d15584e01763010789", "fusion_lat": 0.0, "name": "af7d899b734145d15584e01763010789", "is_reserved": 0, "rental_uris": {"android": "https://dc.lft.to/lastmile_qr_scan", "ios": "https://dc.lft.to/lastmile_qr_scan"}, "fusion_lon": 0.0}, {"lat": 38.9192175, "is_disabled": 0, "type": "electric_scooter", "lon": -77.0447225, "bike_id": "5afc95f368936153209454016e15ce65", "fusion_lat": 0.0, "name": "5afc95f368936153209454016e15ce65", "is_reserved": 0, "rental_uris": {"android": "https://dc.lft.to/lastmile_qr_scan", "ios": "https://dc.lft.to/lastmile_qr_scan"}, "fusion_lon": 0.0}, {"lat": 38.87732033333333, "is_disabled": 0, "type": "electric_bike", "lon": -77.11849833333333, "bike_id": "e8364ac132cf45cabf4bf68299863c62", "fusion_lat": 0.0, "name": "e8364ac132cf45cabf4bf68299863c62", "is_reserved": 0, "rental_uris": {"android": "https://dc.lft.to/lastmile_qr_scan", "ios": "https://dc.lft.to/lastmile_qr_scan"}, "fusion_lon": 0.0}, {"lat": 38.8674665, "is_disabled": 0, "type": "electric_scooter", "lon": -76.97665316666667, "bike_id": "3b4619efaf60f00df781924f88f44869", "fusion_lat": 0.0, "name": "3b4619efaf60f00df781924f88f44869", "is_reserved": 0, "rental_uris": {"android": "https://dc.lft.to/lastmile_qr_scan", "ios": "https://dc.lft.to/lastmile_qr_scan"}, "fusion_lon": 0.0}, {"lat": 38.92641016666666, "is_disabled": 0, "type": "electric_bike", "lon": -77.02838983333334, "bike_id": "f1e0528aa95f57b16274bf9cc3415f44", "fusion_lat": 0.0, "name": "f1e0528aa95f57b16274bf9cc3415f44", "is_reserved": 0, "rental_uris": {"android": "https://dc.lft.to/lastmile_qr_scan", "ios": "https://dc.lft.to/lastmile_qr_scan"}, "fusion_lon": 0.0}, {"lat": 38.94631733333333, "is_disabled": 0, "type": "electric_scooter", "lon": -77.01846666666667, "bike_id": "f9005d310efbbaa2dceb555af16c2d4a", "fusion_lat": 0.0, "name": "f9005d310efbbaa2dceb555af16c2d4a", "is_reserved": 0, "rental_uris": {"android": "https://dc.lft.to/lastmile_qr_scan", "ios": "https://dc.lft.to/lastmile_qr_scan"}, "fusion_lon": 0.0}, {"lat": 38.90729816666666, "is_disabled": 0, "type": "electric_scooter", "lon": -77.02758666666666, "bike_id": "b0b0c4455420c961f3b60e9bc3fc0aac", "fusion_lat": 0.0, "name": "b0b0c4455420c961f3b60e9bc3fc0aac", "is_reserved": 0, "rental_uris": {"android": "https://dc.lft.to/lastmile_qr_scan", "ios": "https://dc.lft.to/lastmile_qr_scan"}, "fusion_lon": 0.0}, {"lat": 38.904130333333335, "is_disabled": 0, "type": "electric_scooter", "lon": -77.02587333333334, "bike_id": "6e770a6f7212ae10f7baed5545878993", "fusion_lat": 0.0, "name": "6e770a6f7212ae10f7baed5545878993", "is_reserved": 0, "rental_uris": {"android": "https://dc.lft.to/lastmile_qr_scan", "ios": "https://dc.lft.to/lastmile_qr_scan"}, "fusion_lon": 0.0}, {"lat": 38.95186183333333, "is_disabled": 0, "type": "electric_bike", "lon": -76.9354375, "bike_id": "fba7f9999ca84799ed0735dc0cbccc59", "fusion_lat": 0.0, "name": "fba7f9999ca84799ed0735dc0cbccc59", "is_reserved": 0, "rental_uris": {"android": "https://dc.lft.to/lastmile_qr_scan", "ios": "https://dc.lft.to/lastmile_qr_scan"}, "fusion_lon": 0.0}, {"lat": 38.897796166666666, "is_disabled": 0, "type": "electric_scooter", "lon": -77.02691066666667, "bike_id": "c121a4a10033a74158cbf7fd86ab8156", "fusion_lat": 0.0, "name": "c121a4a10033a74158cbf7fd86ab8156", "is_reserved": 0, "rental_uris": {"android": "https://dc.lft.to/lastmile_qr_scan", "ios": "https://dc.lft.to/lastmile_qr_scan"}, "fusion_lon": 0.0}, {"lat": 38.916137166666665, "is_disabled": 0, "type": "electric_scooter", "lon": -77.0230135, "bike_id": "3beb01c3232f268ef9da5dc28ffdcdeb", "fusion_lat": 0.0, "name": "3beb01c3232f268ef9da5dc28ffdcdeb", "is_reserved": 0, "rental_uris": {"android": "https://dc.lft.to/lastmile_qr_scan", "ios": "https://dc.lft.to/lastmile_qr_scan"}, "fusion_lon": 0.0}, {"lat": 38.866792833333335, "is_disabled": 0, "type": "electric_scooter", "lon": -76.98536183333333, "bike_id": "e195e6d9e3151ceb401ee564d3ea5078", "fusion_lat": 0.0, "name": "e195e6d9e3151ceb401ee564d3ea5078", "is_reserved": 0, "rental_uris": {"android": "https://dc.lft.to/lastmile_qr_scan", "ios": "https://dc.lft.to/lastmile_qr_scan"}, "fusion_lon": 0.0}, {"lat": 38.87730466666667, "is_disabled": 0, "type": "electric_bike", "lon": -76.98106283333334, "bike_id": "3bb5da0cd003db78712aa82881b4cf56", "fusion_lat": 0.0, "name": "3bb5da0cd003db78712aa82881b4cf56", "is_reserved": 0, "rental_uris": {"android": "https://dc.lft.to/lastmile_qr_scan", "ios": "https://dc.lft.to/lastmile_qr_scan"}, "fusion_lon": 0.0}, {"lat": 38.922141333333336, "is_disabled": 0, "type": "electric_scooter", "lon": -77.04015383333333, "bike_id": "9beff176ac487e223e7337e7ca8c720e", "fusion_lat": 0.0, "name": "9beff176ac487e223e7337e7ca8c720e", "is_reserved": 0, "rental_uris": {"android": "https://dc.lft.to/lastmile_qr_scan", "ios": "https://dc.lft.to/lastmile_qr_scan"}, "fusion_lon": 0.0}, {"lat": 38.90683466666667, "is_disabled": 0, "type": "electric_scooter", "lon": -77.037714, "bike_id": "1ffa839c0f17bc2bf7fe9d3b2ca0c56b", "fusion_lat": 0.0, "name": "1ffa839c0f17bc2bf7fe9d3b2ca0c56b", "is_reserved": 0, "rental_uris": {"android": "https://dc.lft.to/lastmile_qr_scan", "ios": "https://dc.lft.to/lastmile_qr_scan"}, "fusion_lon": 0.0}, {"lat": 38.89225316666667, "is_disabled": 0, "type": "electric_scooter", "lon": -77.03164916666667, "bike_id": "905c156aec707862b23c52ebc2f68754", "fusion_lat": 0.0, "name": "905c156aec707862b23c52ebc2f68754", "is_reserved": 0, "rental_uris": {"android": "https://dc.lft.to/lastmile_qr_scan", "ios": "https://dc.lft.to/lastmile_qr_scan"}, "fusion_lon": 0.0}, {"lat": 38.9058945, "is_disabled": 0, "type": "electric_scooter", "lon": -77.04876833333333, "bike_id": "2bd196a7c9651112fd7c72d1c06ec1c6", "fusion_lat": 0.0, "name": "2bd196a7c9651112fd7c72d1c06ec1c6", "is_reserved": 0, "rental_uris": {"android": "https://dc.lft.to/lastmile_qr_scan", "ios": "https://dc.lft.to/lastmile_qr_scan"}, "fusion_lon": 0.0}, {"lat": 38.93315783333333, "is_disabled": 0, "type": "electric_scooter", "lon": -77.0452375, "bike_id": "2f058fd2f8b5bea74c2c2c761fe47903", "fusion_lat": 0.0, "name": "2f058fd2f8b5bea74c2c2c761fe47903", "is_reserved": 0, "rental_uris": {"android": "https://dc.lft.to/lastmile_qr_scan", "ios": "https://dc.lft.to/lastmile_qr_scan"}, "fusion_lon": 0.0}, {"lat": 38.898713666666666, "is_disabled": 0, "type": "electric_scooter", "lon": -77.02019633333333, "bike_id": "ef9eff7d2bfd60a967c40451eaca634f", "fusion_lat": 0.0, "name": "ef9eff7d2bfd60a967c40451eaca634f", "is_reserved": 0, "rental_uris": {"android": "https://dc.lft.to/lastmile_qr_scan", "ios": "https://dc.lft.to/lastmile_qr_scan"}, "fusion_lon": 0.0}, {"lat": 38.898526, "is_disabled": 0, "type": "electric_scooter", "lon": -77.04329966666667, "bike_id": "2a844c9d1beb1625bda98137094ce361", "fusion_lat": 0.0, "name": "2a844c9d1beb1625bda98137094ce361", "is_reserved": 0, "rental_uris": {"android": "https://dc.lft.to/lastmile_qr_scan", "ios": "https://dc.lft.to/lastmile_qr_scan"}, "fusion_lon": 0.0}, {"lat": 38.898257, "is_disabled": 0, "type": "electric_scooter", "lon": -77.01602733333333, "bike_id": "e2cc338abf511b1192a67094a0242a80", "fusion_lat": 0.0, "name": "e2cc338abf511b1192a67094a0242a80", "is_reserved": 0, "rental_uris": {"android": "https://dc.lft.to/lastmile_qr_scan", "ios": "https://dc.lft.to/lastmile_qr_scan"}, "fusion_lon": 0.0}, {"lat": 38.9587935, "is_disabled": 0, "type": "electric_bike", "lon": -77.01033816666667, "bike_id": "259d116f6201c6b85d287006f1574a44", "fusion_lat": 0.0, "name": "259d116f6201c6b85d287006f1574a44", "is_reserved": 0, "rental_uris": {"android": "https://dc.lft.to/lastmile_qr_scan", "ios": "https://dc.lft.to/lastmile_qr_scan"}, "fusion_lon": 0.0}, {"lat": 38.9220915, "is_disabled": 0, "type": "electric_scooter", "lon": -77.04012133333333, "bike_id": "086bd448474c989d0b0c19c184a58cc2", "fusion_lat": 0.0, "name": "086bd448474c989d0b0c19c184a58cc2", "is_reserved": 0, "rental_uris": {"android": "https://dc.lft.to/lastmile_qr_scan", "ios": "https://dc.lft.to/lastmile_qr_scan"}, "fusion_lon": 0.0}, {"lat": 38.89950416666667, "is_disabled": 0, "type": "electric_scooter", "lon": -77.02691316666667, "bike_id": "5165523c47ef310376ab54432a78f208", "fusion_lat": 0.0, "name": "5165523c47ef310376ab54432a78f208", "is_reserved": 0, "rental_uris": {"android": "https://dc.lft.to/lastmile_qr_scan", "ios": "https://dc.lft.to/lastmile_qr_scan"}, "fusion_lon": 0.0}, {"lat": 38.90093616666667, "is_disabled": 0, "type": "electric_scooter", "lon": -77.02685283333334, "bike_id": "a74ce42847a6552101c25f8f9dd81b37", "fusion_lat": 0.0, "name": "a74ce42847a6552101c25f8f9dd81b37", "is_reserved": 0, "rental_uris": {"android": "https://dc.lft.to/lastmile_qr_scan", "ios": "https://dc.lft.to/lastmile_qr_scan"}, "fusion_lon": 0.0}, {"lat": 38.80442016666667, "is_disabled": 0, "type": "electric_bike", "lon": -77.06087783333334, "bike_id": "db0780fd8fa6b029878551829c4d3f00", "fusion_lat": 0.0, "name": "db0780fd8fa6b029878551829c4d3f00", "is_reserved": 0, "rental_uris": {"android": "https://dc.lft.to/lastmile_qr_scan", "ios": "https://dc.lft.to/lastmile_qr_scan"}, "fusion_lon": 0.0}, {"lat": 38.944828, "is_disabled": 0, "type": "electric_scooter", "lon": -77.06401866666667, "bike_id": "50e51e6138d5d4b7c8a6b231e3f079e7", "fusion_lat": 0.0, "name": "50e51e6138d5d4b7c8a6b231e3f079e7", "is_reserved": 0, "rental_uris": {"android": "https://dc.lft.to/lastmile_qr_scan", "ios": "https://dc.lft.to/lastmile_qr_scan"}, "fusion_lon": 0.0}, {"lat": 38.91413933333333, "is_disabled": 0, "type": "electric_scooter", "lon": -77.0260795, "bike_id": "f688055122ad28c1e9648cc00c6184c2", "fusion_lat": 0.0, "name": "f688055122ad28c1e9648cc00c6184c2", "is_reserved": 0, "rental_uris": {"android": "https://dc.lft.to/lastmile_qr_scan", "ios": "https://dc.lft.to/lastmile_qr_scan"}, "fusion_lon": 0.0}, {"lat": 38.897422166666665, "is_disabled": 0, "type": "electric_scooter", "lon": -77.021484, "bike_id": "6400ca5804bbc6212110efbf5a216e13", "fusion_lat": 0.0, "name": "6400ca5804bbc6212110efbf5a216e13", "is_reserved": 0, "rental_uris": {"android": "https://dc.lft.to/lastmile_qr_scan", "ios": "https://dc.lft.to/lastmile_qr_scan"}, "fusion_lon": 0.0}, {"lat": 38.918070666666665, "is_disabled": 0, "type": "electric_scooter", "lon": -77.04028316666667, "bike_id": "af3a8575eac6666a428e85190a513ebc", "fusion_lat": 0.0, "name": "af3a8575eac6666a428e85190a513ebc", "is_reserved": 0, "rental_uris": {"android": "https://dc.lft.to/lastmile_qr_scan", "ios": "https://dc.lft.to/lastmile_qr_scan"}, "fusion_lon": 0.0}, {"lat": 38.954047, "is_disabled": 0, "type": "electric_scooter", "lon": -77.036336, "bike_id": "47a4bfdb25da3e573236870bce80bf14", "fusion_lat": 0.0, "name": "47a4bfdb25da3e573236870bce80bf14", "is_reserved": 0, "rental_uris": {"android": "https://dc.lft.to/lastmile_qr_scan", "ios": "https://dc.lft.to/lastmile_qr_scan"}, "fusion_lon": 0.0}, {"lat": 39.024141666666665, "is_disabled": 0, "type": "electric_bike", "lon": -77.04547966666667, "bike_id": "fb1c70441cfbe7d001aba1ed2c2918f2", "fusion_lat": 0.0, "name": "fb1c70441cfbe7d001aba1ed2c2918f2", "is_reserved": 0, "rental_uris": {"android": "https://dc.lft.to/lastmile_qr_scan", "ios": "https://dc.lft.to/lastmile_qr_scan"}, "fusion_lon": 0.0}, {"lat": 38.89843116666667, "is_disabled": 0, "type": "electric_scooter", "lon": -76.94634183333334, "bike_id": "0aed87aaff454b8168a5500f9b81002c", "fusion_lat": 0.0, "name": "0aed87aaff454b8168a5500f9b81002c", "is_reserved": 0, "rental_uris": {"android": "https://dc.lft.to/lastmile_qr_scan", "ios": "https://dc.lft.to/lastmile_qr_scan"}, "fusion_lon": 0.0}, {"lat": 38.9077555, "is_disabled": 0, "type": "electric_scooter", "lon": -77.042564, "bike_id": "471e69413b387d0b7a6171378c0faae2", "fusion_lat": 0.0, "name": "471e69413b387d0b7a6171378c0faae2", "is_reserved": 0, "rental_uris": {"android": "https://dc.lft.to/lastmile_qr_scan", "ios": "https://dc.lft.to/lastmile_qr_scan"}, "fusion_lon": 0.0}, {"lat": 38.8691135, "is_disabled": 0, "type": "electric_bike", "lon": -77.1317645, "bike_id": "df2c049d71209f34fb2d7adf51d16ee9", "fusion_lat": 0.0, "name": "df2c049d71209f34fb2d7adf51d16ee9", "is_reserved": 0, "rental_uris": {"android": "https://dc.lft.to/lastmile_qr_scan", "ios": "https://dc.lft.to/lastmile_qr_scan"}, "fusion_lon": 0.0}, {"lat": 38.8990565, "is_disabled": 0, "type": "electric_scooter", "lon": -77.0328405, "bike_id": "e917dc729295a4e13cdbb44a317f9cab", "fusion_lat": 0.0, "name": "e917dc729295a4e13cdbb44a317f9cab", "is_reserved": 0, "rental_uris": {"android": "https://dc.lft.to/lastmile_qr_scan", "ios": "https://dc.lft.to/lastmile_qr_scan"}, "fusion_lon": 0.0}, {"lat": 38.916103666666665, "is_disabled": 0, "type": "electric_scooter", "lon": -77.0212905, "bike_id": "ff38b527a41ebbbe21069a8b1709c050", "fusion_lat": 0.0, "name": "ff38b527a41ebbbe21069a8b1709c050", "is_reserved": 0, "rental_uris": {"android": "https://dc.lft.to/lastmile_qr_scan", "ios": "https://dc.lft.to/lastmile_qr_scan"}, "fusion_lon": 0.0}, {"lat": 38.905520333333335, "is_disabled": 0, "type": "electric_scooter", "lon": -77.05711066666667, "bike_id": "084b19a21dfcae49b77cf36defa1b7ac", "fusion_lat": 0.0, "name": "084b19a21dfcae49b77cf36defa1b7ac", "is_reserved": 0, "rental_uris": {"android": "https://dc.lft.to/lastmile_qr_scan", "ios": "https://dc.lft.to/lastmile_qr_scan"}, "fusion_lon": 0.0}, {"lat": 38.912073666666664, "is_disabled": 0, "type": "electric_scooter", "lon": -77.04490033333333, "bike_id": "56545a543267de03c7879b9493a6a30d", "fusion_lat": 0.0, "name": "56545a543267de03c7879b9493a6a30d", "is_reserved": 0, "rental_uris": {"android": "https://dc.lft.to/lastmile_qr_scan", "ios": "https://dc.lft.to/lastmile_qr_scan"}, "fusion_lon": 0.0}, {"lat": 38.907343166666664, "is_disabled": 0, "type": "electric_scooter", "lon": -77.0259135, "bike_id": "656505f56c5ec95f00a51de652d122c6", "fusion_lat": 0.0, "name": "656505f56c5ec95f00a51de652d122c6", "is_reserved": 0, "rental_uris": {"android": "https://dc.lft.to/lastmile_qr_scan", "ios": "https://dc.lft.to/lastmile_qr_scan"}, "fusion_lon": 0.0}, {"lat": 38.9212445, "is_disabled": 0, "type": "electric_scooter", "lon": -77.04427333333334, "bike_id": "785824e229577fe2f0896cb388069c71", "fusion_lat": 0.0, "name": "785824e229577fe2f0896cb388069c71", "is_reserved": 0, "rental_uris": {"android": "https://dc.lft.to/lastmile_qr_scan", "ios": "https://dc.lft.to/lastmile_qr_scan"}, "fusion_lon": 0.0}, {"lat": 38.902891833333335, "is_disabled": 0, "type": "electric_scooter", "lon": -77.0335935, "bike_id": "f8faf38539f9151d02fc3f1c9fb1c0f9", "fusion_lat": 0.0, "name": "f8faf38539f9151d02fc3f1c9fb1c0f9", "is_reserved": 0, "rental_uris": {"android": "https://dc.lft.to/lastmile_qr_scan", "ios": "https://dc.lft.to/lastmile_qr_scan"}, "fusion_lon": 0.0}, {"lat": 38.923175666666666, "is_disabled": 0, "type": "electric_scooter", "lon": -77.04207833333334, "bike_id": "e86d693d8d3491d321b3c96f37926073", "fusion_lat": 0.0, "name": "e86d693d8d3491d321b3c96f37926073", "is_reserved": 0, "rental_uris": {"android": "https://dc.lft.to/lastmile_qr_scan", "ios": "https://dc.lft.to/lastmile_qr_scan"}, "fusion_lon": 0.0}, {"lat": 38.89592866666667, "is_disabled": 0, "type": "electric_bike", "lon": -77.12691333333333, "bike_id": "ce3ea33153ab7b46f421c3beda62d1ed", "fusion_lat": 0.0, "name": "ce3ea33153ab7b46f421c3beda62d1ed", "is_reserved": 0, "rental_uris": {"android": "https://dc.lft.to/lastmile_qr_scan", "ios": "https://dc.lft.to/lastmile_qr_scan"}, "fusion_lon": 0.0}, {"lat": 38.90159933333333, "is_disabled": 0, "type": "electric_scooter", "lon": -77.039293, "bike_id": "df3aae2719d8edd3a7bd096d780a7daf", "fusion_lat": 0.0, "name": "df3aae2719d8edd3a7bd096d780a7daf", "is_reserved": 0, "rental_uris": {"android": "https://dc.lft.to/lastmile_qr_scan", "ios": "https://dc.lft.to/lastmile_qr_scan"}, "fusion_lon": 0.0}, {"lat": 38.93359266666667, "is_disabled": 0, "type": "electric_bike", "lon": -77.09964766666667, "bike_id": "29c3ad98d5535d1f8c2a1cd85ec674a1", "fusion_lat": 0.0, "name": "29c3ad98d5535d1f8c2a1cd85ec674a1", "is_reserved": 0, "rental_uris": {"android": "https://dc.lft.to/lastmile_qr_scan", "ios": "https://dc.lft.to/lastmile_qr_scan"}, "fusion_lon": 0.0}, {"lat": 38.908214666666666, "is_disabled": 0, "type": "electric_scooter", "lon": -77.04339633333333, "bike_id": "cecd42412e025bff476782e8d17b5723", "fusion_lat": 0.0, "name": "cecd42412e025bff476782e8d17b5723", "is_reserved": 0, "rental_uris": {"android": "https://dc.lft.to/lastmile_qr_scan", "ios": "https://dc.lft.to/lastmile_qr_scan"}, "fusion_lon": 0.0}, {"lat": 38.914905, "is_disabled": 0, "type": "electric_scooter", "lon": -77.03227733333334, "bike_id": "4d4e32eb28752afe2ded9d430734ddf9", "fusion_lat": 0.0, "name": "4d4e32eb28752afe2ded9d430734ddf9", "is_reserved": 0, "rental_uris": {"android": "https://dc.lft.to/lastmile_qr_scan", "ios": "https://dc.lft.to/lastmile_qr_scan"}, "fusion_lon": 0.0}, {"lat": 38.9155995, "is_disabled": 0, "type": "electric_scooter", "lon": -77.03152666666666, "bike_id": "a5ae215e678ef1aa7d877fde31d7e14c", "fusion_lat": 0.0, "name": "a5ae215e678ef1aa7d877fde31d7e14c", "is_reserved": 0, "rental_uris": {"android": "https://dc.lft.to/lastmile_qr_scan", "ios": "https://dc.lft.to/lastmile_qr_scan"}, "fusion_lon": 0.0}, {"lat": 38.91423266666666, "is_disabled": 0, "type": "electric_scooter", "lon": -77.03187333333334, "bike_id": "74eedc28507989749c82617899999039", "fusion_lat": 0.0, "name": "74eedc28507989749c82617899999039", "is_reserved": 0, "rental_uris": {"android": "https://dc.lft.to/lastmile_qr_scan", "ios": "https://dc.lft.to/lastmile_qr_scan"}, "fusion_lon": 0.0}, {"lat": 38.923245333333334, "is_disabled": 0, "type": "electric_scooter", "lon": -77.03547783333333, "bike_id": "c85afebfec743a823e031fbb347282f7", "fusion_lat": 0.0, "name": "c85afebfec743a823e031fbb347282f7", "is_reserved": 0, "rental_uris": {"android": "https://dc.lft.to/lastmile_qr_scan", "ios": "https://dc.lft.to/lastmile_qr_scan"}, "fusion_lon": 0.0}, {"lat": 38.912675, "is_disabled": 0, "type": "electric_scooter", "lon": -77.03802933333333, "bike_id": "205f4f5d433848b3ff904afc8c7610f9", "fusion_lat": 0.0, "name": "205f4f5d433848b3ff904afc8c7610f9", "is_reserved": 0, "rental_uris": {"android": "https://dc.lft.to/lastmile_qr_scan", "ios": "https://dc.lft.to/lastmile_qr_scan"}, "fusion_lon": 0.0}, {"lat": 38.931922, "is_disabled": 0, "type": "electric_scooter", "lon": -77.0283085, "bike_id": "1ea616eb6c852c6995c67b09548f6fa9", "fusion_lat": 0.0, "name": "1ea616eb6c852c6995c67b09548f6fa9", "is_reserved": 0, "rental_uris": {"android": "https://dc.lft.to/lastmile_qr_scan", "ios": "https://dc.lft.to/lastmile_qr_scan"}, "fusion_lon": 0.0}, {"lat": 38.9029625, "is_disabled": 0, "type": "electric_scooter", "lon": -77.03646783333333, "bike_id": "bebda6bd610fe5adc50a29345ea1946b", "fusion_lat": 0.0, "name": "bebda6bd610fe5adc50a29345ea1946b", "is_reserved": 0, "rental_uris": {"android": "https://dc.lft.to/lastmile_qr_scan", "ios": "https://dc.lft.to/lastmile_qr_scan"}, "fusion_lon": 0.0}, {"lat": 38.90253216666667, "is_disabled": 0, "type": "electric_scooter", "lon": -77.02691983333334, "bike_id": "dcb488c04c4558b618c0e06dc5b92690", "fusion_lat": 0.0, "name": "dcb488c04c4558b618c0e06dc5b92690", "is_reserved": 0, "rental_uris": {"android": "https://dc.lft.to/lastmile_qr_scan", "ios": "https://dc.lft.to/lastmile_qr_scan"}, "fusion_lon": 0.0}, {"lat": 38.91872383333333, "is_disabled": 0, "type": "electric_scooter", "lon": -77.04436483333333, "bike_id": "1d6578eebd3ef4bcfc13ba80ccea1342", "fusion_lat": 0.0, "name": "1d6578eebd3ef4bcfc13ba80ccea1342", "is_reserved": 0, "rental_uris": {"android": "https://dc.lft.to/lastmile_qr_scan", "ios": "https://dc.lft.to/lastmile_qr_scan"}, "fusion_lon": 0.0}, {"lat": 38.89968066666667, "is_disabled": 0, "type": "electric_scooter", "lon": -76.9273145, "bike_id": "89b0022981e68af0f7541aaebbdf7474", "fusion_lat": 0.0, "name": "89b0022981e68af0f7541aaebbdf7474", "is_reserved": 0, "rental_uris": {"android": "https://dc.lft.to/lastmile_qr_scan", "ios": "https://dc.lft.to/lastmile_qr_scan"}, "fusion_lon": 0.0}, {"lat": 38.896623, "is_disabled": 0, "type": "electric_scooter", "lon": -77.02809433333333, "bike_id": "5a3ea734d9c7775c8ca8dd22d6a8b1a3", "fusion_lat": 0.0, "name": "5a3ea734d9c7775c8ca8dd22d6a8b1a3", "is_reserved": 0, "rental_uris": {"android": "https://dc.lft.to/lastmile_qr_scan", "ios": "https://dc.lft.to/lastmile_qr_scan"}, "fusion_lon": 0.0}, {"lat": 38.91980916666667, "is_disabled": 0, "type": "electric_scooter", "lon": -77.04095333333333, "bike_id": "474ce50608c9d7ffbefb68f7c8a18ebf", "fusion_lat": 0.0, "name": "474ce50608c9d7ffbefb68f7c8a18ebf", "is_reserved": 0, "rental_uris": {"android": "https://dc.lft.to/lastmile_qr_scan", "ios": "https://dc.lft.to/lastmile_qr_scan"}, "fusion_lon": 0.0}, {"lat": 38.84427266666667, "is_disabled": 0, "type": "electric_scooter", "lon": -76.99778433333333, "bike_id": "6864771f9f4b719f5fe939470480b400", "fusion_lat": 0.0, "name": "6864771f9f4b719f5fe939470480b400", "is_reserved": 0, "rental_uris": {"android": "https://dc.lft.to/lastmile_qr_scan", "ios": "https://dc.lft.to/lastmile_qr_scan"}, "fusion_lon": 0.0}, {"lat": 38.906719, "is_disabled": 0, "type": "electric_scooter", "lon": -77.03828083333333, "bike_id": "f78129bb7a9a968ed6e7b5bb61ebfb96", "fusion_lat": 0.0, "name": "f78129bb7a9a968ed6e7b5bb61ebfb96", "is_reserved": 0, "rental_uris": {"android": "https://dc.lft.to/lastmile_qr_scan", "ios": "https://dc.lft.to/lastmile_qr_scan"}, "fusion_lon": 0.0}, {"lat": 38.91565, "is_disabled": 0, "type": "electric_scooter", "lon": -77.02004733333334, "bike_id": "2977a502ba918f1658b95f25ece35793", "fusion_lat": 0.0, "name": "2977a502ba918f1658b95f25ece35793", "is_reserved": 0, "rental_uris": {"android": "https://dc.lft.to/lastmile_qr_scan", "ios": "https://dc.lft.to/lastmile_qr_scan"}, "fusion_lon": 0.0}, {"lat": 38.884294833333335, "is_disabled": 0, "type": "electric_scooter", "lon": -76.95759416666667, "bike_id": "b146a1c490a5e652a0111612129c07df", "fusion_lat": 0.0, "name": "b146a1c490a5e652a0111612129c07df", "is_reserved": 0, "rental_uris": {"android": "https://dc.lft.to/lastmile_qr_scan", "ios": "https://dc.lft.to/lastmile_qr_scan"}, "fusion_lon": 0.0}, {"lat": 38.934203333333336, "is_disabled": 0, "type": "electric_scooter", "lon": -77.04138633333334, "bike_id": "ecfdbcf3ba66518b59c3492d3a3bf3f3", "fusion_lat": 0.0, "name": "ecfdbcf3ba66518b59c3492d3a3bf3f3", "is_reserved": 0, "rental_uris": {"android": "https://dc.lft.to/lastmile_qr_scan", "ios": "https://dc.lft.to/lastmile_qr_scan"}, "fusion_lon": 0.0}, {"lat": 38.9096225, "is_disabled": 0, "type": "electric_scooter", "lon": -77.0323505, "bike_id": "1c764a3bef006439a3195d5f59a446ac", "fusion_lat": 0.0, "name": "1c764a3bef006439a3195d5f59a446ac", "is_reserved": 0, "rental_uris": {"android": "https://dc.lft.to/lastmile_qr_scan", "ios": "https://dc.lft.to/lastmile_qr_scan"}, "fusion_lon": 0.0}, {"lat": 38.90739333333333, "is_disabled": 0, "type": "electric_scooter", "lon": -77.02712833333334, "bike_id": "df5223de7aeed548e90b42360948346d", "fusion_lat": 0.0, "name": "df5223de7aeed548e90b42360948346d", "is_reserved": 0, "rental_uris": {"android": "https://dc.lft.to/lastmile_qr_scan", "ios": "https://dc.lft.to/lastmile_qr_scan"}, "fusion_lon": 0.0}, {"lat": 38.903038, "is_disabled": 0, "type": "electric_scooter", "lon": -77.01195733333333, "bike_id": "735842e0f1290a08452335e3708c6410", "fusion_lat": 0.0, "name": "735842e0f1290a08452335e3708c6410", "is_reserved": 0, "rental_uris": {"android": "https://dc.lft.to/lastmile_qr_scan", "ios": "https://dc.lft.to/lastmile_qr_scan"}, "fusion_lon": 0.0}, {"lat": 38.899977666666665, "is_disabled": 0, "type": "electric_scooter", "lon": -77.03160716666666, "bike_id": "f159b47b242cb159094ce6bb52f6e2fc", "fusion_lat": 0.0, "name": "f159b47b242cb159094ce6bb52f6e2fc", "is_reserved": 0, "rental_uris": {"android": "https://dc.lft.to/lastmile_qr_scan", "ios": "https://dc.lft.to/lastmile_qr_scan"}, "fusion_lon": 0.0}, {"lat": 38.92443566666667, "is_disabled": 0, "type": "electric_scooter", "lon": -77.0403005, "bike_id": "f4c9adcd751f8c518d3882a8127b7b44", "fusion_lat": 0.0, "name": "f4c9adcd751f8c518d3882a8127b7b44", "is_reserved": 0, "rental_uris": {"android": "https://dc.lft.to/lastmile_qr_scan", "ios": "https://dc.lft.to/lastmile_qr_scan"}, "fusion_lon": 0.0}, {"lat": 38.90288733333333, "is_disabled": 0, "type": "electric_scooter", "lon": -77.0384355, "bike_id": "7b39ccb704451225348263b7fc2d002a", "fusion_lat": 0.0, "name": "7b39ccb704451225348263b7fc2d002a", "is_reserved": 0, "rental_uris": {"android": "https://dc.lft.to/lastmile_qr_scan", "ios": "https://dc.lft.to/lastmile_qr_scan"}, "fusion_lon": 0.0}, {"lat": 38.9170715, "is_disabled": 0, "type": "electric_scooter", "lon": -77.03928583333334, "bike_id": "33da5acf3a49dfb78bef32c152fb5a78", "fusion_lat": 0.0, "name": "33da5acf3a49dfb78bef32c152fb5a78", "is_reserved": 0, "rental_uris": {"android": "https://dc.lft.to/lastmile_qr_scan", "ios": "https://dc.lft.to/lastmile_qr_scan"}, "fusion_lon": 0.0}, {"lat": 38.92482616666667, "is_disabled": 0, "type": "electric_scooter", "lon": -77.0347705, "bike_id": "d43726813522e1b0f24719ed313a073f", "fusion_lat": 0.0, "name": "d43726813522e1b0f24719ed313a073f", "is_reserved": 0, "rental_uris": {"android": "https://dc.lft.to/lastmile_qr_scan", "ios": "https://dc.lft.to/lastmile_qr_scan"}, "fusion_lon": 0.0}, {"lat": 38.8862855, "is_disabled": 0, "type": "electric_scooter", "lon": -76.95514133333333, "bike_id": "f32f717ce41f467dcf7dfe4fbc3944a8", "fusion_lat": 0.0, "name": "f32f717ce41f467dcf7dfe4fbc3944a8", "is_reserved": 0, "rental_uris": {"android": "https://dc.lft.to/lastmile_qr_scan", "ios": "https://dc.lft.to/lastmile_qr_scan"}, "fusion_lon": 0.0}, {"lat": 38.915541166666664, "is_disabled": 0, "type": "electric_scooter", "lon": -77.03168916666667, "bike_id": "51abe105ab5dd2a20f52b3354583a3b0", "fusion_lat": 0.0, "name": "51abe105ab5dd2a20f52b3354583a3b0", "is_reserved": 0, "rental_uris": {"android": "https://dc.lft.to/lastmile_qr_scan", "ios": "https://dc.lft.to/lastmile_qr_scan"}, "fusion_lon": 0.0}, {"lat": 38.9048185, "is_disabled": 0, "type": "electric_scooter", "lon": -76.97327583333333, "bike_id": "47a88d0eeedfc81c59ea51da5930e2b6", "fusion_lat": 0.0, "name": "47a88d0eeedfc81c59ea51da5930e2b6", "is_reserved": 0, "rental_uris": {"android": "https://dc.lft.to/lastmile_qr_scan", "ios": "https://dc.lft.to/lastmile_qr_scan"}, "fusion_lon": 0.0}, {"lat": 38.914126333333336, "is_disabled": 0, "type": "electric_scooter", "lon": -77.021139, "bike_id": "8231732404fd2dccc41f07646ad8e8aa", "fusion_lat": 0.0, "name": "8231732404fd2dccc41f07646ad8e8aa", "is_reserved": 0, "rental_uris": {"android": "https://dc.lft.to/lastmile_qr_scan", "ios": "https://dc.lft.to/lastmile_qr_scan"}, "fusion_lon": 0.0}, {"lat": 38.9173215, "is_disabled": 0, "type": "electric_scooter", "lon": -77.036446, "bike_id": "ac0f097f811116321b81bac4929a75f4", "fusion_lat": 0.0, "name": "ac0f097f811116321b81bac4929a75f4", "is_reserved": 0, "rental_uris": {"android": "https://dc.lft.to/lastmile_qr_scan", "ios": "https://dc.lft.to/lastmile_qr_scan"}, "fusion_lon": 0.0}, {"lat": 38.89485533333333, "is_disabled": 0, "type": "electric_scooter", "lon": -77.00225683333333, "bike_id": "04010dd508017c753a9dd7b8e8cab148", "fusion_lat": 0.0, "name": "04010dd508017c753a9dd7b8e8cab148", "is_reserved": 0, "rental_uris": {"android": "https://dc.lft.to/lastmile_qr_scan", "ios": "https://dc.lft.to/lastmile_qr_scan"}, "fusion_lon": 0.0}, {"lat": 38.91050933333333, "is_disabled": 0, "type": "electric_scooter", "lon": -77.04349066666667, "bike_id": "25d908bc71b43d819c38b6ec6699403f", "fusion_lat": 0.0, "name": "25d908bc71b43d819c38b6ec6699403f", "is_reserved": 0, "rental_uris": {"android": "https://dc.lft.to/lastmile_qr_scan", "ios": "https://dc.lft.to/lastmile_qr_scan"}, "fusion_lon": 0.0}, {"lat": 38.902889333333334, "is_disabled": 0, "type": "electric_scooter", "lon": -77.03644683333333, "bike_id": "fcdb382f88921d3b75b214561362384c", "fusion_lat": 0.0, "name": "fcdb382f88921d3b75b214561362384c", "is_reserved": 0, "rental_uris": {"android": "https://dc.lft.to/lastmile_qr_scan", "ios": "https://dc.lft.to/lastmile_qr_scan"}, "fusion_lon": 0.0}, {"lat": 38.906911, "is_disabled": 0, "type": "electric_scooter", "lon": -77.0384025, "bike_id": "df4ce3d54564331e2bc432fccf58a220", "fusion_lat": 0.0, "name": "df4ce3d54564331e2bc432fccf58a220", "is_reserved": 0, "rental_uris": {"android": "https://dc.lft.to/lastmile_qr_scan", "ios": "https://dc.lft.to/lastmile_qr_scan"}, "fusion_lon": 0.0}, {"lat": 38.8922535, "is_disabled": 0, "type": "electric_scooter", "lon": -77.03337766666667, "bike_id": "44d5191434cd3ad74ec10e6e84a27689", "fusion_lat": 0.0, "name": "44d5191434cd3ad74ec10e6e84a27689", "is_reserved": 0, "rental_uris": {"android": "https://dc.lft.to/lastmile_qr_scan", "ios": "https://dc.lft.to/lastmile_qr_scan"}, "fusion_lon": 0.0}, {"lat": 38.898430833333336, "is_disabled": 0, "type": "electric_scooter", "lon": -76.94634166666667, "bike_id": "2893715e3f23cc1b7e01a04af8801832", "fusion_lat": 0.0, "name": "2893715e3f23cc1b7e01a04af8801832", "is_reserved": 0, "rental_uris": {"android": "https://dc.lft.to/lastmile_qr_scan", "ios": "https://dc.lft.to/lastmile_qr_scan"}, "fusion_lon": 0.0}, {"lat": 38.88718183333334, "is_disabled": 0, "type": "electric_scooter", "lon": -76.99614783333334, "bike_id": "a8f80e584cc471dc3ba35e2c42ef010f", "fusion_lat": 0.0, "name": "a8f80e584cc471dc3ba35e2c42ef010f", "is_reserved": 0, "rental_uris": {"android": "https://dc.lft.to/lastmile_qr_scan", "ios": "https://dc.lft.to/lastmile_qr_scan"}, "fusion_lon": 0.0}, {"lat": 38.899983166666665, "is_disabled": 0, "type": "electric_scooter", "lon": -76.99960833333333, "bike_id": "e72ce5b2675c20f6ff17c7ae196dce9b", "fusion_lat": 0.0, "name": "e72ce5b2675c20f6ff17c7ae196dce9b", "is_reserved": 0, "rental_uris": {"android": "https://dc.lft.to/lastmile_qr_scan", "ios": "https://dc.lft.to/lastmile_qr_scan"}, "fusion_lon": 0.0}, {"lat": 38.91996683333333, "is_disabled": 0, "type": "electric_scooter", "lon": -77.03221616666667, "bike_id": "8b8b4d86de6c25ed7bccfa441cb4e0b0", "fusion_lat": 0.0, "name": "8b8b4d86de6c25ed7bccfa441cb4e0b0", "is_reserved": 0, "rental_uris": {"android": "https://dc.lft.to/lastmile_qr_scan", "ios": "https://dc.lft.to/lastmile_qr_scan"}, "fusion_lon": 0.0}, {"lat": 38.9154445, "is_disabled": 0, "type": "electric_scooter", "lon": -77.07417133333334, "bike_id": "25a2488d318d5d353453d5abe164814b", "fusion_lat": 0.0, "name": "25a2488d318d5d353453d5abe164814b", "is_reserved": 0, "rental_uris": {"android": "https://dc.lft.to/lastmile_qr_scan", "ios": "https://dc.lft.to/lastmile_qr_scan"}, "fusion_lon": 0.0}, {"lat": 38.906769, "is_disabled": 0, "type": "electric_scooter", "lon": -77.027173, "bike_id": "1ba5bd43e1bd35595a3b53aa329746b8", "fusion_lat": 0.0, "name": "1ba5bd43e1bd35595a3b53aa329746b8", "is_reserved": 0, "rental_uris": {"android": "https://dc.lft.to/lastmile_qr_scan", "ios": "https://dc.lft.to/lastmile_qr_scan"}, "fusion_lon": 0.0}, {"lat": 38.892843166666665, "is_disabled": 0, "type": "electric_scooter", "lon": -76.95853033333333, "bike_id": "583b4e1085c105bd997b8700609bc1c9", "fusion_lat": 0.0, "name": "583b4e1085c105bd997b8700609bc1c9", "is_reserved": 0, "rental_uris": {"android": "https://dc.lft.to/lastmile_qr_scan", "ios": "https://dc.lft.to/lastmile_qr_scan"}, "fusion_lon": 0.0}, {"lat": 38.9096695, "is_disabled": 0, "type": "electric_scooter", "lon": -76.99604383333333, "bike_id": "bdb3e1782a45868c19ebd64838c4c07e", "fusion_lat": 0.0, "name": "bdb3e1782a45868c19ebd64838c4c07e", "is_reserved": 0, "rental_uris": {"android": "https://dc.lft.to/lastmile_qr_scan", "ios": "https://dc.lft.to/lastmile_qr_scan"}, "fusion_lon": 0.0}, {"lat": 38.929547166666666, "is_disabled": 0, "type": "electric_scooter", "lon": -76.99088133333333, "bike_id": "1490b8c946a6a9adbbb32f06ac66285c", "fusion_lat": 0.0, "name": "1490b8c946a6a9adbbb32f06ac66285c", "is_reserved": 0, "rental_uris": {"android": "https://dc.lft.to/lastmile_qr_scan", "ios": "https://dc.lft.to/lastmile_qr_scan"}, "fusion_lon": 0.0}, {"lat": 38.91098133333333, "is_disabled": 0, "type": "electric_scooter", "lon": -77.0320175, "bike_id": "e75dadddf502f9fc5de46cec58900aeb", "fusion_lat": 0.0, "name": "e75dadddf502f9fc5de46cec58900aeb", "is_reserved": 0, "rental_uris": {"android": "https://dc.lft.to/lastmile_qr_scan", "ios": "https://dc.lft.to/lastmile_qr_scan"}, "fusion_lon": 0.0}, {"lat": 38.9165895, "is_disabled": 0, "type": "electric_scooter", "lon": -77.02272466666666, "bike_id": "ac4dcb4d97125875bb73a392e82ae1b9", "fusion_lat": 0.0, "name": "ac4dcb4d97125875bb73a392e82ae1b9", "is_reserved": 0, "rental_uris": {"android": "https://dc.lft.to/lastmile_qr_scan", "ios": "https://dc.lft.to/lastmile_qr_scan"}, "fusion_lon": 0.0}, {"lat": 38.90998883333334, "is_disabled": 0, "type": "electric_scooter", "lon": -77.04007533333333, "bike_id": "41e6309beec5cdbda86328c4968648a2", "fusion_lat": 0.0, "name": "41e6309beec5cdbda86328c4968648a2", "is_reserved": 0, "rental_uris": {"android": "https://dc.lft.to/lastmile_qr_scan", "ios": "https://dc.lft.to/lastmile_qr_scan"}, "fusion_lon": 0.0}, {"lat": 38.907915333333335, "is_disabled": 0, "type": "electric_scooter", "lon": -77.04001366666667, "bike_id": "807994825a401a64013fd0f29005cd5d", "fusion_lat": 0.0, "name": "807994825a401a64013fd0f29005cd5d", "is_reserved": 0, "rental_uris": {"android": "https://dc.lft.to/lastmile_qr_scan", "ios": "https://dc.lft.to/lastmile_qr_scan"}, "fusion_lon": 0.0}, {"lat": 38.929045333333335, "is_disabled": 0, "type": "electric_scooter", "lon": -77.01643366666667, "bike_id": "bf19162dc1d6e43e86979741cd429d62", "fusion_lat": 0.0, "name": "bf19162dc1d6e43e86979741cd429d62", "is_reserved": 0, "rental_uris": {"android": "https://dc.lft.to/lastmile_qr_scan", "ios": "https://dc.lft.to/lastmile_qr_scan"}, "fusion_lon": 0.0}, {"lat": 38.899008333333335, "is_disabled": 0, "type": "electric_scooter", "lon": -76.93349133333334, "bike_id": "eab477bb798b10214555a1d88007f34e", "fusion_lat": 0.0, "name": "eab477bb798b10214555a1d88007f34e", "is_reserved": 0, "rental_uris": {"android": "https://dc.lft.to/lastmile_qr_scan", "ios": "https://dc.lft.to/lastmile_qr_scan"}, "fusion_lon": 0.0}, {"lat": 38.90726566666667, "is_disabled": 0, "type": "electric_scooter", "lon": -77.02412766666667, "bike_id": "396239d365bb23def512265cd46d415b", "fusion_lat": 0.0, "name": "396239d365bb23def512265cd46d415b", "is_reserved": 0, "rental_uris": {"android": "https://dc.lft.to/lastmile_qr_scan", "ios": "https://dc.lft.to/lastmile_qr_scan"}, "fusion_lon": 0.0}, {"lat": 38.89226933333333, "is_disabled": 0, "type": "electric_scooter", "lon": -77.044667, "bike_id": "71e29cb72d0b4a9fe5277aa147c10046", "fusion_lat": 0.0, "name": "71e29cb72d0b4a9fe5277aa147c10046", "is_reserved": 0, "rental_uris": {"android": "https://dc.lft.to/lastmile_qr_scan", "ios": "https://dc.lft.to/lastmile_qr_scan"}, "fusion_lon": 0.0}, {"lat": 38.88572166666667, "is_disabled": 0, "type": "electric_bike", "lon": -77.08518433333333, "bike_id": "a508f5a36e198fa5432b95bd67fe6f49", "fusion_lat": 0.0, "name": "a508f5a36e198fa5432b95bd67fe6f49", "is_reserved": 0, "rental_uris": {"android": "https://dc.lft.to/lastmile_qr_scan", "ios": "https://dc.lft.to/lastmile_qr_scan"}, "fusion_lon": 0.0}, {"lat": 38.89866716666667, "is_disabled": 0, "type": "electric_scooter", "lon": -77.01980833333333, "bike_id": "ee6fbcc748c4497c0cce9797f74b71a8", "fusion_lat": 0.0, "name": "ee6fbcc748c4497c0cce9797f74b71a8", "is_reserved": 0, "rental_uris": {"android": "https://dc.lft.to/lastmile_qr_scan", "ios": "https://dc.lft.to/lastmile_qr_scan"}, "fusion_lon": 0.0}, {"lat": 38.93123466666667, "is_disabled": 0, "type": "electric_scooter", "lon": -77.03401883333333, "bike_id": "62a86127340fea7bcb6b523587d46bcf", "fusion_lat": 0.0, "name": "62a86127340fea7bcb6b523587d46bcf", "is_reserved": 0, "rental_uris": {"android": "https://dc.lft.to/lastmile_qr_scan", "ios": "https://dc.lft.to/lastmile_qr_scan"}, "fusion_lon": 0.0}, {"lat": 38.853085, "is_disabled": 0, "type": "electric_bike", "lon": -77.131302, "bike_id": "71d75241e72ee299cad81249349e9e36", "fusion_lat": 0.0, "name": "71d75241e72ee299cad81249349e9e36", "is_reserved": 0, "rental_uris": {"android": "https://dc.lft.to/lastmile_qr_scan", "ios": "https://dc.lft.to/lastmile_qr_scan"}, "fusion_lon": 0.0}, {"lat": 38.922866166666665, "is_disabled": 0, "type": "electric_scooter", "lon": -77.03656033333333, "bike_id": "0ccb7b9c7e1b24a397de481622926a61", "fusion_lat": 0.0, "name": "0ccb7b9c7e1b24a397de481622926a61", "is_reserved": 0, "rental_uris": {"android": "https://dc.lft.to/lastmile_qr_scan", "ios": "https://dc.lft.to/lastmile_qr_scan"}, "fusion_lon": 0.0}, {"lat": 38.89252066666667, "is_disabled": 0, "type": "electric_scooter", "lon": -77.0395635, "bike_id": "2950c0af091493380bdc5ef324cde304", "fusion_lat": 0.0, "name": "2950c0af091493380bdc5ef324cde304", "is_reserved": 0, "rental_uris": {"android": "https://dc.lft.to/lastmile_qr_scan", "ios": "https://dc.lft.to/lastmile_qr_scan"}, "fusion_lon": 0.0}, {"lat": 38.94081166666667, "is_disabled": 0, "type": "electric_scooter", "lon": -77.0238995, "bike_id": "db026c0530dcac258925d1c585821dbf", "fusion_lat": 0.0, "name": "db026c0530dcac258925d1c585821dbf", "is_reserved": 0, "rental_uris": {"android": "https://dc.lft.to/lastmile_qr_scan", "ios": "https://dc.lft.to/lastmile_qr_scan"}, "fusion_lon": 0.0}, {"lat": 38.916927666666666, "is_disabled": 0, "type": "electric_scooter", "lon": -77.0356175, "bike_id": "f83024dbad1e072728f999cfa1112815", "fusion_lat": 0.0, "name": "f83024dbad1e072728f999cfa1112815", "is_reserved": 0, "rental_uris": {"android": "https://dc.lft.to/lastmile_qr_scan", "ios": "https://dc.lft.to/lastmile_qr_scan"}, "fusion_lon": 0.0}, {"lat": 38.92982516666667, "is_disabled": 0, "type": "electric_scooter", "lon": -77.05506633333333, "bike_id": "0f7601748f1e024f1fc97182543ea793", "fusion_lat": 0.0, "name": "0f7601748f1e024f1fc97182543ea793", "is_reserved": 0, "rental_uris": {"android": "https://dc.lft.to/lastmile_qr_scan", "ios": "https://dc.lft.to/lastmile_qr_scan"}, "fusion_lon": 0.0}, {"lat": 38.9081375, "is_disabled": 0, "type": "electric_scooter", "lon": -77.04341916666667, "bike_id": "34b5c34d886bad3df3c53586c7232457", "fusion_lat": 0.0, "name": "34b5c34d886bad3df3c53586c7232457", "is_reserved": 0, "rental_uris": {"android": "https://dc.lft.to/lastmile_qr_scan", "ios": "https://dc.lft.to/lastmile_qr_scan"}, "fusion_lon": 0.0}, {"lat": 38.870781, "is_disabled": 0, "type": "electric_scooter", "lon": -76.96868083333334, "bike_id": "eff65d2ddd4775fc651c43317b64787a", "fusion_lat": 0.0, "name": "eff65d2ddd4775fc651c43317b64787a", "is_reserved": 0, "rental_uris": {"android": "https://dc.lft.to/lastmile_qr_scan", "ios": "https://dc.lft.to/lastmile_qr_scan"}, "fusion_lon": 0.0}, {"lat": 38.90132166666667, "is_disabled": 0, "type": "electric_scooter", "lon": -77.02001216666666, "bike_id": "652c02aa378265ae9c2c50a80d863580", "fusion_lat": 0.0, "name": "652c02aa378265ae9c2c50a80d863580", "is_reserved": 0, "rental_uris": {"android": "https://dc.lft.to/lastmile_qr_scan", "ios": "https://dc.lft.to/lastmile_qr_scan"}, "fusion_lon": 0.0}, {"lat": 38.94408266666667, "is_disabled": 0, "type": "electric_scooter", "lon": -77.02645083333333, "bike_id": "38070ff40e16fde3501c132506aa6c2c", "fusion_lat": 0.0, "name": "38070ff40e16fde3501c132506aa6c2c", "is_reserved": 0, "rental_uris": {"android": "https://dc.lft.to/lastmile_qr_scan", "ios": "https://dc.lft.to/lastmile_qr_scan"}, "fusion_lon": 0.0}, {"lat": 38.900638666666666, "is_disabled": 0, "type": "electric_scooter", "lon": -77.0020565, "bike_id": "e12c0a5a0b3d8e2acc243f5cf354d961", "fusion_lat": 0.0, "name": "e12c0a5a0b3d8e2acc243f5cf354d961", "is_reserved": 0, "rental_uris": {"android": "https://dc.lft.to/lastmile_qr_scan", "ios": "https://dc.lft.to/lastmile_qr_scan"}, "fusion_lon": 0.0}, {"lat": 38.8551155, "is_disabled": 0, "type": "electric_bike", "lon": -76.9843825, "bike_id": "59c3cfe982ec93595f14dbd6a8a61615", "fusion_lat": 0.0, "name": "59c3cfe982ec93595f14dbd6a8a61615", "is_reserved": 0, "rental_uris": {"android": "https://dc.lft.to/lastmile_qr_scan", "ios": "https://dc.lft.to/lastmile_qr_scan"}, "fusion_lon": 0.0}, {"lat": 38.87245133333333, "is_disabled": 0, "type": "electric_scooter", "lon": -76.9772235, "bike_id": "4a9d25521aac0e25b171147b4b2805a1", "fusion_lat": 0.0, "name": "4a9d25521aac0e25b171147b4b2805a1", "is_reserved": 0, "rental_uris": {"android": "https://dc.lft.to/lastmile_qr_scan", "ios": "https://dc.lft.to/lastmile_qr_scan"}, "fusion_lon": 0.0}, {"lat": 38.917071166666666, "is_disabled": 0, "type": "electric_scooter", "lon": -77.0335055, "bike_id": "3bc9f17ae4ddb874355ecf4aa73b1725", "fusion_lat": 0.0, "name": "3bc9f17ae4ddb874355ecf4aa73b1725", "is_reserved": 0, "rental_uris": {"android": "https://dc.lft.to/lastmile_qr_scan", "ios": "https://dc.lft.to/lastmile_qr_scan"}, "fusion_lon": 0.0}, {"lat": 38.9126935, "is_disabled": 0, "type": "electric_scooter", "lon": -77.02224116666666, "bike_id": "da009410b59b0acf89bbfa6dcec4f346", "fusion_lat": 0.0, "name": "da009410b59b0acf89bbfa6dcec4f346", "is_reserved": 0, "rental_uris": {"android": "https://dc.lft.to/lastmile_qr_scan", "ios": "https://dc.lft.to/lastmile_qr_scan"}, "fusion_lon": 0.0}, {"lat": 38.90274016666667, "is_disabled": 0, "type": "electric_scooter", "lon": -77.0306725, "bike_id": "e85e50c175214890cfee4d8353d0e53a", "fusion_lat": 0.0, "name": "e85e50c175214890cfee4d8353d0e53a", "is_reserved": 0, "rental_uris": {"android": "https://dc.lft.to/lastmile_qr_scan", "ios": "https://dc.lft.to/lastmile_qr_scan"}, "fusion_lon": 0.0}, {"lat": 38.90262333333333, "is_disabled": 0, "type": "electric_scooter", "lon": -77.04274533333333, "bike_id": "22c795ba709cc626e85573bf05dc4854", "fusion_lat": 0.0, "name": "22c795ba709cc626e85573bf05dc4854", "is_reserved": 0, "rental_uris": {"android": "https://dc.lft.to/lastmile_qr_scan", "ios": "https://dc.lft.to/lastmile_qr_scan"}, "fusion_lon": 0.0}, {"lat": 38.90853833333333, "is_disabled": 0, "type": "electric_scooter", "lon": -77.047669, "bike_id": "193120bcee98cba1e8104b1cc073a38d", "fusion_lat": 0.0, "name": "193120bcee98cba1e8104b1cc073a38d", "is_reserved": 0, "rental_uris": {"android": "https://dc.lft.to/lastmile_qr_scan", "ios": "https://dc.lft.to/lastmile_qr_scan"}, "fusion_lon": 0.0}, {"lat": 38.8892695, "is_disabled": 0, "type": "electric_scooter", "lon": -76.97373266666666, "bike_id": "af4edd4f5d013b3c50e854fce4cd8a51", "fusion_lat": 0.0, "name": "af4edd4f5d013b3c50e854fce4cd8a51", "is_reserved": 0, "rental_uris": {"android": "https://dc.lft.to/lastmile_qr_scan", "ios": "https://dc.lft.to/lastmile_qr_scan"}, "fusion_lon": 0.0}, {"lat": 38.892209, "is_disabled": 0, "type": "electric_scooter", "lon": -77.0316025, "bike_id": "934466daaed2aec1734de82b2eb8d676", "fusion_lat": 0.0, "name": "934466daaed2aec1734de82b2eb8d676", "is_reserved": 0, "rental_uris": {"android": "https://dc.lft.to/lastmile_qr_scan", "ios": "https://dc.lft.to/lastmile_qr_scan"}, "fusion_lon": 0.0}, {"lat": 38.9274685, "is_disabled": 0, "type": "electric_scooter", "lon": -77.0241555, "bike_id": "b4ead90a92759a601cf57c57d3463de6", "fusion_lat": 0.0, "name": "b4ead90a92759a601cf57c57d3463de6", "is_reserved": 0, "rental_uris": {"android": "https://dc.lft.to/lastmile_qr_scan", "ios": "https://dc.lft.to/lastmile_qr_scan"}, "fusion_lon": 0.0}, {"lat": 38.921892666666665, "is_disabled": 0, "type": "electric_scooter", "lon": -77.04703733333334, "bike_id": "a646532582793abe4090ca6b966ded2c", "fusion_lat": 0.0, "name": "a646532582793abe4090ca6b966ded2c", "is_reserved": 0, "rental_uris": {"android": "https://dc.lft.to/lastmile_qr_scan", "ios": "https://dc.lft.to/lastmile_qr_scan"}, "fusion_lon": 0.0}, {"lat": 38.91827716666667, "is_disabled": 0, "type": "electric_scooter", "lon": -77.02700416666667, "bike_id": "05c0f120760ca4047ce0334d6f1db6a2", "fusion_lat": 0.0, "name": "05c0f120760ca4047ce0334d6f1db6a2", "is_reserved": 0, "rental_uris": {"android": "https://dc.lft.to/lastmile_qr_scan", "ios": "https://dc.lft.to/lastmile_qr_scan"}, "fusion_lon": 0.0}, {"lat": 38.9175845, "is_disabled": 0, "type": "electric_scooter", "lon": -77.0383885, "bike_id": "ed4bd8be2b4d47927ba39e66f9f0e7c2", "fusion_lat": 0.0, "name": "ed4bd8be2b4d47927ba39e66f9f0e7c2", "is_reserved": 0, "rental_uris": {"android": "https://dc.lft.to/lastmile_qr_scan", "ios": "https://dc.lft.to/lastmile_qr_scan"}, "fusion_lon": 0.0}, {"lat": 38.903854333333335, "is_disabled": 0, "type": "electric_scooter", "lon": -77.0450775, "bike_id": "a1095ce074d962824d3782827821b604", "fusion_lat": 0.0, "name": "a1095ce074d962824d3782827821b604", "is_reserved": 0, "rental_uris": {"android": "https://dc.lft.to/lastmile_qr_scan", "ios": "https://dc.lft.to/lastmile_qr_scan"}, "fusion_lon": 0.0}, {"lat": 38.897492166666666, "is_disabled": 0, "type": "electric_scooter", "lon": -77.04727966666667, "bike_id": "03777fd277eabeeb22a7fe9f8ebc416d", "fusion_lat": 0.0, "name": "03777fd277eabeeb22a7fe9f8ebc416d", "is_reserved": 0, "rental_uris": {"android": "https://dc.lft.to/lastmile_qr_scan", "ios": "https://dc.lft.to/lastmile_qr_scan"}, "fusion_lon": 0.0}, {"lat": 38.91758883333333, "is_disabled": 0, "type": "electric_scooter", "lon": -77.03840783333334, "bike_id": "8017e6e2a2dfcfe45c72ab6f2ef66f50", "fusion_lat": 0.0, "name": "8017e6e2a2dfcfe45c72ab6f2ef66f50", "is_reserved": 0, "rental_uris": {"android": "https://dc.lft.to/lastmile_qr_scan", "ios": "https://dc.lft.to/lastmile_qr_scan"}, "fusion_lon": 0.0}, {"lat": 38.88577983333333, "is_disabled": 0, "type": "electric_scooter", "lon": -76.91909316666667, "bike_id": "0708ddba1e3191576173435c6d96dee8", "fusion_lat": 0.0, "name": "0708ddba1e3191576173435c6d96dee8", "is_reserved": 0, "rental_uris": {"android": "https://dc.lft.to/lastmile_qr_scan", "ios": "https://dc.lft.to/lastmile_qr_scan"}, "fusion_lon": 0.0}, {"lat": 38.920639, "is_disabled": 0, "type": "electric_scooter", "lon": -77.04206033333334, "bike_id": "80de1306b5beb531da399d5ff58f212e", "fusion_lat": 0.0, "name": "80de1306b5beb531da399d5ff58f212e", "is_reserved": 0, "rental_uris": {"android": "https://dc.lft.to/lastmile_qr_scan", "ios": "https://dc.lft.to/lastmile_qr_scan"}, "fusion_lon": 0.0}, {"lat": 38.93541583333333, "is_disabled": 0, "type": "electric_scooter", "lon": -77.03481616666667, "bike_id": "5df0017b5623e3e5361d1d3f431e11cb", "fusion_lat": 0.0, "name": "5df0017b5623e3e5361d1d3f431e11cb", "is_reserved": 0, "rental_uris": {"android": "https://dc.lft.to/lastmile_qr_scan", "ios": "https://dc.lft.to/lastmile_qr_scan"}, "fusion_lon": 0.0}, {"lat": 38.917365333333336, "is_disabled": 0, "type": "electric_scooter", "lon": -77.04596216666667, "bike_id": "95e0f82e694ff242593ece5c91796a4b", "fusion_lat": 0.0, "name": "95e0f82e694ff242593ece5c91796a4b", "is_reserved": 0, "rental_uris": {"android": "https://dc.lft.to/lastmile_qr_scan", "ios": "https://dc.lft.to/lastmile_qr_scan"}, "fusion_lon": 0.0}, {"lat": 38.91330133333334, "is_disabled": 0, "type": "electric_scooter", "lon": -77.039888, "bike_id": "e4204e77377e1243c02b942f2917e476", "fusion_lat": 0.0, "name": "e4204e77377e1243c02b942f2917e476", "is_reserved": 0, "rental_uris": {"android": "https://dc.lft.to/lastmile_qr_scan", "ios": "https://dc.lft.to/lastmile_qr_scan"}, "fusion_lon": 0.0}, {"lat": 38.90114833333333, "is_disabled": 0, "type": "electric_scooter", "lon": -76.996235, "bike_id": "91253ab8446df7953f63250308ca9608", "fusion_lat": 0.0, "name": "91253ab8446df7953f63250308ca9608", "is_reserved": 0, "rental_uris": {"android": "https://dc.lft.to/lastmile_qr_scan", "ios": "https://dc.lft.to/lastmile_qr_scan"}, "fusion_lon": 0.0}, {"lat": 38.947944, "is_disabled": 0, "type": "electric_scooter", "lon": -77.02171383333334, "bike_id": "4f72308d5d30396172a941214c7da312", "fusion_lat": 0.0, "name": "4f72308d5d30396172a941214c7da312", "is_reserved": 0, "rental_uris": {"android": "https://dc.lft.to/lastmile_qr_scan", "ios": "https://dc.lft.to/lastmile_qr_scan"}, "fusion_lon": 0.0}, {"lat": 38.88373083333333, "is_disabled": 0, "type": "electric_scooter", "lon": -76.99517516666667, "bike_id": "474d26b51d802d87b559b1960051e377", "fusion_lat": 0.0, "name": "474d26b51d802d87b559b1960051e377", "is_reserved": 0, "rental_uris": {"android": "https://dc.lft.to/lastmile_qr_scan", "ios": "https://dc.lft.to/lastmile_qr_scan"}, "fusion_lon": 0.0}, {"lat": 38.883368, "is_disabled": 0, "type": "electric_scooter", "lon": -77.00932083333333, "bike_id": "68cc67b3df69dbc9987aec3f98b9ed22", "fusion_lat": 0.0, "name": "68cc67b3df69dbc9987aec3f98b9ed22", "is_reserved": 0, "rental_uris": {"android": "https://dc.lft.to/lastmile_qr_scan", "ios": "https://dc.lft.to/lastmile_qr_scan"}, "fusion_lon": 0.0}, {"lat": 38.914290666666666, "is_disabled": 0, "type": "electric_scooter", "lon": -77.031812, "bike_id": "22affbc71b182404a4f67611f2ccab6a", "fusion_lat": 0.0, "name": "22affbc71b182404a4f67611f2ccab6a", "is_reserved": 0, "rental_uris": {"android": "https://dc.lft.to/lastmile_qr_scan", "ios": "https://dc.lft.to/lastmile_qr_scan"}, "fusion_lon": 0.0}, {"lat": 38.8921875, "is_disabled": 0, "type": "electric_scooter", "lon": -77.02624866666666, "bike_id": "78df28862ffc99c70650b1695e522b44", "fusion_lat": 0.0, "name": "78df28862ffc99c70650b1695e522b44", "is_reserved": 0, "rental_uris": {"android": "https://dc.lft.to/lastmile_qr_scan", "ios": "https://dc.lft.to/lastmile_qr_scan"}, "fusion_lon": 0.0}, {"lat": 38.906854, "is_disabled": 0, "type": "electric_scooter", "lon": -77.02691433333334, "bike_id": "5f80712b67f2a9e8ffb54826e01cc523", "fusion_lat": 0.0, "name": "5f80712b67f2a9e8ffb54826e01cc523", "is_reserved": 0, "rental_uris": {"android": "https://dc.lft.to/lastmile_qr_scan", "ios": "https://dc.lft.to/lastmile_qr_scan"}, "fusion_lon": 0.0}, {"lat": 38.7932415, "is_disabled": 0, "type": "electric_bike", "lon": -77.04017716666667, "bike_id": "1331982cfd79042b220a5015c9b71465", "fusion_lat": 0.0, "name": "1331982cfd79042b220a5015c9b71465", "is_reserved": 0, "rental_uris": {"android": "https://dc.lft.to/lastmile_qr_scan", "ios": "https://dc.lft.to/lastmile_qr_scan"}, "fusion_lon": 0.0}, {"lat": 38.8737135, "is_disabled": 0, "type": "electric_bike", "lon": -77.118054, "bike_id": "38788b9726c421fb81db35bcd2d6225e", "fusion_lat": 0.0, "name": "38788b9726c421fb81db35bcd2d6225e", "is_reserved": 0, "rental_uris": {"android": "https://dc.lft.to/lastmile_qr_scan", "ios": "https://dc.lft.to/lastmile_qr_scan"}, "fusion_lon": 0.0}, {"lat": 38.90132366666667, "is_disabled": 0, "type": "electric_scooter", "lon": -77.04400533333333, "bike_id": "6d38d9564623d9ee0cbd49238d474199", "fusion_lat": 0.0, "name": "6d38d9564623d9ee0cbd49238d474199", "is_reserved": 0, "rental_uris": {"android": "https://dc.lft.to/lastmile_qr_scan", "ios": "https://dc.lft.to/lastmile_qr_scan"}, "fusion_lon": 0.0}, {"lat": 38.931921333333335, "is_disabled": 0, "type": "electric_scooter", "lon": -77.0283545, "bike_id": "37a4710796518f02f7162888ebbfe9ba", "fusion_lat": 0.0, "name": "37a4710796518f02f7162888ebbfe9ba", "is_reserved": 0, "rental_uris": {"android": "https://dc.lft.to/lastmile_qr_scan", "ios": "https://dc.lft.to/lastmile_qr_scan"}, "fusion_lon": 0.0}, {"lat": 38.92683566666667, "is_disabled": 0, "type": "electric_scooter", "lon": -77.0157435, "bike_id": "d83dc6007cd2e238120bf590ce45d1a1", "fusion_lat": 0.0, "name": "d83dc6007cd2e238120bf590ce45d1a1", "is_reserved": 0, "rental_uris": {"android": "https://dc.lft.to/lastmile_qr_scan", "ios": "https://dc.lft.to/lastmile_qr_scan"}, "fusion_lon": 0.0}, {"lat": 38.949060333333335, "is_disabled": 0, "type": "electric_bike", "lon": -76.97238766666666, "bike_id": "f03aa2361bd92b98e341e848053d395e", "fusion_lat": 0.0, "name": "f03aa2361bd92b98e341e848053d395e", "is_reserved": 0, "rental_uris": {"android": "https://dc.lft.to/lastmile_qr_scan", "ios": "https://dc.lft.to/lastmile_qr_scan"}, "fusion_lon": 0.0}, {"lat": 38.9133135, "is_disabled": 0, "type": "electric_scooter", "lon": -77.03189766666667, "bike_id": "502309830c450b746f8eb0695e66ddd6", "fusion_lat": 0.0, "name": "502309830c450b746f8eb0695e66ddd6", "is_reserved": 0, "rental_uris": {"android": "https://dc.lft.to/lastmile_qr_scan", "ios": "https://dc.lft.to/lastmile_qr_scan"}, "fusion_lon": 0.0}, {"lat": 38.899051, "is_disabled": 0, "type": "electric_scooter", "lon": -77.03252733333333, "bike_id": "625f5d91c2d82213c69e836c9c90d66e", "fusion_lat": 0.0, "name": "625f5d91c2d82213c69e836c9c90d66e", "is_reserved": 0, "rental_uris": {"android": "https://dc.lft.to/lastmile_qr_scan", "ios": "https://dc.lft.to/lastmile_qr_scan"}, "fusion_lon": 0.0}, {"lat": 38.890072333333336, "is_disabled": 0, "type": "electric_scooter", "lon": -76.93744416666667, "bike_id": "a7c0d6729978fd58ea1e2d7b1dda6c87", "fusion_lat": 0.0, "name": "a7c0d6729978fd58ea1e2d7b1dda6c87", "is_reserved": 0, "rental_uris": {"android": "https://dc.lft.to/lastmile_qr_scan", "ios": "https://dc.lft.to/lastmile_qr_scan"}, "fusion_lon": 0.0}, {"lat": 38.9208285, "is_disabled": 0, "type": "electric_scooter", "lon": -77.01749716666667, "bike_id": "e8ee6e672bdf1d9b5aa9260cb0434918", "fusion_lat": 0.0, "name": "e8ee6e672bdf1d9b5aa9260cb0434918", "is_reserved": 0, "rental_uris": {"android": "https://dc.lft.to/lastmile_qr_scan", "ios": "https://dc.lft.to/lastmile_qr_scan"}, "fusion_lon": 0.0}, {"lat": 38.88675633333333, "is_disabled": 0, "type": "electric_bike", "lon": -77.162437, "bike_id": "c74dbce62061708399886281094a1451", "fusion_lat": 0.0, "name": "c74dbce62061708399886281094a1451", "is_reserved": 0, "rental_uris": {"android": "https://dc.lft.to/lastmile_qr_scan", "ios": "https://dc.lft.to/lastmile_qr_scan"}, "fusion_lon": 0.0}, {"lat": 38.90110516666667, "is_disabled": 0, "type": "electric_scooter", "lon": -76.99549633333334, "bike_id": "5f40dc5d6f95e636d2b5840b57aef57d", "fusion_lat": 0.0, "name": "5f40dc5d6f95e636d2b5840b57aef57d", "is_reserved": 0, "rental_uris": {"android": "https://dc.lft.to/lastmile_qr_scan", "ios": "https://dc.lft.to/lastmile_qr_scan"}, "fusion_lon": 0.0}, {"lat": 38.89904683333334, "is_disabled": 0, "type": "electric_scooter", "lon": -77.03260133333333, "bike_id": "e1af6dac04f2e3e54d105025d58ace84", "fusion_lat": 0.0, "name": "e1af6dac04f2e3e54d105025d58ace84", "is_reserved": 0, "rental_uris": {"android": "https://dc.lft.to/lastmile_qr_scan", "ios": "https://dc.lft.to/lastmile_qr_scan"}, "fusion_lon": 0.0}, {"lat": 38.90419933333333, "is_disabled": 0, "type": "electric_scooter", "lon": -77.06888633333334, "bike_id": "10ba520314d357da30b50dc0e13b85ba", "fusion_lat": 0.0, "name": "10ba520314d357da30b50dc0e13b85ba", "is_reserved": 0, "rental_uris": {"android": "https://dc.lft.to/lastmile_qr_scan", "ios": "https://dc.lft.to/lastmile_qr_scan"}, "fusion_lon": 0.0}, {"lat": 38.9101255, "is_disabled": 0, "type": "electric_scooter", "lon": -76.99389366666666, "bike_id": "8ee825a24a6d3920088d77131246ddbe", "fusion_lat": 0.0, "name": "8ee825a24a6d3920088d77131246ddbe", "is_reserved": 0, "rental_uris": {"android": "https://dc.lft.to/lastmile_qr_scan", "ios": "https://dc.lft.to/lastmile_qr_scan"}, "fusion_lon": 0.0}, {"lat": 38.91675716666666, "is_disabled": 0, "type": "electric_scooter", "lon": -77.02720233333334, "bike_id": "9cfca93de821f2f7911e7906add3a1fc", "fusion_lat": 0.0, "name": "9cfca93de821f2f7911e7906add3a1fc", "is_reserved": 0, "rental_uris": {"android": "https://dc.lft.to/lastmile_qr_scan", "ios": "https://dc.lft.to/lastmile_qr_scan"}, "fusion_lon": 0.0}, {"lat": 38.92993383333334, "is_disabled": 0, "type": "electric_scooter", "lon": -77.0363725, "bike_id": "f87cc94f94a3595ca63a3a06da6e41c6", "fusion_lat": 0.0, "name": "f87cc94f94a3595ca63a3a06da6e41c6", "is_reserved": 0, "rental_uris": {"android": "https://dc.lft.to/lastmile_qr_scan", "ios": "https://dc.lft.to/lastmile_qr_scan"}, "fusion_lon": 0.0}, {"lat": 38.91713383333333, "is_disabled": 0, "type": "electric_scooter", "lon": -77.0312105, "bike_id": "82c37d3a3cc91c9d41ac78ddae9618db", "fusion_lat": 0.0, "name": "82c37d3a3cc91c9d41ac78ddae9618db", "is_reserved": 0, "rental_uris": {"android": "https://dc.lft.to/lastmile_qr_scan", "ios": "https://dc.lft.to/lastmile_qr_scan"}, "fusion_lon": 0.0}, {"lat": 38.892232166666666, "is_disabled": 0, "type": "electric_scooter", "lon": -77.041983, "bike_id": "7700bb0e5df277cb539bb4aa8ec6dd02", "fusion_lat": 0.0, "name": "7700bb0e5df277cb539bb4aa8ec6dd02", "is_reserved": 0, "rental_uris": {"android": "https://dc.lft.to/lastmile_qr_scan", "ios": "https://dc.lft.to/lastmile_qr_scan"}, "fusion_lon": 0.0}, {"lat": 38.90059216666667, "is_disabled": 0, "type": "electric_scooter", "lon": -77.00200283333334, "bike_id": "49f8f620865e0b7a09b5229ecd350dbc", "fusion_lat": 0.0, "name": "49f8f620865e0b7a09b5229ecd350dbc", "is_reserved": 0, "rental_uris": {"android": "https://dc.lft.to/lastmile_qr_scan", "ios": "https://dc.lft.to/lastmile_qr_scan"}, "fusion_lon": 0.0}, {"lat": 38.92086833333333, "is_disabled": 0, "type": "electric_scooter", "lon": -77.03642616666667, "bike_id": "8a76537b56aab67432e724af7cb0288d", "fusion_lat": 0.0, "name": "8a76537b56aab67432e724af7cb0288d", "is_reserved": 0, "rental_uris": {"android": "https://dc.lft.to/lastmile_qr_scan", "ios": "https://dc.lft.to/lastmile_qr_scan"}, "fusion_lon": 0.0}, {"lat": 38.935282666666666, "is_disabled": 0, "type": "electric_scooter", "lon": -77.07295666666667, "bike_id": "f18003301182458379fbe723930ab753", "fusion_lat": 0.0, "name": "f18003301182458379fbe723930ab753", "is_reserved": 0, "rental_uris": {"android": "https://dc.lft.to/lastmile_qr_scan", "ios": "https://dc.lft.to/lastmile_qr_scan"}, "fusion_lon": 0.0}, {"lat": 38.881963999999996, "is_disabled": 0, "type": "electric_scooter", "lon": -76.9950995, "bike_id": "5cb2d1a53323a7fe02ce932a11734d26", "fusion_lat": 0.0, "name": "5cb2d1a53323a7fe02ce932a11734d26", "is_reserved": 0, "rental_uris": {"android": "https://dc.lft.to/lastmile_qr_scan", "ios": "https://dc.lft.to/lastmile_qr_scan"}, "fusion_lon": 0.0}, {"lat": 38.910642333333335, "is_disabled": 0, "type": "electric_scooter", "lon": -77.03085933333334, "bike_id": "3531bbc5e265e44eb0fa0fbcaf6b05bf", "fusion_lat": 0.0, "name": "3531bbc5e265e44eb0fa0fbcaf6b05bf", "is_reserved": 0, "rental_uris": {"android": "https://dc.lft.to/lastmile_qr_scan", "ios": "https://dc.lft.to/lastmile_qr_scan"}, "fusion_lon": 0.0}, {"lat": 38.9154985, "is_disabled": 0, "type": "electric_scooter", "lon": -77.0385095, "bike_id": "15628539616d808deb328b2272bb4a52", "fusion_lat": 0.0, "name": "15628539616d808deb328b2272bb4a52", "is_reserved": 0, "rental_uris": {"android": "https://dc.lft.to/lastmile_qr_scan", "ios": "https://dc.lft.to/lastmile_qr_scan"}, "fusion_lon": 0.0}, {"lat": 38.9156065, "is_disabled": 0, "type": "electric_scooter", "lon": -77.03153583333334, "bike_id": "03ed58c5f0623308bc5b89f8df4199e3", "fusion_lat": 0.0, "name": "03ed58c5f0623308bc5b89f8df4199e3", "is_reserved": 0, "rental_uris": {"android": "https://dc.lft.to/lastmile_qr_scan", "ios": "https://dc.lft.to/lastmile_qr_scan"}, "fusion_lon": 0.0}, {"lat": 38.92040433333333, "is_disabled": 0, "type": "electric_scooter", "lon": -77.041832, "bike_id": "e8390939c0c2c66e69e8925c52006af1", "fusion_lat": 0.0, "name": "e8390939c0c2c66e69e8925c52006af1", "is_reserved": 0, "rental_uris": {"android": "https://dc.lft.to/lastmile_qr_scan", "ios": "https://dc.lft.to/lastmile_qr_scan"}, "fusion_lon": 0.0}, {"lat": 38.89343616666667, "is_disabled": 0, "type": "electric_scooter", "lon": -76.991614, "bike_id": "03986a4bbc87ecd6271604068b27d437", "fusion_lat": 0.0, "name": "03986a4bbc87ecd6271604068b27d437", "is_reserved": 0, "rental_uris": {"android": "https://dc.lft.to/lastmile_qr_scan", "ios": "https://dc.lft.to/lastmile_qr_scan"}, "fusion_lon": 0.0}, {"lat": 38.913580833333334, "is_disabled": 0, "type": "electric_scooter", "lon": -77.03362333333334, "bike_id": "e0366aee03fdcc1b10d49e26f0cf195b", "fusion_lat": 0.0, "name": "e0366aee03fdcc1b10d49e26f0cf195b", "is_reserved": 0, "rental_uris": {"android": "https://dc.lft.to/lastmile_qr_scan", "ios": "https://dc.lft.to/lastmile_qr_scan"}, "fusion_lon": 0.0}, {"lat": 38.892223, "is_disabled": 0, "type": "electric_scooter", "lon": -76.93299816666666, "bike_id": "1e5db3b043b1fb5b7b40c6b304805ea0", "fusion_lat": 0.0, "name": "1e5db3b043b1fb5b7b40c6b304805ea0", "is_reserved": 0, "rental_uris": {"android": "https://dc.lft.to/lastmile_qr_scan", "ios": "https://dc.lft.to/lastmile_qr_scan"}, "fusion_lon": 0.0}, {"lat": 38.905051666666665, "is_disabled": 0, "type": "electric_scooter", "lon": -77.048832, "bike_id": "25334e0fa98d87344ed0f82c30e2382e", "fusion_lat": 0.0, "name": "25334e0fa98d87344ed0f82c30e2382e", "is_reserved": 0, "rental_uris": {"android": "https://dc.lft.to/lastmile_qr_scan", "ios": "https://dc.lft.to/lastmile_qr_scan"}, "fusion_lon": 0.0}, {"lat": 38.905547, "is_disabled": 0, "type": "electric_scooter", "lon": -77.03978, "bike_id": "1acf4c9c998337a06d2e45299ed8dfb5", "fusion_lat": 0.0, "name": "1acf4c9c998337a06d2e45299ed8dfb5", "is_reserved": 0, "rental_uris": {"android": "https://dc.lft.to/lastmile_qr_scan", "ios": "https://dc.lft.to/lastmile_qr_scan"}, "fusion_lon": 0.0}, {"lat": 38.902205, "is_disabled": 0, "type": "electric_scooter", "lon": -77.059116, "bike_id": "eb83857717afd688145f4c28697595aa", "fusion_lat": 0.0, "name": "eb83857717afd688145f4c28697595aa", "is_reserved": 0, "rental_uris": {"android": "https://dc.lft.to/lastmile_qr_scan", "ios": "https://dc.lft.to/lastmile_qr_scan"}, "fusion_lon": 0.0}, {"lat": 38.90094, "is_disabled": 0, "type": "electric_scooter", "lon": -77.055973, "bike_id": "c8d262c420fbdd585c3c0d7ec3617b71", "fusion_lat": 0.0, "name": "c8d262c420fbdd585c3c0d7ec3617b71", "is_reserved": 0, "rental_uris": {"android": "https://dc.lft.to/lastmile_qr_scan", "ios": "https://dc.lft.to/lastmile_qr_scan"}, "fusion_lon": 0.0}, {"lat": 38.91569533333333, "is_disabled": 0, "type": "electric_scooter", "lon": -77.022882, "bike_id": "5b2e7b821aaf69d6fd6f0b7aba8e7348", "fusion_lat": 0.0, "name": "5b2e7b821aaf69d6fd6f0b7aba8e7348", "is_reserved": 0, "rental_uris": {"android": "https://dc.lft.to/lastmile_qr_scan", "ios": "https://dc.lft.to/lastmile_qr_scan"}, "fusion_lon": 0.0}, {"lat": 38.86505833333333, "is_disabled": 0, "type": "electric_scooter", "lon": -76.99005983333333, "bike_id": "4d0947d1054a66ee6fe7be13153dc12d", "fusion_lat": 0.0, "name": "4d0947d1054a66ee6fe7be13153dc12d", "is_reserved": 0, "rental_uris": {"android": "https://dc.lft.to/lastmile_qr_scan", "ios": "https://dc.lft.to/lastmile_qr_scan"}, "fusion_lon": 0.0}, {"lat": 38.90042833333333, "is_disabled": 0, "type": "electric_scooter", "lon": -77.00698383333334, "bike_id": "7ad3a6aa7292b06ebdfcf8bff83fc233", "fusion_lat": 0.0, "name": "7ad3a6aa7292b06ebdfcf8bff83fc233", "is_reserved": 0, "rental_uris": {"android": "https://dc.lft.to/lastmile_qr_scan", "ios": "https://dc.lft.to/lastmile_qr_scan"}, "fusion_lon": 0.0}, {"lat": 38.89810933333333, "is_disabled": 0, "type": "electric_scooter", "lon": -77.02815516666666, "bike_id": "21ff71719c71f93b3a1aea1670b91d4a", "fusion_lat": 0.0, "name": "21ff71719c71f93b3a1aea1670b91d4a", "is_reserved": 0, "rental_uris": {"android": "https://dc.lft.to/lastmile_qr_scan", "ios": "https://dc.lft.to/lastmile_qr_scan"}, "fusion_lon": 0.0}, {"lat": 38.89224433333333, "is_disabled": 0, "type": "electric_scooter", "lon": -77.02212166666666, "bike_id": "2c6eeabb4c957833c06a2350aead0e93", "fusion_lat": 0.0, "name": "2c6eeabb4c957833c06a2350aead0e93", "is_reserved": 0, "rental_uris": {"android": "https://dc.lft.to/lastmile_qr_scan", "ios": "https://dc.lft.to/lastmile_qr_scan"}, "fusion_lon": 0.0}, {"lat": 38.9034125, "is_disabled": 0, "type": "electric_scooter", "lon": -77.02605666666666, "bike_id": "faf0c09385314496696672d02db3ffb8", "fusion_lat": 0.0, "name": "faf0c09385314496696672d02db3ffb8", "is_reserved": 0, "rental_uris": {"android": "https://dc.lft.to/lastmile_qr_scan", "ios": "https://dc.lft.to/lastmile_qr_scan"}, "fusion_lon": 0.0}, {"lat": 38.941766333333334, "is_disabled": 0, "type": "electric_scooter", "lon": -77.0250075, "bike_id": "d2c30ac64823066111ef0be71bfc527a", "fusion_lat": 0.0, "name": "d2c30ac64823066111ef0be71bfc527a", "is_reserved": 0, "rental_uris": {"android": "https://dc.lft.to/lastmile_qr_scan", "ios": "https://dc.lft.to/lastmile_qr_scan"}, "fusion_lon": 0.0}, {"lat": 38.908155, "is_disabled": 0, "type": "electric_scooter", "lon": -77.04361566666667, "bike_id": "fe374878684469965316bcbc93634b90", "fusion_lat": 0.0, "name": "fe374878684469965316bcbc93634b90", "is_reserved": 0, "rental_uris": {"android": "https://dc.lft.to/lastmile_qr_scan", "ios": "https://dc.lft.to/lastmile_qr_scan"}, "fusion_lon": 0.0}, {"lat": 38.9073895, "is_disabled": 0, "type": "electric_scooter", "lon": -77.02715566666667, "bike_id": "84c4f731cb758851d22486819a7145e8", "fusion_lat": 0.0, "name": "84c4f731cb758851d22486819a7145e8", "is_reserved": 0, "rental_uris": {"android": "https://dc.lft.to/lastmile_qr_scan", "ios": "https://dc.lft.to/lastmile_qr_scan"}, "fusion_lon": 0.0}, {"lat": 38.903565666666665, "is_disabled": 0, "type": "electric_scooter", "lon": -77.03309033333333, "bike_id": "6bac68265b4233afb340ae89b24ed10a", "fusion_lat": 0.0, "name": "6bac68265b4233afb340ae89b24ed10a", "is_reserved": 0, "rental_uris": {"android": "https://dc.lft.to/lastmile_qr_scan", "ios": "https://dc.lft.to/lastmile_qr_scan"}, "fusion_lon": 0.0}, {"lat": 38.932805, "is_disabled": 0, "type": "electric_scooter", "lon": -77.02841016666666, "bike_id": "eec9c15fccc9fb2753216c68256129e0", "fusion_lat": 0.0, "name": "eec9c15fccc9fb2753216c68256129e0", "is_reserved": 0, "rental_uris": {"android": "https://dc.lft.to/lastmile_qr_scan", "ios": "https://dc.lft.to/lastmile_qr_scan"}, "fusion_lon": 0.0}, {"lat": 38.91816, "is_disabled": 0, "type": "electric_scooter", "lon": -77.0391255, "bike_id": "0efe0632cdae1b2eddd72392363cc2ba", "fusion_lat": 0.0, "name": "0efe0632cdae1b2eddd72392363cc2ba", "is_reserved": 0, "rental_uris": {"android": "https://dc.lft.to/lastmile_qr_scan", "ios": "https://dc.lft.to/lastmile_qr_scan"}, "fusion_lon": 0.0}, {"lat": 38.91707566666667, "is_disabled": 0, "type": "electric_scooter", "lon": -77.03496733333333, "bike_id": "880c4fe9a80ff167f95337978cbb5137", "fusion_lat": 0.0, "name": "880c4fe9a80ff167f95337978cbb5137", "is_reserved": 0, "rental_uris": {"android": "https://dc.lft.to/lastmile_qr_scan", "ios": "https://dc.lft.to/lastmile_qr_scan"}, "fusion_lon": 0.0}, {"lat": 38.9173425, "is_disabled": 0, "type": "electric_scooter", "lon": -77.03659883333333, "bike_id": "8d2476a8386e8c232b810266b0c77e34", "fusion_lat": 0.0, "name": "8d2476a8386e8c232b810266b0c77e34", "is_reserved": 0, "rental_uris": {"android": "https://dc.lft.to/lastmile_qr_scan", "ios": "https://dc.lft.to/lastmile_qr_scan"}, "fusion_lon": 0.0}, {"lat": 38.898413166666664, "is_disabled": 0, "type": "electric_bike", "lon": -77.02500516666667, "bike_id": "a9d6ac38cba16e5d3c37d348fcd92578", "fusion_lat": 0.0, "name": "a9d6ac38cba16e5d3c37d348fcd92578", "is_reserved": 0, "rental_uris": {"android": "https://dc.lft.to/lastmile_qr_scan", "ios": "https://dc.lft.to/lastmile_qr_scan"}, "fusion_lon": 0.0}, {"lat": 38.996368833333335, "is_disabled": 0, "type": "electric_bike", "lon": -77.02978333333333, "bike_id": "52b8f89c33047084627e977f64de53b3", "fusion_lat": 0.0, "name": "52b8f89c33047084627e977f64de53b3", "is_reserved": 0, "rental_uris": {"android": "https://dc.lft.to/lastmile_qr_scan", "ios": "https://dc.lft.to/lastmile_qr_scan"}, "fusion_lon": 0.0}, {"lat": 38.915650666666664, "is_disabled": 0, "type": "electric_scooter", "lon": -77.02981016666666, "bike_id": "ccdc7f1a8b9329f1a56fcc3c0b8986ba", "fusion_lat": 0.0, "name": "ccdc7f1a8b9329f1a56fcc3c0b8986ba", "is_reserved": 0, "rental_uris": {"android": "https://dc.lft.to/lastmile_qr_scan", "ios": "https://dc.lft.to/lastmile_qr_scan"}, "fusion_lon": 0.0}, {"lat": 38.88428016666667, "is_disabled": 0, "type": "electric_scooter", "lon": -77.027975, "bike_id": "829338a0c9be27d18d4618359bef72ff", "fusion_lat": 0.0, "name": "829338a0c9be27d18d4618359bef72ff", "is_reserved": 0, "rental_uris": {"android": "https://dc.lft.to/lastmile_qr_scan", "ios": "https://dc.lft.to/lastmile_qr_scan"}, "fusion_lon": 0.0}, {"lat": 38.9073685, "is_disabled": 0, "type": "electric_scooter", "lon": -77.0280185, "bike_id": "0a511d62a277f628615af0354ebb332f", "fusion_lat": 0.0, "name": "0a511d62a277f628615af0354ebb332f", "is_reserved": 0, "rental_uris": {"android": "https://dc.lft.to/lastmile_qr_scan", "ios": "https://dc.lft.to/lastmile_qr_scan"}, "fusion_lon": 0.0}, {"lat": 38.9115075, "is_disabled": 0, "type": "electric_scooter", "lon": -77.00474283333334, "bike_id": "34d9f3d8524f2ceed02735690d06b30f", "fusion_lat": 0.0, "name": "34d9f3d8524f2ceed02735690d06b30f", "is_reserved": 0, "rental_uris": {"android": "https://dc.lft.to/lastmile_qr_scan", "ios": "https://dc.lft.to/lastmile_qr_scan"}, "fusion_lon": 0.0}, {"lat": 38.926141666666666, "is_disabled": 0, "type": "electric_scooter", "lon": -77.0215565, "bike_id": "1c54256aa2def27070c1d813a7e7857b", "fusion_lat": 0.0, "name": "1c54256aa2def27070c1d813a7e7857b", "is_reserved": 0, "rental_uris": {"android": "https://dc.lft.to/lastmile_qr_scan", "ios": "https://dc.lft.to/lastmile_qr_scan"}, "fusion_lon": 0.0}, {"lat": 38.88372433333333, "is_disabled": 0, "type": "electric_scooter", "lon": -76.99516666666666, "bike_id": "1fd521461342cd99d5c4e27730acace4", "fusion_lat": 0.0, "name": "1fd521461342cd99d5c4e27730acace4", "is_reserved": 0, "rental_uris": {"android": "https://dc.lft.to/lastmile_qr_scan", "ios": "https://dc.lft.to/lastmile_qr_scan"}, "fusion_lon": 0.0}, {"lat": 38.91524283333333, "is_disabled": 0, "type": "electric_scooter", "lon": -77.021998, "bike_id": "786aad7e8d75aa82452384e117b3a40c", "fusion_lat": 0.0, "name": "786aad7e8d75aa82452384e117b3a40c", "is_reserved": 0, "rental_uris": {"android": "https://dc.lft.to/lastmile_qr_scan", "ios": "https://dc.lft.to/lastmile_qr_scan"}, "fusion_lon": 0.0}, {"lat": 38.90140366666667, "is_disabled": 0, "type": "electric_scooter", "lon": -77.0418995, "bike_id": "4bca0db050b3fd0bc980b546ea212c0b", "fusion_lat": 0.0, "name": "4bca0db050b3fd0bc980b546ea212c0b", "is_reserved": 0, "rental_uris": {"android": "https://dc.lft.to/lastmile_qr_scan", "ios": "https://dc.lft.to/lastmile_qr_scan"}, "fusion_lon": 0.0}, {"lat": 38.9058795, "is_disabled": 0, "type": "electric_scooter", "lon": -76.9862265, "bike_id": "cdafa5686a2b945e1f64b88653a99eac", "fusion_lat": 0.0, "name": "cdafa5686a2b945e1f64b88653a99eac", "is_reserved": 0, "rental_uris": {"android": "https://dc.lft.to/lastmile_qr_scan", "ios": "https://dc.lft.to/lastmile_qr_scan"}, "fusion_lon": 0.0}, {"lat": 38.90679466666667, "is_disabled": 0, "type": "electric_scooter", "lon": -77.0269385, "bike_id": "97c80f12eed2a863fa3a6ff5b3c8da7a", "fusion_lat": 0.0, "name": "97c80f12eed2a863fa3a6ff5b3c8da7a", "is_reserved": 0, "rental_uris": {"android": "https://dc.lft.to/lastmile_qr_scan", "ios": "https://dc.lft.to/lastmile_qr_scan"}, "fusion_lon": 0.0}, {"lat": 38.88534383333333, "is_disabled": 0, "type": "electric_scooter", "lon": -76.998284, "bike_id": "21caa1f6aa8a0e1de6afd53bd148a2e6", "fusion_lat": 0.0, "name": "21caa1f6aa8a0e1de6afd53bd148a2e6", "is_reserved": 0, "rental_uris": {"android": "https://dc.lft.to/lastmile_qr_scan", "ios": "https://dc.lft.to/lastmile_qr_scan"}, "fusion_lon": 0.0}, {"lat": 38.901392, "is_disabled": 0, "type": "electric_scooter", "lon": -77.0418785, "bike_id": "8df5218c3d58f403665bab87a017a479", "fusion_lat": 0.0, "name": "8df5218c3d58f403665bab87a017a479", "is_reserved": 0, "rental_uris": {"android": "https://dc.lft.to/lastmile_qr_scan", "ios": "https://dc.lft.to/lastmile_qr_scan"}, "fusion_lon": 0.0}, {"lat": 38.8670935, "is_disabled": 0, "type": "electric_scooter", "lon": -76.98727716666667, "bike_id": "91ddc55ae8dc0c2a1be2dc7b886ec8c4", "fusion_lat": 0.0, "name": "91ddc55ae8dc0c2a1be2dc7b886ec8c4", "is_reserved": 0, "rental_uris": {"android": "https://dc.lft.to/lastmile_qr_scan", "ios": "https://dc.lft.to/lastmile_qr_scan"}, "fusion_lon": 0.0}, {"lat": 38.84507966666666, "is_disabled": 0, "type": "electric_bike", "lon": -76.9935135, "bike_id": "192e93d3b96620f18350a90c75ada847", "fusion_lat": 0.0, "name": "192e93d3b96620f18350a90c75ada847", "is_reserved": 0, "rental_uris": {"android": "https://dc.lft.to/lastmile_qr_scan", "ios": "https://dc.lft.to/lastmile_qr_scan"}, "fusion_lon": 0.0}, {"lat": 38.90244666666667, "is_disabled": 0, "type": "electric_scooter", "lon": -77.037754, "bike_id": "dc0068b32b497f20fc09385fd3005d04", "fusion_lat": 0.0, "name": "dc0068b32b497f20fc09385fd3005d04", "is_reserved": 0, "rental_uris": {"android": "https://dc.lft.to/lastmile_qr_scan", "ios": "https://dc.lft.to/lastmile_qr_scan"}, "fusion_lon": 0.0}, {"lat": 38.925459333333336, "is_disabled": 0, "type": "electric_scooter", "lon": -77.0526635, "bike_id": "88866dbf1c3f1a3a2a4419e6db109bea", "fusion_lat": 0.0, "name": "88866dbf1c3f1a3a2a4419e6db109bea", "is_reserved": 0, "rental_uris": {"android": "https://dc.lft.to/lastmile_qr_scan", "ios": "https://dc.lft.to/lastmile_qr_scan"}, "fusion_lon": 0.0}, {"lat": 38.91283283333333, "is_disabled": 0, "type": "electric_scooter", "lon": -77.04510166666667, "bike_id": "a163a2b0d730ec1ec13758ba0bc7dea7", "fusion_lat": 0.0, "name": "a163a2b0d730ec1ec13758ba0bc7dea7", "is_reserved": 0, "rental_uris": {"android": "https://dc.lft.to/lastmile_qr_scan", "ios": "https://dc.lft.to/lastmile_qr_scan"}, "fusion_lon": 0.0}, {"lat": 38.932567, "is_disabled": 0, "type": "electric_scooter", "lon": -77.03269516666667, "bike_id": "d1789df0e276d212cd6fe118be41dc3f", "fusion_lat": 0.0, "name": "d1789df0e276d212cd6fe118be41dc3f", "is_reserved": 0, "rental_uris": {"android": "https://dc.lft.to/lastmile_qr_scan", "ios": "https://dc.lft.to/lastmile_qr_scan"}, "fusion_lon": 0.0}, {"lat": 38.9168135, "is_disabled": 0, "type": "electric_scooter", "lon": -77.02962766666667, "bike_id": "ad0e9e84a77ba8642298685cf19d310b", "fusion_lat": 0.0, "name": "ad0e9e84a77ba8642298685cf19d310b", "is_reserved": 0, "rental_uris": {"android": "https://dc.lft.to/lastmile_qr_scan", "ios": "https://dc.lft.to/lastmile_qr_scan"}, "fusion_lon": 0.0}, {"lat": 38.917930166666665, "is_disabled": 0, "type": "electric_scooter", "lon": -77.04039233333333, "bike_id": "bcff221f7624611f0a3bbdc2d39242c0", "fusion_lat": 0.0, "name": "bcff221f7624611f0a3bbdc2d39242c0", "is_reserved": 0, "rental_uris": {"android": "https://dc.lft.to/lastmile_qr_scan", "ios": "https://dc.lft.to/lastmile_qr_scan"}, "fusion_lon": 0.0}, {"lat": 38.91640966666667, "is_disabled": 0, "type": "electric_scooter", "lon": -77.04785116666666, "bike_id": "101a97723687cf60ae46d15188ab3ca6", "fusion_lat": 0.0, "name": "101a97723687cf60ae46d15188ab3ca6", "is_reserved": 0, "rental_uris": {"android": "https://dc.lft.to/lastmile_qr_scan", "ios": "https://dc.lft.to/lastmile_qr_scan"}, "fusion_lon": 0.0}, {"lat": 38.937122, "is_disabled": 0, "type": "electric_scooter", "lon": -77.0363765, "bike_id": "325756bc72d8cf9f7f94e8d30a12db86", "fusion_lat": 0.0, "name": "325756bc72d8cf9f7f94e8d30a12db86", "is_reserved": 0, "rental_uris": {"android": "https://dc.lft.to/lastmile_qr_scan", "ios": "https://dc.lft.to/lastmile_qr_scan"}, "fusion_lon": 0.0}, {"lat": 38.9308815, "is_disabled": 0, "type": "electric_scooter", "lon": -77.03746816666667, "bike_id": "16bbc6f39fd3baaf5fb91312c8c338f8", "fusion_lat": 0.0, "name": "16bbc6f39fd3baaf5fb91312c8c338f8", "is_reserved": 0, "rental_uris": {"android": "https://dc.lft.to/lastmile_qr_scan", "ios": "https://dc.lft.to/lastmile_qr_scan"}, "fusion_lon": 0.0}, {"lat": 38.91777866666666, "is_disabled": 0, "type": "electric_scooter", "lon": -77.0231315, "bike_id": "eced450df1c6bec654434ce6eb7213b7", "fusion_lat": 0.0, "name": "eced450df1c6bec654434ce6eb7213b7", "is_reserved": 0, "rental_uris": {"android": "https://dc.lft.to/lastmile_qr_scan", "ios": "https://dc.lft.to/lastmile_qr_scan"}, "fusion_lon": 0.0}, {"lat": 38.914183, "is_disabled": 0, "type": "electric_scooter", "lon": -77.031768, "bike_id": "a7edd6b38f4011f260fb7fb8e44591d3", "fusion_lat": 0.0, "name": "a7edd6b38f4011f260fb7fb8e44591d3", "is_reserved": 0, "rental_uris": {"android": "https://dc.lft.to/lastmile_qr_scan", "ios": "https://dc.lft.to/lastmile_qr_scan"}, "fusion_lon": 0.0}, {"lat": 38.90032816666667, "is_disabled": 0, "type": "electric_scooter", "lon": -76.993794, "bike_id": "75a2f6c449fe2a0a12841b679795b4d9", "fusion_lat": 0.0, "name": "75a2f6c449fe2a0a12841b679795b4d9", "is_reserved": 0, "rental_uris": {"android": "https://dc.lft.to/lastmile_qr_scan", "ios": "https://dc.lft.to/lastmile_qr_scan"}, "fusion_lon": 0.0}, {"lat": 38.935159666666664, "is_disabled": 0, "type": "electric_scooter", "lon": -77.03268566666667, "bike_id": "58e541569318a4e12227d6243db283e0", "fusion_lat": 0.0, "name": "58e541569318a4e12227d6243db283e0", "is_reserved": 0, "rental_uris": {"android": "https://dc.lft.to/lastmile_qr_scan", "ios": "https://dc.lft.to/lastmile_qr_scan"}, "fusion_lon": 0.0}, {"lat": 38.884607833333334, "is_disabled": 0, "type": "electric_scooter", "lon": -77.02587833333334, "bike_id": "1f431634b61631bf6302f10d2ae4dc4d", "fusion_lat": 0.0, "name": "1f431634b61631bf6302f10d2ae4dc4d", "is_reserved": 0, "rental_uris": {"android": "https://dc.lft.to/lastmile_qr_scan", "ios": "https://dc.lft.to/lastmile_qr_scan"}, "fusion_lon": 0.0}, {"lat": 38.93639866666667, "is_disabled": 0, "type": "electric_scooter", "lon": -77.025128, "bike_id": "6cc3600b107c5fb3d3338458f7f3586e", "fusion_lat": 0.0, "name": "6cc3600b107c5fb3d3338458f7f3586e", "is_reserved": 0, "rental_uris": {"android": "https://dc.lft.to/lastmile_qr_scan", "ios": "https://dc.lft.to/lastmile_qr_scan"}, "fusion_lon": 0.0}, {"lat": 38.92534166666667, "is_disabled": 0, "type": "electric_scooter", "lon": -77.0441885, "bike_id": "df3139dda0a8ae0d3d12f93e78f647a3", "fusion_lat": 0.0, "name": "df3139dda0a8ae0d3d12f93e78f647a3", "is_reserved": 0, "rental_uris": {"android": "https://dc.lft.to/lastmile_qr_scan", "ios": "https://dc.lft.to/lastmile_qr_scan"}, "fusion_lon": 0.0}, {"lat": 38.9112375, "is_disabled": 0, "type": "electric_scooter", "lon": -77.038422, "bike_id": "de19fffe14a7557126b200b26fa0c871", "fusion_lat": 0.0, "name": "de19fffe14a7557126b200b26fa0c871", "is_reserved": 0, "rental_uris": {"android": "https://dc.lft.to/lastmile_qr_scan", "ios": "https://dc.lft.to/lastmile_qr_scan"}, "fusion_lon": 0.0}, {"lat": 38.8934935, "is_disabled": 0, "type": "electric_scooter", "lon": -77.0414105, "bike_id": "0a8b565b1bff75acd56c904998114a3a", "fusion_lat": 0.0, "name": "0a8b565b1bff75acd56c904998114a3a", "is_reserved": 0, "rental_uris": {"android": "https://dc.lft.to/lastmile_qr_scan", "ios": "https://dc.lft.to/lastmile_qr_scan"}, "fusion_lon": 0.0}, {"lat": 38.91821266666667, "is_disabled": 0, "type": "electric_scooter", "lon": -77.03163066666667, "bike_id": "5a694f5de891b959184ea24e8b50a350", "fusion_lat": 0.0, "name": "5a694f5de891b959184ea24e8b50a350", "is_reserved": 0, "rental_uris": {"android": "https://dc.lft.to/lastmile_qr_scan", "ios": "https://dc.lft.to/lastmile_qr_scan"}, "fusion_lon": 0.0}, {"lat": 38.8771865, "is_disabled": 0, "type": "electric_scooter", "lon": -77.01755066666666, "bike_id": "7d29a44220103275fc7cfa8c778521e9", "fusion_lat": 0.0, "name": "7d29a44220103275fc7cfa8c778521e9", "is_reserved": 0, "rental_uris": {"android": "https://dc.lft.to/lastmile_qr_scan", "ios": "https://dc.lft.to/lastmile_qr_scan"}, "fusion_lon": 0.0}, {"lat": 38.90678783333333, "is_disabled": 0, "type": "electric_scooter", "lon": -77.02701066666667, "bike_id": "e6f80fc1f31447b5e9142caa6c1b78c9", "fusion_lat": 0.0, "name": "e6f80fc1f31447b5e9142caa6c1b78c9", "is_reserved": 0, "rental_uris": {"android": "https://dc.lft.to/lastmile_qr_scan", "ios": "https://dc.lft.to/lastmile_qr_scan"}, "fusion_lon": 0.0}, {"lat": 38.955732166666664, "is_disabled": 0, "type": "electric_bike", "lon": -77.03650383333333, "bike_id": "579f149a34ce8b185ce1cb680e0681f0", "fusion_lat": 0.0, "name": "579f149a34ce8b185ce1cb680e0681f0", "is_reserved": 0, "rental_uris": {"android": "https://dc.lft.to/lastmile_qr_scan", "ios": "https://dc.lft.to/lastmile_qr_scan"}, "fusion_lon": 0.0}, {"lat": 38.92283416666667, "is_disabled": 0, "type": "electric_scooter", "lon": -77.0297155, "bike_id": "36d0a6a0099ae48719e428114cb8f0db", "fusion_lat": 0.0, "name": "36d0a6a0099ae48719e428114cb8f0db", "is_reserved": 0, "rental_uris": {"android": "https://dc.lft.to/lastmile_qr_scan", "ios": "https://dc.lft.to/lastmile_qr_scan"}, "fusion_lon": 0.0}, {"lat": 38.9555555, "is_disabled": 0, "type": "electric_bike", "lon": -76.93546916666666, "bike_id": "ebef2ac771762e30b3d1fcd1772f5647", "fusion_lat": 0.0, "name": "ebef2ac771762e30b3d1fcd1772f5647", "is_reserved": 0, "rental_uris": {"android": "https://dc.lft.to/lastmile_qr_scan", "ios": "https://dc.lft.to/lastmile_qr_scan"}, "fusion_lon": 0.0}, {"lat": 38.91848483333333, "is_disabled": 0, "type": "electric_scooter", "lon": -77.03440833333333, "bike_id": "f8d834358856e85194f2b051d38e03d9", "fusion_lat": 0.0, "name": "f8d834358856e85194f2b051d38e03d9", "is_reserved": 0, "rental_uris": {"android": "https://dc.lft.to/lastmile_qr_scan", "ios": "https://dc.lft.to/lastmile_qr_scan"}, "fusion_lon": 0.0}, {"lat": 38.89924383333334, "is_disabled": 0, "type": "electric_scooter", "lon": -76.93372066666667, "bike_id": "86f222a058c58a26111f83732e5382cf", "fusion_lat": 0.0, "name": "86f222a058c58a26111f83732e5382cf", "is_reserved": 0, "rental_uris": {"android": "https://dc.lft.to/lastmile_qr_scan", "ios": "https://dc.lft.to/lastmile_qr_scan"}, "fusion_lon": 0.0}, {"lat": 38.89879283333333, "is_disabled": 0, "type": "electric_scooter", "lon": -77.053375, "bike_id": "c2bdae26ce7919149c10dd9038fb8f28", "fusion_lat": 0.0, "name": "c2bdae26ce7919149c10dd9038fb8f28", "is_reserved": 0, "rental_uris": {"android": "https://dc.lft.to/lastmile_qr_scan", "ios": "https://dc.lft.to/lastmile_qr_scan"}, "fusion_lon": 0.0}, {"lat": 38.863485833333336, "is_disabled": 0, "type": "electric_scooter", "lon": -76.99004133333334, "bike_id": "71769559b75b9c6194365899330617aa", "fusion_lat": 0.0, "name": "71769559b75b9c6194365899330617aa", "is_reserved": 0, "rental_uris": {"android": "https://dc.lft.to/lastmile_qr_scan", "ios": "https://dc.lft.to/lastmile_qr_scan"}, "fusion_lon": 0.0}, {"lat": 38.95551866666667, "is_disabled": 0, "type": "electric_bike", "lon": -77.069257, "bike_id": "72ea17b08e508320065a1b71c1d7ca7b", "fusion_lat": 0.0, "name": "72ea17b08e508320065a1b71c1d7ca7b", "is_reserved": 0, "rental_uris": {"android": "https://dc.lft.to/lastmile_qr_scan", "ios": "https://dc.lft.to/lastmile_qr_scan"}, "fusion_lon": 0.0}, {"lat": 38.91334033333333, "is_disabled": 0, "type": "electric_scooter", "lon": -77.0317375, "bike_id": "4c7fd874b3e0993bd02432749c32b649", "fusion_lat": 0.0, "name": "4c7fd874b3e0993bd02432749c32b649", "is_reserved": 0, "rental_uris": {"android": "https://dc.lft.to/lastmile_qr_scan", "ios": "https://dc.lft.to/lastmile_qr_scan"}, "fusion_lon": 0.0}, {"lat": 38.915586833333336, "is_disabled": 0, "type": "electric_scooter", "lon": -77.03170283333333, "bike_id": "c4ba1203e3590d65aaae51bc622ef025", "fusion_lat": 0.0, "name": "c4ba1203e3590d65aaae51bc622ef025", "is_reserved": 0, "rental_uris": {"android": "https://dc.lft.to/lastmile_qr_scan", "ios": "https://dc.lft.to/lastmile_qr_scan"}, "fusion_lon": 0.0}, {"lat": 38.905679, "is_disabled": 0, "type": "electric_scooter", "lon": -77.02533783333334, "bike_id": "f103ac87ecfda836286a7b5039890b2e", "fusion_lat": 0.0, "name": "f103ac87ecfda836286a7b5039890b2e", "is_reserved": 0, "rental_uris": {"android": "https://dc.lft.to/lastmile_qr_scan", "ios": "https://dc.lft.to/lastmile_qr_scan"}, "fusion_lon": 0.0}, {"lat": 38.80681916666666, "is_disabled": 0, "type": "electric_bike", "lon": -77.08120666666667, "bike_id": "529e1068c17686eb74c99121662419b6", "fusion_lat": 0.0, "name": "529e1068c17686eb74c99121662419b6", "is_reserved": 0, "rental_uris": {"android": "https://dc.lft.to/lastmile_qr_scan", "ios": "https://dc.lft.to/lastmile_qr_scan"}, "fusion_lon": 0.0}, {"lat": 38.92167333333333, "is_disabled": 0, "type": "electric_scooter", "lon": -77.03267633333333, "bike_id": "7a88650c45a777a1ac6ab890002c9174", "fusion_lat": 0.0, "name": "7a88650c45a777a1ac6ab890002c9174", "is_reserved": 0, "rental_uris": {"android": "https://dc.lft.to/lastmile_qr_scan", "ios": "https://dc.lft.to/lastmile_qr_scan"}, "fusion_lon": 0.0}, {"lat": 38.89717516666666, "is_disabled": 0, "type": "electric_scooter", "lon": -77.02585966666666, "bike_id": "a64619466bb2a8f3ef8ab024a2565f50", "fusion_lat": 0.0, "name": "a64619466bb2a8f3ef8ab024a2565f50", "is_reserved": 0, "rental_uris": {"android": "https://dc.lft.to/lastmile_qr_scan", "ios": "https://dc.lft.to/lastmile_qr_scan"}, "fusion_lon": 0.0}, {"lat": 38.903798, "is_disabled": 0, "type": "electric_scooter", "lon": -77.04507283333334, "bike_id": "7d5768c99a92faea3f33e499b013d130", "fusion_lat": 0.0, "name": "7d5768c99a92faea3f33e499b013d130", "is_reserved": 0, "rental_uris": {"android": "https://dc.lft.to/lastmile_qr_scan", "ios": "https://dc.lft.to/lastmile_qr_scan"}, "fusion_lon": 0.0}, {"lat": 38.90571516666667, "is_disabled": 0, "type": "electric_scooter", "lon": -77.00568816666667, "bike_id": "3ba694e021792068cadddd6c55479b7d", "fusion_lat": 0.0, "name": "3ba694e021792068cadddd6c55479b7d", "is_reserved": 0, "rental_uris": {"android": "https://dc.lft.to/lastmile_qr_scan", "ios": "https://dc.lft.to/lastmile_qr_scan"}, "fusion_lon": 0.0}, {"lat": 38.92254033333333, "is_disabled": 0, "type": "electric_scooter", "lon": -77.019467, "bike_id": "9ae6e97e27a6f9ac7693b444a9224b87", "fusion_lat": 0.0, "name": "9ae6e97e27a6f9ac7693b444a9224b87", "is_reserved": 0, "rental_uris": {"android": "https://dc.lft.to/lastmile_qr_scan", "ios": "https://dc.lft.to/lastmile_qr_scan"}, "fusion_lon": 0.0}, {"lat": 38.87091316666667, "is_disabled": 0, "type": "electric_bike", "lon": -77.01216883333333, "bike_id": "60b4428be492ff054e46e9f3b5fb66e3", "fusion_lat": 0.0, "name": "60b4428be492ff054e46e9f3b5fb66e3", "is_reserved": 0, "rental_uris": {"android": "https://dc.lft.to/lastmile_qr_scan", "ios": "https://dc.lft.to/lastmile_qr_scan"}, "fusion_lon": 0.0}, {"lat": 38.84350633333333, "is_disabled": 0, "type": "electric_bike", "lon": -77.05167766666666, "bike_id": "a7470246d716a4b81fcb84b2fc8fbb48", "fusion_lat": 0.0, "name": "a7470246d716a4b81fcb84b2fc8fbb48", "is_reserved": 0, "rental_uris": {"android": "https://dc.lft.to/lastmile_qr_scan", "ios": "https://dc.lft.to/lastmile_qr_scan"}, "fusion_lon": 0.0}, {"lat": 38.87181533333333, "is_disabled": 0, "type": "electric_scooter", "lon": -77.00608466666667, "bike_id": "80393c44fe9cdc3cfbc6f35dcdc73755", "fusion_lat": 0.0, "name": "80393c44fe9cdc3cfbc6f35dcdc73755", "is_reserved": 0, "rental_uris": {"android": "https://dc.lft.to/lastmile_qr_scan", "ios": "https://dc.lft.to/lastmile_qr_scan"}, "fusion_lon": 0.0}, {"lat": 38.9076395, "is_disabled": 0, "type": "electric_scooter", "lon": -77.07024383333334, "bike_id": "6caafb7c7e515544e59dd203497c1e69", "fusion_lat": 0.0, "name": "6caafb7c7e515544e59dd203497c1e69", "is_reserved": 0, "rental_uris": {"android": "https://dc.lft.to/lastmile_qr_scan", "ios": "https://dc.lft.to/lastmile_qr_scan"}, "fusion_lon": 0.0}, {"lat": 38.907328666666665, "is_disabled": 0, "type": "electric_scooter", "lon": -76.93542566666666, "bike_id": "a16fcab9252b2f3d80a3c567740080ec", "fusion_lat": 0.0, "name": "a16fcab9252b2f3d80a3c567740080ec", "is_reserved": 0, "rental_uris": {"android": "https://dc.lft.to/lastmile_qr_scan", "ios": "https://dc.lft.to/lastmile_qr_scan"}, "fusion_lon": 0.0}, {"lat": 38.903282833333336, "is_disabled": 0, "type": "electric_scooter", "lon": -76.97599166666667, "bike_id": "0ed3ece13a2ec192e0bda7e2eeb06b24", "fusion_lat": 0.0, "name": "0ed3ece13a2ec192e0bda7e2eeb06b24", "is_reserved": 0, "rental_uris": {"android": "https://dc.lft.to/lastmile_qr_scan", "ios": "https://dc.lft.to/lastmile_qr_scan"}, "fusion_lon": 0.0}, {"lat": 38.851872166666666, "is_disabled": 0, "type": "electric_bike", "lon": -76.9611135, "bike_id": "4b482f230edc274b19f4a71ddad37ba3", "fusion_lat": 0.0, "name": "4b482f230edc274b19f4a71ddad37ba3", "is_reserved": 0, "rental_uris": {"android": "https://dc.lft.to/lastmile_qr_scan", "ios": "https://dc.lft.to/lastmile_qr_scan"}, "fusion_lon": 0.0}, {"lat": 38.92252216666667, "is_disabled": 0, "type": "electric_scooter", "lon": -77.033493, "bike_id": "03611041f007c2954834c99c266c4aa9", "fusion_lat": 0.0, "name": "03611041f007c2954834c99c266c4aa9", "is_reserved": 0, "rental_uris": {"android": "https://dc.lft.to/lastmile_qr_scan", "ios": "https://dc.lft.to/lastmile_qr_scan"}, "fusion_lon": 0.0}, {"lat": 38.941006, "is_disabled": 0, "type": "electric_scooter", "lon": -77.02108416666667, "bike_id": "2513275bd5bff9bdcb596814a7ec4cfa", "fusion_lat": 0.0, "name": "2513275bd5bff9bdcb596814a7ec4cfa", "is_reserved": 0, "rental_uris": {"android": "https://dc.lft.to/lastmile_qr_scan", "ios": "https://dc.lft.to/lastmile_qr_scan"}, "fusion_lon": 0.0}, {"lat": 38.908548333333336, "is_disabled": 0, "type": "electric_scooter", "lon": -77.03865166666667, "bike_id": "c2a4457a88ea9b96da9d4b6cafded395", "fusion_lat": 0.0, "name": "c2a4457a88ea9b96da9d4b6cafded395", "is_reserved": 0, "rental_uris": {"android": "https://dc.lft.to/lastmile_qr_scan", "ios": "https://dc.lft.to/lastmile_qr_scan"}, "fusion_lon": 0.0}, {"lat": 38.898443666666665, "is_disabled": 0, "type": "electric_scooter", "lon": -76.9463455, "bike_id": "5b897c6572c850dc616e1ed2fafa07ba", "fusion_lat": 0.0, "name": "5b897c6572c850dc616e1ed2fafa07ba", "is_reserved": 0, "rental_uris": {"android": "https://dc.lft.to/lastmile_qr_scan", "ios": "https://dc.lft.to/lastmile_qr_scan"}, "fusion_lon": 0.0}, {"lat": 38.91562016666666, "is_disabled": 0, "type": "electric_scooter", "lon": -77.03142516666666, "bike_id": "1ad40012eb9e4e5b0f33f79464086244", "fusion_lat": 0.0, "name": "1ad40012eb9e4e5b0f33f79464086244", "is_reserved": 0, "rental_uris": {"android": "https://dc.lft.to/lastmile_qr_scan", "ios": "https://dc.lft.to/lastmile_qr_scan"}, "fusion_lon": 0.0}, {"lat": 38.8669205, "is_disabled": 0, "type": "electric_scooter", "lon": -76.98545783333333, "bike_id": "623a058ce95c1766e66a66ac7e91a82a", "fusion_lat": 0.0, "name": "623a058ce95c1766e66a66ac7e91a82a", "is_reserved": 0, "rental_uris": {"android": "https://dc.lft.to/lastmile_qr_scan", "ios": "https://dc.lft.to/lastmile_qr_scan"}, "fusion_lon": 0.0}, {"lat": 38.91141983333333, "is_disabled": 0, "type": "electric_scooter", "lon": -77.0190115, "bike_id": "256093f418d9e5f22fdb4e33d48531d9", "fusion_lat": 0.0, "name": "256093f418d9e5f22fdb4e33d48531d9", "is_reserved": 0, "rental_uris": {"android": "https://dc.lft.to/lastmile_qr_scan", "ios": "https://dc.lft.to/lastmile_qr_scan"}, "fusion_lon": 0.0}, {"lat": 38.905942, "is_disabled": 0, "type": "electric_scooter", "lon": -77.0626585, "bike_id": "641ebe3c69209ca6a24c11a8a54668aa", "fusion_lat": 0.0, "name": "641ebe3c69209ca6a24c11a8a54668aa", "is_reserved": 0, "rental_uris": {"android": "https://dc.lft.to/lastmile_qr_scan", "ios": "https://dc.lft.to/lastmile_qr_scan"}, "fusion_lon": 0.0}, {"lat": 38.90061166666667, "is_disabled": 0, "type": "electric_scooter", "lon": -77.002078, "bike_id": "969063caa328a104229169fc74d78a33", "fusion_lat": 0.0, "name": "969063caa328a104229169fc74d78a33", "is_reserved": 0, "rental_uris": {"android": "https://dc.lft.to/lastmile_qr_scan", "ios": "https://dc.lft.to/lastmile_qr_scan"}, "fusion_lon": 0.0}, {"lat": 38.85520733333333, "is_disabled": 0, "type": "electric_bike", "lon": -77.1202335, "bike_id": "d258c4d47f3f81be4404363067c37941", "fusion_lat": 0.0, "name": "d258c4d47f3f81be4404363067c37941", "is_reserved": 0, "rental_uris": {"android": "https://dc.lft.to/lastmile_qr_scan", "ios": "https://dc.lft.to/lastmile_qr_scan"}, "fusion_lon": 0.0}, {"lat": 38.918068833333336, "is_disabled": 0, "type": "electric_scooter", "lon": -77.04030683333333, "bike_id": "38bd0b652250f675f22163ae85e2a83f", "fusion_lat": 0.0, "name": "38bd0b652250f675f22163ae85e2a83f", "is_reserved": 0, "rental_uris": {"android": "https://dc.lft.to/lastmile_qr_scan", "ios": "https://dc.lft.to/lastmile_qr_scan"}, "fusion_lon": 0.0}, {"lat": 38.919544, "is_disabled": 0, "type": "electric_scooter", "lon": -76.98074133333333, "bike_id": "af8e7892e0b2c8b69c98718aabd324a5", "fusion_lat": 0.0, "name": "af8e7892e0b2c8b69c98718aabd324a5", "is_reserved": 0, "rental_uris": {"android": "https://dc.lft.to/lastmile_qr_scan", "ios": "https://dc.lft.to/lastmile_qr_scan"}, "fusion_lon": 0.0}, {"lat": 38.89883916666667, "is_disabled": 0, "type": "electric_scooter", "lon": -77.0396645, "bike_id": "7781910be54a73f1d902cb839861d196", "fusion_lat": 0.0, "name": "7781910be54a73f1d902cb839861d196", "is_reserved": 0, "rental_uris": {"android": "https://dc.lft.to/lastmile_qr_scan", "ios": "https://dc.lft.to/lastmile_qr_scan"}, "fusion_lon": 0.0}, {"lat": 38.89221883333333, "is_disabled": 0, "type": "electric_scooter", "lon": -77.04864916666666, "bike_id": "a2b14af2510d790e9884acd4b636b47f", "fusion_lat": 0.0, "name": "a2b14af2510d790e9884acd4b636b47f", "is_reserved": 0, "rental_uris": {"android": "https://dc.lft.to/lastmile_qr_scan", "ios": "https://dc.lft.to/lastmile_qr_scan"}, "fusion_lon": 0.0}, {"lat": 38.923010833333336, "is_disabled": 0, "type": "electric_scooter", "lon": -77.04145333333334, "bike_id": "e64465619cf24c3470349b0ef8035f1d", "fusion_lat": 0.0, "name": "e64465619cf24c3470349b0ef8035f1d", "is_reserved": 0, "rental_uris": {"android": "https://dc.lft.to/lastmile_qr_scan", "ios": "https://dc.lft.to/lastmile_qr_scan"}, "fusion_lon": 0.0}, {"lat": 38.907811, "is_disabled": 0, "type": "electric_scooter", "lon": -77.00399933333334, "bike_id": "a5890ef373d2455f5492d2e91f7261a4", "fusion_lat": 0.0, "name": "a5890ef373d2455f5492d2e91f7261a4", "is_reserved": 0, "rental_uris": {"android": "https://dc.lft.to/lastmile_qr_scan", "ios": "https://dc.lft.to/lastmile_qr_scan"}, "fusion_lon": 0.0}, {"lat": 38.8594295, "is_disabled": 0, "type": "electric_bike", "lon": -77.086111, "bike_id": "a6a4506a46e6e8dcd7be7bba94019c4a", "fusion_lat": 0.0, "name": "a6a4506a46e6e8dcd7be7bba94019c4a", "is_reserved": 0, "rental_uris": {"android": "https://dc.lft.to/lastmile_qr_scan", "ios": "https://dc.lft.to/lastmile_qr_scan"}, "fusion_lon": 0.0}, {"lat": 38.885254333333336, "is_disabled": 0, "type": "electric_scooter", "lon": -77.011339, "bike_id": "c599eeade46dca6236667dd09329aaa9", "fusion_lat": 0.0, "name": "c599eeade46dca6236667dd09329aaa9", "is_reserved": 0, "rental_uris": {"android": "https://dc.lft.to/lastmile_qr_scan", "ios": "https://dc.lft.to/lastmile_qr_scan"}, "fusion_lon": 0.0}, {"lat": 38.93329, "is_disabled": 0, "type": "electric_scooter", "lon": -77.0436975, "bike_id": "33e7631d1dab8ca99f4dbc3a56452987", "fusion_lat": 0.0, "name": "33e7631d1dab8ca99f4dbc3a56452987", "is_reserved": 0, "rental_uris": {"android": "https://dc.lft.to/lastmile_qr_scan", "ios": "https://dc.lft.to/lastmile_qr_scan"}, "fusion_lon": 0.0}, {"lat": 38.932519666666664, "is_disabled": 0, "type": "electric_scooter", "lon": -77.0272975, "bike_id": "072fee6dc85159b30f68a5977f7facc2", "fusion_lat": 0.0, "name": "072fee6dc85159b30f68a5977f7facc2", "is_reserved": 0, "rental_uris": {"android": "https://dc.lft.to/lastmile_qr_scan", "ios": "https://dc.lft.to/lastmile_qr_scan"}, "fusion_lon": 0.0}, {"lat": 38.91819066666667, "is_disabled": 0, "type": "electric_scooter", "lon": -77.03184333333333, "bike_id": "161242180e7ef829d35c44ccafa06ea7", "fusion_lat": 0.0, "name": "161242180e7ef829d35c44ccafa06ea7", "is_reserved": 0, "rental_uris": {"android": "https://dc.lft.to/lastmile_qr_scan", "ios": "https://dc.lft.to/lastmile_qr_scan"}, "fusion_lon": 0.0}, {"lat": 38.90221833333333, "is_disabled": 0, "type": "electric_scooter", "lon": -77.0605555, "bike_id": "8a7949354e162cd61a02a5769ad2f020", "fusion_lat": 0.0, "name": "8a7949354e162cd61a02a5769ad2f020", "is_reserved": 0, "rental_uris": {"android": "https://dc.lft.to/lastmile_qr_scan", "ios": "https://dc.lft.to/lastmile_qr_scan"}, "fusion_lon": 0.0}, {"lat": 38.90732966666667, "is_disabled": 0, "type": "electric_scooter", "lon": -77.00342533333334, "bike_id": "b70d2188a3b1ddb8f8f8e545c10d0aa2", "fusion_lat": 0.0, "name": "b70d2188a3b1ddb8f8f8e545c10d0aa2", "is_reserved": 0, "rental_uris": {"android": "https://dc.lft.to/lastmile_qr_scan", "ios": "https://dc.lft.to/lastmile_qr_scan"}, "fusion_lon": 0.0}, {"lat": 38.937408, "is_disabled": 0, "type": "electric_scooter", "lon": -77.03629083333334, "bike_id": "c8818100d42c03ce1c43ef2610e3632d", "fusion_lat": 0.0, "name": "c8818100d42c03ce1c43ef2610e3632d", "is_reserved": 0, "rental_uris": {"android": "https://dc.lft.to/lastmile_qr_scan", "ios": "https://dc.lft.to/lastmile_qr_scan"}, "fusion_lon": 0.0}, {"lat": 38.922324833333334, "is_disabled": 0, "type": "electric_scooter", "lon": -77.04614683333334, "bike_id": "43e85274a54fdd93428a1d87a9a29982", "fusion_lat": 0.0, "name": "43e85274a54fdd93428a1d87a9a29982", "is_reserved": 0, "rental_uris": {"android": "https://dc.lft.to/lastmile_qr_scan", "ios": "https://dc.lft.to/lastmile_qr_scan"}, "fusion_lon": 0.0}, {"lat": 38.8278495, "is_disabled": 0, "type": "electric_bike", "lon": -77.00916516666666, "bike_id": "0c8916f039be0e3ed402a290afb42cc7", "fusion_lat": 0.0, "name": "0c8916f039be0e3ed402a290afb42cc7", "is_reserved": 0, "rental_uris": {"android": "https://dc.lft.to/lastmile_qr_scan", "ios": "https://dc.lft.to/lastmile_qr_scan"}, "fusion_lon": 0.0}, {"lat": 38.90556316666667, "is_disabled": 0, "type": "electric_scooter", "lon": -77.027977, "bike_id": "2588c70272a8f647f0642b4fc472ed01", "fusion_lat": 0.0, "name": "2588c70272a8f647f0642b4fc472ed01", "is_reserved": 0, "rental_uris": {"android": "https://dc.lft.to/lastmile_qr_scan", "ios": "https://dc.lft.to/lastmile_qr_scan"}, "fusion_lon": 0.0}, {"lat": 38.98648, "is_disabled": 0, "type": "electric_bike", "lon": -77.056388, "bike_id": "b8ab9f411075c0a3d2034f2740ab5d8b", "fusion_lat": 0.0, "name": "b8ab9f411075c0a3d2034f2740ab5d8b", "is_reserved": 0, "rental_uris": {"android": "https://dc.lft.to/lastmile_qr_scan", "ios": "https://dc.lft.to/lastmile_qr_scan"}, "fusion_lon": 0.0},