{"data": {"bikes": [{"fusion_lat": 0.0, "bike_id": "ec8be182405a6f1ff62134ae66f86cbc", "fusion_lon": 0.0, "lon": -77.0481895, "lat": 38.909648, "is_reserved": 0, "is_disabled": 0, "rental_uris": {"android": "https://dc.lft.to/lastmile_qr_scan", "ios": "https://dc.lft.to/lastmile_qr_scan"}, "name": "ec8be182405a6f1ff62134ae66f86cbc", "type": "electric_scooter"}, {"fusion_lat": 0.0, "bike_id": "c8d8ea68d2519c41869b8517e4239749", "fusion_lon": 0.0, "lon": -77.0487545, "lat": 38.89233683333333, "is_reserved": 0, "is_disabled": 0, "rental_uris": {"android": "https://dc.lft.to/lastmile_qr_scan", "ios": "https://dc.lft.to/lastmile_qr_scan"}, "name": "c8d8ea68d2519c41869b8517e4239749", "type": "electric_scooter"}, {"fusion_lat": 0.0, "bike_id": "1aa0a351213a793fa04f30859776124c", "fusion_lon": 0.0, "lon": -77.0302155, "lat": 38.8997395, "is_reserved": 0, "is_disabled": 0, "rental_uris": {"android": "https://dc.lft.to/lastmile_qr_scan", "ios": "https://dc.lft.to/lastmile_qr_scan"}, "name": "1aa0a351213a793fa04f30859776124c", "type": "electric_scooter"}, {"fusion_lat": 0.0, "bike_id": "fc75de3f64f03cbcba3320ce77f572fb", "fusion_lon": 0.0, "lon": -77.04529716666667, "lat": 38.90227316666667, "is_reserved": 0, "is_disabled": 0, "rental_uris": {"android": "https://dc.lft.to/lastmile_qr_scan", "ios": "https://dc.lft.to/lastmile_qr_scan"}, "name": "fc75de3f64f03cbcba3320ce77f572fb", "type": "electric_scooter"}, {"fusion_lat": 0.0, "bike_id": "fb8e2450da71845efea3695abf930ac1", "fusion_lon": 0.0, "lon": -77.043619, "lat": 38.89232333333333, "is_reserved": 0, "is_disabled": 0, "rental_uris": {"android": "https://dc.lft.to/lastmile_qr_scan", "ios": "https://dc.lft.to/lastmile_qr_scan"}, "name": "fb8e2450da71845efea3695abf930ac1", "type": "electric_scooter"}, {"fusion_lat": 0.0, "bike_id": "c59f39d85cb129e19c3fb82327740796", "fusion_lon": 0.0, "lon": -77.0382015, "lat": 38.93098, "is_reserved": 0, "is_disabled": 0, "rental_uris": {"android": "https://dc.lft.to/lastmile_qr_scan", "ios": "https://dc.lft.to/lastmile_qr_scan"}, "name": "c59f39d85cb129e19c3fb82327740796", "type": "electric_scooter"}, {"fusion_lat": 0.0, "bike_id": "c077b00e2dacd18553abc7e40da50ea9", "fusion_lon": 0.0, "lon": -77.03953683333333, "lat": 38.90037866666667, "is_reserved": 0, "is_disabled": 0, "rental_uris": {"android": "https://dc.lft.to/lastmile_qr_scan", "ios": "https://dc.lft.to/lastmile_qr_scan"}, "name": "c077b00e2dacd18553abc7e40da50ea9", "type": "electric_scooter"}, {"fusion_lat": 0.0, "bike_id": "b3eb332816a2681e6418c6624496efdc", "fusion_lon": 0.0, "lon": -77.00738616666666, "lat": 38.90337383333333, "is_reserved": 0, "is_disabled": 0, "rental_uris": {"android": "https://dc.lft.to/lastmile_qr_scan", "ios": "https://dc.lft.to/lastmile_qr_scan"}, "name": "b3eb332816a2681e6418c6624496efdc", "type": "electric_scooter"}, {"fusion_lat": 0.0, "bike_id": "543c899742bd3ab67ecd7e25686dab40", "fusion_lon": 0.0, "lon": -76.96357516666667, "lat": 38.934965, "is_reserved": 0, "is_disabled": 0, "rental_uris": {"android": "https://dc.lft.to/lastmile_qr_scan", "ios": "https://dc.lft.to/lastmile_qr_scan"}, "name": "543c899742bd3ab67ecd7e25686dab40", "type": "electric_scooter"}, {"fusion_lat": 0.0, "bike_id": "3d14e004dfbe13b8e960401533c3c2de", "fusion_lon": 0.0, "lon": -77.00914266666666, "lat": 38.827848, "is_reserved": 0, "is_disabled": 0, "rental_uris": {"android": "https://dc.lft.to/lastmile_qr_scan", "ios": "https://dc.lft.to/lastmile_qr_scan"}, "name": "3d14e004dfbe13b8e960401533c3c2de", "type": "electric_bike"}, {"fusion_lat": 0.0, "bike_id": "382cb6bec67f1d75a990961a661d869e", "fusion_lon": 0.0, "lon": -77.03879133333334, "lat": 38.906135666666664, "is_reserved": 0, "is_disabled": 0, "rental_uris": {"android": "https://dc.lft.to/lastmile_qr_scan", "ios": "https://dc.lft.to/lastmile_qr_scan"}, "name": "382cb6bec67f1d75a990961a661d869e", "type": "electric_scooter"}, {"fusion_lat": 0.0, "bike_id": "bb34424527e9bd4e65d773ae71db9241", "fusion_lon": 0.0, "lon": -76.95893033333333, "lat": 38.89014316666667, "is_reserved": 0, "is_disabled": 0, "rental_uris": {"android": "https://dc.lft.to/lastmile_qr_scan", "ios": "https://dc.lft.to/lastmile_qr_scan"}, "name": "bb34424527e9bd4e65d773ae71db9241", "type": "electric_scooter"}, {"fusion_lat": 0.0, "bike_id": "5bc885710f20df229fc1da9ff54a1a86", "fusion_lon": 0.0, "lon": -77.03324866666667, "lat": 38.9003285, "is_reserved": 0, "is_disabled": 0, "rental_uris": {"android": "https://dc.lft.to/lastmile_qr_scan", "ios": "https://dc.lft.to/lastmile_qr_scan"}, "name": "5bc885710f20df229fc1da9ff54a1a86", "type": "electric_scooter"}, {"fusion_lat": 0.0, "bike_id": "921a70fa03f7fb70f5ebdd7bdd67d5fc", "fusion_lon": 0.0, "lon": -77.02113816666666, "lat": 38.93697066666667, "is_reserved": 0, "is_disabled": 0, "rental_uris": {"android": "https://dc.lft.to/lastmile_qr_scan", "ios": "https://dc.lft.to/lastmile_qr_scan"}, "name": "921a70fa03f7fb70f5ebdd7bdd67d5fc", "type": "electric_scooter"}, {"fusion_lat": 0.0, "bike_id": "e1f883d5115aea897c844d0cb9ce7cdc", "fusion_lon": 0.0, "lon": -76.937341, "lat": 38.89017616666667, "is_reserved": 0, "is_disabled": 0, "rental_uris": {"android": "https://dc.lft.to/lastmile_qr_scan", "ios": "https://dc.lft.to/lastmile_qr_scan"}, "name": "e1f883d5115aea897c844d0cb9ce7cdc", "type": "electric_scooter"}, {"fusion_lat": 0.0, "bike_id": "cd2b8c726f72fad728ab19375c903256", "fusion_lon": 0.0, "lon": -77.05639516666666, "lat": 38.92635766666667, "is_reserved": 0, "is_disabled": 0, "rental_uris": {"android": "https://dc.lft.to/lastmile_qr_scan", "ios": "https://dc.lft.to/lastmile_qr_scan"}, "name": "cd2b8c726f72fad728ab19375c903256", "type": "electric_scooter"}, {"fusion_lat": 0.0, "bike_id": "034f8f14b3f17200e4b71e29ddda0065", "fusion_lon": 0.0, "lon": -77.029704, "lat": 38.916677666666665, "is_reserved": 0, "is_disabled": 0, "rental_uris": {"android": "https://dc.lft.to/lastmile_qr_scan", "ios": "https://dc.lft.to/lastmile_qr_scan"}, "name": "034f8f14b3f17200e4b71e29ddda0065", "type": "electric_scooter"}, {"fusion_lat": 0.0, "bike_id": "8806be58813f6d10c709411c8a39c1a1", "fusion_lon": 0.0, "lon": -77.08010333333333, "lat": 38.950627833333336, "is_reserved": 0, "is_disabled": 0, "rental_uris": {"android": "https://dc.lft.to/lastmile_qr_scan", "ios": "https://dc.lft.to/lastmile_qr_scan"}, "name": "8806be58813f6d10c709411c8a39c1a1", "type": "electric_scooter"}, {"fusion_lat": 0.0, "bike_id": "8ae9ce58e24f3f459d22fa83fae36e73", "fusion_lon": 0.0, "lon": -76.96522816666666, "lat": 38.876306666666665, "is_reserved": 0, "is_disabled": 0, "rental_uris": {"android": "https://dc.lft.to/lastmile_qr_scan", "ios": "https://dc.lft.to/lastmile_qr_scan"}, "name": "8ae9ce58e24f3f459d22fa83fae36e73", "type": "electric_scooter"}, {"fusion_lat": 0.0, "bike_id": "ef5171187551e3cacbbd988ded4fcafe", "fusion_lon": 0.0, "lon": -77.02437216666667, "lat": 38.92140166666667, "is_reserved": 0, "is_disabled": 0, "rental_uris": {"android": "https://dc.lft.to/lastmile_qr_scan", "ios": "https://dc.lft.to/lastmile_qr_scan"}, "name": "ef5171187551e3cacbbd988ded4fcafe", "type": "electric_scooter"}, {"fusion_lat": 0.0, "bike_id": "f28cbd36aa6f7aebb59e711fc16a60d7", "fusion_lon": 0.0, "lon": -76.973038, "lat": 38.9164405, "is_reserved": 0, "is_disabled": 0, "rental_uris": {"android": "https://dc.lft.to/lastmile_qr_scan", "ios": "https://dc.lft.to/lastmile_qr_scan"}, "name": "f28cbd36aa6f7aebb59e711fc16a60d7", "type": "electric_bike"}, {"fusion_lat": 0.0, "bike_id": "84a15b09b56b9ebb7437baaf824fda9e", "fusion_lon": 0.0, "lon": -77.0381985, "lat": 38.91554983333333, "is_reserved": 0, "is_disabled": 0, "rental_uris": {"android": "https://dc.lft.to/lastmile_qr_scan", "ios": "https://dc.lft.to/lastmile_qr_scan"}, "name": "84a15b09b56b9ebb7437baaf824fda9e", "type": "electric_scooter"}, {"fusion_lat": 0.0, "bike_id": "99ffb10b66e80a04d7db7252fabaabc8", "fusion_lon": 0.0, "lon": -77.02196033333334, "lat": 38.89997366666667, "is_reserved": 0, "is_disabled": 0, "rental_uris": {"android": "https://dc.lft.to/lastmile_qr_scan", "ios": "https://dc.lft.to/lastmile_qr_scan"}, "name": "99ffb10b66e80a04d7db7252fabaabc8", "type": "electric_scooter"}, {"fusion_lat": 0.0, "bike_id": "1cdac9097fc2b3431b6c1cceae92bc1a", "fusion_lon": 0.0, "lon": -77.03629183333334, "lat": 38.944976, "is_reserved": 0, "is_disabled": 0, "rental_uris": {"android": "https://dc.lft.to/lastmile_qr_scan", "ios": "https://dc.lft.to/lastmile_qr_scan"}, "name": "1cdac9097fc2b3431b6c1cceae92bc1a", "type": "electric_scooter"}, {"fusion_lat": 0.0, "bike_id": "b3c5910938464b0c4080349474124643", "fusion_lon": 0.0, "lon": -76.93191816666666, "lat": 38.898786, "is_reserved": 0, "is_disabled": 0, "rental_uris": {"android": "https://dc.lft.to/lastmile_qr_scan", "ios": "https://dc.lft.to/lastmile_qr_scan"}, "name": "b3c5910938464b0c4080349474124643", "type": "electric_scooter"}, {"fusion_lat": 0.0, "bike_id": "a46219c89c2647afebab4c2fd5078bdc", "fusion_lon": 0.0, "lon": -77.0730075, "lat": 38.9354345, "is_reserved": 0, "is_disabled": 0, "rental_uris": {"android": "https://dc.lft.to/lastmile_qr_scan", "ios": "https://dc.lft.to/lastmile_qr_scan"}, "name": "a46219c89c2647afebab4c2fd5078bdc", "type": "electric_scooter"}, {"fusion_lat": 0.0, "bike_id": "761826a91bc401c0b4d54ae614300212", "fusion_lon": 0.0, "lon": -77.04872033333334, "lat": 38.892749333333335, "is_reserved": 0, "is_disabled": 0, "rental_uris": {"android": "https://dc.lft.to/lastmile_qr_scan", "ios": "https://dc.lft.to/lastmile_qr_scan"}, "name": "761826a91bc401c0b4d54ae614300212", "type": "electric_scooter"}, {"fusion_lat": 0.0, "bike_id": "28c2edc90057aa5d6ac3c0eaaad437ae", "fusion_lon": 0.0, "lon": -77.02583966666667, "lat": 38.9441025, "is_reserved": 0, "is_disabled": 0, "rental_uris": {"android": "https://dc.lft.to/lastmile_qr_scan", "ios": "https://dc.lft.to/lastmile_qr_scan"}, "name": "28c2edc90057aa5d6ac3c0eaaad437ae", "type": "electric_scooter"}, {"fusion_lat": 0.0, "bike_id": "6b407d6aa7e159292d765be98de9ddf7", "fusion_lon": 0.0, "lon": -76.9497805, "lat": 38.89371466666667, "is_reserved": 0, "is_disabled": 0, "rental_uris": {"android": "https://dc.lft.to/lastmile_qr_scan", "ios": "https://dc.lft.to/lastmile_qr_scan"}, "name": "6b407d6aa7e159292d765be98de9ddf7", "type": "electric_scooter"}, {"fusion_lat": 0.0, "bike_id": "9929cd23e6013621de978c4683f91948", "fusion_lon": 0.0, "lon": -76.9352815, "lat": 38.896815833333335, "is_reserved": 0, "is_disabled": 0, "rental_uris": {"android": "https://dc.lft.to/lastmile_qr_scan", "ios": "https://dc.lft.to/lastmile_qr_scan"}, "name": "9929cd23e6013621de978c4683f91948", "type": "electric_scooter"}, {"fusion_lat": 0.0, "bike_id": "e45eaec854341581d48fb1463813ad01", "fusion_lon": 0.0, "lon": -77.023907, "lat": 38.907964, "is_reserved": 0, "is_disabled": 0, "rental_uris": {"android": "https://dc.lft.to/lastmile_qr_scan", "ios": "https://dc.lft.to/lastmile_qr_scan"}, "name": "e45eaec854341581d48fb1463813ad01", "type": "electric_scooter"}, {"fusion_lat": 0.0, "bike_id": "5256f4adb42c08a026dbc4d92529d2a1", "fusion_lon": 0.0, "lon": -77.03441616666667, "lat": 38.907341, "is_reserved": 0, "is_disabled": 0, "rental_uris": {"android": "https://dc.lft.to/lastmile_qr_scan", "ios": "https://dc.lft.to/lastmile_qr_scan"}, "name": "5256f4adb42c08a026dbc4d92529d2a1", "type": "electric_scooter"}, {"fusion_lat": 0.0, "bike_id": "5bcec5d9d7a0fa1dd6b75bb745610efe", "fusion_lon": 0.0, "lon": -77.01956516666667, "lat": 38.92327816666667, "is_reserved": 0, "is_disabled": 0, "rental_uris": {"android": "https://dc.lft.to/lastmile_qr_scan", "ios": "https://dc.lft.to/lastmile_qr_scan"}, "name": "5bcec5d9d7a0fa1dd6b75bb745610efe", "type": "electric_scooter"}, {"fusion_lat": 0.0, "bike_id": "aa5fffcec62664f7f7bf3a18d4f71ac4", "fusion_lon": 0.0, "lon": -77.03981483333334, "lat": 38.90855483333333, "is_reserved": 0, "is_disabled": 0, "rental_uris": {"android": "https://dc.lft.to/lastmile_qr_scan", "ios": "https://dc.lft.to/lastmile_qr_scan"}, "name": "aa5fffcec62664f7f7bf3a18d4f71ac4", "type": "electric_scooter"}, {"fusion_lat": 0.0, "bike_id": "4b9e2748665c9513e55b9a7fcb07f17d", "fusion_lon": 0.0, "lon": -77.00578516666667, "lat": 38.90558383333333, "is_reserved": 0, "is_disabled": 0, "rental_uris": {"android": "https://dc.lft.to/lastmile_qr_scan", "ios": "https://dc.lft.to/lastmile_qr_scan"}, "name": "4b9e2748665c9513e55b9a7fcb07f17d", "type": "electric_scooter"}, {"fusion_lat": 0.0, "bike_id": "58bd60bbe7000f7824611672de0c868a", "fusion_lon": 0.0, "lon": -77.01222716666666, "lat": 38.89680883333333, "is_reserved": 0, "is_disabled": 0, "rental_uris": {"android": "https://dc.lft.to/lastmile_qr_scan", "ios": "https://dc.lft.to/lastmile_qr_scan"}, "name": "58bd60bbe7000f7824611672de0c868a", "type": "electric_scooter"}, {"fusion_lat": 0.0, "bike_id": "d2495fff58db71335f8fb8bb7bec54ce", "fusion_lon": 0.0, "lon": -76.99735366666667, "lat": 39.042330166666666, "is_reserved": 0, "is_disabled": 0, "rental_uris": {"android": "https://dc.lft.to/lastmile_qr_scan", "ios": "https://dc.lft.to/lastmile_qr_scan"}, "name": "d2495fff58db71335f8fb8bb7bec54ce", "type": "electric_bike"}, {"fusion_lat": 0.0, "bike_id": "8fdfeadacef390ff7ff9c2557ae70143", "fusion_lon": 0.0, "lon": -77.03738383333334, "lat": 38.905687, "is_reserved": 0, "is_disabled": 0, "rental_uris": {"android": "https://dc.lft.to/lastmile_qr_scan", "ios": "https://dc.lft.to/lastmile_qr_scan"}, "name": "8fdfeadacef390ff7ff9c2557ae70143", "type": "electric_scooter"}, {"fusion_lat": 0.0, "bike_id": "24a2596841a656a9b22d8997dbd9911c", "fusion_lon": 0.0, "lon": -77.00685783333333, "lat": 38.9092065, "is_reserved": 0, "is_disabled": 0, "rental_uris": {"android": "https://dc.lft.to/lastmile_qr_scan", "ios": "https://dc.lft.to/lastmile_qr_scan"}, "name": "24a2596841a656a9b22d8997dbd9911c", "type": "electric_scooter"}, {"fusion_lat": 0.0, "bike_id": "1a3caf7d7ed68de484eef5ddcb84ae4b", "fusion_lon": 0.0, "lon": -77.04354266666667, "lat": 38.91045283333333, "is_reserved": 0, "is_disabled": 0, "rental_uris": {"android": "https://dc.lft.to/lastmile_qr_scan", "ios": "https://dc.lft.to/lastmile_qr_scan"}, "name": "1a3caf7d7ed68de484eef5ddcb84ae4b", "type": "electric_scooter"}, {"fusion_lat": 0.0, "bike_id": "75123f81b44189e9e84ff612f04dc1a3", "fusion_lon": 0.0, "lon": -77.04173366666667, "lat": 38.90839066666667, "is_reserved": 0, "is_disabled": 0, "rental_uris": {"android": "https://dc.lft.to/lastmile_qr_scan", "ios": "https://dc.lft.to/lastmile_qr_scan"}, "name": "75123f81b44189e9e84ff612f04dc1a3", "type": "electric_scooter"}, {"fusion_lat": 0.0, "bike_id": "e16308277698690aa99c26c101b556d9", "fusion_lon": 0.0, "lon": -77.023951, "lat": 38.88283416666667, "is_reserved": 0, "is_disabled": 0, "rental_uris": {"android": "https://dc.lft.to/lastmile_qr_scan", "ios": "https://dc.lft.to/lastmile_qr_scan"}, "name": "e16308277698690aa99c26c101b556d9", "type": "electric_scooter"}, {"fusion_lat": 0.0, "bike_id": "edd2d9f0086ae10f2033698fc95fd36c", "fusion_lon": 0.0, "lon": -77.0281705, "lat": 38.950864833333334, "is_reserved": 0, "is_disabled": 0, "rental_uris": {"android": "https://dc.lft.to/lastmile_qr_scan", "ios": "https://dc.lft.to/lastmile_qr_scan"}, "name": "edd2d9f0086ae10f2033698fc95fd36c", "type": "electric_scooter"}, {"fusion_lat": 0.0, "bike_id": "2b6224fb31950975255587e7f6682e37", "fusion_lon": 0.0, "lon": -77.04176116666666, "lat": 38.905216333333335, "is_reserved": 0, "is_disabled": 0, "rental_uris": {"android": "https://dc.lft.to/lastmile_qr_scan", "ios": "https://dc.lft.to/lastmile_qr_scan"}, "name": "2b6224fb31950975255587e7f6682e37", "type": "electric_scooter"}, {"fusion_lat": 0.0, "bike_id": "08bc74736a38e7ea5bcfc29fe1b467c0", "fusion_lon": 0.0, "lon": -76.969078, "lat": 38.846094, "is_reserved": 0, "is_disabled": 0, "rental_uris": {"android": "https://dc.lft.to/lastmile_qr_scan", "ios": "https://dc.lft.to/lastmile_qr_scan"}, "name": "08bc74736a38e7ea5bcfc29fe1b467c0", "type": "electric_bike"}, {"fusion_lat": 0.0, "bike_id": "bb27cecb6fd7b6246579a8463f85616c", "fusion_lon": 0.0, "lon": -77.03221466666666, "lat": 38.8922635, "is_reserved": 0, "is_disabled": 0, "rental_uris": {"android": "https://dc.lft.to/lastmile_qr_scan", "ios": "https://dc.lft.to/lastmile_qr_scan"}, "name": "bb27cecb6fd7b6246579a8463f85616c", "type": "electric_scooter"}, {"fusion_lat": 0.0, "bike_id": "662c0aa7e4a7837e171110154e15dee0", "fusion_lon": 0.0, "lon": -77.11591733333333, "lat": 39.0749425, "is_reserved": 0, "is_disabled": 0, "rental_uris": {"android": "https://dc.lft.to/lastmile_qr_scan", "ios": "https://dc.lft.to/lastmile_qr_scan"}, "name": "662c0aa7e4a7837e171110154e15dee0", "type": "electric_bike"}, {"fusion_lat": 0.0, "bike_id": "1ac7c01776277216b5f6c396b2e10719", "fusion_lon": 0.0, "lon": -77.017356, "lat": 38.887458333333335, "is_reserved": 0, "is_disabled": 0, "rental_uris": {"android": "https://dc.lft.to/lastmile_qr_scan", "ios": "https://dc.lft.to/lastmile_qr_scan"}, "name": "1ac7c01776277216b5f6c396b2e10719", "type": "electric_scooter"}, {"fusion_lat": 0.0, "bike_id": "ab3de1fef6c035d21e6a8d61b0a69de3", "fusion_lon": 0.0, "lon": -77.00059533333334, "lat": 38.90144383333333, "is_reserved": 0, "is_disabled": 0, "rental_uris": {"android": "https://dc.lft.to/lastmile_qr_scan", "ios": "https://dc.lft.to/lastmile_qr_scan"}, "name": "ab3de1fef6c035d21e6a8d61b0a69de3", "type": "electric_bike"}, {"fusion_lat": 0.0, "bike_id": "76d5645f0431da76b0542d7f496d1af3", "fusion_lon": 0.0, "lon": -77.02704916666667, "lat": 38.920312, "is_reserved": 0, "is_disabled": 0, "rental_uris": {"android": "https://dc.lft.to/lastmile_qr_scan", "ios": "https://dc.lft.to/lastmile_qr_scan"}, "name": "76d5645f0431da76b0542d7f496d1af3", "type": "electric_scooter"}, {"fusion_lat": 0.0, "bike_id": "b86f224278083dbb9975b8da2b24770f", "fusion_lon": 0.0, "lon": -77.04141883333334, "lat": 38.93471916666667, "is_reserved": 0, "is_disabled": 0, "rental_uris": {"android": "https://dc.lft.to/lastmile_qr_scan", "ios": "https://dc.lft.to/lastmile_qr_scan"}, "name": "b86f224278083dbb9975b8da2b24770f", "type": "electric_bike"}, {"fusion_lat": 0.0, "bike_id": "166c02d750983d4eda9f24e817c35abd", "fusion_lon": 0.0, "lon": -77.03977416666666, "lat": 38.90032033333333, "is_reserved": 0, "is_disabled": 0, "rental_uris": {"android": "https://dc.lft.to/lastmile_qr_scan", "ios": "https://dc.lft.to/lastmile_qr_scan"}, "name": "166c02d750983d4eda9f24e817c35abd", "type": "electric_scooter"}, {"fusion_lat": 0.0, "bike_id": "4e162477d97bbaf3685073a73bd02ef8", "fusion_lon": 0.0, "lon": -76.99130033333333, "lat": 38.8641795, "is_reserved": 0, "is_disabled": 0, "rental_uris": {"android": "https://dc.lft.to/lastmile_qr_scan", "ios": "https://dc.lft.to/lastmile_qr_scan"}, "name": "4e162477d97bbaf3685073a73bd02ef8", "type": "electric_scooter"}, {"fusion_lat": 0.0, "bike_id": "01cf06a0b98ce0c244a1d6bee7e03c73", "fusion_lon": 0.0, "lon": -77.0312035, "lat": 38.91263816666667, "is_reserved": 0, "is_disabled": 0, "rental_uris": {"android": "https://dc.lft.to/lastmile_qr_scan", "ios": "https://dc.lft.to/lastmile_qr_scan"}, "name": "01cf06a0b98ce0c244a1d6bee7e03c73", "type": "electric_scooter"}, {"fusion_lat": 0.0, "bike_id": "6663099a7afee1192d1b3039639095c8", "fusion_lon": 0.0, "lon": -77.05885333333333, "lat": 38.936064333333334, "is_reserved": 0, "is_disabled": 0, "rental_uris": {"android": "https://dc.lft.to/lastmile_qr_scan", "ios": "https://dc.lft.to/lastmile_qr_scan"}, "name": "6663099a7afee1192d1b3039639095c8", "type": "electric_scooter"}, {"fusion_lat": 0.0, "bike_id": "8f1d5a5d5dfe9cc9b6ee95cbe8181e16", "fusion_lon": 0.0, "lon": -77.03675966666667, "lat": 38.92638933333333, "is_reserved": 0, "is_disabled": 0, "rental_uris": {"android": "https://dc.lft.to/lastmile_qr_scan", "ios": "https://dc.lft.to/lastmile_qr_scan"}, "name": "8f1d5a5d5dfe9cc9b6ee95cbe8181e16", "type": "electric_scooter"}, {"fusion_lat": 0.0, "bike_id": "98042ec0398c7c3ab8e2308c56201d59", "fusion_lon": 0.0, "lon": -77.00124533333333, "lat": 38.873818166666666, "is_reserved": 0, "is_disabled": 0, "rental_uris": {"android": "https://dc.lft.to/lastmile_qr_scan", "ios": "https://dc.lft.to/lastmile_qr_scan"}, "name": "98042ec0398c7c3ab8e2308c56201d59", "type": "electric_scooter"}, {"fusion_lat": 0.0, "bike_id": "54cc6114e961ec033f4168d93a921cc6", "fusion_lon": 0.0, "lon": -77.03004616666666, "lat": 38.898120166666665, "is_reserved": 0, "is_disabled": 0, "rental_uris": {"android": "https://dc.lft.to/lastmile_qr_scan", "ios": "https://dc.lft.to/lastmile_qr_scan"}, "name": "54cc6114e961ec033f4168d93a921cc6", "type": "electric_scooter"}, {"fusion_lat": 0.0, "bike_id": "b008ef821d0a800752d96cd35e60e53a", "fusion_lon": 0.0, "lon": -77.04172866666667, "lat": 38.898267833333335, "is_reserved": 0, "is_disabled": 0, "rental_uris": {"android": "https://dc.lft.to/lastmile_qr_scan", "ios": "https://dc.lft.to/lastmile_qr_scan"}, "name": "b008ef821d0a800752d96cd35e60e53a", "type": "electric_scooter"}, {"fusion_lat": 0.0, "bike_id": "913d953ff0fdfe652a3ae5ea93468bb9", "fusion_lon": 0.0, "lon": -77.00543716666667, "lat": 38.90549866666667, "is_reserved": 0, "is_disabled": 0, "rental_uris": {"android": "https://dc.lft.to/lastmile_qr_scan", "ios": "https://dc.lft.to/lastmile_qr_scan"}, "name": "913d953ff0fdfe652a3ae5ea93468bb9", "type": "electric_scooter"}, {"fusion_lat": 0.0, "bike_id": "e8b552abe99e8cd5aae6fdf31190cec7", "fusion_lon": 0.0, "lon": -77.0517845, "lat": 38.9238335, "is_reserved": 0, "is_disabled": 0, "rental_uris": {"android": "https://dc.lft.to/lastmile_qr_scan", "ios": "https://dc.lft.to/lastmile_qr_scan"}, "name": "e8b552abe99e8cd5aae6fdf31190cec7", "type": "electric_scooter"}, {"fusion_lat": 0.0, "bike_id": "030a1b84313ebcffbc9665a87e4f5371", "fusion_lon": 0.0, "lon": -77.03208783333334, "lat": 38.91385566666666, "is_reserved": 0, "is_disabled": 0, "rental_uris": {"android": "https://dc.lft.to/lastmile_qr_scan", "ios": "https://dc.lft.to/lastmile_qr_scan"}, "name": "030a1b84313ebcffbc9665a87e4f5371", "type": "electric_scooter"}, {"fusion_lat": 0.0, "bike_id": "e4602fb54b65c7e7ddaacd79e8f0bc37", "fusion_lon": 0.0, "lon": -77.01411033333333, "lat": 38.928153333333334, "is_reserved": 0, "is_disabled": 0, "rental_uris": {"android": "https://dc.lft.to/lastmile_qr_scan", "ios": "https://dc.lft.to/lastmile_qr_scan"}, "name": "e4602fb54b65c7e7ddaacd79e8f0bc37", "type": "electric_scooter"}, {"fusion_lat": 0.0, "bike_id": "5246f529986cb0c48821a85c7bfb39e1", "fusion_lon": 0.0, "lon": -77.02635533333333, "lat": 38.916966, "is_reserved": 0, "is_disabled": 0, "rental_uris": {"android": "https://dc.lft.to/lastmile_qr_scan", "ios": "https://dc.lft.to/lastmile_qr_scan"}, "name": "5246f529986cb0c48821a85c7bfb39e1", "type": "electric_scooter"}, {"fusion_lat": 0.0, "bike_id": "c24015bef0faf8920acaa0eb82c813c8", "fusion_lon": 0.0, "lon": -77.03002716666667, "lat": 38.93981183333333, "is_reserved": 0, "is_disabled": 0, "rental_uris": {"android": "https://dc.lft.to/lastmile_qr_scan", "ios": "https://dc.lft.to/lastmile_qr_scan"}, "name": "c24015bef0faf8920acaa0eb82c813c8", "type": "electric_scooter"}, {"fusion_lat": 0.0, "bike_id": "ae285f1bdfbd42da948e4e77b84e2b17", "fusion_lon": 0.0, "lon": -77.0958235, "lat": 38.8609165, "is_reserved": 0, "is_disabled": 0, "rental_uris": {"android": "https://dc.lft.to/lastmile_qr_scan", "ios": "https://dc.lft.to/lastmile_qr_scan"}, "name": "ae285f1bdfbd42da948e4e77b84e2b17", "type": "electric_bike"}, {"fusion_lat": 0.0, "bike_id": "22c103810acdce551c630020009c7dee", "fusion_lon": 0.0, "lon": -77.0345085, "lat": 38.90735866666667, "is_reserved": 0, "is_disabled": 0, "rental_uris": {"android": "https://dc.lft.to/lastmile_qr_scan", "ios": "https://dc.lft.to/lastmile_qr_scan"}, "name": "22c103810acdce551c630020009c7dee", "type": "electric_scooter"}, {"fusion_lat": 0.0, "bike_id": "6537c8488262609e617835b31c410bb5", "fusion_lon": 0.0, "lon": -76.9907125, "lat": 38.89822016666667, "is_reserved": 0, "is_disabled": 0, "rental_uris": {"android": "https://dc.lft.to/lastmile_qr_scan", "ios": "https://dc.lft.to/lastmile_qr_scan"}, "name": "6537c8488262609e617835b31c410bb5", "type": "electric_bike"}, {"fusion_lat": 0.0, "bike_id": "9c654de98e3257cfe1c68e83f5bb41e5", "fusion_lon": 0.0, "lon": -77.02229866666667, "lat": 38.92614183333333, "is_reserved": 0, "is_disabled": 0, "rental_uris": {"android": "https://dc.lft.to/lastmile_qr_scan", "ios": "https://dc.lft.to/lastmile_qr_scan"}, "name": "9c654de98e3257cfe1c68e83f5bb41e5", "type": "electric_scooter"}, {"fusion_lat": 0.0, "bike_id": "b2add06b21f3481394d1f1a8a0ed704e", "fusion_lon": 0.0, "lon": -77.03504133333334, "lat": 38.91874166666667, "is_reserved": 0, "is_disabled": 0, "rental_uris": {"android": "https://dc.lft.to/lastmile_qr_scan", "ios": "https://dc.lft.to/lastmile_qr_scan"}, "name": "b2add06b21f3481394d1f1a8a0ed704e", "type": "electric_scooter"}, {"fusion_lat": 0.0, "bike_id": "a3f2f0cc1225ece1376611d8b4fe5a2c", "fusion_lon": 0.0, "lon": -76.95572, "lat": 38.887679166666665, "is_reserved": 0, "is_disabled": 0, "rental_uris": {"android": "https://dc.lft.to/lastmile_qr_scan", "ios": "https://dc.lft.to/lastmile_qr_scan"}, "name": "a3f2f0cc1225ece1376611d8b4fe5a2c", "type": "electric_scooter"}, {"fusion_lat": 0.0, "bike_id": "5093637b69d9ffc25a404f5c525c1fd1", "fusion_lon": 0.0, "lon": -77.07343683333333, "lat": 38.90992216666667, "is_reserved": 0, "is_disabled": 0, "rental_uris": {"android": "https://dc.lft.to/lastmile_qr_scan", "ios": "https://dc.lft.to/lastmile_qr_scan"}, "name": "5093637b69d9ffc25a404f5c525c1fd1", "type": "electric_scooter"}, {"fusion_lat": 0.0, "bike_id": "7ce842817af87d278ed52bc706d53ab7", "fusion_lon": 0.0, "lon": -77.03979266666667, "lat": 38.902616, "is_reserved": 0, "is_disabled": 0, "rental_uris": {"android": "https://dc.lft.to/lastmile_qr_scan", "ios": "https://dc.lft.to/lastmile_qr_scan"}, "name": "7ce842817af87d278ed52bc706d53ab7", "type": "electric_scooter"}, {"fusion_lat": 0.0, "bike_id": "274da4c4a9e5023cf31a799dcaa5d2f7", "fusion_lon": 0.0, "lon": -77.02839533333334, "lat": 38.92572933333334, "is_reserved": 0, "is_disabled": 0, "rental_uris": {"android": "https://dc.lft.to/lastmile_qr_scan", "ios": "https://dc.lft.to/lastmile_qr_scan"}, "name": "274da4c4a9e5023cf31a799dcaa5d2f7", "type": "electric_scooter"}, {"fusion_lat": 0.0, "bike_id": "d1dcc9d7f6518600bfa39710cdaa0aac", "fusion_lon": 0.0, "lon": -77.0324625, "lat": 38.90462083333333, "is_reserved": 0, "is_disabled": 0, "rental_uris": {"android": "https://dc.lft.to/lastmile_qr_scan", "ios": "https://dc.lft.to/lastmile_qr_scan"}, "name": "d1dcc9d7f6518600bfa39710cdaa0aac", "type": "electric_scooter"}, {"fusion_lat": 0.0, "bike_id": "a314f2248918877e59a41e0ee32e9bc8", "fusion_lon": 0.0, "lon": -77.04386933333333, "lat": 39.04719383333333, "is_reserved": 0, "is_disabled": 0, "rental_uris": {"android": "https://dc.lft.to/lastmile_qr_scan", "ios": "https://dc.lft.to/lastmile_qr_scan"}, "name": "a314f2248918877e59a41e0ee32e9bc8", "type": "electric_bike"}, {"fusion_lat": 0.0, "bike_id": "1e5e93ed3b85538c05bf60b333728508", "fusion_lon": 0.0, "lon": -77.05393633333334, "lat": 38.92794283333333, "is_reserved": 0, "is_disabled": 0, "rental_uris": {"android": "https://dc.lft.to/lastmile_qr_scan", "ios": "https://dc.lft.to/lastmile_qr_scan"}, "name": "1e5e93ed3b85538c05bf60b333728508", "type": "electric_scooter"}, {"fusion_lat": 0.0, "bike_id": "bd5b4d84a826285b6d0f0e144db48cd4", "fusion_lon": 0.0, "lon": -77.0432175, "lat": 38.9095225, "is_reserved": 0, "is_disabled": 0, "rental_uris": {"android": "https://dc.lft.to/lastmile_qr_scan", "ios": "https://dc.lft.to/lastmile_qr_scan"}, "name": "bd5b4d84a826285b6d0f0e144db48cd4", "type": "electric_scooter"}, {"fusion_lat": 0.0, "bike_id": "3aaf185a8cbbc228dc955c1dc21376ae", "fusion_lon": 0.0, "lon": -77.02282633333333, "lat": 38.92576483333333, "is_reserved": 0, "is_disabled": 0, "rental_uris": {"android": "https://dc.lft.to/lastmile_qr_scan", "ios": "https://dc.lft.to/lastmile_qr_scan"}, "name": "3aaf185a8cbbc228dc955c1dc21376ae", "type": "electric_scooter"}, {"fusion_lat": 0.0, "bike_id": "beb172f400ebde3995efddf24ff29802", "fusion_lon": 0.0, "lon": -76.98544266666667, "lat": 38.9201865, "is_reserved": 0, "is_disabled": 0, "rental_uris": {"android": "https://dc.lft.to/lastmile_qr_scan", "ios": "https://dc.lft.to/lastmile_qr_scan"}, "name": "beb172f400ebde3995efddf24ff29802", "type": "electric_scooter"}, {"fusion_lat": 0.0, "bike_id": "e8ada44c39e88b7260af8fcba3c640db", "fusion_lon": 0.0, "lon": -77.03548083333334, "lat": 38.92475966666667, "is_reserved": 0, "is_disabled": 0, "rental_uris": {"android": "https://dc.lft.to/lastmile_qr_scan", "ios": "https://dc.lft.to/lastmile_qr_scan"}, "name": "e8ada44c39e88b7260af8fcba3c640db", "type": "electric_scooter"}, {"fusion_lat": 0.0, "bike_id": "2edd508f3e56e698a1934930c88dab03", "fusion_lon": 0.0, "lon": -77.03203816666667, "lat": 38.90945983333334, "is_reserved": 0, "is_disabled": 0, "rental_uris": {"android": "https://dc.lft.to/lastmile_qr_scan", "ios": "https://dc.lft.to/lastmile_qr_scan"}, "name": "2edd508f3e56e698a1934930c88dab03", "type": "electric_scooter"}, {"fusion_lat": 0.0, "bike_id": "17256c417bf4942970f6144426297b1f", "fusion_lon": 0.0, "lon": -77.05917733333334, "lat": 38.90389916666667, "is_reserved": 0, "is_disabled": 0, "rental_uris": {"android": "https://dc.lft.to/lastmile_qr_scan", "ios": "https://dc.lft.to/lastmile_qr_scan"}, "name": "17256c417bf4942970f6144426297b1f", "type": "electric_bike"}, {"fusion_lat": 0.0, "bike_id": "f9b90d502465cbece2b70bcf0740cfbc", "fusion_lon": 0.0, "lon": -76.98974183333333, "lat": 38.85923916666667, "is_reserved": 0, "is_disabled": 0, "rental_uris": {"android": "https://dc.lft.to/lastmile_qr_scan", "ios": "https://dc.lft.to/lastmile_qr_scan"}, "name": "f9b90d502465cbece2b70bcf0740cfbc", "type": "electric_scooter"}, {"fusion_lat": 0.0, "bike_id": "45d712c9a332ab7d4e9bf4d131ff3589", "fusion_lon": 0.0, "lon": -77.04455833333333, "lat": 38.914047833333335, "is_reserved": 0, "is_disabled": 0, "rental_uris": {"android": "https://dc.lft.to/lastmile_qr_scan", "ios": "https://dc.lft.to/lastmile_qr_scan"}, "name": "45d712c9a332ab7d4e9bf4d131ff3589", "type": "electric_scooter"}, {"fusion_lat": 0.0, "bike_id": "2ff2c48fc75040394d22e1b7653d102d", "fusion_lon": 0.0, "lon": -76.98527033333333, "lat": 38.86687516666667, "is_reserved": 0, "is_disabled": 0, "rental_uris": {"android": "https://dc.lft.to/lastmile_qr_scan", "ios": "https://dc.lft.to/lastmile_qr_scan"}, "name": "2ff2c48fc75040394d22e1b7653d102d", "type": "electric_scooter"}, {"fusion_lat": 0.0, "bike_id": "146e2afbe8a3495b90160fc7c963ebac", "fusion_lon": 0.0, "lon": -77.03919266666666, "lat": 38.91840766666667, "is_reserved": 0, "is_disabled": 0, "rental_uris": {"android": "https://dc.lft.to/lastmile_qr_scan", "ios": "https://dc.lft.to/lastmile_qr_scan"}, "name": "146e2afbe8a3495b90160fc7c963ebac", "type": "electric_scooter"}, {"fusion_lat": 0.0, "bike_id": "e0612ca5743e9266022da096263b9400", "fusion_lon": 0.0, "lon": -77.023592, "lat": 38.89225033333334, "is_reserved": 0, "is_disabled": 0, "rental_uris": {"android": "https://dc.lft.to/lastmile_qr_scan", "ios": "https://dc.lft.to/lastmile_qr_scan"}, "name": "e0612ca5743e9266022da096263b9400", "type": "electric_scooter"}, {"fusion_lat": 0.0, "bike_id": "b474b5f9b2f2f5378c428e7dd721eb03", "fusion_lon": 0.0, "lon": -77.022516, "lat": 38.9246875, "is_reserved": 0, "is_disabled": 0, "rental_uris": {"android": "https://dc.lft.to/lastmile_qr_scan", "ios": "https://dc.lft.to/lastmile_qr_scan"}, "name": "b474b5f9b2f2f5378c428e7dd721eb03", "type": "electric_scooter"}, {"fusion_lat": 0.0, "bike_id": "f0c0c11ced672661c870894bd8658daf", "fusion_lon": 0.0, "lon": -76.99057283333333, "lat": 38.863760666666664, "is_reserved": 0, "is_disabled": 0, "rental_uris": {"android": "https://dc.lft.to/lastmile_qr_scan", "ios": "https://dc.lft.to/lastmile_qr_scan"}, "name": "f0c0c11ced672661c870894bd8658daf", "type": "electric_scooter"}, {"fusion_lat": 0.0, "bike_id": "428edfd62de0bfb25037c58c1c3df327", "fusion_lon": 0.0, "lon": -77.03511083333333, "lat": 38.9032985, "is_reserved": 0, "is_disabled": 0, "rental_uris": {"android": "https://dc.lft.to/lastmile_qr_scan", "ios": "https://dc.lft.to/lastmile_qr_scan"}, "name": "428edfd62de0bfb25037c58c1c3df327", "type": "electric_scooter"}, {"fusion_lat": 0.0, "bike_id": "3ee86f80e7396b7d35b43a870caed674", "fusion_lon": 0.0, "lon": -77.027755, "lat": 38.895935333333334, "is_reserved": 0, "is_disabled": 0, "rental_uris": {"android": "https://dc.lft.to/lastmile_qr_scan", "ios": "https://dc.lft.to/lastmile_qr_scan"}, "name": "3ee86f80e7396b7d35b43a870caed674", "type": "electric_scooter"}, {"fusion_lat": 0.0, "bike_id": "04c4d9e7c2ab7df60df27a01842a7a33", "fusion_lon": 0.0, "lon": -76.9608575, "lat": 38.918555166666664, "is_reserved": 0, "is_disabled": 0, "rental_uris": {"android": "https://dc.lft.to/lastmile_qr_scan", "ios": "https://dc.lft.to/lastmile_qr_scan"}, "name": "04c4d9e7c2ab7df60df27a01842a7a33", "type": "electric_scooter"}, {"fusion_lat": 0.0, "bike_id": "8e8a12c97f4ee0648a4d975e2048934f", "fusion_lon": 0.0, "lon": -77.0481345, "lat": 38.902231666666665, "is_reserved": 0, "is_disabled": 0, "rental_uris": {"android": "https://dc.lft.to/lastmile_qr_scan", "ios": "https://dc.lft.to/lastmile_qr_scan"}, "name": "8e8a12c97f4ee0648a4d975e2048934f", "type": "electric_scooter"}, {"fusion_lat": 0.0, "bike_id": "b44b213a0a1f4c49559493e78cb01db7", "fusion_lon": 0.0, "lon": -77.05907083333334, "lat": 38.9015875, "is_reserved": 0, "is_disabled": 0, "rental_uris": {"android": "https://dc.lft.to/lastmile_qr_scan", "ios": "https://dc.lft.to/lastmile_qr_scan"}, "name": "b44b213a0a1f4c49559493e78cb01db7", "type": "electric_scooter"}, {"fusion_lat": 0.0, "bike_id": "6a997063a367a9d8c8b17d2bb1b426dc", "fusion_lon": 0.0, "lon": -77.00545266666667, "lat": 38.8746035, "is_reserved": 0, "is_disabled": 0, "rental_uris": {"android": "https://dc.lft.to/lastmile_qr_scan", "ios": "https://dc.lft.to/lastmile_qr_scan"}, "name": "6a997063a367a9d8c8b17d2bb1b426dc", "type": "electric_scooter"}, {"fusion_lat": 0.0, "bike_id": "90b4d35a25f048b5408103dac0c4b30d", "fusion_lon": 0.0, "lon": -76.98489666666667, "lat": 38.878354, "is_reserved": 0, "is_disabled": 0, "rental_uris": {"android": "https://dc.lft.to/lastmile_qr_scan", "ios": "https://dc.lft.to/lastmile_qr_scan"}, "name": "90b4d35a25f048b5408103dac0c4b30d", "type": "electric_scooter"}, {"fusion_lat": 0.0, "bike_id": "85d084fdd74fbee504d6d76edbc18875", "fusion_lon": 0.0, "lon": -77.03167133333334, "lat": 38.89626466666667, "is_reserved": 0, "is_disabled": 0, "rental_uris": {"android": "https://dc.lft.to/lastmile_qr_scan", "ios": "https://dc.lft.to/lastmile_qr_scan"}, "name": "85d084fdd74fbee504d6d76edbc18875", "type": "electric_scooter"}, {"fusion_lat": 0.0, "bike_id": "81cfc0cf8e0e3d45ae2f7ab19170a30a", "fusion_lon": 0.0, "lon": -77.02668633333333, "lat": 38.92179016666667, "is_reserved": 0, "is_disabled": 0, "rental_uris": {"android": "https://dc.lft.to/lastmile_qr_scan", "ios": "https://dc.lft.to/lastmile_qr_scan"}, "name": "81cfc0cf8e0e3d45ae2f7ab19170a30a", "type": "electric_scooter"}, {"fusion_lat": 0.0, "bike_id": "8455e292ad4ecf1cda7782b9b7297867", "fusion_lon": 0.0, "lon": -77.0311035, "lat": 38.89225, "is_reserved": 0, "is_disabled": 0, "rental_uris": {"android": "https://dc.lft.to/lastmile_qr_scan", "ios": "https://dc.lft.to/lastmile_qr_scan"}, "name": "8455e292ad4ecf1cda7782b9b7297867", "type": "electric_scooter"}, {"fusion_lat": 0.0, "bike_id": "2499ffcb0ff971aeddc8e22be8dc0667", "fusion_lon": 0.0, "lon": -77.02270916666667, "lat": 38.898360333333336, "is_reserved": 0, "is_disabled": 0, "rental_uris": {"android": "https://dc.lft.to/lastmile_qr_scan", "ios": "https://dc.lft.to/lastmile_qr_scan"}, "name": "2499ffcb0ff971aeddc8e22be8dc0667", "type": "electric_scooter"}, {"fusion_lat": 0.0, "bike_id": "c2b60450997d3e0150b550eb26289316", "fusion_lon": 0.0, "lon": -76.93062666666667, "lat": 38.8838835, "is_reserved": 0, "is_disabled": 0, "rental_uris": {"android": "https://dc.lft.to/lastmile_qr_scan", "ios": "https://dc.lft.to/lastmile_qr_scan"}, "name": "c2b60450997d3e0150b550eb26289316", "type": "electric_scooter"}, {"fusion_lat": 0.0, "bike_id": "25ee85335eeaf9e4eb6e647072d55889", "fusion_lon": 0.0, "lon": -77.022656, "lat": 38.937626, "is_reserved": 0, "is_disabled": 0, "rental_uris": {"android": "https://dc.lft.to/lastmile_qr_scan", "ios": "https://dc.lft.to/lastmile_qr_scan"}, "name": "25ee85335eeaf9e4eb6e647072d55889", "type": "electric_scooter"}, {"fusion_lat": 0.0, "bike_id": "b997bf78ad1563f2cae19e916b8d2f45", "fusion_lon": 0.0, "lon": -77.04611383333334, "lat": 38.91551116666667, "is_reserved": 0, "is_disabled": 0, "rental_uris": {"android": "https://dc.lft.to/lastmile_qr_scan", "ios": "https://dc.lft.to/lastmile_qr_scan"}, "name": "b997bf78ad1563f2cae19e916b8d2f45", "type": "electric_scooter"}, {"fusion_lat": 0.0, "bike_id": "fdc9e09204355ee7904c9cb92a17bc6b", "fusion_lon": 0.0, "lon": -77.04479666666667, "lat": 38.89226933333333, "is_reserved": 0, "is_disabled": 0, "rental_uris": {"android": "https://dc.lft.to/lastmile_qr_scan", "ios": "https://dc.lft.to/lastmile_qr_scan"}, "name": "fdc9e09204355ee7904c9cb92a17bc6b", "type": "electric_scooter"}, {"fusion_lat": 0.0, "bike_id": "93ad1282addddb8fb4fbb105d560f8fd", "fusion_lon": 0.0, "lon": -77.02302716666667, "lat": 38.916074333333334, "is_reserved": 0, "is_disabled": 0, "rental_uris": {"android": "https://dc.lft.to/lastmile_qr_scan", "ios": "https://dc.lft.to/lastmile_qr_scan"}, "name": "93ad1282addddb8fb4fbb105d560f8fd", "type": "electric_scooter"}, {"fusion_lat": 0.0, "bike_id": "a2f2f0f90ad0761a0fdfcec490575a2b", "fusion_lon": 0.0, "lon": -77.0187835, "lat": 38.9377335, "is_reserved": 0, "is_disabled": 0, "rental_uris": {"android": "https://dc.lft.to/lastmile_qr_scan", "ios": "https://dc.lft.to/lastmile_qr_scan"}, "name": "a2f2f0f90ad0761a0fdfcec490575a2b", "type": "electric_bike"}, {"fusion_lat": 0.0, "bike_id": "b69b4bcb72092080c67a12af6809c2e3", "fusion_lon": 0.0, "lon": -77.026617, "lat": 38.91693266666667, "is_reserved": 0, "is_disabled": 0, "rental_uris": {"android": "https://dc.lft.to/lastmile_qr_scan", "ios": "https://dc.lft.to/lastmile_qr_scan"}, "name": "b69b4bcb72092080c67a12af6809c2e3", "type": "electric_scooter"}, {"fusion_lat": 0.0, "bike_id": "afe1fbe944b573e7bb1180019bb67e3a", "fusion_lon": 0.0, "lon": -77.043553, "lat": 38.92172566666667, "is_reserved": 0, "is_disabled": 0, "rental_uris": {"android": "https://dc.lft.to/lastmile_qr_scan", "ios": "https://dc.lft.to/lastmile_qr_scan"}, "name": "afe1fbe944b573e7bb1180019bb67e3a", "type": "electric_scooter"}, {"fusion_lat": 0.0, "bike_id": "ea3c288282856fe4bf5d900bf5681bc6", "fusion_lon": 0.0, "lon": -77.031922, "lat": 38.9104145, "is_reserved": 0, "is_disabled": 0, "rental_uris": {"android": "https://dc.lft.to/lastmile_qr_scan", "ios": "https://dc.lft.to/lastmile_qr_scan"}, "name": "ea3c288282856fe4bf5d900bf5681bc6", "type": "electric_scooter"}, {"fusion_lat": 0.0, "bike_id": "85e6e46062ab77e5c80a5a8ec101cb81", "fusion_lon": 0.0, "lon": -77.04313466666666, "lat": 38.92216966666667, "is_reserved": 0, "is_disabled": 0, "rental_uris": {"android": "https://dc.lft.to/lastmile_qr_scan", "ios": "https://dc.lft.to/lastmile_qr_scan"}, "name": "85e6e46062ab77e5c80a5a8ec101cb81", "type": "electric_scooter"}, {"fusion_lat": 0.0, "bike_id": "aee26fc418e929c13779901e376e7cd1", "fusion_lon": 0.0, "lon": -76.9852255, "lat": 38.86686783333333, "is_reserved": 0, "is_disabled": 0, "rental_uris": {"android": "https://dc.lft.to/lastmile_qr_scan", "ios": "https://dc.lft.to/lastmile_qr_scan"}, "name": "aee26fc418e929c13779901e376e7cd1", "type": "electric_scooter"}, {"fusion_lat": 0.0, "bike_id": "f7b55b0e2e2783af84b21fdead900aeb", "fusion_lon": 0.0, "lon": -77.0569305, "lat": 38.937158833333335, "is_reserved": 0, "is_disabled": 0, "rental_uris": {"android": "https://dc.lft.to/lastmile_qr_scan", "ios": "https://dc.lft.to/lastmile_qr_scan"}, "name": "f7b55b0e2e2783af84b21fdead900aeb", "type": "electric_scooter"}, {"fusion_lat": 0.0, "bike_id": "edabbb75319dbce82a6a9e78942cf82f", "fusion_lon": 0.0, "lon": -76.9811615, "lat": 38.863294833333335, "is_reserved": 0, "is_disabled": 0, "rental_uris": {"android": "https://dc.lft.to/lastmile_qr_scan", "ios": "https://dc.lft.to/lastmile_qr_scan"}, "name": "edabbb75319dbce82a6a9e78942cf82f", "type": "electric_scooter"}, {"fusion_lat": 0.0, "bike_id": "16dc6b3b524b26fa9a133887a7ceb976", "fusion_lon": 0.0, "lon": -76.93757366666667, "lat": 38.89041983333333, "is_reserved": 0, "is_disabled": 0, "rental_uris": {"android": "https://dc.lft.to/lastmile_qr_scan", "ios": "https://dc.lft.to/lastmile_qr_scan"}, "name": "16dc6b3b524b26fa9a133887a7ceb976", "type": "electric_scooter"}, {"fusion_lat": 0.0, "bike_id": "9453708910237b33b8303a858d827113", "fusion_lon": 0.0, "lon": -77.10480366666667, "lat": 38.856078333333336, "is_reserved": 0, "is_disabled": 0, "rental_uris": {"android": "https://dc.lft.to/lastmile_qr_scan", "ios": "https://dc.lft.to/lastmile_qr_scan"}, "name": "9453708910237b33b8303a858d827113", "type": "electric_bike"}, {"fusion_lat": 0.0, "bike_id": "5bc65708f27db217a3ac87843778a003", "fusion_lon": 0.0, "lon": -77.031976, "lat": 38.911786166666666, "is_reserved": 0, "is_disabled": 0, "rental_uris": {"android": "https://dc.lft.to/lastmile_qr_scan", "ios": "https://dc.lft.to/lastmile_qr_scan"}, "name": "5bc65708f27db217a3ac87843778a003", "type": "electric_scooter"}, {"fusion_lat": 0.0, "bike_id": "11c85f4d3529b26be222645cc01823b1", "fusion_lon": 0.0, "lon": -77.029678, "lat": 38.9076955, "is_reserved": 0, "is_disabled": 0, "rental_uris": {"android": "https://dc.lft.to/lastmile_qr_scan", "ios": "https://dc.lft.to/lastmile_qr_scan"}, "name": "11c85f4d3529b26be222645cc01823b1", "type": "electric_scooter"}, {"fusion_lat": 0.0, "bike_id": "f6f5a7da84df21c6fa9f0ddfc8cd8742", "fusion_lon": 0.0, "lon": -77.0403485, "lat": 38.91862583333333, "is_reserved": 0, "is_disabled": 0, "rental_uris": {"android": "https://dc.lft.to/lastmile_qr_scan", "ios": "https://dc.lft.to/lastmile_qr_scan"}, "name": "f6f5a7da84df21c6fa9f0ddfc8cd8742", "type": "electric_scooter"}, {"fusion_lat": 0.0, "bike_id": "bde29dc26191ed2f296053260bc6fc7f", "fusion_lon": 0.0, "lon": -77.04336066666667, "lat": 38.901453, "is_reserved": 0, "is_disabled": 0, "rental_uris": {"android": "https://dc.lft.to/lastmile_qr_scan", "ios": "https://dc.lft.to/lastmile_qr_scan"}, "name": "bde29dc26191ed2f296053260bc6fc7f", "type": "electric_scooter"}, {"fusion_lat": 0.0, "bike_id": "a8030db2810fb813a2d012cb0d4c33ba", "fusion_lon": 0.0, "lon": -77.0617635, "lat": 38.905069166666664, "is_reserved": 0, "is_disabled": 0, "rental_uris": {"android": "https://dc.lft.to/lastmile_qr_scan", "ios": "https://dc.lft.to/lastmile_qr_scan"}, "name": "a8030db2810fb813a2d012cb0d4c33ba", "type": "electric_scooter"}, {"fusion_lat": 0.0, "bike_id": "e4a21834e392e55ef3a71e35abd9049a", "fusion_lon": 0.0, "lon": -77.02427183333333, "lat": 38.8922235, "is_reserved": 0, "is_disabled": 0, "rental_uris": {"android": "https://dc.lft.to/lastmile_qr_scan", "ios": "https://dc.lft.to/lastmile_qr_scan"}, "name": "e4a21834e392e55ef3a71e35abd9049a", "type": "electric_scooter"}, {"fusion_lat": 0.0, "bike_id": "1f63729c5d9697d5ba2d44fa048c9941", "fusion_lon": 0.0, "lon": -77.02583583333333, "lat": 38.920339, "is_reserved": 0, "is_disabled": 0, "rental_uris": {"android": "https://dc.lft.to/lastmile_qr_scan", "ios": "https://dc.lft.to/lastmile_qr_scan"}, "name": "1f63729c5d9697d5ba2d44fa048c9941", "type": "electric_scooter"}, {"fusion_lat": 0.0, "bike_id": "230a4c322cb76874dcea4de055a446f6", "fusion_lon": 0.0, "lon": -76.93301216666667, "lat": 38.89197216666667, "is_reserved": 0, "is_disabled": 0, "rental_uris": {"android": "https://dc.lft.to/lastmile_qr_scan", "ios": "https://dc.lft.to/lastmile_qr_scan"}, "name": "230a4c322cb76874dcea4de055a446f6", "type": "electric_scooter"}, {"fusion_lat": 0.0, "bike_id": "ea8b84c89573b5aa52ec8169ef6232e3", "fusion_lon": 0.0, "lon": -77.02776233333333, "lat": 38.892313, "is_reserved": 0, "is_disabled": 0, "rental_uris": {"android": "https://dc.lft.to/lastmile_qr_scan", "ios": "https://dc.lft.to/lastmile_qr_scan"}, "name": "ea8b84c89573b5aa52ec8169ef6232e3", "type": "electric_scooter"}, {"fusion_lat": 0.0, "bike_id": "0f2b8f6a69c17b39a8c4f80fa64b1df4", "fusion_lon": 0.0, "lon": -77.0404735, "lat": 38.890132333333334, "is_reserved": 0, "is_disabled": 0, "rental_uris": {"android": "https://dc.lft.to/lastmile_qr_scan", "ios": "https://dc.lft.to/lastmile_qr_scan"}, "name": "0f2b8f6a69c17b39a8c4f80fa64b1df4", "type": "electric_scooter"}, {"fusion_lat": 0.0, "bike_id": "23b07d250253aba75dc1ef3a018ebfad", "fusion_lon": 0.0, "lon": -77.03417433333334, "lat": 38.91921716666667, "is_reserved": 0, "is_disabled": 0, "rental_uris": {"android": "https://dc.lft.to/lastmile_qr_scan", "ios": "https://dc.lft.to/lastmile_qr_scan"}, "name": "23b07d250253aba75dc1ef3a018ebfad", "type": "electric_scooter"}, {"fusion_lat": 0.0, "bike_id": "15657788be66be09fec28fd6f0e03055", "fusion_lon": 0.0, "lon": -77.0178035, "lat": 38.918742333333334, "is_reserved": 0, "is_disabled": 0, "rental_uris": {"android": "https://dc.lft.to/lastmile_qr_scan", "ios": "https://dc.lft.to/lastmile_qr_scan"}, "name": "15657788be66be09fec28fd6f0e03055", "type": "electric_scooter"}, {"fusion_lat": 0.0, "bike_id": "7b04b5e66485ddf70f281a1b220a79bb", "fusion_lon": 0.0, "lon": -77.0149075, "lat": 38.8922195, "is_reserved": 0, "is_disabled": 0, "rental_uris": {"android": "https://dc.lft.to/lastmile_qr_scan", "ios": "https://dc.lft.to/lastmile_qr_scan"}, "name": "7b04b5e66485ddf70f281a1b220a79bb", "type": "electric_scooter"}, {"fusion_lat": 0.0, "bike_id": "3a0294e3e2b2258c264f141cbe8e4241", "fusion_lon": 0.0, "lon": -77.04644333333333, "lat": 38.915844, "is_reserved": 0, "is_disabled": 0, "rental_uris": {"android": "https://dc.lft.to/lastmile_qr_scan", "ios": "https://dc.lft.to/lastmile_qr_scan"}, "name": "3a0294e3e2b2258c264f141cbe8e4241", "type": "electric_scooter"}, {"fusion_lat": 0.0, "bike_id": "93dd5231f8e4fafd6f89382e6cd976df", "fusion_lon": 0.0, "lon": -76.99498616666666, "lat": 38.899223166666665, "is_reserved": 0, "is_disabled": 0, "rental_uris": {"android": "https://dc.lft.to/lastmile_qr_scan", "ios": "https://dc.lft.to/lastmile_qr_scan"}, "name": "93dd5231f8e4fafd6f89382e6cd976df", "type": "electric_scooter"}, {"fusion_lat": 0.0, "bike_id": "2c4602092262afeee91e68b6b31e904f", "fusion_lon": 0.0, "lon": -77.03855216666666, "lat": 38.93246233333333, "is_reserved": 0, "is_disabled": 0, "rental_uris": {"android": "https://dc.lft.to/lastmile_qr_scan", "ios": "https://dc.lft.to/lastmile_qr_scan"}, "name": "2c4602092262afeee91e68b6b31e904f", "type": "electric_scooter"}, {"fusion_lat": 0.0, "bike_id": "c455c59fb6b052c4742b0d2482a5d691", "fusion_lon": 0.0, "lon": -77.0515605, "lat": 39.043025666666665, "is_reserved": 0, "is_disabled": 0, "rental_uris": {"android": "https://dc.lft.to/lastmile_qr_scan", "ios": "https://dc.lft.to/lastmile_qr_scan"}, "name": "c455c59fb6b052c4742b0d2482a5d691", "type": "electric_bike"}, {"fusion_lat": 0.0, "bike_id": "9d8192f9737ed87b16b09282d21d8693", "fusion_lon": 0.0, "lon": -76.996481, "lat": 38.896794666666665, "is_reserved": 0, "is_disabled": 0, "rental_uris": {"android": "https://dc.lft.to/lastmile_qr_scan", "ios": "https://dc.lft.to/lastmile_qr_scan"}, "name": "9d8192f9737ed87b16b09282d21d8693", "type": "electric_scooter"}, {"fusion_lat": 0.0, "bike_id": "beef7f446f36293bc928e30770e23e5a", "fusion_lon": 0.0, "lon": -77.04761683333334, "lat": 38.92135866666667, "is_reserved": 0, "is_disabled": 0, "rental_uris": {"android": "https://dc.lft.to/lastmile_qr_scan", "ios": "https://dc.lft.to/lastmile_qr_scan"}, "name": "beef7f446f36293bc928e30770e23e5a", "type": "electric_scooter"}, {"fusion_lat": 0.0, "bike_id": "e18e0dafa350fa476c571378130f1e75", "fusion_lon": 0.0, "lon": -76.962581, "lat": 38.88245116666667, "is_reserved": 0, "is_disabled": 0, "rental_uris": {"android": "https://dc.lft.to/lastmile_qr_scan", "ios": "https://dc.lft.to/lastmile_qr_scan"}, "name": "e18e0dafa350fa476c571378130f1e75", "type": "electric_bike"}, {"fusion_lat": 0.0, "bike_id": "45b5ebf11b145a9f68feea0be5598cef", "fusion_lon": 0.0, "lon": -77.04175883333333, "lat": 38.901210166666665, "is_reserved": 0, "is_disabled": 0, "rental_uris": {"android": "https://dc.lft.to/lastmile_qr_scan", "ios": "https://dc.lft.to/lastmile_qr_scan"}, "name": "45b5ebf11b145a9f68feea0be5598cef", "type": "electric_scooter"}, {"fusion_lat": 0.0, "bike_id": "4885eec8a22d599d6197f92e345c570d", "fusion_lon": 0.0, "lon": -77.00664533333334, "lat": 38.900044, "is_reserved": 0, "is_disabled": 0, "rental_uris": {"android": "https://dc.lft.to/lastmile_qr_scan", "ios": "https://dc.lft.to/lastmile_qr_scan"}, "name": "4885eec8a22d599d6197f92e345c570d", "type": "electric_scooter"}, {"fusion_lat": 0.0, "bike_id": "57a144ca052087e30166354c24f27124", "fusion_lon": 0.0, "lon": -77.01313966666666, "lat": 38.89617883333333, "is_reserved": 0, "is_disabled": 0, "rental_uris": {"android": "https://dc.lft.to/lastmile_qr_scan", "ios": "https://dc.lft.to/lastmile_qr_scan"}, "name": "57a144ca052087e30166354c24f27124", "type": "electric_bike"}, {"fusion_lat": 0.0, "bike_id": "4c13bfaac5d200b5186ad059585e11de", "fusion_lon": 0.0, "lon": -77.02462733333333, "lat": 38.941972666666665, "is_reserved": 0, "is_disabled": 0, "rental_uris": {"android": "https://dc.lft.to/lastmile_qr_scan", "ios": "https://dc.lft.to/lastmile_qr_scan"}, "name": "4c13bfaac5d200b5186ad059585e11de", "type": "electric_scooter"}, {"fusion_lat": 0.0, "bike_id": "81ba582e4f2fd856ad662c4f5f5f9472", "fusion_lon": 0.0, "lon": -77.02452716666667, "lat": 38.938568333333336, "is_reserved": 0, "is_disabled": 0, "rental_uris": {"android": "https://dc.lft.to/lastmile_qr_scan", "ios": "https://dc.lft.to/lastmile_qr_scan"}, "name": "81ba582e4f2fd856ad662c4f5f5f9472", "type": "electric_scooter"}, {"fusion_lat": 0.0, "bike_id": "328ec5c41fe3f48c758edea57303181f", "fusion_lon": 0.0, "lon": -77.0391855, "lat": 38.91845583333333, "is_reserved": 0, "is_disabled": 0, "rental_uris": {"android": "https://dc.lft.to/lastmile_qr_scan", "ios": "https://dc.lft.to/lastmile_qr_scan"}, "name": "328ec5c41fe3f48c758edea57303181f", "type": "electric_scooter"}, {"fusion_lat": 0.0, "bike_id": "69d3d67b8b20db3df5277ebd217f835d", "fusion_lon": 0.0, "lon": -77.029729, "lat": 38.91678066666667, "is_reserved": 0, "is_disabled": 0, "rental_uris": {"android": "https://dc.lft.to/lastmile_qr_scan", "ios": "https://dc.lft.to/lastmile_qr_scan"}, "name": "69d3d67b8b20db3df5277ebd217f835d", "type": "electric_scooter"}, {"fusion_lat": 0.0, "bike_id": "385986bc5562c0bd10b9a968af9589ec", "fusion_lon": 0.0, "lon": -77.00134466666667, "lat": 38.89475866666667, "is_reserved": 0, "is_disabled": 0, "rental_uris": {"android": "https://dc.lft.to/lastmile_qr_scan", "ios": "https://dc.lft.to/lastmile_qr_scan"}, "name": "385986bc5562c0bd10b9a968af9589ec", "type": "electric_scooter"}, {"fusion_lat": 0.0, "bike_id": "c1cb9f190e00869137c69ff156d32b39", "fusion_lon": 0.0, "lon": -76.9732635, "lat": 38.90410416666667, "is_reserved": 0, "is_disabled": 0, "rental_uris": {"android": "https://dc.lft.to/lastmile_qr_scan", "ios": "https://dc.lft.to/lastmile_qr_scan"}, "name": "c1cb9f190e00869137c69ff156d32b39", "type": "electric_scooter"}, {"fusion_lat": 0.0, "bike_id": "0a7e9f76a85dfcfc392b23384133f97f", "fusion_lon": 0.0, "lon": -76.98505816666666, "lat": 38.860102833333336, "is_reserved": 0, "is_disabled": 0, "rental_uris": {"android": "https://dc.lft.to/lastmile_qr_scan", "ios": "https://dc.lft.to/lastmile_qr_scan"}, "name": "0a7e9f76a85dfcfc392b23384133f97f", "type": "electric_scooter"}, {"fusion_lat": 0.0, "bike_id": "ced1dc42365f8e15708b436fa90b67b7", "fusion_lon": 0.0, "lon": -77.018931, "lat": 38.9329925, "is_reserved": 0, "is_disabled": 0, "rental_uris": {"android": "https://dc.lft.to/lastmile_qr_scan", "ios": "https://dc.lft.to/lastmile_qr_scan"}, "name": "ced1dc42365f8e15708b436fa90b67b7", "type": "electric_scooter"}, {"fusion_lat": 0.0, "bike_id": "9d341fef3562ece6a231339237667a36", "fusion_lon": 0.0, "lon": -76.97223433333333, "lat": 38.9003205, "is_reserved": 0, "is_disabled": 0, "rental_uris": {"android": "https://dc.lft.to/lastmile_qr_scan", "ios": "https://dc.lft.to/lastmile_qr_scan"}, "name": "9d341fef3562ece6a231339237667a36", "type": "electric_bike"}, {"fusion_lat": 0.0, "bike_id": "cd89812d2d7576a2b5ba9f6895516bdb", "fusion_lon": 0.0, "lon": -77.02205366666666, "lat": 38.92080083333333, "is_reserved": 0, "is_disabled": 0, "rental_uris": {"android": "https://dc.lft.to/lastmile_qr_scan", "ios": "https://dc.lft.to/lastmile_qr_scan"}, "name": "cd89812d2d7576a2b5ba9f6895516bdb", "type": "electric_scooter"}, {"fusion_lat": 0.0, "bike_id": "b1620af7893219c6f69f25b156f10d4a", "fusion_lon": 0.0, "lon": -77.0219925, "lat": 38.910981166666666, "is_reserved": 0, "is_disabled": 0, "rental_uris": {"android": "https://dc.lft.to/lastmile_qr_scan", "ios": "https://dc.lft.to/lastmile_qr_scan"}, "name": "b1620af7893219c6f69f25b156f10d4a", "type": "electric_scooter"}, {"fusion_lat": 0.0, "bike_id": "302cd40e878576e120363462fbd376c4", "fusion_lon": 0.0, "lon": -76.93058683333334, "lat": 38.901568833333336, "is_reserved": 0, "is_disabled": 0, "rental_uris": {"android": "https://dc.lft.to/lastmile_qr_scan", "ios": "https://dc.lft.to/lastmile_qr_scan"}, "name": "302cd40e878576e120363462fbd376c4", "type": "electric_scooter"}, {"fusion_lat": 0.0, "bike_id": "ebbb25afaaa7656f884ae039f9c8d478", "fusion_lon": 0.0, "lon": -77.0394815, "lat": 38.89843883333333, "is_reserved": 0, "is_disabled": 0, "rental_uris": {"android": "https://dc.lft.to/lastmile_qr_scan", "ios": "https://dc.lft.to/lastmile_qr_scan"}, "name": "ebbb25afaaa7656f884ae039f9c8d478", "type": "electric_scooter"}, {"fusion_lat": 0.0, "bike_id": "708936a2ec7b6b6b00666bf21f0dfe46", "fusion_lon": 0.0, "lon": -77.02532116666667, "lat": 38.920601, "is_reserved": 0, "is_disabled": 0, "rental_uris": {"android": "https://dc.lft.to/lastmile_qr_scan", "ios": "https://dc.lft.to/lastmile_qr_scan"}, "name": "708936a2ec7b6b6b00666bf21f0dfe46", "type": "electric_scooter"}, {"fusion_lat": 0.0, "bike_id": "82e8d2439a04be2e31029315af11f920", "fusion_lon": 0.0, "lon": -77.01922066666667, "lat": 38.9225225, "is_reserved": 0, "is_disabled": 0, "rental_uris": {"android": "https://dc.lft.to/lastmile_qr_scan", "ios": "https://dc.lft.to/lastmile_qr_scan"}, "name": "82e8d2439a04be2e31029315af11f920", "type": "electric_scooter"}, {"fusion_lat": 0.0, "bike_id": "1053d3b48bde50817d8a0a6988cb7889", "fusion_lon": 0.0, "lon": -77.02634566666667, "lat": 38.9169645, "is_reserved": 0, "is_disabled": 0, "rental_uris": {"android": "https://dc.lft.to/lastmile_qr_scan", "ios": "https://dc.lft.to/lastmile_qr_scan"}, "name": "1053d3b48bde50817d8a0a6988cb7889", "type": "electric_scooter"}, {"fusion_lat": 0.0, "bike_id": "04f257d25406881e43d0a69369c0c519", "fusion_lon": 0.0, "lon": -77.03217833333333, "lat": 38.892213, "is_reserved": 0, "is_disabled": 0, "rental_uris": {"android": "https://dc.lft.to/lastmile_qr_scan", "ios": "https://dc.lft.to/lastmile_qr_scan"}, "name": "04f257d25406881e43d0a69369c0c519", "type": "electric_scooter"}, {"fusion_lat": 0.0, "bike_id": "599e56d363199048fe634346197f858f", "fusion_lon": 0.0, "lon": -77.030708, "lat": 38.9330285, "is_reserved": 0, "is_disabled": 0, "rental_uris": {"android": "https://dc.lft.to/lastmile_qr_scan", "ios": "https://dc.lft.to/lastmile_qr_scan"}, "name": "599e56d363199048fe634346197f858f", "type": "electric_scooter"}, {"fusion_lat": 0.0, "bike_id": "f91c8ce2d7e122082029889561c3edd1", "fusion_lon": 0.0, "lon": -77.02731566666667, "lat": 38.932067, "is_reserved": 0, "is_disabled": 0, "rental_uris": {"android": "https://dc.lft.to/lastmile_qr_scan", "ios": "https://dc.lft.to/lastmile_qr_scan"}, "name": "f91c8ce2d7e122082029889561c3edd1", "type": "electric_scooter"}, {"fusion_lat": 0.0, "bike_id": "743f2480ddd2b07a097d6bbc9d533469", "fusion_lon": 0.0, "lon": -77.0215545, "lat": 38.9268365, "is_reserved": 0, "is_disabled": 0, "rental_uris": {"android": "https://dc.lft.to/lastmile_qr_scan", "ios": "https://dc.lft.to/lastmile_qr_scan"}, "name": "743f2480ddd2b07a097d6bbc9d533469", "type": "electric_scooter"}, {"fusion_lat": 0.0, "bike_id": "31d8031374f756c3c1d4d39ec2d0cc33", "fusion_lon": 0.0, "lon": -77.03996416666666, "lat": 38.895350666666666, "is_reserved": 0, "is_disabled": 0, "rental_uris": {"android": "https://dc.lft.to/lastmile_qr_scan", "ios": "https://dc.lft.to/lastmile_qr_scan"}, "name": "31d8031374f756c3c1d4d39ec2d0cc33", "type": "electric_scooter"}, {"fusion_lat": 0.0, "bike_id": "f1228adece2b5ac51743bf18cd887c90", "fusion_lon": 0.0, "lon": -77.0257625, "lat": 38.9319445, "is_reserved": 0, "is_disabled": 0, "rental_uris": {"android": "https://dc.lft.to/lastmile_qr_scan", "ios": "https://dc.lft.to/lastmile_qr_scan"}, "name": "f1228adece2b5ac51743bf18cd887c90", "type": "electric_scooter"}, {"fusion_lat": 0.0, "bike_id": "c52a3bd8b7004384df8fbe0abc3c9c99", "fusion_lon": 0.0, "lon": -77.0271175, "lat": 38.92468366666667, "is_reserved": 0, "is_disabled": 0, "rental_uris": {"android": "https://dc.lft.to/lastmile_qr_scan", "ios": "https://dc.lft.to/lastmile_qr_scan"}, "name": "c52a3bd8b7004384df8fbe0abc3c9c99", "type": "electric_scooter"}, {"fusion_lat": 0.0, "bike_id": "23620fb5e93d8c3e85665eb110906392", "fusion_lon": 0.0, "lon": -77.00646933333333, "lat": 38.8716515, "is_reserved": 0, "is_disabled": 0, "rental_uris": {"android": "https://dc.lft.to/lastmile_qr_scan", "ios": "https://dc.lft.to/lastmile_qr_scan"}, "name": "23620fb5e93d8c3e85665eb110906392", "type": "electric_scooter"}, {"fusion_lat": 0.0, "bike_id": "2fa19e42de711a321837f54efa4fd068", "fusion_lon": 0.0, "lon": -77.0604295, "lat": 38.9391375, "is_reserved": 0, "is_disabled": 0, "rental_uris": {"android": "https://dc.lft.to/lastmile_qr_scan", "ios": "https://dc.lft.to/lastmile_qr_scan"}, "name": "2fa19e42de711a321837f54efa4fd068", "type": "electric_scooter"}, {"fusion_lat": 0.0, "bike_id": "3f2869fb2ee9294f93af6fa08fbf8dda", "fusion_lon": 0.0, "lon": -77.0345555, "lat": 38.905675, "is_reserved": 0, "is_disabled": 0, "rental_uris": {"android": "https://dc.lft.to/lastmile_qr_scan", "ios": "https://dc.lft.to/lastmile_qr_scan"}, "name": "3f2869fb2ee9294f93af6fa08fbf8dda", "type": "electric_scooter"}, {"fusion_lat": 0.0, "bike_id": "e5d62a0e586e378534b491e061669f20", "fusion_lon": 0.0, "lon": -77.03328983333333, "lat": 38.909643833333334, "is_reserved": 0, "is_disabled": 0, "rental_uris": {"android": "https://dc.lft.to/lastmile_qr_scan", "ios": "https://dc.lft.to/lastmile_qr_scan"}, "name": "e5d62a0e586e378534b491e061669f20", "type": "electric_scooter"}, {"fusion_lat": 0.0, "bike_id": "1b8607027a160fcb92e610b94e44fe68", "fusion_lon": 0.0, "lon": -77.05901683333333, "lat": 38.903236666666665, "is_reserved": 0, "is_disabled": 0, "rental_uris": {"android": "https://dc.lft.to/lastmile_qr_scan", "ios": "https://dc.lft.to/lastmile_qr_scan"}, "name": "1b8607027a160fcb92e610b94e44fe68", "type": "electric_scooter"}, {"fusion_lat": 0.0, "bike_id": "ddacb84d548f4af81d76d42be0d3cf19", "fusion_lon": 0.0, "lon": -77.04694016666667, "lat": 38.9218275, "is_reserved": 0, "is_disabled": 0, "rental_uris": {"android": "https://dc.lft.to/lastmile_qr_scan", "ios": "https://dc.lft.to/lastmile_qr_scan"}, "name": "ddacb84d548f4af81d76d42be0d3cf19", "type": "electric_scooter"}, {"fusion_lat": 0.0, "bike_id": "eee95874e84d80ada13307d91817ef3b", "fusion_lon": 0.0, "lon": -77.036583, "lat": 38.92341866666666, "is_reserved": 0, "is_disabled": 0, "rental_uris": {"android": "https://dc.lft.to/lastmile_qr_scan", "ios": "https://dc.lft.to/lastmile_qr_scan"}, "name": "eee95874e84d80ada13307d91817ef3b", "type": "electric_scooter"}, {"fusion_lat": 0.0, "bike_id": "33f9305a4b9b66929875deeda95f3956", "fusion_lon": 0.0, "lon": -77.04513316666667, "lat": 38.923252166666664, "is_reserved": 0, "is_disabled": 0, "rental_uris": {"android": "https://dc.lft.to/lastmile_qr_scan", "ios": "https://dc.lft.to/lastmile_qr_scan"}, "name": "33f9305a4b9b66929875deeda95f3956", "type": "electric_scooter"}, {"fusion_lat": 0.0, "bike_id": "1d99b56b1c1e4c9640f42614efb76c91", "fusion_lon": 0.0, "lon": -76.9929005, "lat": 38.89888633333333, "is_reserved": 0, "is_disabled": 0, "rental_uris": {"android": "https://dc.lft.to/lastmile_qr_scan", "ios": "https://dc.lft.to/lastmile_qr_scan"}, "name": "1d99b56b1c1e4c9640f42614efb76c91", "type": "electric_scooter"}, {"fusion_lat": 0.0, "bike_id": "f37d3002f60a1517f25c746043562989", "fusion_lon": 0.0, "lon": -77.02655433333334, "lat": 38.91694483333333, "is_reserved": 0, "is_disabled": 0, "rental_uris": {"android": "https://dc.lft.to/lastmile_qr_scan", "ios": "https://dc.lft.to/lastmile_qr_scan"}, "name": "f37d3002f60a1517f25c746043562989", "type": "electric_scooter"}, {"fusion_lat": 0.0, "bike_id": "0c9a4adb57993a14cc2a3b2d8d890a29", "fusion_lon": 0.0, "lon": -77.03264316666667, "lat": 38.9320775, "is_reserved": 0, "is_disabled": 0, "rental_uris": {"android": "https://dc.lft.to/lastmile_qr_scan", "ios": "https://dc.lft.to/lastmile_qr_scan"}, "name": "0c9a4adb57993a14cc2a3b2d8d890a29", "type": "electric_scooter"}, {"fusion_lat": 0.0, "bike_id": "7205844bb8eb5ce110e811b7efd7c558", "fusion_lon": 0.0, "lon": -77.07977383333333, "lat": 38.919509, "is_reserved": 0, "is_disabled": 0, "rental_uris": {"android": "https://dc.lft.to/lastmile_qr_scan", "ios": "https://dc.lft.to/lastmile_qr_scan"}, "name": "7205844bb8eb5ce110e811b7efd7c558", "type": "electric_scooter"}, {"fusion_lat": 0.0, "bike_id": "88fa9f65d524008e606a19cb4d5626a5", "fusion_lon": 0.0, "lon": -77.02095333333334, "lat": 38.931158, "is_reserved": 0, "is_disabled": 0, "rental_uris": {"android": "https://dc.lft.to/lastmile_qr_scan", "ios": "https://dc.lft.to/lastmile_qr_scan"}, "name": "88fa9f65d524008e606a19cb4d5626a5", "type": "electric_scooter"}, {"fusion_lat": 0.0, "bike_id": "2b29af070a67d4ae116e15242af8eaed", "fusion_lon": 0.0, "lon": -77.03483016666667, "lat": 38.934399166666665, "is_reserved": 0, "is_disabled": 0, "rental_uris": {"android": "https://dc.lft.to/lastmile_qr_scan", "ios": "https://dc.lft.to/lastmile_qr_scan"}, "name": "2b29af070a67d4ae116e15242af8eaed", "type": "electric_scooter"}, {"fusion_lat": 0.0, "bike_id": "8f07db352015925df18cbecf859d5b5c", "fusion_lon": 0.0, "lon": -77.02759716666667, "lat": 38.89712766666667, "is_reserved": 0, "is_disabled": 0, "rental_uris": {"android": "https://dc.lft.to/lastmile_qr_scan", "ios": "https://dc.lft.to/lastmile_qr_scan"}, "name": "8f07db352015925df18cbecf859d5b5c", "type": "electric_scooter"}, {"fusion_lat": 0.0, "bike_id": "ce1b7d435c03da818b21b5867df48dfb", "fusion_lon": 0.0, "lon": -77.041464, "lat": 38.905192666666665, "is_reserved": 0, "is_disabled": 0, "rental_uris": {"android": "https://dc.lft.to/lastmile_qr_scan", "ios": "https://dc.lft.to/lastmile_qr_scan"}, "name": "ce1b7d435c03da818b21b5867df48dfb", "type": "electric_scooter"}, {"fusion_lat": 0.0, "bike_id": "ff6c197ab96fd93d36368afcea75e2c7", "fusion_lon": 0.0, "lon": -77.0380655, "lat": 38.9232875, "is_reserved": 0, "is_disabled": 0, "rental_uris": {"android": "https://dc.lft.to/lastmile_qr_scan", "ios": "https://dc.lft.to/lastmile_qr_scan"}, "name": "ff6c197ab96fd93d36368afcea75e2c7", "type": "electric_scooter"}, {"fusion_lat": 0.0, "bike_id": "47919e4b144f7114ea000c370d3c1c42", "fusion_lon": 0.0, "lon": -77.05543666666667, "lat": 38.930059, "is_reserved": 0, "is_disabled": 0, "rental_uris": {"android": "https://dc.lft.to/lastmile_qr_scan", "ios": "https://dc.lft.to/lastmile_qr_scan"}, "name": "47919e4b144f7114ea000c370d3c1c42", "type": "electric_scooter"}, {"fusion_lat": 0.0, "bike_id": "ac61683214e5d27b0194ecced93d5c52", "fusion_lon": 0.0, "lon": -77.03740133333334, "lat": 38.90251883333333, "is_reserved": 0, "is_disabled": 0, "rental_uris": {"android": "https://dc.lft.to/lastmile_qr_scan", "ios": "https://dc.lft.to/lastmile_qr_scan"}, "name": "ac61683214e5d27b0194ecced93d5c52", "type": "electric_scooter"}, {"fusion_lat": 0.0, "bike_id": "dfbd56894fe9f159523fa3d9c4e01bb9", "fusion_lon": 0.0, "lon": -77.03324833333333, "lat": 38.903673166666664, "is_reserved": 0, "is_disabled": 0, "rental_uris": {"android": "https://dc.lft.to/lastmile_qr_scan", "ios": "https://dc.lft.to/lastmile_qr_scan"}, "name": "dfbd56894fe9f159523fa3d9c4e01bb9", "type": "electric_scooter"}, {"fusion_lat": 0.0, "bike_id": "478a27c87d1ffa7552bfd19d1ebb6b18", "fusion_lon": 0.0, "lon": -77.0246155, "lat": 38.942025, "is_reserved": 0, "is_disabled": 0, "rental_uris": {"android": "https://dc.lft.to/lastmile_qr_scan", "ios": "https://dc.lft.to/lastmile_qr_scan"}, "name": "478a27c87d1ffa7552bfd19d1ebb6b18", "type": "electric_scooter"}, {"fusion_lat": 0.0, "bike_id": "1d1778224199780778ed3056a4aaef2c", "fusion_lon": 0.0, "lon": -77.04647616666666, "lat": 39.054996, "is_reserved": 0, "is_disabled": 0, "rental_uris": {"android": "https://dc.lft.to/lastmile_qr_scan", "ios": "https://dc.lft.to/lastmile_qr_scan"}, "name": "1d1778224199780778ed3056a4aaef2c", "type": "electric_bike"}, {"fusion_lat": 0.0, "bike_id": "4b2ab0430a34f8fa882e245680333630", "fusion_lon": 0.0, "lon": -77.02480333333334, "lat": 38.91701333333334, "is_reserved": 0, "is_disabled": 0, "rental_uris": {"android": "https://dc.lft.to/lastmile_qr_scan", "ios": "https://dc.lft.to/lastmile_qr_scan"}, "name": "4b2ab0430a34f8fa882e245680333630", "type": "electric_scooter"}, {"fusion_lat": 0.0, "bike_id": "fcd0497bb7a0bb22c1aea52cdf4b8cf5", "fusion_lon": 0.0, "lon": -77.051441, "lat": 38.90386383333333, "is_reserved": 0, "is_disabled": 0, "rental_uris": {"android": "https://dc.lft.to/lastmile_qr_scan", "ios": "https://dc.lft.to/lastmile_qr_scan"}, "name": "fcd0497bb7a0bb22c1aea52cdf4b8cf5", "type": "electric_scooter"}, {"fusion_lat": 0.0, "bike_id": "91911a5313c4dea957f1fb30e96661ee", "fusion_lon": 0.0, "lon": -76.883987, "lat": 38.93167583333334, "is_reserved": 0, "is_disabled": 0, "rental_uris": {"android": "https://dc.lft.to/lastmile_qr_scan", "ios": "https://dc.lft.to/lastmile_qr_scan"}, "name": "91911a5313c4dea957f1fb30e96661ee", "type": "electric_bike"}, {"fusion_lat": 0.0, "bike_id": "08111640417231d5608630cdf920c856", "fusion_lon": 0.0, "lon": -77.05251783333334, "lat": 38.9273095, "is_reserved": 0, "is_disabled": 0, "rental_uris": {"android": "https://dc.lft.to/lastmile_qr_scan", "ios": "https://dc.lft.to/lastmile_qr_scan"}, "name": "08111640417231d5608630cdf920c856", "type": "electric_scooter"}, {"fusion_lat": 0.0, "bike_id": "7b49582ee5aa08cb968f4d7485fc8aed", "fusion_lon": 0.0, "lon": -77.06028833333333, "lat": 38.93361316666667, "is_reserved": 0, "is_disabled": 0, "rental_uris": {"android": "https://dc.lft.to/lastmile_qr_scan", "ios": "https://dc.lft.to/lastmile_qr_scan"}, "name": "7b49582ee5aa08cb968f4d7485fc8aed", "type": "electric_scooter"}, {"fusion_lat": 0.0, "bike_id": "a8ca4bdcde20beef5c694561afd3dc66", "fusion_lon": 0.0, "lon": -77.03885183333334, "lat": 38.948739833333335, "is_reserved": 0, "is_disabled": 0, "rental_uris": {"android": "https://dc.lft.to/lastmile_qr_scan", "ios": "https://dc.lft.to/lastmile_qr_scan"}, "name": "a8ca4bdcde20beef5c694561afd3dc66", "type": "electric_scooter"}, {"fusion_lat": 0.0, "bike_id": "4846a5f85e145b37ccfd9101e74eaf58", "fusion_lon": 0.0, "lon": -77.0432685, "lat": 38.902370833333336, "is_reserved": 0, "is_disabled": 0, "rental_uris": {"android": "https://dc.lft.to/lastmile_qr_scan", "ios": "https://dc.lft.to/lastmile_qr_scan"}, "name": "4846a5f85e145b37ccfd9101e74eaf58", "type": "electric_scooter"}, {"fusion_lat": 0.0, "bike_id": "dd4bae64d69cfa08a8f4327b21b7f20c", "fusion_lon": 0.0, "lon": -77.02953316666667, "lat": 38.88492166666666, "is_reserved": 0, "is_disabled": 0, "rental_uris": {"android": "https://dc.lft.to/lastmile_qr_scan", "ios": "https://dc.lft.to/lastmile_qr_scan"}, "name": "dd4bae64d69cfa08a8f4327b21b7f20c", "type": "electric_scooter"}, {"fusion_lat": 0.0, "bike_id": "a6f04b5127b34016573ae5a256b9f1ac", "fusion_lon": 0.0, "lon": -77.18738516666667, "lat": 38.89350866666667, "is_reserved": 0, "is_disabled": 0, "rental_uris": {"android": "https://dc.lft.to/lastmile_qr_scan", "ios": "https://dc.lft.to/lastmile_qr_scan"}, "name": "a6f04b5127b34016573ae5a256b9f1ac", "type": "electric_bike"}, {"fusion_lat": 0.0, "bike_id": "12fc5cb2ff044d72c22391a80140fe71", "fusion_lon": 0.0, "lon": -76.95657266666667, "lat": 38.896209166666665, "is_reserved": 0, "is_disabled": 0, "rental_uris": {"android": "https://dc.lft.to/lastmile_qr_scan", "ios": "https://dc.lft.to/lastmile_qr_scan"}, "name": "12fc5cb2ff044d72c22391a80140fe71", "type": "electric_scooter"}, {"fusion_lat": 0.0, "bike_id": "12fbebf0cae71f4f19c5225d321a4b20", "fusion_lon": 0.0, "lon": -77.0570045, "lat": 38.92606633333333, "is_reserved": 0, "is_disabled": 0, "rental_uris": {"android": "https://dc.lft.to/lastmile_qr_scan", "ios": "https://dc.lft.to/lastmile_qr_scan"}, "name": "12fbebf0cae71f4f19c5225d321a4b20", "type": "electric_bike"}, {"fusion_lat": 0.0, "bike_id": "10ff6640c6bcc04e1dfc209bb2b23113", "fusion_lon": 0.0, "lon": -77.02950433333334, "lat": 38.899338, "is_reserved": 0, "is_disabled": 0, "rental_uris": {"android": "https://dc.lft.to/lastmile_qr_scan", "ios": "https://dc.lft.to/lastmile_qr_scan"}, "name": "10ff6640c6bcc04e1dfc209bb2b23113", "type": "electric_scooter"}, {"fusion_lat": 0.0, "bike_id": "0fd3021f6d47a1237eda5f44904bf8e3", "fusion_lon": 0.0, "lon": -77.0194485, "lat": 38.92371933333333, "is_reserved": 0, "is_disabled": 0, "rental_uris": {"android": "https://dc.lft.to/lastmile_qr_scan", "ios": "https://dc.lft.to/lastmile_qr_scan"}, "name": "0fd3021f6d47a1237eda5f44904bf8e3", "type": "electric_scooter"}, {"fusion_lat": 0.0, "bike_id": "7ec162c7031545d12f918534d5704bb6", "fusion_lon": 0.0, "lon": -77.03544683333334, "lat": 38.9258445, "is_reserved": 0, "is_disabled": 0, "rental_uris": {"android": "https://dc.lft.to/lastmile_qr_scan", "ios": "https://dc.lft.to/lastmile_qr_scan"}, "name": "7ec162c7031545d12f918534d5704bb6", "type": "electric_scooter"}, {"fusion_lat": 0.0, "bike_id": "09ac93a42ba47ee7b448fa9d6a0f5aea", "fusion_lon": 0.0, "lon": -76.97742566666666, "lat": 38.86481466666667, "is_reserved": 0, "is_disabled": 0, "rental_uris": {"android": "https://dc.lft.to/lastmile_qr_scan", "ios": "https://dc.lft.to/lastmile_qr_scan"}, "name": "09ac93a42ba47ee7b448fa9d6a0f5aea", "type": "electric_bike"}, {"fusion_lat": 0.0, "bike_id": "95ca0ff50701af16e1c12327a3d92958", "fusion_lon": 0.0, "lon": -76.999286, "lat": 38.843135833333335, "is_reserved": 0, "is_disabled": 0, "rental_uris": {"android": "https://dc.lft.to/lastmile_qr_scan", "ios": "https://dc.lft.to/lastmile_qr_scan"}, "name": "95ca0ff50701af16e1c12327a3d92958", "type": "electric_scooter"}, {"fusion_lat": 0.0, "bike_id": "365da94509a5966b3539b7e0457030ac", "fusion_lon": 0.0, "lon": -77.041784, "lat": 38.90550916666667, "is_reserved": 0, "is_disabled": 0, "rental_uris": {"android": "https://dc.lft.to/lastmile_qr_scan", "ios": "https://dc.lft.to/lastmile_qr_scan"}, "name": "365da94509a5966b3539b7e0457030ac", "type": "electric_scooter"}, {"fusion_lat": 0.0, "bike_id": "eea24a34098416d6781fc9d329dd0709", "fusion_lon": 0.0, "lon": -77.03444583333334, "lat": 38.909498, "is_reserved": 0, "is_disabled": 0, "rental_uris": {"android": "https://dc.lft.to/lastmile_qr_scan", "ios": "https://dc.lft.to/lastmile_qr_scan"}, "name": "eea24a34098416d6781fc9d329dd0709", "type": "electric_scooter"}, {"fusion_lat": 0.0, "bike_id": "1eb75f9612df564ccd65fd9d7b3f3834", "fusion_lon": 0.0, "lon": -77.02379283333333, "lat": 38.89239533333333, "is_reserved": 0, "is_disabled": 0, "rental_uris": {"android": "https://dc.lft.to/lastmile_qr_scan", "ios": "https://dc.lft.to/lastmile_qr_scan"}, "name": "1eb75f9612df564ccd65fd9d7b3f3834", "type": "electric_scooter"}, {"fusion_lat": 0.0, "bike_id": "d98f93ac95efec9553b305a71f705465", "fusion_lon": 0.0, "lon": -77.0176725, "lat": 38.88733116666667, "is_reserved": 0, "is_disabled": 0, "rental_uris": {"android": "https://dc.lft.to/lastmile_qr_scan", "ios": "https://dc.lft.to/lastmile_qr_scan"}, "name": "d98f93ac95efec9553b305a71f705465", "type": "electric_scooter"}, {"fusion_lat": 0.0, "bike_id": "b6895a9d58fdd9b79013c4b45df8cd48", "fusion_lon": 0.0, "lon": -77.03375483333333, "lat": 38.92165333333333, "is_reserved": 0, "is_disabled": 0, "rental_uris": {"android": "https://dc.lft.to/lastmile_qr_scan", "ios": "https://dc.lft.to/lastmile_qr_scan"}, "name": "b6895a9d58fdd9b79013c4b45df8cd48", "type": "electric_scooter"}, {"fusion_lat": 0.0, "bike_id": "c40fd38ad7e83e49accc7a78b4d3d2dc", "fusion_lon": 0.0, "lon": -77.01086, "lat": 38.8981095, "is_reserved": 0, "is_disabled": 0, "rental_uris": {"android": "https://dc.lft.to/lastmile_qr_scan", "ios": "https://dc.lft.to/lastmile_qr_scan"}, "name": "c40fd38ad7e83e49accc7a78b4d3d2dc", "type": "electric_scooter"}, {"fusion_lat": 0.0, "bike_id": "dd6db587cff9ec1c699dd3c9e4c80f8c", "fusion_lon": 0.0, "lon": -77.0487045, "lat": 38.89230466666667, "is_reserved": 0, "is_disabled": 0, "rental_uris": {"android": "https://dc.lft.to/lastmile_qr_scan", "ios": "https://dc.lft.to/lastmile_qr_scan"}, "name": "dd6db587cff9ec1c699dd3c9e4c80f8c", "type": "electric_scooter"}, {"fusion_lat": 0.0, "bike_id": "af408beb879d73f328b46aae8cd2c53a", "fusion_lon": 0.0, "lon": -76.96088266666666, "lat": 38.91859516666667, "is_reserved": 0, "is_disabled": 0, "rental_uris": {"android": "https://dc.lft.to/lastmile_qr_scan", "ios": "https://dc.lft.to/lastmile_qr_scan"}, "name": "af408beb879d73f328b46aae8cd2c53a", "type": "electric_bike"}, {"fusion_lat": 0.0, "bike_id": "77846cd80dc27d9851de4635fd0e887c", "fusion_lon": 0.0, "lon": -77.0181985, "lat": 38.9190755, "is_reserved": 0, "is_disabled": 0, "rental_uris": {"android": "https://dc.lft.to/lastmile_qr_scan", "ios": "https://dc.lft.to/lastmile_qr_scan"}, "name": "77846cd80dc27d9851de4635fd0e887c", "type": "electric_scooter"}, {"fusion_lat": 0.0, "bike_id": "d4cd7b40e9c8dcae9b6133630a61ec23", "fusion_lon": 0.0, "lon": -77.0396045, "lat": 38.9245705, "is_reserved": 0, "is_disabled": 0, "rental_uris": {"android": "https://dc.lft.to/lastmile_qr_scan", "ios": "https://dc.lft.to/lastmile_qr_scan"}, "name": "d4cd7b40e9c8dcae9b6133630a61ec23", "type": "electric_scooter"}, {"fusion_lat": 0.0, "bike_id": "1902410d61e4140ff12cb259f28dac99", "fusion_lon": 0.0, "lon": -77.036082, "lat": 38.936845, "is_reserved": 0, "is_disabled": 0, "rental_uris": {"android": "https://dc.lft.to/lastmile_qr_scan", "ios": "https://dc.lft.to/lastmile_qr_scan"}, "name": "1902410d61e4140ff12cb259f28dac99", "type": "electric_scooter"}, {"fusion_lat": 0.0, "bike_id": "978b137e87d856a8666cfa7efe1ce65b", "fusion_lon": 0.0, "lon": -77.07225733333334, "lat": 38.96815183333333, "is_reserved": 0, "is_disabled": 0, "rental_uris": {"android": "https://dc.lft.to/lastmile_qr_scan", "ios": "https://dc.lft.to/lastmile_qr_scan"}, "name": "978b137e87d856a8666cfa7efe1ce65b", "type": "electric_bike"}, {"fusion_lat": 0.0, "bike_id": "a90fcb1f5d8d080bd103b4887948bf30", "fusion_lon": 0.0, "lon": -77.02773183333333, "lat": 38.89226766666667, "is_reserved": 0, "is_disabled": 0, "rental_uris": {"android": "https://dc.lft.to/lastmile_qr_scan", "ios": "https://dc.lft.to/lastmile_qr_scan"}, "name": "a90fcb1f5d8d080bd103b4887948bf30", "type": "electric_scooter"}, {"fusion_lat": 0.0, "bike_id": "d799f1d0989528d504bfb0baf2166702", "fusion_lon": 0.0, "lon": -76.96904133333334, "lat": 38.846117, "is_reserved": 0, "is_disabled": 0, "rental_uris": {"android": "https://dc.lft.to/lastmile_qr_scan", "ios": "https://dc.lft.to/lastmile_qr_scan"}, "name": "d799f1d0989528d504bfb0baf2166702", "type": "electric_bike"}, {"fusion_lat": 0.0, "bike_id": "fef782dab041b8b452de2ef8f6ba012f", "fusion_lon": 0.0, "lon": -77.04503666666666, "lat": 38.90547316666667, "is_reserved": 0, "is_disabled": 0, "rental_uris": {"android": "https://dc.lft.to/lastmile_qr_scan", "ios": "https://dc.lft.to/lastmile_qr_scan"}, "name": "fef782dab041b8b452de2ef8f6ba012f", "type": "electric_scooter"}, {"fusion_lat": 0.0, "bike_id": "ba7b53b9833c49f69874f26bbd0b731c", "fusion_lon": 0.0, "lon": -77.0364125, "lat": 38.91340433333333, "is_reserved": 0, "is_disabled": 0, "rental_uris": {"android": "https://dc.lft.to/lastmile_qr_scan", "ios": "https://dc.lft.to/lastmile_qr_scan"}, "name": "ba7b53b9833c49f69874f26bbd0b731c", "type": "electric_scooter"}, {"fusion_lat": 0.0, "bike_id": "3fd296612dd4d0e90fc399f774bf55be", "fusion_lon": 0.0, "lon": -77.04495866666667, "lat": 38.9073235, "is_reserved": 0, "is_disabled": 0, "rental_uris": {"android": "https://dc.lft.to/lastmile_qr_scan", "ios": "https://dc.lft.to/lastmile_qr_scan"}, "name": "3fd296612dd4d0e90fc399f774bf55be", "type": "electric_scooter"}, {"fusion_lat": 0.0, "bike_id": "88235394b457fe194940e35806fbd4d6", "fusion_lon": 0.0, "lon": -77.04665866666667, "lat": 38.896716166666664, "is_reserved": 0, "is_disabled": 0, "rental_uris": {"android": "https://dc.lft.to/lastmile_qr_scan", "ios": "https://dc.lft.to/lastmile_qr_scan"}, "name": "88235394b457fe194940e35806fbd4d6", "type": "electric_scooter"}, {"fusion_lat": 0.0, "bike_id": "01d4bec6a197efcd66988e82a0579974", "fusion_lon": 0.0, "lon": -76.96151666666667, "lat": 38.883564666666665, "is_reserved": 0, "is_disabled": 0, "rental_uris": {"android": "https://dc.lft.to/lastmile_qr_scan", "ios": "https://dc.lft.to/lastmile_qr_scan"}, "name": "01d4bec6a197efcd66988e82a0579974", "type": "electric_scooter"}, {"fusion_lat": 0.0, "bike_id": "f404076a20e438904aa2b8a279e2254f", "fusion_lon": 0.0, "lon": -77.03267916666667, "lat": 38.937773666666665, "is_reserved": 0, "is_disabled": 0, "rental_uris": {"android": "https://dc.lft.to/lastmile_qr_scan", "ios": "https://dc.lft.to/lastmile_qr_scan"}, "name": "f404076a20e438904aa2b8a279e2254f", "type": "electric_scooter"}, {"fusion_lat": 0.0, "bike_id": "ce3ad23657fdaae701a9d7326a0efdd9", "fusion_lon": 0.0, "lon": -77.06773433333333, "lat": 38.90358966666667, "is_reserved": 0, "is_disabled": 0, "rental_uris": {"android": "https://dc.lft.to/lastmile_qr_scan", "ios": "https://dc.lft.to/lastmile_qr_scan"}, "name": "ce3ad23657fdaae701a9d7326a0efdd9", "type": "electric_scooter"}, {"fusion_lat": 0.0, "bike_id": "639addfff5a40e5843f260bf2f495cee", "fusion_lon": 0.0, "lon": -77.0219875, "lat": 38.899720333333335, "is_reserved": 0, "is_disabled": 0, "rental_uris": {"android": "https://dc.lft.to/lastmile_qr_scan", "ios": "https://dc.lft.to/lastmile_qr_scan"}, "name": "639addfff5a40e5843f260bf2f495cee", "type": "electric_bike"}, {"fusion_lat": 0.0, "bike_id": "119f12eda91930c8b14b8e6c1fb29143", "fusion_lon": 0.0, "lon": -77.02706216666667, "lat": 38.94991, "is_reserved": 0, "is_disabled": 0, "rental_uris": {"android": "https://dc.lft.to/lastmile_qr_scan", "ios": "https://dc.lft.to/lastmile_qr_scan"}, "name": "119f12eda91930c8b14b8e6c1fb29143", "type": "electric_scooter"}, {"fusion_lat": 0.0, "bike_id": "12d60ede2181ae5d9a9d750573084970", "fusion_lon": 0.0, "lon": -77.139335, "lat": 38.8729575, "is_reserved": 0, "is_disabled": 0, "rental_uris": {"android": "https://dc.lft.to/lastmile_qr_scan", "ios": "https://dc.lft.to/lastmile_qr_scan"}, "name": "12d60ede2181ae5d9a9d750573084970", "type": "electric_bike"}, {"fusion_lat": 0.0, "bike_id": "72446a82b24546ec6000e7ddaf645211", "fusion_lon": 0.0, "lon": -77.03803166666667, "lat": 38.9311685, "is_reserved": 0, "is_disabled": 0, "rental_uris": {"android": "https://dc.lft.to/lastmile_qr_scan", "ios": "https://dc.lft.to/lastmile_qr_scan"}, "name": "72446a82b24546ec6000e7ddaf645211", "type": "electric_scooter"}, {"fusion_lat": 0.0, "bike_id": "8c8b55b2c50c85f8ff81c06a092747b5", "fusion_lon": 0.0, "lon": -77.04487583333334, "lat": 38.91335016666667, "is_reserved": 0, "is_disabled": 0, "rental_uris": {"android": "https://dc.lft.to/lastmile_qr_scan", "ios": "https://dc.lft.to/lastmile_qr_scan"}, "name": "8c8b55b2c50c85f8ff81c06a092747b5", "type": "electric_scooter"}, {"fusion_lat": 0.0, "bike_id": "ff6925644841f80966e94b203b440e37", "fusion_lon": 0.0, "lon": -77.1246395, "lat": 38.853719166666664, "is_reserved": 0, "is_disabled": 0, "rental_uris": {"android": "https://dc.lft.to/lastmile_qr_scan", "ios": "https://dc.lft.to/lastmile_qr_scan"}, "name": "ff6925644841f80966e94b203b440e37", "type": "electric_bike"}, {"fusion_lat": 0.0, "bike_id": "bd426ced3b3c8612df811f989a29e874", "fusion_lon": 0.0, "lon": -77.0319635, "lat": 38.89779016666667, "is_reserved": 0, "is_disabled": 0, "rental_uris": {"android": "https://dc.lft.to/lastmile_qr_scan", "ios": "https://dc.lft.to/lastmile_qr_scan"}, "name": "bd426ced3b3c8612df811f989a29e874", "type": "electric_scooter"}, {"fusion_lat": 0.0, "bike_id": "99b06a67e74515e9a1d32e3e85b94f41", "fusion_lon": 0.0, "lon": -77.04690233333334, "lat": 38.902140833333334, "is_reserved": 0, "is_disabled": 0, "rental_uris": {"android": "https://dc.lft.to/lastmile_qr_scan", "ios": "https://dc.lft.to/lastmile_qr_scan"}, "name": "99b06a67e74515e9a1d32e3e85b94f41", "type": "electric_scooter"}, {"fusion_lat": 0.0, "bike_id": "5a3aa280ebaf66e352778351136f7fba", "fusion_lon": 0.0, "lon": -76.99267483333334, "lat": 38.860234166666665, "is_reserved": 0, "is_disabled": 0, "rental_uris": {"android": "https://dc.lft.to/lastmile_qr_scan", "ios": "https://dc.lft.to/lastmile_qr_scan"}, "name": "5a3aa280ebaf66e352778351136f7fba", "type": "electric_scooter"}, {"fusion_lat": 0.0, "bike_id": "14af1e4bf0ec8b4f1ca64356c45c0a11", "fusion_lon": 0.0, "lon": -77.0365155, "lat": 38.921307666666664, "is_reserved": 0, "is_disabled": 0, "rental_uris": {"android": "https://dc.lft.to/lastmile_qr_scan", "ios": "https://dc.lft.to/lastmile_qr_scan"}, "name": "14af1e4bf0ec8b4f1ca64356c45c0a11", "type": "electric_scooter"}, {"fusion_lat": 0.0, "bike_id": "a7d8c86c95d79e50c4c5c9f196dcfb6d", "fusion_lon": 0.0, "lon": -77.0556915, "lat": 38.930555, "is_reserved": 0, "is_disabled": 0, "rental_uris": {"android": "https://dc.lft.to/lastmile_qr_scan", "ios": "https://dc.lft.to/lastmile_qr_scan"}, "name": "a7d8c86c95d79e50c4c5c9f196dcfb6d", "type": "electric_scooter"}, {"fusion_lat": 0.0, "bike_id": "3a994b48f4212f580748587d95a07dab", "fusion_lon": 0.0, "lon": -77.05001966666667, "lat": 38.905175, "is_reserved": 0, "is_disabled": 0, "rental_uris": {"android": "https://dc.lft.to/lastmile_qr_scan", "ios": "https://dc.lft.to/lastmile_qr_scan"}, "name": "3a994b48f4212f580748587d95a07dab", "type": "electric_scooter"}, {"fusion_lat": 0.0, "bike_id": "b05eb93de6c1a64bfaae492ab20df370", "fusion_lon": 0.0, "lon": -77.02370966666666, "lat": 38.917832833333335, "is_reserved": 0, "is_disabled": 0, "rental_uris": {"android": "https://dc.lft.to/lastmile_qr_scan", "ios": "https://dc.lft.to/lastmile_qr_scan"}, "name": "b05eb93de6c1a64bfaae492ab20df370", "type": "electric_scooter"}, {"fusion_lat": 0.0, "bike_id": "1cf18669efb979cdefe6821e0bc205db", "fusion_lon": 0.0, "lon": -77.0049515, "lat": 38.8956945, "is_reserved": 0, "is_disabled": 0, "rental_uris": {"android": "https://dc.lft.to/lastmile_qr_scan", "ios": "https://dc.lft.to/lastmile_qr_scan"}, "name": "1cf18669efb979cdefe6821e0bc205db", "type": "electric_scooter"}, {"fusion_lat": 0.0, "bike_id": "dec4087b980acba3066c194a8ff4b46a", "fusion_lon": 0.0, "lon": -76.97203983333333, "lat": 38.892861833333335, "is_reserved": 0, "is_disabled": 0, "rental_uris": {"android": "https://dc.lft.to/lastmile_qr_scan", "ios": "https://dc.lft.to/lastmile_qr_scan"}, "name": "dec4087b980acba3066c194a8ff4b46a", "type": "electric_bike"}, {"fusion_lat": 0.0, "bike_id": "2e5e6bcd9d3cacb2ee46bc6f174c179c", "fusion_lon": 0.0, "lon": -77.05394716666666, "lat": 38.92794983333334, "is_reserved": 0, "is_disabled": 0, "rental_uris": {"android": "https://dc.lft.to/lastmile_qr_scan", "ios": "https://dc.lft.to/lastmile_qr_scan"}, "name": "2e5e6bcd9d3cacb2ee46bc6f174c179c", "type": "electric_scooter"}, {"fusion_lat": 0.0, "bike_id": "4b716a6772f4369d95c783e7c197378f", "fusion_lon": 0.0, "lon": -77.04317766666667, "lat": 38.908846, "is_reserved": 0, "is_disabled": 0, "rental_uris": {"android": "https://dc.lft.to/lastmile_qr_scan", "ios": "https://dc.lft.to/lastmile_qr_scan"}, "name": "4b716a6772f4369d95c783e7c197378f", "type": "electric_scooter"}, {"fusion_lat": 0.0, "bike_id": "a0355a3f0fa4ff78938a638ec7f4c511", "fusion_lon": 0.0, "lon": -77.03854533333333, "lat": 38.91191833333333, "is_reserved": 0, "is_disabled": 0, "rental_uris": {"android": "https://dc.lft.to/lastmile_qr_scan", "ios": "https://dc.lft.to/lastmile_qr_scan"}, "name": "a0355a3f0fa4ff78938a638ec7f4c511", "type": "electric_scooter"}, {"fusion_lat": 0.0, "bike_id": "c9b525ec283f13379753f44537e28bbf", "fusion_lon": 0.0, "lon": -77.03825283333333, "lat": 38.910444166666665, "is_reserved": 0, "is_disabled": 0, "rental_uris": {"android": "https://dc.lft.to/lastmile_qr_scan", "ios": "https://dc.lft.to/lastmile_qr_scan"}, "name": "c9b525ec283f13379753f44537e28bbf", "type": "electric_scooter"}, {"fusion_lat": 0.0, "bike_id": "73572a748d1e179e09e699324ed249d1", "fusion_lon": 0.0, "lon": -77.00604516666667, "lat": 38.9059065, "is_reserved": 0, "is_disabled": 0, "rental_uris": {"android": "https://dc.lft.to/lastmile_qr_scan", "ios": "https://dc.lft.to/lastmile_qr_scan"}, "name": "73572a748d1e179e09e699324ed249d1", "type": "electric_scooter"}, {"fusion_lat": 0.0, "bike_id": "a075f4582058bff3c1b548dcee250850", "fusion_lon": 0.0, "lon": -77.05190316666666, "lat": 38.90311766666667, "is_reserved": 0, "is_disabled": 0, "rental_uris": {"android": "https://dc.lft.to/lastmile_qr_scan", "ios": "https://dc.lft.to/lastmile_qr_scan"}, "name": "a075f4582058bff3c1b548dcee250850", "type": "electric_scooter"}, {"fusion_lat": 0.0, "bike_id": "0ed483f274ed9d34262fd412e3e194d0", "fusion_lon": 0.0, "lon": -76.95469033333333, "lat": 38.886526833333335, "is_reserved": 0, "is_disabled": 0, "rental_uris": {"android": "https://dc.lft.to/lastmile_qr_scan", "ios": "https://dc.lft.to/lastmile_qr_scan"}, "name": "0ed483f274ed9d34262fd412e3e194d0", "type": "electric_scooter"}, {"fusion_lat": 0.0, "bike_id": "fe21860f7b5f9550ba293d35c90f08a7", "fusion_lon": 0.0, "lon": -77.03679183333334, "lat": 38.9264125, "is_reserved": 0, "is_disabled": 0, "rental_uris": {"android": "https://dc.lft.to/lastmile_qr_scan", "ios": "https://dc.lft.to/lastmile_qr_scan"}, "name": "fe21860f7b5f9550ba293d35c90f08a7", "type": "electric_scooter"}, {"fusion_lat": 0.0, "bike_id": "ad659d516b653a913b21c9953015bfa0", "fusion_lon": 0.0, "lon": -77.04169783333333, "lat": 38.905218833333336, "is_reserved": 0, "is_disabled": 0, "rental_uris": {"android": "https://dc.lft.to/lastmile_qr_scan", "ios": "https://dc.lft.to/lastmile_qr_scan"}, "name": "ad659d516b653a913b21c9953015bfa0", "type": "electric_scooter"}, {"fusion_lat": 0.0, "bike_id": "19b733bf61219023631334ecfa79d06b", "fusion_lon": 0.0, "lon": -77.06880633333333, "lat": 38.903939666666666, "is_reserved": 0, "is_disabled": 0, "rental_uris": {"android": "https://dc.lft.to/lastmile_qr_scan", "ios": "https://dc.lft.to/lastmile_qr_scan"}, "name": "19b733bf61219023631334ecfa79d06b", "type": "electric_bike"}, {"fusion_lat": 0.0, "bike_id": "ee0e0f33fd8faa8590640268f9b51e9a", "fusion_lon": 0.0, "lon": -77.04051816666667, "lat": 38.909652666666666, "is_reserved": 0, "is_disabled": 0, "rental_uris": {"android": "https://dc.lft.to/lastmile_qr_scan", "ios": "https://dc.lft.to/lastmile_qr_scan"}, "name": "ee0e0f33fd8faa8590640268f9b51e9a", "type": "electric_scooter"}, {"fusion_lat": 0.0, "bike_id": "8514b440b2478136389379889863550e", "fusion_lon": 0.0, "lon": -77.030541, "lat": 38.884229166666664, "is_reserved": 0, "is_disabled": 0, "rental_uris": {"android": "https://dc.lft.to/lastmile_qr_scan", "ios": "https://dc.lft.to/lastmile_qr_scan"}, "name": "8514b440b2478136389379889863550e", "type": "electric_scooter"}, {"fusion_lat": 0.0, "bike_id": "f288bc966f0ca5dc2c7907514607586b", "fusion_lon": 0.0, "lon": -77.040212, "lat": 38.90383833333333, "is_reserved": 0, "is_disabled": 0, "rental_uris": {"android": "https://dc.lft.to/lastmile_qr_scan", "ios": "https://dc.lft.to/lastmile_qr_scan"}, "name": "f288bc966f0ca5dc2c7907514607586b", "type": "electric_scooter"}, {"fusion_lat": 0.0, "bike_id": "f4ce9c6acbe22c0039579a9a4ba74a17", "fusion_lon": 0.0, "lon": -77.03348516666667, "lat": 38.9244485, "is_reserved": 0, "is_disabled": 0, "rental_uris": {"android": "https://dc.lft.to/lastmile_qr_scan", "ios": "https://dc.lft.to/lastmile_qr_scan"}, "name": "f4ce9c6acbe22c0039579a9a4ba74a17", "type": "electric_scooter"}, {"fusion_lat": 0.0, "bike_id": "f3e5ef445e2f2ba8850f90b9d6f5eefa", "fusion_lon": 0.0, "lon": -77.0440715, "lat": 38.90901016666667, "is_reserved": 0, "is_disabled": 0, "rental_uris": {"android": "https://dc.lft.to/lastmile_qr_scan", "ios": "https://dc.lft.to/lastmile_qr_scan"}, "name": "f3e5ef445e2f2ba8850f90b9d6f5eefa", "type": "electric_scooter"}, {"fusion_lat": 0.0, "bike_id": "6fb8f75990a7e0b8367dacd63fb832bf", "fusion_lon": 0.0, "lon": -76.95750166666667, "lat": 38.88427866666667, "is_reserved": 0, "is_disabled": 0, "rental_uris": {"android": "https://dc.lft.to/lastmile_qr_scan", "ios": "https://dc.lft.to/lastmile_qr_scan"}, "name": "6fb8f75990a7e0b8367dacd63fb832bf", "type": "electric_scooter"}, {"fusion_lat": 0.0, "bike_id": "51d34f902c7534b93ad2c0b42941a559", "fusion_lon": 0.0, "lon": -76.9307035, "lat": 38.889914166666664, "is_reserved": 0, "is_disabled": 0, "rental_uris": {"android": "https://dc.lft.to/lastmile_qr_scan", "ios": "https://dc.lft.to/lastmile_qr_scan"}, "name": "51d34f902c7534b93ad2c0b42941a559", "type": "electric_scooter"}, {"fusion_lat": 0.0, "bike_id": "112e30922d8526fb5d17c5a54385c03f", "fusion_lon": 0.0, "lon": -77.02962216666667, "lat": 38.924667666666664, "is_reserved": 0, "is_disabled": 0, "rental_uris": {"android": "https://dc.lft.to/lastmile_qr_scan", "ios": "https://dc.lft.to/lastmile_qr_scan"}, "name": "112e30922d8526fb5d17c5a54385c03f", "type": "electric_scooter"}, {"fusion_lat": 0.0, "bike_id": "563973c39d9193803a6fd4eed2dd3c97", "fusion_lon": 0.0, "lon": -77.03198333333333, "lat": 38.912541833333336, "is_reserved": 0, "is_disabled": 0, "rental_uris": {"android": "https://dc.lft.to/lastmile_qr_scan", "ios": "https://dc.lft.to/lastmile_qr_scan"}, "name": "563973c39d9193803a6fd4eed2dd3c97", "type": "electric_scooter"}, {"fusion_lat": 0.0, "bike_id": "411fe831a42dca1a3bd88afab465fb79", "fusion_lon": 0.0, "lon": -76.98934616666666, "lat": 38.9018405, "is_reserved": 0, "is_disabled": 0, "rental_uris": {"android": "https://dc.lft.to/lastmile_qr_scan", "ios": "https://dc.lft.to/lastmile_qr_scan"}, "name": "411fe831a42dca1a3bd88afab465fb79", "type": "electric_scooter"}, {"fusion_lat": 0.0, "bike_id": "7cb436f62b98525a854b2835c3f8900d", "fusion_lon": 0.0, "lon": -76.99367933333333, "lat": 38.8614755, "is_reserved": 0, "is_disabled": 0, "rental_uris": {"android": "https://dc.lft.to/lastmile_qr_scan", "ios": "https://dc.lft.to/lastmile_qr_scan"}, "name": "7cb436f62b98525a854b2835c3f8900d", "type": "electric_scooter"}, {"fusion_lat": 0.0, "bike_id": "4bad30b508bfe9f90b0ee1eb6368fd9a", "fusion_lon": 0.0, "lon": -77.05784066666666, "lat": 38.905081333333335, "is_reserved": 0, "is_disabled": 0, "rental_uris": {"android": "https://dc.lft.to/lastmile_qr_scan", "ios": "https://dc.lft.to/lastmile_qr_scan"}, "name": "4bad30b508bfe9f90b0ee1eb6368fd9a", "type": "electric_scooter"}, {"fusion_lat": 0.0, "bike_id": "9dd7caabb130fe91a6007a68dc7ef9e0", "fusion_lon": 0.0, "lon": -77.03174883333334, "lat": 38.930394666666665, "is_reserved": 0, "is_disabled": 0, "rental_uris": {"android": "https://dc.lft.to/lastmile_qr_scan", "ios": "https://dc.lft.to/lastmile_qr_scan"}, "name": "9dd7caabb130fe91a6007a68dc7ef9e0", "type": "electric_scooter"}, {"fusion_lat": 0.0, "bike_id": "e33e27862ecd300b80ab31679e0417c0", "fusion_lon": 0.0, "lon": -77.00121316666667, "lat": 38.87441716666667, "is_reserved": 0, "is_disabled": 0, "rental_uris": {"android": "https://dc.lft.to/lastmile_qr_scan", "ios": "https://dc.lft.to/lastmile_qr_scan"}, "name": "e33e27862ecd300b80ab31679e0417c0", "type": "electric_scooter"}, {"fusion_lat": 0.0, "bike_id": "7004c3d0043044f0fa7cd5e6406a2892", "fusion_lon": 0.0, "lon": -77.00200433333333, "lat": 38.902426, "is_reserved": 0, "is_disabled": 0, "rental_uris": {"android": "https://dc.lft.to/lastmile_qr_scan", "ios": "https://dc.lft.to/lastmile_qr_scan"}, "name": "7004c3d0043044f0fa7cd5e6406a2892", "type": "electric_scooter"}, {"fusion_lat": 0.0, "bike_id": "3cc6fbb4e5b7010672f85651ae832f76", "fusion_lon": 0.0, "lon": -77.056839, "lat": 38.8648545, "is_reserved": 0, "is_disabled": 0, "rental_uris": {"android": "https://dc.lft.to/lastmile_qr_scan", "ios": "https://dc.lft.to/lastmile_qr_scan"}, "name": "3cc6fbb4e5b7010672f85651ae832f76", "type": "electric_bike"}, {"fusion_lat": 0.0, "bike_id": "7705bb734d85ada361d1f3033e5b671d", "fusion_lon": 0.0, "lon": -77.050403, "lat": 38.923647333333335, "is_reserved": 0, "is_disabled": 0, "rental_uris": {"android": "https://dc.lft.to/lastmile_qr_scan", "ios": "https://dc.lft.to/lastmile_qr_scan"}, "name": "7705bb734d85ada361d1f3033e5b671d", "type": "electric_scooter"}, {"fusion_lat": 0.0, "bike_id": "11a0ad02a3e60d400e007e1c46fa9734", "fusion_lon": 0.0, "lon": -77.0300245, "lat": 38.89600766666667, "is_reserved": 0, "is_disabled": 0, "rental_uris": {"android": "https://dc.lft.to/lastmile_qr_scan", "ios": "https://dc.lft.to/lastmile_qr_scan"}, "name": "11a0ad02a3e60d400e007e1c46fa9734", "type": "electric_scooter"}, {"fusion_lat": 0.0, "bike_id": "3fec2be9b1505b74f6e7356b3ec5df90", "fusion_lon": 0.0, "lon": -77.023804, "lat": 38.89239666666667, "is_reserved": 0, "is_disabled": 0, "rental_uris": {"android": "https://dc.lft.to/lastmile_qr_scan", "ios": "https://dc.lft.to/lastmile_qr_scan"}, "name": "3fec2be9b1505b74f6e7356b3ec5df90", "type": "electric_scooter"}, {"fusion_lat": 0.0, "bike_id": "a8fb7016f00a6e6373c088a3b33eda0c", "fusion_lon": 0.0, "lon": -77.00037583333334, "lat": 38.967786333333336, "is_reserved": 0, "is_disabled": 0, "rental_uris": {"android": "https://dc.lft.to/lastmile_qr_scan", "ios": "https://dc.lft.to/lastmile_qr_scan"}, "name": "a8fb7016f00a6e6373c088a3b33eda0c", "type": "electric_bike"}, {"fusion_lat": 0.0, "bike_id": "3f7a9247a69bd25458172daa6fc3c0b0", "fusion_lon": 0.0, "lon": -77.03670616666666, "lat": 38.922725, "is_reserved": 0, "is_disabled": 0, "rental_uris": {"android": "https://dc.lft.to/lastmile_qr_scan", "ios": "https://dc.lft.to/lastmile_qr_scan"}, "name": "3f7a9247a69bd25458172daa6fc3c0b0", "type": "electric_scooter"}, {"fusion_lat": 0.0, "bike_id": "47be305c99d123a6846f08977531c9ba", "fusion_lon": 0.0, "lon": -77.03877466666667, "lat": 38.929657666666664, "is_reserved": 0, "is_disabled": 0, "rental_uris": {"android": "https://dc.lft.to/lastmile_qr_scan", "ios": "https://dc.lft.to/lastmile_qr_scan"}, "name": "47be305c99d123a6846f08977531c9ba", "type": "electric_scooter"}, {"fusion_lat": 0.0, "bike_id": "d878500cf052f9f5a62cb148e57794d3", "fusion_lon": 0.0, "lon": -77.03655216666667, "lat": 38.921606833333335, "is_reserved": 0, "is_disabled": 0, "rental_uris": {"android": "https://dc.lft.to/lastmile_qr_scan", "ios": "https://dc.lft.to/lastmile_qr_scan"}, "name": "d878500cf052f9f5a62cb148e57794d3", "type": "electric_scooter"}, {"fusion_lat": 0.0, "bike_id": "e21c1625820be78dc1422f2a8313591e", "fusion_lon": 0.0, "lon": -77.03203733333334, "lat": 38.9174015, "is_reserved": 0, "is_disabled": 0, "rental_uris": {"android": "https://dc.lft.to/lastmile_qr_scan", "ios": "https://dc.lft.to/lastmile_qr_scan"}, "name": "e21c1625820be78dc1422f2a8313591e", "type": "electric_scooter"}, {"fusion_lat": 0.0, "bike_id": "8d1a882dabdf212cad293e4ba649793e", "fusion_lon": 0.0, "lon": -77.02649, "lat": 38.92780966666667, "is_reserved": 0, "is_disabled": 0, "rental_uris": {"android": "https://dc.lft.to/lastmile_qr_scan", "ios": "https://dc.lft.to/lastmile_qr_scan"}, "name": "8d1a882dabdf212cad293e4ba649793e", "type": "electric_scooter"}, {"fusion_lat": 0.0, "bike_id": "8feab44349a486919c480118969617d2", "fusion_lon": 0.0, "lon": -77.02792083333334, "lat": 38.911382333333336, "is_reserved": 0, "is_disabled": 0, "rental_uris": {"android": "https://dc.lft.to/lastmile_qr_scan", "ios": "https://dc.lft.to/lastmile_qr_scan"}, "name": "8feab44349a486919c480118969617d2", "type": "electric_scooter"}, {"fusion_lat": 0.0, "bike_id": "1c4d97ddca363d67638f5679e692f669", "fusion_lon": 0.0, "lon": -77.0416865, "lat": 38.916033, "is_reserved": 0, "is_disabled": 0, "rental_uris": {"android": "https://dc.lft.to/lastmile_qr_scan", "ios": "https://dc.lft.to/lastmile_qr_scan"}, "name": "1c4d97ddca363d67638f5679e692f669", "type": "electric_scooter"}, {"fusion_lat": 0.0, "bike_id": "b83a0d00291394073cd921fd26e946f6", "fusion_lon": 0.0, "lon": -77.02715883333333, "lat": 38.9113715, "is_reserved": 0, "is_disabled": 0, "rental_uris": {"android": "https://dc.lft.to/lastmile_qr_scan", "ios": "https://dc.lft.to/lastmile_qr_scan"}, "name": "b83a0d00291394073cd921fd26e946f6", "type": "electric_scooter"}, {"fusion_lat": 0.0, "bike_id": "f6d60d0062a28277fb122a6fd9cc6c7c", "fusion_lon": 0.0, "lon": -77.03266333333333, "lat": 38.936484666666665, "is_reserved": 0, "is_disabled": 0, "rental_uris": {"android": "https://dc.lft.to/lastmile_qr_scan", "ios": "https://dc.lft.to/lastmile_qr_scan"}, "name": "f6d60d0062a28277fb122a6fd9cc6c7c", "type": "electric_scooter"}, {"fusion_lat": 0.0, "bike_id": "aec67e85d90496e9121a9b4db10765d1", "fusion_lon": 0.0, "lon": -77.0129745, "lat": 38.93025216666667, "is_reserved": 0, "is_disabled": 0, "rental_uris": {"android": "https://dc.lft.to/lastmile_qr_scan", "ios": "https://dc.lft.to/lastmile_qr_scan"}, "name": "aec67e85d90496e9121a9b4db10765d1", "type": "electric_scooter"}, {"fusion_lat": 0.0, "bike_id": "63443c78d8080938e789d2f485d2921f", "fusion_lon": 0.0, "lon": -77.04148566666667, "lat": 38.9180985, "is_reserved": 0, "is_disabled": 0, "rental_uris": {"android": "https://dc.lft.to/lastmile_qr_scan", "ios": "https://dc.lft.to/lastmile_qr_scan"}, "name": "63443c78d8080938e789d2f485d2921f", "type": "electric_scooter"}, {"fusion_lat": 0.0, "bike_id": "c375bf384c8561091009731f34087896", "fusion_lon": 0.0, "lon": -77.03768483333333, "lat": 38.90677016666667, "is_reserved": 0, "is_disabled": 0, "rental_uris": {"android": "https://dc.lft.to/lastmile_qr_scan", "ios": "https://dc.lft.to/lastmile_qr_scan"}, "name": "c375bf384c8561091009731f34087896", "type": "electric_scooter"}, {"fusion_lat": 0.0, "bike_id": "166dd8825ab376001ebb3f4b5fa4d686", "fusion_lon": 0.0, "lon": -77.00241133333333, "lat": 38.9522445, "is_reserved": 0, "is_disabled": 0, "rental_uris": {"android": "https://dc.lft.to/lastmile_qr_scan", "ios": "https://dc.lft.to/lastmile_qr_scan"}, "name": "166dd8825ab376001ebb3f4b5fa4d686", "type": "electric_scooter"}, {"fusion_lat": 0.0, "bike_id": "2ab64a9bfcedb2183bd6d126099f8e21", "fusion_lon": 0.0, "lon": -77.06100633333334, "lat": 38.93708216666667, "is_reserved": 0, "is_disabled": 0, "rental_uris": {"android": "https://dc.lft.to/lastmile_qr_scan", "ios": "https://dc.lft.to/lastmile_qr_scan"}, "name": "2ab64a9bfcedb2183bd6d126099f8e21", "type": "electric_scooter"}, {"fusion_lat": 0.0, "bike_id": "0747272d40621516ae996850f40c12fa", "fusion_lon": 0.0, "lon": -77.03374783333334, "lat": 38.921425, "is_reserved": 0, "is_disabled": 0, "rental_uris": {"android": "https://dc.lft.to/lastmile_qr_scan", "ios": "https://dc.lft.to/lastmile_qr_scan"}, "name": "0747272d40621516ae996850f40c12fa", "type": "electric_scooter"}, {"fusion_lat": 0.0, "bike_id": "b1903580d331a1bd0a940afc15194607", "fusion_lon": 0.0, "lon": -77.03645983333334, "lat": 38.9047775, "is_reserved": 0, "is_disabled": 0, "rental_uris": {"android": "https://dc.lft.to/lastmile_qr_scan", "ios": "https://dc.lft.to/lastmile_qr_scan"}, "name": "b1903580d331a1bd0a940afc15194607", "type": "electric_scooter"},