{"data": {"bikes": [{"lon": -76.99680766666667, "bike_id": "7bfb5fc80e79ded1c071721041cd6d4b", "lat": 38.8868615, "fusion_lon": 0.0, "fusion_lat": 0.0, "type": "electric_scooter", "name": "7bfb5fc80e79ded1c071721041cd6d4b", "is_disabled": 0, "rental_uris": {"ios": "https://dc.lft.to/lastmile_qr_scan", "android": "https://dc.lft.to/lastmile_qr_scan"}, "is_reserved": 0}, {"lon": -77.02619633333333, "bike_id": "5b5839fa42bae1b77e367ebdda9038eb", "lat": 38.929765, "fusion_lon": 0.0, "fusion_lat": 0.0, "type": "electric_scooter", "name": "5b5839fa42bae1b77e367ebdda9038eb", "is_disabled": 0, "rental_uris": {"ios": "https://dc.lft.to/lastmile_qr_scan", "android": "https://dc.lft.to/lastmile_qr_scan"}, "is_reserved": 0}, {"lon": -77.0278735, "bike_id": "6055418178cf950ce2d68a0f035b99ac", "lat": 38.9614625, "fusion_lon": 0.0, "fusion_lat": 0.0, "type": "electric_scooter", "name": "6055418178cf950ce2d68a0f035b99ac", "is_disabled": 0, "rental_uris": {"ios": "https://dc.lft.to/lastmile_qr_scan", "android": "https://dc.lft.to/lastmile_qr_scan"}, "is_reserved": 0}, {"lon": -77.02476233333333, "bike_id": "8f2c4938fe333a5f84e4666f4b8456ff", "lat": 38.91995766666667, "fusion_lon": 0.0, "fusion_lat": 0.0, "type": "electric_scooter", "name": "8f2c4938fe333a5f84e4666f4b8456ff", "is_disabled": 0, "rental_uris": {"ios": "https://dc.lft.to/lastmile_qr_scan", "android": "https://dc.lft.to/lastmile_qr_scan"}, "is_reserved": 0}, {"lon": -77.03658933333334, "bike_id": "f9cfe2d46bebea6be60120ce395a8270", "lat": 38.935689833333335, "fusion_lon": 0.0, "fusion_lat": 0.0, "type": "electric_bike", "name": "f9cfe2d46bebea6be60120ce395a8270", "is_disabled": 0, "rental_uris": {"ios": "https://dc.lft.to/lastmile_qr_scan", "android": "https://dc.lft.to/lastmile_qr_scan"}, "is_reserved": 0}, {"lon": -77.04597316666667, "bike_id": "89468f98da7a09699f518096a201d76a", "lat": 38.92181466666667, "fusion_lon": 0.0, "fusion_lat": 0.0, "type": "electric_scooter", "name": "89468f98da7a09699f518096a201d76a", "is_disabled": 0, "rental_uris": {"ios": "https://dc.lft.to/lastmile_qr_scan", "android": "https://dc.lft.to/lastmile_qr_scan"}, "is_reserved": 0}, {"lon": -77.02183166666667, "bike_id": "787dee75a2356ccb021c4e429e7bbfbb", "lat": 38.91131133333333, "fusion_lon": 0.0, "fusion_lat": 0.0, "type": "electric_scooter", "name": "787dee75a2356ccb021c4e429e7bbfbb", "is_disabled": 0, "rental_uris": {"ios": "https://dc.lft.to/lastmile_qr_scan", "android": "https://dc.lft.to/lastmile_qr_scan"}, "is_reserved": 0}, {"lon": -77.02368016666667, "bike_id": "1bbda9cb83389a84cc0f40d7600c6bb5", "lat": 38.90307033333333, "fusion_lon": 0.0, "fusion_lat": 0.0, "type": "electric_scooter", "name": "1bbda9cb83389a84cc0f40d7600c6bb5", "is_disabled": 0, "rental_uris": {"ios": "https://dc.lft.to/lastmile_qr_scan", "android": "https://dc.lft.to/lastmile_qr_scan"}, "is_reserved": 0}, {"lon": -76.965286, "bike_id": "82856b33f39d7952e1a5d8ef6bb5acc6", "lat": 38.87627916666667, "fusion_lon": 0.0, "fusion_lat": 0.0, "type": "electric_scooter", "name": "82856b33f39d7952e1a5d8ef6bb5acc6", "is_disabled": 0, "rental_uris": {"ios": "https://dc.lft.to/lastmile_qr_scan", "android": "https://dc.lft.to/lastmile_qr_scan"}, "is_reserved": 0}, {"lon": -77.0547735, "bike_id": "1da8b7140db8454208fd28b37d78b790", "lat": 38.8978605, "fusion_lon": 0.0, "fusion_lat": 0.0, "type": "electric_scooter", "name": "1da8b7140db8454208fd28b37d78b790", "is_disabled": 0, "rental_uris": {"ios": "https://dc.lft.to/lastmile_qr_scan", "android": "https://dc.lft.to/lastmile_qr_scan"}, "is_reserved": 0}, {"lon": -77.05179, "bike_id": "240aa2792a3b32d607f02a05efe61f50", "lat": 38.924313166666664, "fusion_lon": 0.0, "fusion_lat": 0.0, "type": "electric_scooter", "name": "240aa2792a3b32d607f02a05efe61f50", "is_disabled": 0, "rental_uris": {"ios": "https://dc.lft.to/lastmile_qr_scan", "android": "https://dc.lft.to/lastmile_qr_scan"}, "is_reserved": 0}, {"lon": -77.05261416666667, "bike_id": "5c607741dbd0803c5cf13ddab82f6e74", "lat": 38.8997505, "fusion_lon": 0.0, "fusion_lat": 0.0, "type": "electric_scooter", "name": "5c607741dbd0803c5cf13ddab82f6e74", "is_disabled": 0, "rental_uris": {"ios": "https://dc.lft.to/lastmile_qr_scan", "android": "https://dc.lft.to/lastmile_qr_scan"}, "is_reserved": 0}, {"lon": -77.0448405, "bike_id": "454aaad8af4521022d655bae9f14b557", "lat": 38.914023, "fusion_lon": 0.0, "fusion_lat": 0.0, "type": "electric_scooter", "name": "454aaad8af4521022d655bae9f14b557", "is_disabled": 0, "rental_uris": {"ios": "https://dc.lft.to/lastmile_qr_scan", "android": "https://dc.lft.to/lastmile_qr_scan"}, "is_reserved": 0}, {"lon": -76.93738733333333, "bike_id": "dbfab22c4d0f16a1d5caa9c40361c59b", "lat": 38.890165, "fusion_lon": 0.0, "fusion_lat": 0.0, "type": "electric_scooter", "name": "dbfab22c4d0f16a1d5caa9c40361c59b", "is_disabled": 0, "rental_uris": {"ios": "https://dc.lft.to/lastmile_qr_scan", "android": "https://dc.lft.to/lastmile_qr_scan"}, "is_reserved": 0}, {"lon": -77.0368895, "bike_id": "716f4cd78cce756d601466d6b340fd5c", "lat": 38.908745833333334, "fusion_lon": 0.0, "fusion_lat": 0.0, "type": "electric_scooter", "name": "716f4cd78cce756d601466d6b340fd5c", "is_disabled": 0, "rental_uris": {"ios": "https://dc.lft.to/lastmile_qr_scan", "android": "https://dc.lft.to/lastmile_qr_scan"}, "is_reserved": 0}, {"lon": -77.00675983333333, "bike_id": "932d41409929693f9f8ec314b25bdf49", "lat": 38.900296166666664, "fusion_lon": 0.0, "fusion_lat": 0.0, "type": "electric_scooter", "name": "932d41409929693f9f8ec314b25bdf49", "is_disabled": 0, "rental_uris": {"ios": "https://dc.lft.to/lastmile_qr_scan", "android": "https://dc.lft.to/lastmile_qr_scan"}, "is_reserved": 0}, {"lon": -77.03267566666666, "bike_id": "0e2434e5e16eadd2e0b8947f80445886", "lat": 38.9369295, "fusion_lon": 0.0, "fusion_lat": 0.0, "type": "electric_scooter", "name": "0e2434e5e16eadd2e0b8947f80445886", "is_disabled": 0, "rental_uris": {"ios": "https://dc.lft.to/lastmile_qr_scan", "android": "https://dc.lft.to/lastmile_qr_scan"}, "is_reserved": 0}, {"lon": -76.93755633333333, "bike_id": "2cdd02a22ee0067b06ea1c58312fdd56", "lat": 38.8904935, "fusion_lon": 0.0, "fusion_lat": 0.0, "type": "electric_scooter", "name": "2cdd02a22ee0067b06ea1c58312fdd56", "is_disabled": 0, "rental_uris": {"ios": "https://dc.lft.to/lastmile_qr_scan", "android": "https://dc.lft.to/lastmile_qr_scan"}, "is_reserved": 0}, {"lon": -77.0523585, "bike_id": "761b558a4ca7d0ca4dace4e118d22b4d", "lat": 38.9245955, "fusion_lon": 0.0, "fusion_lat": 0.0, "type": "electric_scooter", "name": "761b558a4ca7d0ca4dace4e118d22b4d", "is_disabled": 0, "rental_uris": {"ios": "https://dc.lft.to/lastmile_qr_scan", "android": "https://dc.lft.to/lastmile_qr_scan"}, "is_reserved": 0}, {"lon": -76.99553766666666, "bike_id": "4577991ba28724da6ef8227815e22b56", "lat": 38.862531833333335, "fusion_lon": 0.0, "fusion_lat": 0.0, "type": "electric_scooter", "name": "4577991ba28724da6ef8227815e22b56", "is_disabled": 0, "rental_uris": {"ios": "https://dc.lft.to/lastmile_qr_scan", "android": "https://dc.lft.to/lastmile_qr_scan"}, "is_reserved": 0}, {"lon": -77.03674183333334, "bike_id": "a900fdafa14af18c3b6c4baae061f8fb", "lat": 38.921180666666665, "fusion_lon": 0.0, "fusion_lat": 0.0, "type": "electric_scooter", "name": "a900fdafa14af18c3b6c4baae061f8fb", "is_disabled": 0, "rental_uris": {"ios": "https://dc.lft.to/lastmile_qr_scan", "android": "https://dc.lft.to/lastmile_qr_scan"}, "is_reserved": 0}, {"lon": -77.05810733333334, "bike_id": "1e48e8aa8e57f47af6dfc6f200dacc48", "lat": 38.93451183333333, "fusion_lon": 0.0, "fusion_lat": 0.0, "type": "electric_scooter", "name": "1e48e8aa8e57f47af6dfc6f200dacc48", "is_disabled": 0, "rental_uris": {"ios": "https://dc.lft.to/lastmile_qr_scan", "android": "https://dc.lft.to/lastmile_qr_scan"}, "is_reserved": 0}, {"lon": -77.0164175, "bike_id": "c6a111aaf7cbfdd63e4457a62806681e", "lat": 38.928886, "fusion_lon": 0.0, "fusion_lat": 0.0, "type": "electric_scooter", "name": "c6a111aaf7cbfdd63e4457a62806681e", "is_disabled": 0, "rental_uris": {"ios": "https://dc.lft.to/lastmile_qr_scan", "android": "https://dc.lft.to/lastmile_qr_scan"}, "is_reserved": 0}, {"lon": -77.04891466666666, "bike_id": "e7f615456646d0c7b967be87dce8d745", "lat": 38.90339133333333, "fusion_lon": 0.0, "fusion_lat": 0.0, "type": "electric_scooter", "name": "e7f615456646d0c7b967be87dce8d745", "is_disabled": 0, "rental_uris": {"ios": "https://dc.lft.to/lastmile_qr_scan", "android": "https://dc.lft.to/lastmile_qr_scan"}, "is_reserved": 0}, {"lon": -77.03675916666667, "bike_id": "827923e729c8a0d4d7671bac450d66c4", "lat": 38.90960366666667, "fusion_lon": 0.0, "fusion_lat": 0.0, "type": "electric_scooter", "name": "827923e729c8a0d4d7671bac450d66c4", "is_disabled": 0, "rental_uris": {"ios": "https://dc.lft.to/lastmile_qr_scan", "android": "https://dc.lft.to/lastmile_qr_scan"}, "is_reserved": 0}, {"lon": -77.02559166666667, "bike_id": "d9d4f808b9cf89473aaf477d8659465d", "lat": 38.941371, "fusion_lon": 0.0, "fusion_lat": 0.0, "type": "electric_scooter", "name": "d9d4f808b9cf89473aaf477d8659465d", "is_disabled": 0, "rental_uris": {"ios": "https://dc.lft.to/lastmile_qr_scan", "android": "https://dc.lft.to/lastmile_qr_scan"}, "is_reserved": 0}, {"lon": -77.0323335, "bike_id": "5e2e2ee5b5d4095bb4f58292107f495f", "lat": 38.921635333333334, "fusion_lon": 0.0, "fusion_lat": 0.0, "type": "electric_scooter", "name": "5e2e2ee5b5d4095bb4f58292107f495f", "is_disabled": 0, "rental_uris": {"ios": "https://dc.lft.to/lastmile_qr_scan", "android": "https://dc.lft.to/lastmile_qr_scan"}, "is_reserved": 0}, {"lon": -77.0414705, "bike_id": "544c22646d896dfda5530f95dafaa458", "lat": 38.92994483333333, "fusion_lon": 0.0, "fusion_lat": 0.0, "type": "electric_scooter", "name": "544c22646d896dfda5530f95dafaa458", "is_disabled": 0, "rental_uris": {"ios": "https://dc.lft.to/lastmile_qr_scan", "android": "https://dc.lft.to/lastmile_qr_scan"}, "is_reserved": 0}, {"lon": -77.03495516666666, "bike_id": "ef0d82bdd2300ceee848af0ea43cbe94", "lat": 38.93267733333333, "fusion_lon": 0.0, "fusion_lat": 0.0, "type": "electric_scooter", "name": "ef0d82bdd2300ceee848af0ea43cbe94", "is_disabled": 0, "rental_uris": {"ios": "https://dc.lft.to/lastmile_qr_scan", "android": "https://dc.lft.to/lastmile_qr_scan"}, "is_reserved": 0}, {"lon": -77.04567083333333, "bike_id": "656c13fb9fc0f45efcbe7d1e40a4fb9c", "lat": 38.9140815, "fusion_lon": 0.0, "fusion_lat": 0.0, "type": "electric_scooter", "name": "656c13fb9fc0f45efcbe7d1e40a4fb9c", "is_disabled": 0, "rental_uris": {"ios": "https://dc.lft.to/lastmile_qr_scan", "android": "https://dc.lft.to/lastmile_qr_scan"}, "is_reserved": 0}, {"lon": -76.98667483333334, "bike_id": "94ec9e0fa107c960a3adcb86f8f09157", "lat": 38.899689333333335, "fusion_lon": 0.0, "fusion_lat": 0.0, "type": "electric_bike", "name": "94ec9e0fa107c960a3adcb86f8f09157", "is_disabled": 0, "rental_uris": {"ios": "https://dc.lft.to/lastmile_qr_scan", "android": "https://dc.lft.to/lastmile_qr_scan"}, "is_reserved": 0}, {"lon": -77.04895483333334, "bike_id": "89c073db2b148a7e40eb4bd7ba299507", "lat": 38.892387, "fusion_lon": 0.0, "fusion_lat": 0.0, "type": "electric_scooter", "name": "89c073db2b148a7e40eb4bd7ba299507", "is_disabled": 0, "rental_uris": {"ios": "https://dc.lft.to/lastmile_qr_scan", "android": "https://dc.lft.to/lastmile_qr_scan"}, "is_reserved": 0}, {"lon": -76.99871933333333, "bike_id": "29aea858aac0315ec8ec2884c6d31355", "lat": 38.90021633333333, "fusion_lon": 0.0, "fusion_lat": 0.0, "type": "electric_scooter", "name": "29aea858aac0315ec8ec2884c6d31355", "is_disabled": 0, "rental_uris": {"ios": "https://dc.lft.to/lastmile_qr_scan", "android": "https://dc.lft.to/lastmile_qr_scan"}, "is_reserved": 0}, {"lon": -77.0362665, "bike_id": "819572554f064f4d0989969c080f5c26", "lat": 38.91861183333333, "fusion_lon": 0.0, "fusion_lat": 0.0, "type": "electric_scooter", "name": "819572554f064f4d0989969c080f5c26", "is_disabled": 0, "rental_uris": {"ios": "https://dc.lft.to/lastmile_qr_scan", "android": "https://dc.lft.to/lastmile_qr_scan"}, "is_reserved": 0}, {"lon": -76.94198583333333, "bike_id": "45a828037dbef1316ae6bd0f040ff153", "lat": 38.893109, "fusion_lon": 0.0, "fusion_lat": 0.0, "type": "electric_bike", "name": "45a828037dbef1316ae6bd0f040ff153", "is_disabled": 0, "rental_uris": {"ios": "https://dc.lft.to/lastmile_qr_scan", "android": "https://dc.lft.to/lastmile_qr_scan"}, "is_reserved": 0}, {"lon": -77.01025583333333, "bike_id": "1096fe0d414a2bd1392703154ae74669", "lat": 38.9104615, "fusion_lon": 0.0, "fusion_lat": 0.0, "type": "electric_scooter", "name": "1096fe0d414a2bd1392703154ae74669", "is_disabled": 0, "rental_uris": {"ios": "https://dc.lft.to/lastmile_qr_scan", "android": "https://dc.lft.to/lastmile_qr_scan"}, "is_reserved": 0}, {"lon": -77.03758766666667, "bike_id": "6016a3d14508fdb3b64d301a91fa423b", "lat": 38.918867166666665, "fusion_lon": 0.0, "fusion_lat": 0.0, "type": "electric_scooter", "name": "6016a3d14508fdb3b64d301a91fa423b", "is_disabled": 0, "rental_uris": {"ios": "https://dc.lft.to/lastmile_qr_scan", "android": "https://dc.lft.to/lastmile_qr_scan"}, "is_reserved": 0}, {"lon": -77.11573, "bike_id": "dd11f429f2dbe2e1e1d661af1b64a57b", "lat": 38.993453833333334, "fusion_lon": 0.0, "fusion_lat": 0.0, "type": "electric_bike", "name": "dd11f429f2dbe2e1e1d661af1b64a57b", "is_disabled": 0, "rental_uris": {"ios": "https://dc.lft.to/lastmile_qr_scan", "android": "https://dc.lft.to/lastmile_qr_scan"}, "is_reserved": 0}, {"lon": -76.985246, "bike_id": "695379cf096a486f85da47d8d062ba78", "lat": 38.86688266666667, "fusion_lon": 0.0, "fusion_lat": 0.0, "type": "electric_scooter", "name": "695379cf096a486f85da47d8d062ba78", "is_disabled": 0, "rental_uris": {"ios": "https://dc.lft.to/lastmile_qr_scan", "android": "https://dc.lft.to/lastmile_qr_scan"}, "is_reserved": 0}, {"lon": -77.03121716666666, "bike_id": "e078ba2caa92ab6b5b489a65c2eccd87", "lat": 38.90447866666667, "fusion_lon": 0.0, "fusion_lat": 0.0, "type": "electric_scooter", "name": "e078ba2caa92ab6b5b489a65c2eccd87", "is_disabled": 0, "rental_uris": {"ios": "https://dc.lft.to/lastmile_qr_scan", "android": "https://dc.lft.to/lastmile_qr_scan"}, "is_reserved": 0}, {"lon": -77.05359783333333, "bike_id": "a040ce7935786466a12a69ff9e88630d", "lat": 38.90356716666667, "fusion_lon": 0.0, "fusion_lat": 0.0, "type": "electric_scooter", "name": "a040ce7935786466a12a69ff9e88630d", "is_disabled": 0, "rental_uris": {"ios": "https://dc.lft.to/lastmile_qr_scan", "android": "https://dc.lft.to/lastmile_qr_scan"}, "is_reserved": 0}, {"lon": -77.02807866666667, "bike_id": "71b5e51c09deb71a67e9a6c638257490", "lat": 38.916982, "fusion_lon": 0.0, "fusion_lat": 0.0, "type": "electric_scooter", "name": "71b5e51c09deb71a67e9a6c638257490", "is_disabled": 0, "rental_uris": {"ios": "https://dc.lft.to/lastmile_qr_scan", "android": "https://dc.lft.to/lastmile_qr_scan"}, "is_reserved": 0}, {"lon": -77.03195883333333, "bike_id": "1510b764f3f25042ecaa0f0fa3375364", "lat": 38.912353833333334, "fusion_lon": 0.0, "fusion_lat": 0.0, "type": "electric_scooter", "name": "1510b764f3f25042ecaa0f0fa3375364", "is_disabled": 0, "rental_uris": {"ios": "https://dc.lft.to/lastmile_qr_scan", "android": "https://dc.lft.to/lastmile_qr_scan"}, "is_reserved": 0}, {"lon": -77.1390115, "bike_id": "921271538d4d01c70d3afb0bfa1d3ee0", "lat": 38.896728333333336, "fusion_lon": 0.0, "fusion_lat": 0.0, "type": "electric_bike", "name": "921271538d4d01c70d3afb0bfa1d3ee0", "is_disabled": 0, "rental_uris": {"ios": "https://dc.lft.to/lastmile_qr_scan", "android": "https://dc.lft.to/lastmile_qr_scan"}, "is_reserved": 0}, {"lon": -77.02553166666667, "bike_id": "72ae19ad5929e1467c582ddc55976272", "lat": 38.922504, "fusion_lon": 0.0, "fusion_lat": 0.0, "type": "electric_scooter", "name": "72ae19ad5929e1467c582ddc55976272", "is_disabled": 0, "rental_uris": {"ios": "https://dc.lft.to/lastmile_qr_scan", "android": "https://dc.lft.to/lastmile_qr_scan"}, "is_reserved": 0}, {"lon": -77.027097, "bike_id": "46c7ba420228e0e9d5c93e551694ab11", "lat": 38.902309333333335, "fusion_lon": 0.0, "fusion_lat": 0.0, "type": "electric_scooter", "name": "46c7ba420228e0e9d5c93e551694ab11", "is_disabled": 0, "rental_uris": {"ios": "https://dc.lft.to/lastmile_qr_scan", "android": "https://dc.lft.to/lastmile_qr_scan"}, "is_reserved": 0}, {"lon": -77.014817, "bike_id": "7181c3c735f64b322de6da646b07b29b", "lat": 38.9587105, "fusion_lon": 0.0, "fusion_lat": 0.0, "type": "electric_scooter", "name": "7181c3c735f64b322de6da646b07b29b", "is_disabled": 0, "rental_uris": {"ios": "https://dc.lft.to/lastmile_qr_scan", "android": "https://dc.lft.to/lastmile_qr_scan"}, "is_reserved": 0}, {"lon": -77.0320625, "bike_id": "860218cd863325d204743ae8a6189c1a", "lat": 38.921755, "fusion_lon": 0.0, "fusion_lat": 0.0, "type": "electric_scooter", "name": "860218cd863325d204743ae8a6189c1a", "is_disabled": 0, "rental_uris": {"ios": "https://dc.lft.to/lastmile_qr_scan", "android": "https://dc.lft.to/lastmile_qr_scan"}, "is_reserved": 0}, {"lon": -76.9905485, "bike_id": "70bfdd6cad0beec9f958c67f38c436d5", "lat": 38.86378783333333, "fusion_lon": 0.0, "fusion_lat": 0.0, "type": "electric_scooter", "name": "70bfdd6cad0beec9f958c67f38c436d5", "is_disabled": 0, "rental_uris": {"ios": "https://dc.lft.to/lastmile_qr_scan", "android": "https://dc.lft.to/lastmile_qr_scan"}, "is_reserved": 0}, {"lon": -77.07864483333333, "bike_id": "b856308b0e3f03c277e62b88125f121c", "lat": 38.924711, "fusion_lon": 0.0, "fusion_lat": 0.0, "type": "electric_scooter", "name": "b856308b0e3f03c277e62b88125f121c", "is_disabled": 0, "rental_uris": {"ios": "https://dc.lft.to/lastmile_qr_scan", "android": "https://dc.lft.to/lastmile_qr_scan"}, "is_reserved": 0}, {"lon": -77.02172383333334, "bike_id": "19f2afa1ace9c7b39f21fc2dd610c829", "lat": 38.898814333333334, "fusion_lon": 0.0, "fusion_lat": 0.0, "type": "electric_bike", "name": "19f2afa1ace9c7b39f21fc2dd610c829", "is_disabled": 0, "rental_uris": {"ios": "https://dc.lft.to/lastmile_qr_scan", "android": "https://dc.lft.to/lastmile_qr_scan"}, "is_reserved": 0}, {"lon": -77.02480416666667, "bike_id": "2158c170547768d772f33ad5007988d6", "lat": 38.936188666666666, "fusion_lon": 0.0, "fusion_lat": 0.0, "type": "electric_scooter", "name": "2158c170547768d772f33ad5007988d6", "is_disabled": 0, "rental_uris": {"ios": "https://dc.lft.to/lastmile_qr_scan", "android": "https://dc.lft.to/lastmile_qr_scan"}, "is_reserved": 0}, {"lon": -77.03292916666666, "bike_id": "381dc21d96ae055a4db5fd23ee7befb9", "lat": 38.956519666666665, "fusion_lon": 0.0, "fusion_lat": 0.0, "type": "electric_scooter", "name": "381dc21d96ae055a4db5fd23ee7befb9", "is_disabled": 0, "rental_uris": {"ios": "https://dc.lft.to/lastmile_qr_scan", "android": "https://dc.lft.to/lastmile_qr_scan"}, "is_reserved": 0}, {"lon": -76.99905283333334, "bike_id": "7b6718c6a9445d97f449a4160a082095", "lat": 38.909123, "fusion_lon": 0.0, "fusion_lat": 0.0, "type": "electric_scooter", "name": "7b6718c6a9445d97f449a4160a082095", "is_disabled": 0, "rental_uris": {"ios": "https://dc.lft.to/lastmile_qr_scan", "android": "https://dc.lft.to/lastmile_qr_scan"}, "is_reserved": 0}, {"lon": -77.01964316666667, "bike_id": "828d6c812ce6bc0b2ccb9f25a652fcca", "lat": 38.929910666666665, "fusion_lon": 0.0, "fusion_lat": 0.0, "type": "electric_bike", "name": "828d6c812ce6bc0b2ccb9f25a652fcca", "is_disabled": 0, "rental_uris": {"ios": "https://dc.lft.to/lastmile_qr_scan", "android": "https://dc.lft.to/lastmile_qr_scan"}, "is_reserved": 0}, {"lon": -77.178419, "bike_id": "acc2d10ae393cdcd3b9440aa33754c1c", "lat": 39.08860883333333, "fusion_lon": 0.0, "fusion_lat": 0.0, "type": "electric_bike", "name": "acc2d10ae393cdcd3b9440aa33754c1c", "is_disabled": 0, "rental_uris": {"ios": "https://dc.lft.to/lastmile_qr_scan", "android": "https://dc.lft.to/lastmile_qr_scan"}, "is_reserved": 0}, {"lon": -77.03277266666667, "bike_id": "8153ff30840c7c4722e3b21a0024fb2a", "lat": 38.936434166666665, "fusion_lon": 0.0, "fusion_lat": 0.0, "type": "electric_scooter", "name": "8153ff30840c7c4722e3b21a0024fb2a", "is_disabled": 0, "rental_uris": {"ios": "https://dc.lft.to/lastmile_qr_scan", "android": "https://dc.lft.to/lastmile_qr_scan"}, "is_reserved": 0}, {"lon": -77.0034405, "bike_id": "b5c197771125da4272cf4f892097173b", "lat": 38.88721733333333, "fusion_lon": 0.0, "fusion_lat": 0.0, "type": "electric_scooter", "name": "b5c197771125da4272cf4f892097173b", "is_disabled": 0, "rental_uris": {"ios": "https://dc.lft.to/lastmile_qr_scan", "android": "https://dc.lft.to/lastmile_qr_scan"}, "is_reserved": 0}, {"lon": -77.0354305, "bike_id": "b1598f38e0bf24de89c3feeb5185e2b4", "lat": 38.92402233333333, "fusion_lon": 0.0, "fusion_lat": 0.0, "type": "electric_scooter", "name": "b1598f38e0bf24de89c3feeb5185e2b4", "is_disabled": 0, "rental_uris": {"ios": "https://dc.lft.to/lastmile_qr_scan", "android": "https://dc.lft.to/lastmile_qr_scan"}, "is_reserved": 0}, {"lon": -77.03182466666667, "bike_id": "37abba4362f7eab8d009c823a8128300", "lat": 38.90978066666667, "fusion_lon": 0.0, "fusion_lat": 0.0, "type": "electric_scooter", "name": "37abba4362f7eab8d009c823a8128300", "is_disabled": 0, "rental_uris": {"ios": "https://dc.lft.to/lastmile_qr_scan", "android": "https://dc.lft.to/lastmile_qr_scan"}, "is_reserved": 0}, {"lon": -77.03215516666667, "bike_id": "35d0b238720581c7dfccb29e21e7cdde", "lat": 38.922756166666666, "fusion_lon": 0.0, "fusion_lat": 0.0, "type": "electric_scooter", "name": "35d0b238720581c7dfccb29e21e7cdde", "is_disabled": 0, "rental_uris": {"ios": "https://dc.lft.to/lastmile_qr_scan", "android": "https://dc.lft.to/lastmile_qr_scan"}, "is_reserved": 0}, {"lon": -77.07696583333333, "bike_id": "9aa0b79e630d9856fc41617cfa816a95", "lat": 38.888643333333334, "fusion_lon": 0.0, "fusion_lat": 0.0, "type": "electric_bike", "name": "9aa0b79e630d9856fc41617cfa816a95", "is_disabled": 0, "rental_uris": {"ios": "https://dc.lft.to/lastmile_qr_scan", "android": "https://dc.lft.to/lastmile_qr_scan"}, "is_reserved": 0}, {"lon": -77.04362483333334, "bike_id": "5cd3c7014e2880795cdb70c8a25d3b1f", "lat": 38.906248, "fusion_lon": 0.0, "fusion_lat": 0.0, "type": "electric_scooter", "name": "5cd3c7014e2880795cdb70c8a25d3b1f", "is_disabled": 0, "rental_uris": {"ios": "https://dc.lft.to/lastmile_qr_scan", "android": "https://dc.lft.to/lastmile_qr_scan"}, "is_reserved": 0}, {"lon": -77.05626033333333, "bike_id": "75b91c30f08c09ad428ca59017b12c95", "lat": 38.96072733333333, "fusion_lon": 0.0, "fusion_lat": 0.0, "type": "electric_scooter", "name": "75b91c30f08c09ad428ca59017b12c95", "is_disabled": 0, "rental_uris": {"ios": "https://dc.lft.to/lastmile_qr_scan", "android": "https://dc.lft.to/lastmile_qr_scan"}, "is_reserved": 0}, {"lon": -77.131053, "bike_id": "92eaa2b86200d6e5678fe7b45096b658", "lat": 39.02435416666667, "fusion_lon": 0.0, "fusion_lat": 0.0, "type": "electric_bike", "name": "92eaa2b86200d6e5678fe7b45096b658", "is_disabled": 0, "rental_uris": {"ios": "https://dc.lft.to/lastmile_qr_scan", "android": "https://dc.lft.to/lastmile_qr_scan"}, "is_reserved": 0}, {"lon": -77.031977, "bike_id": "794e97b0481b47ce4ef8f928d59e2792", "lat": 38.91806966666667, "fusion_lon": 0.0, "fusion_lat": 0.0, "type": "electric_scooter", "name": "794e97b0481b47ce4ef8f928d59e2792", "is_disabled": 0, "rental_uris": {"ios": "https://dc.lft.to/lastmile_qr_scan", "android": "https://dc.lft.to/lastmile_qr_scan"}, "is_reserved": 0}, {"lon": -76.98833433333333, "bike_id": "69f8d78316f0280fa5b97f03d844bce1", "lat": 38.900519333333335, "fusion_lon": 0.0, "fusion_lat": 0.0, "type": "electric_scooter", "name": "69f8d78316f0280fa5b97f03d844bce1", "is_disabled": 0, "rental_uris": {"ios": "https://dc.lft.to/lastmile_qr_scan", "android": "https://dc.lft.to/lastmile_qr_scan"}, "is_reserved": 0}, {"lon": -77.034726, "bike_id": "ca0882b3b3a87c61fa4a8133746feaa7", "lat": 38.92154716666667, "fusion_lon": 0.0, "fusion_lat": 0.0, "type": "electric_scooter", "name": "ca0882b3b3a87c61fa4a8133746feaa7", "is_disabled": 0, "rental_uris": {"ios": "https://dc.lft.to/lastmile_qr_scan", "android": "https://dc.lft.to/lastmile_qr_scan"}, "is_reserved": 0}, {"lon": -77.03219316666667, "bike_id": "56447174673372ab9ce9c75563a8dde4", "lat": 38.915575833333335, "fusion_lon": 0.0, "fusion_lat": 0.0, "type": "electric_scooter", "name": "56447174673372ab9ce9c75563a8dde4", "is_disabled": 0, "rental_uris": {"ios": "https://dc.lft.to/lastmile_qr_scan", "android": "https://dc.lft.to/lastmile_qr_scan"}, "is_reserved": 0}, {"lon": -76.998464, "bike_id": "8debb366ed43836f75568434c8364cf3", "lat": 38.902116, "fusion_lon": 0.0, "fusion_lat": 0.0, "type": "electric_scooter", "name": "8debb366ed43836f75568434c8364cf3", "is_disabled": 0, "rental_uris": {"ios": "https://dc.lft.to/lastmile_qr_scan", "android": "https://dc.lft.to/lastmile_qr_scan"}, "is_reserved": 0}, {"lon": -77.0266125, "bike_id": "a15a255b5358c778a634d5442df56b09", "lat": 38.917015166666665, "fusion_lon": 0.0, "fusion_lat": 0.0, "type": "electric_scooter", "name": "a15a255b5358c778a634d5442df56b09", "is_disabled": 0, "rental_uris": {"ios": "https://dc.lft.to/lastmile_qr_scan", "android": "https://dc.lft.to/lastmile_qr_scan"}, "is_reserved": 0}, {"lon": -76.95367483333334, "bike_id": "84a9eab7be897d79692646561b614b70", "lat": 38.8920225, "fusion_lon": 0.0, "fusion_lat": 0.0, "type": "electric_scooter", "name": "84a9eab7be897d79692646561b614b70", "is_disabled": 0, "rental_uris": {"ios": "https://dc.lft.to/lastmile_qr_scan", "android": "https://dc.lft.to/lastmile_qr_scan"}, "is_reserved": 0}, {"lon": -77.038946, "bike_id": "df9a1035922ca453866b91c4ce1b8a2a", "lat": 38.91002066666667, "fusion_lon": 0.0, "fusion_lat": 0.0, "type": "electric_scooter", "name": "df9a1035922ca453866b91c4ce1b8a2a", "is_disabled": 0, "rental_uris": {"ios": "https://dc.lft.to/lastmile_qr_scan", "android": "https://dc.lft.to/lastmile_qr_scan"}, "is_reserved": 0}, {"lon": -77.038494, "bike_id": "e02e869527baaefaa163a5aee730bbfd", "lat": 38.91369133333333, "fusion_lon": 0.0, "fusion_lat": 0.0, "type": "electric_scooter", "name": "e02e869527baaefaa163a5aee730bbfd", "is_disabled": 0, "rental_uris": {"ios": "https://dc.lft.to/lastmile_qr_scan", "android": "https://dc.lft.to/lastmile_qr_scan"}, "is_reserved": 0}, {"lon": -77.01934683333333, "bike_id": "2164e5b7f0a3032e5fb51b8d00b69cd1", "lat": 38.935926, "fusion_lon": 0.0, "fusion_lat": 0.0, "type": "electric_bike", "name": "2164e5b7f0a3032e5fb51b8d00b69cd1", "is_disabled": 0, "rental_uris": {"ios": "https://dc.lft.to/lastmile_qr_scan", "android": "https://dc.lft.to/lastmile_qr_scan"}, "is_reserved": 0}, {"lon": -76.9984955, "bike_id": "e7ae7510813cb9b3833584e6d745e96a", "lat": 38.900203166666664, "fusion_lon": 0.0, "fusion_lat": 0.0, "type": "electric_scooter", "name": "e7ae7510813cb9b3833584e6d745e96a", "is_disabled": 0, "rental_uris": {"ios": "https://dc.lft.to/lastmile_qr_scan", "android": "https://dc.lft.to/lastmile_qr_scan"}, "is_reserved": 0}, {"lon": -76.981001, "bike_id": "a93d90697a30493c32cbfbb86cb51df0", "lat": 38.895514, "fusion_lon": 0.0, "fusion_lat": 0.0, "type": "electric_scooter", "name": "a93d90697a30493c32cbfbb86cb51df0", "is_disabled": 0, "rental_uris": {"ios": "https://dc.lft.to/lastmile_qr_scan", "android": "https://dc.lft.to/lastmile_qr_scan"}, "is_reserved": 0}, {"lon": -76.9615815, "bike_id": "8a8be21d887fe0593b0b2a13127730b5", "lat": 38.88356383333333, "fusion_lon": 0.0, "fusion_lat": 0.0, "type": "electric_scooter", "name": "8a8be21d887fe0593b0b2a13127730b5", "is_disabled": 0, "rental_uris": {"ios": "https://dc.lft.to/lastmile_qr_scan", "android": "https://dc.lft.to/lastmile_qr_scan"}, "is_reserved": 0}, {"lon": -77.00580966666666, "bike_id": "1d1bd82078c75cc84eb4e934e09e03df", "lat": 38.884375166666665, "fusion_lon": 0.0, "fusion_lat": 0.0, "type": "electric_scooter", "name": "1d1bd82078c75cc84eb4e934e09e03df", "is_disabled": 0, "rental_uris": {"ios": "https://dc.lft.to/lastmile_qr_scan", "android": "https://dc.lft.to/lastmile_qr_scan"}, "is_reserved": 0}, {"lon": -77.0386555, "bike_id": "c77ca48936d54d3011ccdf6dd1ddb687", "lat": 38.94502683333333, "fusion_lon": 0.0, "fusion_lat": 0.0, "type": "electric_scooter", "name": "c77ca48936d54d3011ccdf6dd1ddb687", "is_disabled": 0, "rental_uris": {"ios": "https://dc.lft.to/lastmile_qr_scan", "android": "https://dc.lft.to/lastmile_qr_scan"}, "is_reserved": 0}, {"lon": -77.0367835, "bike_id": "ff2da86c5ca7436b2e131cf86c5e05a7", "lat": 38.91915133333333, "fusion_lon": 0.0, "fusion_lat": 0.0, "type": "electric_scooter", "name": "ff2da86c5ca7436b2e131cf86c5e05a7", "is_disabled": 0, "rental_uris": {"ios": "https://dc.lft.to/lastmile_qr_scan", "android": "https://dc.lft.to/lastmile_qr_scan"}, "is_reserved": 0}, {"lon": -77.108054, "bike_id": "ddb394eeca3de984eba90d4d9cc33268", "lat": 38.81201566666667, "fusion_lon": 0.0, "fusion_lat": 0.0, "type": "electric_bike", "name": "ddb394eeca3de984eba90d4d9cc33268", "is_disabled": 0, "rental_uris": {"ios": "https://dc.lft.to/lastmile_qr_scan", "android": "https://dc.lft.to/lastmile_qr_scan"}, "is_reserved": 0}, {"lon": -77.0249895, "bike_id": "29095e40795b8641a661017636b56218", "lat": 38.919839833333334, "fusion_lon": 0.0, "fusion_lat": 0.0, "type": "electric_scooter", "name": "29095e40795b8641a661017636b56218", "is_disabled": 0, "rental_uris": {"ios": "https://dc.lft.to/lastmile_qr_scan", "android": "https://dc.lft.to/lastmile_qr_scan"}, "is_reserved": 0}, {"lon": -77.04988633333333, "bike_id": "bfad7e456f4240cb10bc8b3afd5ed1c8", "lat": 38.900787, "fusion_lon": 0.0, "fusion_lat": 0.0, "type": "electric_scooter", "name": "bfad7e456f4240cb10bc8b3afd5ed1c8", "is_disabled": 0, "rental_uris": {"ios": "https://dc.lft.to/lastmile_qr_scan", "android": "https://dc.lft.to/lastmile_qr_scan"}, "is_reserved": 0}, {"lon": -77.02706566666667, "bike_id": "464a60c03fe52b3ac0fd9bcd561470ca", "lat": 38.90088033333333, "fusion_lon": 0.0, "fusion_lat": 0.0, "type": "electric_scooter", "name": "464a60c03fe52b3ac0fd9bcd561470ca", "is_disabled": 0, "rental_uris": {"ios": "https://dc.lft.to/lastmile_qr_scan", "android": "https://dc.lft.to/lastmile_qr_scan"}, "is_reserved": 0}, {"lon": -77.01073166666667, "bike_id": "2a4ca46107b0adfa293002ca00a90949", "lat": 38.89442183333333, "fusion_lon": 0.0, "fusion_lat": 0.0, "type": "electric_scooter", "name": "2a4ca46107b0adfa293002ca00a90949", "is_disabled": 0, "rental_uris": {"ios": "https://dc.lft.to/lastmile_qr_scan", "android": "https://dc.lft.to/lastmile_qr_scan"}, "is_reserved": 0}, {"lon": -76.99873866666667, "bike_id": "49fcbcf269a66f5d1c03875d071e1a40", "lat": 38.90017516666666, "fusion_lon": 0.0, "fusion_lat": 0.0, "type": "electric_scooter", "name": "49fcbcf269a66f5d1c03875d071e1a40", "is_disabled": 0, "rental_uris": {"ios": "https://dc.lft.to/lastmile_qr_scan", "android": "https://dc.lft.to/lastmile_qr_scan"}, "is_reserved": 0}, {"lon": -77.01514916666666, "bike_id": "124964559846219c1a381488a451bb50", "lat": 38.8851175, "fusion_lon": 0.0, "fusion_lat": 0.0, "type": "electric_scooter", "name": "124964559846219c1a381488a451bb50", "is_disabled": 0, "rental_uris": {"ios": "https://dc.lft.to/lastmile_qr_scan", "android": "https://dc.lft.to/lastmile_qr_scan"}, "is_reserved": 0}, {"lon": -77.01997033333333, "bike_id": "e89679265ee85da60e44eb28f6571d50", "lat": 38.8958345, "fusion_lon": 0.0, "fusion_lat": 0.0, "type": "electric_scooter", "name": "e89679265ee85da60e44eb28f6571d50", "is_disabled": 0, "rental_uris": {"ios": "https://dc.lft.to/lastmile_qr_scan", "android": "https://dc.lft.to/lastmile_qr_scan"}, "is_reserved": 0}, {"lon": -77.04599266666666, "bike_id": "211fe9be18a94769710f02ddcdcc0dc5", "lat": 38.91355516666667, "fusion_lon": 0.0, "fusion_lat": 0.0, "type": "electric_scooter", "name": "211fe9be18a94769710f02ddcdcc0dc5", "is_disabled": 0, "rental_uris": {"ios": "https://dc.lft.to/lastmile_qr_scan", "android": "https://dc.lft.to/lastmile_qr_scan"}, "is_reserved": 0}, {"lon": -77.000064, "bike_id": "344a8e5ae073d364251a1204a10891a7", "lat": 38.89743566666667, "fusion_lon": 0.0, "fusion_lat": 0.0, "type": "electric_scooter", "name": "344a8e5ae073d364251a1204a10891a7", "is_disabled": 0, "rental_uris": {"ios": "https://dc.lft.to/lastmile_qr_scan", "android": "https://dc.lft.to/lastmile_qr_scan"}, "is_reserved": 0}, {"lon": -77.0648775, "bike_id": "09a0f8166329639ee90817dd31be533f", "lat": 38.909778833333334, "fusion_lon": 0.0, "fusion_lat": 0.0, "type": "electric_scooter", "name": "09a0f8166329639ee90817dd31be533f", "is_disabled": 0, "rental_uris": {"ios": "https://dc.lft.to/lastmile_qr_scan", "android": "https://dc.lft.to/lastmile_qr_scan"}, "is_reserved": 0}, {"lon": -76.9440485, "bike_id": "0dc0a9a49a8aa74a1cbb4c3eeb1c8458", "lat": 38.881401, "fusion_lon": 0.0, "fusion_lat": 0.0, "type": "electric_scooter", "name": "0dc0a9a49a8aa74a1cbb4c3eeb1c8458", "is_disabled": 0, "rental_uris": {"ios": "https://dc.lft.to/lastmile_qr_scan", "android": "https://dc.lft.to/lastmile_qr_scan"}, "is_reserved": 0}, {"lon": -76.99355666666666, "bike_id": "5493fe23ade17e22a3c9abb86692de1e", "lat": 38.8450545, "fusion_lon": 0.0, "fusion_lat": 0.0, "type": "electric_bike", "name": "5493fe23ade17e22a3c9abb86692de1e", "is_disabled": 0, "rental_uris": {"ios": "https://dc.lft.to/lastmile_qr_scan", "android": "https://dc.lft.to/lastmile_qr_scan"}, "is_reserved": 0}, {"lon": -77.04345483333333, "bike_id": "70b566b5682dd29cda71d858c2b6884e", "lat": 38.92350016666666, "fusion_lon": 0.0, "fusion_lat": 0.0, "type": "electric_scooter", "name": "70b566b5682dd29cda71d858c2b6884e", "is_disabled": 0, "rental_uris": {"ios": "https://dc.lft.to/lastmile_qr_scan", "android": "https://dc.lft.to/lastmile_qr_scan"}, "is_reserved": 0}, {"lon": -77.06298283333334, "bike_id": "4626fe9ee16c65a18729506dda8f3e1b", "lat": 38.90396533333333, "fusion_lon": 0.0, "fusion_lat": 0.0, "type": "electric_scooter", "name": "4626fe9ee16c65a18729506dda8f3e1b", "is_disabled": 0, "rental_uris": {"ios": "https://dc.lft.to/lastmile_qr_scan", "android": "https://dc.lft.to/lastmile_qr_scan"}, "is_reserved": 0}, {"lon": -77.0221045, "bike_id": "ff7d5d3a7eefdcd15b9e94a0e6ef99fa", "lat": 38.89981266666667, "fusion_lon": 0.0, "fusion_lat": 0.0, "type": "electric_scooter", "name": "ff7d5d3a7eefdcd15b9e94a0e6ef99fa", "is_disabled": 0, "rental_uris": {"ios": "https://dc.lft.to/lastmile_qr_scan", "android": "https://dc.lft.to/lastmile_qr_scan"}, "is_reserved": 0}, {"lon": -77.03564333333334, "bike_id": "e4fa659eeaa574593cc29354e5794f79", "lat": 38.91818716666667, "fusion_lon": 0.0, "fusion_lat": 0.0, "type": "electric_scooter", "name": "e4fa659eeaa574593cc29354e5794f79", "is_disabled": 0, "rental_uris": {"ios": "https://dc.lft.to/lastmile_qr_scan", "android": "https://dc.lft.to/lastmile_qr_scan"}, "is_reserved": 0}, {"lon": -77.044198, "bike_id": "59543b46e77e1e389d37e094d3c532a0", "lat": 38.91128716666667, "fusion_lon": 0.0, "fusion_lat": 0.0, "type": "electric_scooter", "name": "59543b46e77e1e389d37e094d3c532a0", "is_disabled": 0, "rental_uris": {"ios": "https://dc.lft.to/lastmile_qr_scan", "android": "https://dc.lft.to/lastmile_qr_scan"}, "is_reserved": 0}, {"lon": -77.03060883333333, "bike_id": "c280170263134b27a4169cf29372937d", "lat": 38.90768816666667, "fusion_lon": 0.0, "fusion_lat": 0.0, "type": "electric_scooter", "name": "c280170263134b27a4169cf29372937d", "is_disabled": 0, "rental_uris": {"ios": "https://dc.lft.to/lastmile_qr_scan", "android": "https://dc.lft.to/lastmile_qr_scan"}, "is_reserved": 0}, {"lon": -77.02314, "bike_id": "e269cb1a3c4630d6ceacfdaf2881b45d", "lat": 38.91838533333333, "fusion_lon": 0.0, "fusion_lat": 0.0, "type": "electric_scooter", "name": "e269cb1a3c4630d6ceacfdaf2881b45d", "is_disabled": 0, "rental_uris": {"ios": "https://dc.lft.to/lastmile_qr_scan", "android": "https://dc.lft.to/lastmile_qr_scan"}, "is_reserved": 0}, {"lon": -76.97493566666667, "bike_id": "cbc52d09f7e992767ac991563875fb17", "lat": 38.91923966666667, "fusion_lon": 0.0, "fusion_lat": 0.0, "type": "electric_scooter", "name": "cbc52d09f7e992767ac991563875fb17", "is_disabled": 0, "rental_uris": {"ios": "https://dc.lft.to/lastmile_qr_scan", "android": "https://dc.lft.to/lastmile_qr_scan"}, "is_reserved": 0}, {"lon": -77.045745, "bike_id": "3fcbbe3823e26dbf4e4c8d3d59210d21", "lat": 38.921255333333335, "fusion_lon": 0.0, "fusion_lat": 0.0, "type": "electric_scooter", "name": "3fcbbe3823e26dbf4e4c8d3d59210d21", "is_disabled": 0, "rental_uris": {"ios": "https://dc.lft.to/lastmile_qr_scan", "android": "https://dc.lft.to/lastmile_qr_scan"}, "is_reserved": 0}, {"lon": -77.02228333333333, "bike_id": "e5d05fcdf6211c7dd8faf026c88a9388", "lat": 38.926185, "fusion_lon": 0.0, "fusion_lat": 0.0, "type": "electric_scooter", "name": "e5d05fcdf6211c7dd8faf026c88a9388", "is_disabled": 0, "rental_uris": {"ios": "https://dc.lft.to/lastmile_qr_scan", "android": "https://dc.lft.to/lastmile_qr_scan"}, "is_reserved": 0}, {"lon": -77.049997, "bike_id": "677cb5f5d2a48d4f058898a43d2dfff6", "lat": 38.89233933333333, "fusion_lon": 0.0, "fusion_lat": 0.0, "type": "electric_scooter", "name": "677cb5f5d2a48d4f058898a43d2dfff6", "is_disabled": 0, "rental_uris": {"ios": "https://dc.lft.to/lastmile_qr_scan", "android": "https://dc.lft.to/lastmile_qr_scan"}, "is_reserved": 0}, {"lon": -77.04342733333333, "bike_id": "42033d12cc441ccb8ce4fce0ba986a64", "lat": 38.91509633333333, "fusion_lon": 0.0, "fusion_lat": 0.0, "type": "electric_scooter", "name": "42033d12cc441ccb8ce4fce0ba986a64", "is_disabled": 0, "rental_uris": {"ios": "https://dc.lft.to/lastmile_qr_scan", "android": "https://dc.lft.to/lastmile_qr_scan"}, "is_reserved": 0}, {"lon": -77.038647, "bike_id": "182f656ddebb252731ff9d0dd5e4b592", "lat": 38.931664166666664, "fusion_lon": 0.0, "fusion_lat": 0.0, "type": "electric_scooter", "name": "182f656ddebb252731ff9d0dd5e4b592", "is_disabled": 0, "rental_uris": {"ios": "https://dc.lft.to/lastmile_qr_scan", "android": "https://dc.lft.to/lastmile_qr_scan"}, "is_reserved": 0}, {"lon": -76.99518333333333, "bike_id": "51fb96f57b56b8868e26ad14d3df2bca", "lat": 38.86255583333333, "fusion_lon": 0.0, "fusion_lat": 0.0, "type": "electric_scooter", "name": "51fb96f57b56b8868e26ad14d3df2bca", "is_disabled": 0, "rental_uris": {"ios": "https://dc.lft.to/lastmile_qr_scan", "android": "https://dc.lft.to/lastmile_qr_scan"}, "is_reserved": 0}, {"lon": -76.9926985, "bike_id": "1d6d6bfc5838ca55cf65aaedcd1e0f88", "lat": 38.899486333333336, "fusion_lon": 0.0, "fusion_lat": 0.0, "type": "electric_scooter", "name": "1d6d6bfc5838ca55cf65aaedcd1e0f88", "is_disabled": 0, "rental_uris": {"ios": "https://dc.lft.to/lastmile_qr_scan", "android": "https://dc.lft.to/lastmile_qr_scan"}, "is_reserved": 0}, {"lon": -76.98924966666667, "bike_id": "7f675270d65cc27c3803d9e803a657b1", "lat": 38.8580765, "fusion_lon": 0.0, "fusion_lat": 0.0, "type": "electric_scooter", "name": "7f675270d65cc27c3803d9e803a657b1", "is_disabled": 0, "rental_uris": {"ios": "https://dc.lft.to/lastmile_qr_scan", "android": "https://dc.lft.to/lastmile_qr_scan"}, "is_reserved": 0}, {"lon": -77.02106066666667, "bike_id": "f570099d4beb3c23a1f2c67b257b2856", "lat": 38.906025, "fusion_lon": 0.0, "fusion_lat": 0.0, "type": "electric_scooter", "name": "f570099d4beb3c23a1f2c67b257b2856", "is_disabled": 0, "rental_uris": {"ios": "https://dc.lft.to/lastmile_qr_scan", "android": "https://dc.lft.to/lastmile_qr_scan"}, "is_reserved": 0}, {"lon": -77.05243666666667, "bike_id": "4ac37d96a691ce977474b509b70ff9f3", "lat": 38.899959333333335, "fusion_lon": 0.0, "fusion_lat": 0.0, "type": "electric_scooter", "name": "4ac37d96a691ce977474b509b70ff9f3", "is_disabled": 0, "rental_uris": {"ios": "https://dc.lft.to/lastmile_qr_scan", "android": "https://dc.lft.to/lastmile_qr_scan"}, "is_reserved": 0}, {"lon": -77.04391066666666, "bike_id": "c12c81a63f4b0bc7c228451cdadebd05", "lat": 39.047205166666664, "fusion_lon": 0.0, "fusion_lat": 0.0, "type": "electric_bike", "name": "c12c81a63f4b0bc7c228451cdadebd05", "is_disabled": 0, "rental_uris": {"ios": "https://dc.lft.to/lastmile_qr_scan", "android": "https://dc.lft.to/lastmile_qr_scan"}, "is_reserved": 0}, {"lon": -77.02830033333333, "bike_id": "84d13fd9bb838d0ab95d9535fa5c57f7", "lat": 38.8872965, "fusion_lon": 0.0, "fusion_lat": 0.0, "type": "electric_scooter", "name": "84d13fd9bb838d0ab95d9535fa5c57f7", "is_disabled": 0, "rental_uris": {"ios": "https://dc.lft.to/lastmile_qr_scan", "android": "https://dc.lft.to/lastmile_qr_scan"}, "is_reserved": 0}, {"lon": -76.97304716666666, "bike_id": "6e730e342c160267c46f9f7fc2970b10", "lat": 38.91645, "fusion_lon": 0.0, "fusion_lat": 0.0, "type": "electric_bike", "name": "6e730e342c160267c46f9f7fc2970b10", "is_disabled": 0, "rental_uris": {"ios": "https://dc.lft.to/lastmile_qr_scan", "android": "https://dc.lft.to/lastmile_qr_scan"}, "is_reserved": 0}, {"lon": -77.0287385, "bike_id": "2846f33c7879d78a3b27df14a7f9a586", "lat": 38.9046725, "fusion_lon": 0.0, "fusion_lat": 0.0, "type": "electric_scooter", "name": "2846f33c7879d78a3b27df14a7f9a586", "is_disabled": 0, "rental_uris": {"ios": "https://dc.lft.to/lastmile_qr_scan", "android": "https://dc.lft.to/lastmile_qr_scan"}, "is_reserved": 0}, {"lon": -77.233361, "bike_id": "24d68c789b4955710c76ceb5e4132e7d", "lat": 38.87274383333333, "fusion_lon": 0.0, "fusion_lat": 0.0, "type": "electric_bike", "name": "24d68c789b4955710c76ceb5e4132e7d", "is_disabled": 0, "rental_uris": {"ios": "https://dc.lft.to/lastmile_qr_scan", "android": "https://dc.lft.to/lastmile_qr_scan"}, "is_reserved": 0}, {"lon": -76.9654245, "bike_id": "976c486568a5c5fc962285e6b028b01c", "lat": 38.918335166666665, "fusion_lon": 0.0, "fusion_lat": 0.0, "type": "electric_scooter", "name": "976c486568a5c5fc962285e6b028b01c", "is_disabled": 0, "rental_uris": {"ios": "https://dc.lft.to/lastmile_qr_scan", "android": "https://dc.lft.to/lastmile_qr_scan"}, "is_reserved": 0}, {"lon": -77.003095, "bike_id": "5e57c3278ee3ce5439558a60f9b630ea", "lat": 38.90589933333333, "fusion_lon": 0.0, "fusion_lat": 0.0, "type": "electric_scooter", "name": "5e57c3278ee3ce5439558a60f9b630ea", "is_disabled": 0, "rental_uris": {"ios": "https://dc.lft.to/lastmile_qr_scan", "android": "https://dc.lft.to/lastmile_qr_scan"}, "is_reserved": 0}, {"lon": -77.02155816666667, "bike_id": "5a7b27776986a71340351d0cd14ca6a9", "lat": 38.92604516666667, "fusion_lon": 0.0, "fusion_lat": 0.0, "type": "electric_scooter", "name": "5a7b27776986a71340351d0cd14ca6a9", "is_disabled": 0, "rental_uris": {"ios": "https://dc.lft.to/lastmile_qr_scan", "android": "https://dc.lft.to/lastmile_qr_scan"}, "is_reserved": 0}, {"lon": -77.05896533333333, "bike_id": "ec9ad314eb2d3d84abda2844227ef110", "lat": 38.936097833333335, "fusion_lon": 0.0, "fusion_lat": 0.0, "type": "electric_scooter", "name": "ec9ad314eb2d3d84abda2844227ef110", "is_disabled": 0, "rental_uris": {"ios": "https://dc.lft.to/lastmile_qr_scan", "android": "https://dc.lft.to/lastmile_qr_scan"}, "is_reserved": 0}, {"lon": -76.98924166666667, "bike_id": "eaaca886dfd4a35295b3ca4804432f90", "lat": 38.88205833333333, "fusion_lon": 0.0, "fusion_lat": 0.0, "type": "electric_scooter", "name": "eaaca886dfd4a35295b3ca4804432f90", "is_disabled": 0, "rental_uris": {"ios": "https://dc.lft.to/lastmile_qr_scan", "android": "https://dc.lft.to/lastmile_qr_scan"}, "is_reserved": 0}, {"lon": -77.04324533333333, "bike_id": "da94c8f8609b62fd1905d635d2cd7466", "lat": 38.92376683333333, "fusion_lon": 0.0, "fusion_lat": 0.0, "type": "electric_scooter", "name": "da94c8f8609b62fd1905d635d2cd7466", "is_disabled": 0, "rental_uris": {"ios": "https://dc.lft.to/lastmile_qr_scan", "android": "https://dc.lft.to/lastmile_qr_scan"}, "is_reserved": 0}, {"lon": -77.0352805, "bike_id": "f784148936701f284fa3eb40798f699e", "lat": 38.906946166666664, "fusion_lon": 0.0, "fusion_lat": 0.0, "type": "electric_scooter", "name": "f784148936701f284fa3eb40798f699e", "is_disabled": 0, "rental_uris": {"ios": "https://dc.lft.to/lastmile_qr_scan", "android": "https://dc.lft.to/lastmile_qr_scan"}, "is_reserved": 0}, {"lon": -76.985259, "bike_id": "baf4dc73875814b36f019e833171f4ff", "lat": 38.86691233333333, "fusion_lon": 0.0, "fusion_lat": 0.0, "type": "electric_scooter", "name": "baf4dc73875814b36f019e833171f4ff", "is_disabled": 0, "rental_uris": {"ios": "https://dc.lft.to/lastmile_qr_scan", "android": "https://dc.lft.to/lastmile_qr_scan"}, "is_reserved": 0}, {"lon": -77.00010366666666, "bike_id": "858dab79af451f804942ae801b3b1f05", "lat": 38.92447833333333, "fusion_lon": 0.0, "fusion_lat": 0.0, "type": "electric_scooter", "name": "858dab79af451f804942ae801b3b1f05", "is_disabled": 0, "rental_uris": {"ios": "https://dc.lft.to/lastmile_qr_scan", "android": "https://dc.lft.to/lastmile_qr_scan"}, "is_reserved": 0}, {"lon": -76.94998, "bike_id": "06cd37e8732fd9309a63a9ae37ae99c3", "lat": 38.893866833333334, "fusion_lon": 0.0, "fusion_lat": 0.0, "type": "electric_scooter", "name": "06cd37e8732fd9309a63a9ae37ae99c3", "is_disabled": 0, "rental_uris": {"ios": "https://dc.lft.to/lastmile_qr_scan", "android": "https://dc.lft.to/lastmile_qr_scan"}, "is_reserved": 0}, {"lon": -76.98878716666667, "bike_id": "6195bb79d6df4e5f0cc5f0b298dd2d05", "lat": 38.866625666666664, "fusion_lon": 0.0, "fusion_lat": 0.0, "type": "electric_scooter", "name": "6195bb79d6df4e5f0cc5f0b298dd2d05", "is_disabled": 0, "rental_uris": {"ios": "https://dc.lft.to/lastmile_qr_scan", "android": "https://dc.lft.to/lastmile_qr_scan"}, "is_reserved": 0}, {"lon": -77.04087433333333, "bike_id": "458ea0718e2c8aff8626e94a446fc050", "lat": 38.916935333333335, "fusion_lon": 0.0, "fusion_lat": 0.0, "type": "electric_scooter", "name": "458ea0718e2c8aff8626e94a446fc050", "is_disabled": 0, "rental_uris": {"ios": "https://dc.lft.to/lastmile_qr_scan", "android": "https://dc.lft.to/lastmile_qr_scan"}, "is_reserved": 0}, {"lon": -77.02184116666666, "bike_id": "f0ce20700520de8d448d591c66d1a23c", "lat": 38.90957316666667, "fusion_lon": 0.0, "fusion_lat": 0.0, "type": "electric_scooter", "name": "f0ce20700520de8d448d591c66d1a23c", "is_disabled": 0, "rental_uris": {"ios": "https://dc.lft.to/lastmile_qr_scan", "android": "https://dc.lft.to/lastmile_qr_scan"}, "is_reserved": 0}, {"lon": -77.23323316666666, "bike_id": "6447702028bb3e539e1b6bcd761565cd", "lat": 38.872828, "fusion_lon": 0.0, "fusion_lat": 0.0, "type": "electric_bike", "name": "6447702028bb3e539e1b6bcd761565cd", "is_disabled": 0, "rental_uris": {"ios": "https://dc.lft.to/lastmile_qr_scan", "android": "https://dc.lft.to/lastmile_qr_scan"}, "is_reserved": 0}, {"lon": -77.00888283333333, "bike_id": "829330a3f6ca515f82e7b20ad246993c", "lat": 38.92276416666667, "fusion_lon": 0.0, "fusion_lat": 0.0, "type": "electric_scooter", "name": "829330a3f6ca515f82e7b20ad246993c", "is_disabled": 0, "rental_uris": {"ios": "https://dc.lft.to/lastmile_qr_scan", "android": "https://dc.lft.to/lastmile_qr_scan"}, "is_reserved": 0}, {"lon": -77.185644, "bike_id": "5cc5ea18b5211ccba21b95967a220f12", "lat": 39.09978233333333, "fusion_lon": 0.0, "fusion_lat": 0.0, "type": "electric_bike", "name": "5cc5ea18b5211ccba21b95967a220f12", "is_disabled": 0, "rental_uris": {"ios": "https://dc.lft.to/lastmile_qr_scan", "android": "https://dc.lft.to/lastmile_qr_scan"}, "is_reserved": 0}, {"lon": -77.03177383333333, "bike_id": "2b5638aa6f30aa1c0075d07f6ecd8859", "lat": 38.93601683333333, "fusion_lon": 0.0, "fusion_lat": 0.0, "type": "electric_scooter", "name": "2b5638aa6f30aa1c0075d07f6ecd8859", "is_disabled": 0, "rental_uris": {"ios": "https://dc.lft.to/lastmile_qr_scan", "android": "https://dc.lft.to/lastmile_qr_scan"}, "is_reserved": 0}, {"lon": -77.00089, "bike_id": "8dd555e234d5e8fe04a805ea1e8bd1ce", "lat": 38.8759435, "fusion_lon": 0.0, "fusion_lat": 0.0, "type": "electric_scooter", "name": "8dd555e234d5e8fe04a805ea1e8bd1ce", "is_disabled": 0, "rental_uris": {"ios": "https://dc.lft.to/lastmile_qr_scan", "android": "https://dc.lft.to/lastmile_qr_scan"}, "is_reserved": 0}, {"lon": -77.03250566666667, "bike_id": "aeebbac3a012877bd3a9a1ba9cc7a4ce", "lat": 38.90554016666667, "fusion_lon": 0.0, "fusion_lat": 0.0, "type": "electric_scooter", "name": "aeebbac3a012877bd3a9a1ba9cc7a4ce", "is_disabled": 0, "rental_uris": {"ios": "https://dc.lft.to/lastmile_qr_scan", "android": "https://dc.lft.to/lastmile_qr_scan"}, "is_reserved": 0}, {"lon": -77.03132883333333, "bike_id": "915678331c9126de12db548e59f8c9f5", "lat": 38.9450975, "fusion_lon": 0.0, "fusion_lat": 0.0, "type": "electric_scooter", "name": "915678331c9126de12db548e59f8c9f5", "is_disabled": 0, "rental_uris": {"ios": "https://dc.lft.to/lastmile_qr_scan", "android": "https://dc.lft.to/lastmile_qr_scan"}, "is_reserved": 0}, {"lon": -76.99770583333333, "bike_id": "974cb789cd47d0f3a6c2987d4ce66bf9", "lat": 38.901291666666665, "fusion_lon": 0.0, "fusion_lat": 0.0, "type": "electric_scooter", "name": "974cb789cd47d0f3a6c2987d4ce66bf9", "is_disabled": 0, "rental_uris": {"ios": "https://dc.lft.to/lastmile_qr_scan", "android": "https://dc.lft.to/lastmile_qr_scan"}, "is_reserved": 0}, {"lon": -77.00477516666666, "bike_id": "56e345dff722fb6e3a4c057e0783ea5b", "lat": 38.8958555, "fusion_lon": 0.0, "fusion_lat": 0.0, "type": "electric_scooter", "name": "56e345dff722fb6e3a4c057e0783ea5b", "is_disabled": 0, "rental_uris": {"ios": "https://dc.lft.to/lastmile_qr_scan", "android": "https://dc.lft.to/lastmile_qr_scan"}, "is_reserved": 0}, {"lon": -77.03192733333333, "bike_id": "8f3ccebedf70a817b679fc25098308b5", "lat": 38.912648833333336, "fusion_lon": 0.0, "fusion_lat": 0.0, "type": "electric_scooter", "name": "8f3ccebedf70a817b679fc25098308b5", "is_disabled": 0, "rental_uris": {"ios": "https://dc.lft.to/lastmile_qr_scan", "android": "https://dc.lft.to/lastmile_qr_scan"}, "is_reserved": 0}, {"lon": -77.031952, "bike_id": "14c133a41a111f2761d3c973ff89cb08", "lat": 38.92103133333333, "fusion_lon": 0.0, "fusion_lat": 0.0, "type": "electric_bike", "name": "14c133a41a111f2761d3c973ff89cb08", "is_disabled": 0, "rental_uris": {"ios": "https://dc.lft.to/lastmile_qr_scan", "android": "https://dc.lft.to/lastmile_qr_scan"}, "is_reserved": 0}, {"lon": -76.98775983333333, "bike_id": "1873be0e11dddabd677404ffe60273e7", "lat": 38.866086, "fusion_lon": 0.0, "fusion_lat": 0.0, "type": "electric_bike", "name": "1873be0e11dddabd677404ffe60273e7", "is_disabled": 0, "rental_uris": {"ios": "https://dc.lft.to/lastmile_qr_scan", "android": "https://dc.lft.to/lastmile_qr_scan"}, "is_reserved": 0}, {"lon": -77.0403885, "bike_id": "875da02d83d44fad29ff537cb430c955", "lat": 38.91856116666666, "fusion_lon": 0.0, "fusion_lat": 0.0, "type": "electric_scooter", "name": "875da02d83d44fad29ff537cb430c955", "is_disabled": 0, "rental_uris": {"ios": "https://dc.lft.to/lastmile_qr_scan", "android": "https://dc.lft.to/lastmile_qr_scan"}, "is_reserved": 0}, {"lon": -76.99376933333333, "bike_id": "3e71c8978a656ddcea3302a9bb553f62", "lat": 38.87964483333333, "fusion_lon": 0.0, "fusion_lat": 0.0, "type": "electric_scooter", "name": "3e71c8978a656ddcea3302a9bb553f62", "is_disabled": 0, "rental_uris": {"ios": "https://dc.lft.to/lastmile_qr_scan", "android": "https://dc.lft.to/lastmile_qr_scan"}, "is_reserved": 0}, {"lon": -77.03455966666667, "bike_id": "383123911829a4299bb84d2c39e7850d", "lat": 38.90806533333333, "fusion_lon": 0.0, "fusion_lat": 0.0, "type": "electric_scooter", "name": "383123911829a4299bb84d2c39e7850d", "is_disabled": 0, "rental_uris": {"ios": "https://dc.lft.to/lastmile_qr_scan", "android": "https://dc.lft.to/lastmile_qr_scan"}, "is_reserved": 0}, {"lon": -77.02689366666667, "bike_id": "b3d17cfb40fd8a7f463066429dc2f170", "lat": 38.90112233333333, "fusion_lon": 0.0, "fusion_lat": 0.0, "type": "electric_scooter", "name": "b3d17cfb40fd8a7f463066429dc2f170", "is_disabled": 0, "rental_uris": {"ios": "https://dc.lft.to/lastmile_qr_scan", "android": "https://dc.lft.to/lastmile_qr_scan"}, "is_reserved": 0}, {"lon": -77.009088, "bike_id": "50d2ae84b184322b12f34e004205ff49", "lat": 38.906165666666666, "fusion_lon": 0.0, "fusion_lat": 0.0, "type": "electric_scooter", "name": "50d2ae84b184322b12f34e004205ff49", "is_disabled": 0, "rental_uris": {"ios": "https://dc.lft.to/lastmile_qr_scan", "android": "https://dc.lft.to/lastmile_qr_scan"}, "is_reserved": 0}, {"lon": -77.00835016666667, "bike_id": "b56f67000c56cf13a0ff67e84905da15", "lat": 38.9135055, "fusion_lon": 0.0, "fusion_lat": 0.0, "type": "electric_scooter", "name": "b56f67000c56cf13a0ff67e84905da15", "is_disabled": 0, "rental_uris": {"ios": "https://dc.lft.to/lastmile_qr_scan", "android": "https://dc.lft.to/lastmile_qr_scan"}, "is_reserved": 0}, {"lon": -76.99557416666667, "bike_id": "157016618ca99db86151f10a7bc3c54d", "lat": 38.86255033333333, "fusion_lon": 0.0, "fusion_lat": 0.0, "type": "electric_scooter", "name": "157016618ca99db86151f10a7bc3c54d", "is_disabled": 0, "rental_uris": {"ios": "https://dc.lft.to/lastmile_qr_scan", "android": "https://dc.lft.to/lastmile_qr_scan"}, "is_reserved": 0}, {"lon": -77.0228975, "bike_id": "d33fa3cd73708a2e5e9405edd5896878", "lat": 38.87883883333333, "fusion_lon": 0.0, "fusion_lat": 0.0, "type": "electric_scooter", "name": "d33fa3cd73708a2e5e9405edd5896878", "is_disabled": 0, "rental_uris": {"ios": "https://dc.lft.to/lastmile_qr_scan", "android": "https://dc.lft.to/lastmile_qr_scan"}, "is_reserved": 0}, {"lon": -77.03194133333334, "bike_id": "e4229c9d097652444a9b520751263072", "lat": 38.89785216666667, "fusion_lon": 0.0, "fusion_lat": 0.0, "type": "electric_scooter", "name": "e4229c9d097652444a9b520751263072", "is_disabled": 0, "rental_uris": {"ios": "https://dc.lft.to/lastmile_qr_scan", "android": "https://dc.lft.to/lastmile_qr_scan"}, "is_reserved": 0}, {"lon": -77.09871816666667, "bike_id": "703144891a54c75772e8a01a2a313a17", "lat": 38.9496395, "fusion_lon": 0.0, "fusion_lat": 0.0, "type": "electric_scooter", "name": "703144891a54c75772e8a01a2a313a17", "is_disabled": 0, "rental_uris": {"ios": "https://dc.lft.to/lastmile_qr_scan", "android": "https://dc.lft.to/lastmile_qr_scan"}, "is_reserved": 0}, {"lon": -77.01313833333333, "bike_id": "6fcab6b87ffbe3a5c85cc9c48e34e547", "lat": 38.871609666666664, "fusion_lon": 0.0, "fusion_lat": 0.0, "type": "electric_scooter", "name": "6fcab6b87ffbe3a5c85cc9c48e34e547", "is_disabled": 0, "rental_uris": {"ios": "https://dc.lft.to/lastmile_qr_scan", "android": "https://dc.lft.to/lastmile_qr_scan"}, "is_reserved": 0}, {"lon": -77.00047883333333, "bike_id": "eb14e7e6a71246fc149883dda22d5bdc", "lat": 38.896596333333335, "fusion_lon": 0.0, "fusion_lat": 0.0, "type": "electric_scooter", "name": "eb14e7e6a71246fc149883dda22d5bdc", "is_disabled": 0, "rental_uris": {"ios": "https://dc.lft.to/lastmile_qr_scan", "android": "https://dc.lft.to/lastmile_qr_scan"}, "is_reserved": 0}, {"lon": -76.99454016666667, "bike_id": "10629324ea726269d53671cc19584513", "lat": 38.96619716666667, "fusion_lon": 0.0, "fusion_lat": 0.0, "type": "electric_bike", "name": "10629324ea726269d53671cc19584513", "is_disabled": 0, "rental_uris": {"ios": "https://dc.lft.to/lastmile_qr_scan", "android": "https://dc.lft.to/lastmile_qr_scan"}, "is_reserved": 0}, {"lon": -77.00374433333333, "bike_id": "7aee78c1d25b3487be3ed4dcb1206f1e", "lat": 38.897310166666664, "fusion_lon": 0.0, "fusion_lat": 0.0, "type": "electric_scooter", "name": "7aee78c1d25b3487be3ed4dcb1206f1e", "is_disabled": 0, "rental_uris": {"ios": "https://dc.lft.to/lastmile_qr_scan", "android": "https://dc.lft.to/lastmile_qr_scan"}, "is_reserved": 0}, {"lon": -77.0315, "bike_id": "ee2cb21080ac94606d1f5107da610197", "lat": 38.91821783333333, "fusion_lon": 0.0, "fusion_lat": 0.0, "type": "electric_scooter", "name": "ee2cb21080ac94606d1f5107da610197", "is_disabled": 0, "rental_uris": {"ios": "https://dc.lft.to/lastmile_qr_scan", "android": "https://dc.lft.to/lastmile_qr_scan"}, "is_reserved": 0}, {"lon": -76.99006883333334, "bike_id": "84b6c4c9fb7c476239eff509616f334c", "lat": 38.86506716666667, "fusion_lon": 0.0, "fusion_lat": 0.0, "type": "electric_scooter", "name": "84b6c4c9fb7c476239eff509616f334c", "is_disabled": 0, "rental_uris": {"ios": "https://dc.lft.to/lastmile_qr_scan", "android": "https://dc.lft.to/lastmile_qr_scan"}, "is_reserved": 0}, {"lon": -77.03676283333333, "bike_id": "2e2dd2132159ce81014fdec36bb1f28a", "lat": 38.904129, "fusion_lon": 0.0, "fusion_lat": 0.0, "type": "electric_scooter", "name": "2e2dd2132159ce81014fdec36bb1f28a", "is_disabled": 0, "rental_uris": {"ios": "https://dc.lft.to/lastmile_qr_scan", "android": "https://dc.lft.to/lastmile_qr_scan"}, "is_reserved": 0}, {"lon": -76.990219, "bike_id": "32ac9e55f3bb5e8ccd14bb1345188bcd", "lat": 38.86641483333333, "fusion_lon": 0.0, "fusion_lat": 0.0, "type": "electric_scooter", "name": "32ac9e55f3bb5e8ccd14bb1345188bcd", "is_disabled": 0, "rental_uris": {"ios": "https://dc.lft.to/lastmile_qr_scan", "android": "https://dc.lft.to/lastmile_qr_scan"}, "is_reserved": 0}, {"lon": -76.99080566666666, "bike_id": "1f1ea8d2e97dc2aa92ebf6f0db57b773", "lat": 38.86240883333333, "fusion_lon": 0.0, "fusion_lat": 0.0, "type": "electric_bike", "name": "1f1ea8d2e97dc2aa92ebf6f0db57b773", "is_disabled": 0, "rental_uris": {"ios": "https://dc.lft.to/lastmile_qr_scan", "android": "https://dc.lft.to/lastmile_qr_scan"}, "is_reserved": 0}, {"lon": -77.01111733333333, "bike_id": "706c0e214af7a5d59e86f133130c4531", "lat": 38.90790333333333, "fusion_lon": 0.0, "fusion_lat": 0.0, "type": "electric_scooter", "name": "706c0e214af7a5d59e86f133130c4531", "is_disabled": 0, "rental_uris": {"ios": "https://dc.lft.to/lastmile_qr_scan", "android": "https://dc.lft.to/lastmile_qr_scan"}, "is_reserved": 0}, {"lon": -77.08067366666667, "bike_id": "fc8edc5394124f3acc2a1a84b4a40525", "lat": 39.052833666666665, "fusion_lon": 0.0, "fusion_lat": 0.0, "type": "electric_bike", "name": "fc8edc5394124f3acc2a1a84b4a40525", "is_disabled": 0, "rental_uris": {"ios": "https://dc.lft.to/lastmile_qr_scan", "android": "https://dc.lft.to/lastmile_qr_scan"}, "is_reserved": 0}, {"lon": -77.03870383333333, "bike_id": "fafa549ec726ae9acd5b48bb7836a5de", "lat": 38.91701833333333, "fusion_lon": 0.0, "fusion_lat": 0.0, "type": "electric_scooter", "name": "fafa549ec726ae9acd5b48bb7836a5de", "is_disabled": 0, "rental_uris": {"ios": "https://dc.lft.to/lastmile_qr_scan", "android": "https://dc.lft.to/lastmile_qr_scan"}, "is_reserved": 0}, {"lon": -77.006857, "bike_id": "3cfcc73c1b94dec8c872334985804010", "lat": 38.90037066666667, "fusion_lon": 0.0, "fusion_lat": 0.0, "type": "electric_scooter", "name": "3cfcc73c1b94dec8c872334985804010", "is_disabled": 0, "rental_uris": {"ios": "https://dc.lft.to/lastmile_qr_scan", "android": "https://dc.lft.to/lastmile_qr_scan"}, "is_reserved": 0}, {"lon": -77.0263495, "bike_id": "1ad744a9c73d70acc1e56641ce1be963", "lat": 38.9170695, "fusion_lon": 0.0, "fusion_lat": 0.0, "type": "electric_scooter", "name": "1ad744a9c73d70acc1e56641ce1be963", "is_disabled": 0, "rental_uris": {"ios": "https://dc.lft.to/lastmile_qr_scan", "android": "https://dc.lft.to/lastmile_qr_scan"}, "is_reserved": 0}, {"lon": -77.0236475, "bike_id": "8b7fcf4f5dd8f3fc944b8c13094fa90f", "lat": 38.90406683333333, "fusion_lon": 0.0, "fusion_lat": 0.0, "type": "electric_scooter", "name": "8b7fcf4f5dd8f3fc944b8c13094fa90f", "is_disabled": 0, "rental_uris": {"ios": "https://dc.lft.to/lastmile_qr_scan", "android": "https://dc.lft.to/lastmile_qr_scan"}, "is_reserved": 0}, {"lon": -77.02055783333333, "bike_id": "5e735ce021fc23154d6568c0d085acd3", "lat": 38.897295, "fusion_lon": 0.0, "fusion_lat": 0.0, "type": "electric_scooter", "name": "5e735ce021fc23154d6568c0d085acd3", "is_disabled": 0, "rental_uris": {"ios": "https://dc.lft.to/lastmile_qr_scan", "android": "https://dc.lft.to/lastmile_qr_scan"}, "is_reserved": 0}, {"lon": -77.06506566666667, "bike_id": "8613ffc1c3676c026a2ccc9a57f8cece", "lat": 38.90412166666667, "fusion_lon": 0.0, "fusion_lat": 0.0, "type": "electric_scooter", "name": "8613ffc1c3676c026a2ccc9a57f8cece", "is_disabled": 0, "rental_uris": {"ios": "https://dc.lft.to/lastmile_qr_scan", "android": "https://dc.lft.to/lastmile_qr_scan"}, "is_reserved": 0}, {"lon": -77.03657983333333, "bike_id": "721c901e0939b6c880d771a3eba0740b", "lat": 38.9362835, "fusion_lon": 0.0, "fusion_lat": 0.0, "type": "electric_scooter", "name": "721c901e0939b6c880d771a3eba0740b", "is_disabled": 0, "rental_uris": {"ios": "https://dc.lft.to/lastmile_qr_scan", "android": "https://dc.lft.to/lastmile_qr_scan"}, "is_reserved": 0}, {"lon": -77.02514566666666, "bike_id": "83e57d27b0dba75a717a698efc8c3b7d", "lat": 38.93412933333333, "fusion_lon": 0.0, "fusion_lat": 0.0, "type": "electric_bike", "name": "83e57d27b0dba75a717a698efc8c3b7d", "is_disabled": 0, "rental_uris": {"ios": "https://dc.lft.to/lastmile_qr_scan", "android": "https://dc.lft.to/lastmile_qr_scan"}, "is_reserved": 0}, {"lon": -76.9748225, "bike_id": "62cab48f6f806d636dbf75f39be3a72f", "lat": 38.90354466666667, "fusion_lon": 0.0, "fusion_lat": 0.0, "type": "electric_scooter", "name": "62cab48f6f806d636dbf75f39be3a72f", "is_disabled": 0, "rental_uris": {"ios": "https://dc.lft.to/lastmile_qr_scan", "android": "https://dc.lft.to/lastmile_qr_scan"}, "is_reserved": 0}, {"lon": -77.08073616666667, "bike_id": "c7c82708b94917c386fc5cf4e40464fe", "lat": 38.96317616666666, "fusion_lon": 0.0, "fusion_lat": 0.0, "type": "electric_bike", "name": "c7c82708b94917c386fc5cf4e40464fe", "is_disabled": 0, "rental_uris": {"ios": "https://dc.lft.to/lastmile_qr_scan", "android": "https://dc.lft.to/lastmile_qr_scan"}, "is_reserved": 0}, {"lon": -77.02493333333334, "bike_id": "1c258653c1fabaea41d4c0b433b53b62", "lat": 38.94187483333333, "fusion_lon": 0.0, "fusion_lat": 0.0, "type": "electric_scooter", "name": "1c258653c1fabaea41d4c0b433b53b62", "is_disabled": 0, "rental_uris": {"ios": "https://dc.lft.to/lastmile_qr_scan", "android": "https://dc.lft.to/lastmile_qr_scan"}, "is_reserved": 0}, {"lon": -76.983478, "bike_id": "f7672b8f2373d1831bde12e0335704a6", "lat": 38.902965333333334, "fusion_lon": 0.0, "fusion_lat": 0.0, "type": "electric_scooter", "name": "f7672b8f2373d1831bde12e0335704a6", "is_disabled": 0, "rental_uris": {"ios": "https://dc.lft.to/lastmile_qr_scan", "android": "https://dc.lft.to/lastmile_qr_scan"}, "is_reserved": 0}, {"lon": -77.021782, "bike_id": "56c0d7ef5905c32a48b3d60d9653fe93", "lat": 38.909575833333335, "fusion_lon": 0.0, "fusion_lat": 0.0, "type": "electric_scooter", "name": "56c0d7ef5905c32a48b3d60d9653fe93", "is_disabled": 0, "rental_uris": {"ios": "https://dc.lft.to/lastmile_qr_scan", "android": "https://dc.lft.to/lastmile_qr_scan"}, "is_reserved": 0}, {"lon": -77.03928983333333, "bike_id": "60547d2666c6909b120f7d18bd56cb22", "lat": 38.90067966666667, "fusion_lon": 0.0, "fusion_lat": 0.0, "type": "electric_scooter", "name": "60547d2666c6909b120f7d18bd56cb22", "is_disabled": 0, "rental_uris": {"ios": "https://dc.lft.to/lastmile_qr_scan", "android": "https://dc.lft.to/lastmile_qr_scan"}, "is_reserved": 0}, {"lon": -77.05255616666666, "bike_id": "105188b6a822dbfa76dd516b8e41fca1", "lat": 38.923769666666665, "fusion_lon": 0.0, "fusion_lat": 0.0, "type": "electric_scooter", "name": "105188b6a822dbfa76dd516b8e41fca1", "is_disabled": 0, "rental_uris": {"ios": "https://dc.lft.to/lastmile_qr_scan", "android": "https://dc.lft.to/lastmile_qr_scan"}, "is_reserved": 0}, {"lon": -77.02415016666667, "bike_id": "9f78fce0fe873c8a643fb78b689fa14a", "lat": 38.90864366666667, "fusion_lon": 0.0, "fusion_lat": 0.0, "type": "electric_bike", "name": "9f78fce0fe873c8a643fb78b689fa14a", "is_disabled": 0, "rental_uris": {"ios": "https://dc.lft.to/lastmile_qr_scan", "android": "https://dc.lft.to/lastmile_qr_scan"}, "is_reserved": 0}, {"lon": -77.0319635, "bike_id": "f8f4c1c3f45c777e18348f63efe12709", "lat": 38.898188833333336, "fusion_lon": 0.0, "fusion_lat": 0.0, "type": "electric_scooter", "name": "f8f4c1c3f45c777e18348f63efe12709", "is_disabled": 0, "rental_uris": {"ios": "https://dc.lft.to/lastmile_qr_scan", "android": "https://dc.lft.to/lastmile_qr_scan"}, "is_reserved": 0}, {"lon": -77.04683933333334, "bike_id": "9489828bbc216f4ab2d09890d80d9f4f", "lat": 38.90867766666667, "fusion_lon": 0.0, "fusion_lat": 0.0, "type": "electric_scooter", "name": "9489828bbc216f4ab2d09890d80d9f4f", "is_disabled": 0, "rental_uris": {"ios": "https://dc.lft.to/lastmile_qr_scan", "android": "https://dc.lft.to/lastmile_qr_scan"}, "is_reserved": 0}, {"lon": -77.04944983333333, "bike_id": "273af340258ef9b566c832d51f354067", "lat": 38.905337333333335, "fusion_lon": 0.0, "fusion_lat": 0.0, "type": "electric_bike", "name": "273af340258ef9b566c832d51f354067", "is_disabled": 0, "rental_uris": {"ios": "https://dc.lft.to/lastmile_qr_scan", "android": "https://dc.lft.to/lastmile_qr_scan"}, "is_reserved": 0}, {"lon": -76.9937985, "bike_id": "13a388f8beb994668e47e1b23eba0ad9", "lat": 38.971897, "fusion_lon": 0.0, "fusion_lat": 0.0, "type": "electric_bike", "name": "13a388f8beb994668e47e1b23eba0ad9", "is_disabled": 0, "rental_uris": {"ios": "https://dc.lft.to/lastmile_qr_scan", "android": "https://dc.lft.to/lastmile_qr_scan"}, "is_reserved": 0}, {"lon": -77.07009166666667, "bike_id": "be38b83a2a44fc348f8756b99368e688", "lat": 38.9584775, "fusion_lon": 0.0, "fusion_lat": 0.0, "type": "electric_scooter", "name": "be38b83a2a44fc348f8756b99368e688", "is_disabled": 0, "rental_uris": {"ios": "https://dc.lft.to/lastmile_qr_scan", "android": "https://dc.lft.to/lastmile_qr_scan"}, "is_reserved": 0}, {"lon": -77.0057735, "bike_id": "040bd02ce15f7d8c773c929ca14fe267", "lat": 38.835900333333335, "fusion_lon": 0.0, "fusion_lat": 0.0, "type": "electric_scooter", "name": "040bd02ce15f7d8c773c929ca14fe267", "is_disabled": 0, "rental_uris": {"ios": "https://dc.lft.to/lastmile_qr_scan", "android": "https://dc.lft.to/lastmile_qr_scan"}, "is_reserved": 0}, {"lon": -76.94893450000001, "bike_id": "094518dc86657f75606798fa3f2b203f", "lat": 38.8953355, "fusion_lon": 0.0, "fusion_lat": 0.0, "type": "electric_scooter", "name": "094518dc86657f75606798fa3f2b203f", "is_disabled": 0, "rental_uris": {"ios": "https://dc.lft.to/lastmile_qr_scan", "android": "https://dc.lft.to/lastmile_qr_scan"}, "is_reserved": 0}, {"lon": -76.9904025, "bike_id": "9e0a7aa216d910d7a23e026dbf319198", "lat": 38.887548, "fusion_lon": 0.0, "fusion_lat": 0.0, "type": "electric_scooter", "name": "9e0a7aa216d910d7a23e026dbf319198", "is_disabled": 0, "rental_uris": {"ios": "https://dc.lft.to/lastmile_qr_scan", "android": "https://dc.lft.to/lastmile_qr_scan"}, "is_reserved": 0}, {"lon": -77.03399816666666, "bike_id": "2550551e66a1760412bb5143e161bd02", "lat": 38.931277333333334, "fusion_lon": 0.0, "fusion_lat": 0.0, "type": "electric_scooter", "name": "2550551e66a1760412bb5143e161bd02", "is_disabled": 0, "rental_uris": {"ios": "https://dc.lft.to/lastmile_qr_scan", "android": "https://dc.lft.to/lastmile_qr_scan"}, "is_reserved": 0}, {"lon": -76.99176733333333, "bike_id": "015ca978d80232208aa5280d0a90c0a8", "lat": 38.9001715, "fusion_lon": 0.0, "fusion_lat": 0.0, "type": "electric_scooter", "name": "015ca978d80232208aa5280d0a90c0a8", "is_disabled": 0, "rental_uris": {"ios": "https://dc.lft.to/lastmile_qr_scan", "android": "https://dc.lft.to/lastmile_qr_scan"}, "is_reserved": 0}, {"lon": -77.0238935, "bike_id": "8c19324c04d7065869eb096f2ffaba80", "lat": 38.95738933333333, "fusion_lon": 0.0, "fusion_lat": 0.0, "type": "electric_scooter", "name": "8c19324c04d7065869eb096f2ffaba80", "is_disabled": 0, "rental_uris": {"ios": "https://dc.lft.to/lastmile_qr_scan", "android": "https://dc.lft.to/lastmile_qr_scan"}, "is_reserved": 0}, {"lon": -77.064932, "bike_id": "c5a237fe26d25bb48d11c4f8f8fb4e0e", "lat": 38.92909933333333, "fusion_lon": 0.0, "fusion_lat": 0.0, "type": "electric_scooter", "name": "c5a237fe26d25bb48d11c4f8f8fb4e0e", "is_disabled": 0, "rental_uris": {"ios": "https://dc.lft.to/lastmile_qr_scan", "android": "https://dc.lft.to/lastmile_qr_scan"}, "is_reserved": 0}, {"lon": -77.0267415, "bike_id": "207a4568c22f86ebf15c05479fdda6ee", "lat": 38.984322666666664, "fusion_lon": 0.0, "fusion_lat": 0.0, "type": "electric_scooter", "name": "207a4568c22f86ebf15c05479fdda6ee", "is_disabled": 0, "rental_uris": {"ios": "https://dc.lft.to/lastmile_qr_scan", "android": "https://dc.lft.to/lastmile_qr_scan"}, "is_reserved": 0}, {"lon": -77.02391666666666, "bike_id": "d4d720ef20b0ab74bce42a7d5c9674ef", "lat": 38.908502, "fusion_lon": 0.0, "fusion_lat": 0.0, "type": "electric_scooter", "name": "d4d720ef20b0ab74bce42a7d5c9674ef", "is_disabled": 0, "rental_uris": {"ios": "https://dc.lft.to/lastmile_qr_scan", "android": "https://dc.lft.to/lastmile_qr_scan"}, "is_reserved": 0}, {"lon": -77.03853733333334, "bike_id": "75c7953d08329ca105dd4413bafc44ac", "lat": 38.902921166666665, "fusion_lon": 0.0, "fusion_lat": 0.0, "type": "electric_scooter", "name": "75c7953d08329ca105dd4413bafc44ac", "is_disabled": 0, "rental_uris": {"ios": "https://dc.lft.to/lastmile_qr_scan", "android": "https://dc.lft.to/lastmile_qr_scan"}, "is_reserved": 0}, {"lon": -77.04819016666667, "bike_id": "b232e9ce390a69e7cbed65ab34cb4dc5", "lat": 38.9162545, "fusion_lon": 0.0, "fusion_lat": 0.0, "type": "electric_scooter", "name": "b232e9ce390a69e7cbed65ab34cb4dc5", "is_disabled": 0, "rental_uris": {"ios": "https://dc.lft.to/lastmile_qr_scan", "android": "https://dc.lft.to/lastmile_qr_scan"}, "is_reserved": 0}, {"lon": -77.00888033333334, "bike_id": "e9e9e0ea4d2ff6c45016450e60951c4f", "lat": 38.9171165, "fusion_lon": 0.0, "fusion_lat": 0.0, "type": "electric_scooter", "name": "e9e9e0ea4d2ff6c45016450e60951c4f", "is_disabled": 0, "rental_uris": {"ios": "https://dc.lft.to/lastmile_qr_scan", "android": "https://dc.lft.to/lastmile_qr_scan"}, "is_reserved": 0}, {"lon": -77.03059133333333, "bike_id": "4b724fd604c146eeddb42b9eace9d7c3", "lat": 38.9081605, "fusion_lon": 0.0, "fusion_lat": 0.0, "type": "electric_scooter", "name": "4b724fd604c146eeddb42b9eace9d7c3", "is_disabled": 0, "rental_uris": {"ios": "https://dc.lft.to/lastmile_qr_scan", "android": "https://dc.lft.to/lastmile_qr_scan"}, "is_reserved": 0}, {"lon": -76.99871466666667, "bike_id": "22a331d29fcf8f1294ed9b761146742c", "lat": 38.90757216666667, "fusion_lon": 0.0, "fusion_lat": 0.0, "type": "electric_scooter", "name": "22a331d29fcf8f1294ed9b761146742c", "is_disabled": 0, "rental_uris": {"ios": "https://dc.lft.to/lastmile_qr_scan", "android": "https://dc.lft.to/lastmile_qr_scan"}, "is_reserved": 0}, {"lon": -77.01069533333333, "bike_id": "2b835c9cb65ba2dcd2ac9e4991c36064", "lat": 38.915503666666666, "fusion_lon": 0.0, "fusion_lat": 0.0, "type": "electric_scooter", "name": "2b835c9cb65ba2dcd2ac9e4991c36064", "is_disabled": 0, "rental_uris": {"ios": "https://dc.lft.to/lastmile_qr_scan", "android": "https://dc.lft.to/lastmile_qr_scan"}, "is_reserved": 0}, {"lon": -76.94943533333333, "bike_id": "b8bd21c4c0b51a704fb093cc06409651", "lat": 38.9036935, "fusion_lon": 0.0, "fusion_lat": 0.0, "type": "electric_scooter", "name": "b8bd21c4c0b51a704fb093cc06409651", "is_disabled": 0, "rental_uris": {"ios": "https://dc.lft.to/lastmile_qr_scan", "android": "https://dc.lft.to/lastmile_qr_scan"}, "is_reserved": 0}, {"lon": -77.05861216666666, "bike_id": "67a4e5b06042d0918069220d689b3934", "lat": 38.936099166666665, "fusion_lon": 0.0, "fusion_lat": 0.0, "type": "electric_scooter", "name": "67a4e5b06042d0918069220d689b3934", "is_disabled": 0, "rental_uris": {"ios": "https://dc.lft.to/lastmile_qr_scan", "android": "https://dc.lft.to/lastmile_qr_scan"}, "is_reserved": 0}, {"lon": -77.043792, "bike_id": "259a169c7be9407fc49c2dfbfca52e70", "lat": 38.92069566666667, "fusion_lon": 0.0, "fusion_lat": 0.0, "type": "electric_scooter", "name": "259a169c7be9407fc49c2dfbfca52e70", "is_disabled": 0, "rental_uris": {"ios": "https://dc.lft.to/lastmile_qr_scan", "android": "https://dc.lft.to/lastmile_qr_scan"}, "is_reserved": 0}, {"lon": -77.00114266666667, "bike_id": "1b525c776d886f19340d4457b7cd7a05", "lat": 38.91965183333333, "fusion_lon": 0.0, "fusion_lat": 0.0, "type": "electric_scooter", "name": "1b525c776d886f19340d4457b7cd7a05", "is_disabled": 0, "rental_uris": {"ios": "https://dc.lft.to/lastmile_qr_scan", "android": "https://dc.lft.to/lastmile_qr_scan"}, "is_reserved": 0}, {"lon": -77.032162, "bike_id": "ea47778ab285092481d123a4feda8604", "lat": 38.919269666666665, "fusion_lon": 0.0, "fusion_lat": 0.0, "type": "electric_scooter", "name": "ea47778ab285092481d123a4feda8604", "is_disabled": 0, "rental_uris": {"ios": "https://dc.lft.to/lastmile_qr_scan", "android": "https://dc.lft.to/lastmile_qr_scan"}, "is_reserved": 0}, {"lon": -77.0326125, "bike_id": "bccc1274142b1f3c0e7bb11f5d965198", "lat": 38.90039983333333, "fusion_lon": 0.0, "fusion_lat": 0.0, "type": "electric_scooter", "name": "bccc1274142b1f3c0e7bb11f5d965198", "is_disabled": 0, "rental_uris": {"ios": "https://dc.lft.to/lastmile_qr_scan", "android": "https://dc.lft.to/lastmile_qr_scan"}, "is_reserved": 0}, {"lon": -77.0280135, "bike_id": "3d87e1491636f5743fd1f8ccf37ef2cb", "lat": 38.90249683333333, "fusion_lon": 0.0, "fusion_lat": 0.0, "type": "electric_scooter", "name": "3d87e1491636f5743fd1f8ccf37ef2cb", "is_disabled": 0, "rental_uris": {"ios": "https://dc.lft.to/lastmile_qr_scan", "android": "https://dc.lft.to/lastmile_qr_scan"}, "is_reserved": 0}, {"lon": -77.00192783333334, "bike_id": "9d79b122d48c2d3ba04090c4d17b4d45", "lat": 38.8947445, "fusion_lon": 0.0, "fusion_lat": 0.0, "type": "electric_scooter", "name": "9d79b122d48c2d3ba04090c4d17b4d45", "is_disabled": 0, "rental_uris": {"ios": "https://dc.lft.to/lastmile_qr_scan", "android": "https://dc.lft.to/lastmile_qr_scan"}, "is_reserved": 0}, {"lon": -76.99788083333334, "bike_id": "c3abbce62dd2a5067b9a17d9173489c6", "lat": 38.8909545, "fusion_lon": 0.0, "fusion_lat": 0.0, "type": "electric_scooter", "name": "c3abbce62dd2a5067b9a17d9173489c6", "is_disabled": 0, "rental_uris": {"ios": "https://dc.lft.to/lastmile_qr_scan", "android": "https://dc.lft.to/lastmile_qr_scan"}, "is_reserved": 0}, {"lon": -76.99878383333333, "bike_id": "67fecfcd8725851ad8d88e414fa61e3b", "lat": 38.900181, "fusion_lon": 0.0, "fusion_lat": 0.0, "type": "electric_scooter", "name": "67fecfcd8725851ad8d88e414fa61e3b", "is_disabled": 0, "rental_uris": {"ios": "https://dc.lft.to/lastmile_qr_scan", "android": "https://dc.lft.to/lastmile_qr_scan"}, "is_reserved": 0}, {"lon": -76.98249516666667, "bike_id": "3ac31e94ed277cad902ae7e7f4d887c5", "lat": 38.86453566666667, "fusion_lon": 0.0, "fusion_lat": 0.0, "type": "electric_scooter", "name": "3ac31e94ed277cad902ae7e7f4d887c5", "is_disabled": 0, "rental_uris": {"ios": "https://dc.lft.to/lastmile_qr_scan", "android": "https://dc.lft.to/lastmile_qr_scan"}, "is_reserved": 0}, {"lon": -77.03196366666667, "bike_id": "5b4c104d92b5880ba480d53b33915d71", "lat": 38.91806, "fusion_lon": 0.0, "fusion_lat": 0.0, "type": "electric_scooter", "name": "5b4c104d92b5880ba480d53b33915d71", "is_disabled": 0, "rental_uris": {"ios": "https://dc.lft.to/lastmile_qr_scan", "android": "https://dc.lft.to/lastmile_qr_scan"}, "is_reserved": 0}, {"lon": -77.00622166666666, "bike_id": "8506a19f3ce540b8cb9df181a4eb2e38", "lat": 38.899970833333334, "fusion_lon": 0.0, "fusion_lat": 0.0, "type": "electric_scooter", "name": "8506a19f3ce540b8cb9df181a4eb2e38", "is_disabled": 0, "rental_uris": {"ios": "https://dc.lft.to/lastmile_qr_scan", "android": "https://dc.lft.to/lastmile_qr_scan"}, "is_reserved": 0}, {"lon": -77.0024875, "bike_id": "8f3a12fcd98f204f5d984cbd4dd63953", "lat": 38.88508866666667, "fusion_lon": 0.0, "fusion_lat": 0.0, "type": "electric_scooter", "name": "8f3a12fcd98f204f5d984cbd4dd63953", "is_disabled": 0, "rental_uris": {"ios": "https://dc.lft.to/lastmile_qr_scan", "android": "https://dc.lft.to/lastmile_qr_scan"}, "is_reserved": 0}, {"lon": -77.0321565, "bike_id": "e3b356c77a54e66b96bd670cbd4218bf", "lat": 38.919220833333334, "fusion_lon": 0.0, "fusion_lat": 0.0, "type": "electric_scooter", "name": "e3b356c77a54e66b96bd670cbd4218bf", "is_disabled": 0, "rental_uris": {"ios": "https://dc.lft.to/lastmile_qr_scan", "android": "https://dc.lft.to/lastmile_qr_scan"}, "is_reserved": 0}, {"lon": -77.0150415, "bike_id": "b47b08d1dc0ce6d9eaa3e951efceca5e", "lat": 38.94531666666666, "fusion_lon": 0.0, "fusion_lat": 0.0, "type": "electric_scooter", "name": "b47b08d1dc0ce6d9eaa3e951efceca5e", "is_disabled": 0, "rental_uris": {"ios": "https://dc.lft.to/lastmile_qr_scan", "android": "https://dc.lft.to/lastmile_qr_scan"}, "is_reserved": 0}, {"lon": -77.03155166666667, "bike_id": "c72144af6b52db7f92d119ce3d26b711", "lat": 38.917055833333336, "fusion_lon": 0.0, "fusion_lat": 0.0, "type": "electric_scooter", "name": "c72144af6b52db7f92d119ce3d26b711", "is_disabled": 0, "rental_uris": {"ios": "https://dc.lft.to/lastmile_qr_scan", "android": "https://dc.lft.to/lastmile_qr_scan"}, "is_reserved": 0}, {"lon": -77.0029585, "bike_id": "e62f2e9c96de55c871b25ef15f873be0", "lat": 38.901249666666665, "fusion_lon": 0.0, "fusion_lat": 0.0, "type": "electric_scooter", "name": "e62f2e9c96de55c871b25ef15f873be0", "is_disabled": 0, "rental_uris": {"ios": "https://dc.lft.to/lastmile_qr_scan", "android": "https://dc.lft.to/lastmile_qr_scan"}, "is_reserved": 0}, {"lon": -76.98108166666667, "bike_id": "bfa5c5691db81da09e305c855e345ec2", "lat": 38.87730783333333, "fusion_lon": 0.0, "fusion_lat": 0.0, "type": "electric_bike", "name": "bfa5c5691db81da09e305c855e345ec2", "is_disabled": 0, "rental_uris": {"ios": "https://dc.lft.to/lastmile_qr_scan", "android": "https://dc.lft.to/lastmile_qr_scan"}, "is_reserved": 0}, {"lon": -77.047024, "bike_id": "020dbec00c6008aa9fa0b47f77c20fa2", "lat": 38.919078666666664, "fusion_lon": 0.0, "fusion_lat": 0.0, "type": "electric_scooter", "name": "020dbec00c6008aa9fa0b47f77c20fa2", "is_disabled": 0, "rental_uris": {"ios": "https://dc.lft.to/lastmile_qr_scan", "android": "https://dc.lft.to/lastmile_qr_scan"}, "is_reserved": 0}, {"lon": -77.04003783333333, "bike_id": "82ae46576985b4c7de69f597136a18ad", "lat": 38.93428516666667, "fusion_lon": 0.0, "fusion_lat": 0.0, "type": "electric_scooter", "name": "82ae46576985b4c7de69f597136a18ad", "is_disabled": 0, "rental_uris": {"ios": "https://dc.lft.to/lastmile_qr_scan", "android": "https://dc.lft.to/lastmile_qr_scan"}, "is_reserved": 0}, {"lon": -77.025026, "bike_id": "1c3b8bf798a72555d25f9a9d79841de2", "lat": 38.919849166666665, "fusion_lon": 0.0, "fusion_lat": 0.0, "type": "electric_scooter", "name": "1c3b8bf798a72555d25f9a9d79841de2", "is_disabled": 0, "rental_uris": {"ios": "https://dc.lft.to/lastmile_qr_scan", "android": "https://dc.lft.to/lastmile_qr_scan"}, "is_reserved": 0}, {"lon": -77.01990116666667, "bike_id": "c2f15c426ceb85e36132cf44195a82fc", "lat": 38.93097383333333, "fusion_lon": 0.0, "fusion_lat": 0.0, "type": "electric_scooter", "name": "c2f15c426ceb85e36132cf44195a82fc", "is_disabled": 0, "rental_uris": {"ios": "https://dc.lft.to/lastmile_qr_scan", "android": "https://dc.lft.to/lastmile_qr_scan"}, "is_reserved": 0}, {"lon": -77.0057635, "bike_id": "e63107e4bca0d1408687d4b31102da3b", "lat": 38.87232633333333, "fusion_lon": 0.0, "fusion_lat": 0.0, "type": "electric_scooter", "name": "e63107e4bca0d1408687d4b31102da3b", "is_disabled": 0, "rental_uris": {"ios": "https://dc.lft.to/lastmile_qr_scan", "android": "https://dc.lft.to/lastmile_qr_scan"}, "is_reserved": 0}, {"lon": -77.0149505, "bike_id": "8283458e89a25f6944e1998b46d2752f", "lat": 38.91766166666667, "fusion_lon": 0.0, "fusion_lat": 0.0, "type": "electric_scooter", "name": "8283458e89a25f6944e1998b46d2752f", "is_disabled": 0, "rental_uris": {"ios": "https://dc.lft.to/lastmile_qr_scan", "android": "https://dc.lft.to/lastmile_qr_scan"}, "is_reserved": 0}, {"lon": -77.02904283333334, "bike_id": "1d7640bc234b46fec30236534078d195", "lat": 38.92817016666667, "fusion_lon": 0.0, "fusion_lat": 0.0, "type": "electric_scooter", "name": "1d7640bc234b46fec30236534078d195", "is_disabled": 0, "rental_uris": {"ios": "https://dc.lft.to/lastmile_qr_scan", "android": "https://dc.lft.to/lastmile_qr_scan"}, "is_reserved": 0}, {"lon": -77.03849883333334, "bike_id": "4d43e4b0d69d9a95fd4908c2352dc1b7", "lat": 38.9323225, "fusion_lon": 0.0, "fusion_lat": 0.0, "type": "electric_scooter", "name": "4d43e4b0d69d9a95fd4908c2352dc1b7", "is_disabled": 0, "rental_uris": {"ios": "https://dc.lft.to/lastmile_qr_scan", "android": "https://dc.lft.to/lastmile_qr_scan"}, "is_reserved": 0}, {"lon": -76.99881216666667, "bike_id": "04cd5ceebefbb55a8ef9772b95023075", "lat": 38.9012885, "fusion_lon": 0.0, "fusion_lat": 0.0, "type": "electric_scooter", "name": "04cd5ceebefbb55a8ef9772b95023075", "is_disabled": 0, "rental_uris": {"ios": "https://dc.lft.to/lastmile_qr_scan", "android": "https://dc.lft.to/lastmile_qr_scan"}, "is_reserved": 0}, {"lon": -77.045509, "bike_id": "2b6e903b3eae5644f91d666f47f60fe5", "lat": 38.91337, "fusion_lon": 0.0, "fusion_lat": 0.0, "type": "electric_scooter", "name": "2b6e903b3eae5644f91d666f47f60fe5", "is_disabled": 0, "rental_uris": {"ios": "https://dc.lft.to/lastmile_qr_scan", "android": "https://dc.lft.to/lastmile_qr_scan"}, "is_reserved": 0}, {"lon": -77.0384595, "bike_id": "6e62c362b3b6fbe2d1ce5b8f5de7ff71", "lat": 38.909808166666664, "fusion_lon": 0.0, "fusion_lat": 0.0, "type": "electric_scooter", "name": "6e62c362b3b6fbe2d1ce5b8f5de7ff71", "is_disabled": 0, "rental_uris": {"ios": "https://dc.lft.to/lastmile_qr_scan", "android": "https://dc.lft.to/lastmile_qr_scan"}, "is_reserved": 0}, {"lon": -76.9899105, "bike_id": "6b287d5bf0980e8b3394d61cdd3395c3", "lat": 38.93361433333333, "fusion_lon": 0.0, "fusion_lat": 0.0, "type": "electric_scooter", "name": "6b287d5bf0980e8b3394d61cdd3395c3", "is_disabled": 0, "rental_uris": {"ios": "https://dc.lft.to/lastmile_qr_scan", "android": "https://dc.lft.to/lastmile_qr_scan"}, "is_reserved": 0}, {"lon": -77.02697433333333, "bike_id": "74858e10712f71c123a4047513fdaa26", "lat": 38.91634716666667, "fusion_lon": 0.0, "fusion_lat": 0.0, "type": "electric_scooter", "name": "74858e10712f71c123a4047513fdaa26", "is_disabled": 0, "rental_uris": {"ios": "https://dc.lft.to/lastmile_qr_scan", "android": "https://dc.lft.to/lastmile_qr_scan"}, "is_reserved": 0}, {"lon": -76.99177383333334, "bike_id": "7861a110c735d1345960e46ab2bc1eae", "lat": 38.889877, "fusion_lon": 0.0, "fusion_lat": 0.0, "type": "electric_scooter", "name": "7861a110c735d1345960e46ab2bc1eae", "is_disabled": 0, "rental_uris": {"ios": "https://dc.lft.to/lastmile_qr_scan", "android": "https://dc.lft.to/lastmile_qr_scan"}, "is_reserved": 0}, {"lon": -77.02387166666666, "bike_id": "081a258c58fd3c3fca0dd480c92a2132", "lat": 38.906849333333334, "fusion_lon": 0.0, "fusion_lat": 0.0, "type": "electric_scooter", "name": "081a258c58fd3c3fca0dd480c92a2132", "is_disabled": 0, "rental_uris": {"ios": "https://dc.lft.to/lastmile_qr_scan", "android": "https://dc.lft.to/lastmile_qr_scan"}, "is_reserved": 0}, {"lon": -77.038567, "bike_id": "c1558ea73e5bb1ccf08ec4099d422cf7", "lat": 38.9101595, "fusion_lon": 0.0, "fusion_lat": 0.0, "type": "electric_scooter", "name": "c1558ea73e5bb1ccf08ec4099d422cf7", "is_disabled": 0, "rental_uris": {"ios": "https://dc.lft.to/lastmile_qr_scan", "android": "https://dc.lft.to/lastmile_qr_scan"}, "is_reserved": 0}, {"lon": -77.03334733333334, "bike_id": "bb738b54f6dcea3f80515266ec219b92", "lat": 38.915616166666666, "fusion_lon": 0.0, "fusion_lat": 0.0, "type": "electric_scooter", "name": "bb738b54f6dcea3f80515266ec219b92", "is_disabled": 0, "rental_uris": {"ios": "https://dc.lft.to/lastmile_qr_scan", "android": "https://dc.lft.to/lastmile_qr_scan"}, "is_reserved": 0}, {"lon": -77.041101, "bike_id": "331e9f549242ff72afbd661f908c19eb", "lat": 38.92452866666667, "fusion_lon": 0.0, "fusion_lat": 0.0, "type": "electric_scooter", "name": "331e9f549242ff72afbd661f908c19eb", "is_disabled": 0, "rental_uris": {"ios": "https://dc.lft.to/lastmile_qr_scan", "android": "https://dc.lft.to/lastmile_qr_scan"}, "is_reserved": 0}, {"lon": -77.02441616666667, "bike_id": "a4deec5408fba2340d5cce0ff7951e14", "lat": 38.9235455, "fusion_lon": 0.0, "fusion_lat": 0.0, "type": "electric_scooter", "name": "a4deec5408fba2340d5cce0ff7951e14", "is_disabled": 0, "rental_uris": {"ios": "https://dc.lft.to/lastmile_qr_scan", "android": "https://dc.lft.to/lastmile_qr_scan"}, "is_reserved": 0}, {"lon": -77.03667083333333, "bike_id": "9fee42b0860ba89d1ea6726b84ec32a2", "lat": 38.922406333333335, "fusion_lon": 0.0, "fusion_lat": 0.0, "type": "electric_scooter", "name": "9fee42b0860ba89d1ea6726b84ec32a2", "is_disabled": 0, "rental_uris": {"ios": "https://dc.lft.to/lastmile_qr_scan", "android": "https://dc.lft.to/lastmile_qr_scan"}, "is_reserved": 0}, {"lon": -77.05061933333333, "bike_id": "53b4599558420be729b969e9d8ef2654", "lat": 38.92583916666667, "fusion_lon": 0.0, "fusion_lat": 0.0, "type": "electric_scooter", "name": "53b4599558420be729b969e9d8ef2654", "is_disabled": 0, "rental_uris": {"ios": "https://dc.lft.to/lastmile_qr_scan", "android": "https://dc.lft.to/lastmile_qr_scan"}, "is_reserved": 0}, {"lon": -76.98439766666667, "bike_id": "6b04539493023a210ce18683315d0ca9", "lat": 38.914646166666664, "fusion_lon": 0.0, "fusion_lat": 0.0, "type": "electric_scooter", "name": "6b04539493023a210ce18683315d0ca9", "is_disabled": 0, "rental_uris": {"ios": "https://dc.lft.to/lastmile_qr_scan", "android": "https://dc.lft.to/lastmile_qr_scan"}, "is_reserved": 0}, {"lon": -77.02521116666667, "bike_id": "117c81514cd82f405ed5c312b1b091c4", "lat": 38.88048633333333, "fusion_lon": 0.0, "fusion_lat": 0.0, "type": "electric_scooter", "name": "117c81514cd82f405ed5c312b1b091c4", "is_disabled": 0, "rental_uris": {"ios": "https://dc.lft.to/lastmile_qr_scan", "android": "https://dc.lft.to/lastmile_qr_scan"}, "is_reserved": 0}, {"lon": -77.02607733333333, "bike_id": "36b4fd061d3710362f64ab89249b5c2a", "lat": 38.9013325, "fusion_lon": 0.0, "fusion_lat": 0.0, "type": "electric_scooter", "name": "36b4fd061d3710362f64ab89249b5c2a", "is_disabled": 0, "rental_uris": {"ios": "https://dc.lft.to/lastmile_qr_scan", "android": "https://dc.lft.to/lastmile_qr_scan"}, "is_reserved": 0}, {"lon": -76.89537183333333, "bike_id": "ccd67a415c168851a94dad4637769871", "lat": 38.945540666666666, "fusion_lon": 0.0, "fusion_lat": 0.0, "type": "electric_bike", "name": "ccd67a415c168851a94dad4637769871", "is_disabled": 0, "rental_uris": {"ios": "https://dc.lft.to/lastmile_qr_scan", "android": "https://dc.lft.to/lastmile_qr_scan"}, "is_reserved": 0}, {"lon": -77.02986866666667, "bike_id": "43f7b6c276c2df88d00f84a6a4104b9d", "lat": 38.922435666666665, "fusion_lon": 0.0, "fusion_lat": 0.0, "type": "electric_scooter", "name": "43f7b6c276c2df88d00f84a6a4104b9d", "is_disabled": 0, "rental_uris": {"ios": "https://dc.lft.to/lastmile_qr_scan", "android": "https://dc.lft.to/lastmile_qr_scan"}, "is_reserved": 0}, {"lon": -77.04377616666666, "bike_id": "2fee1e2ac4fc7cea1487d5f29bb13e00", "lat": 38.92069683333333, "fusion_lon": 0.0, "fusion_lat": 0.0, "type": "electric_scooter", "name": "2fee1e2ac4fc7cea1487d5f29bb13e00", "is_disabled": 0, "rental_uris": {"ios": "https://dc.lft.to/lastmile_qr_scan", "android": "https://dc.lft.to/lastmile_qr_scan"}, "is_reserved": 0}, {"lon": -77.0259815, "bike_id": "33ff5b2d8d53107150996b896ed9f036", "lat": 38.883566, "fusion_lon": 0.0, "fusion_lat": 0.0, "type": "electric_scooter", "name": "33ff5b2d8d53107150996b896ed9f036", "is_disabled": 0, "rental_uris": {"ios": "https://dc.lft.to/lastmile_qr_scan", "android": "https://dc.lft.to/lastmile_qr_scan"}, "is_reserved": 0}, {"lon": -77.04011083333333, "bike_id": "21fd7d520a792033fd5be1ee6fc64725", "lat": 38.9100675, "fusion_lon": 0.0, "fusion_lat": 0.0, "type": "electric_scooter", "name": "21fd7d520a792033fd5be1ee6fc64725", "is_disabled": 0, "rental_uris": {"ios": "https://dc.lft.to/lastmile_qr_scan", "android": "https://dc.lft.to/lastmile_qr_scan"}, "is_reserved": 0}, {"lon": -77.02188916666667, "bike_id": "ad775f8ef669aed6eb13131a278031a8", "lat": 38.91131766666667, "fusion_lon": 0.0, "fusion_lat": 0.0, "type": "electric_scooter", "name": "ad775f8ef669aed6eb13131a278031a8", "is_disabled": 0, "rental_uris": {"ios": "https://dc.lft.to/lastmile_qr_scan", "android": "https://dc.lft.to/lastmile_qr_scan"}, "is_reserved": 0}, {"lon": -77.00113733333333, "bike_id": "00bedbc63c6dec8d1b51872100aca82d", "lat": 38.917072, "fusion_lon": 0.0, "fusion_lat": 0.0, "type": "electric_scooter", "name": "00bedbc63c6dec8d1b51872100aca82d", "is_disabled": 0, "rental_uris": {"ios": "https://dc.lft.to/lastmile_qr_scan", "android": "https://dc.lft.to/lastmile_qr_scan"}, "is_reserved": 0}, {"lon": -77.044999, "bike_id": "40c0ea68b020eb14c8adf3e2ef07f81d", "lat": 38.91597466666666, "fusion_lon": 0.0, "fusion_lat": 0.0, "type": "electric_scooter", "name": "40c0ea68b020eb14c8adf3e2ef07f81d", "is_disabled": 0, "rental_uris": {"ios": "https://dc.lft.to/lastmile_qr_scan", "android": "https://dc.lft.to/lastmile_qr_scan"}, "is_reserved": 0}, {"lon": -77.02579266666666, "bike_id": "d3f0b94e8e43c55d194511e517149906", "lat": 38.9260795, "fusion_lon": 0.0, "fusion_lat": 0.0, "type": "electric_scooter", "name": "d3f0b94e8e43c55d194511e517149906", "is_disabled": 0, "rental_uris": {"ios": "https://dc.lft.to/lastmile_qr_scan", "android": "https://dc.lft.to/lastmile_qr_scan"}, "is_reserved": 0}, {"lon": -77.02617183333334, "bike_id": "f70f295ecd9933cb745253924bc5c783", "lat": 38.914152333333334, "fusion_lon": 0.0, "fusion_lat": 0.0, "type": "electric_scooter", "name": "f70f295ecd9933cb745253924bc5c783", "is_disabled": 0, "rental_uris": {"ios": "https://dc.lft.to/lastmile_qr_scan", "android": "https://dc.lft.to/lastmile_qr_scan"}, "is_reserved": 0}, {"lon": -77.00800616666666, "bike_id": "eefc87145df54daf41d501f89704a7bd", "lat": 38.9492025, "fusion_lon": 0.0, "fusion_lat": 0.0, "type": "electric_bike", "name": "eefc87145df54daf41d501f89704a7bd", "is_disabled": 0, "rental_uris": {"ios": "https://dc.lft.to/lastmile_qr_scan", "android": "https://dc.lft.to/lastmile_qr_scan"}, "is_reserved": 0}, {"lon": -77.03760883333334, "bike_id": "4b9a78697cdea2653132129f13b3ce61", "lat": 38.90775516666667, "fusion_lon": 0.0, "fusion_lat": 0.0, "type": "electric_scooter", "name": "4b9a78697cdea2653132129f13b3ce61", "is_disabled": 0, "rental_uris": {"ios": "https://dc.lft.to/lastmile_qr_scan", "android": "https://dc.lft.to/lastmile_qr_scan"}, "is_reserved": 0}, {"lon": -77.0332195, "bike_id": "bfdbbd941769156be3f20726d33d7834", "lat": 38.90140866666667, "fusion_lon": 0.0, "fusion_lat": 0.0, "type": "electric_scooter", "name": "bfdbbd941769156be3f20726d33d7834", "is_disabled": 0, "rental_uris": {"ios": "https://dc.lft.to/lastmile_qr_scan", "android": "https://dc.lft.to/lastmile_qr_scan"}, "is_reserved": 0}, {"lon": -76.9781225, "bike_id": "46f55aff25142dfbd28f3aefd798d323", "lat": 38.906671333333335, "fusion_lon": 0.0, "fusion_lat": 0.0, "type": "electric_scooter", "name": "46f55aff25142dfbd28f3aefd798d323", "is_disabled": 0, "rental_uris": {"ios": "https://dc.lft.to/lastmile_qr_scan", "android": "https://dc.lft.to/lastmile_qr_scan"}, "is_reserved": 0}, {"lon": -77.021992, "bike_id": "e22d1ceb20e1d7f5cfe267c5efad3494", "lat": 38.914849, "fusion_lon": 0.0, "fusion_lat": 0.0, "type": "electric_scooter", "name": "e22d1ceb20e1d7f5cfe267c5efad3494", "is_disabled": 0, "rental_uris": {"ios": "https://dc.lft.to/lastmile_qr_scan", "android": "https://dc.lft.to/lastmile_qr_scan"}, "is_reserved": 0}, {"lon": -77.03327883333333, "bike_id": "64e608a40086d78f8872f28267c508d6", "lat": 38.90139333333333, "fusion_lon": 0.0, "fusion_lat": 0.0, "type": "electric_scooter", "name": "64e608a40086d78f8872f28267c508d6", "is_disabled": 0, "rental_uris": {"ios": "https://dc.lft.to/lastmile_qr_scan", "android": "https://dc.lft.to/lastmile_qr_scan"}, "is_reserved": 0}, {"lon": -77.04357033333334, "bike_id": "8c2d5a798cb79ababdd3e07d452284c5", "lat": 38.90417883333333, "fusion_lon": 0.0, "fusion_lat": 0.0, "type": "electric_scooter", "name": "8c2d5a798cb79ababdd3e07d452284c5", "is_disabled": 0, "rental_uris": {"ios": "https://dc.lft.to/lastmile_qr_scan", "android": "https://dc.lft.to/lastmile_qr_scan"}, "is_reserved": 0}, {"lon": -77.00660733333333, "bike_id": "2b42137642fc8970e43fe0c7dfa1d877", "lat": 38.90006733333333, "fusion_lon": 0.0, "fusion_lat": 0.0, "type": "electric_scooter", "name": "2b42137642fc8970e43fe0c7dfa1d877", "is_disabled": 0, "rental_uris": {"ios": "https://dc.lft.to/lastmile_qr_scan", "android": "https://dc.lft.to/lastmile_qr_scan"}, "is_reserved": 0}, {"lon": -77.12979333333334, "bike_id": "50a4aba0ecf01288c39e839d68d830c0", "lat": 38.799836, "fusion_lon": 0.0, "fusion_lat": 0.0, "type": "electric_bike", "name": "50a4aba0ecf01288c39e839d68d830c0", "is_disabled": 0, "rental_uris": {"ios": "https://dc.lft.to/lastmile_qr_scan", "android": "https://dc.lft.to/lastmile_qr_scan"}, "is_reserved": 0}, {"lon": -77.0020115, "bike_id": "3be5ced63d323302fa163e7725fcb4f8", "lat": 38.902399, "fusion_lon": 0.0, "fusion_lat": 0.0, "type": "electric_scooter", "name": "3be5ced63d323302fa163e7725fcb4f8", "is_disabled": 0, "rental_uris": {"ios": "https://dc.lft.to/lastmile_qr_scan", "android": "https://dc.lft.to/lastmile_qr_scan"}, "is_reserved": 0}, {"lon": -77.00677366666666, "bike_id": "6fb46217b920a5174fc87d002d34238f", "lat": 38.900420833333335, "fusion_lon": 0.0, "fusion_lat": 0.0, "type": "electric_scooter", "name": "6fb46217b920a5174fc87d002d34238f", "is_disabled": 0, "rental_uris": {"ios": "https://dc.lft.to/lastmile_qr_scan", "android": "https://dc.lft.to/lastmile_qr_scan"}, "is_reserved": 0}, {"lon": -77.03308983333334, "bike_id": "d43f86ee8dc97a3da6f1d7bd8a4694fa", "lat": 38.90346783333333, "fusion_lon": 0.0, "fusion_lat": 0.0, "type": "electric_scooter", "name": "d43f86ee8dc97a3da6f1d7bd8a4694fa", "is_disabled": 0, "rental_uris": {"ios": "https://dc.lft.to/lastmile_qr_scan", "android": "https://dc.lft.to/lastmile_qr_scan"}, "is_reserved": 0}, {"lon": -77.02207483333333, "bike_id": "19d1d2de59fb5ff196e2c631d3100fcc", "lat": 38.9164705, "fusion_lon": 0.0, "fusion_lat": 0.0, "type": "electric_scooter", "name": "19d1d2de59fb5ff196e2c631d3100fcc", "is_disabled": 0, "rental_uris": {"ios": "https://dc.lft.to/lastmile_qr_scan", "android": "https://dc.lft.to/lastmile_qr_scan"}, "is_reserved": 0}, {"lon": -77.0545705, "bike_id": "ccd8acdde0d074cce8ae53cbe806de8b", "lat": 38.85552116666667, "fusion_lon": 0.0, "fusion_lat": 0.0, "type": "electric_bike", "name": "ccd8acdde0d074cce8ae53cbe806de8b", "is_disabled": 0, "rental_uris": {"ios": "https://dc.lft.to/lastmile_qr_scan", "android": "https://dc.lft.to/lastmile_qr_scan"}, "is_reserved": 0}, {"lon": -77.01428916666667, "bike_id": "030e9d1c9942d7b9da363345c84db259", "lat": 38.97216783333333, "fusion_lon": 0.0, "fusion_lat": 0.0, "type": "electric_bike", "name": "030e9d1c9942d7b9da363345c84db259", "is_disabled": 0, "rental_uris": {"ios": "https://dc.lft.to/lastmile_qr_scan", "android": "https://dc.lft.to/lastmile_qr_scan"}, "is_reserved": 0}, {"lon": -77.028766, "bike_id": "2f412a16371f195cf598297e4bbcc743", "lat": 38.884951666666666, "fusion_lon": 0.0, "fusion_lat": 0.0, "type": "electric_scooter", "name": "2f412a16371f195cf598297e4bbcc743", "is_disabled": 0, "rental_uris": {"ios": "https://dc.lft.to/lastmile_qr_scan", "android": "https://dc.lft.to/lastmile_qr_scan"}, "is_reserved": 0}, {"lon": -76.97618283333334, "bike_id": "4464aa1c49395ab57dfeb69b3a2c4f04", "lat": 38.926516166666666, "fusion_lon": 0.0, "fusion_lat": 0.0, "type": "electric_scooter", "name": "4464aa1c49395ab57dfeb69b3a2c4f04", "is_disabled": 0, "rental_uris": {"ios": "https://dc.lft.to/lastmile_qr_scan", "android": "https://dc.lft.to/lastmile_qr_scan"}, "is_reserved": 0}, {"lon": -77.04344066666667, "bike_id": "f4b070f3113d711c514c0fc1ca8f6548", "lat": 38.92145216666667, "fusion_lon": 0.0, "fusion_lat": 0.0, "type": "electric_scooter", "name": "f4b070f3113d711c514c0fc1ca8f6548", "is_disabled": 0, "rental_uris": {"ios": "https://dc.lft.to/lastmile_qr_scan", "android": "https://dc.lft.to/lastmile_qr_scan"}, "is_reserved": 0}, {"lon": -77.01864783333333, "bike_id": "73249eea693335fdfd7066b7710c38ed", "lat": 38.95152816666667, "fusion_lon": 0.0, "fusion_lat": 0.0, "type": "electric_scooter", "name": "73249eea693335fdfd7066b7710c38ed", "is_disabled": 0, "rental_uris": {"ios": "https://dc.lft.to/lastmile_qr_scan", "android": "https://dc.lft.to/lastmile_qr_scan"}, "is_reserved": 0}, {"lon": -77.02602583333334, "bike_id": "e951bb940e483af48667626b7d6a3233", "lat": 38.9184755, "fusion_lon": 0.0, "fusion_lat": 0.0, "type": "electric_scooter", "name": "e951bb940e483af48667626b7d6a3233", "is_disabled": 0, "rental_uris": {"ios": "https://dc.lft.to/lastmile_qr_scan", "android": "https://dc.lft.to/lastmile_qr_scan"}, "is_reserved": 0}, {"lon": -77.03923633333333, "bike_id": "b8ba0c2506faaac1bded7a5043015997", "lat": 38.927980833333336, "fusion_lon": 0.0, "fusion_lat": 0.0, "type": "electric_scooter", "name": "b8ba0c2506faaac1bded7a5043015997", "is_disabled": 0, "rental_uris": {"ios": "https://dc.lft.to/lastmile_qr_scan", "android": "https://dc.lft.to/lastmile_qr_scan"}, "is_reserved": 0}, {"lon": -77.03838533333334, "bike_id": "7923c383b169336b79fb41babba0b990", "lat": 38.91481133333333, "fusion_lon": 0.0, "fusion_lat": 0.0, "type": "electric_scooter", "name": "7923c383b169336b79fb41babba0b990", "is_disabled": 0, "rental_uris": {"ios": "https://dc.lft.to/lastmile_qr_scan", "android": "https://dc.lft.to/lastmile_qr_scan"}, "is_reserved": 0}, {"lon": -76.96361033333334, "bike_id": "21e676a5bb1b026e7c2015b3f747a5cd", "lat": 38.935022000000004, "fusion_lon": 0.0, "fusion_lat": 0.0, "type": "electric_scooter", "name": "21e676a5bb1b026e7c2015b3f747a5cd", "is_disabled": 0, "rental_uris": {"ios": "https://dc.lft.to/lastmile_qr_scan", "android": "https://dc.lft.to/lastmile_qr_scan"}, "is_reserved": 0}, {"lon": -76.93610716666667, "bike_id": "1eecba30ac72ccb1c783c103487d0499", "lat": 38.89681933333333, "fusion_lon": 0.0, "fusion_lat": 0.0, "type": "electric_scooter", "name": "1eecba30ac72ccb1c783c103487d0499", "is_disabled": 0, "rental_uris": {"ios": "https://dc.lft.to/lastmile_qr_scan", "android": "https://dc.lft.to/lastmile_qr_scan"}, "is_reserved": 0}, {"lon": -77.00923633333333, "bike_id": "a1af3200f5493067526d099dc7bc1f47", "lat": 38.827857333333334, "fusion_lon": 0.0, "fusion_lat": 0.0, "type": "electric_bike", "name": "a1af3200f5493067526d099dc7bc1f47", "is_disabled": 0, "rental_uris": {"ios": "https://dc.lft.to/lastmile_qr_scan", "android": "https://dc.lft.to/lastmile_qr_scan"}, "is_reserved": 0}, {"lon": -77.04472366666667, "bike_id": "467c09f78107cce5d751d24a1d1b908e", "lat": 38.9187355, "fusion_lon": 0.0, "fusion_lat": 0.0, "type": "electric_scooter", "name": "467c09f78107cce5d751d24a1d1b908e", "is_disabled": 0, "rental_uris": {"ios": "https://dc.lft.to/lastmile_qr_scan", "android": "https://dc.lft.to/lastmile_qr_scan"}, "is_reserved": 0}, {"lon": -77.00076733333333, "bike_id": "82ba15c089f2b84a0be57c5c4e1a6e06", "lat": 38.92427933333333, "fusion_lon": 0.0, "fusion_lat": 0.0, "type": "electric_scooter", "name": "82ba15c089f2b84a0be57c5c4e1a6e06", "is_disabled": 0, "rental_uris": {"ios": "https://dc.lft.to/lastmile_qr_scan", "android": "https://dc.lft.to/lastmile_qr_scan"}, "is_reserved": 0}, {"lon": -77.0279945, "bike_id": "d8786c722cf66ec936d5837cfd91d6f6", "lat": 38.916938, "fusion_lon": 0.0, "fusion_lat": 0.0, "type": "electric_scooter", "name": "d8786c722cf66ec936d5837cfd91d6f6", "is_disabled": 0, "rental_uris": {"ios": "https://dc.lft.to/lastmile_qr_scan", "android": "https://dc.lft.to/lastmile_qr_scan"}, "is_reserved": 0}, {"lon": -77.04268166666667, "bike_id": "22892416eb6ccc9584256354e6eb149f", "lat": 38.9179085, "fusion_lon": 0.0, "fusion_lat": 0.0, "type": "electric_scooter", "name": "22892416eb6ccc9584256354e6eb149f", "is_disabled": 0, "rental_uris": {"ios": "https://dc.lft.to/lastmile_qr_scan", "android": "https://dc.lft.to/lastmile_qr_scan"}, "is_reserved": 0}, {"lon": -76.97621033333333, "bike_id": "bb53fadcfb2d86c25f949456f1bf1fd4", "lat": 38.90383116666667, "fusion_lon": 0.0, "fusion_lat": 0.0, "type": "electric_scooter", "name": "bb53fadcfb2d86c25f949456f1bf1fd4", "is_disabled": 0, "rental_uris": {"ios": "https://dc.lft.to/lastmile_qr_scan", "android": "https://dc.lft.to/lastmile_qr_scan"}, "is_reserved": 0},