{"data": {"bikes": [{"lon": -76.963854, "bike_id": "18a9a699eb71200493fd234a970e8583", "lat": 38.95179866666667, "fusion_lon": 0.0, "fusion_lat": 0.0, "type": "electric_bike", "name": "18a9a699eb71200493fd234a970e8583", "is_disabled": 0, "rental_uris": {"ios": "https://dc.lft.to/lastmile_qr_scan", "android": "https://dc.lft.to/lastmile_qr_scan"}, "is_reserved": 0}, {"lon": -77.00079733333334, "bike_id": "7b453b40b1fa04c64c06234000fcd3cd", "lat": 38.90847866666667, "fusion_lon": 0.0, "fusion_lat": 0.0, "type": "electric_scooter", "name": "7b453b40b1fa04c64c06234000fcd3cd", "is_disabled": 0, "rental_uris": {"ios": "https://dc.lft.to/lastmile_qr_scan", "android": "https://dc.lft.to/lastmile_qr_scan"}, "is_reserved": 0}, {"lon": -77.02096566666667, "bike_id": "791a7f221b7d3e260152848d96b5a1a3", "lat": 38.90976966666667, "fusion_lon": 0.0, "fusion_lat": 0.0, "type": "electric_scooter", "name": "791a7f221b7d3e260152848d96b5a1a3", "is_disabled": 0, "rental_uris": {"ios": "https://dc.lft.to/lastmile_qr_scan", "android": "https://dc.lft.to/lastmile_qr_scan"}, "is_reserved": 0}, {"lon": -76.99543833333334, "bike_id": "666a9096d5ae289dff0f561dddbe458c", "lat": 38.86265366666667, "fusion_lon": 0.0, "fusion_lat": 0.0, "type": "electric_scooter", "name": "666a9096d5ae289dff0f561dddbe458c", "is_disabled": 0, "rental_uris": {"ios": "https://dc.lft.to/lastmile_qr_scan", "android": "https://dc.lft.to/lastmile_qr_scan"}, "is_reserved": 0}, {"lon": -77.03337833333333, "bike_id": "4e46c1a35ae4299cf69a3662e1e27a63", "lat": 38.960495333333334, "fusion_lon": 0.0, "fusion_lat": 0.0, "type": "electric_scooter", "name": "4e46c1a35ae4299cf69a3662e1e27a63", "is_disabled": 0, "rental_uris": {"ios": "https://dc.lft.to/lastmile_qr_scan", "android": "https://dc.lft.to/lastmile_qr_scan"}, "is_reserved": 0}, {"lon": -77.03198283333333, "bike_id": "6a58287a63be05a18c02d9461462abc3", "lat": 38.916883166666665, "fusion_lon": 0.0, "fusion_lat": 0.0, "type": "electric_scooter", "name": "6a58287a63be05a18c02d9461462abc3", "is_disabled": 0, "rental_uris": {"ios": "https://dc.lft.to/lastmile_qr_scan", "android": "https://dc.lft.to/lastmile_qr_scan"}, "is_reserved": 0}, {"lon": -77.02789233333333, "bike_id": "a5c6276569c5bdd9706c6e88b117e9ff", "lat": 38.9540035, "fusion_lon": 0.0, "fusion_lat": 0.0, "type": "electric_scooter", "name": "a5c6276569c5bdd9706c6e88b117e9ff", "is_disabled": 0, "rental_uris": {"ios": "https://dc.lft.to/lastmile_qr_scan", "android": "https://dc.lft.to/lastmile_qr_scan"}, "is_reserved": 0}, {"lon": -76.99130316666667, "bike_id": "3018f78e3f96ea265db7bb66381ea74b", "lat": 38.922723500000004, "fusion_lon": 0.0, "fusion_lat": 0.0, "type": "electric_scooter", "name": "3018f78e3f96ea265db7bb66381ea74b", "is_disabled": 0, "rental_uris": {"ios": "https://dc.lft.to/lastmile_qr_scan", "android": "https://dc.lft.to/lastmile_qr_scan"}, "is_reserved": 0}, {"lon": -77.04603033333333, "bike_id": "c78bbe1f3424c1cdeb14f3fced5bc6d6", "lat": 38.88385433333333, "fusion_lon": 0.0, "fusion_lat": 0.0, "type": "electric_scooter", "name": "c78bbe1f3424c1cdeb14f3fced5bc6d6", "is_disabled": 0, "rental_uris": {"ios": "https://dc.lft.to/lastmile_qr_scan", "android": "https://dc.lft.to/lastmile_qr_scan"}, "is_reserved": 0}, {"lon": -77.02242916666667, "bike_id": "5cb810afa663da5b56ec7bff5f492446", "lat": 38.90859433333333, "fusion_lon": 0.0, "fusion_lat": 0.0, "type": "electric_scooter", "name": "5cb810afa663da5b56ec7bff5f492446", "is_disabled": 0, "rental_uris": {"ios": "https://dc.lft.to/lastmile_qr_scan", "android": "https://dc.lft.to/lastmile_qr_scan"}, "is_reserved": 0}, {"lon": -77.029762, "bike_id": "8ac4d43547e77e9c9a7aa8d913bcf8d7", "lat": 38.91724816666667, "fusion_lon": 0.0, "fusion_lat": 0.0, "type": "electric_scooter", "name": "8ac4d43547e77e9c9a7aa8d913bcf8d7", "is_disabled": 0, "rental_uris": {"ios": "https://dc.lft.to/lastmile_qr_scan", "android": "https://dc.lft.to/lastmile_qr_scan"}, "is_reserved": 0}, {"lon": -77.22799033333334, "bike_id": "f8144600b0676dc06dcfc4b5f2ef66fc", "lat": 38.9101705, "fusion_lon": 0.0, "fusion_lat": 0.0, "type": "electric_bike", "name": "f8144600b0676dc06dcfc4b5f2ef66fc", "is_disabled": 0, "rental_uris": {"ios": "https://dc.lft.to/lastmile_qr_scan", "android": "https://dc.lft.to/lastmile_qr_scan"}, "is_reserved": 0}, {"lon": -77.02000316666667, "bike_id": "cf438dd85849dcb56060d4009787f443", "lat": 38.90450366666666, "fusion_lon": 0.0, "fusion_lat": 0.0, "type": "electric_scooter", "name": "cf438dd85849dcb56060d4009787f443", "is_disabled": 0, "rental_uris": {"ios": "https://dc.lft.to/lastmile_qr_scan", "android": "https://dc.lft.to/lastmile_qr_scan"}, "is_reserved": 0}, {"lon": -77.05733383333333, "bike_id": "3944f057cf817a4d28962730bb6ac39f", "lat": 38.92428833333334, "fusion_lon": 0.0, "fusion_lat": 0.0, "type": "electric_scooter", "name": "3944f057cf817a4d28962730bb6ac39f", "is_disabled": 0, "rental_uris": {"ios": "https://dc.lft.to/lastmile_qr_scan", "android": "https://dc.lft.to/lastmile_qr_scan"}, "is_reserved": 0}, {"lon": -77.0423465, "bike_id": "12fcb7e3f3628b141c24bdf41ac6a537", "lat": 38.91121583333333, "fusion_lon": 0.0, "fusion_lat": 0.0, "type": "electric_scooter", "name": "12fcb7e3f3628b141c24bdf41ac6a537", "is_disabled": 0, "rental_uris": {"ios": "https://dc.lft.to/lastmile_qr_scan", "android": "https://dc.lft.to/lastmile_qr_scan"}, "is_reserved": 0}, {"lon": -77.03119233333334, "bike_id": "7fb9bfacb131a4c791942c57952659cc", "lat": 38.988312666666666, "fusion_lon": 0.0, "fusion_lat": 0.0, "type": "electric_scooter", "name": "7fb9bfacb131a4c791942c57952659cc", "is_disabled": 0, "rental_uris": {"ios": "https://dc.lft.to/lastmile_qr_scan", "android": "https://dc.lft.to/lastmile_qr_scan"}, "is_reserved": 0}, {"lon": -77.01982633333333, "bike_id": "344fc38a4cd443e589fb5e5adfc87faa", "lat": 38.91099616666666, "fusion_lon": 0.0, "fusion_lat": 0.0, "type": "electric_scooter", "name": "344fc38a4cd443e589fb5e5adfc87faa", "is_disabled": 0, "rental_uris": {"ios": "https://dc.lft.to/lastmile_qr_scan", "android": "https://dc.lft.to/lastmile_qr_scan"}, "is_reserved": 0}, {"lon": -77.0238705, "bike_id": "e3ac18dfb5591f4101c5ea8d75ec2a1b", "lat": 38.92075083333334, "fusion_lon": 0.0, "fusion_lat": 0.0, "type": "electric_scooter", "name": "e3ac18dfb5591f4101c5ea8d75ec2a1b", "is_disabled": 0, "rental_uris": {"ios": "https://dc.lft.to/lastmile_qr_scan", "android": "https://dc.lft.to/lastmile_qr_scan"}, "is_reserved": 0}, {"lon": -77.03095, "bike_id": "335ccbba660633a302e530359bba9ab1", "lat": 38.934536, "fusion_lon": 0.0, "fusion_lat": 0.0, "type": "electric_scooter", "name": "335ccbba660633a302e530359bba9ab1", "is_disabled": 0, "rental_uris": {"ios": "https://dc.lft.to/lastmile_qr_scan", "android": "https://dc.lft.to/lastmile_qr_scan"}, "is_reserved": 0}, {"lon": -77.044975, "bike_id": "5d8057ea8f2eea71745aa8efa914abc0", "lat": 38.915989333333336, "fusion_lon": 0.0, "fusion_lat": 0.0, "type": "electric_scooter", "name": "5d8057ea8f2eea71745aa8efa914abc0", "is_disabled": 0, "rental_uris": {"ios": "https://dc.lft.to/lastmile_qr_scan", "android": "https://dc.lft.to/lastmile_qr_scan"}, "is_reserved": 0}, {"lon": -77.03137216666667, "bike_id": "fafb10cef087dddff319d8186b171f2f", "lat": 38.9156375, "fusion_lon": 0.0, "fusion_lat": 0.0, "type": "electric_scooter", "name": "fafb10cef087dddff319d8186b171f2f", "is_disabled": 0, "rental_uris": {"ios": "https://dc.lft.to/lastmile_qr_scan", "android": "https://dc.lft.to/lastmile_qr_scan"}, "is_reserved": 0}, {"lon": -77.03852866666666, "bike_id": "823c78d1beb61d8d51b7a22d1bb858ff", "lat": 38.91805133333333, "fusion_lon": 0.0, "fusion_lat": 0.0, "type": "electric_scooter", "name": "823c78d1beb61d8d51b7a22d1bb858ff", "is_disabled": 0, "rental_uris": {"ios": "https://dc.lft.to/lastmile_qr_scan", "android": "https://dc.lft.to/lastmile_qr_scan"}, "is_reserved": 0}, {"lon": -76.9818455, "bike_id": "86747dd04d764407b41aad0b2e16ddb0", "lat": 38.9260595, "fusion_lon": 0.0, "fusion_lat": 0.0, "type": "electric_scooter", "name": "86747dd04d764407b41aad0b2e16ddb0", "is_disabled": 0, "rental_uris": {"ios": "https://dc.lft.to/lastmile_qr_scan", "android": "https://dc.lft.to/lastmile_qr_scan"}, "is_reserved": 0}, {"lon": -77.04496883333333, "bike_id": "e5ab4f93092b4ecfa9ebdddb991a5726", "lat": 38.9160775, "fusion_lon": 0.0, "fusion_lat": 0.0, "type": "electric_scooter", "name": "e5ab4f93092b4ecfa9ebdddb991a5726", "is_disabled": 0, "rental_uris": {"ios": "https://dc.lft.to/lastmile_qr_scan", "android": "https://dc.lft.to/lastmile_qr_scan"}, "is_reserved": 0}, {"lon": -77.04443433333333, "bike_id": "f5aef151d56c43f6f3e13c5bdde20129", "lat": 38.91873966666667, "fusion_lon": 0.0, "fusion_lat": 0.0, "type": "electric_scooter", "name": "f5aef151d56c43f6f3e13c5bdde20129", "is_disabled": 0, "rental_uris": {"ios": "https://dc.lft.to/lastmile_qr_scan", "android": "https://dc.lft.to/lastmile_qr_scan"}, "is_reserved": 0}, {"lon": -77.02711366666666, "bike_id": "5d6315540d2087ee67dd4bd7ea20b1ef", "lat": 38.927705833333334, "fusion_lon": 0.0, "fusion_lat": 0.0, "type": "electric_scooter", "name": "5d6315540d2087ee67dd4bd7ea20b1ef", "is_disabled": 0, "rental_uris": {"ios": "https://dc.lft.to/lastmile_qr_scan", "android": "https://dc.lft.to/lastmile_qr_scan"}, "is_reserved": 0}, {"lon": -77.08329233333333, "bike_id": "ac5cc3355b8e3c7408a74b7e84ddf1b4", "lat": 38.92990233333333, "fusion_lon": 0.0, "fusion_lat": 0.0, "type": "electric_scooter", "name": "ac5cc3355b8e3c7408a74b7e84ddf1b4", "is_disabled": 0, "rental_uris": {"ios": "https://dc.lft.to/lastmile_qr_scan", "android": "https://dc.lft.to/lastmile_qr_scan"}, "is_reserved": 0}, {"lon": -77.002104, "bike_id": "2353910c60f4f79cb127b22838622249", "lat": 38.8813475, "fusion_lon": 0.0, "fusion_lat": 0.0, "type": "electric_scooter", "name": "2353910c60f4f79cb127b22838622249", "is_disabled": 0, "rental_uris": {"ios": "https://dc.lft.to/lastmile_qr_scan", "android": "https://dc.lft.to/lastmile_qr_scan"}, "is_reserved": 0}, {"lon": -77.04633366666667, "bike_id": "5b9f28082db42fffa947f736f6db7b78", "lat": 38.919129166666664, "fusion_lon": 0.0, "fusion_lat": 0.0, "type": "electric_scooter", "name": "5b9f28082db42fffa947f736f6db7b78", "is_disabled": 0, "rental_uris": {"ios": "https://dc.lft.to/lastmile_qr_scan", "android": "https://dc.lft.to/lastmile_qr_scan"}, "is_reserved": 0}, {"lon": -76.93355083333333, "bike_id": "b58939b551c2fcdc0de1a8b7e714c77b", "lat": 38.898906, "fusion_lon": 0.0, "fusion_lat": 0.0, "type": "electric_scooter", "name": "b58939b551c2fcdc0de1a8b7e714c77b", "is_disabled": 0, "rental_uris": {"ios": "https://dc.lft.to/lastmile_qr_scan", "android": "https://dc.lft.to/lastmile_qr_scan"}, "is_reserved": 0}, {"lon": -77.126511, "bike_id": "f3fd976188a9679024337b27874a022f", "lat": 38.81517933333333, "fusion_lon": 0.0, "fusion_lat": 0.0, "type": "electric_bike", "name": "f3fd976188a9679024337b27874a022f", "is_disabled": 0, "rental_uris": {"ios": "https://dc.lft.to/lastmile_qr_scan", "android": "https://dc.lft.to/lastmile_qr_scan"}, "is_reserved": 0}, {"lon": -77.04802316666667, "bike_id": "80321e14fca1b400310b18dd30ad7b7a", "lat": 38.90954833333333, "fusion_lon": 0.0, "fusion_lat": 0.0, "type": "electric_scooter", "name": "80321e14fca1b400310b18dd30ad7b7a", "is_disabled": 0, "rental_uris": {"ios": "https://dc.lft.to/lastmile_qr_scan", "android": "https://dc.lft.to/lastmile_qr_scan"}, "is_reserved": 0}, {"lon": -76.92735816666666, "bike_id": "708901cfeedb1269cef519d1a955327e", "lat": 38.88965183333333, "fusion_lon": 0.0, "fusion_lat": 0.0, "type": "electric_scooter", "name": "708901cfeedb1269cef519d1a955327e", "is_disabled": 0, "rental_uris": {"ios": "https://dc.lft.to/lastmile_qr_scan", "android": "https://dc.lft.to/lastmile_qr_scan"}, "is_reserved": 0}, {"lon": -77.03207533333334, "bike_id": "52213bd3153fd3cd3008ebe1af7775f4", "lat": 38.9095095, "fusion_lon": 0.0, "fusion_lat": 0.0, "type": "electric_scooter", "name": "52213bd3153fd3cd3008ebe1af7775f4", "is_disabled": 0, "rental_uris": {"ios": "https://dc.lft.to/lastmile_qr_scan", "android": "https://dc.lft.to/lastmile_qr_scan"}, "is_reserved": 0}, {"lon": -77.05350333333334, "bike_id": "79b5f543773ff3c0d7dfc7d6a3754d3d", "lat": 38.92703266666667, "fusion_lon": 0.0, "fusion_lat": 0.0, "type": "electric_scooter", "name": "79b5f543773ff3c0d7dfc7d6a3754d3d", "is_disabled": 0, "rental_uris": {"ios": "https://dc.lft.to/lastmile_qr_scan", "android": "https://dc.lft.to/lastmile_qr_scan"}, "is_reserved": 0}, {"lon": -77.0237055, "bike_id": "756468377083e140f19d3d8ab77dc490", "lat": 38.920599833333334, "fusion_lon": 0.0, "fusion_lat": 0.0, "type": "electric_scooter", "name": "756468377083e140f19d3d8ab77dc490", "is_disabled": 0, "rental_uris": {"ios": "https://dc.lft.to/lastmile_qr_scan", "android": "https://dc.lft.to/lastmile_qr_scan"}, "is_reserved": 0}, {"lon": -77.02255983333333, "bike_id": "f2eac76040d25bf3be131ff49f4d8225", "lat": 38.928281, "fusion_lon": 0.0, "fusion_lat": 0.0, "type": "electric_scooter", "name": "f2eac76040d25bf3be131ff49f4d8225", "is_disabled": 0, "rental_uris": {"ios": "https://dc.lft.to/lastmile_qr_scan", "android": "https://dc.lft.to/lastmile_qr_scan"}, "is_reserved": 0}, {"lon": -76.985691, "bike_id": "35428409fb032ba9637ffda01e8ed9fc", "lat": 38.899593333333335, "fusion_lon": 0.0, "fusion_lat": 0.0, "type": "electric_scooter", "name": "35428409fb032ba9637ffda01e8ed9fc", "is_disabled": 0, "rental_uris": {"ios": "https://dc.lft.to/lastmile_qr_scan", "android": "https://dc.lft.to/lastmile_qr_scan"}, "is_reserved": 0}, {"lon": -76.982902, "bike_id": "f512cf97ebe8b911b4fc0c125e86b6db", "lat": 38.90048733333333, "fusion_lon": 0.0, "fusion_lat": 0.0, "type": "electric_scooter", "name": "f512cf97ebe8b911b4fc0c125e86b6db", "is_disabled": 0, "rental_uris": {"ios": "https://dc.lft.to/lastmile_qr_scan", "android": "https://dc.lft.to/lastmile_qr_scan"}, "is_reserved": 0}, {"lon": -76.991058, "bike_id": "7f92d2633cc2503e43989b7cc4c0d33b", "lat": 38.90324316666667, "fusion_lon": 0.0, "fusion_lat": 0.0, "type": "electric_scooter", "name": "7f92d2633cc2503e43989b7cc4c0d33b", "is_disabled": 0, "rental_uris": {"ios": "https://dc.lft.to/lastmile_qr_scan", "android": "https://dc.lft.to/lastmile_qr_scan"}, "is_reserved": 0}, {"lon": -77.0325985, "bike_id": "ace1e1eb2c9048e96bcdffcfabdd2c6a", "lat": 38.9340895, "fusion_lon": 0.0, "fusion_lat": 0.0, "type": "electric_scooter", "name": "ace1e1eb2c9048e96bcdffcfabdd2c6a", "is_disabled": 0, "rental_uris": {"ios": "https://dc.lft.to/lastmile_qr_scan", "android": "https://dc.lft.to/lastmile_qr_scan"}, "is_reserved": 0}, {"lon": -77.04198116666667, "bike_id": "5ef16049ae2bb45a63394bbceab97e51", "lat": 38.91143233333333, "fusion_lon": 0.0, "fusion_lat": 0.0, "type": "electric_scooter", "name": "5ef16049ae2bb45a63394bbceab97e51", "is_disabled": 0, "rental_uris": {"ios": "https://dc.lft.to/lastmile_qr_scan", "android": "https://dc.lft.to/lastmile_qr_scan"}, "is_reserved": 0}, {"lon": -77.03899383333334, "bike_id": "44221ece02e8b94fdac8eea6a2eefb23", "lat": 38.9236025, "fusion_lon": 0.0, "fusion_lat": 0.0, "type": "electric_scooter", "name": "44221ece02e8b94fdac8eea6a2eefb23", "is_disabled": 0, "rental_uris": {"ios": "https://dc.lft.to/lastmile_qr_scan", "android": "https://dc.lft.to/lastmile_qr_scan"}, "is_reserved": 0}, {"lon": -77.02682366666667, "bike_id": "b6a3ef9a6608aec25f7e2b357367399e", "lat": 38.897258, "fusion_lon": 0.0, "fusion_lat": 0.0, "type": "electric_scooter", "name": "b6a3ef9a6608aec25f7e2b357367399e", "is_disabled": 0, "rental_uris": {"ios": "https://dc.lft.to/lastmile_qr_scan", "android": "https://dc.lft.to/lastmile_qr_scan"}, "is_reserved": 0}, {"lon": -77.039694, "bike_id": "670c4e862ecbe584141daeac6a59872f", "lat": 38.91191216666667, "fusion_lon": 0.0, "fusion_lat": 0.0, "type": "electric_scooter", "name": "670c4e862ecbe584141daeac6a59872f", "is_disabled": 0, "rental_uris": {"ios": "https://dc.lft.to/lastmile_qr_scan", "android": "https://dc.lft.to/lastmile_qr_scan"}, "is_reserved": 0}, {"lon": -77.0350475, "bike_id": "11d563a17507c0947f2bc8ee56c90fa9", "lat": 38.9375305, "fusion_lon": 0.0, "fusion_lat": 0.0, "type": "electric_scooter", "name": "11d563a17507c0947f2bc8ee56c90fa9", "is_disabled": 0, "rental_uris": {"ios": "https://dc.lft.to/lastmile_qr_scan", "android": "https://dc.lft.to/lastmile_qr_scan"}, "is_reserved": 0}, {"lon": -77.01323483333333, "bike_id": "79b6ee0508187778d8e9e3271d298731", "lat": 38.879294333333334, "fusion_lon": 0.0, "fusion_lat": 0.0, "type": "electric_scooter", "name": "79b6ee0508187778d8e9e3271d298731", "is_disabled": 0, "rental_uris": {"ios": "https://dc.lft.to/lastmile_qr_scan", "android": "https://dc.lft.to/lastmile_qr_scan"}, "is_reserved": 0}, {"lon": -77.03171283333333, "bike_id": "11486610614b709d79aa7dc04bdf5e26", "lat": 38.90371716666667, "fusion_lon": 0.0, "fusion_lat": 0.0, "type": "electric_scooter", "name": "11486610614b709d79aa7dc04bdf5e26", "is_disabled": 0, "rental_uris": {"ios": "https://dc.lft.to/lastmile_qr_scan", "android": "https://dc.lft.to/lastmile_qr_scan"}, "is_reserved": 0}, {"lon": -77.06341666666667, "bike_id": "04a98b4906f409b53784a32e235c1096", "lat": 38.906826333333335, "fusion_lon": 0.0, "fusion_lat": 0.0, "type": "electric_scooter", "name": "04a98b4906f409b53784a32e235c1096", "is_disabled": 0, "rental_uris": {"ios": "https://dc.lft.to/lastmile_qr_scan", "android": "https://dc.lft.to/lastmile_qr_scan"}, "is_reserved": 0}, {"lon": -77.01408633333334, "bike_id": "62c1fc8f6a71da42fe7fbff19a595cd7", "lat": 38.91479866666667, "fusion_lon": 0.0, "fusion_lat": 0.0, "type": "electric_scooter", "name": "62c1fc8f6a71da42fe7fbff19a595cd7", "is_disabled": 0, "rental_uris": {"ios": "https://dc.lft.to/lastmile_qr_scan", "android": "https://dc.lft.to/lastmile_qr_scan"}, "is_reserved": 0}, {"lon": -77.08458366666666, "bike_id": "21e4cdb4fc713ed6fe01443fd7376135", "lat": 38.84819133333333, "fusion_lon": 0.0, "fusion_lat": 0.0, "type": "electric_bike", "name": "21e4cdb4fc713ed6fe01443fd7376135", "is_disabled": 0, "rental_uris": {"ios": "https://dc.lft.to/lastmile_qr_scan", "android": "https://dc.lft.to/lastmile_qr_scan"}, "is_reserved": 0}, {"lon": -77.05533433333333, "bike_id": "2633f1becd47034ac1c2e465e98207f5", "lat": 38.934303, "fusion_lon": 0.0, "fusion_lat": 0.0, "type": "electric_scooter", "name": "2633f1becd47034ac1c2e465e98207f5", "is_disabled": 0, "rental_uris": {"ios": "https://dc.lft.to/lastmile_qr_scan", "android": "https://dc.lft.to/lastmile_qr_scan"}, "is_reserved": 0}, {"lon": -77.03498, "bike_id": "4aeb8b8ed00885d88c28cb8e6558431b", "lat": 38.92474833333333, "fusion_lon": 0.0, "fusion_lat": 0.0, "type": "electric_scooter", "name": "4aeb8b8ed00885d88c28cb8e6558431b", "is_disabled": 0, "rental_uris": {"ios": "https://dc.lft.to/lastmile_qr_scan", "android": "https://dc.lft.to/lastmile_qr_scan"}, "is_reserved": 0}, {"lon": -76.9807195, "bike_id": "cb88a2be6ef8fc941a811e7c36c2e073", "lat": 38.90177683333334, "fusion_lon": 0.0, "fusion_lat": 0.0, "type": "electric_scooter", "name": "cb88a2be6ef8fc941a811e7c36c2e073", "is_disabled": 0, "rental_uris": {"ios": "https://dc.lft.to/lastmile_qr_scan", "android": "https://dc.lft.to/lastmile_qr_scan"}, "is_reserved": 0}, {"lon": -77.0036595, "bike_id": "5c86304bbe45e9706e5adf16459dc341", "lat": 38.89936933333333, "fusion_lon": 0.0, "fusion_lat": 0.0, "type": "electric_scooter", "name": "5c86304bbe45e9706e5adf16459dc341", "is_disabled": 0, "rental_uris": {"ios": "https://dc.lft.to/lastmile_qr_scan", "android": "https://dc.lft.to/lastmile_qr_scan"}, "is_reserved": 0}, {"lon": -77.0341615, "bike_id": "05ed97161ce3f5ba2e59ae25e8169c81", "lat": 38.922458666666664, "fusion_lon": 0.0, "fusion_lat": 0.0, "type": "electric_scooter", "name": "05ed97161ce3f5ba2e59ae25e8169c81", "is_disabled": 0, "rental_uris": {"ios": "https://dc.lft.to/lastmile_qr_scan", "android": "https://dc.lft.to/lastmile_qr_scan"}, "is_reserved": 0}, {"lon": -76.9772445, "bike_id": "1956fa3b64ce8acb55204e4d11a64ef9", "lat": 38.87245083333333, "fusion_lon": 0.0, "fusion_lat": 0.0, "type": "electric_scooter", "name": "1956fa3b64ce8acb55204e4d11a64ef9", "is_disabled": 0, "rental_uris": {"ios": "https://dc.lft.to/lastmile_qr_scan", "android": "https://dc.lft.to/lastmile_qr_scan"}, "is_reserved": 0}, {"lon": -77.0680665, "bike_id": "e0da4d5b47e23e33e0889ddb9855b5ee", "lat": 38.91273366666667, "fusion_lon": 0.0, "fusion_lat": 0.0, "type": "electric_scooter", "name": "e0da4d5b47e23e33e0889ddb9855b5ee", "is_disabled": 0, "rental_uris": {"ios": "https://dc.lft.to/lastmile_qr_scan", "android": "https://dc.lft.to/lastmile_qr_scan"}, "is_reserved": 0}, {"lon": -76.92108916666666, "bike_id": "77a3965cd8e11c1ae1e0e7907ee3cea9", "lat": 38.89107533333333, "fusion_lon": 0.0, "fusion_lat": 0.0, "type": "electric_scooter", "name": "77a3965cd8e11c1ae1e0e7907ee3cea9", "is_disabled": 0, "rental_uris": {"ios": "https://dc.lft.to/lastmile_qr_scan", "android": "https://dc.lft.to/lastmile_qr_scan"}, "is_reserved": 0}, {"lon": -77.139239, "bike_id": "87905c742e52d1ac274302e7dd2ffd61", "lat": 38.873012833333334, "fusion_lon": 0.0, "fusion_lat": 0.0, "type": "electric_bike", "name": "87905c742e52d1ac274302e7dd2ffd61", "is_disabled": 0, "rental_uris": {"ios": "https://dc.lft.to/lastmile_qr_scan", "android": "https://dc.lft.to/lastmile_qr_scan"}, "is_reserved": 0}, {"lon": -76.97207333333333, "bike_id": "3fa447321926350cc118713bea275c40", "lat": 38.89291816666667, "fusion_lon": 0.0, "fusion_lat": 0.0, "type": "electric_bike", "name": "3fa447321926350cc118713bea275c40", "is_disabled": 0, "rental_uris": {"ios": "https://dc.lft.to/lastmile_qr_scan", "android": "https://dc.lft.to/lastmile_qr_scan"}, "is_reserved": 0}, {"lon": -76.98237866666666, "bike_id": "047641e6a384553f1f79478f82ddacaf", "lat": 38.864784, "fusion_lon": 0.0, "fusion_lat": 0.0, "type": "electric_scooter", "name": "047641e6a384553f1f79478f82ddacaf", "is_disabled": 0, "rental_uris": {"ios": "https://dc.lft.to/lastmile_qr_scan", "android": "https://dc.lft.to/lastmile_qr_scan"}, "is_reserved": 0}, {"lon": -77.0181405, "bike_id": "3095ad6a0b392344dcd4fd1d1d293905", "lat": 38.900839833333336, "fusion_lon": 0.0, "fusion_lat": 0.0, "type": "electric_scooter", "name": "3095ad6a0b392344dcd4fd1d1d293905", "is_disabled": 0, "rental_uris": {"ios": "https://dc.lft.to/lastmile_qr_scan", "android": "https://dc.lft.to/lastmile_qr_scan"}, "is_reserved": 0}, {"lon": -77.056168, "bike_id": "cac43424e28c08f575d86f9753cb35d5", "lat": 38.92345366666667, "fusion_lon": 0.0, "fusion_lat": 0.0, "type": "electric_scooter", "name": "cac43424e28c08f575d86f9753cb35d5", "is_disabled": 0, "rental_uris": {"ios": "https://dc.lft.to/lastmile_qr_scan", "android": "https://dc.lft.to/lastmile_qr_scan"}, "is_reserved": 0}, {"lon": -77.00975233333334, "bike_id": "aca1ddb1fb4e6157a34f0512f17e38d0", "lat": 38.87075466666667, "fusion_lon": 0.0, "fusion_lat": 0.0, "type": "electric_scooter", "name": "aca1ddb1fb4e6157a34f0512f17e38d0", "is_disabled": 0, "rental_uris": {"ios": "https://dc.lft.to/lastmile_qr_scan", "android": "https://dc.lft.to/lastmile_qr_scan"}, "is_reserved": 0}, {"lon": -77.03509166666667, "bike_id": "0c9708434a87d4990ca62879af438964", "lat": 38.96530666666666, "fusion_lon": 0.0, "fusion_lat": 0.0, "type": "electric_bike", "name": "0c9708434a87d4990ca62879af438964", "is_disabled": 0, "rental_uris": {"ios": "https://dc.lft.to/lastmile_qr_scan", "android": "https://dc.lft.to/lastmile_qr_scan"}, "is_reserved": 0}, {"lon": -76.98838383333333, "bike_id": "c5634f22dc9c19831538fbd9c77f563e", "lat": 38.8966725, "fusion_lon": 0.0, "fusion_lat": 0.0, "type": "electric_scooter", "name": "c5634f22dc9c19831538fbd9c77f563e", "is_disabled": 0, "rental_uris": {"ios": "https://dc.lft.to/lastmile_qr_scan", "android": "https://dc.lft.to/lastmile_qr_scan"}, "is_reserved": 0}, {"lon": -77.02510016666666, "bike_id": "f2ac3a3c30c382d4c69029c059e7cdf7", "lat": 38.9031855, "fusion_lon": 0.0, "fusion_lat": 0.0, "type": "electric_scooter", "name": "f2ac3a3c30c382d4c69029c059e7cdf7", "is_disabled": 0, "rental_uris": {"ios": "https://dc.lft.to/lastmile_qr_scan", "android": "https://dc.lft.to/lastmile_qr_scan"}, "is_reserved": 0}, {"lon": -77.02209683333334, "bike_id": "3f89b636b9dedb5ff14328e418921b74", "lat": 38.89353633333333, "fusion_lon": 0.0, "fusion_lat": 0.0, "type": "electric_scooter", "name": "3f89b636b9dedb5ff14328e418921b74", "is_disabled": 0, "rental_uris": {"ios": "https://dc.lft.to/lastmile_qr_scan", "android": "https://dc.lft.to/lastmile_qr_scan"}, "is_reserved": 0}, {"lon": -77.01698683333333, "bike_id": "d9cebe21d241e57fd42eb7cdb73e06ca", "lat": 38.904427, "fusion_lon": 0.0, "fusion_lat": 0.0, "type": "electric_scooter", "name": "d9cebe21d241e57fd42eb7cdb73e06ca", "is_disabled": 0, "rental_uris": {"ios": "https://dc.lft.to/lastmile_qr_scan", "android": "https://dc.lft.to/lastmile_qr_scan"}, "is_reserved": 0}, {"lon": -76.98554283333333, "bike_id": "24c1d18216b2add9a6e69812913cf440", "lat": 38.90719633333333, "fusion_lon": 0.0, "fusion_lat": 0.0, "type": "electric_scooter", "name": "24c1d18216b2add9a6e69812913cf440", "is_disabled": 0, "rental_uris": {"ios": "https://dc.lft.to/lastmile_qr_scan", "android": "https://dc.lft.to/lastmile_qr_scan"}, "is_reserved": 0}, {"lon": -77.02787566666667, "bike_id": "20dd0444432712df14b566fdaba77869", "lat": 38.92979033333334, "fusion_lon": 0.0, "fusion_lat": 0.0, "type": "electric_scooter", "name": "20dd0444432712df14b566fdaba77869", "is_disabled": 0, "rental_uris": {"ios": "https://dc.lft.to/lastmile_qr_scan", "android": "https://dc.lft.to/lastmile_qr_scan"}, "is_reserved": 0}, {"lon": -76.97243833333333, "bike_id": "6413753f9d8c4e8191a6bb61d8db6134", "lat": 38.903438666666666, "fusion_lon": 0.0, "fusion_lat": 0.0, "type": "electric_scooter", "name": "6413753f9d8c4e8191a6bb61d8db6134", "is_disabled": 0, "rental_uris": {"ios": "https://dc.lft.to/lastmile_qr_scan", "android": "https://dc.lft.to/lastmile_qr_scan"}, "is_reserved": 0}, {"lon": -76.98334783333334, "bike_id": "d0113731018901e12548ef5d307db6fe", "lat": 38.895464, "fusion_lon": 0.0, "fusion_lat": 0.0, "type": "electric_scooter", "name": "d0113731018901e12548ef5d307db6fe", "is_disabled": 0, "rental_uris": {"ios": "https://dc.lft.to/lastmile_qr_scan", "android": "https://dc.lft.to/lastmile_qr_scan"}, "is_reserved": 0}, {"lon": -76.99709266666666, "bike_id": "75499c7a4692e577a309f6de68decc62", "lat": 38.892529, "fusion_lon": 0.0, "fusion_lat": 0.0, "type": "electric_scooter", "name": "75499c7a4692e577a309f6de68decc62", "is_disabled": 0, "rental_uris": {"ios": "https://dc.lft.to/lastmile_qr_scan", "android": "https://dc.lft.to/lastmile_qr_scan"}, "is_reserved": 0}, {"lon": -77.01991933333333, "bike_id": "77a0f68a852a13de598376b77fc63a86", "lat": 38.88592216666667, "fusion_lon": 0.0, "fusion_lat": 0.0, "type": "electric_scooter", "name": "77a0f68a852a13de598376b77fc63a86", "is_disabled": 0, "rental_uris": {"ios": "https://dc.lft.to/lastmile_qr_scan", "android": "https://dc.lft.to/lastmile_qr_scan"}, "is_reserved": 0}, {"lon": -76.99103866666667, "bike_id": "67b3b8bbd6359f4482bf5bf791212dd3", "lat": 38.90319016666667, "fusion_lon": 0.0, "fusion_lat": 0.0, "type": "electric_scooter", "name": "67b3b8bbd6359f4482bf5bf791212dd3", "is_disabled": 0, "rental_uris": {"ios": "https://dc.lft.to/lastmile_qr_scan", "android": "https://dc.lft.to/lastmile_qr_scan"}, "is_reserved": 0}, {"lon": -77.01834083333334, "bike_id": "7b23f365406469dc046633514436f962", "lat": 38.90931616666667, "fusion_lon": 0.0, "fusion_lat": 0.0, "type": "electric_scooter", "name": "7b23f365406469dc046633514436f962", "is_disabled": 0, "rental_uris": {"ios": "https://dc.lft.to/lastmile_qr_scan", "android": "https://dc.lft.to/lastmile_qr_scan"}, "is_reserved": 0}, {"lon": -77.04873316666666, "bike_id": "dbd212129fa2eb71d2f52ecf02a9a545", "lat": 38.906122, "fusion_lon": 0.0, "fusion_lat": 0.0, "type": "electric_scooter", "name": "dbd212129fa2eb71d2f52ecf02a9a545", "is_disabled": 0, "rental_uris": {"ios": "https://dc.lft.to/lastmile_qr_scan", "android": "https://dc.lft.to/lastmile_qr_scan"}, "is_reserved": 0}, {"lon": -77.0151225, "bike_id": "a94cccd082660992e40ae167f31550bb", "lat": 38.918713833333335, "fusion_lon": 0.0, "fusion_lat": 0.0, "type": "electric_scooter", "name": "a94cccd082660992e40ae167f31550bb", "is_disabled": 0, "rental_uris": {"ios": "https://dc.lft.to/lastmile_qr_scan", "android": "https://dc.lft.to/lastmile_qr_scan"}, "is_reserved": 0}, {"lon": -77.0733455, "bike_id": "5a7e1103c7329da7ba6eebe4d7a9dddb", "lat": 38.92499316666667, "fusion_lon": 0.0, "fusion_lat": 0.0, "type": "electric_bike", "name": "5a7e1103c7329da7ba6eebe4d7a9dddb", "is_disabled": 0, "rental_uris": {"ios": "https://dc.lft.to/lastmile_qr_scan", "android": "https://dc.lft.to/lastmile_qr_scan"}, "is_reserved": 0}, {"lon": -76.933714, "bike_id": "77f8500e10ddbe0f1238a3918958080c", "lat": 38.89911083333333, "fusion_lon": 0.0, "fusion_lat": 0.0, "type": "electric_scooter", "name": "77f8500e10ddbe0f1238a3918958080c", "is_disabled": 0, "rental_uris": {"ios": "https://dc.lft.to/lastmile_qr_scan", "android": "https://dc.lft.to/lastmile_qr_scan"}, "is_reserved": 0}, {"lon": -77.0422745, "bike_id": "a7af9a0758b3b53feeff2bdfd01b2a9a", "lat": 38.92184183333333, "fusion_lon": 0.0, "fusion_lat": 0.0, "type": "electric_scooter", "name": "a7af9a0758b3b53feeff2bdfd01b2a9a", "is_disabled": 0, "rental_uris": {"ios": "https://dc.lft.to/lastmile_qr_scan", "android": "https://dc.lft.to/lastmile_qr_scan"}, "is_reserved": 0}, {"lon": -77.03945066666667, "bike_id": "a8feb9de546de808485937f23809b677", "lat": 38.930678666666665, "fusion_lon": 0.0, "fusion_lat": 0.0, "type": "electric_scooter", "name": "a8feb9de546de808485937f23809b677", "is_disabled": 0, "rental_uris": {"ios": "https://dc.lft.to/lastmile_qr_scan", "android": "https://dc.lft.to/lastmile_qr_scan"}, "is_reserved": 0}, {"lon": -77.03175033333333, "bike_id": "9fb28381cc39e27eda7242aec9ed1752", "lat": 38.88737, "fusion_lon": 0.0, "fusion_lat": 0.0, "type": "electric_scooter", "name": "9fb28381cc39e27eda7242aec9ed1752", "is_disabled": 0, "rental_uris": {"ios": "https://dc.lft.to/lastmile_qr_scan", "android": "https://dc.lft.to/lastmile_qr_scan"}, "is_reserved": 0}, {"lon": -77.0297415, "bike_id": "821a49fec8b268530aa227e6797c0826", "lat": 38.932868, "fusion_lon": 0.0, "fusion_lat": 0.0, "type": "electric_scooter", "name": "821a49fec8b268530aa227e6797c0826", "is_disabled": 0, "rental_uris": {"ios": "https://dc.lft.to/lastmile_qr_scan", "android": "https://dc.lft.to/lastmile_qr_scan"}, "is_reserved": 0}, {"lon": -76.98178233333333, "bike_id": "5c8ecb493037d9b985233398170f91bd", "lat": 38.8958, "fusion_lon": 0.0, "fusion_lat": 0.0, "type": "electric_scooter", "name": "5c8ecb493037d9b985233398170f91bd", "is_disabled": 0, "rental_uris": {"ios": "https://dc.lft.to/lastmile_qr_scan", "android": "https://dc.lft.to/lastmile_qr_scan"}, "is_reserved": 0}, {"lon": -77.0433975, "bike_id": "a6165d04f1c9366a7c019d3977850b69", "lat": 38.929672, "fusion_lon": 0.0, "fusion_lat": 0.0, "type": "electric_scooter", "name": "a6165d04f1c9366a7c019d3977850b69", "is_disabled": 0, "rental_uris": {"ios": "https://dc.lft.to/lastmile_qr_scan", "android": "https://dc.lft.to/lastmile_qr_scan"}, "is_reserved": 0}, {"lon": -77.02822766666667, "bike_id": "873a32d5960b8c5ff3c102baa5d206da", "lat": 38.90247683333333, "fusion_lon": 0.0, "fusion_lat": 0.0, "type": "electric_scooter", "name": "873a32d5960b8c5ff3c102baa5d206da", "is_disabled": 0, "rental_uris": {"ios": "https://dc.lft.to/lastmile_qr_scan", "android": "https://dc.lft.to/lastmile_qr_scan"}, "is_reserved": 0}, {"lon": -76.98371166666666, "bike_id": "bd1263233bf4d49f234da55a284c19f2", "lat": 38.89980666666666, "fusion_lon": 0.0, "fusion_lat": 0.0, "type": "electric_scooter", "name": "bd1263233bf4d49f234da55a284c19f2", "is_disabled": 0, "rental_uris": {"ios": "https://dc.lft.to/lastmile_qr_scan", "android": "https://dc.lft.to/lastmile_qr_scan"}, "is_reserved": 0}, {"lon": -77.02295, "bike_id": "aa5379500e09c226a4cbacb6b6cdf1c1", "lat": 38.9097865, "fusion_lon": 0.0, "fusion_lat": 0.0, "type": "electric_scooter", "name": "aa5379500e09c226a4cbacb6b6cdf1c1", "is_disabled": 0, "rental_uris": {"ios": "https://dc.lft.to/lastmile_qr_scan", "android": "https://dc.lft.to/lastmile_qr_scan"}, "is_reserved": 0}, {"lon": -77.01826216666667, "bike_id": "66837f668ae1902c37666e899361dde6", "lat": 38.90266466666667, "fusion_lon": 0.0, "fusion_lat": 0.0, "type": "electric_scooter", "name": "66837f668ae1902c37666e899361dde6", "is_disabled": 0, "rental_uris": {"ios": "https://dc.lft.to/lastmile_qr_scan", "android": "https://dc.lft.to/lastmile_qr_scan"}, "is_reserved": 0}, {"lon": -77.04145933333334, "bike_id": "aef3939f118fa9953be327b7a1d921fb", "lat": 38.90629783333333, "fusion_lon": 0.0, "fusion_lat": 0.0, "type": "electric_scooter", "name": "aef3939f118fa9953be327b7a1d921fb", "is_disabled": 0, "rental_uris": {"ios": "https://dc.lft.to/lastmile_qr_scan", "android": "https://dc.lft.to/lastmile_qr_scan"}, "is_reserved": 0}, {"lon": -77.0147995, "bike_id": "ed578394cf8889c5b4622d7db70acf2c", "lat": 38.958693, "fusion_lon": 0.0, "fusion_lat": 0.0, "type": "electric_scooter", "name": "ed578394cf8889c5b4622d7db70acf2c", "is_disabled": 0, "rental_uris": {"ios": "https://dc.lft.to/lastmile_qr_scan", "android": "https://dc.lft.to/lastmile_qr_scan"}, "is_reserved": 0}, {"lon": -77.02923933333334, "bike_id": "d15a685a9caaa2844dc1b1715f5fb7cb", "lat": 38.91686883333333, "fusion_lon": 0.0, "fusion_lat": 0.0, "type": "electric_scooter", "name": "d15a685a9caaa2844dc1b1715f5fb7cb", "is_disabled": 0, "rental_uris": {"ios": "https://dc.lft.to/lastmile_qr_scan", "android": "https://dc.lft.to/lastmile_qr_scan"}, "is_reserved": 0}, {"lon": -77.11571666666667, "bike_id": "caaba969157b02fe8cc4025b84294597", "lat": 38.99347783333333, "fusion_lon": 0.0, "fusion_lat": 0.0, "type": "electric_bike", "name": "caaba969157b02fe8cc4025b84294597", "is_disabled": 0, "rental_uris": {"ios": "https://dc.lft.to/lastmile_qr_scan", "android": "https://dc.lft.to/lastmile_qr_scan"}, "is_reserved": 0}, {"lon": -77.03642183333334, "bike_id": "78a69e82df016bb2805391958bb895f5", "lat": 38.91830083333333, "fusion_lon": 0.0, "fusion_lat": 0.0, "type": "electric_scooter", "name": "78a69e82df016bb2805391958bb895f5", "is_disabled": 0, "rental_uris": {"ios": "https://dc.lft.to/lastmile_qr_scan", "android": "https://dc.lft.to/lastmile_qr_scan"}, "is_reserved": 0}, {"lon": -77.023273, "bike_id": "7a26af52720ddf4be2b9ef9cf06340e6", "lat": 38.918498666666665, "fusion_lon": 0.0, "fusion_lat": 0.0, "type": "electric_scooter", "name": "7a26af52720ddf4be2b9ef9cf06340e6", "is_disabled": 0, "rental_uris": {"ios": "https://dc.lft.to/lastmile_qr_scan", "android": "https://dc.lft.to/lastmile_qr_scan"}, "is_reserved": 0}, {"lon": -77.07393016666667, "bike_id": "42628ef7dc590c1e5fcca3d2406a9a23", "lat": 38.962125666666665, "fusion_lon": 0.0, "fusion_lat": 0.0, "type": "electric_scooter", "name": "42628ef7dc590c1e5fcca3d2406a9a23", "is_disabled": 0, "rental_uris": {"ios": "https://dc.lft.to/lastmile_qr_scan", "android": "https://dc.lft.to/lastmile_qr_scan"}, "is_reserved": 0}, {"lon": -77.02672866666667, "bike_id": "334005d907da68816851130a92d90d56", "lat": 38.90263316666667, "fusion_lon": 0.0, "fusion_lat": 0.0, "type": "electric_scooter", "name": "334005d907da68816851130a92d90d56", "is_disabled": 0, "rental_uris": {"ios": "https://dc.lft.to/lastmile_qr_scan", "android": "https://dc.lft.to/lastmile_qr_scan"}, "is_reserved": 0}, {"lon": -77.034461, "bike_id": "e914e3dcd9e02ad12b2584c1e154195e", "lat": 38.936140333333334, "fusion_lon": 0.0, "fusion_lat": 0.0, "type": "electric_scooter", "name": "e914e3dcd9e02ad12b2584c1e154195e", "is_disabled": 0, "rental_uris": {"ios": "https://dc.lft.to/lastmile_qr_scan", "android": "https://dc.lft.to/lastmile_qr_scan"}, "is_reserved": 0}, {"lon": -76.98528733333333, "bike_id": "4da138f76acbdd3654945571a7ad5f75", "lat": 38.866840333333336, "fusion_lon": 0.0, "fusion_lat": 0.0, "type": "electric_scooter", "name": "4da138f76acbdd3654945571a7ad5f75", "is_disabled": 0, "rental_uris": {"ios": "https://dc.lft.to/lastmile_qr_scan", "android": "https://dc.lft.to/lastmile_qr_scan"}, "is_reserved": 0}, {"lon": -77.03762383333333, "bike_id": "12edb56ec10952b7798cc852c7592c06", "lat": 38.92011816666667, "fusion_lon": 0.0, "fusion_lat": 0.0, "type": "electric_scooter", "name": "12edb56ec10952b7798cc852c7592c06", "is_disabled": 0, "rental_uris": {"ios": "https://dc.lft.to/lastmile_qr_scan", "android": "https://dc.lft.to/lastmile_qr_scan"}, "is_reserved": 0}, {"lon": -77.02752616666666, "bike_id": "091810b89307fc117a2dd5ffd5fcaa81", "lat": 38.93336816666667, "fusion_lon": 0.0, "fusion_lat": 0.0, "type": "electric_scooter", "name": "091810b89307fc117a2dd5ffd5fcaa81", "is_disabled": 0, "rental_uris": {"ios": "https://dc.lft.to/lastmile_qr_scan", "android": "https://dc.lft.to/lastmile_qr_scan"}, "is_reserved": 0}, {"lon": -77.03264216666666, "bike_id": "53d47d482e1d8e77a48b834e10fd8ed1", "lat": 38.932385833333335, "fusion_lon": 0.0, "fusion_lat": 0.0, "type": "electric_scooter", "name": "53d47d482e1d8e77a48b834e10fd8ed1", "is_disabled": 0, "rental_uris": {"ios": "https://dc.lft.to/lastmile_qr_scan", "android": "https://dc.lft.to/lastmile_qr_scan"}, "is_reserved": 0}, {"lon": -77.01784816666667, "bike_id": "11c5c70294bc56c2bc3c466e8e76d8a3", "lat": 38.905023, "fusion_lon": 0.0, "fusion_lat": 0.0, "type": "electric_scooter", "name": "11c5c70294bc56c2bc3c466e8e76d8a3", "is_disabled": 0, "rental_uris": {"ios": "https://dc.lft.to/lastmile_qr_scan", "android": "https://dc.lft.to/lastmile_qr_scan"}, "is_reserved": 0}, {"lon": -76.98377183333334, "bike_id": "a89967edbb701866ad48fd2afe880744", "lat": 38.89605266666667, "fusion_lon": 0.0, "fusion_lat": 0.0, "type": "electric_scooter", "name": "a89967edbb701866ad48fd2afe880744", "is_disabled": 0, "rental_uris": {"ios": "https://dc.lft.to/lastmile_qr_scan", "android": "https://dc.lft.to/lastmile_qr_scan"}, "is_reserved": 0}, {"lon": -77.02165533333333, "bike_id": "da453cfb23b5b58f505a562e66de7fa8", "lat": 38.929925, "fusion_lon": 0.0, "fusion_lat": 0.0, "type": "electric_scooter", "name": "da453cfb23b5b58f505a562e66de7fa8", "is_disabled": 0, "rental_uris": {"ios": "https://dc.lft.to/lastmile_qr_scan", "android": "https://dc.lft.to/lastmile_qr_scan"}, "is_reserved": 0}, {"lon": -77.03542783333333, "bike_id": "0dc9aec83140d5f7dac373ed81f2a6de", "lat": 38.92577166666667, "fusion_lon": 0.0, "fusion_lat": 0.0, "type": "electric_scooter", "name": "0dc9aec83140d5f7dac373ed81f2a6de", "is_disabled": 0, "rental_uris": {"ios": "https://dc.lft.to/lastmile_qr_scan", "android": "https://dc.lft.to/lastmile_qr_scan"}, "is_reserved": 0}, {"lon": -77.03262433333333, "bike_id": "afb7d26ba570b0e7ce4293bdc4601d39", "lat": 38.93773483333333, "fusion_lon": 0.0, "fusion_lat": 0.0, "type": "electric_scooter", "name": "afb7d26ba570b0e7ce4293bdc4601d39", "is_disabled": 0, "rental_uris": {"ios": "https://dc.lft.to/lastmile_qr_scan", "android": "https://dc.lft.to/lastmile_qr_scan"}, "is_reserved": 0}, {"lon": -77.04223083333333, "bike_id": "7fb77064359cec98fd881d326a73f171", "lat": 38.91340833333334, "fusion_lon": 0.0, "fusion_lat": 0.0, "type": "electric_scooter", "name": "7fb77064359cec98fd881d326a73f171", "is_disabled": 0, "rental_uris": {"ios": "https://dc.lft.to/lastmile_qr_scan", "android": "https://dc.lft.to/lastmile_qr_scan"}, "is_reserved": 0}, {"lon": -77.03587866666666, "bike_id": "7210fe8051c1760e08a2f0c3bf7d7225", "lat": 38.91047916666667, "fusion_lon": 0.0, "fusion_lat": 0.0, "type": "electric_scooter", "name": "7210fe8051c1760e08a2f0c3bf7d7225", "is_disabled": 0, "rental_uris": {"ios": "https://dc.lft.to/lastmile_qr_scan", "android": "https://dc.lft.to/lastmile_qr_scan"}, "is_reserved": 0}, {"lon": -77.033275, "bike_id": "a2636745c4cedf5345f084d9cb3b19a4", "lat": 38.94716966666667, "fusion_lon": 0.0, "fusion_lat": 0.0, "type": "electric_scooter", "name": "a2636745c4cedf5345f084d9cb3b19a4", "is_disabled": 0, "rental_uris": {"ios": "https://dc.lft.to/lastmile_qr_scan", "android": "https://dc.lft.to/lastmile_qr_scan"}, "is_reserved": 0}, {"lon": -77.04674316666667, "bike_id": "dc19c502ff6312cb5527549f8119f836", "lat": 38.907196166666665, "fusion_lon": 0.0, "fusion_lat": 0.0, "type": "electric_scooter", "name": "dc19c502ff6312cb5527549f8119f836", "is_disabled": 0, "rental_uris": {"ios": "https://dc.lft.to/lastmile_qr_scan", "android": "https://dc.lft.to/lastmile_qr_scan"}, "is_reserved": 0}, {"lon": -76.99289983333334, "bike_id": "c852a8a5550733c1cbf01b695a384ce2", "lat": 38.898869166666664, "fusion_lon": 0.0, "fusion_lat": 0.0, "type": "electric_scooter", "name": "c852a8a5550733c1cbf01b695a384ce2", "is_disabled": 0, "rental_uris": {"ios": "https://dc.lft.to/lastmile_qr_scan", "android": "https://dc.lft.to/lastmile_qr_scan"}, "is_reserved": 0}, {"lon": -77.03194016666667, "bike_id": "8b5a185007c643cfb92aef46ccb83181", "lat": 38.927805166666666, "fusion_lon": 0.0, "fusion_lat": 0.0, "type": "electric_scooter", "name": "8b5a185007c643cfb92aef46ccb83181", "is_disabled": 0, "rental_uris": {"ios": "https://dc.lft.to/lastmile_qr_scan", "android": "https://dc.lft.to/lastmile_qr_scan"}, "is_reserved": 0}, {"lon": -76.9411085, "bike_id": "b73ba6483299968af4a147d84564ae0e", "lat": 38.88643783333333, "fusion_lon": 0.0, "fusion_lat": 0.0, "type": "electric_scooter", "name": "b73ba6483299968af4a147d84564ae0e", "is_disabled": 0, "rental_uris": {"ios": "https://dc.lft.to/lastmile_qr_scan", "android": "https://dc.lft.to/lastmile_qr_scan"}, "is_reserved": 0}, {"lon": -76.946321, "bike_id": "fa6d565353a73424f46c25b10bc3189e", "lat": 38.89833633333333, "fusion_lon": 0.0, "fusion_lat": 0.0, "type": "electric_scooter", "name": "fa6d565353a73424f46c25b10bc3189e", "is_disabled": 0, "rental_uris": {"ios": "https://dc.lft.to/lastmile_qr_scan", "android": "https://dc.lft.to/lastmile_qr_scan"}, "is_reserved": 0}, {"lon": -77.047309, "bike_id": "53862e39353afb12a4525fcce5c4b5a0", "lat": 38.90721166666667, "fusion_lon": 0.0, "fusion_lat": 0.0, "type": "electric_scooter", "name": "53862e39353afb12a4525fcce5c4b5a0", "is_disabled": 0, "rental_uris": {"ios": "https://dc.lft.to/lastmile_qr_scan", "android": "https://dc.lft.to/lastmile_qr_scan"}, "is_reserved": 0}, {"lon": -77.027937, "bike_id": "4a8456dda828e0d8a4ad90f7099cba56", "lat": 38.930833666666665, "fusion_lon": 0.0, "fusion_lat": 0.0, "type": "electric_scooter", "name": "4a8456dda828e0d8a4ad90f7099cba56", "is_disabled": 0, "rental_uris": {"ios": "https://dc.lft.to/lastmile_qr_scan", "android": "https://dc.lft.to/lastmile_qr_scan"}, "is_reserved": 0}, {"lon": -77.04856783333334, "bike_id": "16a584314fa6c3d7b8359cd281ac51f0", "lat": 38.904402833333336, "fusion_lon": 0.0, "fusion_lat": 0.0, "type": "electric_scooter", "name": "16a584314fa6c3d7b8359cd281ac51f0", "is_disabled": 0, "rental_uris": {"ios": "https://dc.lft.to/lastmile_qr_scan", "android": "https://dc.lft.to/lastmile_qr_scan"}, "is_reserved": 0}, {"lon": -77.0326095, "bike_id": "a95cc6bea6b41878357a582cef971810", "lat": 38.937747333333334, "fusion_lon": 0.0, "fusion_lat": 0.0, "type": "electric_scooter", "name": "a95cc6bea6b41878357a582cef971810", "is_disabled": 0, "rental_uris": {"ios": "https://dc.lft.to/lastmile_qr_scan", "android": "https://dc.lft.to/lastmile_qr_scan"}, "is_reserved": 0}, {"lon": -76.9849335, "bike_id": "e52164a36558ad71a5a0c0f0ae3bb48a", "lat": 38.878379333333335, "fusion_lon": 0.0, "fusion_lat": 0.0, "type": "electric_scooter", "name": "e52164a36558ad71a5a0c0f0ae3bb48a", "is_disabled": 0, "rental_uris": {"ios": "https://dc.lft.to/lastmile_qr_scan", "android": "https://dc.lft.to/lastmile_qr_scan"}, "is_reserved": 0}, {"lon": -77.03090916666666, "bike_id": "6ad37145f0521065984ee9adf76643eb", "lat": 38.93459333333333, "fusion_lon": 0.0, "fusion_lat": 0.0, "type": "electric_scooter", "name": "6ad37145f0521065984ee9adf76643eb", "is_disabled": 0, "rental_uris": {"ios": "https://dc.lft.to/lastmile_qr_scan", "android": "https://dc.lft.to/lastmile_qr_scan"}, "is_reserved": 0}, {"lon": -77.05216, "bike_id": "becf9929373b4149b0f69599361986a0", "lat": 38.915636166666665, "fusion_lon": 0.0, "fusion_lat": 0.0, "type": "electric_scooter", "name": "becf9929373b4149b0f69599361986a0", "is_disabled": 0, "rental_uris": {"ios": "https://dc.lft.to/lastmile_qr_scan", "android": "https://dc.lft.to/lastmile_qr_scan"}, "is_reserved": 0}, {"lon": -76.96527766666667, "bike_id": "2a4955194d84beaa9f4113cc225260bb", "lat": 38.8763075, "fusion_lon": 0.0, "fusion_lat": 0.0, "type": "electric_scooter", "name": "2a4955194d84beaa9f4113cc225260bb", "is_disabled": 0, "rental_uris": {"ios": "https://dc.lft.to/lastmile_qr_scan", "android": "https://dc.lft.to/lastmile_qr_scan"}, "is_reserved": 0}, {"lon": -77.0570475, "bike_id": "d5320eb6d840cb499185d252ff4e6868", "lat": 38.9054845, "fusion_lon": 0.0, "fusion_lat": 0.0, "type": "electric_scooter", "name": "d5320eb6d840cb499185d252ff4e6868", "is_disabled": 0, "rental_uris": {"ios": "https://dc.lft.to/lastmile_qr_scan", "android": "https://dc.lft.to/lastmile_qr_scan"}, "is_reserved": 0}, {"lon": -77.03677766666667, "bike_id": "ca7b8b731df26caa1ee0e0cbea731ea9", "lat": 38.92103983333333, "fusion_lon": 0.0, "fusion_lat": 0.0, "type": "electric_scooter", "name": "ca7b8b731df26caa1ee0e0cbea731ea9", "is_disabled": 0, "rental_uris": {"ios": "https://dc.lft.to/lastmile_qr_scan", "android": "https://dc.lft.to/lastmile_qr_scan"}, "is_reserved": 0}, {"lon": -77.04629883333334, "bike_id": "ca0e1e97d6492726cbdd0b58681f2d59", "lat": 38.9190815, "fusion_lon": 0.0, "fusion_lat": 0.0, "type": "electric_scooter", "name": "ca0e1e97d6492726cbdd0b58681f2d59", "is_disabled": 0, "rental_uris": {"ios": "https://dc.lft.to/lastmile_qr_scan", "android": "https://dc.lft.to/lastmile_qr_scan"}, "is_reserved": 0}, {"lon": -77.012329, "bike_id": "ad8df20e780738fc1a5b7fb424c4edc3", "lat": 38.892992166666666, "fusion_lon": 0.0, "fusion_lat": 0.0, "type": "electric_scooter", "name": "ad8df20e780738fc1a5b7fb424c4edc3", "is_disabled": 0, "rental_uris": {"ios": "https://dc.lft.to/lastmile_qr_scan", "android": "https://dc.lft.to/lastmile_qr_scan"}, "is_reserved": 0}, {"lon": -77.03184866666666, "bike_id": "4a8fd2edc8c3ae4dd833c1be058dd746", "lat": 38.917439333333334, "fusion_lon": 0.0, "fusion_lat": 0.0, "type": "electric_scooter", "name": "4a8fd2edc8c3ae4dd833c1be058dd746", "is_disabled": 0, "rental_uris": {"ios": "https://dc.lft.to/lastmile_qr_scan", "android": "https://dc.lft.to/lastmile_qr_scan"}, "is_reserved": 0}, {"lon": -77.01572566666667, "bike_id": "8e62c19fc779f7766cd238008727be7a", "lat": 38.96569516666667, "fusion_lon": 0.0, "fusion_lat": 0.0, "type": "electric_scooter", "name": "8e62c19fc779f7766cd238008727be7a", "is_disabled": 0, "rental_uris": {"ios": "https://dc.lft.to/lastmile_qr_scan", "android": "https://dc.lft.to/lastmile_qr_scan"}, "is_reserved": 0}, {"lon": -77.04231, "bike_id": "8e93349fc00e2982eeb2615073b02394", "lat": 38.91121016666666, "fusion_lon": 0.0, "fusion_lat": 0.0, "type": "electric_scooter", "name": "8e93349fc00e2982eeb2615073b02394", "is_disabled": 0, "rental_uris": {"ios": "https://dc.lft.to/lastmile_qr_scan", "android": "https://dc.lft.to/lastmile_qr_scan"}, "is_reserved": 0}, {"lon": -76.99374883333333, "bike_id": "5a8daa3bbd0a8b016ee5cd758c69f792", "lat": 38.92394066666667, "fusion_lon": 0.0, "fusion_lat": 0.0, "type": "electric_scooter", "name": "5a8daa3bbd0a8b016ee5cd758c69f792", "is_disabled": 0, "rental_uris": {"ios": "https://dc.lft.to/lastmile_qr_scan", "android": "https://dc.lft.to/lastmile_qr_scan"}, "is_reserved": 0}, {"lon": -77.035665, "bike_id": "1a8426f1c671d405f3a614f00e6822dd", "lat": 38.90481583333333, "fusion_lon": 0.0, "fusion_lat": 0.0, "type": "electric_scooter", "name": "1a8426f1c671d405f3a614f00e6822dd", "is_disabled": 0, "rental_uris": {"ios": "https://dc.lft.to/lastmile_qr_scan", "android": "https://dc.lft.to/lastmile_qr_scan"}, "is_reserved": 0}, {"lon": -77.01745383333333, "bike_id": "55f94f4caf57e746cbb952e4384d704e", "lat": 38.8811945, "fusion_lon": 0.0, "fusion_lat": 0.0, "type": "electric_scooter", "name": "55f94f4caf57e746cbb952e4384d704e", "is_disabled": 0, "rental_uris": {"ios": "https://dc.lft.to/lastmile_qr_scan", "android": "https://dc.lft.to/lastmile_qr_scan"}, "is_reserved": 0}, {"lon": -76.98167633333334, "bike_id": "81148f47de1ab779ca5208070809e837", "lat": 38.916645833333334, "fusion_lon": 0.0, "fusion_lat": 0.0, "type": "electric_scooter", "name": "81148f47de1ab779ca5208070809e837", "is_disabled": 0, "rental_uris": {"ios": "https://dc.lft.to/lastmile_qr_scan", "android": "https://dc.lft.to/lastmile_qr_scan"}, "is_reserved": 0}, {"lon": -77.04184216666667, "bike_id": "b529bc7d6a46b7db6be798440bcda483", "lat": 38.911394, "fusion_lon": 0.0, "fusion_lat": 0.0, "type": "electric_scooter", "name": "b529bc7d6a46b7db6be798440bcda483", "is_disabled": 0, "rental_uris": {"ios": "https://dc.lft.to/lastmile_qr_scan", "android": "https://dc.lft.to/lastmile_qr_scan"}, "is_reserved": 0}, {"lon": -77.0287605, "bike_id": "a80a04266caee4ce691e479cbaac58c8", "lat": 38.94727566666667, "fusion_lon": 0.0, "fusion_lat": 0.0, "type": "electric_bike", "name": "a80a04266caee4ce691e479cbaac58c8", "is_disabled": 0, "rental_uris": {"ios": "https://dc.lft.to/lastmile_qr_scan", "android": "https://dc.lft.to/lastmile_qr_scan"}, "is_reserved": 0}, {"lon": -77.02390133333333, "bike_id": "96e4bdfd2ce34599677752825f6a6a04", "lat": 38.9199645, "fusion_lon": 0.0, "fusion_lat": 0.0, "type": "electric_scooter", "name": "96e4bdfd2ce34599677752825f6a6a04", "is_disabled": 0, "rental_uris": {"ios": "https://dc.lft.to/lastmile_qr_scan", "android": "https://dc.lft.to/lastmile_qr_scan"}, "is_reserved": 0}, {"lon": -77.0092225, "bike_id": "8c3e9f7d93eed83596e2da839eacf392", "lat": 38.9110185, "fusion_lon": 0.0, "fusion_lat": 0.0, "type": "electric_scooter", "name": "8c3e9f7d93eed83596e2da839eacf392", "is_disabled": 0, "rental_uris": {"ios": "https://dc.lft.to/lastmile_qr_scan", "android": "https://dc.lft.to/lastmile_qr_scan"}, "is_reserved": 0}, {"lon": -76.98959616666667, "bike_id": "d9a1ca3fa9142afdb915593271791d49", "lat": 38.901312, "fusion_lon": 0.0, "fusion_lat": 0.0, "type": "electric_scooter", "name": "d9a1ca3fa9142afdb915593271791d49", "is_disabled": 0, "rental_uris": {"ios": "https://dc.lft.to/lastmile_qr_scan", "android": "https://dc.lft.to/lastmile_qr_scan"}, "is_reserved": 0}, {"lon": -77.0136845, "bike_id": "77bd5a5f8c919ecc2d022c6dc9ccbb88", "lat": 38.90619483333333, "fusion_lon": 0.0, "fusion_lat": 0.0, "type": "electric_scooter", "name": "77bd5a5f8c919ecc2d022c6dc9ccbb88", "is_disabled": 0, "rental_uris": {"ios": "https://dc.lft.to/lastmile_qr_scan", "android": "https://dc.lft.to/lastmile_qr_scan"}, "is_reserved": 0}, {"lon": -77.0881005, "bike_id": "9e0f2d2b44cfe9bf295dc67c973e45a1", "lat": 38.911764, "fusion_lon": 0.0, "fusion_lat": 0.0, "type": "electric_bike", "name": "9e0f2d2b44cfe9bf295dc67c973e45a1", "is_disabled": 0, "rental_uris": {"ios": "https://dc.lft.to/lastmile_qr_scan", "android": "https://dc.lft.to/lastmile_qr_scan"}, "is_reserved": 0}, {"lon": -76.9761405, "bike_id": "890681e49e7ce28212a20631c0e8bf60", "lat": 38.926509833333334, "fusion_lon": 0.0, "fusion_lat": 0.0, "type": "electric_scooter", "name": "890681e49e7ce28212a20631c0e8bf60", "is_disabled": 0, "rental_uris": {"ios": "https://dc.lft.to/lastmile_qr_scan", "android": "https://dc.lft.to/lastmile_qr_scan"}, "is_reserved": 0}, {"lon": -77.0222365, "bike_id": "2771efd2514a37bd14d260b1831c26e1", "lat": 38.91270433333333, "fusion_lon": 0.0, "fusion_lat": 0.0, "type": "electric_scooter", "name": "2771efd2514a37bd14d260b1831c26e1", "is_disabled": 0, "rental_uris": {"ios": "https://dc.lft.to/lastmile_qr_scan", "android": "https://dc.lft.to/lastmile_qr_scan"}, "is_reserved": 0}, {"lon": -76.99100833333334, "bike_id": "d05ccde94c26b402e92b7b55381c00b1", "lat": 38.9032285, "fusion_lon": 0.0, "fusion_lat": 0.0, "type": "electric_scooter", "name": "d05ccde94c26b402e92b7b55381c00b1", "is_disabled": 0, "rental_uris": {"ios": "https://dc.lft.to/lastmile_qr_scan", "android": "https://dc.lft.to/lastmile_qr_scan"}, "is_reserved": 0}, {"lon": -77.01868116666667, "bike_id": "5e5108244f5b6eeea6893b0d225c4bf5", "lat": 38.9515235, "fusion_lon": 0.0, "fusion_lat": 0.0, "type": "electric_scooter", "name": "5e5108244f5b6eeea6893b0d225c4bf5", "is_disabled": 0, "rental_uris": {"ios": "https://dc.lft.to/lastmile_qr_scan", "android": "https://dc.lft.to/lastmile_qr_scan"}, "is_reserved": 0}, {"lon": -77.04195716666666, "bike_id": "a9678fe972b0afef5d48f846ee90b4b1", "lat": 38.92624166666667, "fusion_lon": 0.0, "fusion_lat": 0.0, "type": "electric_scooter", "name": "a9678fe972b0afef5d48f846ee90b4b1", "is_disabled": 0, "rental_uris": {"ios": "https://dc.lft.to/lastmile_qr_scan", "android": "https://dc.lft.to/lastmile_qr_scan"}, "is_reserved": 0}, {"lon": -77.05982966666667, "bike_id": "36c655531d4ad7b2a8312721bae71369", "lat": 38.80714833333333, "fusion_lon": 0.0, "fusion_lat": 0.0, "type": "electric_bike", "name": "36c655531d4ad7b2a8312721bae71369", "is_disabled": 0, "rental_uris": {"ios": "https://dc.lft.to/lastmile_qr_scan", "android": "https://dc.lft.to/lastmile_qr_scan"}, "is_reserved": 0}, {"lon": -76.99786066666667, "bike_id": "b3c4ff0ef776990e4494b248c1cead41", "lat": 38.91047483333333, "fusion_lon": 0.0, "fusion_lat": 0.0, "type": "electric_scooter", "name": "b3c4ff0ef776990e4494b248c1cead41", "is_disabled": 0, "rental_uris": {"ios": "https://dc.lft.to/lastmile_qr_scan", "android": "https://dc.lft.to/lastmile_qr_scan"}, "is_reserved": 0}, {"lon": -77.03634883333334, "bike_id": "19c1c8156bfa1a01c0a1bb7a53e4100c", "lat": 38.924598, "fusion_lon": 0.0, "fusion_lat": 0.0, "type": "electric_scooter", "name": "19c1c8156bfa1a01c0a1bb7a53e4100c", "is_disabled": 0, "rental_uris": {"ios": "https://dc.lft.to/lastmile_qr_scan", "android": "https://dc.lft.to/lastmile_qr_scan"}, "is_reserved": 0}, {"lon": -77.03918983333334, "bike_id": "5497c5ee9feb9e5f2d1c03f5102d8148", "lat": 38.9280285, "fusion_lon": 0.0, "fusion_lat": 0.0, "type": "electric_scooter", "name": "5497c5ee9feb9e5f2d1c03f5102d8148", "is_disabled": 0, "rental_uris": {"ios": "https://dc.lft.to/lastmile_qr_scan", "android": "https://dc.lft.to/lastmile_qr_scan"}, "is_reserved": 0}, {"lon": -77.006767, "bike_id": "a1f03e03e2fba1ffc059528ea01b308e", "lat": 38.90016516666667, "fusion_lon": 0.0, "fusion_lat": 0.0, "type": "electric_scooter", "name": "a1f03e03e2fba1ffc059528ea01b308e", "is_disabled": 0, "rental_uris": {"ios": "https://dc.lft.to/lastmile_qr_scan", "android": "https://dc.lft.to/lastmile_qr_scan"}, "is_reserved": 0}, {"lon": -77.03181366666666, "bike_id": "6aa6970930ca60ea48790a5ddbe9e4ba", "lat": 38.9051575, "fusion_lon": 0.0, "fusion_lat": 0.0, "type": "electric_scooter", "name": "6aa6970930ca60ea48790a5ddbe9e4ba", "is_disabled": 0, "rental_uris": {"ios": "https://dc.lft.to/lastmile_qr_scan", "android": "https://dc.lft.to/lastmile_qr_scan"}, "is_reserved": 0}, {"lon": -77.00680583333333, "bike_id": "d778a0a893f6ae058c25f33c1243e4fa", "lat": 38.900225, "fusion_lon": 0.0, "fusion_lat": 0.0, "type": "electric_scooter", "name": "d778a0a893f6ae058c25f33c1243e4fa", "is_disabled": 0, "rental_uris": {"ios": "https://dc.lft.to/lastmile_qr_scan", "android": "https://dc.lft.to/lastmile_qr_scan"}, "is_reserved": 0}, {"lon": -76.97477566666667, "bike_id": "52d0f6db56d5174c2ce5e2e953e71a5f", "lat": 38.90349916666667, "fusion_lon": 0.0, "fusion_lat": 0.0, "type": "electric_scooter", "name": "52d0f6db56d5174c2ce5e2e953e71a5f", "is_disabled": 0, "rental_uris": {"ios": "https://dc.lft.to/lastmile_qr_scan", "android": "https://dc.lft.to/lastmile_qr_scan"}, "is_reserved": 0}, {"lon": -77.0806965, "bike_id": "d2bce2d3cbd55243fcdf5c15778c1b65", "lat": 39.052816166666666, "fusion_lon": 0.0, "fusion_lat": 0.0, "type": "electric_bike", "name": "d2bce2d3cbd55243fcdf5c15778c1b65", "is_disabled": 0, "rental_uris": {"ios": "https://dc.lft.to/lastmile_qr_scan", "android": "https://dc.lft.to/lastmile_qr_scan"}, "is_reserved": 0}, {"lon": -77.03641133333333, "bike_id": "0582f5fbabe942b2a10957e01ce14f7e", "lat": 38.9043875, "fusion_lon": 0.0, "fusion_lat": 0.0, "type": "electric_scooter", "name": "0582f5fbabe942b2a10957e01ce14f7e", "is_disabled": 0, "rental_uris": {"ios": "https://dc.lft.to/lastmile_qr_scan", "android": "https://dc.lft.to/lastmile_qr_scan"}, "is_reserved": 0}, {"lon": -77.06519066666667, "bike_id": "a62ef93c93aa05c4b5c5a8af84e5c6c4", "lat": 38.903938833333335, "fusion_lon": 0.0, "fusion_lat": 0.0, "type": "electric_scooter", "name": "a62ef93c93aa05c4b5c5a8af84e5c6c4", "is_disabled": 0, "rental_uris": {"ios": "https://dc.lft.to/lastmile_qr_scan", "android": "https://dc.lft.to/lastmile_qr_scan"}, "is_reserved": 0}, {"lon": -76.99086866666667, "bike_id": "4fea1272cba2a9d9a9ead3daf1b3184e", "lat": 38.862374333333335, "fusion_lon": 0.0, "fusion_lat": 0.0, "type": "electric_bike", "name": "4fea1272cba2a9d9a9ead3daf1b3184e", "is_disabled": 0, "rental_uris": {"ios": "https://dc.lft.to/lastmile_qr_scan", "android": "https://dc.lft.to/lastmile_qr_scan"}, "is_reserved": 0}, {"lon": -77.02621733333334, "bike_id": "e884afa1de5d7f8c13b06b8aa9a14f95", "lat": 38.929139, "fusion_lon": 0.0, "fusion_lat": 0.0, "type": "electric_scooter", "name": "e884afa1de5d7f8c13b06b8aa9a14f95", "is_disabled": 0, "rental_uris": {"ios": "https://dc.lft.to/lastmile_qr_scan", "android": "https://dc.lft.to/lastmile_qr_scan"}, "is_reserved": 0}, {"lon": -76.99018966666667, "bike_id": "ee264943f86713df9848911661f2a9e1", "lat": 38.866443, "fusion_lon": 0.0, "fusion_lat": 0.0, "type": "electric_scooter", "name": "ee264943f86713df9848911661f2a9e1", "is_disabled": 0, "rental_uris": {"ios": "https://dc.lft.to/lastmile_qr_scan", "android": "https://dc.lft.to/lastmile_qr_scan"}, "is_reserved": 0}, {"lon": -77.0486785, "bike_id": "d6240dae2efbfb58ef963c94e7ed45ed", "lat": 38.892241166666665, "fusion_lon": 0.0, "fusion_lat": 0.0, "type": "electric_scooter", "name": "d6240dae2efbfb58ef963c94e7ed45ed", "is_disabled": 0, "rental_uris": {"ios": "https://dc.lft.to/lastmile_qr_scan", "android": "https://dc.lft.to/lastmile_qr_scan"}, "is_reserved": 0}, {"lon": -77.019388, "bike_id": "ce50f70746cf11ad11d4263553c2c026", "lat": 38.9352635, "fusion_lon": 0.0, "fusion_lat": 0.0, "type": "electric_scooter", "name": "ce50f70746cf11ad11d4263553c2c026", "is_disabled": 0, "rental_uris": {"ios": "https://dc.lft.to/lastmile_qr_scan", "android": "https://dc.lft.to/lastmile_qr_scan"}, "is_reserved": 0}, {"lon": -76.99529233333334, "bike_id": "2977588948a9ac110c34021bd51a7427", "lat": 38.88370666666667, "fusion_lon": 0.0, "fusion_lat": 0.0, "type": "electric_scooter", "name": "2977588948a9ac110c34021bd51a7427", "is_disabled": 0, "rental_uris": {"ios": "https://dc.lft.to/lastmile_qr_scan", "android": "https://dc.lft.to/lastmile_qr_scan"}, "is_reserved": 0}, {"lon": -77.03132033333333, "bike_id": "3c8d2a7e5dfc166ca00821915b1eee55", "lat": 38.91567166666667, "fusion_lon": 0.0, "fusion_lat": 0.0, "type": "electric_scooter", "name": "3c8d2a7e5dfc166ca00821915b1eee55", "is_disabled": 0, "rental_uris": {"ios": "https://dc.lft.to/lastmile_qr_scan", "android": "https://dc.lft.to/lastmile_qr_scan"}, "is_reserved": 0}, {"lon": -76.96524033333333, "bike_id": "7373892247650a8130b74a9cffb54a48", "lat": 38.87630466666667, "fusion_lon": 0.0, "fusion_lat": 0.0, "type": "electric_scooter", "name": "7373892247650a8130b74a9cffb54a48", "is_disabled": 0, "rental_uris": {"ios": "https://dc.lft.to/lastmile_qr_scan", "android": "https://dc.lft.to/lastmile_qr_scan"}, "is_reserved": 0}, {"lon": -77.005964, "bike_id": "3e99bacab6c98e9c4a0d5f43869051f8", "lat": 38.905593, "fusion_lon": 0.0, "fusion_lat": 0.0, "type": "electric_scooter", "name": "3e99bacab6c98e9c4a0d5f43869051f8", "is_disabled": 0, "rental_uris": {"ios": "https://dc.lft.to/lastmile_qr_scan", "android": "https://dc.lft.to/lastmile_qr_scan"}, "is_reserved": 0}, {"lon": -77.03848733333334, "bike_id": "c2621f9979b85e99f13a8d0b7b5d6f32", "lat": 38.93129533333333, "fusion_lon": 0.0, "fusion_lat": 0.0, "type": "electric_scooter", "name": "c2621f9979b85e99f13a8d0b7b5d6f32", "is_disabled": 0, "rental_uris": {"ios": "https://dc.lft.to/lastmile_qr_scan", "android": "https://dc.lft.to/lastmile_qr_scan"}, "is_reserved": 0}, {"lon": -77.100272, "bike_id": "e42f408f0f987b40bf792f70f79f3fae", "lat": 38.871387166666665, "fusion_lon": 0.0, "fusion_lat": 0.0, "type": "electric_bike", "name": "e42f408f0f987b40bf792f70f79f3fae", "is_disabled": 0, "rental_uris": {"ios": "https://dc.lft.to/lastmile_qr_scan", "android": "https://dc.lft.to/lastmile_qr_scan"}, "is_reserved": 0}, {"lon": -77.01340616666667, "bike_id": "5936cf02766937ab72e3db2162d56766", "lat": 38.878168333333335, "fusion_lon": 0.0, "fusion_lat": 0.0, "type": "electric_scooter", "name": "5936cf02766937ab72e3db2162d56766", "is_disabled": 0, "rental_uris": {"ios": "https://dc.lft.to/lastmile_qr_scan", "android": "https://dc.lft.to/lastmile_qr_scan"}, "is_reserved": 0}, {"lon": -77.028758, "bike_id": "c430fd8069b876a77b623bdb3e935136", "lat": 38.916924333333334, "fusion_lon": 0.0, "fusion_lat": 0.0, "type": "electric_scooter", "name": "c430fd8069b876a77b623bdb3e935136", "is_disabled": 0, "rental_uris": {"ios": "https://dc.lft.to/lastmile_qr_scan", "android": "https://dc.lft.to/lastmile_qr_scan"}, "is_reserved": 0}, {"lon": -76.9873425, "bike_id": "bb3dabe27f04c6bd732a422e55221f2d", "lat": 38.86580883333333, "fusion_lon": 0.0, "fusion_lat": 0.0, "type": "electric_bike", "name": "bb3dabe27f04c6bd732a422e55221f2d", "is_disabled": 0, "rental_uris": {"ios": "https://dc.lft.to/lastmile_qr_scan", "android": "https://dc.lft.to/lastmile_qr_scan"}, "is_reserved": 0}, {"lon": -77.06418166666667, "bike_id": "16876ea48759099ffaf63b6a00ef6711", "lat": 38.993356666666664, "fusion_lon": 0.0, "fusion_lat": 0.0, "type": "electric_scooter", "name": "16876ea48759099ffaf63b6a00ef6711", "is_disabled": 0, "rental_uris": {"ios": "https://dc.lft.to/lastmile_qr_scan", "android": "https://dc.lft.to/lastmile_qr_scan"}, "is_reserved": 0}, {"lon": -77.02968633333333, "bike_id": "27b9c02c3d7abb84a5d86cf1f8708343", "lat": 38.914554333333335, "fusion_lon": 0.0, "fusion_lat": 0.0, "type": "electric_scooter", "name": "27b9c02c3d7abb84a5d86cf1f8708343", "is_disabled": 0, "rental_uris": {"ios": "https://dc.lft.to/lastmile_qr_scan", "android": "https://dc.lft.to/lastmile_qr_scan"}, "is_reserved": 0}, {"lon": -76.94155616666667, "bike_id": "b5794352cd455cb26b4eea1a629942cb", "lat": 38.90832016666667, "fusion_lon": 0.0, "fusion_lat": 0.0, "type": "electric_bike", "name": "b5794352cd455cb26b4eea1a629942cb", "is_disabled": 0, "rental_uris": {"ios": "https://dc.lft.to/lastmile_qr_scan", "android": "https://dc.lft.to/lastmile_qr_scan"}, "is_reserved": 0}, {"lon": -76.96523633333334, "bike_id": "1391aa1ec87b2d866ba4907687f0f609", "lat": 38.87630933333333, "fusion_lon": 0.0, "fusion_lat": 0.0, "type": "electric_scooter", "name": "1391aa1ec87b2d866ba4907687f0f609", "is_disabled": 0, "rental_uris": {"ios": "https://dc.lft.to/lastmile_qr_scan", "android": "https://dc.lft.to/lastmile_qr_scan"}, "is_reserved": 0}, {"lon": -77.05543633333333, "bike_id": "bfc4086f72d9c34e8bf9ab9a1d6bcd65", "lat": 38.9301005, "fusion_lon": 0.0, "fusion_lat": 0.0, "type": "electric_scooter", "name": "bfc4086f72d9c34e8bf9ab9a1d6bcd65", "is_disabled": 0, "rental_uris": {"ios": "https://dc.lft.to/lastmile_qr_scan", "android": "https://dc.lft.to/lastmile_qr_scan"}, "is_reserved": 0}, {"lon": -77.0351085, "bike_id": "ebe71944afa345c3472614e920346be9", "lat": 38.927209166666664, "fusion_lon": 0.0, "fusion_lat": 0.0, "type": "electric_scooter", "name": "ebe71944afa345c3472614e920346be9", "is_disabled": 0, "rental_uris": {"ios": "https://dc.lft.to/lastmile_qr_scan", "android": "https://dc.lft.to/lastmile_qr_scan"}, "is_reserved": 0}, {"lon": -77.03628483333334, "bike_id": "552f25779b4c38ae13e5380fbcecc2f2", "lat": 38.94495633333333, "fusion_lon": 0.0, "fusion_lat": 0.0, "type": "electric_scooter", "name": "552f25779b4c38ae13e5380fbcecc2f2", "is_disabled": 0, "rental_uris": {"ios": "https://dc.lft.to/lastmile_qr_scan", "android": "https://dc.lft.to/lastmile_qr_scan"}, "is_reserved": 0}, {"lon": -77.03957116666666, "bike_id": "5a4a503e2389cb2bdd5c085c771f3fde", "lat": 38.915653166666665, "fusion_lon": 0.0, "fusion_lat": 0.0, "type": "electric_scooter", "name": "5a4a503e2389cb2bdd5c085c771f3fde", "is_disabled": 0, "rental_uris": {"ios": "https://dc.lft.to/lastmile_qr_scan", "android": "https://dc.lft.to/lastmile_qr_scan"}, "is_reserved": 0}, {"lon": -76.975419, "bike_id": "ffdd0d958789ae642d3f292a74288c93", "lat": 38.90315566666666, "fusion_lon": 0.0, "fusion_lat": 0.0, "type": "electric_scooter", "name": "ffdd0d958789ae642d3f292a74288c93", "is_disabled": 0, "rental_uris": {"ios": "https://dc.lft.to/lastmile_qr_scan", "android": "https://dc.lft.to/lastmile_qr_scan"}, "is_reserved": 0}, {"lon": -77.02979216666667, "bike_id": "7f58ad92090d0e6b084ef74b1c7b4513", "lat": 38.939389, "fusion_lon": 0.0, "fusion_lat": 0.0, "type": "electric_scooter", "name": "7f58ad92090d0e6b084ef74b1c7b4513", "is_disabled": 0, "rental_uris": {"ios": "https://dc.lft.to/lastmile_qr_scan", "android": "https://dc.lft.to/lastmile_qr_scan"}, "is_reserved": 0}, {"lon": -77.0379635, "bike_id": "0d66886cf2dc11550e97f7f51d86e740", "lat": 38.9257195, "fusion_lon": 0.0, "fusion_lat": 0.0, "type": "electric_scooter", "name": "0d66886cf2dc11550e97f7f51d86e740", "is_disabled": 0, "rental_uris": {"ios": "https://dc.lft.to/lastmile_qr_scan", "android": "https://dc.lft.to/lastmile_qr_scan"}, "is_reserved": 0}, {"lon": -77.02182866666666, "bike_id": "cf92b91a72b986e60046330e2982c305", "lat": 38.91495833333333, "fusion_lon": 0.0, "fusion_lat": 0.0, "type": "electric_scooter", "name": "cf92b91a72b986e60046330e2982c305", "is_disabled": 0, "rental_uris": {"ios": "https://dc.lft.to/lastmile_qr_scan", "android": "https://dc.lft.to/lastmile_qr_scan"}, "is_reserved": 0}, {"lon": -77.0301285, "bike_id": "f3090200bb1ddd6127696582b90e4d0f", "lat": 38.917163, "fusion_lon": 0.0, "fusion_lat": 0.0, "type": "electric_scooter", "name": "f3090200bb1ddd6127696582b90e4d0f", "is_disabled": 0, "rental_uris": {"ios": "https://dc.lft.to/lastmile_qr_scan", "android": "https://dc.lft.to/lastmile_qr_scan"}, "is_reserved": 0}, {"lon": -76.99377383333334, "bike_id": "06aba1ab9c888852f7cb56605c66faaf", "lat": 38.923962833333334, "fusion_lon": 0.0, "fusion_lat": 0.0, "type": "electric_scooter", "name": "06aba1ab9c888852f7cb56605c66faaf", "is_disabled": 0, "rental_uris": {"ios": "https://dc.lft.to/lastmile_qr_scan", "android": "https://dc.lft.to/lastmile_qr_scan"}, "is_reserved": 0}, {"lon": -77.00134183333333, "bike_id": "700e80fe74862807b41de9062b159c9d", "lat": 38.92550083333333, "fusion_lon": 0.0, "fusion_lat": 0.0, "type": "electric_bike", "name": "700e80fe74862807b41de9062b159c9d", "is_disabled": 0, "rental_uris": {"ios": "https://dc.lft.to/lastmile_qr_scan", "android": "https://dc.lft.to/lastmile_qr_scan"}, "is_reserved": 0}, {"lon": -77.01758316666667, "bike_id": "3c51265258ccc3935b43b8ecb1d2133b", "lat": 38.903954166666665, "fusion_lon": 0.0, "fusion_lat": 0.0, "type": "electric_scooter", "name": "3c51265258ccc3935b43b8ecb1d2133b", "is_disabled": 0, "rental_uris": {"ios": "https://dc.lft.to/lastmile_qr_scan", "android": "https://dc.lft.to/lastmile_qr_scan"}, "is_reserved": 0}, {"lon": -77.03321916666667, "bike_id": "e2006f26a67fd5b045996abb1491a1f6", "lat": 38.93899616666667, "fusion_lon": 0.0, "fusion_lat": 0.0, "type": "electric_scooter", "name": "e2006f26a67fd5b045996abb1491a1f6", "is_disabled": 0, "rental_uris": {"ios": "https://dc.lft.to/lastmile_qr_scan", "android": "https://dc.lft.to/lastmile_qr_scan"}, "is_reserved": 0}, {"lon": -77.0327685, "bike_id": "c7b5373e5a1d977fdf8ca9499b265783", "lat": 38.92844916666667, "fusion_lon": 0.0, "fusion_lat": 0.0, "type": "electric_scooter", "name": "c7b5373e5a1d977fdf8ca9499b265783", "is_disabled": 0, "rental_uris": {"ios": "https://dc.lft.to/lastmile_qr_scan", "android": "https://dc.lft.to/lastmile_qr_scan"}, "is_reserved": 0}, {"lon": -77.04396566666667, "bike_id": "0f52686bc1961848ee173d00c664791b", "lat": 38.9126735, "fusion_lon": 0.0, "fusion_lat": 0.0, "type": "electric_scooter", "name": "0f52686bc1961848ee173d00c664791b", "is_disabled": 0, "rental_uris": {"ios": "https://dc.lft.to/lastmile_qr_scan", "android": "https://dc.lft.to/lastmile_qr_scan"}, "is_reserved": 0}, {"lon": -77.02648766666667, "bike_id": "cc46fe719906ac3f1843adbf0ff2fae1", "lat": 38.88116266666667, "fusion_lon": 0.0, "fusion_lat": 0.0, "type": "electric_scooter", "name": "cc46fe719906ac3f1843adbf0ff2fae1", "is_disabled": 0, "rental_uris": {"ios": "https://dc.lft.to/lastmile_qr_scan", "android": "https://dc.lft.to/lastmile_qr_scan"}, "is_reserved": 0}, {"lon": -77.11706783333334, "bike_id": "54c997b07e86bd50c67e19bcaa7705d4", "lat": 38.8674635, "fusion_lon": 0.0, "fusion_lat": 0.0, "type": "electric_bike", "name": "54c997b07e86bd50c67e19bcaa7705d4", "is_disabled": 0, "rental_uris": {"ios": "https://dc.lft.to/lastmile_qr_scan", "android": "https://dc.lft.to/lastmile_qr_scan"}, "is_reserved": 0}, {"lon": -77.000721, "bike_id": "4e201a8aab48e782fa5c264b24f15f3a", "lat": 38.9173465, "fusion_lon": 0.0, "fusion_lat": 0.0, "type": "electric_scooter", "name": "4e201a8aab48e782fa5c264b24f15f3a", "is_disabled": 0, "rental_uris": {"ios": "https://dc.lft.to/lastmile_qr_scan", "android": "https://dc.lft.to/lastmile_qr_scan"}, "is_reserved": 0}, {"lon": -77.02310516666667, "bike_id": "7bab68101fb39b28792beeb731ad90dc", "lat": 38.89502683333333, "fusion_lon": 0.0, "fusion_lat": 0.0, "type": "electric_scooter", "name": "7bab68101fb39b28792beeb731ad90dc", "is_disabled": 0, "rental_uris": {"ios": "https://dc.lft.to/lastmile_qr_scan", "android": "https://dc.lft.to/lastmile_qr_scan"}, "is_reserved": 0}, {"lon": -77.03635333333334, "bike_id": "2d7e7bf4db0e4f26ef46ea0fb660d1e8", "lat": 38.9329345, "fusion_lon": 0.0, "fusion_lat": 0.0, "type": "electric_bike", "name": "2d7e7bf4db0e4f26ef46ea0fb660d1e8", "is_disabled": 0, "rental_uris": {"ios": "https://dc.lft.to/lastmile_qr_scan", "android": "https://dc.lft.to/lastmile_qr_scan"}, "is_reserved": 0}, {"lon": -77.04771716666667, "bike_id": "787b7058b8ec4038f15ffe0c03cbc426", "lat": 38.917683, "fusion_lon": 0.0, "fusion_lat": 0.0, "type": "electric_scooter", "name": "787b7058b8ec4038f15ffe0c03cbc426", "is_disabled": 0, "rental_uris": {"ios": "https://dc.lft.to/lastmile_qr_scan", "android": "https://dc.lft.to/lastmile_qr_scan"}, "is_reserved": 0}, {"lon": -77.0318275, "bike_id": "43e21904c9da341ca02b7b88ea2806ee", "lat": 38.897617333333336, "fusion_lon": 0.0, "fusion_lat": 0.0, "type": "electric_scooter", "name": "43e21904c9da341ca02b7b88ea2806ee", "is_disabled": 0, "rental_uris": {"ios": "https://dc.lft.to/lastmile_qr_scan", "android": "https://dc.lft.to/lastmile_qr_scan"}, "is_reserved": 0}, {"lon": -76.98527716666666, "bike_id": "61ced5877cc5f6bb5aabc3c0332ea14a", "lat": 38.90462483333334, "fusion_lon": 0.0, "fusion_lat": 0.0, "type": "electric_scooter", "name": "61ced5877cc5f6bb5aabc3c0332ea14a", "is_disabled": 0, "rental_uris": {"ios": "https://dc.lft.to/lastmile_qr_scan", "android": "https://dc.lft.to/lastmile_qr_scan"}, "is_reserved": 0}, {"lon": -77.0344855, "bike_id": "5703f7a247571de16274012c9537f223", "lat": 38.92734516666667, "fusion_lon": 0.0, "fusion_lat": 0.0, "type": "electric_scooter", "name": "5703f7a247571de16274012c9537f223", "is_disabled": 0, "rental_uris": {"ios": "https://dc.lft.to/lastmile_qr_scan", "android": "https://dc.lft.to/lastmile_qr_scan"}, "is_reserved": 0}, {"lon": -77.01199366666667, "bike_id": "db3efe1cf8bff10cdced08758577cb2c", "lat": 38.82404983333333, "fusion_lon": 0.0, "fusion_lat": 0.0, "type": "electric_bike", "name": "db3efe1cf8bff10cdced08758577cb2c", "is_disabled": 0, "rental_uris": {"ios": "https://dc.lft.to/lastmile_qr_scan", "android": "https://dc.lft.to/lastmile_qr_scan"}, "is_reserved": 0}, {"lon": -76.9574785, "bike_id": "f5501663049d23a62e0db05605d8d284", "lat": 38.884293666666665, "fusion_lon": 0.0, "fusion_lat": 0.0, "type": "electric_scooter", "name": "f5501663049d23a62e0db05605d8d284", "is_disabled": 0, "rental_uris": {"ios": "https://dc.lft.to/lastmile_qr_scan", "android": "https://dc.lft.to/lastmile_qr_scan"}, "is_reserved": 0}, {"lon": -77.0014655, "bike_id": "d44719724d1b04f1e831eb0b5ec3cdb3", "lat": 38.910794, "fusion_lon": 0.0, "fusion_lat": 0.0, "type": "electric_scooter", "name": "d44719724d1b04f1e831eb0b5ec3cdb3", "is_disabled": 0, "rental_uris": {"ios": "https://dc.lft.to/lastmile_qr_scan", "android": "https://dc.lft.to/lastmile_qr_scan"}, "is_reserved": 0}, {"lon": -77.023598, "bike_id": "c6d65abb43898de1e488e7f4724de3e2", "lat": 38.922221666666665, "fusion_lon": 0.0, "fusion_lat": 0.0, "type": "electric_scooter", "name": "c6d65abb43898de1e488e7f4724de3e2", "is_disabled": 0, "rental_uris": {"ios": "https://dc.lft.to/lastmile_qr_scan", "android": "https://dc.lft.to/lastmile_qr_scan"}, "is_reserved": 0}, {"lon": -77.045694, "bike_id": "c383ceece456835efd00f9610ac22913", "lat": 38.914663833333336, "fusion_lon": 0.0, "fusion_lat": 0.0, "type": "electric_scooter", "name": "c383ceece456835efd00f9610ac22913", "is_disabled": 0, "rental_uris": {"ios": "https://dc.lft.to/lastmile_qr_scan", "android": "https://dc.lft.to/lastmile_qr_scan"}, "is_reserved": 0}, {"lon": -77.04051083333333, "bike_id": "da539550a728a4cd557e62461c78113a", "lat": 38.92879716666667, "fusion_lon": 0.0, "fusion_lat": 0.0, "type": "electric_scooter", "name": "da539550a728a4cd557e62461c78113a", "is_disabled": 0, "rental_uris": {"ios": "https://dc.lft.to/lastmile_qr_scan", "android": "https://dc.lft.to/lastmile_qr_scan"}, "is_reserved": 0}, {"lon": -77.00337666666667, "bike_id": "1d47df91b6f40fc1391702d8746ad8ca", "lat": 38.89189366666667, "fusion_lon": 0.0, "fusion_lat": 0.0, "type": "electric_scooter", "name": "1d47df91b6f40fc1391702d8746ad8ca", "is_disabled": 0, "rental_uris": {"ios": "https://dc.lft.to/lastmile_qr_scan", "android": "https://dc.lft.to/lastmile_qr_scan"}, "is_reserved": 0}, {"lon": -77.0322315, "bike_id": "92fd53166e4ce700a991bf313cf17c08", "lat": 38.90737466666667, "fusion_lon": 0.0, "fusion_lat": 0.0, "type": "electric_scooter", "name": "92fd53166e4ce700a991bf313cf17c08", "is_disabled": 0, "rental_uris": {"ios": "https://dc.lft.to/lastmile_qr_scan", "android": "https://dc.lft.to/lastmile_qr_scan"}, "is_reserved": 0}, {"lon": -77.05025616666667, "bike_id": "fda1205672ae253629d319f7d7de759d", "lat": 38.901670833333334, "fusion_lon": 0.0, "fusion_lat": 0.0, "type": "electric_scooter", "name": "fda1205672ae253629d319f7d7de759d", "is_disabled": 0, "rental_uris": {"ios": "https://dc.lft.to/lastmile_qr_scan", "android": "https://dc.lft.to/lastmile_qr_scan"}, "is_reserved": 0}, {"lon": -76.95748016666667, "bike_id": "67584ad32d528ab5c9ae4913d209b716", "lat": 38.884255333333336, "fusion_lon": 0.0, "fusion_lat": 0.0, "type": "electric_scooter", "name": "67584ad32d528ab5c9ae4913d209b716", "is_disabled": 0, "rental_uris": {"ios": "https://dc.lft.to/lastmile_qr_scan", "android": "https://dc.lft.to/lastmile_qr_scan"}, "is_reserved": 0}, {"lon": -77.01972583333334, "bike_id": "2f022ef98f982a39f036b4b969db6663", "lat": 38.93585683333333, "fusion_lon": 0.0, "fusion_lat": 0.0, "type": "electric_scooter", "name": "2f022ef98f982a39f036b4b969db6663", "is_disabled": 0, "rental_uris": {"ios": "https://dc.lft.to/lastmile_qr_scan", "android": "https://dc.lft.to/lastmile_qr_scan"}, "is_reserved": 0}, {"lon": -77.042826, "bike_id": "6e6bfb8d1a3cd96cbadde6d6954f0f7c", "lat": 38.91563266666667, "fusion_lon": 0.0, "fusion_lat": 0.0, "type": "electric_scooter", "name": "6e6bfb8d1a3cd96cbadde6d6954f0f7c", "is_disabled": 0, "rental_uris": {"ios": "https://dc.lft.to/lastmile_qr_scan", "android": "https://dc.lft.to/lastmile_qr_scan"}, "is_reserved": 0}, {"lon": -76.9855825, "bike_id": "b2013481d05ef22eaa8d2665f7ffc816", "lat": 38.89622583333333, "fusion_lon": 0.0, "fusion_lat": 0.0, "type": "electric_scooter", "name": "b2013481d05ef22eaa8d2665f7ffc816", "is_disabled": 0, "rental_uris": {"ios": "https://dc.lft.to/lastmile_qr_scan", "android": "https://dc.lft.to/lastmile_qr_scan"}, "is_reserved": 0}, {"lon": -77.02012516666667, "bike_id": "a5a7c0f60d809d190603d8d193e030ca", "lat": 38.92418466666667, "fusion_lon": 0.0, "fusion_lat": 0.0, "type": "electric_scooter", "name": "a5a7c0f60d809d190603d8d193e030ca", "is_disabled": 0, "rental_uris": {"ios": "https://dc.lft.to/lastmile_qr_scan", "android": "https://dc.lft.to/lastmile_qr_scan"}, "is_reserved": 0}, {"lon": -77.02092033333334, "bike_id": "7fb82c3e6f8def3031eecaf25ace23bd", "lat": 38.92698566666667, "fusion_lon": 0.0, "fusion_lat": 0.0, "type": "electric_scooter", "name": "7fb82c3e6f8def3031eecaf25ace23bd", "is_disabled": 0, "rental_uris": {"ios": "https://dc.lft.to/lastmile_qr_scan", "android": "https://dc.lft.to/lastmile_qr_scan"}, "is_reserved": 0}, {"lon": -77.02718933333334, "bike_id": "d2cb0e925f6b181b7bcf2b402d65860a", "lat": 38.897799, "fusion_lon": 0.0, "fusion_lat": 0.0, "type": "electric_scooter", "name": "d2cb0e925f6b181b7bcf2b402d65860a", "is_disabled": 0, "rental_uris": {"ios": "https://dc.lft.to/lastmile_qr_scan", "android": "https://dc.lft.to/lastmile_qr_scan"}, "is_reserved": 0}, {"lon": -77.03042066666667, "bike_id": "2916fc3780d4690b5523338b65631e22", "lat": 38.878394166666666, "fusion_lon": 0.0, "fusion_lat": 0.0, "type": "electric_scooter", "name": "2916fc3780d4690b5523338b65631e22", "is_disabled": 0, "rental_uris": {"ios": "https://dc.lft.to/lastmile_qr_scan", "android": "https://dc.lft.to/lastmile_qr_scan"}, "is_reserved": 0}, {"lon": -76.99001516666667, "bike_id": "ff26ace36f1eb65c48b272414675b347", "lat": 38.86505016666667, "fusion_lon": 0.0, "fusion_lat": 0.0, "type": "electric_scooter", "name": "ff26ace36f1eb65c48b272414675b347", "is_disabled": 0, "rental_uris": {"ios": "https://dc.lft.to/lastmile_qr_scan", "android": "https://dc.lft.to/lastmile_qr_scan"}, "is_reserved": 0}, {"lon": -77.025783, "bike_id": "7d48bb33def9ea6546c30d9757a05792", "lat": 38.887412, "fusion_lon": 0.0, "fusion_lat": 0.0, "type": "electric_scooter", "name": "7d48bb33def9ea6546c30d9757a05792", "is_disabled": 0, "rental_uris": {"ios": "https://dc.lft.to/lastmile_qr_scan", "android": "https://dc.lft.to/lastmile_qr_scan"}, "is_reserved": 0}, {"lon": -76.989182, "bike_id": "7c34e273fd10a1ba9f775e4589c2987e", "lat": 38.9018815, "fusion_lon": 0.0, "fusion_lat": 0.0, "type": "electric_scooter", "name": "7c34e273fd10a1ba9f775e4589c2987e", "is_disabled": 0, "rental_uris": {"ios": "https://dc.lft.to/lastmile_qr_scan", "android": "https://dc.lft.to/lastmile_qr_scan"}, "is_reserved": 0}, {"lon": -76.93729633333334, "bike_id": "599174f3686d506eda7d12582f25fd92", "lat": 38.89015633333333, "fusion_lon": 0.0, "fusion_lat": 0.0, "type": "electric_scooter", "name": "599174f3686d506eda7d12582f25fd92", "is_disabled": 0, "rental_uris": {"ios": "https://dc.lft.to/lastmile_qr_scan", "android": "https://dc.lft.to/lastmile_qr_scan"}, "is_reserved": 0}, {"lon": -77.02168666666667, "bike_id": "9a17c9ca9ac501557f4fa1537ded848c", "lat": 38.89743766666667, "fusion_lon": 0.0, "fusion_lat": 0.0, "type": "electric_scooter", "name": "9a17c9ca9ac501557f4fa1537ded848c", "is_disabled": 0, "rental_uris": {"ios": "https://dc.lft.to/lastmile_qr_scan", "android": "https://dc.lft.to/lastmile_qr_scan"}, "is_reserved": 0}, {"lon": -77.024122, "bike_id": "7e81ef794dff5a16fea3c4888992e5ec", "lat": 38.93488583333333, "fusion_lon": 0.0, "fusion_lat": 0.0, "type": "electric_bike", "name": "7e81ef794dff5a16fea3c4888992e5ec", "is_disabled": 0, "rental_uris": {"ios": "https://dc.lft.to/lastmile_qr_scan", "android": "https://dc.lft.to/lastmile_qr_scan"}, "is_reserved": 0}, {"lon": -77.02575766666666, "bike_id": "08172491e590899dcc3fa23f36c1152a", "lat": 38.90574516666667, "fusion_lon": 0.0, "fusion_lat": 0.0, "type": "electric_scooter", "name": "08172491e590899dcc3fa23f36c1152a", "is_disabled": 0, "rental_uris": {"ios": "https://dc.lft.to/lastmile_qr_scan", "android": "https://dc.lft.to/lastmile_qr_scan"}, "is_reserved": 0}, {"lon": -77.02211216666667, "bike_id": "d4cd2fa644c3d00a6c5237401e58ab53", "lat": 38.89352433333333, "fusion_lon": 0.0, "fusion_lat": 0.0, "type": "electric_scooter", "name": "d4cd2fa644c3d00a6c5237401e58ab53", "is_disabled": 0, "rental_uris": {"ios": "https://dc.lft.to/lastmile_qr_scan", "android": "https://dc.lft.to/lastmile_qr_scan"}, "is_reserved": 0}, {"lon": -77.03603766666667, "bike_id": "0087748d12d188b4855db9487f34f69a", "lat": 38.93941733333333, "fusion_lon": 0.0, "fusion_lat": 0.0, "type": "electric_scooter", "name": "0087748d12d188b4855db9487f34f69a", "is_disabled": 0, "rental_uris": {"ios": "https://dc.lft.to/lastmile_qr_scan", "android": "https://dc.lft.to/lastmile_qr_scan"}, "is_reserved": 0}, {"lon": -77.05171116666666, "bike_id": "eca9df3e3fd2111f95a70395417840b6", "lat": 38.92345233333333, "fusion_lon": 0.0, "fusion_lat": 0.0, "type": "electric_scooter", "name": "eca9df3e3fd2111f95a70395417840b6", "is_disabled": 0, "rental_uris": {"ios": "https://dc.lft.to/lastmile_qr_scan", "android": "https://dc.lft.to/lastmile_qr_scan"}, "is_reserved": 0}, {"lon": -77.079353, "bike_id": "b8164281d449fef2fdb720fe7da34271", "lat": 38.930944333333336, "fusion_lon": 0.0, "fusion_lat": 0.0, "type": "electric_scooter", "name": "b8164281d449fef2fdb720fe7da34271", "is_disabled": 0, "rental_uris": {"ios": "https://dc.lft.to/lastmile_qr_scan", "android": "https://dc.lft.to/lastmile_qr_scan"}, "is_reserved": 0}, {"lon": -76.99460583333334, "bike_id": "b7f7f5e0fb3d887878598b70c1765349", "lat": 38.94067866666666, "fusion_lon": 0.0, "fusion_lat": 0.0, "type": "electric_scooter", "name": "b7f7f5e0fb3d887878598b70c1765349", "is_disabled": 0, "rental_uris": {"ios": "https://dc.lft.to/lastmile_qr_scan", "android": "https://dc.lft.to/lastmile_qr_scan"}, "is_reserved": 0}, {"lon": -77.05116116666666, "bike_id": "725742929ae3a6e91f7fcbdd51c6c773", "lat": 38.9051005, "fusion_lon": 0.0, "fusion_lat": 0.0, "type": "electric_scooter", "name": "725742929ae3a6e91f7fcbdd51c6c773", "is_disabled": 0, "rental_uris": {"ios": "https://dc.lft.to/lastmile_qr_scan", "android": "https://dc.lft.to/lastmile_qr_scan"}, "is_reserved": 0}, {"lon": -77.07104083333333, "bike_id": "a27943d5522275f7cd467e5fbadb5f79", "lat": 38.919838166666665, "fusion_lon": 0.0, "fusion_lat": 0.0, "type": "electric_scooter", "name": "a27943d5522275f7cd467e5fbadb5f79", "is_disabled": 0, "rental_uris": {"ios": "https://dc.lft.to/lastmile_qr_scan", "android": "https://dc.lft.to/lastmile_qr_scan"}, "is_reserved": 0}, {"lon": -77.01767133333334, "bike_id": "cd975d7b2e678cf46b326b3273da2849", "lat": 38.9040845, "fusion_lon": 0.0, "fusion_lat": 0.0, "type": "electric_scooter", "name": "cd975d7b2e678cf46b326b3273da2849", "is_disabled": 0, "rental_uris": {"ios": "https://dc.lft.to/lastmile_qr_scan", "android": "https://dc.lft.to/lastmile_qr_scan"}, "is_reserved": 0}, {"lon": -76.98802683333334, "bike_id": "2096a5fadb3e940a27036abb00f4e734", "lat": 38.8672505, "fusion_lon": 0.0, "fusion_lat": 0.0, "type": "electric_scooter", "name": "2096a5fadb3e940a27036abb00f4e734", "is_disabled": 0, "rental_uris": {"ios": "https://dc.lft.to/lastmile_qr_scan", "android": "https://dc.lft.to/lastmile_qr_scan"}, "is_reserved": 0}, {"lon": -76.98571733333333, "bike_id": "e3008e09df6059ac13c849e75887342d", "lat": 38.89961, "fusion_lon": 0.0, "fusion_lat": 0.0, "type": "electric_scooter", "name": "e3008e09df6059ac13c849e75887342d", "is_disabled": 0, "rental_uris": {"ios": "https://dc.lft.to/lastmile_qr_scan", "android": "https://dc.lft.to/lastmile_qr_scan"}, "is_reserved": 0}, {"lon": -76.97668833333333, "bike_id": "40c0d0f1774758fdab1629c596407b36", "lat": 38.952479, "fusion_lon": 0.0, "fusion_lat": 0.0, "type": "electric_bike", "name": "40c0d0f1774758fdab1629c596407b36", "is_disabled": 0, "rental_uris": {"ios": "https://dc.lft.to/lastmile_qr_scan", "android": "https://dc.lft.to/lastmile_qr_scan"}, "is_reserved": 0}, {"lon": -77.02445216666666, "bike_id": "7231235ee93d9b07ddc3f17cd141afc4", "lat": 38.92503883333333, "fusion_lon": 0.0, "fusion_lat": 0.0, "type": "electric_scooter", "name": "7231235ee93d9b07ddc3f17cd141afc4", "is_disabled": 0, "rental_uris": {"ios": "https://dc.lft.to/lastmile_qr_scan", "android": "https://dc.lft.to/lastmile_qr_scan"}, "is_reserved": 0}, {"lon": -77.02416716666667, "bike_id": "46ba2add8ce90012faf5bbf58a56aee2", "lat": 38.892291166666666, "fusion_lon": 0.0, "fusion_lat": 0.0, "type": "electric_scooter", "name": "46ba2add8ce90012faf5bbf58a56aee2", "is_disabled": 0, "rental_uris": {"ios": "https://dc.lft.to/lastmile_qr_scan", "android": "https://dc.lft.to/lastmile_qr_scan"}, "is_reserved": 0}, {"lon": -77.00674866666667, "bike_id": "b522af69e66c481bfcc82b298930e9da", "lat": 38.90016333333333, "fusion_lon": 0.0, "fusion_lat": 0.0, "type": "electric_scooter", "name": "b522af69e66c481bfcc82b298930e9da", "is_disabled": 0, "rental_uris": {"ios": "https://dc.lft.to/lastmile_qr_scan", "android": "https://dc.lft.to/lastmile_qr_scan"}, "is_reserved": 0}, {"lon": -76.98160866666667, "bike_id": "babc029672da7341a21e8a4cf8c6cc93", "lat": 38.903282, "fusion_lon": 0.0, "fusion_lat": 0.0, "type": "electric_scooter", "name": "babc029672da7341a21e8a4cf8c6cc93", "is_disabled": 0, "rental_uris": {"ios": "https://dc.lft.to/lastmile_qr_scan", "android": "https://dc.lft.to/lastmile_qr_scan"}, "is_reserved": 0}, {"lon": -76.9830365, "bike_id": "64477c957ccbeb2e6e6c89577571dc0e", "lat": 38.8689445, "fusion_lon": 0.0, "fusion_lat": 0.0, "type": "electric_scooter", "name": "64477c957ccbeb2e6e6c89577571dc0e", "is_disabled": 0, "rental_uris": {"ios": "https://dc.lft.to/lastmile_qr_scan", "android": "https://dc.lft.to/lastmile_qr_scan"}, "is_reserved": 0}, {"lon": -76.9606255, "bike_id": "5b48f056a6e7c7088e5853a98c75921e", "lat": 38.884072333333336, "fusion_lon": 0.0, "fusion_lat": 0.0, "type": "electric_bike", "name": "5b48f056a6e7c7088e5853a98c75921e", "is_disabled": 0, "rental_uris": {"ios": "https://dc.lft.to/lastmile_qr_scan", "android": "https://dc.lft.to/lastmile_qr_scan"}, "is_reserved": 0}, {"lon": -77.0318005, "bike_id": "73c5e0f7556770405e3b75d4e8cfa61b", "lat": 38.9191705, "fusion_lon": 0.0, "fusion_lat": 0.0, "type": "electric_scooter", "name": "73c5e0f7556770405e3b75d4e8cfa61b", "is_disabled": 0, "rental_uris": {"ios": "https://dc.lft.to/lastmile_qr_scan", "android": "https://dc.lft.to/lastmile_qr_scan"}, "is_reserved": 0}, {"lon": -76.98714616666666, "bike_id": "e300ea47de120e28d2ea805fba1f6912", "lat": 38.86630616666667, "fusion_lon": 0.0, "fusion_lat": 0.0, "type": "electric_scooter", "name": "e300ea47de120e28d2ea805fba1f6912", "is_disabled": 0, "rental_uris": {"ios": "https://dc.lft.to/lastmile_qr_scan", "android": "https://dc.lft.to/lastmile_qr_scan"}, "is_reserved": 0}, {"lon": -77.00205416666667, "bike_id": "3e7093e68d6c538e9c0b7522bd2bae01", "lat": 38.900398833333334, "fusion_lon": 0.0, "fusion_lat": 0.0, "type": "electric_scooter", "name": "3e7093e68d6c538e9c0b7522bd2bae01", "is_disabled": 0, "rental_uris": {"ios": "https://dc.lft.to/lastmile_qr_scan", "android": "https://dc.lft.to/lastmile_qr_scan"}, "is_reserved": 0}, {"lon": -77.03460583333333, "bike_id": "1d79d4c35fa766898e40889d4758ad95", "lat": 38.91010433333334, "fusion_lon": 0.0, "fusion_lat": 0.0, "type": "electric_scooter", "name": "1d79d4c35fa766898e40889d4758ad95", "is_disabled": 0, "rental_uris": {"ios": "https://dc.lft.to/lastmile_qr_scan", "android": "https://dc.lft.to/lastmile_qr_scan"}, "is_reserved": 0}, {"lon": -77.0113295, "bike_id": "fc67dfb7c4eab31b579f39fc831eac7a", "lat": 38.90731366666667, "fusion_lon": 0.0, "fusion_lat": 0.0, "type": "electric_scooter", "name": "fc67dfb7c4eab31b579f39fc831eac7a", "is_disabled": 0, "rental_uris": {"ios": "https://dc.lft.to/lastmile_qr_scan", "android": "https://dc.lft.to/lastmile_qr_scan"}, "is_reserved": 0}, {"lon": -76.98885566666667, "bike_id": "2fa04d6e066364c79fc678717f3799a9", "lat": 38.8665335, "fusion_lon": 0.0, "fusion_lat": 0.0, "type": "electric_scooter", "name": "2fa04d6e066364c79fc678717f3799a9", "is_disabled": 0, "rental_uris": {"ios": "https://dc.lft.to/lastmile_qr_scan", "android": "https://dc.lft.to/lastmile_qr_scan"}, "is_reserved": 0}, {"lon": -77.02154166666666, "bike_id": "45e0d5610be7786a446fb669f5ba790f", "lat": 38.92229316666667, "fusion_lon": 0.0, "fusion_lat": 0.0, "type": "electric_scooter", "name": "45e0d5610be7786a446fb669f5ba790f", "is_disabled": 0, "rental_uris": {"ios": "https://dc.lft.to/lastmile_qr_scan", "android": "https://dc.lft.to/lastmile_qr_scan"}, "is_reserved": 0}, {"lon": -76.92769633333333, "bike_id": "47f55d1d75578b1d99e8c87ba3ba83e5", "lat": 38.900877, "fusion_lon": 0.0, "fusion_lat": 0.0, "type": "electric_scooter", "name": "47f55d1d75578b1d99e8c87ba3ba83e5", "is_disabled": 0, "rental_uris": {"ios": "https://dc.lft.to/lastmile_qr_scan", "android": "https://dc.lft.to/lastmile_qr_scan"}, "is_reserved": 0}, {"lon": -77.054938, "bike_id": "1a31f4912248d3908d3cedfa792be397", "lat": 38.90844033333333, "fusion_lon": 0.0, "fusion_lat": 0.0, "type": "electric_scooter", "name": "1a31f4912248d3908d3cedfa792be397", "is_disabled": 0, "rental_uris": {"ios": "https://dc.lft.to/lastmile_qr_scan", "android": "https://dc.lft.to/lastmile_qr_scan"}, "is_reserved": 0}, {"lon": -77.05194383333334, "bike_id": "d4a2a1d9d6b2d0213a07f10322a681bc", "lat": 38.9245655, "fusion_lon": 0.0, "fusion_lat": 0.0, "type": "electric_scooter", "name": "d4a2a1d9d6b2d0213a07f10322a681bc", "is_disabled": 0, "rental_uris": {"ios": "https://dc.lft.to/lastmile_qr_scan", "android": "https://dc.lft.to/lastmile_qr_scan"}, "is_reserved": 0}, {"lon": -77.0237265, "bike_id": "8b37c1d5f213fea0369c694271ac3d03", "lat": 38.902052166666664, "fusion_lon": 0.0, "fusion_lat": 0.0, "type": "electric_scooter", "name": "8b37c1d5f213fea0369c694271ac3d03", "is_disabled": 0, "rental_uris": {"ios": "https://dc.lft.to/lastmile_qr_scan", "android": "https://dc.lft.to/lastmile_qr_scan"}, "is_reserved": 0}, {"lon": -77.03659083333334, "bike_id": "3443868c44ec5194cb6fa2940b2dcd05", "lat": 38.91245833333333, "fusion_lon": 0.0, "fusion_lat": 0.0, "type": "electric_scooter", "name": "3443868c44ec5194cb6fa2940b2dcd05", "is_disabled": 0, "rental_uris": {"ios": "https://dc.lft.to/lastmile_qr_scan", "android": "https://dc.lft.to/lastmile_qr_scan"}, "is_reserved": 0}, {"lon": -77.11592116666667, "bike_id": "686def5327127c9c6aea953b9f7619ab", "lat": 39.074961, "fusion_lon": 0.0, "fusion_lat": 0.0, "type": "electric_bike", "name": "686def5327127c9c6aea953b9f7619ab", "is_disabled": 0, "rental_uris": {"ios": "https://dc.lft.to/lastmile_qr_scan", "android": "https://dc.lft.to/lastmile_qr_scan"}, "is_reserved": 0}, {"lon": -76.96910233333334, "bike_id": "f8fa801f54961b024e4f629af22d45c7", "lat": 38.84613316666667, "fusion_lon": 0.0, "fusion_lat": 0.0, "type": "electric_bike", "name": "f8fa801f54961b024e4f629af22d45c7", "is_disabled": 0, "rental_uris": {"ios": "https://dc.lft.to/lastmile_qr_scan", "android": "https://dc.lft.to/lastmile_qr_scan"}, "is_reserved": 0}, {"lon": -77.03282983333334, "bike_id": "be7d633ab4fb57f4db14003b341bd1b7", "lat": 38.9377755, "fusion_lon": 0.0, "fusion_lat": 0.0, "type": "electric_bike", "name": "be7d633ab4fb57f4db14003b341bd1b7", "is_disabled": 0, "rental_uris": {"ios": "https://dc.lft.to/lastmile_qr_scan", "android": "https://dc.lft.to/lastmile_qr_scan"}, "is_reserved": 0}, {"lon": -77.02822433333333, "bike_id": "0e75c2694570be8f375387aabfb936bf", "lat": 38.93883783333333, "fusion_lon": 0.0, "fusion_lat": 0.0, "type": "electric_scooter", "name": "0e75c2694570be8f375387aabfb936bf", "is_disabled": 0, "rental_uris": {"ios": "https://dc.lft.to/lastmile_qr_scan", "android": "https://dc.lft.to/lastmile_qr_scan"}, "is_reserved": 0}, {"lon": -76.99073066666666, "bike_id": "6aedfe65487fd530edc807bfd0c092a5", "lat": 38.927460333333336, "fusion_lon": 0.0, "fusion_lat": 0.0, "type": "electric_scooter", "name": "6aedfe65487fd530edc807bfd0c092a5", "is_disabled": 0, "rental_uris": {"ios": "https://dc.lft.to/lastmile_qr_scan", "android": "https://dc.lft.to/lastmile_qr_scan"}, "is_reserved": 0}, {"lon": -76.99930783333333, "bike_id": "6ca44c8e82e1f7fafd4471f0aede7e05", "lat": 38.843161, "fusion_lon": 0.0, "fusion_lat": 0.0, "type": "electric_scooter", "name": "6ca44c8e82e1f7fafd4471f0aede7e05", "is_disabled": 0, "rental_uris": {"ios": "https://dc.lft.to/lastmile_qr_scan", "android": "https://dc.lft.to/lastmile_qr_scan"}, "is_reserved": 0}, {"lon": -76.990508, "bike_id": "e85565ee578d630bd280a3790fdf9a02", "lat": 38.86378583333333, "fusion_lon": 0.0, "fusion_lat": 0.0, "type": "electric_scooter", "name": "e85565ee578d630bd280a3790fdf9a02", "is_disabled": 0, "rental_uris": {"ios": "https://dc.lft.to/lastmile_qr_scan", "android": "https://dc.lft.to/lastmile_qr_scan"}, "is_reserved": 0}, {"lon": -77.01622516666667, "bike_id": "4901110f8f6d4f795f3be861dc415338", "lat": 38.906908666666666, "fusion_lon": 0.0, "fusion_lat": 0.0, "type": "electric_scooter", "name": "4901110f8f6d4f795f3be861dc415338", "is_disabled": 0, "rental_uris": {"ios": "https://dc.lft.to/lastmile_qr_scan", "android": "https://dc.lft.to/lastmile_qr_scan"}, "is_reserved": 0}, {"lon": -77.02219716666667, "bike_id": "fe0bb3216ec6585a033da8737bea4142", "lat": 38.91018716666667, "fusion_lon": 0.0, "fusion_lat": 0.0, "type": "electric_scooter", "name": "fe0bb3216ec6585a033da8737bea4142", "is_disabled": 0, "rental_uris": {"ios": "https://dc.lft.to/lastmile_qr_scan", "android": "https://dc.lft.to/lastmile_qr_scan"}, "is_reserved": 0}, {"lon": -77.022683, "bike_id": "5b907c4469633584c027cb639f8b6cf0", "lat": 38.912754, "fusion_lon": 0.0, "fusion_lat": 0.0, "type": "electric_scooter", "name": "5b907c4469633584c027cb639f8b6cf0", "is_disabled": 0, "rental_uris": {"ios": "https://dc.lft.to/lastmile_qr_scan", "android": "https://dc.lft.to/lastmile_qr_scan"}, "is_reserved": 0}, {"lon": -77.036608, "bike_id": "0959322cac5cae9e27cc60f3b8935473", "lat": 38.90287983333333, "fusion_lon": 0.0, "fusion_lat": 0.0, "type": "electric_scooter", "name": "0959322cac5cae9e27cc60f3b8935473", "is_disabled": 0, "rental_uris": {"ios": "https://dc.lft.to/lastmile_qr_scan", "android": "https://dc.lft.to/lastmile_qr_scan"}, "is_reserved": 0}, {"lon": -77.02691166666666, "bike_id": "4501da3e6f5f863594e42ce0a40ad0af", "lat": 38.90396583333333, "fusion_lon": 0.0, "fusion_lat": 0.0, "type": "electric_scooter", "name": "4501da3e6f5f863594e42ce0a40ad0af", "is_disabled": 0, "rental_uris": {"ios": "https://dc.lft.to/lastmile_qr_scan", "android": "https://dc.lft.to/lastmile_qr_scan"}, "is_reserved": 0}, {"lon": -76.998739, "bike_id": "a245f6172b4da2a15efe9e8b2b540fb6", "lat": 38.90029333333333, "fusion_lon": 0.0, "fusion_lat": 0.0, "type": "electric_scooter", "name": "a245f6172b4da2a15efe9e8b2b540fb6", "is_disabled": 0, "rental_uris": {"ios": "https://dc.lft.to/lastmile_qr_scan", "android": "https://dc.lft.to/lastmile_qr_scan"}, "is_reserved": 0}, {"lon": -77.03653366666667, "bike_id": "8c683e6b74ac718846e2b480774b8c6e", "lat": 38.9332565, "fusion_lon": 0.0, "fusion_lat": 0.0, "type": "electric_scooter", "name": "8c683e6b74ac718846e2b480774b8c6e", "is_disabled": 0, "rental_uris": {"ios": "https://dc.lft.to/lastmile_qr_scan", "android": "https://dc.lft.to/lastmile_qr_scan"}, "is_reserved": 0}, {"lon": -77.0024645, "bike_id": "ee54dd03ad98c4d2edaadeb86c8d6f79", "lat": 38.885138, "fusion_lon": 0.0, "fusion_lat": 0.0, "type": "electric_scooter", "name": "ee54dd03ad98c4d2edaadeb86c8d6f79", "is_disabled": 0, "rental_uris": {"ios": "https://dc.lft.to/lastmile_qr_scan", "android": "https://dc.lft.to/lastmile_qr_scan"}, "is_reserved": 0}, {"lon": -77.027255, "bike_id": "b26f2ca2258e5314893f710497bcaeda", "lat": 38.89777083333333, "fusion_lon": 0.0, "fusion_lat": 0.0, "type": "electric_scooter", "name": "b26f2ca2258e5314893f710497bcaeda", "is_disabled": 0, "rental_uris": {"ios": "https://dc.lft.to/lastmile_qr_scan", "android": "https://dc.lft.to/lastmile_qr_scan"}, "is_reserved": 0}, {"lon": -77.00957566666666, "bike_id": "ba2c1b4a5a722013896d1409897b0365", "lat": 38.921387, "fusion_lon": 0.0, "fusion_lat": 0.0, "type": "electric_scooter", "name": "ba2c1b4a5a722013896d1409897b0365", "is_disabled": 0, "rental_uris": {"ios": "https://dc.lft.to/lastmile_qr_scan", "android": "https://dc.lft.to/lastmile_qr_scan"}, "is_reserved": 0}, {"lon": -76.99256016666666, "bike_id": "59a70b85e943ab62c038d6f2f6bd73f2", "lat": 38.8999455, "fusion_lon": 0.0, "fusion_lat": 0.0, "type": "electric_scooter", "name": "59a70b85e943ab62c038d6f2f6bd73f2", "is_disabled": 0, "rental_uris": {"ios": "https://dc.lft.to/lastmile_qr_scan", "android": "https://dc.lft.to/lastmile_qr_scan"}, "is_reserved": 0}, {"lon": -77.03345383333334, "bike_id": "451a03088487ae356efca29fb805676d", "lat": 38.93514533333333, "fusion_lon": 0.0, "fusion_lat": 0.0, "type": "electric_scooter", "name": "451a03088487ae356efca29fb805676d", "is_disabled": 0, "rental_uris": {"ios": "https://dc.lft.to/lastmile_qr_scan", "android": "https://dc.lft.to/lastmile_qr_scan"}, "is_reserved": 0}, {"lon": -76.98244216666667, "bike_id": "a813c51a9ab91b50fae94079d20110b0", "lat": 38.864604, "fusion_lon": 0.0, "fusion_lat": 0.0, "type": "electric_scooter", "name": "a813c51a9ab91b50fae94079d20110b0", "is_disabled": 0, "rental_uris": {"ios": "https://dc.lft.to/lastmile_qr_scan", "android": "https://dc.lft.to/lastmile_qr_scan"}, "is_reserved": 0}, {"lon": -77.04697133333333, "bike_id": "7e9f97edfce8fb2535f26b3f514b21c2", "lat": 38.918987333333334, "fusion_lon": 0.0, "fusion_lat": 0.0, "type": "electric_scooter", "name": "7e9f97edfce8fb2535f26b3f514b21c2", "is_disabled": 0, "rental_uris": {"ios": "https://dc.lft.to/lastmile_qr_scan", "android": "https://dc.lft.to/lastmile_qr_scan"}, "is_reserved": 0}, {"lon": -77.04705916666667, "bike_id": "826ee6007d9c4f724a8934b0e7ab0a26", "lat": 38.92058816666667, "fusion_lon": 0.0, "fusion_lat": 0.0, "type": "electric_scooter", "name": "826ee6007d9c4f724a8934b0e7ab0a26", "is_disabled": 0, "rental_uris": {"ios": "https://dc.lft.to/lastmile_qr_scan", "android": "https://dc.lft.to/lastmile_qr_scan"}, "is_reserved": 0}, {"lon": -77.0366205, "bike_id": "8d615ff06ed42f1c1248f3568a993a26", "lat": 38.933406, "fusion_lon": 0.0, "fusion_lat": 0.0, "type": "electric_scooter", "name": "8d615ff06ed42f1c1248f3568a993a26", "is_disabled": 0, "rental_uris": {"ios": "https://dc.lft.to/lastmile_qr_scan", "android": "https://dc.lft.to/lastmile_qr_scan"}, "is_reserved": 0}, {"lon": -76.949381, "bike_id": "6bf8377aabfe6dcbc77b00d636785757", "lat": 38.90369916666667, "fusion_lon": 0.0, "fusion_lat": 0.0, "type": "electric_scooter", "name": "6bf8377aabfe6dcbc77b00d636785757", "is_disabled": 0, "rental_uris": {"ios": "https://dc.lft.to/lastmile_qr_scan", "android": "https://dc.lft.to/lastmile_qr_scan"}, "is_reserved": 0}, {"lon": -77.0328175, "bike_id": "5f18c71375fc2bb7b0240afb907e91f4", "lat": 38.93342583333333, "fusion_lon": 0.0, "fusion_lat": 0.0, "type": "electric_scooter", "name": "5f18c71375fc2bb7b0240afb907e91f4", "is_disabled": 0, "rental_uris": {"ios": "https://dc.lft.to/lastmile_qr_scan", "android": "https://dc.lft.to/lastmile_qr_scan"}, "is_reserved": 0}, {"lon": -77.00344183333333, "bike_id": "8b44791fadeb48f7aeef14b0c70d60c3", "lat": 38.90271883333333, "fusion_lon": 0.0, "fusion_lat": 0.0, "type": "electric_scooter", "name": "8b44791fadeb48f7aeef14b0c70d60c3", "is_disabled": 0, "rental_uris": {"ios": "https://dc.lft.to/lastmile_qr_scan", "android": "https://dc.lft.to/lastmile_qr_scan"}, "is_reserved": 0}, {"lon": -76.98107783333333, "bike_id": "cdb611f40f5b9344bd68480a38043f0f", "lat": 38.877305166666666, "fusion_lon": 0.0, "fusion_lat": 0.0, "type": "electric_bike", "name": "cdb611f40f5b9344bd68480a38043f0f", "is_disabled": 0, "rental_uris": {"ios": "https://dc.lft.to/lastmile_qr_scan", "android": "https://dc.lft.to/lastmile_qr_scan"}, "is_reserved": 0},