{"data": {"bikes": [{"bike_id": "993e77644e1bbb4381369816f73cf5a5", "type": "electric_scooter", "is_disabled": 0, "lat": 38.9237195, "rental_uris": {"ios": "https://dc.lft.to/lastmile_qr_scan", "android": "https://dc.lft.to/lastmile_qr_scan"}, "is_reserved": 0, "fusion_lon": 0.0, "fusion_lat": 0.0, "lon": -77.01214066666667, "name": "993e77644e1bbb4381369816f73cf5a5"}, {"bike_id": "3e1220c55638bf86c64e219dbfa47ff6", "type": "electric_scooter", "is_disabled": 0, "lat": 38.923321666666666, "rental_uris": {"ios": "https://dc.lft.to/lastmile_qr_scan", "android": "https://dc.lft.to/lastmile_qr_scan"}, "is_reserved": 0, "fusion_lon": 0.0, "fusion_lat": 0.0, "lon": -77.00890466666667, "name": "3e1220c55638bf86c64e219dbfa47ff6"}, {"bike_id": "b2565672d7759980047afd16ea22363d", "type": "electric_scooter", "is_disabled": 0, "lat": 38.905128833333336, "rental_uris": {"ios": "https://dc.lft.to/lastmile_qr_scan", "android": "https://dc.lft.to/lastmile_qr_scan"}, "is_reserved": 0, "fusion_lon": 0.0, "fusion_lat": 0.0, "lon": -77.043782, "name": "b2565672d7759980047afd16ea22363d"}, {"bike_id": "e297e599eaab51caea0ae4d383eff130", "type": "electric_scooter", "is_disabled": 0, "lat": 38.949011, "rental_uris": {"ios": "https://dc.lft.to/lastmile_qr_scan", "android": "https://dc.lft.to/lastmile_qr_scan"}, "is_reserved": 0, "fusion_lon": 0.0, "fusion_lat": 0.0, "lon": -77.020775, "name": "e297e599eaab51caea0ae4d383eff130"}, {"bike_id": "90ac03a2f58c73cddf8cf929dd2b64c8", "type": "electric_bike", "is_disabled": 0, "lat": 38.908940666666666, "rental_uris": {"ios": "https://dc.lft.to/lastmile_qr_scan", "android": "https://dc.lft.to/lastmile_qr_scan"}, "is_reserved": 0, "fusion_lon": 0.0, "fusion_lat": 0.0, "lon": -77.05719666666667, "name": "90ac03a2f58c73cddf8cf929dd2b64c8"}, {"bike_id": "09248d8a2644ce189e126898505c4585", "type": "electric_scooter", "is_disabled": 0, "lat": 38.936111, "rental_uris": {"ios": "https://dc.lft.to/lastmile_qr_scan", "android": "https://dc.lft.to/lastmile_qr_scan"}, "is_reserved": 0, "fusion_lon": 0.0, "fusion_lat": 0.0, "lon": -77.03780383333333, "name": "09248d8a2644ce189e126898505c4585"}, {"bike_id": "706e1db74c7ec05bcde782c0a27b1543", "type": "electric_bike", "is_disabled": 0, "lat": 38.951728, "rental_uris": {"ios": "https://dc.lft.to/lastmile_qr_scan", "android": "https://dc.lft.to/lastmile_qr_scan"}, "is_reserved": 0, "fusion_lon": 0.0, "fusion_lat": 0.0, "lon": -76.97730466666667, "name": "706e1db74c7ec05bcde782c0a27b1543"}, {"bike_id": "792afa56b8d254d6b5ffe49cef81a8aa", "type": "electric_scooter", "is_disabled": 0, "lat": 38.916576166666665, "rental_uris": {"ios": "https://dc.lft.to/lastmile_qr_scan", "android": "https://dc.lft.to/lastmile_qr_scan"}, "is_reserved": 0, "fusion_lon": 0.0, "fusion_lat": 0.0, "lon": -76.97908283333334, "name": "792afa56b8d254d6b5ffe49cef81a8aa"}, {"bike_id": "dc197b427648ecdcf13131c2b132feb2", "type": "electric_scooter", "is_disabled": 0, "lat": 38.900443833333334, "rental_uris": {"ios": "https://dc.lft.to/lastmile_qr_scan", "android": "https://dc.lft.to/lastmile_qr_scan"}, "is_reserved": 0, "fusion_lon": 0.0, "fusion_lat": 0.0, "lon": -77.017284, "name": "dc197b427648ecdcf13131c2b132feb2"}, {"bike_id": "7b1db0c6198d40299a855c74b8c98dfb", "type": "electric_bike", "is_disabled": 0, "lat": 38.98764333333333, "rental_uris": {"ios": "https://dc.lft.to/lastmile_qr_scan", "android": "https://dc.lft.to/lastmile_qr_scan"}, "is_reserved": 0, "fusion_lon": 0.0, "fusion_lat": 0.0, "lon": -77.1405185, "name": "7b1db0c6198d40299a855c74b8c98dfb"}, {"bike_id": "5a7eeb28480a08f87ed98ed1211212c3", "type": "electric_scooter", "is_disabled": 0, "lat": 38.92484183333333, "rental_uris": {"ios": "https://dc.lft.to/lastmile_qr_scan", "android": "https://dc.lft.to/lastmile_qr_scan"}, "is_reserved": 0, "fusion_lon": 0.0, "fusion_lat": 0.0, "lon": -77.03177583333333, "name": "5a7eeb28480a08f87ed98ed1211212c3"}, {"bike_id": "5e76d870183ecae4c0e46f1007a4fc20", "type": "electric_scooter", "is_disabled": 0, "lat": 38.88132016666667, "rental_uris": {"ios": "https://dc.lft.to/lastmile_qr_scan", "android": "https://dc.lft.to/lastmile_qr_scan"}, "is_reserved": 0, "fusion_lon": 0.0, "fusion_lat": 0.0, "lon": -76.98351766666667, "name": "5e76d870183ecae4c0e46f1007a4fc20"}, {"bike_id": "9a84fcc0ac18c718c35fe706043704d4", "type": "electric_scooter", "is_disabled": 0, "lat": 38.94741416666667, "rental_uris": {"ios": "https://dc.lft.to/lastmile_qr_scan", "android": "https://dc.lft.to/lastmile_qr_scan"}, "is_reserved": 0, "fusion_lon": 0.0, "fusion_lat": 0.0, "lon": -77.07587883333333, "name": "9a84fcc0ac18c718c35fe706043704d4"}, {"bike_id": "f85a4ecec1e2935610d2c2d1dd243996", "type": "electric_scooter", "is_disabled": 0, "lat": 38.916966, "rental_uris": {"ios": "https://dc.lft.to/lastmile_qr_scan", "android": "https://dc.lft.to/lastmile_qr_scan"}, "is_reserved": 0, "fusion_lon": 0.0, "fusion_lat": 0.0, "lon": -77.006551, "name": "f85a4ecec1e2935610d2c2d1dd243996"}, {"bike_id": "6da47218ce9364d94f7841fccf56877b", "type": "electric_scooter", "is_disabled": 0, "lat": 38.912641666666666, "rental_uris": {"ios": "https://dc.lft.to/lastmile_qr_scan", "android": "https://dc.lft.to/lastmile_qr_scan"}, "is_reserved": 0, "fusion_lon": 0.0, "fusion_lat": 0.0, "lon": -77.01764416666667, "name": "6da47218ce9364d94f7841fccf56877b"}, {"bike_id": "338fa5e9c445a4ef5be394f7a7055b99", "type": "electric_scooter", "is_disabled": 0, "lat": 38.9182185, "rental_uris": {"ios": "https://dc.lft.to/lastmile_qr_scan", "android": "https://dc.lft.to/lastmile_qr_scan"}, "is_reserved": 0, "fusion_lon": 0.0, "fusion_lat": 0.0, "lon": -77.04943833333333, "name": "338fa5e9c445a4ef5be394f7a7055b99"}, {"bike_id": "eea0ae990e01181735f34fa633211a4b", "type": "electric_scooter", "is_disabled": 0, "lat": 38.90971166666667, "rental_uris": {"ios": "https://dc.lft.to/lastmile_qr_scan", "android": "https://dc.lft.to/lastmile_qr_scan"}, "is_reserved": 0, "fusion_lon": 0.0, "fusion_lat": 0.0, "lon": -77.04645616666667, "name": "eea0ae990e01181735f34fa633211a4b"}, {"bike_id": "799f730f5711a6866ba09543bb1a1b55", "type": "electric_scooter", "is_disabled": 0, "lat": 38.94437166666667, "rental_uris": {"ios": "https://dc.lft.to/lastmile_qr_scan", "android": "https://dc.lft.to/lastmile_qr_scan"}, "is_reserved": 0, "fusion_lon": 0.0, "fusion_lat": 0.0, "lon": -77.01451383333334, "name": "799f730f5711a6866ba09543bb1a1b55"}, {"bike_id": "7cd19f6ce58d0c063847a8e84ec3d4b1", "type": "electric_bike", "is_disabled": 0, "lat": 39.05276966666667, "rental_uris": {"ios": "https://dc.lft.to/lastmile_qr_scan", "android": "https://dc.lft.to/lastmile_qr_scan"}, "is_reserved": 0, "fusion_lon": 0.0, "fusion_lat": 0.0, "lon": -77.0806915, "name": "7cd19f6ce58d0c063847a8e84ec3d4b1"}, {"bike_id": "b574808bf18a01c55105581e3d3d8f5d", "type": "electric_scooter", "is_disabled": 0, "lat": 38.930993, "rental_uris": {"ios": "https://dc.lft.to/lastmile_qr_scan", "android": "https://dc.lft.to/lastmile_qr_scan"}, "is_reserved": 0, "fusion_lon": 0.0, "fusion_lat": 0.0, "lon": -77.0247995, "name": "b574808bf18a01c55105581e3d3d8f5d"}, {"bike_id": "ed72e3af0d97a3735b12514aa42f1ea5", "type": "electric_scooter", "is_disabled": 0, "lat": 38.90161483333333, "rental_uris": {"ios": "https://dc.lft.to/lastmile_qr_scan", "android": "https://dc.lft.to/lastmile_qr_scan"}, "is_reserved": 0, "fusion_lon": 0.0, "fusion_lat": 0.0, "lon": -76.98061583333333, "name": "ed72e3af0d97a3735b12514aa42f1ea5"}, {"bike_id": "9f2036c9149ddd12a617ae06cdffb80c", "type": "electric_scooter", "is_disabled": 0, "lat": 38.93475166666666, "rental_uris": {"ios": "https://dc.lft.to/lastmile_qr_scan", "android": "https://dc.lft.to/lastmile_qr_scan"}, "is_reserved": 0, "fusion_lon": 0.0, "fusion_lat": 0.0, "lon": -77.0358055, "name": "9f2036c9149ddd12a617ae06cdffb80c"}, {"bike_id": "c8fb605fc3efe4f7795a53c27fc35f4d", "type": "electric_scooter", "is_disabled": 0, "lat": 38.933416, "rental_uris": {"ios": "https://dc.lft.to/lastmile_qr_scan", "android": "https://dc.lft.to/lastmile_qr_scan"}, "is_reserved": 0, "fusion_lon": 0.0, "fusion_lat": 0.0, "lon": -77.02060916666667, "name": "c8fb605fc3efe4f7795a53c27fc35f4d"}, {"bike_id": "b771ce9f2c54de831f2d83b6969a8be0", "type": "electric_scooter", "is_disabled": 0, "lat": 38.9313175, "rental_uris": {"ios": "https://dc.lft.to/lastmile_qr_scan", "android": "https://dc.lft.to/lastmile_qr_scan"}, "is_reserved": 0, "fusion_lon": 0.0, "fusion_lat": 0.0, "lon": -76.99576166666667, "name": "b771ce9f2c54de831f2d83b6969a8be0"}, {"bike_id": "6d7a7d7fa8f8c6252107b63ab66c2f4b", "type": "electric_scooter", "is_disabled": 0, "lat": 38.86698466666667, "rental_uris": {"ios": "https://dc.lft.to/lastmile_qr_scan", "android": "https://dc.lft.to/lastmile_qr_scan"}, "is_reserved": 0, "fusion_lon": 0.0, "fusion_lat": 0.0, "lon": -76.98717233333333, "name": "6d7a7d7fa8f8c6252107b63ab66c2f4b"}, {"bike_id": "55204d331ebb9d7be3340d33b467636d", "type": "electric_scooter", "is_disabled": 0, "lat": 38.90703966666667, "rental_uris": {"ios": "https://dc.lft.to/lastmile_qr_scan", "android": "https://dc.lft.to/lastmile_qr_scan"}, "is_reserved": 0, "fusion_lon": 0.0, "fusion_lat": 0.0, "lon": -77.023863, "name": "55204d331ebb9d7be3340d33b467636d"}, {"bike_id": "6e89bbdb6e1323109a209334d5934104", "type": "electric_scooter", "is_disabled": 0, "lat": 38.924101, "rental_uris": {"ios": "https://dc.lft.to/lastmile_qr_scan", "android": "https://dc.lft.to/lastmile_qr_scan"}, "is_reserved": 0, "fusion_lon": 0.0, "fusion_lat": 0.0, "lon": -77.036393, "name": "6e89bbdb6e1323109a209334d5934104"}, {"bike_id": "9644dd5675dec897a4884afba482d24e", "type": "electric_scooter", "is_disabled": 0, "lat": 38.89196583333333, "rental_uris": {"ios": "https://dc.lft.to/lastmile_qr_scan", "android": "https://dc.lft.to/lastmile_qr_scan"}, "is_reserved": 0, "fusion_lon": 0.0, "fusion_lat": 0.0, "lon": -77.00235066666667, "name": "9644dd5675dec897a4884afba482d24e"}, {"bike_id": "ff2e94bf7d5bcdc6c95646ddab97e984", "type": "electric_scooter", "is_disabled": 0, "lat": 38.9171085, "rental_uris": {"ios": "https://dc.lft.to/lastmile_qr_scan", "android": "https://dc.lft.to/lastmile_qr_scan"}, "is_reserved": 0, "fusion_lon": 0.0, "fusion_lat": 0.0, "lon": -77.04600016666667, "name": "ff2e94bf7d5bcdc6c95646ddab97e984"}, {"bike_id": "2ee598cefde721b51a6a1b457245102e", "type": "electric_scooter", "is_disabled": 0, "lat": 38.8778795, "rental_uris": {"ios": "https://dc.lft.to/lastmile_qr_scan", "android": "https://dc.lft.to/lastmile_qr_scan"}, "is_reserved": 0, "fusion_lon": 0.0, "fusion_lat": 0.0, "lon": -77.01732816666667, "name": "2ee598cefde721b51a6a1b457245102e"}, {"bike_id": "c0024f214afb75ce86abd3751c9e0227", "type": "electric_scooter", "is_disabled": 0, "lat": 38.966046666666664, "rental_uris": {"ios": "https://dc.lft.to/lastmile_qr_scan", "android": "https://dc.lft.to/lastmile_qr_scan"}, "is_reserved": 0, "fusion_lon": 0.0, "fusion_lat": 0.0, "lon": -77.01979366666667, "name": "c0024f214afb75ce86abd3751c9e0227"}, {"bike_id": "fecb7ddb60f13de11a20f2a2d5f44caa", "type": "electric_scooter", "is_disabled": 0, "lat": 38.91911133333333, "rental_uris": {"ios": "https://dc.lft.to/lastmile_qr_scan", "android": "https://dc.lft.to/lastmile_qr_scan"}, "is_reserved": 0, "fusion_lon": 0.0, "fusion_lat": 0.0, "lon": -77.04467716666667, "name": "fecb7ddb60f13de11a20f2a2d5f44caa"}, {"bike_id": "adeb8c38d8ddc186f5adbafeadeb3d50", "type": "electric_scooter", "is_disabled": 0, "lat": 38.920596833333335, "rental_uris": {"ios": "https://dc.lft.to/lastmile_qr_scan", "android": "https://dc.lft.to/lastmile_qr_scan"}, "is_reserved": 0, "fusion_lon": 0.0, "fusion_lat": 0.0, "lon": -77.034581, "name": "adeb8c38d8ddc186f5adbafeadeb3d50"}, {"bike_id": "b4993b300eb68818b1af7ec6e844954f", "type": "electric_scooter", "is_disabled": 0, "lat": 38.914225, "rental_uris": {"ios": "https://dc.lft.to/lastmile_qr_scan", "android": "https://dc.lft.to/lastmile_qr_scan"}, "is_reserved": 0, "fusion_lon": 0.0, "fusion_lat": 0.0, "lon": -77.02203116666666, "name": "b4993b300eb68818b1af7ec6e844954f"}, {"bike_id": "c49dfaeac8880922ae36795d3d9d3360", "type": "electric_scooter", "is_disabled": 0, "lat": 38.89667433333334, "rental_uris": {"ios": "https://dc.lft.to/lastmile_qr_scan", "android": "https://dc.lft.to/lastmile_qr_scan"}, "is_reserved": 0, "fusion_lon": 0.0, "fusion_lat": 0.0, "lon": -76.98818933333334, "name": "c49dfaeac8880922ae36795d3d9d3360"}, {"bike_id": "35a46fca40185538ba3261391476ba99", "type": "electric_scooter", "is_disabled": 0, "lat": 38.910574833333335, "rental_uris": {"ios": "https://dc.lft.to/lastmile_qr_scan", "android": "https://dc.lft.to/lastmile_qr_scan"}, "is_reserved": 0, "fusion_lon": 0.0, "fusion_lat": 0.0, "lon": -77.05288666666667, "name": "35a46fca40185538ba3261391476ba99"}, {"bike_id": "b48f2f5b37eef33df8a401854c9cad21", "type": "electric_scooter", "is_disabled": 0, "lat": 38.908131, "rental_uris": {"ios": "https://dc.lft.to/lastmile_qr_scan", "android": "https://dc.lft.to/lastmile_qr_scan"}, "is_reserved": 0, "fusion_lon": 0.0, "fusion_lat": 0.0, "lon": -77.0365665, "name": "b48f2f5b37eef33df8a401854c9cad21"}, {"bike_id": "ffc773c843b154981ce3601c91bf8cf7", "type": "electric_scooter", "is_disabled": 0, "lat": 38.907837, "rental_uris": {"ios": "https://dc.lft.to/lastmile_qr_scan", "android": "https://dc.lft.to/lastmile_qr_scan"}, "is_reserved": 0, "fusion_lon": 0.0, "fusion_lat": 0.0, "lon": -77.0108315, "name": "ffc773c843b154981ce3601c91bf8cf7"}, {"bike_id": "ffa31d7c83eb7d3a881b7e7fd816aba4", "type": "electric_scooter", "is_disabled": 0, "lat": 38.9552865, "rental_uris": {"ios": "https://dc.lft.to/lastmile_qr_scan", "android": "https://dc.lft.to/lastmile_qr_scan"}, "is_reserved": 0, "fusion_lon": 0.0, "fusion_lat": 0.0, "lon": -77.027774, "name": "ffa31d7c83eb7d3a881b7e7fd816aba4"}, {"bike_id": "cfb5931987ac07702155258831566c0a", "type": "electric_scooter", "is_disabled": 0, "lat": 38.876590666666665, "rental_uris": {"ios": "https://dc.lft.to/lastmile_qr_scan", "android": "https://dc.lft.to/lastmile_qr_scan"}, "is_reserved": 0, "fusion_lon": 0.0, "fusion_lat": 0.0, "lon": -77.00428283333333, "name": "cfb5931987ac07702155258831566c0a"}, {"bike_id": "e1e47fafa4838a4c3e998f6d720912c6", "type": "electric_scooter", "is_disabled": 0, "lat": 38.91671316666667, "rental_uris": {"ios": "https://dc.lft.to/lastmile_qr_scan", "android": "https://dc.lft.to/lastmile_qr_scan"}, "is_reserved": 0, "fusion_lon": 0.0, "fusion_lat": 0.0, "lon": -77.02408633333333, "name": "e1e47fafa4838a4c3e998f6d720912c6"}, {"bike_id": "8db2b1a38fff01066377557bdac7e61d", "type": "electric_scooter", "is_disabled": 0, "lat": 38.965505, "rental_uris": {"ios": "https://dc.lft.to/lastmile_qr_scan", "android": "https://dc.lft.to/lastmile_qr_scan"}, "is_reserved": 0, "fusion_lon": 0.0, "fusion_lat": 0.0, "lon": -77.036292, "name": "8db2b1a38fff01066377557bdac7e61d"}, {"bike_id": "2e0426a43f79cc3ad2af385bcdc70d68", "type": "electric_scooter", "is_disabled": 0, "lat": 38.902790833333334, "rental_uris": {"ios": "https://dc.lft.to/lastmile_qr_scan", "android": "https://dc.lft.to/lastmile_qr_scan"}, "is_reserved": 0, "fusion_lon": 0.0, "fusion_lat": 0.0, "lon": -77.04136966666667, "name": "2e0426a43f79cc3ad2af385bcdc70d68"}, {"bike_id": "3f211cbe9895a34d59a34a481348e1de", "type": "electric_scooter", "is_disabled": 0, "lat": 38.9001755, "rental_uris": {"ios": "https://dc.lft.to/lastmile_qr_scan", "android": "https://dc.lft.to/lastmile_qr_scan"}, "is_reserved": 0, "fusion_lon": 0.0, "fusion_lat": 0.0, "lon": -76.9854605, "name": "3f211cbe9895a34d59a34a481348e1de"}, {"bike_id": "72aa1fbe9104b84ee5a95871c982ff7a", "type": "electric_scooter", "is_disabled": 0, "lat": 38.9204305, "rental_uris": {"ios": "https://dc.lft.to/lastmile_qr_scan", "android": "https://dc.lft.to/lastmile_qr_scan"}, "is_reserved": 0, "fusion_lon": 0.0, "fusion_lat": 0.0, "lon": -77.02450633333333, "name": "72aa1fbe9104b84ee5a95871c982ff7a"}, {"bike_id": "a9e389a51041935c663076e1439fb0e7", "type": "electric_scooter", "is_disabled": 0, "lat": 38.9120655, "rental_uris": {"ios": "https://dc.lft.to/lastmile_qr_scan", "android": "https://dc.lft.to/lastmile_qr_scan"}, "is_reserved": 0, "fusion_lon": 0.0, "fusion_lat": 0.0, "lon": -77.03860733333333, "name": "a9e389a51041935c663076e1439fb0e7"}, {"bike_id": "76e0640f0dab5c22ddd75f36d1ddfdee", "type": "electric_scooter", "is_disabled": 0, "lat": 38.900308, "rental_uris": {"ios": "https://dc.lft.to/lastmile_qr_scan", "android": "https://dc.lft.to/lastmile_qr_scan"}, "is_reserved": 0, "fusion_lon": 0.0, "fusion_lat": 0.0, "lon": -77.00188966666667, "name": "76e0640f0dab5c22ddd75f36d1ddfdee"}, {"bike_id": "56e036c5c828d6fba94e118bb9cb0d45", "type": "electric_scooter", "is_disabled": 0, "lat": 38.89703633333333, "rental_uris": {"ios": "https://dc.lft.to/lastmile_qr_scan", "android": "https://dc.lft.to/lastmile_qr_scan"}, "is_reserved": 0, "fusion_lon": 0.0, "fusion_lat": 0.0, "lon": -77.0228965, "name": "56e036c5c828d6fba94e118bb9cb0d45"}, {"bike_id": "84394793efdddd37319369b48467f93b", "type": "electric_scooter", "is_disabled": 0, "lat": 38.95577216666667, "rental_uris": {"ios": "https://dc.lft.to/lastmile_qr_scan", "android": "https://dc.lft.to/lastmile_qr_scan"}, "is_reserved": 0, "fusion_lon": 0.0, "fusion_lat": 0.0, "lon": -77.08044483333333, "name": "84394793efdddd37319369b48467f93b"}, {"bike_id": "4e1734653914cba4dec100738d242f0b", "type": "electric_scooter", "is_disabled": 0, "lat": 38.9283335, "rental_uris": {"ios": "https://dc.lft.to/lastmile_qr_scan", "android": "https://dc.lft.to/lastmile_qr_scan"}, "is_reserved": 0, "fusion_lon": 0.0, "fusion_lat": 0.0, "lon": -77.05516066666667, "name": "4e1734653914cba4dec100738d242f0b"}, {"bike_id": "b51e2b27d97e63efd124c1ff107d058e", "type": "electric_scooter", "is_disabled": 0, "lat": 38.878706333333334, "rental_uris": {"ios": "https://dc.lft.to/lastmile_qr_scan", "android": "https://dc.lft.to/lastmile_qr_scan"}, "is_reserved": 0, "fusion_lon": 0.0, "fusion_lat": 0.0, "lon": -77.008706, "name": "b51e2b27d97e63efd124c1ff107d058e"}, {"bike_id": "4f3c94f41fdf87cde2d334d491dba8cb", "type": "electric_scooter", "is_disabled": 0, "lat": 38.9843275, "rental_uris": {"ios": "https://dc.lft.to/lastmile_qr_scan", "android": "https://dc.lft.to/lastmile_qr_scan"}, "is_reserved": 0, "fusion_lon": 0.0, "fusion_lat": 0.0, "lon": -77.02670566666667, "name": "4f3c94f41fdf87cde2d334d491dba8cb"}, {"bike_id": "8a06c69e48d19a4845d5d0da9c3dcde1", "type": "electric_scooter", "is_disabled": 0, "lat": 38.92796166666667, "rental_uris": {"ios": "https://dc.lft.to/lastmile_qr_scan", "android": "https://dc.lft.to/lastmile_qr_scan"}, "is_reserved": 0, "fusion_lon": 0.0, "fusion_lat": 0.0, "lon": -77.02390966666667, "name": "8a06c69e48d19a4845d5d0da9c3dcde1"}, {"bike_id": "e4e6dcd65e851ad9a545211a03b2e7a4", "type": "electric_bike", "is_disabled": 0, "lat": 38.9563375, "rental_uris": {"ios": "https://dc.lft.to/lastmile_qr_scan", "android": "https://dc.lft.to/lastmile_qr_scan"}, "is_reserved": 0, "fusion_lon": 0.0, "fusion_lat": 0.0, "lon": -76.93873383333333, "name": "e4e6dcd65e851ad9a545211a03b2e7a4"}, {"bike_id": "8cb5b4081761655a453bc12915c99f01", "type": "electric_bike", "is_disabled": 0, "lat": 38.8097375, "rental_uris": {"ios": "https://dc.lft.to/lastmile_qr_scan", "android": "https://dc.lft.to/lastmile_qr_scan"}, "is_reserved": 0, "fusion_lon": 0.0, "fusion_lat": 0.0, "lon": -77.08630566666666, "name": "8cb5b4081761655a453bc12915c99f01"}, {"bike_id": "308eaf0f75419ce88fb2eacbe7e4398f", "type": "electric_scooter", "is_disabled": 0, "lat": 38.922496, "rental_uris": {"ios": "https://dc.lft.to/lastmile_qr_scan", "android": "https://dc.lft.to/lastmile_qr_scan"}, "is_reserved": 0, "fusion_lon": 0.0, "fusion_lat": 0.0, "lon": -77.01971666666667, "name": "308eaf0f75419ce88fb2eacbe7e4398f"}, {"bike_id": "f370b3f3a1a7b7c7766c87e6c17834fa", "type": "electric_scooter", "is_disabled": 0, "lat": 38.88160966666667, "rental_uris": {"ios": "https://dc.lft.to/lastmile_qr_scan", "android": "https://dc.lft.to/lastmile_qr_scan"}, "is_reserved": 0, "fusion_lon": 0.0, "fusion_lat": 0.0, "lon": -77.02767583333333, "name": "f370b3f3a1a7b7c7766c87e6c17834fa"}, {"bike_id": "1f76612520fb4780040caf9e2a7d818e", "type": "electric_scooter", "is_disabled": 0, "lat": 38.86373066666667, "rental_uris": {"ios": "https://dc.lft.to/lastmile_qr_scan", "android": "https://dc.lft.to/lastmile_qr_scan"}, "is_reserved": 0, "fusion_lon": 0.0, "fusion_lat": 0.0, "lon": -76.9905805, "name": "1f76612520fb4780040caf9e2a7d818e"}, {"bike_id": "394e12267054c0bdb19a863de77425cd", "type": "electric_scooter", "is_disabled": 0, "lat": 38.92861416666667, "rental_uris": {"ios": "https://dc.lft.to/lastmile_qr_scan", "android": "https://dc.lft.to/lastmile_qr_scan"}, "is_reserved": 0, "fusion_lon": 0.0, "fusion_lat": 0.0, "lon": -77.03712966666667, "name": "394e12267054c0bdb19a863de77425cd"}, {"bike_id": "748a573932d045bdb3a1f1dd586d6fa4", "type": "electric_scooter", "is_disabled": 0, "lat": 38.90314216666667, "rental_uris": {"ios": "https://dc.lft.to/lastmile_qr_scan", "android": "https://dc.lft.to/lastmile_qr_scan"}, "is_reserved": 0, "fusion_lon": 0.0, "fusion_lat": 0.0, "lon": -76.9912775, "name": "748a573932d045bdb3a1f1dd586d6fa4"}, {"bike_id": "ed25e04270f2077fd20e53a4b84e929c", "type": "electric_scooter", "is_disabled": 0, "lat": 38.917697, "rental_uris": {"ios": "https://dc.lft.to/lastmile_qr_scan", "android": "https://dc.lft.to/lastmile_qr_scan"}, "is_reserved": 0, "fusion_lon": 0.0, "fusion_lat": 0.0, "lon": -77.04767816666667, "name": "ed25e04270f2077fd20e53a4b84e929c"}, {"bike_id": "8d0cc5f47e32c8b01fbbebe3f40b9612", "type": "electric_scooter", "is_disabled": 0, "lat": 38.91758733333333, "rental_uris": {"ios": "https://dc.lft.to/lastmile_qr_scan", "android": "https://dc.lft.to/lastmile_qr_scan"}, "is_reserved": 0, "fusion_lon": 0.0, "fusion_lat": 0.0, "lon": -77.01474666666667, "name": "8d0cc5f47e32c8b01fbbebe3f40b9612"}, {"bike_id": "7dc658fc2a57f05f55d833106f6ad42b", "type": "electric_scooter", "is_disabled": 0, "lat": 38.93953583333333, "rental_uris": {"ios": "https://dc.lft.to/lastmile_qr_scan", "android": "https://dc.lft.to/lastmile_qr_scan"}, "is_reserved": 0, "fusion_lon": 0.0, "fusion_lat": 0.0, "lon": -77.06071966666667, "name": "7dc658fc2a57f05f55d833106f6ad42b"}, {"bike_id": "aba3d67172d78ea4992a78d18b3d1f16", "type": "electric_scooter", "is_disabled": 0, "lat": 38.897665333333336, "rental_uris": {"ios": "https://dc.lft.to/lastmile_qr_scan", "android": "https://dc.lft.to/lastmile_qr_scan"}, "is_reserved": 0, "fusion_lon": 0.0, "fusion_lat": 0.0, "lon": -77.0270775, "name": "aba3d67172d78ea4992a78d18b3d1f16"}, {"bike_id": "0bc6292fbd788112bbaf2cdddac4898d", "type": "electric_scooter", "is_disabled": 0, "lat": 38.9070445, "rental_uris": {"ios": "https://dc.lft.to/lastmile_qr_scan", "android": "https://dc.lft.to/lastmile_qr_scan"}, "is_reserved": 0, "fusion_lon": 0.0, "fusion_lat": 0.0, "lon": -77.0238065, "name": "0bc6292fbd788112bbaf2cdddac4898d"}, {"bike_id": "89e61def85df0544656d50252d463202", "type": "electric_scooter", "is_disabled": 0, "lat": 38.87085583333333, "rental_uris": {"ios": "https://dc.lft.to/lastmile_qr_scan", "android": "https://dc.lft.to/lastmile_qr_scan"}, "is_reserved": 0, "fusion_lon": 0.0, "fusion_lat": 0.0, "lon": -77.01206716666667, "name": "89e61def85df0544656d50252d463202"}, {"bike_id": "c68397d55d198e6fe46e277b6b46373a", "type": "electric_scooter", "is_disabled": 0, "lat": 38.91710033333333, "rental_uris": {"ios": "https://dc.lft.to/lastmile_qr_scan", "android": "https://dc.lft.to/lastmile_qr_scan"}, "is_reserved": 0, "fusion_lon": 0.0, "fusion_lat": 0.0, "lon": -77.0306735, "name": "c68397d55d198e6fe46e277b6b46373a"}, {"bike_id": "a9c4e6cc0f7832ac8eb9c73e75aaf194", "type": "electric_scooter", "is_disabled": 0, "lat": 38.940188166666665, "rental_uris": {"ios": "https://dc.lft.to/lastmile_qr_scan", "android": "https://dc.lft.to/lastmile_qr_scan"}, "is_reserved": 0, "fusion_lon": 0.0, "fusion_lat": 0.0, "lon": -77.026425, "name": "a9c4e6cc0f7832ac8eb9c73e75aaf194"}, {"bike_id": "6612fa7adc04a959cea7796de9210c98", "type": "electric_scooter", "is_disabled": 0, "lat": 38.90121383333334, "rental_uris": {"ios": "https://dc.lft.to/lastmile_qr_scan", "android": "https://dc.lft.to/lastmile_qr_scan"}, "is_reserved": 0, "fusion_lon": 0.0, "fusion_lat": 0.0, "lon": -77.043504, "name": "6612fa7adc04a959cea7796de9210c98"}, {"bike_id": "4845ceabcb2bc2c5f2a28e6b9f50735a", "type": "electric_scooter", "is_disabled": 0, "lat": 38.92056633333333, "rental_uris": {"ios": "https://dc.lft.to/lastmile_qr_scan", "android": "https://dc.lft.to/lastmile_qr_scan"}, "is_reserved": 0, "fusion_lon": 0.0, "fusion_lat": 0.0, "lon": -76.99870933333334, "name": "4845ceabcb2bc2c5f2a28e6b9f50735a"}, {"bike_id": "2fa02b10afa9f71fe4e7112005a09052", "type": "electric_scooter", "is_disabled": 0, "lat": 38.876259833333336, "rental_uris": {"ios": "https://dc.lft.to/lastmile_qr_scan", "android": "https://dc.lft.to/lastmile_qr_scan"}, "is_reserved": 0, "fusion_lon": 0.0, "fusion_lat": 0.0, "lon": -76.965324, "name": "2fa02b10afa9f71fe4e7112005a09052"}, {"bike_id": "49feb6433416e02bc0b300c1a0c18889", "type": "electric_scooter", "is_disabled": 0, "lat": 38.90590233333333, "rental_uris": {"ios": "https://dc.lft.to/lastmile_qr_scan", "android": "https://dc.lft.to/lastmile_qr_scan"}, "is_reserved": 0, "fusion_lon": 0.0, "fusion_lat": 0.0, "lon": -77.04658116666667, "name": "49feb6433416e02bc0b300c1a0c18889"}, {"bike_id": "40d596d56f0adf464b52168aca3a1e10", "type": "electric_scooter", "is_disabled": 0, "lat": 38.9561805, "rental_uris": {"ios": "https://dc.lft.to/lastmile_qr_scan", "android": "https://dc.lft.to/lastmile_qr_scan"}, "is_reserved": 0, "fusion_lon": 0.0, "fusion_lat": 0.0, "lon": -77.0102335, "name": "40d596d56f0adf464b52168aca3a1e10"}, {"bike_id": "2a3dafc72c6dbecfda3a6faf0f468ab2", "type": "electric_scooter", "is_disabled": 0, "lat": 38.90233533333333, "rental_uris": {"ios": "https://dc.lft.to/lastmile_qr_scan", "android": "https://dc.lft.to/lastmile_qr_scan"}, "is_reserved": 0, "fusion_lon": 0.0, "fusion_lat": 0.0, "lon": -77.0433145, "name": "2a3dafc72c6dbecfda3a6faf0f468ab2"}, {"bike_id": "655546e8d5f12f43afc35c131ddece34", "type": "electric_scooter", "is_disabled": 0, "lat": 38.91682316666667, "rental_uris": {"ios": "https://dc.lft.to/lastmile_qr_scan", "android": "https://dc.lft.to/lastmile_qr_scan"}, "is_reserved": 0, "fusion_lon": 0.0, "fusion_lat": 0.0, "lon": -77.01575833333334, "name": "655546e8d5f12f43afc35c131ddece34"}, {"bike_id": "687a3aec6a4d47668a55b4abd026870d", "type": "electric_scooter", "is_disabled": 0, "lat": 38.9078795, "rental_uris": {"ios": "https://dc.lft.to/lastmile_qr_scan", "android": "https://dc.lft.to/lastmile_qr_scan"}, "is_reserved": 0, "fusion_lon": 0.0, "fusion_lat": 0.0, "lon": -77.00201266666667, "name": "687a3aec6a4d47668a55b4abd026870d"}, {"bike_id": "9a32fac117965a66c06e195bf8933839", "type": "electric_scooter", "is_disabled": 0, "lat": 38.9333365, "rental_uris": {"ios": "https://dc.lft.to/lastmile_qr_scan", "android": "https://dc.lft.to/lastmile_qr_scan"}, "is_reserved": 0, "fusion_lon": 0.0, "fusion_lat": 0.0, "lon": -77.0398285, "name": "9a32fac117965a66c06e195bf8933839"}, {"bike_id": "fa8d342a01839896ff606e3552c05257", "type": "electric_scooter", "is_disabled": 0, "lat": 38.865643166666665, "rental_uris": {"ios": "https://dc.lft.to/lastmile_qr_scan", "android": "https://dc.lft.to/lastmile_qr_scan"}, "is_reserved": 0, "fusion_lon": 0.0, "fusion_lat": 0.0, "lon": -76.98216, "name": "fa8d342a01839896ff606e3552c05257"}, {"bike_id": "ed387f7269a57492012aad63914bf4f7", "type": "electric_scooter", "is_disabled": 0, "lat": 38.92948666666667, "rental_uris": {"ios": "https://dc.lft.to/lastmile_qr_scan", "android": "https://dc.lft.to/lastmile_qr_scan"}, "is_reserved": 0, "fusion_lon": 0.0, "fusion_lat": 0.0, "lon": -77.01839483333333, "name": "ed387f7269a57492012aad63914bf4f7"}, {"bike_id": "fb9f0f9a531a1fa28258bfed3286718a", "type": "electric_scooter", "is_disabled": 0, "lat": 38.88744366666667, "rental_uris": {"ios": "https://dc.lft.to/lastmile_qr_scan", "android": "https://dc.lft.to/lastmile_qr_scan"}, "is_reserved": 0, "fusion_lon": 0.0, "fusion_lat": 0.0, "lon": -76.99629583333333, "name": "fb9f0f9a531a1fa28258bfed3286718a"}, {"bike_id": "37d80141a7d5a2d47ccf37440f26f8f4", "type": "electric_scooter", "is_disabled": 0, "lat": 38.954763, "rental_uris": {"ios": "https://dc.lft.to/lastmile_qr_scan", "android": "https://dc.lft.to/lastmile_qr_scan"}, "is_reserved": 0, "fusion_lon": 0.0, "fusion_lat": 0.0, "lon": -77.09256633333334, "name": "37d80141a7d5a2d47ccf37440f26f8f4"}, {"bike_id": "ed39cbfb510e35dacc497e349091b488", "type": "electric_scooter", "is_disabled": 0, "lat": 38.8887725, "rental_uris": {"ios": "https://dc.lft.to/lastmile_qr_scan", "android": "https://dc.lft.to/lastmile_qr_scan"}, "is_reserved": 0, "fusion_lon": 0.0, "fusion_lat": 0.0, "lon": -76.99041466666667, "name": "ed39cbfb510e35dacc497e349091b488"}, {"bike_id": "a968ffa8bd2cffc895a96b924cf9812f", "type": "electric_scooter", "is_disabled": 0, "lat": 38.93409466666667, "rental_uris": {"ios": "https://dc.lft.to/lastmile_qr_scan", "android": "https://dc.lft.to/lastmile_qr_scan"}, "is_reserved": 0, "fusion_lon": 0.0, "fusion_lat": 0.0, "lon": -77.0391785, "name": "a968ffa8bd2cffc895a96b924cf9812f"}, {"bike_id": "e9576cbd0eb018dfb7eba130360898d8", "type": "electric_scooter", "is_disabled": 0, "lat": 38.90524533333333, "rental_uris": {"ios": "https://dc.lft.to/lastmile_qr_scan", "android": "https://dc.lft.to/lastmile_qr_scan"}, "is_reserved": 0, "fusion_lon": 0.0, "fusion_lat": 0.0, "lon": -76.99637, "name": "e9576cbd0eb018dfb7eba130360898d8"}, {"bike_id": "4ffc4c35333cc06a1996c5a488db13c3", "type": "electric_scooter", "is_disabled": 0, "lat": 38.90166983333334, "rental_uris": {"ios": "https://dc.lft.to/lastmile_qr_scan", "android": "https://dc.lft.to/lastmile_qr_scan"}, "is_reserved": 0, "fusion_lon": 0.0, "fusion_lat": 0.0, "lon": -76.98456533333334, "name": "4ffc4c35333cc06a1996c5a488db13c3"}, {"bike_id": "d029d2cbea12cbf539ac772e298789c9", "type": "electric_scooter", "is_disabled": 0, "lat": 38.942884, "rental_uris": {"ios": "https://dc.lft.to/lastmile_qr_scan", "android": "https://dc.lft.to/lastmile_qr_scan"}, "is_reserved": 0, "fusion_lon": 0.0, "fusion_lat": 0.0, "lon": -77.02172566666667, "name": "d029d2cbea12cbf539ac772e298789c9"}, {"bike_id": "aa1be27f0e047d6cd027932e9f905fcf", "type": "electric_bike", "is_disabled": 0, "lat": 38.854220166666664, "rental_uris": {"ios": "https://dc.lft.to/lastmile_qr_scan", "android": "https://dc.lft.to/lastmile_qr_scan"}, "is_reserved": 0, "fusion_lon": 0.0, "fusion_lat": 0.0, "lon": -77.1207625, "name": "aa1be27f0e047d6cd027932e9f905fcf"}, {"bike_id": "88fbfacbeea521bfecb2cbe68efffc6b", "type": "electric_scooter", "is_disabled": 0, "lat": 38.948428, "rental_uris": {"ios": "https://dc.lft.to/lastmile_qr_scan", "android": "https://dc.lft.to/lastmile_qr_scan"}, "is_reserved": 0, "fusion_lon": 0.0, "fusion_lat": 0.0, "lon": -77.02548766666666, "name": "88fbfacbeea521bfecb2cbe68efffc6b"}, {"bike_id": "2b2ee4de1b564d172653438503ff33a2", "type": "electric_scooter", "is_disabled": 0, "lat": 38.90418316666667, "rental_uris": {"ios": "https://dc.lft.to/lastmile_qr_scan", "android": "https://dc.lft.to/lastmile_qr_scan"}, "is_reserved": 0, "fusion_lon": 0.0, "fusion_lat": 0.0, "lon": -76.97374866666667, "name": "2b2ee4de1b564d172653438503ff33a2"}, {"bike_id": "6492c4db47e05fe23598011aaaa05099", "type": "electric_scooter", "is_disabled": 0, "lat": 38.92450983333333, "rental_uris": {"ios": "https://dc.lft.to/lastmile_qr_scan", "android": "https://dc.lft.to/lastmile_qr_scan"}, "is_reserved": 0, "fusion_lon": 0.0, "fusion_lat": 0.0, "lon": -77.02412983333333, "name": "6492c4db47e05fe23598011aaaa05099"}, {"bike_id": "97cb69311ca54c37b56a27a9584f3c6c", "type": "electric_scooter", "is_disabled": 0, "lat": 38.91550433333333, "rental_uris": {"ios": "https://dc.lft.to/lastmile_qr_scan", "android": "https://dc.lft.to/lastmile_qr_scan"}, "is_reserved": 0, "fusion_lon": 0.0, "fusion_lat": 0.0, "lon": -77.025663, "name": "97cb69311ca54c37b56a27a9584f3c6c"}, {"bike_id": "b08456441feefb6dfbd5fce618641469", "type": "electric_scooter", "is_disabled": 0, "lat": 38.88083016666667, "rental_uris": {"ios": "https://dc.lft.to/lastmile_qr_scan", "android": "https://dc.lft.to/lastmile_qr_scan"}, "is_reserved": 0, "fusion_lon": 0.0, "fusion_lat": 0.0, "lon": -76.99511433333333, "name": "b08456441feefb6dfbd5fce618641469"}, {"bike_id": "e451f49ed5d78cbc034a06b1065054ef", "type": "electric_scooter", "is_disabled": 0, "lat": 38.9399075, "rental_uris": {"ios": "https://dc.lft.to/lastmile_qr_scan", "android": "https://dc.lft.to/lastmile_qr_scan"}, "is_reserved": 0, "fusion_lon": 0.0, "fusion_lat": 0.0, "lon": -77.01695916666667, "name": "e451f49ed5d78cbc034a06b1065054ef"}, {"bike_id": "7d9796e07001fdb83f2519e348fd6c91", "type": "electric_bike", "is_disabled": 0, "lat": 38.853528, "rental_uris": {"ios": "https://dc.lft.to/lastmile_qr_scan", "android": "https://dc.lft.to/lastmile_qr_scan"}, "is_reserved": 0, "fusion_lon": 0.0, "fusion_lat": 0.0, "lon": -77.08686683333333, "name": "7d9796e07001fdb83f2519e348fd6c91"}, {"bike_id": "daa8aa3a6b24968613ef2ad4051687e5", "type": "electric_bike", "is_disabled": 0, "lat": 38.873051833333335, "rental_uris": {"ios": "https://dc.lft.to/lastmile_qr_scan", "android": "https://dc.lft.to/lastmile_qr_scan"}, "is_reserved": 0, "fusion_lon": 0.0, "fusion_lat": 0.0, "lon": -77.01096316666667, "name": "daa8aa3a6b24968613ef2ad4051687e5"}, {"bike_id": "e3561332b53fe3938c8ab6ffc05241e6", "type": "electric_scooter", "is_disabled": 0, "lat": 38.92021033333333, "rental_uris": {"ios": "https://dc.lft.to/lastmile_qr_scan", "android": "https://dc.lft.to/lastmile_qr_scan"}, "is_reserved": 0, "fusion_lon": 0.0, "fusion_lat": 0.0, "lon": -77.01292733333334, "name": "e3561332b53fe3938c8ab6ffc05241e6"}, {"bike_id": "5c1a2eb96afc9a3cfc8c8f28738a969d", "type": "electric_scooter", "is_disabled": 0, "lat": 38.91478516666667, "rental_uris": {"ios": "https://dc.lft.to/lastmile_qr_scan", "android": "https://dc.lft.to/lastmile_qr_scan"}, "is_reserved": 0, "fusion_lon": 0.0, "fusion_lat": 0.0, "lon": -77.002863, "name": "5c1a2eb96afc9a3cfc8c8f28738a969d"}, {"bike_id": "2488381e3be14fa334d8e8ae28cc28d0", "type": "electric_scooter", "is_disabled": 0, "lat": 38.898673333333335, "rental_uris": {"ios": "https://dc.lft.to/lastmile_qr_scan", "android": "https://dc.lft.to/lastmile_qr_scan"}, "is_reserved": 0, "fusion_lon": 0.0, "fusion_lat": 0.0, "lon": -76.94666316666667, "name": "2488381e3be14fa334d8e8ae28cc28d0"}, {"bike_id": "18628cf36959ba48d2f6afde5ca893c9", "type": "electric_scooter", "is_disabled": 0, "lat": 38.865018166666665, "rental_uris": {"ios": "https://dc.lft.to/lastmile_qr_scan", "android": "https://dc.lft.to/lastmile_qr_scan"}, "is_reserved": 0, "fusion_lon": 0.0, "fusion_lat": 0.0, "lon": -76.990033, "name": "18628cf36959ba48d2f6afde5ca893c9"}, {"bike_id": "b1a9acc033ac76b0713cc86364cfb196", "type": "electric_scooter", "is_disabled": 0, "lat": 38.91711183333334, "rental_uris": {"ios": "https://dc.lft.to/lastmile_qr_scan", "android": "https://dc.lft.to/lastmile_qr_scan"}, "is_reserved": 0, "fusion_lon": 0.0, "fusion_lat": 0.0, "lon": -77.02609566666666, "name": "b1a9acc033ac76b0713cc86364cfb196"}, {"bike_id": "ac08c518bfc5b6fc585e6a0ba226c5d2", "type": "electric_scooter", "is_disabled": 0, "lat": 38.924853166666665, "rental_uris": {"ios": "https://dc.lft.to/lastmile_qr_scan", "android": "https://dc.lft.to/lastmile_qr_scan"}, "is_reserved": 0, "fusion_lon": 0.0, "fusion_lat": 0.0, "lon": -77.0295965, "name": "ac08c518bfc5b6fc585e6a0ba226c5d2"}, {"bike_id": "2f60f1e5614b50a55538bad1101a3019", "type": "electric_scooter", "is_disabled": 0, "lat": 38.94197533333333, "rental_uris": {"ios": "https://dc.lft.to/lastmile_qr_scan", "android": "https://dc.lft.to/lastmile_qr_scan"}, "is_reserved": 0, "fusion_lon": 0.0, "fusion_lat": 0.0, "lon": -77.02533416666667, "name": "2f60f1e5614b50a55538bad1101a3019"}, {"bike_id": "276cfbda6a8bffe9aeb11397b6c9969a", "type": "electric_scooter", "is_disabled": 0, "lat": 38.85810016666667, "rental_uris": {"ios": "https://dc.lft.to/lastmile_qr_scan", "android": "https://dc.lft.to/lastmile_qr_scan"}, "is_reserved": 0, "fusion_lon": 0.0, "fusion_lat": 0.0, "lon": -76.98927083333334, "name": "276cfbda6a8bffe9aeb11397b6c9969a"}, {"bike_id": "dd73b02e14afa37fe049233fac33bc88", "type": "electric_scooter", "is_disabled": 0, "lat": 38.91710883333333, "rental_uris": {"ios": "https://dc.lft.to/lastmile_qr_scan", "android": "https://dc.lft.to/lastmile_qr_scan"}, "is_reserved": 0, "fusion_lon": 0.0, "fusion_lat": 0.0, "lon": -77.02890133333334, "name": "dd73b02e14afa37fe049233fac33bc88"}, {"bike_id": "6667cb69ab16338b30d28d1ac4d5ce6d", "type": "electric_scooter", "is_disabled": 0, "lat": 38.899683, "rental_uris": {"ios": "https://dc.lft.to/lastmile_qr_scan", "android": "https://dc.lft.to/lastmile_qr_scan"}, "is_reserved": 0, "fusion_lon": 0.0, "fusion_lat": 0.0, "lon": -76.98306933333333, "name": "6667cb69ab16338b30d28d1ac4d5ce6d"}, {"bike_id": "16d347b42e767baf508f828c71db0493", "type": "electric_scooter", "is_disabled": 0, "lat": 38.907886, "rental_uris": {"ios": "https://dc.lft.to/lastmile_qr_scan", "android": "https://dc.lft.to/lastmile_qr_scan"}, "is_reserved": 0, "fusion_lon": 0.0, "fusion_lat": 0.0, "lon": -76.99429216666667, "name": "16d347b42e767baf508f828c71db0493"}, {"bike_id": "e4b08a40ff15b600bdfa0ccd1bf59ce4", "type": "electric_scooter", "is_disabled": 0, "lat": 38.8662555, "rental_uris": {"ios": "https://dc.lft.to/lastmile_qr_scan", "android": "https://dc.lft.to/lastmile_qr_scan"}, "is_reserved": 0, "fusion_lon": 0.0, "fusion_lat": 0.0, "lon": -76.98718366666667, "name": "e4b08a40ff15b600bdfa0ccd1bf59ce4"}, {"bike_id": "307d16bea86a9961dd8d565ba756c1ab", "type": "electric_scooter", "is_disabled": 0, "lat": 38.894859, "rental_uris": {"ios": "https://dc.lft.to/lastmile_qr_scan", "android": "https://dc.lft.to/lastmile_qr_scan"}, "is_reserved": 0, "fusion_lon": 0.0, "fusion_lat": 0.0, "lon": -76.98782283333334, "name": "307d16bea86a9961dd8d565ba756c1ab"}, {"bike_id": "d319068dfef61a757c7f765b28a71773", "type": "electric_scooter", "is_disabled": 0, "lat": 38.870712, "rental_uris": {"ios": "https://dc.lft.to/lastmile_qr_scan", "android": "https://dc.lft.to/lastmile_qr_scan"}, "is_reserved": 0, "fusion_lon": 0.0, "fusion_lat": 0.0, "lon": -76.98125933333333, "name": "d319068dfef61a757c7f765b28a71773"}, {"bike_id": "fff7b58ab4a1b4d281186bbfb483360e", "type": "electric_scooter", "is_disabled": 0, "lat": 38.93981266666667, "rental_uris": {"ios": "https://dc.lft.to/lastmile_qr_scan", "android": "https://dc.lft.to/lastmile_qr_scan"}, "is_reserved": 0, "fusion_lon": 0.0, "fusion_lat": 0.0, "lon": -77.02874616666666, "name": "fff7b58ab4a1b4d281186bbfb483360e"}, {"bike_id": "3532d585a3defc7a2f5aa619dc7e0860", "type": "electric_bike", "is_disabled": 0, "lat": 38.8075685, "rental_uris": {"ios": "https://dc.lft.to/lastmile_qr_scan", "android": "https://dc.lft.to/lastmile_qr_scan"}, "is_reserved": 0, "fusion_lon": 0.0, "fusion_lat": 0.0, "lon": -77.09457716666667, "name": "3532d585a3defc7a2f5aa619dc7e0860"}, {"bike_id": "e9d571d3be0cc316af79a1429f66826b", "type": "electric_bike", "is_disabled": 0, "lat": 38.8648185, "rental_uris": {"ios": "https://dc.lft.to/lastmile_qr_scan", "android": "https://dc.lft.to/lastmile_qr_scan"}, "is_reserved": 0, "fusion_lon": 0.0, "fusion_lat": 0.0, "lon": -76.97748366666667, "name": "e9d571d3be0cc316af79a1429f66826b"}, {"bike_id": "b5034cb5c20db513e3fd0fb281331522", "type": "electric_scooter", "is_disabled": 0, "lat": 38.89300333333333, "rental_uris": {"ios": "https://dc.lft.to/lastmile_qr_scan", "android": "https://dc.lft.to/lastmile_qr_scan"}, "is_reserved": 0, "fusion_lon": 0.0, "fusion_lat": 0.0, "lon": -77.0202405, "name": "b5034cb5c20db513e3fd0fb281331522"}, {"bike_id": "901902e0945a1353a24889be15ff2cbc", "type": "electric_scooter", "is_disabled": 0, "lat": 38.917232, "rental_uris": {"ios": "https://dc.lft.to/lastmile_qr_scan", "android": "https://dc.lft.to/lastmile_qr_scan"}, "is_reserved": 0, "fusion_lon": 0.0, "fusion_lat": 0.0, "lon": -77.00815266666666, "name": "901902e0945a1353a24889be15ff2cbc"}, {"bike_id": "39d2a7dc234315e7dbbd6ff2bf13ab01", "type": "electric_scooter", "is_disabled": 0, "lat": 38.93896816666667, "rental_uris": {"ios": "https://dc.lft.to/lastmile_qr_scan", "android": "https://dc.lft.to/lastmile_qr_scan"}, "is_reserved": 0, "fusion_lon": 0.0, "fusion_lat": 0.0, "lon": -77.03301766666667, "name": "39d2a7dc234315e7dbbd6ff2bf13ab01"}, {"bike_id": "b5e67e95c6000de4ab741b166046e717", "type": "electric_scooter", "is_disabled": 0, "lat": 38.914138666666666, "rental_uris": {"ios": "https://dc.lft.to/lastmile_qr_scan", "android": "https://dc.lft.to/lastmile_qr_scan"}, "is_reserved": 0, "fusion_lon": 0.0, "fusion_lat": 0.0, "lon": -77.03963833333333, "name": "b5e67e95c6000de4ab741b166046e717"}, {"bike_id": "bf1c3a55acaf5b0a982281b3126de69b", "type": "electric_bike", "is_disabled": 0, "lat": 38.959611333333335, "rental_uris": {"ios": "https://dc.lft.to/lastmile_qr_scan", "android": "https://dc.lft.to/lastmile_qr_scan"}, "is_reserved": 0, "fusion_lon": 0.0, "fusion_lat": 0.0, "lon": -76.98166916666666, "name": "bf1c3a55acaf5b0a982281b3126de69b"}, {"bike_id": "bb08144c6bcfa3509d0326d0fe26587b", "type": "electric_scooter", "is_disabled": 0, "lat": 38.92323833333333, "rental_uris": {"ios": "https://dc.lft.to/lastmile_qr_scan", "android": "https://dc.lft.to/lastmile_qr_scan"}, "is_reserved": 0, "fusion_lon": 0.0, "fusion_lat": 0.0, "lon": -77.00053716666666, "name": "bb08144c6bcfa3509d0326d0fe26587b"}, {"bike_id": "f8903b930b255a658674ae7f45133234", "type": "electric_scooter", "is_disabled": 0, "lat": 38.9260345, "rental_uris": {"ios": "https://dc.lft.to/lastmile_qr_scan", "android": "https://dc.lft.to/lastmile_qr_scan"}, "is_reserved": 0, "fusion_lon": 0.0, "fusion_lat": 0.0, "lon": -77.02450983333334, "name": "f8903b930b255a658674ae7f45133234"}, {"bike_id": "ffd405c31ce64797ce9df52c99865468", "type": "electric_scooter", "is_disabled": 0, "lat": 38.923728833333335, "rental_uris": {"ios": "https://dc.lft.to/lastmile_qr_scan", "android": "https://dc.lft.to/lastmile_qr_scan"}, "is_reserved": 0, "fusion_lon": 0.0, "fusion_lat": 0.0, "lon": -77.029834, "name": "ffd405c31ce64797ce9df52c99865468"}, {"bike_id": "1b194e766a70f00e0cb0d6a7821b4895", "type": "electric_scooter", "is_disabled": 0, "lat": 38.90575583333333, "rental_uris": {"ios": "https://dc.lft.to/lastmile_qr_scan", "android": "https://dc.lft.to/lastmile_qr_scan"}, "is_reserved": 0, "fusion_lon": 0.0, "fusion_lat": 0.0, "lon": -77.042492, "name": "1b194e766a70f00e0cb0d6a7821b4895"}, {"bike_id": "93462caddd6d3e2f03181a5ed4978afb", "type": "electric_scooter", "is_disabled": 0, "lat": 38.91118733333333, "rental_uris": {"ios": "https://dc.lft.to/lastmile_qr_scan", "android": "https://dc.lft.to/lastmile_qr_scan"}, "is_reserved": 0, "fusion_lon": 0.0, "fusion_lat": 0.0, "lon": -77.03735366666666, "name": "93462caddd6d3e2f03181a5ed4978afb"}, {"bike_id": "ac7871e015f02caa80dfa5bf09a8c53d", "type": "electric_scooter", "is_disabled": 0, "lat": 38.88209333333333, "rental_uris": {"ios": "https://dc.lft.to/lastmile_qr_scan", "android": "https://dc.lft.to/lastmile_qr_scan"}, "is_reserved": 0, "fusion_lon": 0.0, "fusion_lat": 0.0, "lon": -76.989288, "name": "ac7871e015f02caa80dfa5bf09a8c53d"}, {"bike_id": "1d974004eb9c0cbda5f89ef254ba6322", "type": "electric_scooter", "is_disabled": 0, "lat": 38.90771566666667, "rental_uris": {"ios": "https://dc.lft.to/lastmile_qr_scan", "android": "https://dc.lft.to/lastmile_qr_scan"}, "is_reserved": 0, "fusion_lon": 0.0, "fusion_lat": 0.0, "lon": -77.043491, "name": "1d974004eb9c0cbda5f89ef254ba6322"}, {"bike_id": "554fcd98688d41c79c3ddd54e83fc1c6", "type": "electric_scooter", "is_disabled": 0, "lat": 38.917705, "rental_uris": {"ios": "https://dc.lft.to/lastmile_qr_scan", "android": "https://dc.lft.to/lastmile_qr_scan"}, "is_reserved": 0, "fusion_lon": 0.0, "fusion_lat": 0.0, "lon": -77.02321866666666, "name": "554fcd98688d41c79c3ddd54e83fc1c6"}, {"bike_id": "36e25a95944cfe4304aa5b47aad9e462", "type": "electric_scooter", "is_disabled": 0, "lat": 38.900779666666665, "rental_uris": {"ios": "https://dc.lft.to/lastmile_qr_scan", "android": "https://dc.lft.to/lastmile_qr_scan"}, "is_reserved": 0, "fusion_lon": 0.0, "fusion_lat": 0.0, "lon": -77.04845166666667, "name": "36e25a95944cfe4304aa5b47aad9e462"}, {"bike_id": "49d6ccf8815747f390fed7c117af2996", "type": "electric_scooter", "is_disabled": 0, "lat": 38.918179, "rental_uris": {"ios": "https://dc.lft.to/lastmile_qr_scan", "android": "https://dc.lft.to/lastmile_qr_scan"}, "is_reserved": 0, "fusion_lon": 0.0, "fusion_lat": 0.0, "lon": -77.02478366666666, "name": "49d6ccf8815747f390fed7c117af2996"}, {"bike_id": "c28db011e1c1c672365c31af4b60b51d", "type": "electric_bike", "is_disabled": 0, "lat": 38.933573333333335, "rental_uris": {"ios": "https://dc.lft.to/lastmile_qr_scan", "android": "https://dc.lft.to/lastmile_qr_scan"}, "is_reserved": 0, "fusion_lon": 0.0, "fusion_lat": 0.0, "lon": -77.02417416666667, "name": "c28db011e1c1c672365c31af4b60b51d"}, {"bike_id": "390e93d871acbda6127586ba03dd9ac5", "type": "electric_scooter", "is_disabled": 0, "lat": 38.9247655, "rental_uris": {"ios": "https://dc.lft.to/lastmile_qr_scan", "android": "https://dc.lft.to/lastmile_qr_scan"}, "is_reserved": 0, "fusion_lon": 0.0, "fusion_lat": 0.0, "lon": -77.02839666666667, "name": "390e93d871acbda6127586ba03dd9ac5"}, {"bike_id": "2acfd6e4ff45c81c69a872e3ff3d1961", "type": "electric_scooter", "is_disabled": 0, "lat": 38.89873083333333, "rental_uris": {"ios": "https://dc.lft.to/lastmile_qr_scan", "android": "https://dc.lft.to/lastmile_qr_scan"}, "is_reserved": 0, "fusion_lon": 0.0, "fusion_lat": 0.0, "lon": -76.931843, "name": "2acfd6e4ff45c81c69a872e3ff3d1961"}, {"bike_id": "631b17011f4f0dc3c4d2256e4586e913", "type": "electric_scooter", "is_disabled": 0, "lat": 38.91805183333334, "rental_uris": {"ios": "https://dc.lft.to/lastmile_qr_scan", "android": "https://dc.lft.to/lastmile_qr_scan"}, "is_reserved": 0, "fusion_lon": 0.0, "fusion_lat": 0.0, "lon": -77.03628466666666, "name": "631b17011f4f0dc3c4d2256e4586e913"}, {"bike_id": "3f09610c2a9c5dd0d2b510442e07e43b", "type": "electric_bike", "is_disabled": 0, "lat": 38.939676166666665, "rental_uris": {"ios": "https://dc.lft.to/lastmile_qr_scan", "android": "https://dc.lft.to/lastmile_qr_scan"}, "is_reserved": 0, "fusion_lon": 0.0, "fusion_lat": 0.0, "lon": -77.05261183333333, "name": "3f09610c2a9c5dd0d2b510442e07e43b"}, {"bike_id": "70015bc8c72b6210f9b2a8a833071350", "type": "electric_scooter", "is_disabled": 0, "lat": 38.926860166666664, "rental_uris": {"ios": "https://dc.lft.to/lastmile_qr_scan", "android": "https://dc.lft.to/lastmile_qr_scan"}, "is_reserved": 0, "fusion_lon": 0.0, "fusion_lat": 0.0, "lon": -77.0149125, "name": "70015bc8c72b6210f9b2a8a833071350"}, {"bike_id": "6372733a269d05bab5ecc26c8187e796", "type": "electric_scooter", "is_disabled": 0, "lat": 38.93039266666667, "rental_uris": {"ios": "https://dc.lft.to/lastmile_qr_scan", "android": "https://dc.lft.to/lastmile_qr_scan"}, "is_reserved": 0, "fusion_lon": 0.0, "fusion_lat": 0.0, "lon": -77.018327, "name": "6372733a269d05bab5ecc26c8187e796"}, {"bike_id": "8f2fe63a72b026b8452154f675d0bf6f", "type": "electric_scooter", "is_disabled": 0, "lat": 38.90148466666667, "rental_uris": {"ios": "https://dc.lft.to/lastmile_qr_scan", "android": "https://dc.lft.to/lastmile_qr_scan"}, "is_reserved": 0, "fusion_lon": 0.0, "fusion_lat": 0.0, "lon": -77.029849, "name": "8f2fe63a72b026b8452154f675d0bf6f"}, {"bike_id": "63d6d42df7f3ce851cb13e5f597055f1", "type": "electric_scooter", "is_disabled": 0, "lat": 38.88210616666667, "rental_uris": {"ios": "https://dc.lft.to/lastmile_qr_scan", "android": "https://dc.lft.to/lastmile_qr_scan"}, "is_reserved": 0, "fusion_lon": 0.0, "fusion_lat": 0.0, "lon": -77.02907083333334, "name": "63d6d42df7f3ce851cb13e5f597055f1"}, {"bike_id": "b9b3621222e073d2eae81783eb790135", "type": "electric_scooter", "is_disabled": 0, "lat": 38.90190583333333, "rental_uris": {"ios": "https://dc.lft.to/lastmile_qr_scan", "android": "https://dc.lft.to/lastmile_qr_scan"}, "is_reserved": 0, "fusion_lon": 0.0, "fusion_lat": 0.0, "lon": -76.996776, "name": "b9b3621222e073d2eae81783eb790135"}, {"bike_id": "b9e4f2340106c2830d135585aed8157b", "type": "electric_scooter", "is_disabled": 0, "lat": 38.8970055, "rental_uris": {"ios": "https://dc.lft.to/lastmile_qr_scan", "android": "https://dc.lft.to/lastmile_qr_scan"}, "is_reserved": 0, "fusion_lon": 0.0, "fusion_lat": 0.0, "lon": -76.9300005, "name": "b9e4f2340106c2830d135585aed8157b"}, {"bike_id": "8f13c879e942bd0979ba5df8dcb63120", "type": "electric_scooter", "is_disabled": 0, "lat": 38.9027845, "rental_uris": {"ios": "https://dc.lft.to/lastmile_qr_scan", "android": "https://dc.lft.to/lastmile_qr_scan"}, "is_reserved": 0, "fusion_lon": 0.0, "fusion_lat": 0.0, "lon": -77.0227665, "name": "8f13c879e942bd0979ba5df8dcb63120"}, {"bike_id": "59f2fc37af038f70238af0a5f8031ac8", "type": "electric_bike", "is_disabled": 0, "lat": 38.86514916666667, "rental_uris": {"ios": "https://dc.lft.to/lastmile_qr_scan", "android": "https://dc.lft.to/lastmile_qr_scan"}, "is_reserved": 0, "fusion_lon": 0.0, "fusion_lat": 0.0, "lon": -77.129356, "name": "59f2fc37af038f70238af0a5f8031ac8"}, {"bike_id": "b7868f7aae936496fd67517426c77458", "type": "electric_scooter", "is_disabled": 0, "lat": 38.93179116666667, "rental_uris": {"ios": "https://dc.lft.to/lastmile_qr_scan", "android": "https://dc.lft.to/lastmile_qr_scan"}, "is_reserved": 0, "fusion_lon": 0.0, "fusion_lat": 0.0, "lon": -77.02542433333333, "name": "b7868f7aae936496fd67517426c77458"}, {"bike_id": "04915a9fde7fb3ba0ee34ec890d83b95", "type": "electric_scooter", "is_disabled": 0, "lat": 38.91945533333333, "rental_uris": {"ios": "https://dc.lft.to/lastmile_qr_scan", "android": "https://dc.lft.to/lastmile_qr_scan"}, "is_reserved": 0, "fusion_lon": 0.0, "fusion_lat": 0.0, "lon": -77.04519333333333, "name": "04915a9fde7fb3ba0ee34ec890d83b95"}, {"bike_id": "df06c6fc0030445ab731a51ee97fa487", "type": "electric_scooter", "is_disabled": 0, "lat": 38.891085333333336, "rental_uris": {"ios": "https://dc.lft.to/lastmile_qr_scan", "android": "https://dc.lft.to/lastmile_qr_scan"}, "is_reserved": 0, "fusion_lon": 0.0, "fusion_lat": 0.0, "lon": -77.01507833333334, "name": "df06c6fc0030445ab731a51ee97fa487"}, {"bike_id": "4e67db85bb99e22f829549c52e4ce610", "type": "electric_bike", "is_disabled": 0, "lat": 38.80393766666667, "rental_uris": {"ios": "https://dc.lft.to/lastmile_qr_scan", "android": "https://dc.lft.to/lastmile_qr_scan"}, "is_reserved": 0, "fusion_lon": 0.0, "fusion_lat": 0.0, "lon": -77.05564716666666, "name": "4e67db85bb99e22f829549c52e4ce610"}, {"bike_id": "50d51f317a63b18b3a71d0e84c34ab86", "type": "electric_scooter", "is_disabled": 0, "lat": 38.876959, "rental_uris": {"ios": "https://dc.lft.to/lastmile_qr_scan", "android": "https://dc.lft.to/lastmile_qr_scan"}, "is_reserved": 0, "fusion_lon": 0.0, "fusion_lat": 0.0, "lon": -77.00574283333333, "name": "50d51f317a63b18b3a71d0e84c34ab86"}, {"bike_id": "e9e35ec189da7ee8f8da9f34e282e93c", "type": "electric_scooter", "is_disabled": 0, "lat": 38.90863933333333, "rental_uris": {"ios": "https://dc.lft.to/lastmile_qr_scan", "android": "https://dc.lft.to/lastmile_qr_scan"}, "is_reserved": 0, "fusion_lon": 0.0, "fusion_lat": 0.0, "lon": -77.00255666666666, "name": "e9e35ec189da7ee8f8da9f34e282e93c"}, {"bike_id": "753a2aed6edb53eb2224ed34a2b3d5ed", "type": "electric_scooter", "is_disabled": 0, "lat": 38.9166495, "rental_uris": {"ios": "https://dc.lft.to/lastmile_qr_scan", "android": "https://dc.lft.to/lastmile_qr_scan"}, "is_reserved": 0, "fusion_lon": 0.0, "fusion_lat": 0.0, "lon": -77.03855166666666, "name": "753a2aed6edb53eb2224ed34a2b3d5ed"}, {"bike_id": "30de5baddfdbbc41d745714406324d64", "type": "electric_scooter", "is_disabled": 0, "lat": 38.884342333333336, "rental_uris": {"ios": "https://dc.lft.to/lastmile_qr_scan", "android": "https://dc.lft.to/lastmile_qr_scan"}, "is_reserved": 0, "fusion_lon": 0.0, "fusion_lat": 0.0, "lon": -76.957539, "name": "30de5baddfdbbc41d745714406324d64"}, {"bike_id": "a6ea23d6c70741a2bcf2a2b6d85feb5a", "type": "electric_scooter", "is_disabled": 0, "lat": 38.908160333333335, "rental_uris": {"ios": "https://dc.lft.to/lastmile_qr_scan", "android": "https://dc.lft.to/lastmile_qr_scan"}, "is_reserved": 0, "fusion_lon": 0.0, "fusion_lat": 0.0, "lon": -77.033396, "name": "a6ea23d6c70741a2bcf2a2b6d85feb5a"}, {"bike_id": "60eda7970f05d6e013aeeb41b1c95863", "type": "electric_scooter", "is_disabled": 0, "lat": 38.9656215, "rental_uris": {"ios": "https://dc.lft.to/lastmile_qr_scan", "android": "https://dc.lft.to/lastmile_qr_scan"}, "is_reserved": 0, "fusion_lon": 0.0, "fusion_lat": 0.0, "lon": -77.02028716666666, "name": "60eda7970f05d6e013aeeb41b1c95863"}, {"bike_id": "025c7103337e17cdc324d085ebe7589c", "type": "electric_bike", "is_disabled": 0, "lat": 38.875527166666664, "rental_uris": {"ios": "https://dc.lft.to/lastmile_qr_scan", "android": "https://dc.lft.to/lastmile_qr_scan"}, "is_reserved": 0, "fusion_lon": 0.0, "fusion_lat": 0.0, "lon": -76.96504833333333, "name": "025c7103337e17cdc324d085ebe7589c"}, {"bike_id": "a48f44def7eb293f7aadd1c55998f48b", "type": "electric_scooter", "is_disabled": 0, "lat": 38.92535683333333, "rental_uris": {"ios": "https://dc.lft.to/lastmile_qr_scan", "android": "https://dc.lft.to/lastmile_qr_scan"}, "is_reserved": 0, "fusion_lon": 0.0, "fusion_lat": 0.0, "lon": -77.0427455, "name": "a48f44def7eb293f7aadd1c55998f48b"}, {"bike_id": "d178deda4ad67537a67395a0ff572d97", "type": "electric_scooter", "is_disabled": 0, "lat": 38.91928816666667, "rental_uris": {"ios": "https://dc.lft.to/lastmile_qr_scan", "android": "https://dc.lft.to/lastmile_qr_scan"}, "is_reserved": 0, "fusion_lon": 0.0, "fusion_lat": 0.0, "lon": -77.0449495, "name": "d178deda4ad67537a67395a0ff572d97"}, {"bike_id": "a7fa7bbe54b68c6e78e0e799ef8c4063", "type": "electric_scooter", "is_disabled": 0, "lat": 38.89839333333333, "rental_uris": {"ios": "https://dc.lft.to/lastmile_qr_scan", "android": "https://dc.lft.to/lastmile_qr_scan"}, "is_reserved": 0, "fusion_lon": 0.0, "fusion_lat": 0.0, "lon": -76.94633983333334, "name": "a7fa7bbe54b68c6e78e0e799ef8c4063"}, {"bike_id": "9f30882db8a1ce3a6a8e14c5b05b9451", "type": "electric_scooter", "is_disabled": 0, "lat": 38.902688833333336, "rental_uris": {"ios": "https://dc.lft.to/lastmile_qr_scan", "android": "https://dc.lft.to/lastmile_qr_scan"}, "is_reserved": 0, "fusion_lon": 0.0, "fusion_lat": 0.0, "lon": -77.05488683333333, "name": "9f30882db8a1ce3a6a8e14c5b05b9451"}, {"bike_id": "321f316811ec5004e2117d1f076cdda0", "type": "electric_scooter", "is_disabled": 0, "lat": 38.923468666666665, "rental_uris": {"ios": "https://dc.lft.to/lastmile_qr_scan", "android": "https://dc.lft.to/lastmile_qr_scan"}, "is_reserved": 0, "fusion_lon": 0.0, "fusion_lat": 0.0, "lon": -77.03354633333333, "name": "321f316811ec5004e2117d1f076cdda0"}, {"bike_id": "31ec8711118387fd2d4cb6d058ceeca1", "type": "electric_scooter", "is_disabled": 0, "lat": 38.902544666666664, "rental_uris": {"ios": "https://dc.lft.to/lastmile_qr_scan", "android": "https://dc.lft.to/lastmile_qr_scan"}, "is_reserved": 0, "fusion_lon": 0.0, "fusion_lat": 0.0, "lon": -77.0163185, "name": "31ec8711118387fd2d4cb6d058ceeca1"}, {"bike_id": "c7be7db630af293d35520aef706482aa", "type": "electric_scooter", "is_disabled": 0, "lat": 38.93176066666667, "rental_uris": {"ios": "https://dc.lft.to/lastmile_qr_scan", "android": "https://dc.lft.to/lastmile_qr_scan"}, "is_reserved": 0, "fusion_lon": 0.0, "fusion_lat": 0.0, "lon": -77.02540916666666, "name": "c7be7db630af293d35520aef706482aa"}, {"bike_id": "526749c13f8139f75e7cb811129b42d7", "type": "electric_scooter", "is_disabled": 0, "lat": 38.894778333333335, "rental_uris": {"ios": "https://dc.lft.to/lastmile_qr_scan", "android": "https://dc.lft.to/lastmile_qr_scan"}, "is_reserved": 0, "fusion_lon": 0.0, "fusion_lat": 0.0, "lon": -76.94862933333333, "name": "526749c13f8139f75e7cb811129b42d7"}, {"bike_id": "550f074772081553a68e4aabe716afc8", "type": "electric_scooter", "is_disabled": 0, "lat": 38.9095335, "rental_uris": {"ios": "https://dc.lft.to/lastmile_qr_scan", "android": "https://dc.lft.to/lastmile_qr_scan"}, "is_reserved": 0, "fusion_lon": 0.0, "fusion_lat": 0.0, "lon": -77.02718733333333, "name": "550f074772081553a68e4aabe716afc8"}, {"bike_id": "fee54e8a58577d710addc9c804b519a3", "type": "electric_scooter", "is_disabled": 0, "lat": 38.90741716666667, "rental_uris": {"ios": "https://dc.lft.to/lastmile_qr_scan", "android": "https://dc.lft.to/lastmile_qr_scan"}, "is_reserved": 0, "fusion_lon": 0.0, "fusion_lat": 0.0, "lon": -77.0093735, "name": "fee54e8a58577d710addc9c804b519a3"}, {"bike_id": "a175c64432d993218a6b86b23300e9d1", "type": "electric_scooter", "is_disabled": 0, "lat": 38.896149, "rental_uris": {"ios": "https://dc.lft.to/lastmile_qr_scan", "android": "https://dc.lft.to/lastmile_qr_scan"}, "is_reserved": 0, "fusion_lon": 0.0, "fusion_lat": 0.0, "lon": -76.98569633333334, "name": "a175c64432d993218a6b86b23300e9d1"}, {"bike_id": "d421353a525c0102affc321f67234da3", "type": "electric_scooter", "is_disabled": 0, "lat": 38.907709833333335, "rental_uris": {"ios": "https://dc.lft.to/lastmile_qr_scan", "android": "https://dc.lft.to/lastmile_qr_scan"}, "is_reserved": 0, "fusion_lon": 0.0, "fusion_lat": 0.0, "lon": -77.07144433333333, "name": "d421353a525c0102affc321f67234da3"}, {"bike_id": "97a43a1c1aa88dbc8f5869f95ff86171", "type": "electric_scooter", "is_disabled": 0, "lat": 38.909213666666666, "rental_uris": {"ios": "https://dc.lft.to/lastmile_qr_scan", "android": "https://dc.lft.to/lastmile_qr_scan"}, "is_reserved": 0, "fusion_lon": 0.0, "fusion_lat": 0.0, "lon": -77.01529483333333, "name": "97a43a1c1aa88dbc8f5869f95ff86171"}, {"bike_id": "3ca02a913dc55815b66c5c1427415ec7", "type": "electric_scooter", "is_disabled": 0, "lat": 38.911846833333335, "rental_uris": {"ios": "https://dc.lft.to/lastmile_qr_scan", "android": "https://dc.lft.to/lastmile_qr_scan"}, "is_reserved": 0, "fusion_lon": 0.0, "fusion_lat": 0.0, "lon": -77.04037733333334, "name": "3ca02a913dc55815b66c5c1427415ec7"}, {"bike_id": "0e5f27f98c16dc7cd95e03faee0ccb5f", "type": "electric_scooter", "is_disabled": 0, "lat": 38.942034666666665, "rental_uris": {"ios": "https://dc.lft.to/lastmile_qr_scan", "android": "https://dc.lft.to/lastmile_qr_scan"}, "is_reserved": 0, "fusion_lon": 0.0, "fusion_lat": 0.0, "lon": -77.025942, "name": "0e5f27f98c16dc7cd95e03faee0ccb5f"}, {"bike_id": "3bcc7c0e112960430828fa4a4a0eb396", "type": "electric_scooter", "is_disabled": 0, "lat": 38.901223, "rental_uris": {"ios": "https://dc.lft.to/lastmile_qr_scan", "android": "https://dc.lft.to/lastmile_qr_scan"}, "is_reserved": 0, "fusion_lon": 0.0, "fusion_lat": 0.0, "lon": -77.01815666666667, "name": "3bcc7c0e112960430828fa4a4a0eb396"}, {"bike_id": "b1e37c777df4afa0c26bfbe3b2a1d25b", "type": "electric_scooter", "is_disabled": 0, "lat": 38.915017, "rental_uris": {"ios": "https://dc.lft.to/lastmile_qr_scan", "android": "https://dc.lft.to/lastmile_qr_scan"}, "is_reserved": 0, "fusion_lon": 0.0, "fusion_lat": 0.0, "lon": -77.017787, "name": "b1e37c777df4afa0c26bfbe3b2a1d25b"}, {"bike_id": "2f6f4c4aab8c072167ff26105e28b56f", "type": "electric_scooter", "is_disabled": 0, "lat": 38.8923105, "rental_uris": {"ios": "https://dc.lft.to/lastmile_qr_scan", "android": "https://dc.lft.to/lastmile_qr_scan"}, "is_reserved": 0, "fusion_lon": 0.0, "fusion_lat": 0.0, "lon": -77.05000816666667, "name": "2f6f4c4aab8c072167ff26105e28b56f"}, {"bike_id": "cdae8eeb71fb41c39958baf3d400eb5b", "type": "electric_scooter", "is_disabled": 0, "lat": 38.911077166666665, "rental_uris": {"ios": "https://dc.lft.to/lastmile_qr_scan", "android": "https://dc.lft.to/lastmile_qr_scan"}, "is_reserved": 0, "fusion_lon": 0.0, "fusion_lat": 0.0, "lon": -77.011508, "name": "cdae8eeb71fb41c39958baf3d400eb5b"}, {"bike_id": "5237327e91502d0f0c34300d7b5ff579", "type": "electric_scooter", "is_disabled": 0, "lat": 38.90562233333333, "rental_uris": {"ios": "https://dc.lft.to/lastmile_qr_scan", "android": "https://dc.lft.to/lastmile_qr_scan"}, "is_reserved": 0, "fusion_lon": 0.0, "fusion_lat": 0.0, "lon": -77.04585316666666, "name": "5237327e91502d0f0c34300d7b5ff579"}, {"bike_id": "4124a63c4dcdad6ce1a75af1be72a408", "type": "electric_scooter", "is_disabled": 0, "lat": 38.9169675, "rental_uris": {"ios": "https://dc.lft.to/lastmile_qr_scan", "android": "https://dc.lft.to/lastmile_qr_scan"}, "is_reserved": 0, "fusion_lon": 0.0, "fusion_lat": 0.0, "lon": -77.023761, "name": "4124a63c4dcdad6ce1a75af1be72a408"}, {"bike_id": "359eca0d65601bd0e45ca35ce4ac7e3b", "type": "electric_scooter", "is_disabled": 0, "lat": 38.9051935, "rental_uris": {"ios": "https://dc.lft.to/lastmile_qr_scan", "android": "https://dc.lft.to/lastmile_qr_scan"}, "is_reserved": 0, "fusion_lon": 0.0, "fusion_lat": 0.0, "lon": -77.06904883333333, "name": "359eca0d65601bd0e45ca35ce4ac7e3b"}, {"bike_id": "b272b08973d73a1916346b618fdc3c28", "type": "electric_scooter", "is_disabled": 0, "lat": 38.882718833333335, "rental_uris": {"ios": "https://dc.lft.to/lastmile_qr_scan", "android": "https://dc.lft.to/lastmile_qr_scan"}, "is_reserved": 0, "fusion_lon": 0.0, "fusion_lat": 0.0, "lon": -76.99361466666667, "name": "b272b08973d73a1916346b618fdc3c28"}, {"bike_id": "e0018d007e93bd12afa0846a39b4d07c", "type": "electric_scooter", "is_disabled": 0, "lat": 38.8803655, "rental_uris": {"ios": "https://dc.lft.to/lastmile_qr_scan", "android": "https://dc.lft.to/lastmile_qr_scan"}, "is_reserved": 0, "fusion_lon": 0.0, "fusion_lat": 0.0, "lon": -77.00525266666666, "name": "e0018d007e93bd12afa0846a39b4d07c"}, {"bike_id": "ff093a88f56156f8f7f0c8e5e2c01276", "type": "electric_scooter", "is_disabled": 0, "lat": 38.913229, "rental_uris": {"ios": "https://dc.lft.to/lastmile_qr_scan", "android": "https://dc.lft.to/lastmile_qr_scan"}, "is_reserved": 0, "fusion_lon": 0.0, "fusion_lat": 0.0, "lon": -77.03643433333333, "name": "ff093a88f56156f8f7f0c8e5e2c01276"}, {"bike_id": "26456523d56bc136af4948478ff1ee33", "type": "electric_scooter", "is_disabled": 0, "lat": 38.930670666666664, "rental_uris": {"ios": "https://dc.lft.to/lastmile_qr_scan", "android": "https://dc.lft.to/lastmile_qr_scan"}, "is_reserved": 0, "fusion_lon": 0.0, "fusion_lat": 0.0, "lon": -77.01982983333333, "name": "26456523d56bc136af4948478ff1ee33"}, {"bike_id": "914fad035a0a9399426d0e0afe604470", "type": "electric_bike", "is_disabled": 0, "lat": 38.9540425, "rental_uris": {"ios": "https://dc.lft.to/lastmile_qr_scan", "android": "https://dc.lft.to/lastmile_qr_scan"}, "is_reserved": 0, "fusion_lon": 0.0, "fusion_lat": 0.0, "lon": -76.98049666666667, "name": "914fad035a0a9399426d0e0afe604470"}, {"bike_id": "e5fe106688d252faba5f41e81bed3620", "type": "electric_scooter", "is_disabled": 0, "lat": 38.89609766666667, "rental_uris": {"ios": "https://dc.lft.to/lastmile_qr_scan", "android": "https://dc.lft.to/lastmile_qr_scan"}, "is_reserved": 0, "fusion_lon": 0.0, "fusion_lat": 0.0, "lon": -77.00333516666667, "name": "e5fe106688d252faba5f41e81bed3620"}, {"bike_id": "1b3dbf6d803d34580a1fc9937bb2d7c3", "type": "electric_scooter", "is_disabled": 0, "lat": 38.921978, "rental_uris": {"ios": "https://dc.lft.to/lastmile_qr_scan", "android": "https://dc.lft.to/lastmile_qr_scan"}, "is_reserved": 0, "fusion_lon": 0.0, "fusion_lat": 0.0, "lon": -77.020268, "name": "1b3dbf6d803d34580a1fc9937bb2d7c3"}, {"bike_id": "5d34f2eed3a4ce214e818f4321cc2713", "type": "electric_scooter", "is_disabled": 0, "lat": 38.9048385, "rental_uris": {"ios": "https://dc.lft.to/lastmile_qr_scan", "android": "https://dc.lft.to/lastmile_qr_scan"}, "is_reserved": 0, "fusion_lon": 0.0, "fusion_lat": 0.0, "lon": -77.05373483333334, "name": "5d34f2eed3a4ce214e818f4321cc2713"}, {"bike_id": "723553cf2637b1be02225ac1b53daaff", "type": "electric_scooter", "is_disabled": 0, "lat": 38.916956666666664, "rental_uris": {"ios": "https://dc.lft.to/lastmile_qr_scan", "android": "https://dc.lft.to/lastmile_qr_scan"}, "is_reserved": 0, "fusion_lon": 0.0, "fusion_lat": 0.0, "lon": -77.02880016666667, "name": "723553cf2637b1be02225ac1b53daaff"}, {"bike_id": "5aab2602cce45b648f0c79cabf04954d", "type": "electric_scooter", "is_disabled": 0, "lat": 38.89889866666667, "rental_uris": {"ios": "https://dc.lft.to/lastmile_qr_scan", "android": "https://dc.lft.to/lastmile_qr_scan"}, "is_reserved": 0, "fusion_lon": 0.0, "fusion_lat": 0.0, "lon": -76.97692316666667, "name": "5aab2602cce45b648f0c79cabf04954d"}, {"bike_id": "d88cb6810ec6054ed3ce768cf79b4141", "type": "electric_scooter", "is_disabled": 0, "lat": 38.91900066666667, "rental_uris": {"ios": "https://dc.lft.to/lastmile_qr_scan", "android": "https://dc.lft.to/lastmile_qr_scan"}, "is_reserved": 0, "fusion_lon": 0.0, "fusion_lat": 0.0, "lon": -77.03517933333333, "name": "d88cb6810ec6054ed3ce768cf79b4141"}, {"bike_id": "afc5f750c68f47e90e2f3056076e1a00", "type": "electric_scooter", "is_disabled": 0, "lat": 38.918684166666665, "rental_uris": {"ios": "https://dc.lft.to/lastmile_qr_scan", "android": "https://dc.lft.to/lastmile_qr_scan"}, "is_reserved": 0, "fusion_lon": 0.0, "fusion_lat": 0.0, "lon": -77.0121445, "name": "afc5f750c68f47e90e2f3056076e1a00"}, {"bike_id": "7e1bb0066db0f6af4eae2165efbac624", "type": "electric_scooter", "is_disabled": 0, "lat": 38.9565045, "rental_uris": {"ios": "https://dc.lft.to/lastmile_qr_scan", "android": "https://dc.lft.to/lastmile_qr_scan"}, "is_reserved": 0, "fusion_lon": 0.0, "fusion_lat": 0.0, "lon": -77.02397133333334, "name": "7e1bb0066db0f6af4eae2165efbac624"}, {"bike_id": "15ab5c4f2e55e01980cdc22e2f8a04a9", "type": "electric_scooter", "is_disabled": 0, "lat": 38.938949666666666, "rental_uris": {"ios": "https://dc.lft.to/lastmile_qr_scan", "android": "https://dc.lft.to/lastmile_qr_scan"}, "is_reserved": 0, "fusion_lon": 0.0, "fusion_lat": 0.0, "lon": -77.01678316666667, "name": "15ab5c4f2e55e01980cdc22e2f8a04a9"}, {"bike_id": "cf8341ed608bfa63a6acbfd57e628e0c", "type": "electric_scooter", "is_disabled": 0, "lat": 38.90632766666667, "rental_uris": {"ios": "https://dc.lft.to/lastmile_qr_scan", "android": "https://dc.lft.to/lastmile_qr_scan"}, "is_reserved": 0, "fusion_lon": 0.0, "fusion_lat": 0.0, "lon": -77.0249575, "name": "cf8341ed608bfa63a6acbfd57e628e0c"}, {"bike_id": "a40a10026ee53d068e71d06b04c36f72", "type": "electric_bike", "is_disabled": 0, "lat": 38.8355035, "rental_uris": {"ios": "https://dc.lft.to/lastmile_qr_scan", "android": "https://dc.lft.to/lastmile_qr_scan"}, "is_reserved": 0, "fusion_lon": 0.0, "fusion_lat": 0.0, "lon": -77.00115433333333, "name": "a40a10026ee53d068e71d06b04c36f72"}, {"bike_id": "c9ff6528ef8587a72a5e3ddc493d4e36", "type": "electric_scooter", "is_disabled": 0, "lat": 38.92540416666667, "rental_uris": {"ios": "https://dc.lft.to/lastmile_qr_scan", "android": "https://dc.lft.to/lastmile_qr_scan"}, "is_reserved": 0, "fusion_lon": 0.0, "fusion_lat": 0.0, "lon": -77.04129366666666, "name": "c9ff6528ef8587a72a5e3ddc493d4e36"}, {"bike_id": "a0ae2f011502e2a2ac22b8a2cbed7907", "type": "electric_scooter", "is_disabled": 0, "lat": 38.914543, "rental_uris": {"ios": "https://dc.lft.to/lastmile_qr_scan", "android": "https://dc.lft.to/lastmile_qr_scan"}, "is_reserved": 0, "fusion_lon": 0.0, "fusion_lat": 0.0, "lon": -77.07106783333333, "name": "a0ae2f011502e2a2ac22b8a2cbed7907"}, {"bike_id": "75258bc287a2d2e9ae8831df8c2d0d84", "type": "electric_bike", "is_disabled": 0, "lat": 38.809076166666664, "rental_uris": {"ios": "https://dc.lft.to/lastmile_qr_scan", "android": "https://dc.lft.to/lastmile_qr_scan"}, "is_reserved": 0, "fusion_lon": 0.0, "fusion_lat": 0.0, "lon": -77.08655716666667, "name": "75258bc287a2d2e9ae8831df8c2d0d84"}, {"bike_id": "09432573856dc0806bc3bf7dfde3c000", "type": "electric_scooter", "is_disabled": 0, "lat": 38.8924395, "rental_uris": {"ios": "https://dc.lft.to/lastmile_qr_scan", "android": "https://dc.lft.to/lastmile_qr_scan"}, "is_reserved": 0, "fusion_lon": 0.0, "fusion_lat": 0.0, "lon": -76.953317, "name": "09432573856dc0806bc3bf7dfde3c000"}, {"bike_id": "9f14274e377b92c0228204e6cb2c7738", "type": "electric_scooter", "is_disabled": 0, "lat": 38.93371116666667, "rental_uris": {"ios": "https://dc.lft.to/lastmile_qr_scan", "android": "https://dc.lft.to/lastmile_qr_scan"}, "is_reserved": 0, "fusion_lon": 0.0, "fusion_lat": 0.0, "lon": -77.05728616666667, "name": "9f14274e377b92c0228204e6cb2c7738"}, {"bike_id": "a34e2930054709c4638839eda3daa9a1", "type": "electric_scooter", "is_disabled": 0, "lat": 38.88530166666666, "rental_uris": {"ios": "https://dc.lft.to/lastmile_qr_scan", "android": "https://dc.lft.to/lastmile_qr_scan"}, "is_reserved": 0, "fusion_lon": 0.0, "fusion_lat": 0.0, "lon": -76.99829433333333, "name": "a34e2930054709c4638839eda3daa9a1"}, {"bike_id": "4fb5ef304bbec1a00097f76f75829d84", "type": "electric_scooter", "is_disabled": 0, "lat": 38.909721833333336, "rental_uris": {"ios": "https://dc.lft.to/lastmile_qr_scan", "android": "https://dc.lft.to/lastmile_qr_scan"}, "is_reserved": 0, "fusion_lon": 0.0, "fusion_lat": 0.0, "lon": -77.033479, "name": "4fb5ef304bbec1a00097f76f75829d84"}, {"bike_id": "8953556c2dbcf41629b1af68ab41cd28", "type": "electric_scooter", "is_disabled": 0, "lat": 38.91152066666667, "rental_uris": {"ios": "https://dc.lft.to/lastmile_qr_scan", "android": "https://dc.lft.to/lastmile_qr_scan"}, "is_reserved": 0, "fusion_lon": 0.0, "fusion_lat": 0.0, "lon": -77.0295755, "name": "8953556c2dbcf41629b1af68ab41cd28"}, {"bike_id": "4f22269c34d9aecbae7237a89d029ed7", "type": "electric_scooter", "is_disabled": 0, "lat": 38.917697, "rental_uris": {"ios": "https://dc.lft.to/lastmile_qr_scan", "android": "https://dc.lft.to/lastmile_qr_scan"}, "is_reserved": 0, "fusion_lon": 0.0, "fusion_lat": 0.0, "lon": -77.01499783333334, "name": "4f22269c34d9aecbae7237a89d029ed7"}, {"bike_id": "8f849317da93f2c64f4d067b4f85d54c", "type": "electric_scooter", "is_disabled": 0, "lat": 38.91128916666667, "rental_uris": {"ios": "https://dc.lft.to/lastmile_qr_scan", "android": "https://dc.lft.to/lastmile_qr_scan"}, "is_reserved": 0, "fusion_lon": 0.0, "fusion_lat": 0.0, "lon": -77.0219255, "name": "8f849317da93f2c64f4d067b4f85d54c"}, {"bike_id": "dc21ecfa66951a652a5f19c77ba3ea61", "type": "electric_scooter", "is_disabled": 0, "lat": 38.92216583333333, "rental_uris": {"ios": "https://dc.lft.to/lastmile_qr_scan", "android": "https://dc.lft.to/lastmile_qr_scan"}, "is_reserved": 0, "fusion_lon": 0.0, "fusion_lat": 0.0, "lon": -77.02217133333333, "name": "dc21ecfa66951a652a5f19c77ba3ea61"}, {"bike_id": "2e6309057cd809caed7bfee1a91cb829", "type": "electric_scooter", "is_disabled": 0, "lat": 38.906844666666665, "rental_uris": {"ios": "https://dc.lft.to/lastmile_qr_scan", "android": "https://dc.lft.to/lastmile_qr_scan"}, "is_reserved": 0, "fusion_lon": 0.0, "fusion_lat": 0.0, "lon": -77.05321633333334, "name": "2e6309057cd809caed7bfee1a91cb829"}, {"bike_id": "3665ae32a00216839ab05dc20c385649", "type": "electric_scooter", "is_disabled": 0, "lat": 38.91217433333333, "rental_uris": {"ios": "https://dc.lft.to/lastmile_qr_scan", "android": "https://dc.lft.to/lastmile_qr_scan"}, "is_reserved": 0, "fusion_lon": 0.0, "fusion_lat": 0.0, "lon": -77.03190966666666, "name": "3665ae32a00216839ab05dc20c385649"}, {"bike_id": "495ed8a19265780966a024f0c80caa0d", "type": "electric_scooter", "is_disabled": 0, "lat": 38.902342, "rental_uris": {"ios": "https://dc.lft.to/lastmile_qr_scan", "android": "https://dc.lft.to/lastmile_qr_scan"}, "is_reserved": 0, "fusion_lon": 0.0, "fusion_lat": 0.0, "lon": -77.0433185, "name": "495ed8a19265780966a024f0c80caa0d"}, {"bike_id": "aaa4e72d02fbe4548f7e948c73b0398c", "type": "electric_scooter", "is_disabled": 0, "lat": 38.92686783333333, "rental_uris": {"ios": "https://dc.lft.to/lastmile_qr_scan", "android": "https://dc.lft.to/lastmile_qr_scan"}, "is_reserved": 0, "fusion_lon": 0.0, "fusion_lat": 0.0, "lon": -77.0732735, "name": "aaa4e72d02fbe4548f7e948c73b0398c"}, {"bike_id": "53c840dec43dfca13fc285a6877207cf", "type": "electric_scooter", "is_disabled": 0, "lat": 38.895022833333336, "rental_uris": {"ios": "https://dc.lft.to/lastmile_qr_scan", "android": "https://dc.lft.to/lastmile_qr_scan"}, "is_reserved": 0, "fusion_lon": 0.0, "fusion_lat": 0.0, "lon": -76.93477566666667, "name": "53c840dec43dfca13fc285a6877207cf"}, {"bike_id": "10541a1855254f15ca93fb75c6ce4170", "type": "electric_bike", "is_disabled": 0, "lat": 38.8483825, "rental_uris": {"ios": "https://dc.lft.to/lastmile_qr_scan", "android": "https://dc.lft.to/lastmile_qr_scan"}, "is_reserved": 0, "fusion_lon": 0.0, "fusion_lat": 0.0, "lon": -77.0791575, "name": "10541a1855254f15ca93fb75c6ce4170"}, {"bike_id": "587fda643968a7265ea1c286777d6df2", "type": "electric_scooter", "is_disabled": 0, "lat": 38.9510985, "rental_uris": {"ios": "https://dc.lft.to/lastmile_qr_scan", "android": "https://dc.lft.to/lastmile_qr_scan"}, "is_reserved": 0, "fusion_lon": 0.0, "fusion_lat": 0.0, "lon": -77.01428666666666, "name": "587fda643968a7265ea1c286777d6df2"}, {"bike_id": "3c09feeb0063709763787933e2d6d359", "type": "electric_bike", "is_disabled": 0, "lat": 38.942599333333334, "rental_uris": {"ios": "https://dc.lft.to/lastmile_qr_scan", "android": "https://dc.lft.to/lastmile_qr_scan"}, "is_reserved": 0, "fusion_lon": 0.0, "fusion_lat": 0.0, "lon": -76.9906845, "name": "3c09feeb0063709763787933e2d6d359"}, {"bike_id": "2e962fb5c770a1cafbc8200846ec6fd9", "type": "electric_scooter", "is_disabled": 0, "lat": 38.928635666666665, "rental_uris": {"ios": "https://dc.lft.to/lastmile_qr_scan", "android": "https://dc.lft.to/lastmile_qr_scan"}, "is_reserved": 0, "fusion_lon": 0.0, "fusion_lat": 0.0, "lon": -77.03718733333334, "name": "2e962fb5c770a1cafbc8200846ec6fd9"}, {"bike_id": "93858801cd5f26d8332567541dea905d", "type": "electric_scooter", "is_disabled": 0, "lat": 38.9492725, "rental_uris": {"ios": "https://dc.lft.to/lastmile_qr_scan", "android": "https://dc.lft.to/lastmile_qr_scan"}, "is_reserved": 0, "fusion_lon": 0.0, "fusion_lat": 0.0, "lon": -77.06523733333333, "name": "93858801cd5f26d8332567541dea905d"}, {"bike_id": "a091fb24dae5a9a6c937540c8db0581c", "type": "electric_scooter", "is_disabled": 0, "lat": 38.925427666666664, "rental_uris": {"ios": "https://dc.lft.to/lastmile_qr_scan", "android": "https://dc.lft.to/lastmile_qr_scan"}, "is_reserved": 0, "fusion_lon": 0.0, "fusion_lat": 0.0, "lon": -77.03353883333334, "name": "a091fb24dae5a9a6c937540c8db0581c"}, {"bike_id": "804526e68dea559d930c8816fa7c33c7", "type": "electric_scooter", "is_disabled": 0, "lat": 38.866936333333335, "rental_uris": {"ios": "https://dc.lft.to/lastmile_qr_scan", "android": "https://dc.lft.to/lastmile_qr_scan"}, "is_reserved": 0, "fusion_lon": 0.0, "fusion_lat": 0.0, "lon": -76.98562916666667, "name": "804526e68dea559d930c8816fa7c33c7"}, {"bike_id": "f4590949eb004d08b20437c5c7f8b9ce", "type": "electric_scooter", "is_disabled": 0, "lat": 38.916678, "rental_uris": {"ios": "https://dc.lft.to/lastmile_qr_scan", "android": "https://dc.lft.to/lastmile_qr_scan"}, "is_reserved": 0, "fusion_lon": 0.0, "fusion_lat": 0.0, "lon": -77.04688716666666, "name": "f4590949eb004d08b20437c5c7f8b9ce"}, {"bike_id": "2d3b290588e98a3afb82b95f031875e3", "type": "electric_scooter", "is_disabled": 0, "lat": 38.908430333333335, "rental_uris": {"ios": "https://dc.lft.to/lastmile_qr_scan", "android": "https://dc.lft.to/lastmile_qr_scan"}, "is_reserved": 0, "fusion_lon": 0.0, "fusion_lat": 0.0, "lon": -77.0334315, "name": "2d3b290588e98a3afb82b95f031875e3"}, {"bike_id": "a1b09b6e59d8106cabc8fc6a62272ed7", "type": "electric_scooter", "is_disabled": 0, "lat": 38.91819316666667, "rental_uris": {"ios": "https://dc.lft.to/lastmile_qr_scan", "android": "https://dc.lft.to/lastmile_qr_scan"}, "is_reserved": 0, "fusion_lon": 0.0, "fusion_lat": 0.0, "lon": -77.027089, "name": "a1b09b6e59d8106cabc8fc6a62272ed7"}, {"bike_id": "1f701a0c47428065e85dd8388ab8b048", "type": "electric_scooter", "is_disabled": 0, "lat": 38.924876, "rental_uris": {"ios": "https://dc.lft.to/lastmile_qr_scan", "android": "https://dc.lft.to/lastmile_qr_scan"}, "is_reserved": 0, "fusion_lon": 0.0, "fusion_lat": 0.0, "lon": -77.052224, "name": "1f701a0c47428065e85dd8388ab8b048"}, {"bike_id": "6c84a32609c6fef4d493d8e43b68f5a7", "type": "electric_scooter", "is_disabled": 0, "lat": 38.900402, "rental_uris": {"ios": "https://dc.lft.to/lastmile_qr_scan", "android": "https://dc.lft.to/lastmile_qr_scan"}, "is_reserved": 0, "fusion_lon": 0.0, "fusion_lat": 0.0, "lon": -77.03667583333333, "name": "6c84a32609c6fef4d493d8e43b68f5a7"}, {"bike_id": "fe498b3caa8d23aab2406287906a3146", "type": "electric_scooter", "is_disabled": 0, "lat": 38.8737935, "rental_uris": {"ios": "https://dc.lft.to/lastmile_qr_scan", "android": "https://dc.lft.to/lastmile_qr_scan"}, "is_reserved": 0, "fusion_lon": 0.0, "fusion_lat": 0.0, "lon": -77.04325666666666, "name": "fe498b3caa8d23aab2406287906a3146"}, {"bike_id": "6e25fd6d2ff55806d529241a02b43e31", "type": "electric_scooter", "is_disabled": 0, "lat": 38.93671833333333, "rental_uris": {"ios": "https://dc.lft.to/lastmile_qr_scan", "android": "https://dc.lft.to/lastmile_qr_scan"}, "is_reserved": 0, "fusion_lon": 0.0, "fusion_lat": 0.0, "lon": -77.02432416666667, "name": "6e25fd6d2ff55806d529241a02b43e31"}, {"bike_id": "29f9587cf760ff01c524accb0b4fec94", "type": "electric_scooter", "is_disabled": 0, "lat": 38.916659833333334, "rental_uris": {"ios": "https://dc.lft.to/lastmile_qr_scan", "android": "https://dc.lft.to/lastmile_qr_scan"}, "is_reserved": 0, "fusion_lon": 0.0, "fusion_lat": 0.0, "lon": -77.04688166666666, "name": "29f9587cf760ff01c524accb0b4fec94"}, {"bike_id": "053f513eba7a3a316ddedac4d3b735a1", "type": "electric_scooter", "is_disabled": 0, "lat": 38.89334866666667, "rental_uris": {"ios": "https://dc.lft.to/lastmile_qr_scan", "android": "https://dc.lft.to/lastmile_qr_scan"}, "is_reserved": 0, "fusion_lon": 0.0, "fusion_lat": 0.0, "lon": -76.95055566666667, "name": "053f513eba7a3a316ddedac4d3b735a1"}, {"bike_id": "26f59464af20f281debf3783f44d6c6d", "type": "electric_scooter", "is_disabled": 0, "lat": 38.9351555, "rental_uris": {"ios": "https://dc.lft.to/lastmile_qr_scan", "android": "https://dc.lft.to/lastmile_qr_scan"}, "is_reserved": 0, "fusion_lon": 0.0, "fusion_lat": 0.0, "lon": -77.033579, "name": "26f59464af20f281debf3783f44d6c6d"}, {"bike_id": "053e043e6a863d9892fbbdb107166a46", "type": "electric_scooter", "is_disabled": 0, "lat": 38.900861, "rental_uris": {"ios": "https://dc.lft.to/lastmile_qr_scan", "android": "https://dc.lft.to/lastmile_qr_scan"}, "is_reserved": 0, "fusion_lon": 0.0, "fusion_lat": 0.0, "lon": -76.9833845, "name": "053e043e6a863d9892fbbdb107166a46"}, {"bike_id": "1d1d9f006b978a59673a28160a961057", "type": "electric_scooter", "is_disabled": 0, "lat": 38.90274816666667, "rental_uris": {"ios": "https://dc.lft.to/lastmile_qr_scan", "android": "https://dc.lft.to/lastmile_qr_scan"}, "is_reserved": 0, "fusion_lon": 0.0, "fusion_lat": 0.0, "lon": -77.0337845, "name": "1d1d9f006b978a59673a28160a961057"}, {"bike_id": "c948e267796419bbacb9bde88ff44ac8", "type": "electric_scooter", "is_disabled": 0, "lat": 38.91403316666667, "rental_uris": {"ios": "https://dc.lft.to/lastmile_qr_scan", "android": "https://dc.lft.to/lastmile_qr_scan"}, "is_reserved": 0, "fusion_lon": 0.0, "fusion_lat": 0.0, "lon": -77.0322345, "name": "c948e267796419bbacb9bde88ff44ac8"}, {"bike_id": "deccecedc36b9b58f1e32bb8d06f78d0", "type": "electric_bike", "is_disabled": 0, "lat": 38.9632035, "rental_uris": {"ios": "https://dc.lft.to/lastmile_qr_scan", "android": "https://dc.lft.to/lastmile_qr_scan"}, "is_reserved": 0, "fusion_lon": 0.0, "fusion_lat": 0.0, "lon": -76.97358133333333, "name": "deccecedc36b9b58f1e32bb8d06f78d0"}, {"bike_id": "1354c3587fe482e08efaa742afb32018", "type": "electric_scooter", "is_disabled": 0, "lat": 38.92387133333333, "rental_uris": {"ios": "https://dc.lft.to/lastmile_qr_scan", "android": "https://dc.lft.to/lastmile_qr_scan"}, "is_reserved": 0, "fusion_lon": 0.0, "fusion_lat": 0.0, "lon": -77.05053466666666, "name": "1354c3587fe482e08efaa742afb32018"}, {"bike_id": "cc4e1bf3a76705840ebcfd8d2fb68501", "type": "electric_scooter", "is_disabled": 0, "lat": 38.90832866666667, "rental_uris": {"ios": "https://dc.lft.to/lastmile_qr_scan", "android": "https://dc.lft.to/lastmile_qr_scan"}, "is_reserved": 0, "fusion_lon": 0.0, "fusion_lat": 0.0, "lon": -77.04457516666666, "name": "cc4e1bf3a76705840ebcfd8d2fb68501"}, {"bike_id": "2d7e335bb3653b8cbaac8c185111de07", "type": "electric_scooter", "is_disabled": 0, "lat": 38.90810483333333, "rental_uris": {"ios": "https://dc.lft.to/lastmile_qr_scan", "android": "https://dc.lft.to/lastmile_qr_scan"}, "is_reserved": 0, "fusion_lon": 0.0, "fusion_lat": 0.0, "lon": -77.08415883333333, "name": "2d7e335bb3653b8cbaac8c185111de07"}, {"bike_id": "50d3f66ae1d63c5ea7b17c21855b5bab", "type": "electric_bike", "is_disabled": 0, "lat": 38.9630795, "rental_uris": {"ios": "https://dc.lft.to/lastmile_qr_scan", "android": "https://dc.lft.to/lastmile_qr_scan"}, "is_reserved": 0, "fusion_lon": 0.0, "fusion_lat": 0.0, "lon": -77.01106583333333, "name": "50d3f66ae1d63c5ea7b17c21855b5bab"}, {"bike_id": "11074ffc1d5118b2049ea05ef24b0f28", "type": "electric_scooter", "is_disabled": 0, "lat": 38.871748833333335, "rental_uris": {"ios": "https://dc.lft.to/lastmile_qr_scan", "android": "https://dc.lft.to/lastmile_qr_scan"}, "is_reserved": 0, "fusion_lon": 0.0, "fusion_lat": 0.0, "lon": -77.00618283333333, "name": "11074ffc1d5118b2049ea05ef24b0f28"}, {"bike_id": "09caa179ef0b430dde20679edad8c3aa", "type": "electric_scooter", "is_disabled": 0, "lat": 38.87415766666667, "rental_uris": {"ios": "https://dc.lft.to/lastmile_qr_scan", "android": "https://dc.lft.to/lastmile_qr_scan"}, "is_reserved": 0, "fusion_lon": 0.0, "fusion_lat": 0.0, "lon": -76.96906683333333, "name": "09caa179ef0b430dde20679edad8c3aa"}, {"bike_id": "51acc864a1c8954bfc52dd9323cd643c", "type": "electric_bike", "is_disabled": 0, "lat": 38.95247666666667, "rental_uris": {"ios": "https://dc.lft.to/lastmile_qr_scan", "android": "https://dc.lft.to/lastmile_qr_scan"}, "is_reserved": 0, "fusion_lon": 0.0, "fusion_lat": 0.0, "lon": -76.97676483333333, "name": "51acc864a1c8954bfc52dd9323cd643c"}, {"bike_id": "12a172fc63e54d768d12ed8a1a9fcb08", "type": "electric_scooter", "is_disabled": 0, "lat": 38.92468183333333, "rental_uris": {"ios": "https://dc.lft.to/lastmile_qr_scan", "android": "https://dc.lft.to/lastmile_qr_scan"}, "is_reserved": 0, "fusion_lon": 0.0, "fusion_lat": 0.0, "lon": -77.0224555, "name": "12a172fc63e54d768d12ed8a1a9fcb08"}, {"bike_id": "e5b0f9f47105ae98ee5c67da37480bdf", "type": "electric_scooter", "is_disabled": 0, "lat": 38.901403, "rental_uris": {"ios": "https://dc.lft.to/lastmile_qr_scan", "android": "https://dc.lft.to/lastmile_qr_scan"}, "is_reserved": 0, "fusion_lon": 0.0, "fusion_lat": 0.0, "lon": -77.0162835, "name": "e5b0f9f47105ae98ee5c67da37480bdf"}, {"bike_id": "c72bff683e5cda9b4c0aa6372a5bf0be", "type": "electric_scooter", "is_disabled": 0, "lat": 38.923413, "rental_uris": {"ios": "https://dc.lft.to/lastmile_qr_scan", "android": "https://dc.lft.to/lastmile_qr_scan"}, "is_reserved": 0, "fusion_lon": 0.0, "fusion_lat": 0.0, "lon": -77.05098133333334, "name": "c72bff683e5cda9b4c0aa6372a5bf0be"}, {"bike_id": "a789d6583f78ee20f2ea6f2231cd9bcf", "type": "electric_scooter", "is_disabled": 0, "lat": 38.91622533333334, "rental_uris": {"ios": "https://dc.lft.to/lastmile_qr_scan", "android": "https://dc.lft.to/lastmile_qr_scan"}, "is_reserved": 0, "fusion_lon": 0.0, "fusion_lat": 0.0, "lon": -77.03960133333334, "name": "a789d6583f78ee20f2ea6f2231cd9bcf"}, {"bike_id": "b550c8b882a76d60ddf41e18f6063431", "type": "electric_scooter", "is_disabled": 0, "lat": 38.931873333333336, "rental_uris": {"ios": "https://dc.lft.to/lastmile_qr_scan", "android": "https://dc.lft.to/lastmile_qr_scan"}, "is_reserved": 0, "fusion_lon": 0.0, "fusion_lat": 0.0, "lon": -77.02020933333333, "name": "b550c8b882a76d60ddf41e18f6063431"}, {"bike_id": "151f608feeaa8c4ebae80dfef67256b4", "type": "electric_scooter", "is_disabled": 0, "lat": 38.90708433333333, "rental_uris": {"ios": "https://dc.lft.to/lastmile_qr_scan", "android": "https://dc.lft.to/lastmile_qr_scan"}, "is_reserved": 0, "fusion_lon": 0.0, "fusion_lat": 0.0, "lon": -77.02391016666667, "name": "151f608feeaa8c4ebae80dfef67256b4"}, {"bike_id": "a88bfd4d77df5ef20ebc05ea6bba09fc", "type": "electric_scooter", "is_disabled": 0, "lat": 38.90374633333333, "rental_uris": {"ios": "https://dc.lft.to/lastmile_qr_scan", "android": "https://dc.lft.to/lastmile_qr_scan"}, "is_reserved": 0, "fusion_lon": 0.0, "fusion_lat": 0.0, "lon": -77.0382445, "name": "a88bfd4d77df5ef20ebc05ea6bba09fc"}, {"bike_id": "f4a53e4cafd466042dfdbec8e3bafa68", "type": "electric_scooter", "is_disabled": 0, "lat": 38.90051666666667, "rental_uris": {"ios": "https://dc.lft.to/lastmile_qr_scan", "android": "https://dc.lft.to/lastmile_qr_scan"}, "is_reserved": 0, "fusion_lon": 0.0, "fusion_lat": 0.0, "lon": -77.03645883333333, "name": "f4a53e4cafd466042dfdbec8e3bafa68"}, {"bike_id": "2fb07dac699cd0ad2cd57982b371aef5", "type": "electric_scooter", "is_disabled": 0, "lat": 38.91705266666666, "rental_uris": {"ios": "https://dc.lft.to/lastmile_qr_scan", "android": "https://dc.lft.to/lastmile_qr_scan"}, "is_reserved": 0, "fusion_lon": 0.0, "fusion_lat": 0.0, "lon": -77.04619366666667, "name": "2fb07dac699cd0ad2cd57982b371aef5"}, {"bike_id": "e6969c304742991ce55e0671d7b05c71", "type": "electric_scooter", "is_disabled": 0, "lat": 38.94013533333333, "rental_uris": {"ios": "https://dc.lft.to/lastmile_qr_scan", "android": "https://dc.lft.to/lastmile_qr_scan"}, "is_reserved": 0, "fusion_lon": 0.0, "fusion_lat": 0.0, "lon": -77.02774033333333, "name": "e6969c304742991ce55e0671d7b05c71"}, {"bike_id": "a39e04b2fd570a344b331a172e3d341e", "type": "electric_scooter", "is_disabled": 0, "lat": 38.921009, "rental_uris": {"ios": "https://dc.lft.to/lastmile_qr_scan", "android": "https://dc.lft.to/lastmile_qr_scan"}, "is_reserved": 0, "fusion_lon": 0.0, "fusion_lat": 0.0, "lon": -77.02519816666667, "name": "a39e04b2fd570a344b331a172e3d341e"}, {"bike_id": "f93b8b5b8fca4b64e7c056ce3b1a2d1d", "type": "electric_scooter", "is_disabled": 0, "lat": 38.922161333333335, "rental_uris": {"ios": "https://dc.lft.to/lastmile_qr_scan", "android": "https://dc.lft.to/lastmile_qr_scan"}, "is_reserved": 0, "fusion_lon": 0.0, "fusion_lat": 0.0, "lon": -77.03452866666667, "name": "f93b8b5b8fca4b64e7c056ce3b1a2d1d"}, {"bike_id": "bc57cd87b6e62aba1b3335a7e15b6bd8", "type": "electric_scooter", "is_disabled": 0, "lat": 38.905650333333334, "rental_uris": {"ios": "https://dc.lft.to/lastmile_qr_scan", "android": "https://dc.lft.to/lastmile_qr_scan"}, "is_reserved": 0, "fusion_lon": 0.0, "fusion_lat": 0.0, "lon": -77.02217966666667, "name": "bc57cd87b6e62aba1b3335a7e15b6bd8"}, {"bike_id": "e2df1fbbf0e0e3863c0d0679a04d3c15", "type": "electric_bike", "is_disabled": 0, "lat": 39.039914333333336, "rental_uris": {"ios": "https://dc.lft.to/lastmile_qr_scan", "android": "https://dc.lft.to/lastmile_qr_scan"}, "is_reserved": 0, "fusion_lon": 0.0, "fusion_lat": 0.0, "lon": -76.99924583333333, "name": "e2df1fbbf0e0e3863c0d0679a04d3c15"}, {"bike_id": "67c7ad3907a587aa06e3da8362f1b9ce", "type": "electric_scooter", "is_disabled": 0, "lat": 38.89293266666667, "rental_uris": {"ios": "https://dc.lft.to/lastmile_qr_scan", "android": "https://dc.lft.to/lastmile_qr_scan"}, "is_reserved": 0, "fusion_lon": 0.0, "fusion_lat": 0.0, "lon": -77.04874866666667, "name": "67c7ad3907a587aa06e3da8362f1b9ce"}, {"bike_id": "a15ea45e689c84b63d11d14a5da9fce0", "type": "electric_scooter", "is_disabled": 0, "lat": 38.90257066666667, "rental_uris": {"ios": "https://dc.lft.to/lastmile_qr_scan", "android": "https://dc.lft.to/lastmile_qr_scan"}, "is_reserved": 0, "fusion_lon": 0.0, "fusion_lat": 0.0, "lon": -76.975511, "name": "a15ea45e689c84b63d11d14a5da9fce0"}, {"bike_id": "02584205f1599ff21e06f1771ea18172", "type": "electric_scooter", "is_disabled": 0, "lat": 38.915188, "rental_uris": {"ios": "https://dc.lft.to/lastmile_qr_scan", "android": "https://dc.lft.to/lastmile_qr_scan"}, "is_reserved": 0, "fusion_lon": 0.0, "fusion_lat": 0.0, "lon": -77.012215, "name": "02584205f1599ff21e06f1771ea18172"}, {"bike_id": "43d6801620c4b2ac8bb34554a211274e", "type": "electric_scooter", "is_disabled": 0, "lat": 38.881465666666664, "rental_uris": {"ios": "https://dc.lft.to/lastmile_qr_scan", "android": "https://dc.lft.to/lastmile_qr_scan"}, "is_reserved": 0, "fusion_lon": 0.0, "fusion_lat": 0.0, "lon": -77.027399, "name": "43d6801620c4b2ac8bb34554a211274e"}, {"bike_id": "ffa6ff9a6ec7fbf21ddc43e60b3c0b4c", "type": "electric_scooter", "is_disabled": 0, "lat": 38.920482166666666, "rental_uris": {"ios": "https://dc.lft.to/lastmile_qr_scan", "android": "https://dc.lft.to/lastmile_qr_scan"}, "is_reserved": 0, "fusion_lon": 0.0, "fusion_lat": 0.0, "lon": -77.0244705, "name": "ffa6ff9a6ec7fbf21ddc43e60b3c0b4c"}, {"bike_id": "8af05e395c1a289416cec0df81f65bc9", "type": "electric_scooter", "is_disabled": 0, "lat": 38.937689, "rental_uris": {"ios": "https://dc.lft.to/lastmile_qr_scan", "android": "https://dc.lft.to/lastmile_qr_scan"}, "is_reserved": 0, "fusion_lon": 0.0, "fusion_lat": 0.0, "lon": -77.0197155, "name": "8af05e395c1a289416cec0df81f65bc9"}, {"bike_id": "abaa16d9ff534c1c3b1f0733d32dcca5", "type": "electric_scooter", "is_disabled": 0, "lat": 38.899852, "rental_uris": {"ios": "https://dc.lft.to/lastmile_qr_scan", "android": "https://dc.lft.to/lastmile_qr_scan"}, "is_reserved": 0, "fusion_lon": 0.0, "fusion_lat": 0.0, "lon": -76.9500165, "name": "abaa16d9ff534c1c3b1f0733d32dcca5"}, {"bike_id": "4ceb09a4f058fc703ecca908479abe1c", "type": "electric_bike", "is_disabled": 0, "lat": 38.8577095, "rental_uris": {"ios": "https://dc.lft.to/lastmile_qr_scan", "android": "https://dc.lft.to/lastmile_qr_scan"}, "is_reserved": 0, "fusion_lon": 0.0, "fusion_lat": 0.0, "lon": -76.9877415, "name": "4ceb09a4f058fc703ecca908479abe1c"}, {"bike_id": "a4e4c31680a7471ebf7ba5b02c893bb6", "type": "electric_scooter", "is_disabled": 0, "lat": 38.90667083333334, "rental_uris": {"ios": "https://dc.lft.to/lastmile_qr_scan", "android": "https://dc.lft.to/lastmile_qr_scan"}, "is_reserved": 0, "fusion_lon": 0.0, "fusion_lat": 0.0, "lon": -77.06126166666667, "name": "a4e4c31680a7471ebf7ba5b02c893bb6"}, {"bike_id": "634bba72023f099e894b6a74b6663aa3", "type": "electric_scooter", "is_disabled": 0, "lat": 38.92178083333334, "rental_uris": {"ios": "https://dc.lft.to/lastmile_qr_scan", "android": "https://dc.lft.to/lastmile_qr_scan"}, "is_reserved": 0, "fusion_lon": 0.0, "fusion_lat": 0.0, "lon": -76.9979855, "name": "634bba72023f099e894b6a74b6663aa3"}, {"bike_id": "25cd63a28c190cfeaac4dbd6af94abbe", "type": "electric_scooter", "is_disabled": 0, "lat": 38.909581833333334, "rental_uris": {"ios": "https://dc.lft.to/lastmile_qr_scan", "android": "https://dc.lft.to/lastmile_qr_scan"}, "is_reserved": 0, "fusion_lon": 0.0, "fusion_lat": 0.0, "lon": -77.0142865, "name": "25cd63a28c190cfeaac4dbd6af94abbe"}, {"bike_id": "9047764ea5ef1aad7db484f7eab45ea5", "type": "electric_scooter", "is_disabled": 0, "lat": 38.8588965, "rental_uris": {"ios": "https://dc.lft.to/lastmile_qr_scan", "android": "https://dc.lft.to/lastmile_qr_scan"}, "is_reserved": 0, "fusion_lon": 0.0, "fusion_lat": 0.0, "lon": -76.99727766666666, "name": "9047764ea5ef1aad7db484f7eab45ea5"}, {"bike_id": "50053a6e71c22c2d63383f15e4920989", "type": "electric_bike", "is_disabled": 0, "lat": 38.863682833333336, "rental_uris": {"ios": "https://dc.lft.to/lastmile_qr_scan", "android": "https://dc.lft.to/lastmile_qr_scan"}, "is_reserved": 0, "fusion_lon": 0.0, "fusion_lat": 0.0, "lon": -76.97010016666667, "name": "50053a6e71c22c2d63383f15e4920989"}, {"bike_id": "be1d0b3fc762d36d590b83eb333b0b9c", "type": "electric_scooter", "is_disabled": 0, "lat": 38.878132, "rental_uris": {"ios": "https://dc.lft.to/lastmile_qr_scan", "android": "https://dc.lft.to/lastmile_qr_scan"}, "is_reserved": 0, "fusion_lon": 0.0, "fusion_lat": 0.0, "lon": -76.97173516666666, "name": "be1d0b3fc762d36d590b83eb333b0b9c"}, {"bike_id": "196682626a06ff1f4e90f6833f80a12e", "type": "electric_scooter", "is_disabled": 0, "lat": 38.935439833333334, "rental_uris": {"ios": "https://dc.lft.to/lastmile_qr_scan", "android": "https://dc.lft.to/lastmile_qr_scan"}, "is_reserved": 0, "fusion_lon": 0.0, "fusion_lat": 0.0, "lon": -77.034002, "name": "196682626a06ff1f4e90f6833f80a12e"}, {"bike_id": "4c77960d8958fca19018ec589977db2e", "type": "electric_scooter", "is_disabled": 0, "lat": 38.8888795, "rental_uris": {"ios": "https://dc.lft.to/lastmile_qr_scan", "android": "https://dc.lft.to/lastmile_qr_scan"}, "is_reserved": 0, "fusion_lon": 0.0, "fusion_lat": 0.0, "lon": -77.03327683333333, "name": "4c77960d8958fca19018ec589977db2e"}, {"bike_id": "2d2159b6a85a7ccf40021332e9169f26", "type": "electric_scooter", "is_disabled": 0, "lat": 38.86174483333333, "rental_uris": {"ios": "https://dc.lft.to/lastmile_qr_scan", "android": "https://dc.lft.to/lastmile_qr_scan"}, "is_reserved": 0, "fusion_lon": 0.0, "fusion_lat": 0.0, "lon": -77.088248, "name": "2d2159b6a85a7ccf40021332e9169f26"}, {"bike_id": "565e643ac8f8456d4094a3b9e2212337", "type": "electric_scooter", "is_disabled": 0, "lat": 38.921429, "rental_uris": {"ios": "https://dc.lft.to/lastmile_qr_scan", "android": "https://dc.lft.to/lastmile_qr_scan"}, "is_reserved": 0, "fusion_lon": 0.0, "fusion_lat": 0.0, "lon": -77.01807766666667, "name": "565e643ac8f8456d4094a3b9e2212337"}, {"bike_id": "74fe696bc4c229eb99e99eed30bc8a0b", "type": "electric_scooter", "is_disabled": 0, "lat": 38.937318833333336, "rental_uris": {"ios": "https://dc.lft.to/lastmile_qr_scan", "android": "https://dc.lft.to/lastmile_qr_scan"}, "is_reserved": 0, "fusion_lon": 0.0, "fusion_lat": 0.0, "lon": -77.02436616666667, "name": "74fe696bc4c229eb99e99eed30bc8a0b"}, {"bike_id": "616a112dd4b5f0727c3b7ffb2c177864", "type": "electric_scooter", "is_disabled": 0, "lat": 38.91396233333333, "rental_uris": {"ios": "https://dc.lft.to/lastmile_qr_scan", "android": "https://dc.lft.to/lastmile_qr_scan"}, "is_reserved": 0, "fusion_lon": 0.0, "fusion_lat": 0.0, "lon": -77.017996, "name": "616a112dd4b5f0727c3b7ffb2c177864"}, {"bike_id": "42e3d6c5ba508cd9459adbd4bab5c556", "type": "electric_scooter", "is_disabled": 0, "lat": 38.92862016666667, "rental_uris": {"ios": "https://dc.lft.to/lastmile_qr_scan", "android": "https://dc.lft.to/lastmile_qr_scan"}, "is_reserved": 0, "fusion_lon": 0.0, "fusion_lat": 0.0, "lon": -77.03714683333334, "name": "42e3d6c5ba508cd9459adbd4bab5c556"}, {"bike_id": "eeceec797856e2947ed9cd8015885ce0", "type": "electric_scooter", "is_disabled": 0, "lat": 38.912674333333335, "rental_uris": {"ios": "https://dc.lft.to/lastmile_qr_scan", "android": "https://dc.lft.to/lastmile_qr_scan"}, "is_reserved": 0, "fusion_lon": 0.0, "fusion_lat": 0.0, "lon": -77.02211433333333, "name": "eeceec797856e2947ed9cd8015885ce0"}, {"bike_id": "29604139985fc7844fbaa40269b48723", "type": "electric_scooter", "is_disabled": 0, "lat": 38.9126845, "rental_uris": {"ios": "https://dc.lft.to/lastmile_qr_scan", "android": "https://dc.lft.to/lastmile_qr_scan"}, "is_reserved": 0, "fusion_lon": 0.0, "fusion_lat": 0.0, "lon": -77.0220965, "name": "29604139985fc7844fbaa40269b48723"}, {"bike_id": "43b17f83c64a0b5ba686581237d14959", "type": "electric_scooter", "is_disabled": 0, "lat": 38.91817366666667, "rental_uris": {"ios": "https://dc.lft.to/lastmile_qr_scan", "android": "https://dc.lft.to/lastmile_qr_scan"}, "is_reserved": 0, "fusion_lon": 0.0, "fusion_lat": 0.0, "lon": -77.00257633333334, "name": "43b17f83c64a0b5ba686581237d14959"}, {"bike_id": "94dc25c279a8afc621a2c563869f2501", "type": "electric_scooter", "is_disabled": 0, "lat": 38.921913, "rental_uris": {"ios": "https://dc.lft.to/lastmile_qr_scan", "android": "https://dc.lft.to/lastmile_qr_scan"}, "is_reserved": 0, "fusion_lon": 0.0, "fusion_lat": 0.0, "lon": -77.03806733333333, "name": "94dc25c279a8afc621a2c563869f2501"}, {"bike_id": "43fc2be5cf9eb1735ed74ff010154b63", "type": "electric_scooter", "is_disabled": 0, "lat": 38.919955, "rental_uris": {"ios": "https://dc.lft.to/lastmile_qr_scan", "android": "https://dc.lft.to/lastmile_qr_scan"}, "is_reserved": 0, "fusion_lon": 0.0, "fusion_lat": 0.0, "lon": -77.03973416666666, "name": "43fc2be5cf9eb1735ed74ff010154b63"}, {"bike_id": "548f582ef28ba53f61c9c688e31bbdba", "type": "electric_scooter", "is_disabled": 0, "lat": 38.91419533333333, "rental_uris": {"ios": "https://dc.lft.to/lastmile_qr_scan", "android": "https://dc.lft.to/lastmile_qr_scan"}, "is_reserved": 0, "fusion_lon": 0.0, "fusion_lat": 0.0, "lon": -77.02306816666666, "name": "548f582ef28ba53f61c9c688e31bbdba"}, {"bike_id": "6367c31aedce264cd6c9e3f741404c02", "type": "electric_scooter", "is_disabled": 0, "lat": 38.91767, "rental_uris": {"ios": "https://dc.lft.to/lastmile_qr_scan", "android": "https://dc.lft.to/lastmile_qr_scan"}, "is_reserved": 0, "fusion_lon": 0.0, "fusion_lat": 0.0, "lon": -77.0231605, "name": "6367c31aedce264cd6c9e3f741404c02"}, {"bike_id": "84dbfcb730da3f6cea04d5163c3778aa", "type": "electric_bike", "is_disabled": 0, "lat": 38.862608333333334, "rental_uris": {"ios": "https://dc.lft.to/lastmile_qr_scan", "android": "https://dc.lft.to/lastmile_qr_scan"}, "is_reserved": 0, "fusion_lon": 0.0, "fusion_lat": 0.0, "lon": -76.98352433333334, "name": "84dbfcb730da3f6cea04d5163c3778aa"}, {"bike_id": "1184b047a3f848206cdb940434d0e197", "type": "electric_scooter", "is_disabled": 0, "lat": 38.9176365, "rental_uris": {"ios": "https://dc.lft.to/lastmile_qr_scan", "android": "https://dc.lft.to/lastmile_qr_scan"}, "is_reserved": 0, "fusion_lon": 0.0, "fusion_lat": 0.0, "lon": -77.047663, "name": "1184b047a3f848206cdb940434d0e197"}, {"bike_id": "602d78e0bc57b28970380018620d1f59", "type": "electric_scooter", "is_disabled": 0, "lat": 38.916956166666665, "rental_uris": {"ios": "https://dc.lft.to/lastmile_qr_scan", "android": "https://dc.lft.to/lastmile_qr_scan"}, "is_reserved": 0, "fusion_lon": 0.0, "fusion_lat": 0.0, "lon": -77.02345516666666, "name": "602d78e0bc57b28970380018620d1f59"}, {"bike_id": "631cac9db13cc5058f6cd60cfbb1b137", "type": "electric_scooter", "is_disabled": 0, "lat": 38.91352, "rental_uris": {"ios": "https://dc.lft.to/lastmile_qr_scan", "android": "https://dc.lft.to/lastmile_qr_scan"}, "is_reserved": 0, "fusion_lon": 0.0, "fusion_lat": 0.0, "lon": -77.02565383333334, "name": "631cac9db13cc5058f6cd60cfbb1b137"}, {"bike_id": "085c3942307398819be5cbbc508cd7a8", "type": "electric_scooter", "is_disabled": 0, "lat": 38.92472466666667, "rental_uris": {"ios": "https://dc.lft.to/lastmile_qr_scan", "android": "https://dc.lft.to/lastmile_qr_scan"}, "is_reserved": 0, "fusion_lon": 0.0, "fusion_lat": 0.0, "lon": -77.0263335, "name": "085c3942307398819be5cbbc508cd7a8"}, {"bike_id": "9c1a073bfec12aefa620333362e9a351", "type": "electric_scooter", "is_disabled": 0, "lat": 38.921080833333335, "rental_uris": {"ios": "https://dc.lft.to/lastmile_qr_scan", "android": "https://dc.lft.to/lastmile_qr_scan"}, "is_reserved": 0, "fusion_lon": 0.0, "fusion_lat": 0.0, "lon": -77.04380933333333, "name": "9c1a073bfec12aefa620333362e9a351"}, {"bike_id": "1470804a1fb80a39d4b6f9385e92f3a7", "type": "electric_scooter", "is_disabled": 0, "lat": 38.914703333333335, "rental_uris": {"ios": "https://dc.lft.to/lastmile_qr_scan", "android": "https://dc.lft.to/lastmile_qr_scan"}, "is_reserved": 0, "fusion_lon": 0.0, "fusion_lat": 0.0, "lon": -77.04549416666667, "name": "1470804a1fb80a39d4b6f9385e92f3a7"}, {"bike_id": "b5e0e18581b3f4e225e05f47365deb15", "type": "electric_scooter", "is_disabled": 0, "lat": 38.908867666666666, "rental_uris": {"ios": "https://dc.lft.to/lastmile_qr_scan", "android": "https://dc.lft.to/lastmile_qr_scan"},