{"data": {"bikes": [{"fusion_lat": 0.0, "lon": -77.02376783333334, "is_reserved": 0, "bike_id": "30ff7e538cfed15282e8e18ca1e1c1bc", "fusion_lon": 0.0, "rental_uris": {"android": "https://dc.lft.to/lastmile_qr_scan", "ios": "https://dc.lft.to/lastmile_qr_scan"}, "name": "30ff7e538cfed15282e8e18ca1e1c1bc", "type": "electric_scooter", "lat": 38.90205516666666, "is_disabled": 0}, {"fusion_lat": 0.0, "lon": -77.02375983333333, "is_reserved": 0, "bike_id": "3da804e3478142d1511239ada4676894", "fusion_lon": 0.0, "rental_uris": {"android": "https://dc.lft.to/lastmile_qr_scan", "ios": "https://dc.lft.to/lastmile_qr_scan"}, "name": "3da804e3478142d1511239ada4676894", "type": "electric_scooter", "lat": 38.892192333333334, "is_disabled": 0}, {"fusion_lat": 0.0, "lon": -76.9733045, "is_reserved": 0, "bike_id": "ea5513ec663e2b3fc8909d270c0ca713", "fusion_lon": 0.0, "rental_uris": {"android": "https://dc.lft.to/lastmile_qr_scan", "ios": "https://dc.lft.to/lastmile_qr_scan"}, "name": "ea5513ec663e2b3fc8909d270c0ca713", "type": "electric_scooter", "lat": 38.9041005, "is_disabled": 0}, {"fusion_lat": 0.0, "lon": -77.02732433333334, "is_reserved": 0, "bike_id": "0568f0d48b55d118015f0ea6a5900cb9", "fusion_lon": 0.0, "rental_uris": {"android": "https://dc.lft.to/lastmile_qr_scan", "ios": "https://dc.lft.to/lastmile_qr_scan"}, "name": "0568f0d48b55d118015f0ea6a5900cb9", "type": "electric_scooter", "lat": 38.95011083333333, "is_disabled": 0}, {"fusion_lat": 0.0, "lon": -77.0238825, "is_reserved": 0, "bike_id": "66a1caf91f9ecbb2f1d6d22466b67770", "fusion_lon": 0.0, "rental_uris": {"android": "https://dc.lft.to/lastmile_qr_scan", "ios": "https://dc.lft.to/lastmile_qr_scan"}, "name": "66a1caf91f9ecbb2f1d6d22466b67770", "type": "electric_scooter", "lat": 38.909547833333335, "is_disabled": 0}, {"fusion_lat": 0.0, "lon": -77.02385333333334, "is_reserved": 0, "bike_id": "9fafecbce01562031b0ba56c977013af", "fusion_lon": 0.0, "rental_uris": {"android": "https://dc.lft.to/lastmile_qr_scan", "ios": "https://dc.lft.to/lastmile_qr_scan"}, "name": "9fafecbce01562031b0ba56c977013af", "type": "electric_scooter", "lat": 38.919929, "is_disabled": 0}, {"fusion_lat": 0.0, "lon": -77.025229, "is_reserved": 0, "bike_id": "8e8b9f3fab408c413dbbf14374166c11", "fusion_lon": 0.0, "rental_uris": {"android": "https://dc.lft.to/lastmile_qr_scan", "ios": "https://dc.lft.to/lastmile_qr_scan"}, "name": "8e8b9f3fab408c413dbbf14374166c11", "type": "electric_scooter", "lat": 38.92979716666667, "is_disabled": 0}, {"fusion_lat": 0.0, "lon": -77.03193366666666, "is_reserved": 0, "bike_id": "d61fe67b67ffcb82728bfa7e4ddc04ef", "fusion_lon": 0.0, "rental_uris": {"android": "https://dc.lft.to/lastmile_qr_scan", "ios": "https://dc.lft.to/lastmile_qr_scan"}, "name": "d61fe67b67ffcb82728bfa7e4ddc04ef", "type": "electric_scooter", "lat": 38.899605666666666, "is_disabled": 0}, {"fusion_lat": 0.0, "lon": -77.03085783333333, "is_reserved": 0, "bike_id": "1f4294116a7c7db4a0682f3558328305", "fusion_lon": 0.0, "rental_uris": {"android": "https://dc.lft.to/lastmile_qr_scan", "ios": "https://dc.lft.to/lastmile_qr_scan"}, "name": "1f4294116a7c7db4a0682f3558328305", "type": "electric_scooter", "lat": 38.922481, "is_disabled": 0}, {"fusion_lat": 0.0, "lon": -77.00385066666666, "is_reserved": 0, "bike_id": "84fbd1f97dfc2e20385cb429a39d648c", "fusion_lon": 0.0, "rental_uris": {"android": "https://dc.lft.to/lastmile_qr_scan", "ios": "https://dc.lft.to/lastmile_qr_scan"}, "name": "84fbd1f97dfc2e20385cb429a39d648c", "type": "electric_scooter", "lat": 38.9236555, "is_disabled": 0}, {"fusion_lat": 0.0, "lon": -77.05598283333333, "is_reserved": 0, "bike_id": "6ec06768c5f7f57362ffde056bfa5c00", "fusion_lon": 0.0, "rental_uris": {"android": "https://dc.lft.to/lastmile_qr_scan", "ios": "https://dc.lft.to/lastmile_qr_scan"}, "name": "6ec06768c5f7f57362ffde056bfa5c00", "type": "electric_scooter", "lat": 38.90772483333333, "is_disabled": 0}, {"fusion_lat": 0.0, "lon": -76.9814575, "is_reserved": 0, "bike_id": "35c55cf66afc35b138d44893314d4ab6", "fusion_lon": 0.0, "rental_uris": {"android": "https://dc.lft.to/lastmile_qr_scan", "ios": "https://dc.lft.to/lastmile_qr_scan"}, "name": "35c55cf66afc35b138d44893314d4ab6", "type": "electric_scooter", "lat": 38.905650333333334, "is_disabled": 0}, {"fusion_lat": 0.0, "lon": -77.06136966666666, "is_reserved": 0, "bike_id": "b1141dcd2f2a3576c19a3dd24b2382cf", "fusion_lon": 0.0, "rental_uris": {"android": "https://dc.lft.to/lastmile_qr_scan", "ios": "https://dc.lft.to/lastmile_qr_scan"}, "name": "b1141dcd2f2a3576c19a3dd24b2382cf", "type": "electric_scooter", "lat": 38.94085366666667, "is_disabled": 0}, {"fusion_lat": 0.0, "lon": -77.02777866666666, "is_reserved": 0, "bike_id": "b355770edf7bbe9737a8da8e35a257ad", "fusion_lon": 0.0, "rental_uris": {"android": "https://dc.lft.to/lastmile_qr_scan", "ios": "https://dc.lft.to/lastmile_qr_scan"}, "name": "b355770edf7bbe9737a8da8e35a257ad", "type": "electric_scooter", "lat": 38.926797666666666, "is_disabled": 0}, {"fusion_lat": 0.0, "lon": -77.040263, "is_reserved": 0, "bike_id": "b99fb0b3527447a3cdd3d54d37ffd7a2", "fusion_lon": 0.0, "rental_uris": {"android": "https://dc.lft.to/lastmile_qr_scan", "ios": "https://dc.lft.to/lastmile_qr_scan"}, "name": "b99fb0b3527447a3cdd3d54d37ffd7a2", "type": "electric_scooter", "lat": 38.924487666666664, "is_disabled": 0}, {"fusion_lat": 0.0, "lon": -76.9960485, "is_reserved": 0, "bike_id": "b339eae44f6e31229b9d139d3a162df0", "fusion_lon": 0.0, "rental_uris": {"android": "https://dc.lft.to/lastmile_qr_scan", "ios": "https://dc.lft.to/lastmile_qr_scan"}, "name": "b339eae44f6e31229b9d139d3a162df0", "type": "electric_scooter", "lat": 38.900111, "is_disabled": 0}, {"fusion_lat": 0.0, "lon": -77.06051033333334, "is_reserved": 0, "bike_id": "c1e6e304f0e4d0f01b8cf3f3319ae9f4", "fusion_lon": 0.0, "rental_uris": {"android": "https://dc.lft.to/lastmile_qr_scan", "ios": "https://dc.lft.to/lastmile_qr_scan"}, "name": "c1e6e304f0e4d0f01b8cf3f3319ae9f4", "type": "electric_scooter", "lat": 38.9390865, "is_disabled": 0}, {"fusion_lat": 0.0, "lon": -77.07348833333333, "is_reserved": 0, "bike_id": "89c8ce28d957fed9e6e86d120e8de747", "fusion_lon": 0.0, "rental_uris": {"android": "https://dc.lft.to/lastmile_qr_scan", "ios": "https://dc.lft.to/lastmile_qr_scan"}, "name": "89c8ce28d957fed9e6e86d120e8de747", "type": "electric_scooter", "lat": 38.91102016666667, "is_disabled": 0}, {"fusion_lat": 0.0, "lon": -77.04344366666666, "is_reserved": 0, "bike_id": "699ebddc4b1eddb53c067412b15dfd09", "fusion_lon": 0.0, "rental_uris": {"android": "https://dc.lft.to/lastmile_qr_scan", "ios": "https://dc.lft.to/lastmile_qr_scan"}, "name": "699ebddc4b1eddb53c067412b15dfd09", "type": "electric_scooter", "lat": 38.90426183333334, "is_disabled": 0}, {"fusion_lat": 0.0, "lon": -76.99757683333333, "is_reserved": 0, "bike_id": "07d6581269955ecbb585d7fcbcba9504", "fusion_lon": 0.0, "rental_uris": {"android": "https://dc.lft.to/lastmile_qr_scan", "ios": "https://dc.lft.to/lastmile_qr_scan"}, "name": "07d6581269955ecbb585d7fcbcba9504", "type": "electric_scooter", "lat": 38.908366, "is_disabled": 0}, {"fusion_lat": 0.0, "lon": -76.99466533333333, "is_reserved": 0, "bike_id": "2b78d5c9432c0c3375508daa522f5b1f", "fusion_lon": 0.0, "rental_uris": {"android": "https://dc.lft.to/lastmile_qr_scan", "ios": "https://dc.lft.to/lastmile_qr_scan"}, "name": "2b78d5c9432c0c3375508daa522f5b1f", "type": "electric_scooter", "lat": 38.862249, "is_disabled": 0}, {"fusion_lat": 0.0, "lon": -77.02977616666666, "is_reserved": 0, "bike_id": "a993c92dafa43b775e2584a6317f2ced", "fusion_lon": 0.0, "rental_uris": {"android": "https://dc.lft.to/lastmile_qr_scan", "ios": "https://dc.lft.to/lastmile_qr_scan"}, "name": "a993c92dafa43b775e2584a6317f2ced", "type": "electric_scooter", "lat": 38.91057583333333, "is_disabled": 0}, {"fusion_lat": 0.0, "lon": -77.00700666666667, "is_reserved": 0, "bike_id": "f8e1432f4d54e902255901a5c193429e", "fusion_lon": 0.0, "rental_uris": {"android": "https://dc.lft.to/lastmile_qr_scan", "ios": "https://dc.lft.to/lastmile_qr_scan"}, "name": "f8e1432f4d54e902255901a5c193429e", "type": "electric_scooter", "lat": 38.87834, "is_disabled": 0}, {"fusion_lat": 0.0, "lon": -77.017375, "is_reserved": 0, "bike_id": "cc599d7b30f1eeb7d600d58d104b5f37", "fusion_lon": 0.0, "rental_uris": {"android": "https://dc.lft.to/lastmile_qr_scan", "ios": "https://dc.lft.to/lastmile_qr_scan"}, "name": "cc599d7b30f1eeb7d600d58d104b5f37", "type": "electric_scooter", "lat": 38.87274333333333, "is_disabled": 0}, {"fusion_lat": 0.0, "lon": -77.01615633333333, "is_reserved": 0, "bike_id": "313b9bbd437908e26a10bf7dcc97e3c9", "fusion_lon": 0.0, "rental_uris": {"android": "https://dc.lft.to/lastmile_qr_scan", "ios": "https://dc.lft.to/lastmile_qr_scan"}, "name": "313b9bbd437908e26a10bf7dcc97e3c9", "type": "electric_scooter", "lat": 38.883379166666664, "is_disabled": 0}, {"fusion_lat": 0.0, "lon": -77.0421075, "is_reserved": 0, "bike_id": "a49d590472d00c9aef059a3a994ef7a0", "fusion_lon": 0.0, "rental_uris": {"android": "https://dc.lft.to/lastmile_qr_scan", "ios": "https://dc.lft.to/lastmile_qr_scan"}, "name": "a49d590472d00c9aef059a3a994ef7a0", "type": "electric_scooter", "lat": 38.9196325, "is_disabled": 0}, {"fusion_lat": 0.0, "lon": -77.043075, "is_reserved": 0, "bike_id": "5d2f6958079e28d49fd31a44b5ef0fc8", "fusion_lon": 0.0, "rental_uris": {"android": "https://dc.lft.to/lastmile_qr_scan", "ios": "https://dc.lft.to/lastmile_qr_scan"}, "name": "5d2f6958079e28d49fd31a44b5ef0fc8", "type": "electric_scooter", "lat": 38.92335216666667, "is_disabled": 0}, {"fusion_lat": 0.0, "lon": -77.03694166666666, "is_reserved": 0, "bike_id": "5ae062b4a5ae10fe741a7c13c15c099d", "fusion_lon": 0.0, "rental_uris": {"android": "https://dc.lft.to/lastmile_qr_scan", "ios": "https://dc.lft.to/lastmile_qr_scan"}, "name": "5ae062b4a5ae10fe741a7c13c15c099d", "type": "electric_scooter", "lat": 38.916742, "is_disabled": 0}, {"fusion_lat": 0.0, "lon": -77.05698383333333, "is_reserved": 0, "bike_id": "bc1667bb3bd51ba591527876ee322186", "fusion_lon": 0.0, "rental_uris": {"android": "https://dc.lft.to/lastmile_qr_scan", "ios": "https://dc.lft.to/lastmile_qr_scan"}, "name": "bc1667bb3bd51ba591527876ee322186", "type": "electric_scooter", "lat": 38.906098, "is_disabled": 0}, {"fusion_lat": 0.0, "lon": -77.02611916666666, "is_reserved": 0, "bike_id": "8430fa42217c9ca32a313ad7cccd3e65", "fusion_lon": 0.0, "rental_uris": {"android": "https://dc.lft.to/lastmile_qr_scan", "ios": "https://dc.lft.to/lastmile_qr_scan"}, "name": "8430fa42217c9ca32a313ad7cccd3e65", "type": "electric_scooter", "lat": 38.92985816666667, "is_disabled": 0}, {"fusion_lat": 0.0, "lon": -77.04667, "is_reserved": 0, "bike_id": "aa2f592582a2154336484eed2e80f7ab", "fusion_lon": 0.0, "rental_uris": {"android": "https://dc.lft.to/lastmile_qr_scan", "ios": "https://dc.lft.to/lastmile_qr_scan"}, "name": "aa2f592582a2154336484eed2e80f7ab", "type": "electric_scooter", "lat": 38.905592666666664, "is_disabled": 0}, {"fusion_lat": 0.0, "lon": -77.03265333333333, "is_reserved": 0, "bike_id": "b1b8627e2245cd847deae3b544d4c3b7", "fusion_lon": 0.0, "rental_uris": {"android": "https://dc.lft.to/lastmile_qr_scan", "ios": "https://dc.lft.to/lastmile_qr_scan"}, "name": "b1b8627e2245cd847deae3b544d4c3b7", "type": "electric_scooter", "lat": 38.941524, "is_disabled": 0}, {"fusion_lat": 0.0, "lon": -77.04514416666666, "is_reserved": 0, "bike_id": "efc2a12d8bca411483d9d134e21800ba", "fusion_lon": 0.0, "rental_uris": {"android": "https://dc.lft.to/lastmile_qr_scan", "ios": "https://dc.lft.to/lastmile_qr_scan"}, "name": "efc2a12d8bca411483d9d134e21800ba", "type": "electric_scooter", "lat": 38.9077985, "is_disabled": 0}, {"fusion_lat": 0.0, "lon": -77.049987, "is_reserved": 0, "bike_id": "0226f07be375106b3b9dc4a1a0792471", "fusion_lon": 0.0, "rental_uris": {"android": "https://dc.lft.to/lastmile_qr_scan", "ios": "https://dc.lft.to/lastmile_qr_scan"}, "name": "0226f07be375106b3b9dc4a1a0792471", "type": "electric_scooter", "lat": 38.8972915, "is_disabled": 0}, {"fusion_lat": 0.0, "lon": -77.03591583333333, "is_reserved": 0, "bike_id": "28cfe858f9be82abff40aa6f44eebfb9", "fusion_lon": 0.0, "rental_uris": {"android": "https://dc.lft.to/lastmile_qr_scan", "ios": "https://dc.lft.to/lastmile_qr_scan"}, "name": "28cfe858f9be82abff40aa6f44eebfb9", "type": "electric_scooter", "lat": 38.906939333333334, "is_disabled": 0}, {"fusion_lat": 0.0, "lon": -77.0287305, "is_reserved": 0, "bike_id": "c0bfcfcb334da7178bd3b2fcec18410b", "fusion_lon": 0.0, "rental_uris": {"android": "https://dc.lft.to/lastmile_qr_scan", "ios": "https://dc.lft.to/lastmile_qr_scan"}, "name": "c0bfcfcb334da7178bd3b2fcec18410b", "type": "electric_scooter", "lat": 38.925674666666666, "is_disabled": 0}, {"fusion_lat": 0.0, "lon": -77.08403133333333, "is_reserved": 0, "bike_id": "295f49aaf8ebf2462dae46b2743deaf7", "fusion_lon": 0.0, "rental_uris": {"android": "https://dc.lft.to/lastmile_qr_scan", "ios": "https://dc.lft.to/lastmile_qr_scan"}, "name": "295f49aaf8ebf2462dae46b2743deaf7", "type": "electric_scooter", "lat": 38.90801416666667, "is_disabled": 0}, {"fusion_lat": 0.0, "lon": -77.03869316666666, "is_reserved": 0, "bike_id": "afb445d5355af02c9fa0960900ab8b12", "fusion_lon": 0.0, "rental_uris": {"android": "https://dc.lft.to/lastmile_qr_scan", "ios": "https://dc.lft.to/lastmile_qr_scan"}, "name": "afb445d5355af02c9fa0960900ab8b12", "type": "electric_scooter", "lat": 38.9215175, "is_disabled": 0}, {"fusion_lat": 0.0, "lon": -77.073921, "is_reserved": 0, "bike_id": "76327545c37a2083513008b96394e83d", "fusion_lon": 0.0, "rental_uris": {"android": "https://dc.lft.to/lastmile_qr_scan", "ios": "https://dc.lft.to/lastmile_qr_scan"}, "name": "76327545c37a2083513008b96394e83d", "type": "electric_bike", "lat": 38.96185216666667, "is_disabled": 0}, {"fusion_lat": 0.0, "lon": -77.01218933333334, "is_reserved": 0, "bike_id": "4378553d6a9eb7e4d2f6b4005e351f4b", "fusion_lon": 0.0, "rental_uris": {"android": "https://dc.lft.to/lastmile_qr_scan", "ios": "https://dc.lft.to/lastmile_qr_scan"}, "name": "4378553d6a9eb7e4d2f6b4005e351f4b", "type": "electric_scooter", "lat": 38.91833966666667, "is_disabled": 0}, {"fusion_lat": 0.0, "lon": -76.99767966666667, "is_reserved": 0, "bike_id": "d9c89eb93cb6d54da6ba581f7c3084ae", "fusion_lon": 0.0, "rental_uris": {"android": "https://dc.lft.to/lastmile_qr_scan", "ios": "https://dc.lft.to/lastmile_qr_scan"}, "name": "d9c89eb93cb6d54da6ba581f7c3084ae", "type": "electric_scooter", "lat": 38.90028916666667, "is_disabled": 0}, {"fusion_lat": 0.0, "lon": -77.02490566666667, "is_reserved": 0, "bike_id": "65f0abec12b5d444d10f6e63a77b2bc4", "fusion_lon": 0.0, "rental_uris": {"android": "https://dc.lft.to/lastmile_qr_scan", "ios": "https://dc.lft.to/lastmile_qr_scan"}, "name": "65f0abec12b5d444d10f6e63a77b2bc4", "type": "electric_scooter", "lat": 38.94183816666666, "is_disabled": 0}, {"fusion_lat": 0.0, "lon": -77.04547083333334, "is_reserved": 0, "bike_id": "c32e2e512c2dab0228e0b7002a725ea3", "fusion_lon": 0.0, "rental_uris": {"android": "https://dc.lft.to/lastmile_qr_scan", "ios": "https://dc.lft.to/lastmile_qr_scan"}, "name": "c32e2e512c2dab0228e0b7002a725ea3", "type": "electric_scooter", "lat": 38.934131, "is_disabled": 0}, {"fusion_lat": 0.0, "lon": -77.03935283333334, "is_reserved": 0, "bike_id": "95a4c586ce3381d5b14616f180644720", "fusion_lon": 0.0, "rental_uris": {"android": "https://dc.lft.to/lastmile_qr_scan", "ios": "https://dc.lft.to/lastmile_qr_scan"}, "name": "95a4c586ce3381d5b14616f180644720", "type": "electric_scooter", "lat": 38.917592, "is_disabled": 0}, {"fusion_lat": 0.0, "lon": -77.064515, "is_reserved": 0, "bike_id": "6aed42707eb759ed84f8b208bfc4a32c", "fusion_lon": 0.0, "rental_uris": {"android": "https://dc.lft.to/lastmile_qr_scan", "ios": "https://dc.lft.to/lastmile_qr_scan"}, "name": "6aed42707eb759ed84f8b208bfc4a32c", "type": "electric_scooter", "lat": 38.905212, "is_disabled": 0}, {"fusion_lat": 0.0, "lon": -77.03772533333333, "is_reserved": 0, "bike_id": "85d184167f7f1cb4c1084d0d64c3b2cb", "fusion_lon": 0.0, "rental_uris": {"android": "https://dc.lft.to/lastmile_qr_scan", "ios": "https://dc.lft.to/lastmile_qr_scan"}, "name": "85d184167f7f1cb4c1084d0d64c3b2cb", "type": "electric_scooter", "lat": 38.92209616666667, "is_disabled": 0}, {"fusion_lat": 0.0, "lon": -77.02665466666667, "is_reserved": 0, "bike_id": "5fcac5ce218cfb00a84f14040e5e490a", "fusion_lon": 0.0, "rental_uris": {"android": "https://dc.lft.to/lastmile_qr_scan", "ios": "https://dc.lft.to/lastmile_qr_scan"}, "name": "5fcac5ce218cfb00a84f14040e5e490a", "type": "electric_scooter", "lat": 38.93098883333333, "is_disabled": 0}, {"fusion_lat": 0.0, "lon": -76.96238383333333, "is_reserved": 0, "bike_id": "11b764d3fbcdbc5c099a7eea3783215d", "fusion_lon": 0.0, "rental_uris": {"android": "https://dc.lft.to/lastmile_qr_scan", "ios": "https://dc.lft.to/lastmile_qr_scan"}, "name": "11b764d3fbcdbc5c099a7eea3783215d", "type": "electric_scooter", "lat": 38.87766383333334, "is_disabled": 0}, {"fusion_lat": 0.0, "lon": -77.029525, "is_reserved": 0, "bike_id": "87f5652f1e842616542337e7ac1cfc47", "fusion_lon": 0.0, "rental_uris": {"android": "https://dc.lft.to/lastmile_qr_scan", "ios": "https://dc.lft.to/lastmile_qr_scan"}, "name": "87f5652f1e842616542337e7ac1cfc47", "type": "electric_scooter", "lat": 38.928571166666664, "is_disabled": 0}, {"fusion_lat": 0.0, "lon": -77.004017, "is_reserved": 0, "bike_id": "fd0b51a884d370e87c6b983e79a49f97", "fusion_lon": 0.0, "rental_uris": {"android": "https://dc.lft.to/lastmile_qr_scan", "ios": "https://dc.lft.to/lastmile_qr_scan"}, "name": "fd0b51a884d370e87c6b983e79a49f97", "type": "electric_bike", "lat": 38.98544183333333, "is_disabled": 0}, {"fusion_lat": 0.0, "lon": -76.9947065, "is_reserved": 0, "bike_id": "9b7f8f9cd8e4113e9f1bad557bb322f5", "fusion_lon": 0.0, "rental_uris": {"android": "https://dc.lft.to/lastmile_qr_scan", "ios": "https://dc.lft.to/lastmile_qr_scan"}, "name": "9b7f8f9cd8e4113e9f1bad557bb322f5", "type": "electric_scooter", "lat": 38.86225366666667, "is_disabled": 0}, {"fusion_lat": 0.0, "lon": -77.026169, "is_reserved": 0, "bike_id": "def3f1ece5762d8a9461f6f2bf856a4e", "fusion_lon": 0.0, "rental_uris": {"android": "https://dc.lft.to/lastmile_qr_scan", "ios": "https://dc.lft.to/lastmile_qr_scan"}, "name": "def3f1ece5762d8a9461f6f2bf856a4e", "type": "electric_scooter", "lat": 38.89239216666667, "is_disabled": 0}, {"fusion_lat": 0.0, "lon": -77.02840283333333, "is_reserved": 0, "bike_id": "8171c319c9cc500c56c43acd2542bc9a", "fusion_lon": 0.0, "rental_uris": {"android": "https://dc.lft.to/lastmile_qr_scan", "ios": "https://dc.lft.to/lastmile_qr_scan"}, "name": "8171c319c9cc500c56c43acd2542bc9a", "type": "electric_scooter", "lat": 38.928581, "is_disabled": 0}, {"fusion_lat": 0.0, "lon": -77.05143016666666, "is_reserved": 0, "bike_id": "b926e0779098f422a93f49fdcff04af3", "fusion_lon": 0.0, "rental_uris": {"android": "https://dc.lft.to/lastmile_qr_scan", "ios": "https://dc.lft.to/lastmile_qr_scan"}, "name": "b926e0779098f422a93f49fdcff04af3", "type": "electric_scooter", "lat": 38.90559316666667, "is_disabled": 0}, {"fusion_lat": 0.0, "lon": -77.03396766666667, "is_reserved": 0, "bike_id": "5cbebd510a9c0b16aed8beb58a6bb8c9", "fusion_lon": 0.0, "rental_uris": {"android": "https://dc.lft.to/lastmile_qr_scan", "ios": "https://dc.lft.to/lastmile_qr_scan"}, "name": "5cbebd510a9c0b16aed8beb58a6bb8c9", "type": "electric_scooter", "lat": 38.92344716666667, "is_disabled": 0}, {"fusion_lat": 0.0, "lon": -76.98437766666666, "is_reserved": 0, "bike_id": "c7a8d5ebed644e65330e65fbfd00a826", "fusion_lon": 0.0, "rental_uris": {"android": "https://dc.lft.to/lastmile_qr_scan", "ios": "https://dc.lft.to/lastmile_qr_scan"}, "name": "c7a8d5ebed644e65330e65fbfd00a826", "type": "electric_bike", "lat": 38.85521166666667, "is_disabled": 0}, {"fusion_lat": 0.0, "lon": -77.01211916666666, "is_reserved": 0, "bike_id": "874a529e7ad10c1a4e5df77d433b1125", "fusion_lon": 0.0, "rental_uris": {"android": "https://dc.lft.to/lastmile_qr_scan", "ios": "https://dc.lft.to/lastmile_qr_scan"}, "name": "874a529e7ad10c1a4e5df77d433b1125", "type": "electric_scooter", "lat": 38.9183545, "is_disabled": 0}, {"fusion_lat": 0.0, "lon": -76.991249, "is_reserved": 0, "bike_id": "7ba12ca90d4238de1ed766addd49e4ec", "fusion_lon": 0.0, "rental_uris": {"android": "https://dc.lft.to/lastmile_qr_scan", "ios": "https://dc.lft.to/lastmile_qr_scan"}, "name": "7ba12ca90d4238de1ed766addd49e4ec", "type": "electric_scooter", "lat": 38.862018666666664, "is_disabled": 0}, {"fusion_lat": 0.0, "lon": -77.04326533333334, "is_reserved": 0, "bike_id": "6d5d27ad2362ec11cde61431d402e2dd", "fusion_lon": 0.0, "rental_uris": {"android": "https://dc.lft.to/lastmile_qr_scan", "ios": "https://dc.lft.to/lastmile_qr_scan"}, "name": "6d5d27ad2362ec11cde61431d402e2dd", "type": "electric_scooter", "lat": 38.9043555, "is_disabled": 0}, {"fusion_lat": 0.0, "lon": -77.01376716666667, "is_reserved": 0, "bike_id": "670d4a0d63b3eb1571dc6c2eb5887dd2", "fusion_lon": 0.0, "rental_uris": {"android": "https://dc.lft.to/lastmile_qr_scan", "ios": "https://dc.lft.to/lastmile_qr_scan"}, "name": "670d4a0d63b3eb1571dc6c2eb5887dd2", "type": "electric_scooter", "lat": 38.928816833333336, "is_disabled": 0}, {"fusion_lat": 0.0, "lon": -77.03825866666666, "is_reserved": 0, "bike_id": "4a177a6e1f2b051958cf93e9d9d622fb", "fusion_lon": 0.0, "rental_uris": {"android": "https://dc.lft.to/lastmile_qr_scan", "ios": "https://dc.lft.to/lastmile_qr_scan"}, "name": "4a177a6e1f2b051958cf93e9d9d622fb", "type": "electric_scooter", "lat": 38.9168385, "is_disabled": 0}, {"fusion_lat": 0.0, "lon": -77.0034105, "is_reserved": 0, "bike_id": "537f0674b35142c5fdea90098915d1b3", "fusion_lon": 0.0, "rental_uris": {"android": "https://dc.lft.to/lastmile_qr_scan", "ios": "https://dc.lft.to/lastmile_qr_scan"}, "name": "537f0674b35142c5fdea90098915d1b3", "type": "electric_scooter", "lat": 38.89525283333333, "is_disabled": 0}, {"fusion_lat": 0.0, "lon": -77.02672183333334, "is_reserved": 0, "bike_id": "a6dc0ab4670b908e535eca348f37f45a", "fusion_lon": 0.0, "rental_uris": {"android": "https://dc.lft.to/lastmile_qr_scan", "ios": "https://dc.lft.to/lastmile_qr_scan"}, "name": "a6dc0ab4670b908e535eca348f37f45a", "type": "electric_scooter", "lat": 38.984303, "is_disabled": 0}, {"fusion_lat": 0.0, "lon": -77.06494666666667, "is_reserved": 0, "bike_id": "7e61c79d61921aec859532f82e562f7e", "fusion_lon": 0.0, "rental_uris": {"android": "https://dc.lft.to/lastmile_qr_scan", "ios": "https://dc.lft.to/lastmile_qr_scan"}, "name": "7e61c79d61921aec859532f82e562f7e", "type": "electric_scooter", "lat": 38.92905916666667, "is_disabled": 0}, {"fusion_lat": 0.0, "lon": -77.00897066666667, "is_reserved": 0, "bike_id": "0f5c41273a07a859c32ad72c2963ed05", "fusion_lon": 0.0, "rental_uris": {"android": "https://dc.lft.to/lastmile_qr_scan", "ios": "https://dc.lft.to/lastmile_qr_scan"}, "name": "0f5c41273a07a859c32ad72c2963ed05", "type": "electric_scooter", "lat": 38.917164666666665, "is_disabled": 0}, {"fusion_lat": 0.0, "lon": -76.99779866666667, "is_reserved": 0, "bike_id": "8256ae12c4b6ae4a324486c7fb6bbd29", "fusion_lon": 0.0, "rental_uris": {"android": "https://dc.lft.to/lastmile_qr_scan", "ios": "https://dc.lft.to/lastmile_qr_scan"}, "name": "8256ae12c4b6ae4a324486c7fb6bbd29", "type": "electric_scooter", "lat": 38.844311833333336, "is_disabled": 0}, {"fusion_lat": 0.0, "lon": -76.98107966666667, "is_reserved": 0, "bike_id": "e79074e3a3745c9683d0ff87bf9360ec", "fusion_lon": 0.0, "rental_uris": {"android": "https://dc.lft.to/lastmile_qr_scan", "ios": "https://dc.lft.to/lastmile_qr_scan"}, "name": "e79074e3a3745c9683d0ff87bf9360ec", "type": "electric_scooter", "lat": 38.90391733333333, "is_disabled": 0}, {"fusion_lat": 0.0, "lon": -77.02693783333333, "is_reserved": 0, "bike_id": "9904f12d816b01cf0bfa4cf1dd83367c", "fusion_lon": 0.0, "rental_uris": {"android": "https://dc.lft.to/lastmile_qr_scan", "ios": "https://dc.lft.to/lastmile_qr_scan"}, "name": "9904f12d816b01cf0bfa4cf1dd83367c", "type": "electric_scooter", "lat": 38.895838499999996, "is_disabled": 0}, {"fusion_lat": 0.0, "lon": -77.04148383333333, "is_reserved": 0, "bike_id": "054beb320afb67f2e3f1c367dcab4152", "fusion_lon": 0.0, "rental_uris": {"android": "https://dc.lft.to/lastmile_qr_scan", "ios": "https://dc.lft.to/lastmile_qr_scan"}, "name": "054beb320afb67f2e3f1c367dcab4152", "type": "electric_scooter", "lat": 38.892214833333334, "is_disabled": 0}, {"fusion_lat": 0.0, "lon": -76.99380183333334, "is_reserved": 0, "bike_id": "be65b6d341e78a701b2302ac0fda004b", "fusion_lon": 0.0, "rental_uris": {"android": "https://dc.lft.to/lastmile_qr_scan", "ios": "https://dc.lft.to/lastmile_qr_scan"}, "name": "be65b6d341e78a701b2302ac0fda004b", "type": "electric_scooter", "lat": 38.923791333333334, "is_disabled": 0}, {"fusion_lat": 0.0, "lon": -77.0445835, "is_reserved": 0, "bike_id": "091af87b1e00c73600a00c6b2977d203", "fusion_lon": 0.0, "rental_uris": {"android": "https://dc.lft.to/lastmile_qr_scan", "ios": "https://dc.lft.to/lastmile_qr_scan"}, "name": "091af87b1e00c73600a00c6b2977d203", "type": "electric_scooter", "lat": 38.908306, "is_disabled": 0}, {"fusion_lat": 0.0, "lon": -77.0393285, "is_reserved": 0, "bike_id": "b68136533894f4bceea27e9afe379780", "fusion_lon": 0.0, "rental_uris": {"android": "https://dc.lft.to/lastmile_qr_scan", "ios": "https://dc.lft.to/lastmile_qr_scan"}, "name": "b68136533894f4bceea27e9afe379780", "type": "electric_scooter", "lat": 38.924938833333336, "is_disabled": 0}, {"fusion_lat": 0.0, "lon": -77.00958166666666, "is_reserved": 0, "bike_id": "475f94b01a507a634acb5a50c1546a45", "fusion_lon": 0.0, "rental_uris": {"android": "https://dc.lft.to/lastmile_qr_scan", "ios": "https://dc.lft.to/lastmile_qr_scan"}, "name": "475f94b01a507a634acb5a50c1546a45", "type": "electric_scooter", "lat": 38.907855166666664, "is_disabled": 0}, {"fusion_lat": 0.0, "lon": -77.02554366666666, "is_reserved": 0, "bike_id": "9c2603c58311ad68bfa3ccae84f6d465", "fusion_lon": 0.0, "rental_uris": {"android": "https://dc.lft.to/lastmile_qr_scan", "ios": "https://dc.lft.to/lastmile_qr_scan"}, "name": "9c2603c58311ad68bfa3ccae84f6d465", "type": "electric_scooter", "lat": 38.924745333333334, "is_disabled": 0}, {"fusion_lat": 0.0, "lon": -76.99838666666666, "is_reserved": 0, "bike_id": "7d0a9c72370728c2157bd99104c7c1c8", "fusion_lon": 0.0, "rental_uris": {"android": "https://dc.lft.to/lastmile_qr_scan", "ios": "https://dc.lft.to/lastmile_qr_scan"}, "name": "7d0a9c72370728c2157bd99104c7c1c8", "type": "electric_scooter", "lat": 38.890830666666666, "is_disabled": 0}, {"fusion_lat": 0.0, "lon": -76.98359416666666, "is_reserved": 0, "bike_id": "89c44913532ab1fd29e9ac35f7a22ef1", "fusion_lon": 0.0, "rental_uris": {"android": "https://dc.lft.to/lastmile_qr_scan", "ios": "https://dc.lft.to/lastmile_qr_scan"}, "name": "89c44913532ab1fd29e9ac35f7a22ef1", "type": "electric_scooter", "lat": 38.88745566666667, "is_disabled": 0}, {"fusion_lat": 0.0, "lon": -77.0466045, "is_reserved": 0, "bike_id": "215e774d18bdfb2e5b2352cb02118bc1", "fusion_lon": 0.0, "rental_uris": {"android": "https://dc.lft.to/lastmile_qr_scan", "ios": "https://dc.lft.to/lastmile_qr_scan"}, "name": "215e774d18bdfb2e5b2352cb02118bc1", "type": "electric_scooter", "lat": 38.913644166666664, "is_disabled": 0}, {"fusion_lat": 0.0, "lon": -76.975292, "is_reserved": 0, "bike_id": "04325766319d938e15395ba83479090e", "fusion_lon": 0.0, "rental_uris": {"android": "https://dc.lft.to/lastmile_qr_scan", "ios": "https://dc.lft.to/lastmile_qr_scan"}, "name": "04325766319d938e15395ba83479090e", "type": "electric_bike", "lat": 38.9033045, "is_disabled": 0}, {"fusion_lat": 0.0, "lon": -77.0345155, "is_reserved": 0, "bike_id": "de57c0db645ccd7c2e2886b010017f81", "fusion_lon": 0.0, "rental_uris": {"android": "https://dc.lft.to/lastmile_qr_scan", "ios": "https://dc.lft.to/lastmile_qr_scan"}, "name": "de57c0db645ccd7c2e2886b010017f81", "type": "electric_scooter", "lat": 38.91010883333333, "is_disabled": 0}, {"fusion_lat": 0.0, "lon": -77.04359583333333, "is_reserved": 0, "bike_id": "97c8a7f3abb4d7614a2fa8995146204d", "fusion_lon": 0.0, "rental_uris": {"android": "https://dc.lft.to/lastmile_qr_scan", "ios": "https://dc.lft.to/lastmile_qr_scan"}, "name": "97c8a7f3abb4d7614a2fa8995146204d", "type": "electric_scooter", "lat": 38.908780666666665, "is_disabled": 0}, {"fusion_lat": 0.0, "lon": -77.02205516666666, "is_reserved": 0, "bike_id": "7b8ffc66af0b5b2cfa6e8305842d42d9", "fusion_lon": 0.0, "rental_uris": {"android": "https://dc.lft.to/lastmile_qr_scan", "ios": "https://dc.lft.to/lastmile_qr_scan"}, "name": "7b8ffc66af0b5b2cfa6e8305842d42d9", "type": "electric_scooter", "lat": 38.9113265, "is_disabled": 0}, {"fusion_lat": 0.0, "lon": -76.95764933333334, "is_reserved": 0, "bike_id": "adbd13962af7dbd33969d1066e07eae6", "fusion_lon": 0.0, "rental_uris": {"android": "https://dc.lft.to/lastmile_qr_scan", "ios": "https://dc.lft.to/lastmile_qr_scan"}, "name": "adbd13962af7dbd33969d1066e07eae6", "type": "electric_scooter", "lat": 38.88432133333333, "is_disabled": 0}, {"fusion_lat": 0.0, "lon": -76.98269116666667, "is_reserved": 0, "bike_id": "2d708f1a2f74ba8a3e99e405d7e562b7", "fusion_lon": 0.0, "rental_uris": {"android": "https://dc.lft.to/lastmile_qr_scan", "ios": "https://dc.lft.to/lastmile_qr_scan"}, "name": "2d708f1a2f74ba8a3e99e405d7e562b7", "type": "electric_scooter", "lat": 38.88528183333333, "is_disabled": 0}, {"fusion_lat": 0.0, "lon": -77.03749583333334, "is_reserved": 0, "bike_id": "eb1666f7ad5d9b28b1224afa5930eb08", "fusion_lon": 0.0, "rental_uris": {"android": "https://dc.lft.to/lastmile_qr_scan", "ios": "https://dc.lft.to/lastmile_qr_scan"}, "name": "eb1666f7ad5d9b28b1224afa5930eb08", "type": "electric_scooter", "lat": 38.922075166666666, "is_disabled": 0}, {"fusion_lat": 0.0, "lon": -77.02452733333334, "is_reserved": 0, "bike_id": "9720f9ac873bf1213bce396e3913987d", "fusion_lon": 0.0, "rental_uris": {"android": "https://dc.lft.to/lastmile_qr_scan", "ios": "https://dc.lft.to/lastmile_qr_scan"}, "name": "9720f9ac873bf1213bce396e3913987d", "type": "electric_scooter", "lat": 38.924058, "is_disabled": 0}, {"fusion_lat": 0.0, "lon": -76.99791133333333, "is_reserved": 0, "bike_id": "c4dd7f903cfe707f7f9446dbb8ed075b", "fusion_lon": 0.0, "rental_uris": {"android": "https://dc.lft.to/lastmile_qr_scan", "ios": "https://dc.lft.to/lastmile_qr_scan"}, "name": "c4dd7f903cfe707f7f9446dbb8ed075b", "type": "electric_bike", "lat": 38.956410166666664, "is_disabled": 0}, {"fusion_lat": 0.0, "lon": -77.04739316666667, "is_reserved": 0, "bike_id": "2f9bf2cbfea0f64ae268188f8102c58a", "fusion_lon": 0.0, "rental_uris": {"android": "https://dc.lft.to/lastmile_qr_scan", "ios": "https://dc.lft.to/lastmile_qr_scan"}, "name": "2f9bf2cbfea0f64ae268188f8102c58a", "type": "electric_scooter", "lat": 38.909627666666665, "is_disabled": 0}, {"fusion_lat": 0.0, "lon": -77.05350266666666, "is_reserved": 0, "bike_id": "93cad8e09e1b59446033f5e2e384214e", "fusion_lon": 0.0, "rental_uris": {"android": "https://dc.lft.to/lastmile_qr_scan", "ios": "https://dc.lft.to/lastmile_qr_scan"}, "name": "93cad8e09e1b59446033f5e2e384214e", "type": "electric_scooter", "lat": 38.92714516666667, "is_disabled": 0}, {"fusion_lat": 0.0, "lon": -76.98096433333333, "is_reserved": 0, "bike_id": "51765fe28223994295d0a78cd0daa2b1", "fusion_lon": 0.0, "rental_uris": {"android": "https://dc.lft.to/lastmile_qr_scan", "ios": "https://dc.lft.to/lastmile_qr_scan"}, "name": "51765fe28223994295d0a78cd0daa2b1", "type": "electric_bike", "lat": 38.9210895, "is_disabled": 0}, {"fusion_lat": 0.0, "lon": -77.00352183333334, "is_reserved": 0, "bike_id": "481a8bf444f33d6c6c388949b928ce95", "fusion_lon": 0.0, "rental_uris": {"android": "https://dc.lft.to/lastmile_qr_scan", "ios": "https://dc.lft.to/lastmile_qr_scan"}, "name": "481a8bf444f33d6c6c388949b928ce95", "type": "electric_scooter", "lat": 38.88617383333333, "is_disabled": 0}, {"fusion_lat": 0.0, "lon": -76.99530483333334, "is_reserved": 0, "bike_id": "1c3c225c2fcb2b9512922ceae6594809", "fusion_lon": 0.0, "rental_uris": {"android": "https://dc.lft.to/lastmile_qr_scan", "ios": "https://dc.lft.to/lastmile_qr_scan"}, "name": "1c3c225c2fcb2b9512922ceae6594809", "type": "electric_scooter", "lat": 38.883665, "is_disabled": 0}, {"fusion_lat": 0.0, "lon": -77.037763, "is_reserved": 0, "bike_id": "bbc1303070cfd3b9957c533245730ca1", "fusion_lon": 0.0, "rental_uris": {"android": "https://dc.lft.to/lastmile_qr_scan", "ios": "https://dc.lft.to/lastmile_qr_scan"}, "name": "bbc1303070cfd3b9957c533245730ca1", "type": "electric_scooter", "lat": 38.922057833333334, "is_disabled": 0}, {"fusion_lat": 0.0, "lon": -77.038701, "is_reserved": 0, "bike_id": "f6c0d75fb0357eaae6cfb50824947920", "fusion_lon": 0.0, "rental_uris": {"android": "https://dc.lft.to/lastmile_qr_scan", "ios": "https://dc.lft.to/lastmile_qr_scan"}, "name": "f6c0d75fb0357eaae6cfb50824947920", "type": "electric_scooter", "lat": 38.90286783333333, "is_disabled": 0}, {"fusion_lat": 0.0, "lon": -76.9552865, "is_reserved": 0, "bike_id": "b85e195ca7e5ac72af7402e94f71c010", "fusion_lon": 0.0, "rental_uris": {"android": "https://dc.lft.to/lastmile_qr_scan", "ios": "https://dc.lft.to/lastmile_qr_scan"}, "name": "b85e195ca7e5ac72af7402e94f71c010", "type": "electric_scooter", "lat": 38.887766166666665, "is_disabled": 0}, {"fusion_lat": 0.0, "lon": -76.99579833333334, "is_reserved": 0, "bike_id": "37cd2f606e432ed00ee31e0c26fdb4f7", "fusion_lon": 0.0, "rental_uris": {"android": "https://dc.lft.to/lastmile_qr_scan", "ios": "https://dc.lft.to/lastmile_qr_scan"}, "name": "37cd2f606e432ed00ee31e0c26fdb4f7", "type": "electric_bike", "lat": 38.85293333333333, "is_disabled": 0}, {"fusion_lat": 0.0, "lon": -77.04328283333334, "is_reserved": 0, "bike_id": "6e8e47c0faaebb3c4366dd7c2b1c8b5a", "fusion_lon": 0.0, "rental_uris": {"android": "https://dc.lft.to/lastmile_qr_scan", "ios": "https://dc.lft.to/lastmile_qr_scan"}, "name": "6e8e47c0faaebb3c4366dd7c2b1c8b5a", "type": "electric_scooter", "lat": 38.892226, "is_disabled": 0}, {"fusion_lat": 0.0, "lon": -77.032648, "is_reserved": 0, "bike_id": "9d8aee08bf8e6bc1cacefa14fa1a4b0b", "fusion_lon": 0.0, "rental_uris": {"android": "https://dc.lft.to/lastmile_qr_scan", "ios": "https://dc.lft.to/lastmile_qr_scan"}, "name": "9d8aee08bf8e6bc1cacefa14fa1a4b0b", "type": "electric_scooter", "lat": 38.946278, "is_disabled": 0}, {"fusion_lat": 0.0, "lon": -77.00484366666667, "is_reserved": 0, "bike_id": "e5e0728844f7b14a09689475e71247d2", "fusion_lon": 0.0, "rental_uris": {"android": "https://dc.lft.to/lastmile_qr_scan", "ios": "https://dc.lft.to/lastmile_qr_scan"}, "name": "e5e0728844f7b14a09689475e71247d2", "type": "electric_scooter", "lat": 38.874756833333336, "is_disabled": 0}, {"fusion_lat": 0.0, "lon": -77.04934733333333, "is_reserved": 0, "bike_id": "ffe9e9efa8e98edf5f1fe95902869ae8", "fusion_lon": 0.0, "rental_uris": {"android": "https://dc.lft.to/lastmile_qr_scan", "ios": "https://dc.lft.to/lastmile_qr_scan"}, "name": "ffe9e9efa8e98edf5f1fe95902869ae8", "type": "electric_scooter", "lat": 38.89532666666667, "is_disabled": 0}, {"fusion_lat": 0.0, "lon": -77.03440633333334, "is_reserved": 0, "bike_id": "300013073f0eeadc40047080ed1ffd40", "fusion_lon": 0.0, "rental_uris": {"android": "https://dc.lft.to/lastmile_qr_scan", "ios": "https://dc.lft.to/lastmile_qr_scan"}, "name": "300013073f0eeadc40047080ed1ffd40", "type": "electric_scooter", "lat": 38.918099166666664, "is_disabled": 0}, {"fusion_lat": 0.0, "lon": -77.0062465, "is_reserved": 0, "bike_id": "54b06d14dd570c9da5ad0d7049b73f15", "fusion_lon": 0.0, "rental_uris": {"android": "https://dc.lft.to/lastmile_qr_scan", "ios": "https://dc.lft.to/lastmile_qr_scan"}, "name": "54b06d14dd570c9da5ad0d7049b73f15", "type": "electric_scooter", "lat": 38.871740333333335, "is_disabled": 0}, {"fusion_lat": 0.0, "lon": -77.0233325, "is_reserved": 0, "bike_id": "973d1e823ecbb4b4753a856897694672", "fusion_lon": 0.0, "rental_uris": {"android": "https://dc.lft.to/lastmile_qr_scan", "ios": "https://dc.lft.to/lastmile_qr_scan"}, "name": "973d1e823ecbb4b4753a856897694672", "type": "electric_scooter", "lat": 38.926997, "is_disabled": 0}, {"fusion_lat": 0.0, "lon": -76.93735266666667, "is_reserved": 0, "bike_id": "50915d9199f0d448ef1f6176dfae881e", "fusion_lon": 0.0, "rental_uris": {"android": "https://dc.lft.to/lastmile_qr_scan", "ios": "https://dc.lft.to/lastmile_qr_scan"}, "name": "50915d9199f0d448ef1f6176dfae881e", "type": "electric_scooter", "lat": 38.890166666666666, "is_disabled": 0}, {"fusion_lat": 0.0, "lon": -77.01516916666667, "is_reserved": 0, "bike_id": "efb1bc6d70d161c72378b90df29bb560", "fusion_lon": 0.0, "rental_uris": {"android": "https://dc.lft.to/lastmile_qr_scan", "ios": "https://dc.lft.to/lastmile_qr_scan"}, "name": "efb1bc6d70d161c72378b90df29bb560", "type": "electric_scooter", "lat": 38.892488, "is_disabled": 0}, {"fusion_lat": 0.0, "lon": -77.02672433333333, "is_reserved": 0, "bike_id": "047cb9835ee3b378b81be00266890b20", "fusion_lon": 0.0, "rental_uris": {"android": "https://dc.lft.to/lastmile_qr_scan", "ios": "https://dc.lft.to/lastmile_qr_scan"}, "name": "047cb9835ee3b378b81be00266890b20", "type": "electric_scooter", "lat": 38.902304666666666, "is_disabled": 0}, {"fusion_lat": 0.0, "lon": -77.022845, "is_reserved": 0, "bike_id": "07adc200a5ac42546e87039e8c415660", "fusion_lon": 0.0, "rental_uris": {"android": "https://dc.lft.to/lastmile_qr_scan", "ios": "https://dc.lft.to/lastmile_qr_scan"}, "name": "07adc200a5ac42546e87039e8c415660", "type": "electric_scooter", "lat": 38.91424666666666, "is_disabled": 0}, {"fusion_lat": 0.0, "lon": -77.0060175, "is_reserved": 0, "bike_id": "82fb9812496950a0e333dfb8e83a1f2a", "fusion_lon": 0.0, "rental_uris": {"android": "https://dc.lft.to/lastmile_qr_scan", "ios": "https://dc.lft.to/lastmile_qr_scan"}, "name": "82fb9812496950a0e333dfb8e83a1f2a", "type": "electric_scooter", "lat": 38.885178, "is_disabled": 0}, {"fusion_lat": 0.0, "lon": -77.00729383333334, "is_reserved": 0, "bike_id": "aae1541123e127162d9c688fbec22820", "fusion_lon": 0.0, "rental_uris": {"android": "https://dc.lft.to/lastmile_qr_scan", "ios": "https://dc.lft.to/lastmile_qr_scan"}, "name": "aae1541123e127162d9c688fbec22820", "type": "electric_scooter", "lat": 38.8978405, "is_disabled": 0}, {"fusion_lat": 0.0, "lon": -76.97443266666667, "is_reserved": 0, "bike_id": "f78d117887334186ecd7a95b0cf62132", "fusion_lon": 0.0, "rental_uris": {"android": "https://dc.lft.to/lastmile_qr_scan", "ios": "https://dc.lft.to/lastmile_qr_scan"}, "name": "f78d117887334186ecd7a95b0cf62132", "type": "electric_bike", "lat": 38.86414083333333, "is_disabled": 0}, {"fusion_lat": 0.0, "lon": -77.0137355, "is_reserved": 0, "bike_id": "762a403ace26b84e7477b5cb2a8d04a9", "fusion_lon": 0.0, "rental_uris": {"android": "https://dc.lft.to/lastmile_qr_scan", "ios": "https://dc.lft.to/lastmile_qr_scan"}, "name": "762a403ace26b84e7477b5cb2a8d04a9", "type": "electric_scooter", "lat": 38.92875083333333, "is_disabled": 0}, {"fusion_lat": 0.0, "lon": -76.8954105, "is_reserved": 0, "bike_id": "a91dbaa2db7856253bb8997fd8b78405", "fusion_lon": 0.0, "rental_uris": {"android": "https://dc.lft.to/lastmile_qr_scan", "ios": "https://dc.lft.to/lastmile_qr_scan"}, "name": "a91dbaa2db7856253bb8997fd8b78405", "type": "electric_bike", "lat": 38.945531833333334, "is_disabled": 0}, {"fusion_lat": 0.0, "lon": -77.068671, "is_reserved": 0, "bike_id": "8efef144a79406fa5bf59d502f7444d1", "fusion_lon": 0.0, "rental_uris": {"android": "https://dc.lft.to/lastmile_qr_scan", "ios": "https://dc.lft.to/lastmile_qr_scan"}, "name": "8efef144a79406fa5bf59d502f7444d1", "type": "electric_bike", "lat": 38.805773333333335, "is_disabled": 0}, {"fusion_lat": 0.0, "lon": -77.0748055, "is_reserved": 0, "bike_id": "c0d22fae9d710f70231aac21e021c78e", "fusion_lon": 0.0, "rental_uris": {"android": "https://dc.lft.to/lastmile_qr_scan", "ios": "https://dc.lft.to/lastmile_qr_scan"}, "name": "c0d22fae9d710f70231aac21e021c78e", "type": "electric_scooter", "lat": 38.96320016666667, "is_disabled": 0}, {"fusion_lat": 0.0, "lon": -77.02730533333333, "is_reserved": 0, "bike_id": "ec9be8c591b4f83b8884a72bc609deb9", "fusion_lon": 0.0, "rental_uris": {"android": "https://dc.lft.to/lastmile_qr_scan", "ios": "https://dc.lft.to/lastmile_qr_scan"}, "name": "ec9be8c591b4f83b8884a72bc609deb9", "type": "electric_scooter", "lat": 38.94088583333333, "is_disabled": 0}, {"fusion_lat": 0.0, "lon": -77.04569583333334, "is_reserved": 0, "bike_id": "0ec9dd045d7a23381e60b8f52f7a79d5", "fusion_lon": 0.0, "rental_uris": {"android": "https://dc.lft.to/lastmile_qr_scan", "ios": "https://dc.lft.to/lastmile_qr_scan"}, "name": "0ec9dd045d7a23381e60b8f52f7a79d5", "type": "electric_scooter", "lat": 38.89746366666667, "is_disabled": 0}, {"fusion_lat": 0.0, "lon": -77.006044, "is_reserved": 0, "bike_id": "185cf0ddb092f85f76a1df60b5b6eefe", "fusion_lon": 0.0, "rental_uris": {"android": "https://dc.lft.to/lastmile_qr_scan", "ios": "https://dc.lft.to/lastmile_qr_scan"}, "name": "185cf0ddb092f85f76a1df60b5b6eefe", "type": "electric_scooter", "lat": 38.905709333333334, "is_disabled": 0}, {"fusion_lat": 0.0, "lon": -77.04117216666667, "is_reserved": 0, "bike_id": "82c2637876f05aaad2b8aaa4d2c057e2", "fusion_lon": 0.0, "rental_uris": {"android": "https://dc.lft.to/lastmile_qr_scan", "ios": "https://dc.lft.to/lastmile_qr_scan"}, "name": "82c2637876f05aaad2b8aaa4d2c057e2", "type": "electric_scooter", "lat": 38.92511533333333, "is_disabled": 0}, {"fusion_lat": 0.0, "lon": -77.1159315, "is_reserved": 0, "bike_id": "c9b5b02e5765d32ceea42135e8d195ea", "fusion_lon": 0.0, "rental_uris": {"android": "https://dc.lft.to/lastmile_qr_scan", "ios": "https://dc.lft.to/lastmile_qr_scan"}, "name": "c9b5b02e5765d32ceea42135e8d195ea", "type": "electric_bike", "lat": 39.07494716666667, "is_disabled": 0}, {"fusion_lat": 0.0, "lon": -77.02977466666667, "is_reserved": 0, "bike_id": "8507ce889446d2c4167fc2135b3e7a69", "fusion_lon": 0.0, "rental_uris": {"android": "https://dc.lft.to/lastmile_qr_scan", "ios": "https://dc.lft.to/lastmile_qr_scan"}, "name": "8507ce889446d2c4167fc2135b3e7a69", "type": "electric_bike", "lat": 38.92448183333333, "is_disabled": 0}, {"fusion_lat": 0.0, "lon": -77.03513683333334, "is_reserved": 0, "bike_id": "0d14dc8604492721675062103fa0a5e2", "fusion_lon": 0.0, "rental_uris": {"android": "https://dc.lft.to/lastmile_qr_scan", "ios": "https://dc.lft.to/lastmile_qr_scan"}, "name": "0d14dc8604492721675062103fa0a5e2", "type": "electric_scooter", "lat": 38.92201566666667, "is_disabled": 0}, {"fusion_lat": 0.0, "lon": -77.02978483333334, "is_reserved": 0, "bike_id": "e14f25dddb5823e459326e79685a75b8", "fusion_lon": 0.0, "rental_uris": {"android": "https://dc.lft.to/lastmile_qr_scan", "ios": "https://dc.lft.to/lastmile_qr_scan"}, "name": "e14f25dddb5823e459326e79685a75b8", "type": "electric_scooter", "lat": 38.92951933333333, "is_disabled": 0}, {"fusion_lat": 0.0, "lon": -77.0509075, "is_reserved": 0, "bike_id": "b0f99374f03e64c39bfa0662badce9ef", "fusion_lon": 0.0, "rental_uris": {"android": "https://dc.lft.to/lastmile_qr_scan", "ios": "https://dc.lft.to/lastmile_qr_scan"}, "name": "b0f99374f03e64c39bfa0662badce9ef", "type": "electric_scooter", "lat": 38.901934, "is_disabled": 0}, {"fusion_lat": 0.0, "lon": -77.023958, "is_reserved": 0, "bike_id": "636435e4d782b7ac1264edb32f923f28", "fusion_lon": 0.0, "rental_uris": {"android": "https://dc.lft.to/lastmile_qr_scan", "ios": "https://dc.lft.to/lastmile_qr_scan"}, "name": "636435e4d782b7ac1264edb32f923f28", "type": "electric_scooter", "lat": 38.91989066666667, "is_disabled": 0}, {"fusion_lat": 0.0, "lon": -76.98554, "is_reserved": 0, "bike_id": "f2b29eab26a54e5ba395e06a61c65a97", "fusion_lon": 0.0, "rental_uris": {"android": "https://dc.lft.to/lastmile_qr_scan", "ios": "https://dc.lft.to/lastmile_qr_scan"}, "name": "f2b29eab26a54e5ba395e06a61c65a97", "type": "electric_bike", "lat": 38.88185933333333, "is_disabled": 0}, {"fusion_lat": 0.0, "lon": -77.01143616666667, "is_reserved": 0, "bike_id": "0d72aa57c737845b61d2249508b07517", "fusion_lon": 0.0, "rental_uris": {"android": "https://dc.lft.to/lastmile_qr_scan", "ios": "https://dc.lft.to/lastmile_qr_scan"}, "name": "0d72aa57c737845b61d2249508b07517", "type": "electric_scooter", "lat": 38.90641766666667, "is_disabled": 0}, {"fusion_lat": 0.0, "lon": -77.0050255, "is_reserved": 0, "bike_id": "174f61e3037e607c573aad5a1fba3a85", "fusion_lon": 0.0, "rental_uris": {"android": "https://dc.lft.to/lastmile_qr_scan", "ios": "https://dc.lft.to/lastmile_qr_scan"}, "name": "174f61e3037e607c573aad5a1fba3a85", "type": "electric_scooter", "lat": 38.905565333333335, "is_disabled": 0}, {"fusion_lat": 0.0, "lon": -76.97859733333334, "is_reserved": 0, "bike_id": "716a51fefeaa49285471a5d5a02041f5", "fusion_lon": 0.0, "rental_uris": {"android": "https://dc.lft.to/lastmile_qr_scan", "ios": "https://dc.lft.to/lastmile_qr_scan"}, "name": "716a51fefeaa49285471a5d5a02041f5", "type": "electric_scooter", "lat": 38.870700166666666, "is_disabled": 0}, {"fusion_lat": 0.0, "lon": -77.03503483333333, "is_reserved": 0, "bike_id": "1fc3d5b2a8d85302a16a9561cddcfdad", "fusion_lon": 0.0, "rental_uris": {"android": "https://dc.lft.to/lastmile_qr_scan", "ios": "https://dc.lft.to/lastmile_qr_scan"}, "name": "1fc3d5b2a8d85302a16a9561cddcfdad", "type": "electric_scooter", "lat": 38.91873366666667, "is_disabled": 0}, {"fusion_lat": 0.0, "lon": -77.007496, "is_reserved": 0, "bike_id": "ae9cc005b2bb9a1241d9bc1770fbb255", "fusion_lon": 0.0, "rental_uris": {"android": "https://dc.lft.to/lastmile_qr_scan", "ios": "https://dc.lft.to/lastmile_qr_scan"}, "name": "ae9cc005b2bb9a1241d9bc1770fbb255", "type": "electric_scooter", "lat": 38.92671716666667, "is_disabled": 0}, {"fusion_lat": 0.0, "lon": -77.0280565, "is_reserved": 0, "bike_id": "2c93815037b8b4a4d25211d83bc44e42", "fusion_lon": 0.0, "rental_uris": {"android": "https://dc.lft.to/lastmile_qr_scan", "ios": "https://dc.lft.to/lastmile_qr_scan"}, "name": "2c93815037b8b4a4d25211d83bc44e42", "type": "electric_scooter", "lat": 38.892295833333336, "is_disabled": 0}, {"fusion_lat": 0.0, "lon": -77.02906433333334, "is_reserved": 0, "bike_id": "f91c7b26132885fb11c5605bde4f5b86", "fusion_lon": 0.0, "rental_uris": {"android": "https://dc.lft.to/lastmile_qr_scan", "ios": "https://dc.lft.to/lastmile_qr_scan"}, "name": "f91c7b26132885fb11c5605bde4f5b86", "type": "electric_scooter", "lat": 38.94041083333333, "is_disabled": 0}, {"fusion_lat": 0.0, "lon": -76.96563933333333, "is_reserved": 0, "bike_id": "f002d4f218c07bc573d6ad2cedf8c258", "fusion_lon": 0.0, "rental_uris": {"android": "https://dc.lft.to/lastmile_qr_scan", "ios": "https://dc.lft.to/lastmile_qr_scan"}, "name": "f002d4f218c07bc573d6ad2cedf8c258", "type": "electric_bike", "lat": 38.8737775, "is_disabled": 0}, {"fusion_lat": 0.0, "lon": -77.02901383333334, "is_reserved": 0, "bike_id": "e1ede33b98c3bd7c1afcd6b547f95add", "fusion_lon": 0.0, "rental_uris": {"android": "https://dc.lft.to/lastmile_qr_scan", "ios": "https://dc.lft.to/lastmile_qr_scan"}, "name": "e1ede33b98c3bd7c1afcd6b547f95add", "type": "electric_scooter", "lat": 38.96129966666667, "is_disabled": 0}, {"fusion_lat": 0.0, "lon": -77.04328183333334, "is_reserved": 0, "bike_id": "1b7e46394f09f84cd1e0959b80c2634b", "fusion_lon": 0.0, "rental_uris": {"android": "https://dc.lft.to/lastmile_qr_scan", "ios": "https://dc.lft.to/lastmile_qr_scan"}, "name": "1b7e46394f09f84cd1e0959b80c2634b", "type": "electric_scooter", "lat": 38.907601166666666, "is_disabled": 0}, {"fusion_lat": 0.0, "lon": -76.99901616666666, "is_reserved": 0, "bike_id": "64ec915d584b8e4bbc4abd5fcaa2fd31", "fusion_lon": 0.0, "rental_uris": {"android": "https://dc.lft.to/lastmile_qr_scan", "ios": "https://dc.lft.to/lastmile_qr_scan"}, "name": "64ec915d584b8e4bbc4abd5fcaa2fd31", "type": "electric_scooter", "lat": 38.924558, "is_disabled": 0}, {"fusion_lat": 0.0, "lon": -77.05310566666667, "is_reserved": 0, "bike_id": "5d736625b05dac0b3b24552f3c45f03a", "fusion_lon": 0.0, "rental_uris": {"android": "https://dc.lft.to/lastmile_qr_scan", "ios": "https://dc.lft.to/lastmile_qr_scan"}, "name": "5d736625b05dac0b3b24552f3c45f03a", "type": "electric_scooter", "lat": 38.898516, "is_disabled": 0}, {"fusion_lat": 0.0, "lon": -77.02951733333333, "is_reserved": 0, "bike_id": "52bafe50054cdd305f19990e8f9b28ca", "fusion_lon": 0.0, "rental_uris": {"android": "https://dc.lft.to/lastmile_qr_scan", "ios": "https://dc.lft.to/lastmile_qr_scan"}, "name": "52bafe50054cdd305f19990e8f9b28ca", "type": "electric_scooter", "lat": 38.92174883333333, "is_disabled": 0}, {"fusion_lat": 0.0, "lon": -77.0291435, "is_reserved": 0, "bike_id": "1cd852cb946cf01c48f597caffaaf3f6", "fusion_lon": 0.0, "rental_uris": {"android": "https://dc.lft.to/lastmile_qr_scan", "ios": "https://dc.lft.to/lastmile_qr_scan"}, "name": "1cd852cb946cf01c48f597caffaaf3f6", "type": "electric_scooter", "lat": 38.903633666666664, "is_disabled": 0}, {"fusion_lat": 0.0, "lon": -77.012237, "is_reserved": 0, "bike_id": "a348bdec6bc62fc1aab0b841231a6cc8", "fusion_lon": 0.0, "rental_uris": {"android": "https://dc.lft.to/lastmile_qr_scan", "ios": "https://dc.lft.to/lastmile_qr_scan"}, "name": "a348bdec6bc62fc1aab0b841231a6cc8", "type": "electric_scooter", "lat": 38.9152165, "is_disabled": 0}, {"fusion_lat": 0.0, "lon": -77.03339433333333, "is_reserved": 0, "bike_id": "271959f09975ca66c67e30abce13b4c1", "fusion_lon": 0.0, "rental_uris": {"android": "https://dc.lft.to/lastmile_qr_scan", "ios": "https://dc.lft.to/lastmile_qr_scan"}, "name": "271959f09975ca66c67e30abce13b4c1", "type": "electric_scooter", "lat": 38.916683666666664, "is_disabled": 0}, {"fusion_lat": 0.0, "lon": -77.02562833333333, "is_reserved": 0, "bike_id": "10496b8a53ab627dfbd104964e88462c", "fusion_lon": 0.0, "rental_uris": {"android": "https://dc.lft.to/lastmile_qr_scan", "ios": "https://dc.lft.to/lastmile_qr_scan"}, "name": "10496b8a53ab627dfbd104964e88462c", "type": "electric_scooter", "lat": 38.924715, "is_disabled": 0}, {"fusion_lat": 0.0, "lon": -77.012712, "is_reserved": 0, "bike_id": "592aebdd567fb74368094353674db6d8", "fusion_lon": 0.0, "rental_uris": {"android": "https://dc.lft.to/lastmile_qr_scan", "ios": "https://dc.lft.to/lastmile_qr_scan"}, "name": "592aebdd567fb74368094353674db6d8", "type": "electric_scooter", "lat": 38.9141485, "is_disabled": 0}, {"fusion_lat": 0.0, "lon": -76.95096733333334, "is_reserved": 0, "bike_id": "058e27ecf285ba7c00452f29e2337c41", "fusion_lon": 0.0, "rental_uris": {"android": "https://dc.lft.to/lastmile_qr_scan", "ios": "https://dc.lft.to/lastmile_qr_scan"}, "name": "058e27ecf285ba7c00452f29e2337c41", "type": "electric_scooter", "lat": 38.884478333333334, "is_disabled": 0}, {"fusion_lat": 0.0, "lon": -76.9337055, "is_reserved": 0, "bike_id": "fafc2fefcb34419466b40ddb61ca9415", "fusion_lon": 0.0, "rental_uris": {"android": "https://dc.lft.to/lastmile_qr_scan", "ios": "https://dc.lft.to/lastmile_qr_scan"}, "name": "fafc2fefcb34419466b40ddb61ca9415", "type": "electric_scooter", "lat": 38.899148333333336, "is_disabled": 0}, {"fusion_lat": 0.0, "lon": -77.03503333333333, "is_reserved": 0, "bike_id": "c37516302220a2d31c0c6f537d513055", "fusion_lon": 0.0, "rental_uris": {"android": "https://dc.lft.to/lastmile_qr_scan", "ios": "https://dc.lft.to/lastmile_qr_scan"}, "name": "c37516302220a2d31c0c6f537d513055", "type": "electric_scooter", "lat": 38.92340316666667, "is_disabled": 0}, {"fusion_lat": 0.0, "lon": -76.99604933333333, "is_reserved": 0, "bike_id": "c8b12c41f5065c02ff835d34bd993862", "fusion_lon": 0.0, "rental_uris": {"android": "https://dc.lft.to/lastmile_qr_scan", "ios": "https://dc.lft.to/lastmile_qr_scan"}, "name": "c8b12c41f5065c02ff835d34bd993862", "type": "electric_scooter", "lat": 38.89225183333333, "is_disabled": 0}, {"fusion_lat": 0.0, "lon": -77.08939316666667, "is_reserved": 0, "bike_id": "29667a0363b149b4fa7926cc3865da23", "fusion_lon": 0.0, "rental_uris": {"android": "https://dc.lft.to/lastmile_qr_scan", "ios": "https://dc.lft.to/lastmile_qr_scan"}, "name": "29667a0363b149b4fa7926cc3865da23", "type": "electric_bike", "lat": 38.841061333333336, "is_disabled": 0}, {"fusion_lat": 0.0, "lon": -77.02398316666667, "is_reserved": 0, "bike_id": "307cc53e80ff066c79d59b3419e80c3b", "fusion_lon": 0.0, "rental_uris": {"android": "https://dc.lft.to/lastmile_qr_scan", "ios": "https://dc.lft.to/lastmile_qr_scan"}, "name": "307cc53e80ff066c79d59b3419e80c3b", "type": "electric_scooter", "lat": 38.919852666666664, "is_disabled": 0}, {"fusion_lat": 0.0, "lon": -77.0423395, "is_reserved": 0, "bike_id": "f65975461eebf553b7c61cb16f48a21e", "fusion_lon": 0.0, "rental_uris": {"android": "https://dc.lft.to/lastmile_qr_scan", "ios": "https://dc.lft.to/lastmile_qr_scan"}, "name": "f65975461eebf553b7c61cb16f48a21e", "type": "electric_scooter", "lat": 38.921740666666665, "is_disabled": 0}, {"fusion_lat": 0.0, "lon": -77.01218266666666, "is_reserved": 0, "bike_id": "f05839fb079a50aafe40b475a03ba3ef", "fusion_lon": 0.0, "rental_uris": {"android": "https://dc.lft.to/lastmile_qr_scan", "ios": "https://dc.lft.to/lastmile_qr_scan"}, "name": "f05839fb079a50aafe40b475a03ba3ef", "type": "electric_bike", "lat": 38.870957, "is_disabled": 0}, {"fusion_lat": 0.0, "lon": -76.99506883333333, "is_reserved": 0, "bike_id": "4469dbaaeb2894735fb8a6e89f5d27dd", "fusion_lon": 0.0, "rental_uris": {"android": "https://dc.lft.to/lastmile_qr_scan", "ios": "https://dc.lft.to/lastmile_qr_scan"}, "name": "4469dbaaeb2894735fb8a6e89f5d27dd", "type": "electric_scooter", "lat": 38.909788, "is_disabled": 0}, {"fusion_lat": 0.0, "lon": -77.02291816666667, "is_reserved": 0, "bike_id": "e149b82e7bb041176476c916d8d0ee8b", "fusion_lon": 0.0, "rental_uris": {"android": "https://dc.lft.to/lastmile_qr_scan", "ios": "https://dc.lft.to/lastmile_qr_scan"}, "name": "e149b82e7bb041176476c916d8d0ee8b", "type": "electric_scooter", "lat": 38.92712816666667, "is_disabled": 0}, {"fusion_lat": 0.0, "lon": -77.0019865, "is_reserved": 0, "bike_id": "bc73e5a06c3082f6f82de067c4b53f38", "fusion_lon": 0.0, "rental_uris": {"android": "https://dc.lft.to/lastmile_qr_scan", "ios": "https://dc.lft.to/lastmile_qr_scan"}, "name": "bc73e5a06c3082f6f82de067c4b53f38", "type": "electric_scooter", "lat": 38.90239283333333, "is_disabled": 0}, {"fusion_lat": 0.0, "lon": -77.05436283333333, "is_reserved": 0, "bike_id": "99da93adeb9ffcb858b07d8327dd0da4", "fusion_lon": 0.0, "rental_uris": {"android": "https://dc.lft.to/lastmile_qr_scan", "ios": "https://dc.lft.to/lastmile_qr_scan"}, "name": "99da93adeb9ffcb858b07d8327dd0da4", "type": "electric_scooter", "lat": 38.923480833333336, "is_disabled": 0}, {"fusion_lat": 0.0, "lon": -77.04262866666667, "is_reserved": 0, "bike_id": "9e0c62c9f47de2a36fda7bb1ae87b3c6", "fusion_lon": 0.0, "rental_uris": {"android": "https://dc.lft.to/lastmile_qr_scan", "ios": "https://dc.lft.to/lastmile_qr_scan"}, "name": "9e0c62c9f47de2a36fda7bb1ae87b3c6", "type": "electric_scooter", "lat": 38.906466, "is_disabled": 0}, {"fusion_lat": 0.0, "lon": -77.028799, "is_reserved": 0, "bike_id": "0c0fe4bdb1edcde9b55088be61a3d4ca", "fusion_lon": 0.0, "rental_uris": {"android": "https://dc.lft.to/lastmile_qr_scan", "ios": "https://dc.lft.to/lastmile_qr_scan"}, "name": "0c0fe4bdb1edcde9b55088be61a3d4ca", "type": "electric_scooter", "lat": 38.9032675, "is_disabled": 0}, {"fusion_lat": 0.0, "lon": -77.0101455, "is_reserved": 0, "bike_id": "f4ca90e7ca7910881604a4a3a9676b0b", "fusion_lon": 0.0, "rental_uris": {"android": "https://dc.lft.to/lastmile_qr_scan", "ios": "https://dc.lft.to/lastmile_qr_scan"}, "name": "f4ca90e7ca7910881604a4a3a9676b0b", "type": "electric_bike", "lat": 38.87967166666667, "is_disabled": 0}, {"fusion_lat": 0.0, "lon": -77.046615, "is_reserved": 0, "bike_id": "065662a27a306e41d9ec2c00703dd277", "fusion_lon": 0.0, "rental_uris": {"android": "https://dc.lft.to/lastmile_qr_scan", "ios": "https://dc.lft.to/lastmile_qr_scan"}, "name": "065662a27a306e41d9ec2c00703dd277", "type": "electric_scooter", "lat": 38.9134065, "is_disabled": 0}, {"fusion_lat": 0.0, "lon": -77.040803, "is_reserved": 0, "bike_id": "a9c3c1c25f9fc0df61ac74211d7ca33d", "fusion_lon": 0.0, "rental_uris": {"android": "https://dc.lft.to/lastmile_qr_scan", "ios": "https://dc.lft.to/lastmile_qr_scan"}, "name": "a9c3c1c25f9fc0df61ac74211d7ca33d", "type": "electric_scooter", "lat": 38.9170745, "is_disabled": 0}, {"fusion_lat": 0.0, "lon": -77.0092385, "is_reserved": 0, "bike_id": "810b3ce9ec4a663e0c5e1d7640482676", "fusion_lon": 0.0, "rental_uris": {"android": "https://dc.lft.to/lastmile_qr_scan", "ios": "https://dc.lft.to/lastmile_qr_scan"}, "name": "810b3ce9ec4a663e0c5e1d7640482676", "type": "electric_scooter", "lat": 38.8964865, "is_disabled": 0}, {"fusion_lat": 0.0, "lon": -77.026984, "is_reserved": 0, "bike_id": "1428b167cc45e6f2e407cc4d5339a70c", "fusion_lon": 0.0, "rental_uris": {"android": "https://dc.lft.to/lastmile_qr_scan", "ios": "https://dc.lft.to/lastmile_qr_scan"}, "name": "1428b167cc45e6f2e407cc4d5339a70c", "type": "electric_scooter", "lat": 38.912510833333336, "is_disabled": 0}, {"fusion_lat": 0.0, "lon": -77.0348585, "is_reserved": 0, "bike_id": "deeca1806da04bb691a58f3f0b262c64", "fusion_lon": 0.0, "rental_uris": {"android": "https://dc.lft.to/lastmile_qr_scan", "ios": "https://dc.lft.to/lastmile_qr_scan"}, "name": "deeca1806da04bb691a58f3f0b262c64", "type": "electric_scooter", "lat": 38.932735, "is_disabled": 0}, {"fusion_lat": 0.0, "lon": -77.0306345, "is_reserved": 0, "bike_id": "dbf811b82b4a7a2b91113f7cdfea04ed", "fusion_lon": 0.0, "rental_uris": {"android": "https://dc.lft.to/lastmile_qr_scan", "ios": "https://dc.lft.to/lastmile_qr_scan"}, "name": "dbf811b82b4a7a2b91113f7cdfea04ed", "type": "electric_scooter", "lat": 38.923713166666666, "is_disabled": 0}, {"fusion_lat": 0.0, "lon": -77.027444, "is_reserved": 0, "bike_id": "5059ba68b2c765f8b0e0945eecf6fe26", "fusion_lon": 0.0, "rental_uris": {"android": "https://dc.lft.to/lastmile_qr_scan", "ios": "https://dc.lft.to/lastmile_qr_scan"}, "name": "5059ba68b2c765f8b0e0945eecf6fe26", "type": "electric_scooter", "lat": 38.92403233333334, "is_disabled": 0}, {"fusion_lat": 0.0, "lon": -77.019971, "is_reserved": 0, "bike_id": "308fd133ddbfd505cd0a40c972b8d38e", "fusion_lon": 0.0, "rental_uris": {"android": "https://dc.lft.to/lastmile_qr_scan", "ios": "https://dc.lft.to/lastmile_qr_scan"}, "name": "308fd133ddbfd505cd0a40c972b8d38e", "type": "electric_scooter", "lat": 38.914341, "is_disabled": 0}, {"fusion_lat": 0.0, "lon": -77.019084, "is_reserved": 0, "bike_id": "b37f1ae2aee4e199f801f2101d971f60", "fusion_lon": 0.0, "rental_uris": {"android": "https://dc.lft.to/lastmile_qr_scan", "ios": "https://dc.lft.to/lastmile_qr_scan"}, "name": "b37f1ae2aee4e199f801f2101d971f60", "type": "electric_scooter", "lat": 38.941219833333335, "is_disabled": 0}, {"fusion_lat": 0.0, "lon": -77.01467866666667, "is_reserved": 0, "bike_id": "d4027b718fc2254d64516b2fa6e31ee0", "fusion_lon": 0.0, "rental_uris": {"android": "https://dc.lft.to/lastmile_qr_scan", "ios": "https://dc.lft.to/lastmile_qr_scan"}, "name": "d4027b718fc2254d64516b2fa6e31ee0", "type": "electric_scooter", "lat": 38.926786166666666, "is_disabled": 0}, {"fusion_lat": 0.0, "lon": -77.0285795, "is_reserved": 0, "bike_id": "633af19160b883283900177ac91707c7", "fusion_lon": 0.0, "rental_uris": {"android": "https://dc.lft.to/lastmile_qr_scan", "ios": "https://dc.lft.to/lastmile_qr_scan"}, "name": "633af19160b883283900177ac91707c7", "type": "electric_scooter", "lat": 38.9116615, "is_disabled": 0}, {"fusion_lat": 0.0, "lon": -77.02140116666666, "is_reserved": 0, "bike_id": "f5f9857fa993c44665183e1de99bbba4", "fusion_lon": 0.0, "rental_uris": {"android": "https://dc.lft.to/lastmile_qr_scan", "ios": "https://dc.lft.to/lastmile_qr_scan"}, "name": "f5f9857fa993c44665183e1de99bbba4", "type": "electric_scooter", "lat": 38.92462616666667, "is_disabled": 0}, {"fusion_lat": 0.0, "lon": -77.01735933333333, "is_reserved": 0, "bike_id": "9f59ca30df050433a95f4263915f2dbe", "fusion_lon": 0.0, "rental_uris": {"android": "https://dc.lft.to/lastmile_qr_scan", "ios": "https://dc.lft.to/lastmile_qr_scan"}, "name": "9f59ca30df050433a95f4263915f2dbe", "type": "electric_scooter", "lat": 38.885728, "is_disabled": 0}, {"fusion_lat": 0.0, "lon": -77.046975, "is_reserved": 0, "bike_id": "0218f9c6252624fc3817cdfc57afc8e8", "fusion_lon": 0.0, "rental_uris": {"android": "https://dc.lft.to/lastmile_qr_scan", "ios": "https://dc.lft.to/lastmile_qr_scan"}, "name": "0218f9c6252624fc3817cdfc57afc8e8", "type": "electric_scooter", "lat": 38.915804333333334, "is_disabled": 0}, {"fusion_lat": 0.0, "lon": -76.93753516666666, "is_reserved": 0, "bike_id": "df9f6e1c32754b453a1b886e5f1f08ae", "fusion_lon": 0.0, "rental_uris": {"android": "https://dc.lft.to/lastmile_qr_scan", "ios": "https://dc.lft.to/lastmile_qr_scan"}, "name": "df9f6e1c32754b453a1b886e5f1f08ae", "type": "electric_scooter", "lat": 38.890481333333334, "is_disabled": 0}, {"fusion_lat": 0.0, "lon": -77.043506, "is_reserved": 0, "bike_id": "e6b847901998f5d4118d2a5b747f2885", "fusion_lon": 0.0, "rental_uris": {"android": "https://dc.lft.to/lastmile_qr_scan", "ios": "https://dc.lft.to/lastmile_qr_scan"}, "name": "e6b847901998f5d4118d2a5b747f2885", "type": "electric_scooter", "lat": 38.90428333333333, "is_disabled": 0}, {"fusion_lat": 0.0, "lon": -77.00426266666666, "is_reserved": 0, "bike_id": "0da2a2abdc58a2433d143f1fae8f4c36", "fusion_lon": 0.0, "rental_uris": {"android": "https://dc.lft.to/lastmile_qr_scan", "ios": "https://dc.lft.to/lastmile_qr_scan"}, "name": "0da2a2abdc58a2433d143f1fae8f4c36", "type": "electric_scooter", "lat": 38.90569466666667, "is_disabled": 0}, {"fusion_lat": 0.0, "lon": -77.02945416666667, "is_reserved": 0, "bike_id": "79c53ec7e751e53c67ca4dc358d7b08f", "fusion_lon": 0.0, "rental_uris": {"android": "https://dc.lft.to/lastmile_qr_scan", "ios": "https://dc.lft.to/lastmile_qr_scan"}, "name": "79c53ec7e751e53c67ca4dc358d7b08f", "type": "electric_scooter", "lat": 38.920783666666665, "is_disabled": 0}, {"fusion_lat": 0.0, "lon": -77.01153666666667, "is_reserved": 0, "bike_id": "11b4228c5365f91be4629b5082da1c66", "fusion_lon": 0.0, "rental_uris": {"android": "https://dc.lft.to/lastmile_qr_scan", "ios": "https://dc.lft.to/lastmile_qr_scan"}, "name": "11b4228c5365f91be4629b5082da1c66", "type": "electric_scooter", "lat": 38.9110345, "is_disabled": 0}, {"fusion_lat": 0.0, "lon": -77.05024616666667, "is_reserved": 0, "bike_id": "5d11a51f0cf77de3f7700ffdeabe37a3", "fusion_lon": 0.0, "rental_uris": {"android": "https://dc.lft.to/lastmile_qr_scan", "ios": "https://dc.lft.to/lastmile_qr_scan"}, "name": "5d11a51f0cf77de3f7700ffdeabe37a3", "type": "electric_scooter", "lat": 38.923581166666665, "is_disabled": 0}, {"fusion_lat": 0.0, "lon": -76.94800766666667, "is_reserved": 0, "bike_id": "b1618460bf9f0de24bd51a8dae7fad2a", "fusion_lon": 0.0, "rental_uris": {"android": "https://dc.lft.to/lastmile_qr_scan", "ios": "https://dc.lft.to/lastmile_qr_scan"}, "name": "b1618460bf9f0de24bd51a8dae7fad2a", "type": "electric_bike", "lat": 38.861917166666665, "is_disabled": 0}, {"fusion_lat": 0.0, "lon": -77.0472075, "is_reserved": 0, "bike_id": "ff438d70a09594f58986ef8f4c0d51f8", "fusion_lon": 0.0, "rental_uris": {"android": "https://dc.lft.to/lastmile_qr_scan", "ios": "https://dc.lft.to/lastmile_qr_scan"}, "name": "ff438d70a09594f58986ef8f4c0d51f8", "type": "electric_scooter", "lat": 38.92200916666667, "is_disabled": 0}, {"fusion_lat": 0.0, "lon": -77.003409, "is_reserved": 0, "bike_id": "9044a7f651717a94f3d298ef6d67e806", "fusion_lon": 0.0, "rental_uris": {"android": "https://dc.lft.to/lastmile_qr_scan", "ios": "https://dc.lft.to/lastmile_qr_scan"}, "name": "9044a7f651717a94f3d298ef6d67e806", "type": "electric_scooter", "lat": 38.88985783333333, "is_disabled": 0}, {"fusion_lat": 0.0, "lon": -76.99524933333333, "is_reserved": 0, "bike_id": "51368c2da5edadcfae2ac843d5d6c9e4", "fusion_lon": 0.0, "rental_uris": {"android": "https://dc.lft.to/lastmile_qr_scan", "ios": "https://dc.lft.to/lastmile_qr_scan"}, "name": "51368c2da5edadcfae2ac843d5d6c9e4", "type": "electric_scooter", "lat": 38.89609, "is_disabled": 0}, {"fusion_lat": 0.0, "lon": -77.02984016666667, "is_reserved": 0, "bike_id": "b65c9e1a7d7ab45801e2f240c64a34fe", "fusion_lon": 0.0, "rental_uris": {"android": "https://dc.lft.to/lastmile_qr_scan", "ios": "https://dc.lft.to/lastmile_qr_scan"}, "name": "b65c9e1a7d7ab45801e2f240c64a34fe", "type": "electric_scooter", "lat": 38.90737766666667, "is_disabled": 0}, {"fusion_lat": 0.0, "lon": -77.02191833333333, "is_reserved": 0, "bike_id": "e980be8df594d13514a14fd2870c6bd3", "fusion_lon": 0.0, "rental_uris": {"android": "https://dc.lft.to/lastmile_qr_scan", "ios": "https://dc.lft.to/lastmile_qr_scan"}, "name": "e980be8df594d13514a14fd2870c6bd3", "type": "electric_scooter", "lat": 38.89508683333333, "is_disabled": 0}, {"fusion_lat": 0.0, "lon": -77.04522816666666, "is_reserved": 0, "bike_id": "74e679f81e965e948856c64d1a1a2fc8", "fusion_lon": 0.0, "rental_uris": {"android": "https://dc.lft.to/lastmile_qr_scan", "ios": "https://dc.lft.to/lastmile_qr_scan"}, "name": "74e679f81e965e948856c64d1a1a2fc8", "type": "electric_bike", "lat": 38.9419455, "is_disabled": 0}, {"fusion_lat": 0.0, "lon": -77.03422616666667, "is_reserved": 0, "bike_id": "8a99caa0c38ba999a27d180299e241b1", "fusion_lon": 0.0, "rental_uris": {"android": "https://dc.lft.to/lastmile_qr_scan", "ios": "https://dc.lft.to/lastmile_qr_scan"}, "name": "8a99caa0c38ba999a27d180299e241b1", "type": "electric_scooter", "lat": 38.909575333333336, "is_disabled": 0}, {"fusion_lat": 0.0, "lon": -77.03391683333334, "is_reserved": 0, "bike_id": "a5e214ee9a9045946cdce7344a1fe3cc", "fusion_lon": 0.0, "rental_uris": {"android": "https://dc.lft.to/lastmile_qr_scan", "ios": "https://dc.lft.to/lastmile_qr_scan"}, "name": "a5e214ee9a9045946cdce7344a1fe3cc", "type": "electric_scooter", "lat": 38.938810833333335, "is_disabled": 0}, {"fusion_lat": 0.0, "lon": -76.997856, "is_reserved": 0, "bike_id": "e0a0fa2c7d68d2862f6e15ea684d11fc", "fusion_lon": 0.0, "rental_uris": {"android": "https://dc.lft.to/lastmile_qr_scan", "ios": "https://dc.lft.to/lastmile_qr_scan"}, "name": "e0a0fa2c7d68d2862f6e15ea684d11fc", "type": "electric_scooter", "lat": 38.8442895, "is_disabled": 0}, {"fusion_lat": 0.0, "lon": -77.03846383333334, "is_reserved": 0, "bike_id": "b1cab112854ec6f5411493bd26e999c2", "fusion_lon": 0.0, "rental_uris": {"android": "https://dc.lft.to/lastmile_qr_scan", "ios": "https://dc.lft.to/lastmile_qr_scan"}, "name": "b1cab112854ec6f5411493bd26e999c2", "type": "electric_scooter", "lat": 38.917363333333334, "is_disabled": 0}, {"fusion_lat": 0.0, "lon": -77.02109966666667, "is_reserved": 0, "bike_id": "1e6e985fa6df375dfb8858337f67e198", "fusion_lon": 0.0, "rental_uris": {"android": "https://dc.lft.to/lastmile_qr_scan", "ios": "https://dc.lft.to/lastmile_qr_scan"}, "name": "1e6e985fa6df375dfb8858337f67e198", "type": "electric_scooter", "lat": 38.8946625, "is_disabled": 0}, {"fusion_lat": 0.0, "lon": -77.00125766666666, "is_reserved": 0, "bike_id": "6541a245ec4be50d7a715bc5642f7655", "fusion_lon": 0.0, "rental_uris": {"android": "https://dc.lft.to/lastmile_qr_scan", "ios": "https://dc.lft.to/lastmile_qr_scan"}, "name": "6541a245ec4be50d7a715bc5642f7655", "type": "electric_scooter", "lat": 38.9050005, "is_disabled": 0}, {"fusion_lat": 0.0, "lon": -77.04322266666667, "is_reserved": 0, "bike_id": "321ff725ecd341f55d1cd5c2e6996f09", "fusion_lon": 0.0, "rental_uris": {"android": "https://dc.lft.to/lastmile_qr_scan", "ios": "https://dc.lft.to/lastmile_qr_scan"}, "name": "321ff725ecd341f55d1cd5c2e6996f09", "type": "electric_scooter", "lat": 38.92304816666667, "is_disabled": 0}, {"fusion_lat": 0.0, "lon": -77.03266216666667, "is_reserved": 0, "bike_id": "c440aaba592e329598d2b1267081f3d9", "fusion_lon": 0.0, "rental_uris": {"android": "https://dc.lft.to/lastmile_qr_scan", "ios": "https://dc.lft.to/lastmile_qr_scan"}, "name": "c440aaba592e329598d2b1267081f3d9", "type": "electric_scooter", "lat": 38.92737616666667, "is_disabled": 0}, {"fusion_lat": 0.0, "lon": -76.99861733333333, "is_reserved": 0, "bike_id": "857123d403f4e28fdcb8ac6b12f32900", "fusion_lon": 0.0, "rental_uris": {"android": "https://dc.lft.to/lastmile_qr_scan", "ios": "https://dc.lft.to/lastmile_qr_scan"}, "name": "857123d403f4e28fdcb8ac6b12f32900", "type": "electric_scooter", "lat": 38.894126, "is_disabled": 0}, {"fusion_lat": 0.0, "lon": -77.02455183333333, "is_reserved": 0, "bike_id": "4799f4af89b858099b74b45ad8b1cae6", "fusion_lon": 0.0, "rental_uris": {"android": "https://dc.lft.to/lastmile_qr_scan", "ios": "https://dc.lft.to/lastmile_qr_scan"}, "name": "4799f4af89b858099b74b45ad8b1cae6", "type": "electric_scooter", "lat": 38.897255333333334, "is_disabled": 0}, {"fusion_lat": 0.0, "lon": -77.04979833333333, "is_reserved": 0, "bike_id": "1837301ab4b0e52f28897fedc267e056", "fusion_lon": 0.0, "rental_uris": {"android": "https://dc.lft.to/lastmile_qr_scan", "ios": "https://dc.lft.to/lastmile_qr_scan"}, "name": "1837301ab4b0e52f28897fedc267e056", "type": "electric_bike", "lat": 39.0629475, "is_disabled": 0}, {"fusion_lat": 0.0, "lon": -77.0432765, "is_reserved": 0, "bike_id": "e6f2aaa0a7f5a935e2d1a7651b522e7d", "fusion_lon": 0.0, "rental_uris": {"android": "https://dc.lft.to/lastmile_qr_scan", "ios": "https://dc.lft.to/lastmile_qr_scan"}, "name": "e6f2aaa0a7f5a935e2d1a7651b522e7d", "type": "electric_scooter", "lat": 38.892216, "is_disabled": 0}, {"fusion_lat": 0.0, "lon": -77.030355, "is_reserved": 0, "bike_id": "fc331c9691cc11e2a6ea5294076ee970", "fusion_lon": 0.0, "rental_uris": {"android": "https://dc.lft.to/lastmile_qr_scan", "ios": "https://dc.lft.to/lastmile_qr_scan"}, "name": "fc331c9691cc11e2a6ea5294076ee970", "type": "electric_scooter", "lat": 38.89839966666667, "is_disabled": 0}, {"fusion_lat": 0.0, "lon": -76.937648, "is_reserved": 0, "bike_id": "3ca8549a86e192f0264f1d44e6164ef1", "fusion_lon": 0.0, "rental_uris": {"android": "https://dc.lft.to/lastmile_qr_scan", "ios": "https://dc.lft.to/lastmile_qr_scan"}, "name": "3ca8549a86e192f0264f1d44e6164ef1", "type": "electric_scooter", "lat": 38.878601, "is_disabled": 0}, {"fusion_lat": 0.0, "lon": -77.03292983333333, "is_reserved": 0, "bike_id": "08e0f1d06c2055eb488826ed47fe215f", "fusion_lon": 0.0, "rental_uris": {"android": "https://dc.lft.to/lastmile_qr_scan", "ios": "https://dc.lft.to/lastmile_qr_scan"}, "name": "08e0f1d06c2055eb488826ed47fe215f", "type": "electric_scooter", "lat": 38.95630966666667, "is_disabled": 0}, {"fusion_lat": 0.0, "lon": -76.9425475, "is_reserved": 0, "bike_id": "c95b8cb8b2596a6d5685e76064609a96", "fusion_lon": 0.0, "rental_uris": {"android": "https://dc.lft.to/lastmile_qr_scan", "ios": "https://dc.lft.to/lastmile_qr_scan"}, "name": "c95b8cb8b2596a6d5685e76064609a96", "type": "electric_scooter", "lat": 38.896717, "is_disabled": 0}, {"fusion_lat": 0.0, "lon": -76.94614633333333, "is_reserved": 0, "bike_id": "0dd3c603763d0f1dd9be9004df03ccc7", "fusion_lon": 0.0, "rental_uris": {"android": "https://dc.lft.to/lastmile_qr_scan", "ios": "https://dc.lft.to/lastmile_qr_scan"}, "name": "0dd3c603763d0f1dd9be9004df03ccc7", "type": "electric_bike", "lat": 38.8323355, "is_disabled": 0}, {"fusion_lat": 0.0, "lon": -77.01311266666667, "is_reserved": 0, "bike_id": "5a0907d017f720cfba1f64e3cb1750ad", "fusion_lon": 0.0, "rental_uris": {"android": "https://dc.lft.to/lastmile_qr_scan", "ios": "https://dc.lft.to/lastmile_qr_scan"}, "name": "5a0907d017f720cfba1f64e3cb1750ad", "type": "electric_scooter", "lat": 38.91034116666667, "is_disabled": 0}, {"fusion_lat": 0.0, "lon": -77.02964933333334, "is_reserved": 0, "bike_id": "4c8b7c132293380ce3685b1c1a264e4f", "fusion_lon": 0.0, "rental_uris": {"android": "https://dc.lft.to/lastmile_qr_scan", "ios": "https://dc.lft.to/lastmile_qr_scan"}, "name": "4c8b7c132293380ce3685b1c1a264e4f", "type": "electric_scooter", "lat": 38.92567283333333, "is_disabled": 0}, {"fusion_lat": 0.0, "lon": -77.06398633333333, "is_reserved": 0, "bike_id": "d4244530dcb38aafdd71190e7682ecf0", "fusion_lon": 0.0, "rental_uris": {"android": "https://dc.lft.to/lastmile_qr_scan", "ios": "https://dc.lft.to/lastmile_qr_scan"}, "name": "d4244530dcb38aafdd71190e7682ecf0", "type": "electric_scooter", "lat": 38.9432595, "is_disabled": 0}, {"fusion_lat": 0.0, "lon": -77.03839383333333, "is_reserved": 0, "bike_id": "4db0d9d1002a55d84db7d98dac639fa3", "fusion_lon": 0.0, "rental_uris": {"android": "https://dc.lft.to/lastmile_qr_scan", "ios": "https://dc.lft.to/lastmile_qr_scan"}, "name": "4db0d9d1002a55d84db7d98dac639fa3", "type": "electric_scooter", "lat": 38.911904, "is_disabled": 0}, {"fusion_lat": 0.0, "lon": -77.02599616666667, "is_reserved": 0, "bike_id": "fed8a6b660486667b81fd2545f29f830", "fusion_lon": 0.0, "rental_uris": {"android": "https://dc.lft.to/lastmile_qr_scan", "ios": "https://dc.lft.to/lastmile_qr_scan"}, "name": "fed8a6b660486667b81fd2545f29f830", "type": "electric_scooter", "lat": 38.90512833333333, "is_disabled": 0}, {"fusion_lat": 0.0, "lon": -76.937378, "is_reserved": 0, "bike_id": "11ebfe2dd09587d96fea42e9c96619ea", "fusion_lon": 0.0, "rental_uris": {"android": "https://dc.lft.to/lastmile_qr_scan", "ios": "https://dc.lft.to/lastmile_qr_scan"}, "name": "11ebfe2dd09587d96fea42e9c96619ea", "type": "electric_scooter", "lat": 38.89018016666667, "is_disabled": 0}, {"fusion_lat": 0.0, "lon": -76.99029116666667, "is_reserved": 0, "bike_id": "2b4a1157b677738655769348a84baf62", "fusion_lon": 0.0, "rental_uris": {"android": "https://dc.lft.to/lastmile_qr_scan", "ios": "https://dc.lft.to/lastmile_qr_scan"}, "name": "2b4a1157b677738655769348a84baf62", "type": "electric_scooter", "lat": 38.90291033333333, "is_disabled": 0}, {"fusion_lat": 0.0, "lon": -77.03405766666667, "is_reserved": 0, "bike_id": "c58824498c86556a87d77cb1a8d81792", "fusion_lon": 0.0, "rental_uris": {"android": "https://dc.lft.to/lastmile_qr_scan", "ios": "https://dc.lft.to/lastmile_qr_scan"}, "name": "c58824498c86556a87d77cb1a8d81792", "type": "electric_scooter", "lat": 38.909722333333335, "is_disabled": 0}, {"fusion_lat": 0.0, "lon": -77.08578916666667, "is_reserved": 0, "bike_id": "1db9fe3bc696ed55caa271f0c9cbb291", "fusion_lon": 0.0, "rental_uris": {"android": "https://dc.lft.to/lastmile_qr_scan", "ios": "https://dc.lft.to/lastmile_qr_scan"}, "name": "1db9fe3bc696ed55caa271f0c9cbb291", "type": "electric_bike", "lat": 38.84427733333333, "is_disabled": 0}, {"fusion_lat": 0.0, "lon": -77.00599016666666, "is_reserved": 0, "bike_id": "a618eb0ec4f1cf1c2a6b400302495825", "fusion_lon": 0.0, "rental_uris": {"android": "https://dc.lft.to/lastmile_qr_scan", "ios": "https://dc.lft.to/lastmile_qr_scan"}, "name": "a618eb0ec4f1cf1c2a6b400302495825", "type": "electric_scooter", "lat": 38.8851605, "is_disabled": 0}, {"fusion_lat": 0.0, "lon": -76.99038083333333, "is_reserved": 0, "bike_id": "5c9479bf3e6dbfd59db7a2f990b00baf", "fusion_lon": 0.0, "rental_uris": {"android": "https://dc.lft.to/lastmile_qr_scan", "ios": "https://dc.lft.to/lastmile_qr_scan"}, "name": "5c9479bf3e6dbfd59db7a2f990b00baf", "type": "electric_scooter", "lat": 38.86381133333333, "is_disabled": 0}, {"fusion_lat": 0.0, "lon": -77.04103433333333, "is_reserved": 0, "bike_id": "202027bcd48a38e8892e97c6a52b65f5", "fusion_lon": 0.0, "rental_uris": {"android": "https://dc.lft.to/lastmile_qr_scan", "ios": "https://dc.lft.to/lastmile_qr_scan"}, "name": "202027bcd48a38e8892e97c6a52b65f5", "type": "electric_scooter", "lat": 38.91776016666667, "is_disabled": 0}, {"fusion_lat": 0.0, "lon": -76.98974966666667, "is_reserved": 0, "bike_id": "14b929e6f147a2edd1bf443edd7cbc1d", "fusion_lon": 0.0, "rental_uris": {"android": "https://dc.lft.to/lastmile_qr_scan", "ios": "https://dc.lft.to/lastmile_qr_scan"}, "name": "14b929e6f147a2edd1bf443edd7cbc1d", "type": "electric_bike", "lat": 38.9175315, "is_disabled": 0}, {"fusion_lat": 0.0, "lon": -76.99939416666666, "is_reserved": 0, "bike_id": "26545adff0d436acaf87958b1ae4314e", "fusion_lon": 0.0, "rental_uris": {"android": "https://dc.lft.to/lastmile_qr_scan", "ios": "https://dc.lft.to/lastmile_qr_scan"}, "name": "26545adff0d436acaf87958b1ae4314e", "type": "electric_scooter", "lat": 38.896384, "is_disabled": 0}, {"fusion_lat": 0.0, "lon": -77.04320683333333, "is_reserved": 0, "bike_id": "c789b1efb3178450936e212231435db1", "fusion_lon": 0.0, "rental_uris": {"android": "https://dc.lft.to/lastmile_qr_scan", "ios": "https://dc.lft.to/lastmile_qr_scan"}, "name": "c789b1efb3178450936e212231435db1", "type": "electric_scooter", "lat": 38.92654983333333, "is_disabled": 0}, {"fusion_lat": 0.0, "lon": -77.035978, "is_reserved": 0, "bike_id": "c0d673b77a4588f5b606cb8823e14def", "fusion_lon": 0.0, "rental_uris": {"android": "https://dc.lft.to/lastmile_qr_scan", "ios": "https://dc.lft.to/lastmile_qr_scan"}, "name": "c0d673b77a4588f5b606cb8823e14def", "type": "electric_scooter", "lat": 38.91758933333333, "is_disabled": 0}, {"fusion_lat": 0.0, "lon": -77.048168, "is_reserved": 0, "bike_id": "f9231ddea66c1e90a34bece2c86b7d1d", "fusion_lon": 0.0, "rental_uris": {"android": "https://dc.lft.to/lastmile_qr_scan", "ios": "https://dc.lft.to/lastmile_qr_scan"}, "name": "f9231ddea66c1e90a34bece2c86b7d1d", "type": "electric_scooter", "lat": 38.92045, "is_disabled": 0}, {"fusion_lat": 0.0, "lon": -76.93737183333333, "is_reserved": 0, "bike_id": "52f9d48d9b747469b315e789321eedc5", "fusion_lon": 0.0, "rental_uris": {"android": "https://dc.lft.to/lastmile_qr_scan", "ios": "https://dc.lft.to/lastmile_qr_scan"}, "name": "52f9d48d9b747469b315e789321eedc5", "type": "electric_scooter", "lat": 38.89016516666667, "is_disabled": 0}, {"fusion_lat": 0.0, "lon": -77.04738433333333, "is_reserved": 0, "bike_id": "2ca4611eb83b7c25dfd37c1553db24ff", "fusion_lon": 0.0, "rental_uris": {"android": "https://dc.lft.to/lastmile_qr_scan", "ios": "https://dc.lft.to/lastmile_qr_scan"}, "name": "2ca4611eb83b7c25dfd37c1553db24ff", "type": "electric_scooter", "lat": 38.91257683333333, "is_disabled": 0}, {"fusion_lat": 0.0, "lon": -76.98887016666667, "is_reserved": 0, "bike_id": "6b38250e9ec9216e693987247f335e11", "fusion_lon": 0.0, "rental_uris": {"android": "https://dc.lft.to/lastmile_qr_scan", "ios": "https://dc.lft.to/lastmile_qr_scan"}, "name": "6b38250e9ec9216e693987247f335e11", "type": "electric_scooter", "lat": 38.866402, "is_disabled": 0}, {"fusion_lat": 0.0, "lon": -77.01823266666666, "is_reserved": 0, "bike_id": "f5b0467c3e0eb993e84a35fa14086fe8", "fusion_lon": 0.0, "rental_uris": {"android": "https://dc.lft.to/lastmile_qr_scan", "ios": "https://dc.lft.to/lastmile_qr_scan"}, "name": "f5b0467c3e0eb993e84a35fa14086fe8", "type": "electric_scooter", "lat": 38.901437333333334, "is_disabled": 0}, {"fusion_lat": 0.0, "lon": -77.00176766666667, "is_reserved": 0, "bike_id": "659b26a155d19e9eb9c939786f207d01", "fusion_lon": 0.0, "rental_uris": {"android": "https://dc.lft.to/lastmile_qr_scan", "ios": "https://dc.lft.to/lastmile_qr_scan"}, "name": "659b26a155d19e9eb9c939786f207d01", "type": "electric_scooter", "lat": 38.90750666666667, "is_disabled": 0}, {"fusion_lat": 0.0, "lon": -77.04054966666666, "is_reserved": 0, "bike_id": "511a405aad6cff41eaff7d7e3a3ed236", "fusion_lon": 0.0, "rental_uris": {"android": "https://dc.lft.to/lastmile_qr_scan", "ios": "https://dc.lft.to/lastmile_qr_scan"}, "name": "511a405aad6cff41eaff7d7e3a3ed236", "type": "electric_scooter", "lat": 38.918670666666664, "is_disabled": 0}, {"fusion_lat": 0.0, "lon": -77.003786, "is_reserved": 0, "bike_id": "43d8b2085cc95a7b2dea6e1bb4224518", "fusion_lon": 0.0, "rental_uris": {"android": "https://dc.lft.to/lastmile_qr_scan", "ios": "https://dc.lft.to/lastmile_qr_scan"}, "name": "43d8b2085cc95a7b2dea6e1bb4224518", "type": "electric_bike", "lat": 38.836079, "is_disabled": 0}, {"fusion_lat": 0.0, "lon": -77.03857883333333, "is_reserved": 0, "bike_id": "52c6177102284de21838f74ec2a055d7", "fusion_lon": 0.0, "rental_uris": {"android": "https://dc.lft.to/lastmile_qr_scan", "ios": "https://dc.lft.to/lastmile_qr_scan"}, "name": "52c6177102284de21838f74ec2a055d7", "type": "electric_scooter", "lat": 38.90666383333333, "is_disabled": 0}, {"fusion_lat": 0.0, "lon": -77.0325935, "is_reserved": 0, "bike_id": "1091e2eab6f01838dbe115a67fb07121", "fusion_lon": 0.0, "rental_uris": {"android": "https://dc.lft.to/lastmile_qr_scan", "ios": "https://dc.lft.to/lastmile_qr_scan"}, "name": "1091e2eab6f01838dbe115a67fb07121", "type": "electric_scooter", "lat": 38.93254733333333, "is_disabled": 0}, {"fusion_lat": 0.0, "lon": -77.0360325, "is_reserved": 0, "bike_id": "671c107289556e03724effb49f66802c", "fusion_lon": 0.0, "rental_uris": {"android": "https://dc.lft.to/lastmile_qr_scan", "ios": "https://dc.lft.to/lastmile_qr_scan"}, "name": "671c107289556e03724effb49f66802c", "type": "electric_scooter", "lat": 38.939354, "is_disabled": 0}, {"fusion_lat": 0.0, "lon": -76.97673616666667, "is_reserved": 0, "bike_id": "aff97d3bb1add6272293b18ce4a7c44e", "fusion_lon": 0.0, "rental_uris": {"android": "https://dc.lft.to/lastmile_qr_scan", "ios": "https://dc.lft.to/lastmile_qr_scan"}, "name": "aff97d3bb1add6272293b18ce4a7c44e", "type": "electric_bike", "lat": 38.9524435, "is_disabled": 0}, {"fusion_lat": 0.0, "lon": -77.03033283333333, "is_reserved": 0, "bike_id": "197d71d3f24848c144cf131fa84ee0f5", "fusion_lon": 0.0, "rental_uris": {"android": "https://dc.lft.to/lastmile_qr_scan", "ios": "https://dc.lft.to/lastmile_qr_scan"}, "name": "197d71d3f24848c144cf131fa84ee0f5", "type": "electric_scooter", "lat": 38.932211833333334, "is_disabled": 0}, {"fusion_lat": 0.0, "lon": -77.0309205, "is_reserved": 0, "bike_id": "f70c2aa42a0851ed379e132bf3b0a48e", "fusion_lon": 0.0, "rental_uris": {"android": "https://dc.lft.to/lastmile_qr_scan", "ios": "https://dc.lft.to/lastmile_qr_scan"}, "name": "f70c2aa42a0851ed379e132bf3b0a48e", "type": "electric_scooter", "lat": 38.927184, "is_disabled": 0}, {"fusion_lat": 0.0, "lon": -76.98802333333333, "is_reserved": 0, "bike_id": "a610fd2b73617407cdd4c0695b6a1ae7", "fusion_lon": 0.0, "rental_uris": {"android": "https://dc.lft.to/lastmile_qr_scan", "ios": "https://dc.lft.to/lastmile_qr_scan"}, "name": "a610fd2b73617407cdd4c0695b6a1ae7", "type": "electric_scooter", "lat": 38.8672505, "is_disabled": 0}, {"fusion_lat": 0.0, "lon": -77.02583766666666, "is_reserved": 0, "bike_id": "d5a3f042e009fce71310ed3289591e7b", "fusion_lon": 0.0, "rental_uris": {"android": "https://dc.lft.to/lastmile_qr_scan", "ios": "https://dc.lft.to/lastmile_qr_scan"}, "name": "d5a3f042e009fce71310ed3289591e7b", "type": "electric_scooter", "lat": 38.92055166666667, "is_disabled": 0}, {"fusion_lat": 0.0, "lon": -77.05566283333333, "is_reserved": 0, "bike_id": "215867b8aaf95affa5d5811895bf94f9", "fusion_lon": 0.0, "rental_uris": {"android": "https://dc.lft.to/lastmile_qr_scan", "ios": "https://dc.lft.to/lastmile_qr_scan"}, "name": "215867b8aaf95affa5d5811895bf94f9", "type": "electric_scooter", "lat": 38.909289, "is_disabled": 0}, {"fusion_lat": 0.0, "lon": -77.07921, "is_reserved": 0, "bike_id": "e544ddc68b9464e846a39483f4c276a7", "fusion_lon": 0.0, "rental_uris": {"android": "https://dc.lft.to/lastmile_qr_scan", "ios": "https://dc.lft.to/lastmile_qr_scan"}, "name": "e544ddc68b9464e846a39483f4c276a7", "type": "electric_scooter", "lat": 38.93113366666667, "is_disabled": 0}, {"fusion_lat": 0.0, "lon": -76.9830665, "is_reserved": 0, "bike_id": "79476195e8be17c625ae28441f6e2a2e", "fusion_lon": 0.0, "rental_uris": {"android": "https://dc.lft.to/lastmile_qr_scan", "ios": "https://dc.lft.to/lastmile_qr_scan"}, "name": "79476195e8be17c625ae28441f6e2a2e", "type": "electric_scooter", "lat": 38.90525983333333, "is_disabled": 0}, {"fusion_lat": 0.0, "lon": -77.02286533333333, "is_reserved": 0, "bike_id": "b268a69607d6a385f86b48f4a11a8aac", "fusion_lon": 0.0, "rental_uris": {"android": "https://dc.lft.to/lastmile_qr_scan", "ios": "https://dc.lft.to/lastmile_qr_scan"}, "name": "b268a69607d6a385f86b48f4a11a8aac", "type": "electric_scooter", "lat": 38.87892333333333, "is_disabled": 0}, {"fusion_lat": 0.0, "lon": -77.01943916666667, "is_reserved": 0, "bike_id": "2ab23055496772831f26c45a9f7bb154", "fusion_lon": 0.0, "rental_uris": {"android": "https://dc.lft.to/lastmile_qr_scan", "ios": "https://dc.lft.to/lastmile_qr_scan"}, "name": "2ab23055496772831f26c45a9f7bb154", "type": "electric_scooter", "lat": 38.924181, "is_disabled": 0}, {"fusion_lat": 0.0, "lon": -77.02997783333333, "is_reserved": 0, "bike_id": "b84d505dcd5e3eb6298d4146b8b58792", "fusion_lon": 0.0, "rental_uris": {"android": "https://dc.lft.to/lastmile_qr_scan", "ios": "https://dc.lft.to/lastmile_qr_scan"}, "name": "b84d505dcd5e3eb6298d4146b8b58792", "type": "electric_scooter", "lat": 38.92679783333333, "is_disabled": 0}, {"fusion_lat": 0.0, "lon": -76.98193516666667, "is_reserved": 0, "bike_id": "fced744ec3dd2647a516d58a7aa07607", "fusion_lon": 0.0, "rental_uris": {"android": "https://dc.lft.to/lastmile_qr_scan", "ios": "https://dc.lft.to/lastmile_qr_scan"}, "name": "fced744ec3dd2647a516d58a7aa07607", "type": "electric_scooter", "lat": 38.9028295, "is_disabled": 0}, {"fusion_lat": 0.0, "lon": -77.04000133333334, "is_reserved": 0, "bike_id": "c64f457e329df05d910cf9b54e2da4c8", "fusion_lon": 0.0, "rental_uris": {"android": "https://dc.lft.to/lastmile_qr_scan", "ios": "https://dc.lft.to/lastmile_qr_scan"}, "name": "c64f457e329df05d910cf9b54e2da4c8", "type": "electric_scooter", "lat": 38.914156, "is_disabled": 0}, {"fusion_lat": 0.0, "lon": -77.02505266666667, "is_reserved": 0, "bike_id": "edcf8719e3a72a32778730b373a75664", "fusion_lon": 0.0, "rental_uris": {"android": "https://dc.lft.to/lastmile_qr_scan", "ios": "https://dc.lft.to/lastmile_qr_scan"}, "name": "edcf8719e3a72a32778730b373a75664", "type": "electric_scooter", "lat": 38.94201783333333, "is_disabled": 0}, {"fusion_lat": 0.0, "lon": -77.03860933333333, "is_reserved": 0, "bike_id": "18ecf1ed08b5046b70c78d50b3242324", "fusion_lon": 0.0, "rental_uris": {"android": "https://dc.lft.to/lastmile_qr_scan", "ios": "https://dc.lft.to/lastmile_qr_scan"}, "name": "18ecf1ed08b5046b70c78d50b3242324", "type": "electric_scooter", "lat": 38.903752833333336, "is_disabled": 0}, {"fusion_lat": 0.0, "lon": -77.0018965, "is_reserved": 0, "bike_id": "f6c9bc393b09caae9d4f5ea354f07462", "fusion_lon": 0.0, "rental_uris": {"android": "https://dc.lft.to/lastmile_qr_scan", "ios": "https://dc.lft.to/lastmile_qr_scan"}, "name": "f6c9bc393b09caae9d4f5ea354f07462", "type": "electric_scooter", "lat": 38.894456166666664, "is_disabled": 0}, {"fusion_lat": 0.0, "lon": -77.0248335, "is_reserved": 0, "bike_id": "035e8cc50360955f3696ddf82d835f62", "fusion_lon": 0.0, "rental_uris": {"android": "https://dc.lft.to/lastmile_qr_scan", "ios": "https://dc.lft.to/lastmile_qr_scan"}, "name": "035e8cc50360955f3696ddf82d835f62", "type": "electric_scooter", "lat": 38.927488, "is_disabled": 0}, {"fusion_lat": 0.0, "lon": -77.03635283333334, "is_reserved": 0, "bike_id": "9a2533d611530313c5c50f1ed7012fb7", "fusion_lon": 0.0, "rental_uris": {"android": "https://dc.lft.to/lastmile_qr_scan", "ios": "https://dc.lft.to/lastmile_qr_scan"}, "name": "9a2533d611530313c5c50f1ed7012fb7", "type": "electric_scooter", "lat": 38.937155, "is_disabled": 0}, {"fusion_lat": 0.0, "lon": -77.04626866666666, "is_reserved": 0, "bike_id": "711c20109cb8b0b31167fc3789e94a60", "fusion_lon": 0.0, "rental_uris": {"android": "https://dc.lft.to/lastmile_qr_scan", "ios": "https://dc.lft.to/lastmile_qr_scan"}, "name": "711c20109cb8b0b31167fc3789e94a60", "type": "electric_scooter", "lat": 38.92313766666667, "is_disabled": 0}, {"fusion_lat": 0.0, "lon": -77.024453, "is_reserved": 0, "bike_id": "7f9ad8b057483fdc2d6efb63a0486b45", "fusion_lon": 0.0, "rental_uris": {"android": "https://dc.lft.to/lastmile_qr_scan", "ios": "https://dc.lft.to/lastmile_qr_scan"}, "name": "7f9ad8b057483fdc2d6efb63a0486b45", "type": "electric_scooter", "lat": 38.89719783333334, "is_disabled": 0}, {"fusion_lat": 0.0, "lon": -77.03256066666667, "is_reserved": 0, "bike_id": "0219fc1fd1a3642ccda375cbf3e579d2", "fusion_lon": 0.0, "rental_uris": {"android": "https://dc.lft.to/lastmile_qr_scan", "ios": "https://dc.lft.to/lastmile_qr_scan"}, "name": "0219fc1fd1a3642ccda375cbf3e579d2", "type": "electric_scooter", "lat": 38.92532516666667, "is_disabled": 0}, {"fusion_lat": 0.0, "lon": -77.03335316666667, "is_reserved": 0, "bike_id": "5c030705a2e544b1c44f5a7175aab694", "fusion_lon": 0.0, "rental_uris": {"android": "https://dc.lft.to/lastmile_qr_scan", "ios": "https://dc.lft.to/lastmile_qr_scan"}, "name": "5c030705a2e544b1c44f5a7175aab694", "type": "electric_scooter", "lat": 38.899923666666666, "is_disabled": 0}, {"fusion_lat": 0.0, "lon": -77.0152275, "is_reserved": 0, "bike_id": "13be47d12934fe5b08cefc10ea172cb0", "fusion_lon": 0.0, "rental_uris": {"android": "https://dc.lft.to/lastmile_qr_scan", "ios": "https://dc.lft.to/lastmile_qr_scan"}, "name": "13be47d12934fe5b08cefc10ea172cb0", "type": "electric_scooter", "lat": 38.88660483333334, "is_disabled": 0}, {"fusion_lat": 0.0, "lon": -77.04257683333333, "is_reserved": 0, "bike_id": "0723eb0384625108e6ac70397f96e2dd", "fusion_lon": 0.0, "rental_uris": {"android": "https://dc.lft.to/lastmile_qr_scan", "ios": "https://dc.lft.to/lastmile_qr_scan"}, "name": "0723eb0384625108e6ac70397f96e2dd", "type": "electric_scooter", "lat": 38.90852566666667, "is_disabled": 0}, {"fusion_lat": 0.0, "lon": -76.99153733333333, "is_reserved": 0, "bike_id": "7523a900ba2aee71a9d50231409651e8", "fusion_lon": 0.0, "rental_uris": {"android": "https://dc.lft.to/lastmile_qr_scan", "ios": "https://dc.lft.to/lastmile_qr_scan"}, "name": "7523a900ba2aee71a9d50231409651e8", "type": "electric_scooter", "lat": 38.863209499999996, "is_disabled": 0}, {"fusion_lat": 0.0, "lon": -77.0328745, "is_reserved": 0, "bike_id": "f7c3899244742e6f4615d10779cf414d", "fusion_lon": 0.0, "rental_uris": {"android": "https://dc.lft.to/lastmile_qr_scan", "ios": "https://dc.lft.to/lastmile_qr_scan"}, "name": "f7c3899244742e6f4615d10779cf414d", "type": "electric_scooter", "lat": 38.92057, "is_disabled": 0}, {"fusion_lat": 0.0, "lon": -77.04621166666666, "is_reserved": 0, "bike_id": "357515b49b45f6ef6b45e369d4358232", "fusion_lon": 0.0, "rental_uris": {"android": "https://dc.lft.to/lastmile_qr_scan", "ios": "https://dc.lft.to/lastmile_qr_scan"}, "name": "357515b49b45f6ef6b45e369d4358232", "type": "electric_scooter", "lat": 38.9161205, "is_disabled": 0}, {"fusion_lat": 0.0, "lon": -77.01982433333333, "is_reserved": 0, "bike_id": "90302686e34e1f2bceac4fb128ea5d06", "fusion_lon": 0.0, "rental_uris": {"android": "https://dc.lft.to/lastmile_qr_scan", "ios": "https://dc.lft.to/lastmile_qr_scan"}, "name": "90302686e34e1f2bceac4fb128ea5d06", "type": "electric_scooter", "lat": 38.88720566666667, "is_disabled": 0}, {"fusion_lat": 0.0, "lon": -77.04464666666667, "is_reserved": 0, "bike_id": "d7eebc5cd31d8a7a2e5368d47d17e629", "fusion_lon": 0.0, "rental_uris": {"android": "https://dc.lft.to/lastmile_qr_scan", "ios": "https://dc.lft.to/lastmile_qr_scan"}, "name": "d7eebc5cd31d8a7a2e5368d47d17e629", "type": "electric_scooter", "lat": 38.92395633333334, "is_disabled": 0}, {"fusion_lat": 0.0, "lon": -77.04293133333333, "is_reserved": 0, "bike_id": "23ad1549509fe6ea97b321535ac336ff", "fusion_lon": 0.0, "rental_uris": {"android": "https://dc.lft.to/lastmile_qr_scan", "ios": "https://dc.lft.to/lastmile_qr_scan"}, "name": "23ad1549509fe6ea97b321535ac336ff", "type": "electric_scooter", "lat": 38.91660433333333, "is_disabled": 0}, {"fusion_lat": 0.0, "lon": -77.026575, "is_reserved": 0, "bike_id": "f42c0bd159fe5274e9bd81d20e92dd16", "fusion_lon": 0.0, "rental_uris": {"android": "https://dc.lft.to/lastmile_qr_scan", "ios": "https://dc.lft.to/lastmile_qr_scan"}, "name": "f42c0bd159fe5274e9bd81d20e92dd16", "type": "electric_scooter", "lat": 38.892225333333336, "is_disabled": 0}, {"fusion_lat": 0.0, "lon": -77.03180116666667, "is_reserved": 0, "bike_id": "4e9809d2019f0814c4fa8641f647f740", "fusion_lon": 0.0, "rental_uris": {"android": "https://dc.lft.to/lastmile_qr_scan", "ios": "https://dc.lft.to/lastmile_qr_scan"}, "name": "4e9809d2019f0814c4fa8641f647f740", "type": "electric_scooter", "lat": 38.91567783333333, "is_disabled": 0}, {"fusion_lat": 0.0, "lon": -77.03077633333334, "is_reserved": 0, "bike_id": "6b8861c7079a652a66cce055011e5df1", "fusion_lon": 0.0, "rental_uris": {"android": "https://dc.lft.to/lastmile_qr_scan", "ios": "https://dc.lft.to/lastmile_qr_scan"}, "name": "6b8861c7079a652a66cce055011e5df1", "type": "electric_scooter", "lat": 38.9075205, "is_disabled": 0}, {"fusion_lat": 0.0, "lon": -77.0020785, "is_reserved": 0, "bike_id": "156e3dd96c7c0f469f1455bae56426c6", "fusion_lon": 0.0, "rental_uris": {"android": "https://dc.lft.to/lastmile_qr_scan", "ios": "https://dc.lft.to/lastmile_qr_scan"}, "name": "156e3dd96c7c0f469f1455bae56426c6", "type": "electric_scooter", "lat": 38.8954205, "is_disabled": 0}, {"fusion_lat": 0.0, "lon": -77.06304483333334, "is_reserved": 0, "bike_id": "16e14bc1864d32a269e9f2dbd7d063eb", "fusion_lon": 0.0, "rental_uris": {"android": "https://dc.lft.to/lastmile_qr_scan", "ios": "https://dc.lft.to/lastmile_qr_scan"}, "name": "16e14bc1864d32a269e9f2dbd7d063eb", "type": "electric_scooter", "lat": 38.943442166666664, "is_disabled": 0}, {"fusion_lat": 0.0, "lon": -77.00371516666667, "is_reserved": 0, "bike_id": "7e150b801aa6c7844bc4b4105160820e", "fusion_lon": 0.0, "rental_uris": {"android": "https://dc.lft.to/lastmile_qr_scan", "ios": "https://dc.lft.to/lastmile_qr_scan"}, "name": "7e150b801aa6c7844bc4b4105160820e", "type": "electric_scooter", "lat": 38.897303666666666, "is_disabled": 0}, {"fusion_lat": 0.0, "lon": -77.02175566666666, "is_reserved": 0, "bike_id": "56d10540bc8ad347295c9d28f9eccc07", "fusion_lon": 0.0, "rental_uris": {"android": "https://dc.lft.to/lastmile_qr_scan", "ios": "https://dc.lft.to/lastmile_qr_scan"}, "name": "56d10540bc8ad347295c9d28f9eccc07", "type": "electric_scooter", "lat": 38.919929833333335, "is_disabled": 0}, {"fusion_lat": 0.0, "lon": -77.04324, "is_reserved": 0, "bike_id": "63e683b5944d7e01d01b1396be1af419", "fusion_lon": 0.0, "rental_uris": {"android": "https://dc.lft.to/lastmile_qr_scan", "ios": "https://dc.lft.to/lastmile_qr_scan"}, "name": "63e683b5944d7e01d01b1396be1af419", "type": "electric_scooter", "lat": 38.90878583333333, "is_disabled": 0}, {"fusion_lat": 0.0, "lon": -77.03338883333333, "is_reserved": 0, "bike_id": "121a0500f0d042e87ec9ef49e5f34c60", "fusion_lon": 0.0, "rental_uris": {"android": "https://dc.lft.to/lastmile_qr_scan", "ios": "https://dc.lft.to/lastmile_qr_scan"}, "name": "121a0500f0d042e87ec9ef49e5f34c60", "type": "electric_scooter", "lat": 38.916965833333336, "is_disabled": 0}, {"fusion_lat": 0.0, "lon": -76.98697233333333, "is_reserved": 0, "bike_id": "2689c1d512ade860b0b1255c2b883e20", "fusion_lon": 0.0, "rental_uris": {"android": "https://dc.lft.to/lastmile_qr_scan", "ios": "https://dc.lft.to/lastmile_qr_scan"}, "name": "2689c1d512ade860b0b1255c2b883e20", "type": "electric_scooter", "lat": 38.86251333333333, "is_disabled": 0}, {"fusion_lat": 0.0, "lon": -77.04329966666667, "is_reserved": 0, "bike_id": "a4be7b914befd38ad6f61bec6f53e850", "fusion_lon": 0.0, "rental_uris": {"android": "https://dc.lft.to/lastmile_qr_scan", "ios": "https://dc.lft.to/lastmile_qr_scan"}, "name": "a4be7b914befd38ad6f61bec6f53e850", "type": "electric_scooter", "lat": 38.892234, "is_disabled": 0}, {"fusion_lat": 0.0, "lon": -77.03267716666667, "is_reserved": 0, "bike_id": "69e19b74adddfff49d979187b6eb3a20", "fusion_lon": 0.0, "rental_uris": {"android": "https://dc.lft.to/lastmile_qr_scan", "ios": "https://dc.lft.to/lastmile_qr_scan"}, "name": "69e19b74adddfff49d979187b6eb3a20", "type": "electric_scooter", "lat": 38.90267383333333, "is_disabled": 0}, {"fusion_lat": 0.0, "lon": -77.00296216666666, "is_reserved": 0, "bike_id": "e839fad8ac194db562db2a0ece76a624", "fusion_lon": 0.0, "rental_uris": {"android": "https://dc.lft.to/lastmile_qr_scan", "ios": "https://dc.lft.to/lastmile_qr_scan"}, "name": "e839fad8ac194db562db2a0ece76a624", "type": "electric_scooter", "lat": 38.89492933333333, "is_disabled": 0}, {"fusion_lat": 0.0, "lon": -77.00048766666667, "is_reserved": 0, "bike_id": "7408fd6c8fc65bc763fde8842ab8c1e2", "fusion_lon": 0.0, "rental_uris": {"android": "https://dc.lft.to/lastmile_qr_scan", "ios": "https://dc.lft.to/lastmile_qr_scan"}, "name": "7408fd6c8fc65bc763fde8842ab8c1e2", "type": "electric_scooter", "lat": 38.90011166666667, "is_disabled": 0}, {"fusion_lat": 0.0, "lon": -76.9733215, "is_reserved": 0, "bike_id": "3431d75fe3ab26f31769e79c5f5e0f2b", "fusion_lon": 0.0, "rental_uris": {"android": "https://dc.lft.to/lastmile_qr_scan", "ios": "https://dc.lft.to/lastmile_qr_scan"}, "name": "3431d75fe3ab26f31769e79c5f5e0f2b", "type": "electric_scooter", "lat": 38.90409833333333, "is_disabled": 0}, {"fusion_lat": 0.0, "lon": -76.9936565, "is_reserved": 0, "bike_id": "1c1e43995174e16d878f364a52ea3620", "fusion_lon": 0.0, "rental_uris": {"android": "https://dc.lft.to/lastmile_qr_scan", "ios": "https://dc.lft.to/lastmile_qr_scan"}, "name": "1c1e43995174e16d878f364a52ea3620", "type": "electric_scooter", "lat": 38.92840833333333, "is_disabled": 0}, {"fusion_lat": 0.0, "lon": -77.022908, "is_reserved": 0, "bike_id": "434618d3e0680a945c8502009bc0fa34", "fusion_lon": 0.0, "rental_uris": {"android": "https://dc.lft.to/lastmile_qr_scan", "ios": "https://dc.lft.to/lastmile_qr_scan"}, "name": "434618d3e0680a945c8502009bc0fa34", "type": "electric_scooter", "lat": 38.901615666666665, "is_disabled": 0}, {"fusion_lat": 0.0, "lon": -77.0306375, "is_reserved": 0, "bike_id": "e1ac7a6ac30bc529d0e7ba424d3455cc", "fusion_lon": 0.0, "rental_uris": {"android": "https://dc.lft.to/lastmile_qr_scan", "ios": "https://dc.lft.to/lastmile_qr_scan"}, "name": "e1ac7a6ac30bc529d0e7ba424d3455cc", "type": "electric_scooter", "lat": 38.92243083333334, "is_disabled": 0}, {"fusion_lat": 0.0, "lon": -76.936431, "is_reserved": 0, "bike_id": "b78b056e00def455f521fdd7f325673f", "fusion_lon": 0.0, "rental_uris": {"android": "https://dc.lft.to/lastmile_qr_scan", "ios": "https://dc.lft.to/lastmile_qr_scan"}, "name": "b78b056e00def455f521fdd7f325673f", "type": "electric_scooter", "lat": 38.90066183333333, "is_disabled": 0}, {"fusion_lat": 0.0, "lon": -77.04670883333333, "is_reserved": 0, "bike_id": "4009f1a7b676944bafd0ad5315162bec", "fusion_lon": 0.0, "rental_uris": {"android": "https://dc.lft.to/lastmile_qr_scan", "ios": "https://dc.lft.to/lastmile_qr_scan"}, "name": "4009f1a7b676944bafd0ad5315162bec", "type": "electric_scooter", "lat": 38.907334666666664, "is_disabled": 0}, {"fusion_lat": 0.0, "lon": -77.04749233333334, "is_reserved": 0, "bike_id": "53cb3b9c662d75a4c01ade6652a878dd", "fusion_lon": 0.0, "rental_uris": {"android": "https://dc.lft.to/lastmile_qr_scan", "ios": "https://dc.lft.to/lastmile_qr_scan"}, "name": "53cb3b9c662d75a4c01ade6652a878dd", "type": "electric_scooter", "lat": 38.90088133333333, "is_disabled": 0}, {"fusion_lat": 0.0, "lon": -77.04672066666667, "is_reserved": 0, "bike_id": "40900c8d5c57587e6bc0d0cb6dffe2c5", "fusion_lon": 0.0, "rental_uris": {"android": "https://dc.lft.to/lastmile_qr_scan", "ios": "https://dc.lft.to/lastmile_qr_scan"}, "name": "40900c8d5c57587e6bc0d0cb6dffe2c5", "type": "electric_scooter", "lat": 38.90737933333333, "is_disabled": 0}, {"fusion_lat": 0.0, "lon": -76.94934983333333, "is_reserved": 0, "bike_id": "e752ce5b769867205721b8f15bbb937b", "fusion_lon": 0.0, "rental_uris": {"android": "https://dc.lft.to/lastmile_qr_scan", "ios": "https://dc.lft.to/lastmile_qr_scan"}, "name": "e752ce5b769867205721b8f15bbb937b", "type": "electric_scooter", "lat": 38.893438, "is_disabled": 0}, {"fusion_lat": 0.0, "lon": -77.03109416666666, "is_reserved": 0, "bike_id": "38db73746b3b821cd5cdf6e7de97340d", "fusion_lon": 0.0, "rental_uris": {"android": "https://dc.lft.to/lastmile_qr_scan", "ios": "https://dc.lft.to/lastmile_qr_scan"}, "name": "38db73746b3b821cd5cdf6e7de97340d", "type": "electric_scooter", "lat": 38.95075166666667, "is_disabled": 0},