{"data": {"bikes": [{"lat": 38.90199466666667, "fusion_lat": 0.0, "type": "electric_scooter", "bike_id": "a9933d572fd5404bc6c95974bd22d02d", "rental_uris": {"ios": "https://dc.lft.to/lastmile_qr_scan", "android": "https://dc.lft.to/lastmile_qr_scan"}, "fusion_lon": 0.0, "lon": -77.02197, "name": "a9933d572fd5404bc6c95974bd22d02d", "is_reserved": 0, "is_disabled": 0}, {"lat": 38.84197533333333, "fusion_lat": 0.0, "type": "electric_bike", "bike_id": "325330425bd196ffc64e2c944ec33e5a", "rental_uris": {"ios": "https://dc.lft.to/lastmile_qr_scan", "android": "https://dc.lft.to/lastmile_qr_scan"}, "fusion_lon": 0.0, "lon": -77.06756233333333, "name": "325330425bd196ffc64e2c944ec33e5a", "is_reserved": 0, "is_disabled": 0}, {"lat": 38.924082, "fusion_lat": 0.0, "type": "electric_scooter", "bike_id": "23622e94f05635c778262f5f479ce411", "rental_uris": {"ios": "https://dc.lft.to/lastmile_qr_scan", "android": "https://dc.lft.to/lastmile_qr_scan"}, "fusion_lon": 0.0, "lon": -76.99740466666667, "name": "23622e94f05635c778262f5f479ce411", "is_reserved": 0, "is_disabled": 0}, {"lat": 38.911326333333335, "fusion_lat": 0.0, "type": "electric_bike", "bike_id": "b716a9225ebfacf1ab5c3913ce95e7e6", "rental_uris": {"ios": "https://dc.lft.to/lastmile_qr_scan", "android": "https://dc.lft.to/lastmile_qr_scan"}, "fusion_lon": 0.0, "lon": -77.03671216666666, "name": "b716a9225ebfacf1ab5c3913ce95e7e6", "is_reserved": 0, "is_disabled": 0}, {"lat": 38.909726, "fusion_lat": 0.0, "type": "electric_scooter", "bike_id": "dae9fa1dc3c2e1789b30fd02b92604dc", "rental_uris": {"ios": "https://dc.lft.to/lastmile_qr_scan", "android": "https://dc.lft.to/lastmile_qr_scan"}, "fusion_lon": 0.0, "lon": -77.05194233333333, "name": "dae9fa1dc3c2e1789b30fd02b92604dc", "is_reserved": 0, "is_disabled": 0}, {"lat": 38.88542566666667, "fusion_lat": 0.0, "type": "electric_scooter", "bike_id": "56099ccee499db8f82b7ed9c0e99b6c1", "rental_uris": {"ios": "https://dc.lft.to/lastmile_qr_scan", "android": "https://dc.lft.to/lastmile_qr_scan"}, "fusion_lon": 0.0, "lon": -77.021901, "name": "56099ccee499db8f82b7ed9c0e99b6c1", "is_reserved": 0, "is_disabled": 0}, {"lat": 38.863963, "fusion_lat": 0.0, "type": "electric_bike", "bike_id": "1bd1f3badc9cb21f66beb0aa07549793", "rental_uris": {"ios": "https://dc.lft.to/lastmile_qr_scan", "android": "https://dc.lft.to/lastmile_qr_scan"}, "fusion_lon": 0.0, "lon": -77.2010435, "name": "1bd1f3badc9cb21f66beb0aa07549793", "is_reserved": 0, "is_disabled": 0}, {"lat": 38.898242, "fusion_lat": 0.0, "type": "electric_scooter", "bike_id": "7feaad76b700d9be97be428269ad1d4d", "rental_uris": {"ios": "https://dc.lft.to/lastmile_qr_scan", "android": "https://dc.lft.to/lastmile_qr_scan"}, "fusion_lon": 0.0, "lon": -76.9465405, "name": "7feaad76b700d9be97be428269ad1d4d", "is_reserved": 0, "is_disabled": 0}, {"lat": 38.973512, "fusion_lat": 0.0, "type": "electric_scooter", "bike_id": "12d4d23f1bc8dd7b39d82c6f591162de", "rental_uris": {"ios": "https://dc.lft.to/lastmile_qr_scan", "android": "https://dc.lft.to/lastmile_qr_scan"}, "fusion_lon": 0.0, "lon": -77.02785316666667, "name": "12d4d23f1bc8dd7b39d82c6f591162de", "is_reserved": 0, "is_disabled": 0}, {"lat": 38.91895683333333, "fusion_lat": 0.0, "type": "electric_scooter", "bike_id": "f83c4521499f3e790083981880fa12a3", "rental_uris": {"ios": "https://dc.lft.to/lastmile_qr_scan", "android": "https://dc.lft.to/lastmile_qr_scan"}, "fusion_lon": 0.0, "lon": -77.03829633333334, "name": "f83c4521499f3e790083981880fa12a3", "is_reserved": 0, "is_disabled": 0}, {"lat": 38.87933666666667, "fusion_lat": 0.0, "type": "electric_scooter", "bike_id": "7fd582bdd9160505b47bb1ae897f4592", "rental_uris": {"ios": "https://dc.lft.to/lastmile_qr_scan", "android": "https://dc.lft.to/lastmile_qr_scan"}, "fusion_lon": 0.0, "lon": -77.023712, "name": "7fd582bdd9160505b47bb1ae897f4592", "is_reserved": 0, "is_disabled": 0}, {"lat": 38.89972183333333, "fusion_lat": 0.0, "type": "electric_scooter", "bike_id": "2d382e5785f7cea1ce869fa0a01ed8c7", "rental_uris": {"ios": "https://dc.lft.to/lastmile_qr_scan", "android": "https://dc.lft.to/lastmile_qr_scan"}, "fusion_lon": 0.0, "lon": -77.019058, "name": "2d382e5785f7cea1ce869fa0a01ed8c7", "is_reserved": 0, "is_disabled": 0}, {"lat": 38.913319333333334, "fusion_lat": 0.0, "type": "electric_scooter", "bike_id": "a847390cc6750c1ea3547d56ab898f42", "rental_uris": {"ios": "https://dc.lft.to/lastmile_qr_scan", "android": "https://dc.lft.to/lastmile_qr_scan"}, "fusion_lon": 0.0, "lon": -77.04864, "name": "a847390cc6750c1ea3547d56ab898f42", "is_reserved": 0, "is_disabled": 0}, {"lat": 38.935954833333334, "fusion_lat": 0.0, "type": "electric_scooter", "bike_id": "a100768cfce755ce7316a221b5222cdf", "rental_uris": {"ios": "https://dc.lft.to/lastmile_qr_scan", "android": "https://dc.lft.to/lastmile_qr_scan"}, "fusion_lon": 0.0, "lon": -77.0243825, "name": "a100768cfce755ce7316a221b5222cdf", "is_reserved": 0, "is_disabled": 0}, {"lat": 38.8762545, "fusion_lat": 0.0, "type": "electric_scooter", "bike_id": "9dc90763b7b2006536d4b08d42928218", "rental_uris": {"ios": "https://dc.lft.to/lastmile_qr_scan", "android": "https://dc.lft.to/lastmile_qr_scan"}, "fusion_lon": 0.0, "lon": -77.00127033333334, "name": "9dc90763b7b2006536d4b08d42928218", "is_reserved": 0, "is_disabled": 0}, {"lat": 38.900714, "fusion_lat": 0.0, "type": "electric_scooter", "bike_id": "6de9abad596928df098f274f16d9a587", "rental_uris": {"ios": "https://dc.lft.to/lastmile_qr_scan", "android": "https://dc.lft.to/lastmile_qr_scan"}, "fusion_lon": 0.0, "lon": -77.01276083333333, "name": "6de9abad596928df098f274f16d9a587", "is_reserved": 0, "is_disabled": 0}, {"lat": 38.90571116666667, "fusion_lat": 0.0, "type": "electric_scooter", "bike_id": "693a420df91a77e7826ed65aab3ea6b0", "rental_uris": {"ios": "https://dc.lft.to/lastmile_qr_scan", "android": "https://dc.lft.to/lastmile_qr_scan"}, "fusion_lon": 0.0, "lon": -77.02507583333333, "name": "693a420df91a77e7826ed65aab3ea6b0", "is_reserved": 0, "is_disabled": 0}, {"lat": 38.89729833333333, "fusion_lat": 0.0, "type": "electric_scooter", "bike_id": "d93c789175e473d5fda631e0f54e9674", "rental_uris": {"ios": "https://dc.lft.to/lastmile_qr_scan", "android": "https://dc.lft.to/lastmile_qr_scan"}, "fusion_lon": 0.0, "lon": -77.04676683333334, "name": "d93c789175e473d5fda631e0f54e9674", "is_reserved": 0, "is_disabled": 0}, {"lat": 38.900143666666665, "fusion_lat": 0.0, "type": "electric_scooter", "bike_id": "2b3023d638bd97b5f4e27491c43482b4", "rental_uris": {"ios": "https://dc.lft.to/lastmile_qr_scan", "android": "https://dc.lft.to/lastmile_qr_scan"}, "fusion_lon": 0.0, "lon": -77.0125735, "name": "2b3023d638bd97b5f4e27491c43482b4", "is_reserved": 0, "is_disabled": 0}, {"lat": 38.95094566666667, "fusion_lat": 0.0, "type": "electric_bike", "bike_id": "3001da3783b0b640b0893f06848ed06c", "rental_uris": {"ios": "https://dc.lft.to/lastmile_qr_scan", "android": "https://dc.lft.to/lastmile_qr_scan"}, "fusion_lon": 0.0, "lon": -77.01227466666667, "name": "3001da3783b0b640b0893f06848ed06c", "is_reserved": 0, "is_disabled": 0}, {"lat": 39.00288833333333, "fusion_lat": 0.0, "type": "electric_bike", "bike_id": "0df20b5389e427e620127a180ecca0fe", "rental_uris": {"ios": "https://dc.lft.to/lastmile_qr_scan", "android": "https://dc.lft.to/lastmile_qr_scan"}, "fusion_lon": 0.0, "lon": -76.90298183333333, "name": "0df20b5389e427e620127a180ecca0fe", "is_reserved": 0, "is_disabled": 0}, {"lat": 38.892210166666665, "fusion_lat": 0.0, "type": "electric_scooter", "bike_id": "059c9aa4c29a031007575e60c46dc0ad", "rental_uris": {"ios": "https://dc.lft.to/lastmile_qr_scan", "android": "https://dc.lft.to/lastmile_qr_scan"}, "fusion_lon": 0.0, "lon": -77.0419785, "name": "059c9aa4c29a031007575e60c46dc0ad", "is_reserved": 0, "is_disabled": 0}, {"lat": 38.8133225, "fusion_lat": 0.0, "type": "electric_bike", "bike_id": "2eacce7828d67603619ce78ae67d8d5f", "rental_uris": {"ios": "https://dc.lft.to/lastmile_qr_scan", "android": "https://dc.lft.to/lastmile_qr_scan"}, "fusion_lon": 0.0, "lon": -77.0509175, "name": "2eacce7828d67603619ce78ae67d8d5f", "is_reserved": 0, "is_disabled": 0}, {"lat": 38.91371816666667, "fusion_lat": 0.0, "type": "electric_scooter", "bike_id": "cfdbc2fff55de0665356907424a381b3", "rental_uris": {"ios": "https://dc.lft.to/lastmile_qr_scan", "android": "https://dc.lft.to/lastmile_qr_scan"}, "fusion_lon": 0.0, "lon": -77.01560683333334, "name": "cfdbc2fff55de0665356907424a381b3", "is_reserved": 0, "is_disabled": 0}, {"lat": 38.89199133333334, "fusion_lat": 0.0, "type": "electric_scooter", "bike_id": "01f3cc702231b1793e25540ee7d8f815", "rental_uris": {"ios": "https://dc.lft.to/lastmile_qr_scan", "android": "https://dc.lft.to/lastmile_qr_scan"}, "fusion_lon": 0.0, "lon": -76.99387383333334, "name": "01f3cc702231b1793e25540ee7d8f815", "is_reserved": 0, "is_disabled": 0}, {"lat": 38.934506999999996, "fusion_lat": 0.0, "type": "electric_scooter", "bike_id": "d9a2c876ccc0c0f7e987ce4edda0c91e", "rental_uris": {"ios": "https://dc.lft.to/lastmile_qr_scan", "android": "https://dc.lft.to/lastmile_qr_scan"}, "fusion_lon": 0.0, "lon": -77.03532683333333, "name": "d9a2c876ccc0c0f7e987ce4edda0c91e", "is_reserved": 0, "is_disabled": 0}, {"lat": 38.921743166666666, "fusion_lat": 0.0, "type": "electric_scooter", "bike_id": "7076062dbdc2a55500f859a18048f717", "rental_uris": {"ios": "https://dc.lft.to/lastmile_qr_scan", "android": "https://dc.lft.to/lastmile_qr_scan"}, "fusion_lon": 0.0, "lon": -77.03832766666666, "name": "7076062dbdc2a55500f859a18048f717", "is_reserved": 0, "is_disabled": 0}, {"lat": 38.9191135, "fusion_lat": 0.0, "type": "electric_scooter", "bike_id": "2e58b54faeff3699432b89b7ad0dc0ee", "rental_uris": {"ios": "https://dc.lft.to/lastmile_qr_scan", "android": "https://dc.lft.to/lastmile_qr_scan"}, "fusion_lon": 0.0, "lon": -77.0249585, "name": "2e58b54faeff3699432b89b7ad0dc0ee", "is_reserved": 0, "is_disabled": 0}, {"lat": 38.919218666666666, "fusion_lat": 0.0, "type": "electric_scooter", "bike_id": "d97ef54147e6ebb98b6c5ef82127d603", "rental_uris": {"ios": "https://dc.lft.to/lastmile_qr_scan", "android": "https://dc.lft.to/lastmile_qr_scan"}, "fusion_lon": 0.0, "lon": -77.03359483333334, "name": "d97ef54147e6ebb98b6c5ef82127d603", "is_reserved": 0, "is_disabled": 0}, {"lat": 38.925712, "fusion_lat": 0.0, "type": "electric_scooter", "bike_id": "7d2bcd6b942bf33cb453a57ce0a1ff94", "rental_uris": {"ios": "https://dc.lft.to/lastmile_qr_scan", "android": "https://dc.lft.to/lastmile_qr_scan"}, "fusion_lon": 0.0, "lon": -77.02691566666667, "name": "7d2bcd6b942bf33cb453a57ce0a1ff94", "is_reserved": 0, "is_disabled": 0}, {"lat": 38.992273, "fusion_lat": 0.0, "type": "electric_bike", "bike_id": "e6ccb91164cf079c635a28babad54a5b", "rental_uris": {"ios": "https://dc.lft.to/lastmile_qr_scan", "android": "https://dc.lft.to/lastmile_qr_scan"}, "fusion_lon": 0.0, "lon": -77.03584783333334, "name": "e6ccb91164cf079c635a28babad54a5b", "is_reserved": 0, "is_disabled": 0}, {"lat": 38.918933833333334, "fusion_lat": 0.0, "type": "electric_scooter", "bike_id": "cdfec5971407e653566aa469ebed609d", "rental_uris": {"ios": "https://dc.lft.to/lastmile_qr_scan", "android": "https://dc.lft.to/lastmile_qr_scan"}, "fusion_lon": 0.0, "lon": -77.02964216666666, "name": "cdfec5971407e653566aa469ebed609d", "is_reserved": 0, "is_disabled": 0}, {"lat": 38.9491505, "fusion_lat": 0.0, "type": "electric_bike", "bike_id": "bad9d1e9c100c05051b5732d42a18abe", "rental_uris": {"ios": "https://dc.lft.to/lastmile_qr_scan", "android": "https://dc.lft.to/lastmile_qr_scan"}, "fusion_lon": 0.0, "lon": -77.0080335, "name": "bad9d1e9c100c05051b5732d42a18abe", "is_reserved": 0, "is_disabled": 0}, {"lat": 38.884649333333336, "fusion_lat": 0.0, "type": "electric_bike", "bike_id": "c57e8fe6d2f9c9be50f665c9b8e103db", "rental_uris": {"ios": "https://dc.lft.to/lastmile_qr_scan", "android": "https://dc.lft.to/lastmile_qr_scan"}, "fusion_lon": 0.0, "lon": -76.95237683333333, "name": "c57e8fe6d2f9c9be50f665c9b8e103db", "is_reserved": 0, "is_disabled": 0}, {"lat": 38.88723316666667, "fusion_lat": 0.0, "type": "electric_scooter", "bike_id": "f42b3de06a8fb0c013aae1ee05083b4a", "rental_uris": {"ios": "https://dc.lft.to/lastmile_qr_scan", "android": "https://dc.lft.to/lastmile_qr_scan"}, "fusion_lon": 0.0, "lon": -77.02200616666667, "name": "f42b3de06a8fb0c013aae1ee05083b4a", "is_reserved": 0, "is_disabled": 0}, {"lat": 38.97833516666667, "fusion_lat": 0.0, "type": "electric_bike", "bike_id": "9eded440fa1c4d99348bbf34791169f4", "rental_uris": {"ios": "https://dc.lft.to/lastmile_qr_scan", "android": "https://dc.lft.to/lastmile_qr_scan"}, "fusion_lon": 0.0, "lon": -76.92888966666666, "name": "9eded440fa1c4d99348bbf34791169f4", "is_reserved": 0, "is_disabled": 0}, {"lat": 38.92675166666667, "fusion_lat": 0.0, "type": "electric_scooter", "bike_id": "93f9d553a0c9050b6b1d8d8f6d6a1fe1", "rental_uris": {"ios": "https://dc.lft.to/lastmile_qr_scan", "android": "https://dc.lft.to/lastmile_qr_scan"}, "fusion_lon": 0.0, "lon": -77.0150925, "name": "93f9d553a0c9050b6b1d8d8f6d6a1fe1", "is_reserved": 0, "is_disabled": 0}, {"lat": 38.90287283333333, "fusion_lat": 0.0, "type": "electric_scooter", "bike_id": "59f1782ca8fa26c9549f38c9eba5b3f9", "rental_uris": {"ios": "https://dc.lft.to/lastmile_qr_scan", "android": "https://dc.lft.to/lastmile_qr_scan"}, "fusion_lon": 0.0, "lon": -76.9339895, "name": "59f1782ca8fa26c9549f38c9eba5b3f9", "is_reserved": 0, "is_disabled": 0}, {"lat": 38.895650333333336, "fusion_lat": 0.0, "type": "electric_bike", "bike_id": "967da6f4c318e3d4bff69ec208cbe860", "rental_uris": {"ios": "https://dc.lft.to/lastmile_qr_scan", "android": "https://dc.lft.to/lastmile_qr_scan"}, "fusion_lon": 0.0, "lon": -77.12730066666667, "name": "967da6f4c318e3d4bff69ec208cbe860", "is_reserved": 0, "is_disabled": 0}, {"lat": 38.87653733333333, "fusion_lat": 0.0, "type": "electric_scooter", "bike_id": "8b4c7b22e49252924ece81b45dc69398", "rental_uris": {"ios": "https://dc.lft.to/lastmile_qr_scan", "android": "https://dc.lft.to/lastmile_qr_scan"}, "fusion_lon": 0.0, "lon": -77.0033315, "name": "8b4c7b22e49252924ece81b45dc69398", "is_reserved": 0, "is_disabled": 0}, {"lat": 38.94197466666667, "fusion_lat": 0.0, "type": "electric_scooter", "bike_id": "6241fc9e5924207507e574f7190ba320", "rental_uris": {"ios": "https://dc.lft.to/lastmile_qr_scan", "android": "https://dc.lft.to/lastmile_qr_scan"}, "fusion_lon": 0.0, "lon": -77.02475316666667, "name": "6241fc9e5924207507e574f7190ba320", "is_reserved": 0, "is_disabled": 0}, {"lat": 38.87376483333333, "fusion_lat": 0.0, "type": "electric_scooter", "bike_id": "c3498b1894a2147b924504746e26112a", "rental_uris": {"ios": "https://dc.lft.to/lastmile_qr_scan", "android": "https://dc.lft.to/lastmile_qr_scan"}, "fusion_lon": 0.0, "lon": -77.00037866666666, "name": "c3498b1894a2147b924504746e26112a", "is_reserved": 0, "is_disabled": 0}, {"lat": 38.928859, "fusion_lat": 0.0, "type": "electric_scooter", "bike_id": "a320e3a0b0005757a433d9c363139028", "rental_uris": {"ios": "https://dc.lft.to/lastmile_qr_scan", "android": "https://dc.lft.to/lastmile_qr_scan"}, "fusion_lon": 0.0, "lon": -77.03294266666667, "name": "a320e3a0b0005757a433d9c363139028", "is_reserved": 0, "is_disabled": 0}, {"lat": 38.918494333333335, "fusion_lat": 0.0, "type": "electric_scooter", "bike_id": "8b1d3e030cb66e65a3880a35b883a7b5", "rental_uris": {"ios": "https://dc.lft.to/lastmile_qr_scan", "android": "https://dc.lft.to/lastmile_qr_scan"}, "fusion_lon": 0.0, "lon": -77.02337516666667, "name": "8b1d3e030cb66e65a3880a35b883a7b5", "is_reserved": 0, "is_disabled": 0}, {"lat": 38.938787, "fusion_lat": 0.0, "type": "electric_scooter", "bike_id": "dd41f49a14136a176a0c9d3953827c27", "rental_uris": {"ios": "https://dc.lft.to/lastmile_qr_scan", "android": "https://dc.lft.to/lastmile_qr_scan"}, "fusion_lon": 0.0, "lon": -77.02483733333334, "name": "dd41f49a14136a176a0c9d3953827c27", "is_reserved": 0, "is_disabled": 0}, {"lat": 38.931025, "fusion_lat": 0.0, "type": "electric_scooter", "bike_id": "1644e0a4b9429912c7ca1507a2fe5647", "rental_uris": {"ios": "https://dc.lft.to/lastmile_qr_scan", "android": "https://dc.lft.to/lastmile_qr_scan"}, "fusion_lon": 0.0, "lon": -77.0266, "name": "1644e0a4b9429912c7ca1507a2fe5647", "is_reserved": 0, "is_disabled": 0}, {"lat": 38.914162166666664, "fusion_lat": 0.0, "type": "electric_scooter", "bike_id": "f1434378ad46833a5b9c2aa492ec9b74", "rental_uris": {"ios": "https://dc.lft.to/lastmile_qr_scan", "android": "https://dc.lft.to/lastmile_qr_scan"}, "fusion_lon": 0.0, "lon": -77.02238233333334, "name": "f1434378ad46833a5b9c2aa492ec9b74", "is_reserved": 0, "is_disabled": 0}, {"lat": 38.91353933333333, "fusion_lat": 0.0, "type": "electric_scooter", "bike_id": "2d7f94577354aea1023d5da36d514e58", "rental_uris": {"ios": "https://dc.lft.to/lastmile_qr_scan", "android": "https://dc.lft.to/lastmile_qr_scan"}, "fusion_lon": 0.0, "lon": -77.04352583333333, "name": "2d7f94577354aea1023d5da36d514e58", "is_reserved": 0, "is_disabled": 0}, {"lat": 38.918735166666664, "fusion_lat": 0.0, "type": "electric_scooter", "bike_id": "d814e0a793dc17ead7ea94c4389cd79c", "rental_uris": {"ios": "https://dc.lft.to/lastmile_qr_scan", "android": "https://dc.lft.to/lastmile_qr_scan"}, "fusion_lon": 0.0, "lon": -77.04775816666667, "name": "d814e0a793dc17ead7ea94c4389cd79c", "is_reserved": 0, "is_disabled": 0}, {"lat": 38.93431066666667, "fusion_lat": 0.0, "type": "electric_scooter", "bike_id": "e07c11c1da1b15bee639178d1750649c", "rental_uris": {"ios": "https://dc.lft.to/lastmile_qr_scan", "android": "https://dc.lft.to/lastmile_qr_scan"}, "fusion_lon": 0.0, "lon": -77.04532466666667, "name": "e07c11c1da1b15bee639178d1750649c", "is_reserved": 0, "is_disabled": 0}, {"lat": 38.896194666666666, "fusion_lat": 0.0, "type": "electric_scooter", "bike_id": "229983599d438896afae88207d32ec7b", "rental_uris": {"ios": "https://dc.lft.to/lastmile_qr_scan", "android": "https://dc.lft.to/lastmile_qr_scan"}, "fusion_lon": 0.0, "lon": -77.02313866666667, "name": "229983599d438896afae88207d32ec7b", "is_reserved": 0, "is_disabled": 0}, {"lat": 38.956722166666665, "fusion_lat": 0.0, "type": "electric_scooter", "bike_id": "fa1d84536e5b575fd6b400861f2d974c", "rental_uris": {"ios": "https://dc.lft.to/lastmile_qr_scan", "android": "https://dc.lft.to/lastmile_qr_scan"}, "fusion_lon": 0.0, "lon": -77.01361416666667, "name": "fa1d84536e5b575fd6b400861f2d974c", "is_reserved": 0, "is_disabled": 0}, {"lat": 38.936296, "fusion_lat": 0.0, "type": "electric_scooter", "bike_id": "b18c02f42a13ffa2b048b47f3e91b6dd", "rental_uris": {"ios": "https://dc.lft.to/lastmile_qr_scan", "android": "https://dc.lft.to/lastmile_qr_scan"}, "fusion_lon": 0.0, "lon": -77.05880083333334, "name": "b18c02f42a13ffa2b048b47f3e91b6dd", "is_reserved": 0, "is_disabled": 0}, {"lat": 38.925438666666665, "fusion_lat": 0.0, "type": "electric_scooter", "bike_id": "47aada294a919e9cb6bbb28411a0c05b", "rental_uris": {"ios": "https://dc.lft.to/lastmile_qr_scan", "android": "https://dc.lft.to/lastmile_qr_scan"}, "fusion_lon": 0.0, "lon": -77.02287283333334, "name": "47aada294a919e9cb6bbb28411a0c05b", "is_reserved": 0, "is_disabled": 0}, {"lat": 38.911798833333336, "fusion_lat": 0.0, "type": "electric_scooter", "bike_id": "5a603102eb8e2a896fdef1fba1e928f6", "rental_uris": {"ios": "https://dc.lft.to/lastmile_qr_scan", "android": "https://dc.lft.to/lastmile_qr_scan"}, "fusion_lon": 0.0, "lon": -77.00483116666666, "name": "5a603102eb8e2a896fdef1fba1e928f6", "is_reserved": 0, "is_disabled": 0}, {"lat": 38.90849733333334, "fusion_lat": 0.0, "type": "electric_scooter", "bike_id": "fa955e6cbbcc4ab591abab3d2abaa103", "rental_uris": {"ios": "https://dc.lft.to/lastmile_qr_scan", "android": "https://dc.lft.to/lastmile_qr_scan"}, "fusion_lon": 0.0, "lon": -77.03863016666666, "name": "fa955e6cbbcc4ab591abab3d2abaa103", "is_reserved": 0, "is_disabled": 0}, {"lat": 38.91799433333333, "fusion_lat": 0.0, "type": "electric_scooter", "bike_id": "de088698ed7c0017eb3e6a6f8e8b8dc8", "rental_uris": {"ios": "https://dc.lft.to/lastmile_qr_scan", "android": "https://dc.lft.to/lastmile_qr_scan"}, "fusion_lon": 0.0, "lon": -77.0345695, "name": "de088698ed7c0017eb3e6a6f8e8b8dc8", "is_reserved": 0, "is_disabled": 0}, {"lat": 38.9126325, "fusion_lat": 0.0, "type": "electric_scooter", "bike_id": "f7553f9a63b4a4c41106e31305962697", "rental_uris": {"ios": "https://dc.lft.to/lastmile_qr_scan", "android": "https://dc.lft.to/lastmile_qr_scan"}, "fusion_lon": 0.0, "lon": -77.04031183333333, "name": "f7553f9a63b4a4c41106e31305962697", "is_reserved": 0, "is_disabled": 0}, {"lat": 38.902415, "fusion_lat": 0.0, "type": "electric_scooter", "bike_id": "a043c419e135041362cbd43bfa9ec99e", "rental_uris": {"ios": "https://dc.lft.to/lastmile_qr_scan", "android": "https://dc.lft.to/lastmile_qr_scan"}, "fusion_lon": 0.0, "lon": -76.97926416666667, "name": "a043c419e135041362cbd43bfa9ec99e", "is_reserved": 0, "is_disabled": 0}, {"lat": 38.9245215, "fusion_lat": 0.0, "type": "electric_scooter", "bike_id": "e80f2ec5239444a829cdf7d14909f277", "rental_uris": {"ios": "https://dc.lft.to/lastmile_qr_scan", "android": "https://dc.lft.to/lastmile_qr_scan"}, "fusion_lon": 0.0, "lon": -77.040379, "name": "e80f2ec5239444a829cdf7d14909f277", "is_reserved": 0, "is_disabled": 0}, {"lat": 38.90890516666666, "fusion_lat": 0.0, "type": "electric_scooter", "bike_id": "37944955fb14b159d32ee5833cf85de8", "rental_uris": {"ios": "https://dc.lft.to/lastmile_qr_scan", "android": "https://dc.lft.to/lastmile_qr_scan"}, "fusion_lon": 0.0, "lon": -77.04403233333333, "name": "37944955fb14b159d32ee5833cf85de8", "is_reserved": 0, "is_disabled": 0}, {"lat": 38.888229333333335, "fusion_lat": 0.0, "type": "electric_scooter", "bike_id": "c419c187f65270452c2b0022f9d164b2", "rental_uris": {"ios": "https://dc.lft.to/lastmile_qr_scan", "android": "https://dc.lft.to/lastmile_qr_scan"}, "fusion_lon": 0.0, "lon": -76.97720833333334, "name": "c419c187f65270452c2b0022f9d164b2", "is_reserved": 0, "is_disabled": 0}, {"lat": 38.925415, "fusion_lat": 0.0, "type": "electric_scooter", "bike_id": "36b1106b16dfcb0f2da7a8d918901891", "rental_uris": {"ios": "https://dc.lft.to/lastmile_qr_scan", "android": "https://dc.lft.to/lastmile_qr_scan"}, "fusion_lon": 0.0, "lon": -77.03873216666666, "name": "36b1106b16dfcb0f2da7a8d918901891", "is_reserved": 0, "is_disabled": 0}, {"lat": 38.9560185, "fusion_lat": 0.0, "type": "electric_bike", "bike_id": "9827cf4a3362c175f54ccd5ba1dc6c45", "rental_uris": {"ios": "https://dc.lft.to/lastmile_qr_scan", "android": "https://dc.lft.to/lastmile_qr_scan"}, "fusion_lon": 0.0, "lon": -77.01016016666667, "name": "9827cf4a3362c175f54ccd5ba1dc6c45", "is_reserved": 0, "is_disabled": 0}, {"lat": 38.90957816666667, "fusion_lat": 0.0, "type": "electric_scooter", "bike_id": "4f03fcecf39fdf95be0bf554376918bd", "rental_uris": {"ios": "https://dc.lft.to/lastmile_qr_scan", "android": "https://dc.lft.to/lastmile_qr_scan"}, "fusion_lon": 0.0, "lon": -77.03313966666667, "name": "4f03fcecf39fdf95be0bf554376918bd", "is_reserved": 0, "is_disabled": 0}, {"lat": 38.89443333333333, "fusion_lat": 0.0, "type": "electric_scooter", "bike_id": "4ef679a2e06831939c308686a0ac1ff5", "rental_uris": {"ios": "https://dc.lft.to/lastmile_qr_scan", "android": "https://dc.lft.to/lastmile_qr_scan"}, "fusion_lon": 0.0, "lon": -76.97818433333333, "name": "4ef679a2e06831939c308686a0ac1ff5", "is_reserved": 0, "is_disabled": 0}, {"lat": 38.903745, "fusion_lat": 0.0, "type": "electric_scooter", "bike_id": "30daa801bff058f546ca2b51e7ed938f", "rental_uris": {"ios": "https://dc.lft.to/lastmile_qr_scan", "android": "https://dc.lft.to/lastmile_qr_scan"}, "fusion_lon": 0.0, "lon": -77.00753366666666, "name": "30daa801bff058f546ca2b51e7ed938f", "is_reserved": 0, "is_disabled": 0}, {"lat": 38.92323483333333, "fusion_lat": 0.0, "type": "electric_scooter", "bike_id": "482a20e023b0b2cb6fe2d1d1045b3250", "rental_uris": {"ios": "https://dc.lft.to/lastmile_qr_scan", "android": "https://dc.lft.to/lastmile_qr_scan"}, "fusion_lon": 0.0, "lon": -77.0304875, "name": "482a20e023b0b2cb6fe2d1d1045b3250", "is_reserved": 0, "is_disabled": 0}, {"lat": 38.91042766666666, "fusion_lat": 0.0, "type": "electric_scooter", "bike_id": "8054cb5cc9f5bf8a4ec9fb33ff4f2e5c", "rental_uris": {"ios": "https://dc.lft.to/lastmile_qr_scan", "android": "https://dc.lft.to/lastmile_qr_scan"}, "fusion_lon": 0.0, "lon": -77.00472083333334, "name": "8054cb5cc9f5bf8a4ec9fb33ff4f2e5c", "is_reserved": 0, "is_disabled": 0}, {"lat": 38.920992, "fusion_lat": 0.0, "type": "electric_scooter", "bike_id": "5a6d97f7b2a9d84a39d94552d87fa196", "rental_uris": {"ios": "https://dc.lft.to/lastmile_qr_scan", "android": "https://dc.lft.to/lastmile_qr_scan"}, "fusion_lon": 0.0, "lon": -77.03173616666666, "name": "5a6d97f7b2a9d84a39d94552d87fa196", "is_reserved": 0, "is_disabled": 0}, {"lat": 38.91934216666667, "fusion_lat": 0.0, "type": "electric_scooter", "bike_id": "64518c328a1c3d4c13ef677701d5e1e4", "rental_uris": {"ios": "https://dc.lft.to/lastmile_qr_scan", "android": "https://dc.lft.to/lastmile_qr_scan"}, "fusion_lon": 0.0, "lon": -77.02591883333334, "name": "64518c328a1c3d4c13ef677701d5e1e4", "is_reserved": 0, "is_disabled": 0}, {"lat": 38.90913916666667, "fusion_lat": 0.0, "type": "electric_scooter", "bike_id": "235365e2f3e93f6e06daca6195b8086d", "rental_uris": {"ios": "https://dc.lft.to/lastmile_qr_scan", "android": "https://dc.lft.to/lastmile_qr_scan"}, "fusion_lon": 0.0, "lon": -76.99962683333334, "name": "235365e2f3e93f6e06daca6195b8086d", "is_reserved": 0, "is_disabled": 0}, {"lat": 38.91127516666667, "fusion_lat": 0.0, "type": "electric_scooter", "bike_id": "276dbd39d434b351042ff12f1087ad06", "rental_uris": {"ios": "https://dc.lft.to/lastmile_qr_scan", "android": "https://dc.lft.to/lastmile_qr_scan"}, "fusion_lon": 0.0, "lon": -77.02186516666667, "name": "276dbd39d434b351042ff12f1087ad06", "is_reserved": 0, "is_disabled": 0}, {"lat": 38.9181745, "fusion_lat": 0.0, "type": "electric_scooter", "bike_id": "e1cb80a653589a2ae4f62a564122dc99", "rental_uris": {"ios": "https://dc.lft.to/lastmile_qr_scan", "android": "https://dc.lft.to/lastmile_qr_scan"}, "fusion_lon": 0.0, "lon": -77.03788383333334, "name": "e1cb80a653589a2ae4f62a564122dc99", "is_reserved": 0, "is_disabled": 0}, {"lat": 38.902958166666664, "fusion_lat": 0.0, "type": "electric_scooter", "bike_id": "541e43eff90602b3e555483aa1820d1e", "rental_uris": {"ios": "https://dc.lft.to/lastmile_qr_scan", "android": "https://dc.lft.to/lastmile_qr_scan"}, "fusion_lon": 0.0, "lon": -77.054728, "name": "541e43eff90602b3e555483aa1820d1e", "is_reserved": 0, "is_disabled": 0}, {"lat": 38.8718675, "fusion_lat": 0.0, "type": "electric_scooter", "bike_id": "8db18a26ba849deb2018f5f1d73a8fa0", "rental_uris": {"ios": "https://dc.lft.to/lastmile_qr_scan", "android": "https://dc.lft.to/lastmile_qr_scan"}, "fusion_lon": 0.0, "lon": -77.006407, "name": "8db18a26ba849deb2018f5f1d73a8fa0", "is_reserved": 0, "is_disabled": 0}, {"lat": 38.922261166666665, "fusion_lat": 0.0, "type": "electric_scooter", "bike_id": "2d0adee2aec4a6ee1ce8053dc4836ad9", "rental_uris": {"ios": "https://dc.lft.to/lastmile_qr_scan", "android": "https://dc.lft.to/lastmile_qr_scan"}, "fusion_lon": 0.0, "lon": -77.07287533333333, "name": "2d0adee2aec4a6ee1ce8053dc4836ad9", "is_reserved": 0, "is_disabled": 0}, {"lat": 38.89353466666667, "fusion_lat": 0.0, "type": "electric_scooter", "bike_id": "cb7332c0ba3bec720b8d86571e97a314", "rental_uris": {"ios": "https://dc.lft.to/lastmile_qr_scan", "android": "https://dc.lft.to/lastmile_qr_scan"}, "fusion_lon": 0.0, "lon": -77.003358, "name": "cb7332c0ba3bec720b8d86571e97a314", "is_reserved": 0, "is_disabled": 0}, {"lat": 38.9144955, "fusion_lat": 0.0, "type": "electric_scooter", "bike_id": "3968cb1ab1991542355797a0aefeea62", "rental_uris": {"ios": "https://dc.lft.to/lastmile_qr_scan", "android": "https://dc.lft.to/lastmile_qr_scan"}, "fusion_lon": 0.0, "lon": -77.02289466666667, "name": "3968cb1ab1991542355797a0aefeea62", "is_reserved": 0, "is_disabled": 0}, {"lat": 38.89347083333333, "fusion_lat": 0.0, "type": "electric_scooter", "bike_id": "bca33b37affbb17c46a87a76c84fb6d5", "rental_uris": {"ios": "https://dc.lft.to/lastmile_qr_scan", "android": "https://dc.lft.to/lastmile_qr_scan"}, "fusion_lon": 0.0, "lon": -76.95228433333334, "name": "bca33b37affbb17c46a87a76c84fb6d5", "is_reserved": 0, "is_disabled": 0}, {"lat": 38.9721715, "fusion_lat": 0.0, "type": "electric_scooter", "bike_id": "126625f8240b5d94e6a21f5291231596", "rental_uris": {"ios": "https://dc.lft.to/lastmile_qr_scan", "android": "https://dc.lft.to/lastmile_qr_scan"}, "fusion_lon": 0.0, "lon": -77.0333505, "name": "126625f8240b5d94e6a21f5291231596", "is_reserved": 0, "is_disabled": 0}, {"lat": 38.9057125, "fusion_lat": 0.0, "type": "electric_scooter", "bike_id": "5775dd717fbb66867cab1e4e86ae8835", "rental_uris": {"ios": "https://dc.lft.to/lastmile_qr_scan", "android": "https://dc.lft.to/lastmile_qr_scan"}, "fusion_lon": 0.0, "lon": -76.97634433333333, "name": "5775dd717fbb66867cab1e4e86ae8835", "is_reserved": 0, "is_disabled": 0}, {"lat": 38.902966666666664, "fusion_lat": 0.0, "type": "electric_scooter", "bike_id": "9e5c9450b3dedffcdca5cf11ecc7579d", "rental_uris": {"ios": "https://dc.lft.to/lastmile_qr_scan", "android": "https://dc.lft.to/lastmile_qr_scan"}, "fusion_lon": 0.0, "lon": -76.99257983333334, "name": "9e5c9450b3dedffcdca5cf11ecc7579d", "is_reserved": 0, "is_disabled": 0}, {"lat": 38.89612866666667, "fusion_lat": 0.0, "type": "electric_scooter", "bike_id": "ef4a68cb05022e558205ec90abd82594", "rental_uris": {"ios": "https://dc.lft.to/lastmile_qr_scan", "android": "https://dc.lft.to/lastmile_qr_scan"}, "fusion_lon": 0.0, "lon": -77.01327883333333, "name": "ef4a68cb05022e558205ec90abd82594", "is_reserved": 0, "is_disabled": 0}, {"lat": 38.96083433333333, "fusion_lat": 0.0, "type": "electric_scooter", "bike_id": "162d3893edb697ec390afb15347ea7f0", "rental_uris": {"ios": "https://dc.lft.to/lastmile_qr_scan", "android": "https://dc.lft.to/lastmile_qr_scan"}, "fusion_lon": 0.0, "lon": -77.02878983333333, "name": "162d3893edb697ec390afb15347ea7f0", "is_reserved": 0, "is_disabled": 0}, {"lat": 38.89213516666667, "fusion_lat": 0.0, "type": "electric_scooter", "bike_id": "9e9036f3f57e13ec9a0e8829c34e8ce9", "rental_uris": {"ios": "https://dc.lft.to/lastmile_qr_scan", "android": "https://dc.lft.to/lastmile_qr_scan"}, "fusion_lon": 0.0, "lon": -77.031692, "name": "9e9036f3f57e13ec9a0e8829c34e8ce9", "is_reserved": 0, "is_disabled": 0}, {"lat": 38.911217666666666, "fusion_lat": 0.0, "type": "electric_scooter", "bike_id": "70171d4aef26c7bc4f0ddf1ec755fe8d", "rental_uris": {"ios": "https://dc.lft.to/lastmile_qr_scan", "android": "https://dc.lft.to/lastmile_qr_scan"}, "fusion_lon": 0.0, "lon": -77.0321215, "name": "70171d4aef26c7bc4f0ddf1ec755fe8d", "is_reserved": 0, "is_disabled": 0}, {"lat": 38.9393155, "fusion_lat": 0.0, "type": "electric_scooter", "bike_id": "e05fc8d5c211f06779250268bda058b7", "rental_uris": {"ios": "https://dc.lft.to/lastmile_qr_scan", "android": "https://dc.lft.to/lastmile_qr_scan"}, "fusion_lon": 0.0, "lon": -77.02572466666666, "name": "e05fc8d5c211f06779250268bda058b7", "is_reserved": 0, "is_disabled": 0}, {"lat": 38.9206335, "fusion_lat": 0.0, "type": "electric_scooter", "bike_id": "dc18783d94cdc59a57474736854ee987", "rental_uris": {"ios": "https://dc.lft.to/lastmile_qr_scan", "android": "https://dc.lft.to/lastmile_qr_scan"}, "fusion_lon": 0.0, "lon": -77.023979, "name": "dc18783d94cdc59a57474736854ee987", "is_reserved": 0, "is_disabled": 0}, {"lat": 38.914852833333335, "fusion_lat": 0.0, "type": "electric_scooter", "bike_id": "ef2109f511ce3cdd4cb557a15f7dc38e", "rental_uris": {"ios": "https://dc.lft.to/lastmile_qr_scan", "android": "https://dc.lft.to/lastmile_qr_scan"}, "fusion_lon": 0.0, "lon": -77.040846, "name": "ef2109f511ce3cdd4cb557a15f7dc38e", "is_reserved": 0, "is_disabled": 0}, {"lat": 38.86268066666667, "fusion_lat": 0.0, "type": "electric_scooter", "bike_id": "09e1d8a6b8721363d4b7eaddd6a996e5", "rental_uris": {"ios": "https://dc.lft.to/lastmile_qr_scan", "android": "https://dc.lft.to/lastmile_qr_scan"}, "fusion_lon": 0.0, "lon": -76.99532866666667, "name": "09e1d8a6b8721363d4b7eaddd6a996e5", "is_reserved": 0, "is_disabled": 0}, {"lat": 38.916247, "fusion_lat": 0.0, "type": "electric_scooter", "bike_id": "28e35bcfb64d46643f7e5de7b4efff80", "rental_uris": {"ios": "https://dc.lft.to/lastmile_qr_scan", "android": "https://dc.lft.to/lastmile_qr_scan"}, "fusion_lon": 0.0, "lon": -77.03851733333333, "name": "28e35bcfb64d46643f7e5de7b4efff80", "is_reserved": 0, "is_disabled": 0}, {"lat": 38.89223066666667, "fusion_lat": 0.0, "type": "electric_scooter", "bike_id": "86dfdcdb6aaaee3fab37fc5fde3dad95", "rental_uris": {"ios": "https://dc.lft.to/lastmile_qr_scan", "android": "https://dc.lft.to/lastmile_qr_scan"}, "fusion_lon": 0.0, "lon": -77.044633, "name": "86dfdcdb6aaaee3fab37fc5fde3dad95", "is_reserved": 0, "is_disabled": 0}, {"lat": 38.9263455, "fusion_lat": 0.0, "type": "electric_scooter", "bike_id": "f036d05b59f06a65e1768892962b28b8", "rental_uris": {"ios": "https://dc.lft.to/lastmile_qr_scan", "android": "https://dc.lft.to/lastmile_qr_scan"}, "fusion_lon": 0.0, "lon": -77.0371525, "name": "f036d05b59f06a65e1768892962b28b8", "is_reserved": 0, "is_disabled": 0}, {"lat": 38.9235795, "fusion_lat": 0.0, "type": "electric_scooter", "bike_id": "5268c70bd44d0ca1b61067bca167addc", "rental_uris": {"ios": "https://dc.lft.to/lastmile_qr_scan", "android": "https://dc.lft.to/lastmile_qr_scan"}, "fusion_lon": 0.0, "lon": -77.0322455, "name": "5268c70bd44d0ca1b61067bca167addc", "is_reserved": 0, "is_disabled": 0}, {"lat": 38.91704516666667, "fusion_lat": 0.0, "type": "electric_scooter", "bike_id": "f0d07c7be058811ddf03b8f0b3b2e4f3", "rental_uris": {"ios": "https://dc.lft.to/lastmile_qr_scan", "android": "https://dc.lft.to/lastmile_qr_scan"}, "fusion_lon": 0.0, "lon": -77.032205, "name": "f0d07c7be058811ddf03b8f0b3b2e4f3", "is_reserved": 0, "is_disabled": 0}, {"lat": 38.89222633333333, "fusion_lat": 0.0, "type": "electric_scooter", "bike_id": "248fdc01be3285e2ea7f2553470740da", "rental_uris": {"ios": "https://dc.lft.to/lastmile_qr_scan", "android": "https://dc.lft.to/lastmile_qr_scan"}, "fusion_lon": 0.0, "lon": -77.04331766666667, "name": "248fdc01be3285e2ea7f2553470740da", "is_reserved": 0, "is_disabled": 0}, {"lat": 38.9037195, "fusion_lat": 0.0, "type": "electric_scooter", "bike_id": "4e20b879136033d776603fa356e4a5f2", "rental_uris": {"ios": "https://dc.lft.to/lastmile_qr_scan", "android": "https://dc.lft.to/lastmile_qr_scan"}, "fusion_lon": 0.0, "lon": -77.02202066666666, "name": "4e20b879136033d776603fa356e4a5f2", "is_reserved": 0, "is_disabled": 0}, {"lat": 38.898529333333336, "fusion_lat": 0.0, "type": "electric_scooter", "bike_id": "a00784f33bceebe769a21bc7b686d867", "rental_uris": {"ios": "https://dc.lft.to/lastmile_qr_scan", "android": "https://dc.lft.to/lastmile_qr_scan"}, "fusion_lon": 0.0, "lon": -77.04013266666666, "name": "a00784f33bceebe769a21bc7b686d867", "is_reserved": 0, "is_disabled": 0}, {"lat": 38.92397283333333, "fusion_lat": 0.0, "type": "electric_scooter", "bike_id": "c3f6f32bef2942ade7ee512bacbd7ca4", "rental_uris": {"ios": "https://dc.lft.to/lastmile_qr_scan", "android": "https://dc.lft.to/lastmile_qr_scan"}, "fusion_lon": 0.0, "lon": -77.04022283333333, "name": "c3f6f32bef2942ade7ee512bacbd7ca4", "is_reserved": 0, "is_disabled": 0}, {"lat": 38.917337833333335, "fusion_lat": 0.0, "type": "electric_scooter", "bike_id": "d212ac91cecacb6cf8243a96694cbb02", "rental_uris": {"ios": "https://dc.lft.to/lastmile_qr_scan", "android": "https://dc.lft.to/lastmile_qr_scan"}, "fusion_lon": 0.0, "lon": -77.02704616666666, "name": "d212ac91cecacb6cf8243a96694cbb02", "is_reserved": 0, "is_disabled": 0}, {"lat": 38.898756166666665, "fusion_lat": 0.0, "type": "electric_scooter", "bike_id": "ac9ac908899e93dc78cd25aa9ce129b8", "rental_uris": {"ios": "https://dc.lft.to/lastmile_qr_scan", "android": "https://dc.lft.to/lastmile_qr_scan"}, "fusion_lon": 0.0, "lon": -76.93187916666666, "name": "ac9ac908899e93dc78cd25aa9ce129b8", "is_reserved": 0, "is_disabled": 0}, {"lat": 38.91479066666667, "fusion_lat": 0.0, "type": "electric_scooter", "bike_id": "d26e360e345ee3a8c8d6efb7eb2e4f65", "rental_uris": {"ios": "https://dc.lft.to/lastmile_qr_scan", "android": "https://dc.lft.to/lastmile_qr_scan"}, "fusion_lon": 0.0, "lon": -77.03237133333333, "name": "d26e360e345ee3a8c8d6efb7eb2e4f65", "is_reserved": 0, "is_disabled": 0}, {"lat": 38.924986, "fusion_lat": 0.0, "type": "electric_scooter", "bike_id": "2715c46306e861e133493aef5867e29d", "rental_uris": {"ios": "https://dc.lft.to/lastmile_qr_scan", "android": "https://dc.lft.to/lastmile_qr_scan"}, "fusion_lon": 0.0, "lon": -77.02146366666666, "name": "2715c46306e861e133493aef5867e29d", "is_reserved": 0, "is_disabled": 0}, {"lat": 38.873774833333336, "fusion_lat": 0.0, "type": "electric_scooter", "bike_id": "ced4c67f86a9850c4340f7141d6041af", "rental_uris": {"ios": "https://dc.lft.to/lastmile_qr_scan", "android": "https://dc.lft.to/lastmile_qr_scan"}, "fusion_lon": 0.0, "lon": -77.0019485, "name": "ced4c67f86a9850c4340f7141d6041af", "is_reserved": 0, "is_disabled": 0}, {"lat": 38.93414933333333, "fusion_lat": 0.0, "type": "electric_bike", "bike_id": "2e928b8c64fce4d9649531c192814be2", "rental_uris": {"ios": "https://dc.lft.to/lastmile_qr_scan", "android": "https://dc.lft.to/lastmile_qr_scan"}, "fusion_lon": 0.0, "lon": -77.04306366666667, "name": "2e928b8c64fce4d9649531c192814be2", "is_reserved": 0, "is_disabled": 0}, {"lat": 38.85727766666667, "fusion_lat": 0.0, "type": "electric_bike", "bike_id": "642aaf1612e33b0566305e8fe3514662", "rental_uris": {"ios": "https://dc.lft.to/lastmile_qr_scan", "android": "https://dc.lft.to/lastmile_qr_scan"}, "fusion_lon": 0.0, "lon": -76.97772983333333, "name": "642aaf1612e33b0566305e8fe3514662", "is_reserved": 0, "is_disabled": 0}, {"lat": 38.9565445, "fusion_lat": 0.0, "type": "electric_scooter", "bike_id": "fe3aae7f172191922e80697a7df0ce32", "rental_uris": {"ios": "https://dc.lft.to/lastmile_qr_scan", "android": "https://dc.lft.to/lastmile_qr_scan"}, "fusion_lon": 0.0, "lon": -77.01964966666667, "name": "fe3aae7f172191922e80697a7df0ce32", "is_reserved": 0, "is_disabled": 0}, {"lat": 38.9167895, "fusion_lat": 0.0, "type": "electric_scooter", "bike_id": "a5eb845b86e4454a7d03e46db0862663", "rental_uris": {"ios": "https://dc.lft.to/lastmile_qr_scan", "android": "https://dc.lft.to/lastmile_qr_scan"}, "fusion_lon": 0.0, "lon": -77.02804783333333, "name": "a5eb845b86e4454a7d03e46db0862663", "is_reserved": 0, "is_disabled": 0}, {"lat": 38.918014666666664, "fusion_lat": 0.0, "type": "electric_scooter", "bike_id": "865d7abffd9b355cf3c0e3f6cfa085de", "rental_uris": {"ios": "https://dc.lft.to/lastmile_qr_scan", "android": "https://dc.lft.to/lastmile_qr_scan"}, "fusion_lon": 0.0, "lon": -77.027038, "name": "865d7abffd9b355cf3c0e3f6cfa085de", "is_reserved": 0, "is_disabled": 0}, {"lat": 38.905056333333334, "fusion_lat": 0.0, "type": "electric_scooter", "bike_id": "a13d93d0df5ee1577418185482718572", "rental_uris": {"ios": "https://dc.lft.to/lastmile_qr_scan", "android": "https://dc.lft.to/lastmile_qr_scan"}, "fusion_lon": 0.0, "lon": -77.048306, "name": "a13d93d0df5ee1577418185482718572", "is_reserved": 0, "is_disabled": 0}, {"lat": 38.927706666666666, "fusion_lat": 0.0, "type": "electric_scooter", "bike_id": "11a5eb6a6a7328908835428cae0e448c", "rental_uris": {"ios": "https://dc.lft.to/lastmile_qr_scan", "android": "https://dc.lft.to/lastmile_qr_scan"}, "fusion_lon": 0.0, "lon": -77.0324455, "name": "11a5eb6a6a7328908835428cae0e448c", "is_reserved": 0, "is_disabled": 0}, {"lat": 38.922377, "fusion_lat": 0.0, "type": "electric_scooter", "bike_id": "ec8aea76ed0076231d1f926f61baef9d", "rental_uris": {"ios": "https://dc.lft.to/lastmile_qr_scan", "android": "https://dc.lft.to/lastmile_qr_scan"}, "fusion_lon": 0.0, "lon": -77.07311383333334, "name": "ec8aea76ed0076231d1f926f61baef9d", "is_reserved": 0, "is_disabled": 0}, {"lat": 38.942008, "fusion_lat": 0.0, "type": "electric_scooter", "bike_id": "d471317af46a78998eef5e6468ac5a43", "rental_uris": {"ios": "https://dc.lft.to/lastmile_qr_scan", "android": "https://dc.lft.to/lastmile_qr_scan"}, "fusion_lon": 0.0, "lon": -77.025923, "name": "d471317af46a78998eef5e6468ac5a43", "is_reserved": 0, "is_disabled": 0}, {"lat": 38.927712166666666, "fusion_lat": 0.0, "type": "electric_scooter", "bike_id": "235b84be30c1f6981d01d09a6170bb4b", "rental_uris": {"ios": "https://dc.lft.to/lastmile_qr_scan", "android": "https://dc.lft.to/lastmile_qr_scan"}, "fusion_lon": 0.0, "lon": -77.02617883333333, "name": "235b84be30c1f6981d01d09a6170bb4b", "is_reserved": 0, "is_disabled": 0}, {"lat": 38.92883633333334, "fusion_lat": 0.0, "type": "electric_scooter", "bike_id": "5a88df917ab5709fac535b48d3d814f1", "rental_uris": {"ios": "https://dc.lft.to/lastmile_qr_scan", "android": "https://dc.lft.to/lastmile_qr_scan"}, "fusion_lon": 0.0, "lon": -77.033075, "name": "5a88df917ab5709fac535b48d3d814f1", "is_reserved": 0, "is_disabled": 0}, {"lat": 38.8921735, "fusion_lat": 0.0, "type": "electric_scooter", "bike_id": "f34087a48a405c74ad4e859c1d8b5d10", "rental_uris": {"ios": "https://dc.lft.to/lastmile_qr_scan", "android": "https://dc.lft.to/lastmile_qr_scan"}, "fusion_lon": 0.0, "lon": -77.02790483333334, "name": "f34087a48a405c74ad4e859c1d8b5d10", "is_reserved": 0, "is_disabled": 0}, {"lat": 38.92582633333333, "fusion_lat": 0.0, "type": "electric_scooter", "bike_id": "3254236967c64e676e7420ebabeae91d", "rental_uris": {"ios": "https://dc.lft.to/lastmile_qr_scan", "android": "https://dc.lft.to/lastmile_qr_scan"}, "fusion_lon": 0.0, "lon": -77.03532316666667, "name": "3254236967c64e676e7420ebabeae91d", "is_reserved": 0, "is_disabled": 0}, {"lat": 38.887303833333334, "fusion_lat": 0.0, "type": "electric_scooter", "bike_id": "92ca63cf3100d632a0e09024804817c1", "rental_uris": {"ios": "https://dc.lft.to/lastmile_qr_scan", "android": "https://dc.lft.to/lastmile_qr_scan"}, "fusion_lon": 0.0, "lon": -77.0238065, "name": "92ca63cf3100d632a0e09024804817c1", "is_reserved": 0, "is_disabled": 0}, {"lat": 38.90716166666667, "fusion_lat": 0.0, "type": "electric_scooter", "bike_id": "cc17650054aae3e142b1060793db4714", "rental_uris": {"ios": "https://dc.lft.to/lastmile_qr_scan", "android": "https://dc.lft.to/lastmile_qr_scan"}, "fusion_lon": 0.0, "lon": -77.029768, "name": "cc17650054aae3e142b1060793db4714", "is_reserved": 0, "is_disabled": 0}, {"lat": 38.89105383333333, "fusion_lat": 0.0, "type": "electric_bike", "bike_id": "d6a4d17a8cd44266b948436c6c028f95", "rental_uris": {"ios": "https://dc.lft.to/lastmile_qr_scan", "android": "https://dc.lft.to/lastmile_qr_scan"}, "fusion_lon": 0.0, "lon": -76.934771, "name": "d6a4d17a8cd44266b948436c6c028f95", "is_reserved": 0, "is_disabled": 0}, {"lat": 38.89197216666667, "fusion_lat": 0.0, "type": "electric_scooter", "bike_id": "58d99e988623bcbf040994994c5cf5c3", "rental_uris": {"ios": "https://dc.lft.to/lastmile_qr_scan", "android": "https://dc.lft.to/lastmile_qr_scan"}, "fusion_lon": 0.0, "lon": -77.0237845, "name": "58d99e988623bcbf040994994c5cf5c3", "is_reserved": 0, "is_disabled": 0}, {"lat": 38.9567255, "fusion_lat": 0.0, "type": "electric_scooter", "bike_id": "a570e697899194190cd2a0ae7dea9fc5", "rental_uris": {"ios": "https://dc.lft.to/lastmile_qr_scan", "android": "https://dc.lft.to/lastmile_qr_scan"}, "fusion_lon": 0.0, "lon": -77.01360516666666, "name": "a570e697899194190cd2a0ae7dea9fc5", "is_reserved": 0, "is_disabled": 0}, {"lat": 38.896031666666666, "fusion_lat": 0.0, "type": "electric_scooter", "bike_id": "9dc155e18914341b0e056bdd4234bb87", "rental_uris": {"ios": "https://dc.lft.to/lastmile_qr_scan", "android": "https://dc.lft.to/lastmile_qr_scan"}, "fusion_lon": 0.0, "lon": -77.00932233333333, "name": "9dc155e18914341b0e056bdd4234bb87", "is_reserved": 0, "is_disabled": 0}, {"lat": 38.900171, "fusion_lat": 0.0, "type": "electric_scooter", "bike_id": "ef2c752b551fc1ce08bd8c6d98f06102", "rental_uris": {"ios": "https://dc.lft.to/lastmile_qr_scan", "android": "https://dc.lft.to/lastmile_qr_scan"}, "fusion_lon": 0.0, "lon": -77.00667066666666, "name": "ef2c752b551fc1ce08bd8c6d98f06102", "is_reserved": 0, "is_disabled": 0}, {"lat": 38.911978833333336, "fusion_lat": 0.0, "type": "electric_scooter", "bike_id": "0c170952fcd844e2a1201f57c99f2c42", "rental_uris": {"ios": "https://dc.lft.to/lastmile_qr_scan", "android": "https://dc.lft.to/lastmile_qr_scan"}, "fusion_lon": 0.0, "lon": -77.04536233333333, "name": "0c170952fcd844e2a1201f57c99f2c42", "is_reserved": 0, "is_disabled": 0}, {"lat": 38.872985666666665, "fusion_lat": 0.0, "type": "electric_scooter", "bike_id": "908c4b2bd14cd76092789e37ae03c63c", "rental_uris": {"ios": "https://dc.lft.to/lastmile_qr_scan", "android": "https://dc.lft.to/lastmile_qr_scan"}, "fusion_lon": 0.0, "lon": -77.00977783333333, "name": "908c4b2bd14cd76092789e37ae03c63c", "is_reserved": 0, "is_disabled": 0}, {"lat": 38.905982333333334, "fusion_lat": 0.0, "type": "electric_scooter", "bike_id": "96321e99460379c4e7b5c6764e827ed5", "rental_uris": {"ios": "https://dc.lft.to/lastmile_qr_scan", "android": "https://dc.lft.to/lastmile_qr_scan"}, "fusion_lon": 0.0, "lon": -77.0260475, "name": "96321e99460379c4e7b5c6764e827ed5", "is_reserved": 0, "is_disabled": 0}, {"lat": 38.94196, "fusion_lat": 0.0, "type": "electric_scooter", "bike_id": "d4b0a874e0e9764bfe3a681b0d159e35", "rental_uris": {"ios": "https://dc.lft.to/lastmile_qr_scan", "android": "https://dc.lft.to/lastmile_qr_scan"}, "fusion_lon": 0.0, "lon": -77.02476966666667, "name": "d4b0a874e0e9764bfe3a681b0d159e35", "is_reserved": 0, "is_disabled": 0}, {"lat": 38.916416166666664, "fusion_lat": 0.0, "type": "electric_scooter", "bike_id": "cc599c4174ba351720d247c7a7257126", "rental_uris": {"ios": "https://dc.lft.to/lastmile_qr_scan", "android": "https://dc.lft.to/lastmile_qr_scan"}, "fusion_lon": 0.0, "lon": -77.01589816666667, "name": "cc599c4174ba351720d247c7a7257126", "is_reserved": 0, "is_disabled": 0}, {"lat": 38.89718466666667, "fusion_lat": 0.0, "type": "electric_scooter", "bike_id": "3f8603d9df185f1059eda946c94f8d79", "rental_uris": {"ios": "https://dc.lft.to/lastmile_qr_scan", "android": "https://dc.lft.to/lastmile_qr_scan"}, "fusion_lon": 0.0, "lon": -77.007992, "name": "3f8603d9df185f1059eda946c94f8d79", "is_reserved": 0, "is_disabled": 0}, {"lat": 38.90836, "fusion_lat": 0.0, "type": "electric_scooter", "bike_id": "4b611c10869854c148172b5ed53b3076", "rental_uris": {"ios": "https://dc.lft.to/lastmile_qr_scan", "android": "https://dc.lft.to/lastmile_qr_scan"}, "fusion_lon": 0.0, "lon": -77.02388166666667, "name": "4b611c10869854c148172b5ed53b3076", "is_reserved": 0, "is_disabled": 0}, {"lat": 38.920195, "fusion_lat": 0.0, "type": "electric_scooter", "bike_id": "84e261d9539210cec902474b455c03d8", "rental_uris": {"ios": "https://dc.lft.to/lastmile_qr_scan", "android": "https://dc.lft.to/lastmile_qr_scan"}, "fusion_lon": 0.0, "lon": -77.0218575, "name": "84e261d9539210cec902474b455c03d8", "is_reserved": 0, "is_disabled": 0}, {"lat": 38.922497, "fusion_lat": 0.0, "type": "electric_scooter", "bike_id": "f62e7b7858d5c9517025ff83036989fa", "rental_uris": {"ios": "https://dc.lft.to/lastmile_qr_scan", "android": "https://dc.lft.to/lastmile_qr_scan"}, "fusion_lon": 0.0, "lon": -77.03063833333333, "name": "f62e7b7858d5c9517025ff83036989fa", "is_reserved": 0, "is_disabled": 0}, {"lat": 38.90110333333333, "fusion_lat": 0.0, "type": "electric_scooter", "bike_id": "2a24221a28d727c0b92f90ceb2de4841", "rental_uris": {"ios": "https://dc.lft.to/lastmile_qr_scan", "android": "https://dc.lft.to/lastmile_qr_scan"}, "fusion_lon": 0.0, "lon": -77.02538416666667, "name": "2a24221a28d727c0b92f90ceb2de4841", "is_reserved": 0, "is_disabled": 0}, {"lat": 38.93775433333333, "fusion_lat": 0.0, "type": "electric_scooter", "bike_id": "22ea96075e5a358023470909a83ccce2", "rental_uris": {"ios": "https://dc.lft.to/lastmile_qr_scan", "android": "https://dc.lft.to/lastmile_qr_scan"}, "fusion_lon": 0.0, "lon": -77.03285583333333, "name": "22ea96075e5a358023470909a83ccce2", "is_reserved": 0, "is_disabled": 0}, {"lat": 38.91914116666667, "fusion_lat": 0.0, "type": "electric_scooter", "bike_id": "33f9d89fdfa45c8dcc979af3c819be8f", "rental_uris": {"ios": "https://dc.lft.to/lastmile_qr_scan", "android": "https://dc.lft.to/lastmile_qr_scan"}, "fusion_lon": 0.0, "lon": -77.026158, "name": "33f9d89fdfa45c8dcc979af3c819be8f", "is_reserved": 0, "is_disabled": 0}, {"lat": 38.89765233333333, "fusion_lat": 0.0, "type": "electric_scooter", "bike_id": "4fe2aff79fc6f34ac429b9816632dc00", "rental_uris": {"ios": "https://dc.lft.to/lastmile_qr_scan", "android": "https://dc.lft.to/lastmile_qr_scan"}, "fusion_lon": 0.0, "lon": -76.9864505, "name": "4fe2aff79fc6f34ac429b9816632dc00", "is_reserved": 0, "is_disabled": 0}, {"lat": 38.904874666666664, "fusion_lat": 0.0, "type": "electric_scooter", "bike_id": "fc45031c19f8175f9e0d84240db5699e", "rental_uris": {"ios": "https://dc.lft.to/lastmile_qr_scan", "android": "https://dc.lft.to/lastmile_qr_scan"}, "fusion_lon": 0.0, "lon": -77.03033283333333, "name": "fc45031c19f8175f9e0d84240db5699e", "is_reserved": 0, "is_disabled": 0}, {"lat": 38.899762833333334, "fusion_lat": 0.0, "type": "electric_scooter", "bike_id": "8c5d396f1a21234b204fa431f3da1f1f", "rental_uris": {"ios": "https://dc.lft.to/lastmile_qr_scan", "android": "https://dc.lft.to/lastmile_qr_scan"}, "fusion_lon": 0.0, "lon": -77.01616966666667, "name": "8c5d396f1a21234b204fa431f3da1f1f", "is_reserved": 0, "is_disabled": 0}, {"lat": 38.906693833333335, "fusion_lat": 0.0, "type": "electric_scooter", "bike_id": "2d4d217daf7345e49a03d9deab691405", "rental_uris": {"ios": "https://dc.lft.to/lastmile_qr_scan", "android": "https://dc.lft.to/lastmile_qr_scan"}, "fusion_lon": 0.0, "lon": -77.0269865, "name": "2d4d217daf7345e49a03d9deab691405", "is_reserved": 0, "is_disabled": 0}, {"lat": 38.8875495, "fusion_lat": 0.0, "type": "electric_scooter", "bike_id": "c274b5eb260dde4313b9c8b5125e25ff", "rental_uris": {"ios": "https://dc.lft.to/lastmile_qr_scan", "android": "https://dc.lft.to/lastmile_qr_scan"}, "fusion_lon": 0.0, "lon": -76.98697, "name": "c274b5eb260dde4313b9c8b5125e25ff", "is_reserved": 0, "is_disabled": 0}, {"lat": 38.934467166666664, "fusion_lat": 0.0, "type": "electric_scooter", "bike_id": "11f2b7ac250b70b8c6cc0416d4c5caa1", "rental_uris": {"ios": "https://dc.lft.to/lastmile_qr_scan", "android": "https://dc.lft.to/lastmile_qr_scan"}, "fusion_lon": 0.0, "lon": -77.09059033333334, "name": "11f2b7ac250b70b8c6cc0416d4c5caa1", "is_reserved": 0, "is_disabled": 0}, {"lat": 38.96151183333333, "fusion_lat": 0.0, "type": "electric_scooter", "bike_id": "f488e9ad5ccc1535fb13d5e179d9ab9e", "rental_uris": {"ios": "https://dc.lft.to/lastmile_qr_scan", "android": "https://dc.lft.to/lastmile_qr_scan"}, "fusion_lon": 0.0, "lon": -77.07364633333333, "name": "f488e9ad5ccc1535fb13d5e179d9ab9e", "is_reserved": 0, "is_disabled": 0}, {"lat": 38.9180215, "fusion_lat": 0.0, "type": "electric_scooter", "bike_id": "e7443991d49d11b7cb241a62a703dce3", "rental_uris": {"ios": "https://dc.lft.to/lastmile_qr_scan", "android": "https://dc.lft.to/lastmile_qr_scan"}, "fusion_lon": 0.0, "lon": -77.02486116666667, "name": "e7443991d49d11b7cb241a62a703dce3", "is_reserved": 0, "is_disabled": 0}, {"lat": 38.9113365, "fusion_lat": 0.0, "type": "electric_bike", "bike_id": "74f31882a00e02b63fd3a1db4bdb9420", "rental_uris": {"ios": "https://dc.lft.to/lastmile_qr_scan", "android": "https://dc.lft.to/lastmile_qr_scan"}, "fusion_lon": 0.0, "lon": -77.06574516666667, "name": "74f31882a00e02b63fd3a1db4bdb9420", "is_reserved": 0, "is_disabled": 0}, {"lat": 38.89685816666667, "fusion_lat": 0.0, "type": "electric_scooter", "bike_id": "95e5bf758d4774fa96d5d0f5e9a17c25", "rental_uris": {"ios": "https://dc.lft.to/lastmile_qr_scan", "android": "https://dc.lft.to/lastmile_qr_scan"}, "fusion_lon": 0.0, "lon": -76.937126, "name": "95e5bf758d4774fa96d5d0f5e9a17c25", "is_reserved": 0, "is_disabled": 0}, {"lat": 38.899144666666665, "fusion_lat": 0.0, "type": "electric_scooter", "bike_id": "bd96ab1b50205a77859ec1f33f74337f", "rental_uris": {"ios": "https://dc.lft.to/lastmile_qr_scan", "android": "https://dc.lft.to/lastmile_qr_scan"}, "fusion_lon": 0.0, "lon": -77.04154833333334, "name": "bd96ab1b50205a77859ec1f33f74337f", "is_reserved": 0, "is_disabled": 0}, {"lat": 38.9173325, "fusion_lat": 0.0, "type": "electric_scooter", "bike_id": "c5667cc65f885a9a5c7404cd6440e19b", "rental_uris": {"ios": "https://dc.lft.to/lastmile_qr_scan", "android": "https://dc.lft.to/lastmile_qr_scan"}, "fusion_lon": 0.0, "lon": -77.03607, "name": "c5667cc65f885a9a5c7404cd6440e19b", "is_reserved": 0, "is_disabled": 0}, {"lat": 38.92587966666667, "fusion_lat": 0.0, "type": "electric_scooter", "bike_id": "f7ec8e6880d46508f84eee4fdee081f2", "rental_uris": {"ios": "https://dc.lft.to/lastmile_qr_scan", "android": "https://dc.lft.to/lastmile_qr_scan"}, "fusion_lon": 0.0, "lon": -77.09678816666667, "name": "f7ec8e6880d46508f84eee4fdee081f2", "is_reserved": 0, "is_disabled": 0}, {"lat": 38.89241766666667, "fusion_lat": 0.0, "type": "electric_scooter", "bike_id": "455ccc1e67ad8137dd758b57b257afc1", "rental_uris": {"ios": "https://dc.lft.to/lastmile_qr_scan", "android": "https://dc.lft.to/lastmile_qr_scan"}, "fusion_lon": 0.0, "lon": -77.05028483333334, "name": "455ccc1e67ad8137dd758b57b257afc1", "is_reserved": 0, "is_disabled": 0}, {"lat": 38.910684, "fusion_lat": 0.0, "type": "electric_scooter", "bike_id": "328336e7e25d63a33b79d5938a34b209", "rental_uris": {"ios": "https://dc.lft.to/lastmile_qr_scan", "android": "https://dc.lft.to/lastmile_qr_scan"}, "fusion_lon": 0.0, "lon": -77.05384916666667, "name": "328336e7e25d63a33b79d5938a34b209", "is_reserved": 0, "is_disabled": 0}, {"lat": 38.892324333333335, "fusion_lat": 0.0, "type": "electric_scooter", "bike_id": "c975a8c8baafe47d94388d336b0ea194", "rental_uris": {"ios": "https://dc.lft.to/lastmile_qr_scan", "android": "https://dc.lft.to/lastmile_qr_scan"}, "fusion_lon": 0.0, "lon": -77.028021, "name": "c975a8c8baafe47d94388d336b0ea194", "is_reserved": 0, "is_disabled": 0}, {"lat": 38.900620833333335, "fusion_lat": 0.0, "type": "electric_scooter", "bike_id": "5973180e2813cc9588a897801cc0f705", "rental_uris": {"ios": "https://dc.lft.to/lastmile_qr_scan", "android": "https://dc.lft.to/lastmile_qr_scan"}, "fusion_lon": 0.0, "lon": -77.050549, "name": "5973180e2813cc9588a897801cc0f705", "is_reserved": 0, "is_disabled": 0}, {"lat": 38.923528, "fusion_lat": 0.0, "type": "electric_scooter", "bike_id": "02c8a701b7219c453e8f00ecb94f5107", "rental_uris": {"ios": "https://dc.lft.to/lastmile_qr_scan", "android": "https://dc.lft.to/lastmile_qr_scan"}, "fusion_lon": 0.0, "lon": -77.00330433333333, "name": "02c8a701b7219c453e8f00ecb94f5107", "is_reserved": 0, "is_disabled": 0}, {"lat": 38.8757985, "fusion_lat": 0.0, "type": "electric_bike", "bike_id": "6451253cf5fa481339e4f2edaf74b81a", "rental_uris": {"ios": "https://dc.lft.to/lastmile_qr_scan", "android": "https://dc.lft.to/lastmile_qr_scan"}, "fusion_lon": 0.0, "lon": -77.23411066666667, "name": "6451253cf5fa481339e4f2edaf74b81a", "is_reserved": 0, "is_disabled": 0}, {"lat": 38.915284166666666, "fusion_lat": 0.0, "type": "electric_scooter", "bike_id": "a031fd4ef7fd7f7080483fdbd057030b", "rental_uris": {"ios": "https://dc.lft.to/lastmile_qr_scan", "android": "https://dc.lft.to/lastmile_qr_scan"}, "fusion_lon": 0.0, "lon": -77.04860216666667, "name": "a031fd4ef7fd7f7080483fdbd057030b", "is_reserved": 0, "is_disabled": 0}, {"lat": 38.91716683333333, "fusion_lat": 0.0, "type": "electric_scooter", "bike_id": "e904c1adf393ab3226bae66c356f78a7", "rental_uris": {"ios": "https://dc.lft.to/lastmile_qr_scan", "android": "https://dc.lft.to/lastmile_qr_scan"}, "fusion_lon": 0.0, "lon": -77.02590183333334, "name": "e904c1adf393ab3226bae66c356f78a7", "is_reserved": 0, "is_disabled": 0}, {"lat": 38.89904966666667, "fusion_lat": 0.0, "type": "electric_scooter", "bike_id": "0523edc40deea48bde47cae0826f11ae", "rental_uris": {"ios": "https://dc.lft.to/lastmile_qr_scan", "android": "https://dc.lft.to/lastmile_qr_scan"}, "fusion_lon": 0.0, "lon": -76.99959033333333, "name": "0523edc40deea48bde47cae0826f11ae", "is_reserved": 0, "is_disabled": 0}, {"lat": 38.87023416666667, "fusion_lat": 0.0, "type": "electric_bike", "bike_id": "b2d51632ec5d125ef394f89ac1284a86", "rental_uris": {"ios": "https://dc.lft.to/lastmile_qr_scan", "android": "https://dc.lft.to/lastmile_qr_scan"}, "fusion_lon": 0.0, "lon": -77.22929683333334, "name": "b2d51632ec5d125ef394f89ac1284a86", "is_reserved": 0, "is_disabled": 0}, {"lat": 38.9001645, "fusion_lat": 0.0, "type": "electric_scooter", "bike_id": "1389222dd2b2cb01438327bfee46c344", "rental_uris": {"ios": "https://dc.lft.to/lastmile_qr_scan", "android": "https://dc.lft.to/lastmile_qr_scan"}, "fusion_lon": 0.0, "lon": -76.98851283333333, "name": "1389222dd2b2cb01438327bfee46c344", "is_reserved": 0, "is_disabled": 0}, {"lat": 38.921368666666666, "fusion_lat": 0.0, "type": "electric_bike", "bike_id": "e326a65f3b57a1755c95decd0d8a3003", "rental_uris": {"ios": "https://dc.lft.to/lastmile_qr_scan", "android": "https://dc.lft.to/lastmile_qr_scan"}, "fusion_lon": 0.0, "lon": -76.98881583333333, "name": "e326a65f3b57a1755c95decd0d8a3003", "is_reserved": 0, "is_disabled": 0}, {"lat": 38.897395833333334, "fusion_lat": 0.0, "type": "electric_bike", "bike_id": "5423fb32fdec3e0d5bb8607ff137e0e2", "rental_uris": {"ios": "https://dc.lft.to/lastmile_qr_scan", "android": "https://dc.lft.to/lastmile_qr_scan"}, "fusion_lon": 0.0, "lon": -76.99223583333334, "name": "5423fb32fdec3e0d5bb8607ff137e0e2", "is_reserved": 0, "is_disabled": 0}, {"lat": 38.93770133333334, "fusion_lat": 0.0, "type": "electric_scooter", "bike_id": "cc4a6b3de3d1749bd1973c2607c3300c", "rental_uris": {"ios": "https://dc.lft.to/lastmile_qr_scan", "android": "https://dc.lft.to/lastmile_qr_scan"}, "fusion_lon": 0.0, "lon": -77.02352333333333, "name": "cc4a6b3de3d1749bd1973c2607c3300c", "is_reserved": 0, "is_disabled": 0}, {"lat": 38.915534, "fusion_lat": 0.0, "type": "electric_scooter", "bike_id": "8a553bef220ce37b0e57547024adf9b5", "rental_uris": {"ios": "https://dc.lft.to/lastmile_qr_scan", "android": "https://dc.lft.to/lastmile_qr_scan"}, "fusion_lon": 0.0, "lon": -77.03253483333333, "name": "8a553bef220ce37b0e57547024adf9b5", "is_reserved": 0, "is_disabled": 0}, {"lat": 38.90256616666667, "fusion_lat": 0.0, "type": "electric_scooter", "bike_id": "17abd6bc9f1366153da2d844575c0a9a", "rental_uris": {"ios": "https://dc.lft.to/lastmile_qr_scan", "android": "https://dc.lft.to/lastmile_qr_scan"}, "fusion_lon": 0.0, "lon": -77.045995, "name": "17abd6bc9f1366153da2d844575c0a9a", "is_reserved": 0, "is_disabled": 0}, {"lat": 38.9248475, "fusion_lat": 0.0, "type": "electric_scooter", "bike_id": "06268f7156bd864957d9b5716e5d2fb7", "rental_uris": {"ios": "https://dc.lft.to/lastmile_qr_scan", "android": "https://dc.lft.to/lastmile_qr_scan"}, "fusion_lon": 0.0, "lon": -77.028381, "name": "06268f7156bd864957d9b5716e5d2fb7", "is_reserved": 0, "is_disabled": 0}, {"lat": 38.9363145, "fusion_lat": 0.0, "type": "electric_scooter", "bike_id": "b408e9b6ea4de05bdd5d1e23c8b33613", "rental_uris": {"ios": "https://dc.lft.to/lastmile_qr_scan", "android": "https://dc.lft.to/lastmile_qr_scan"}, "fusion_lon": 0.0, "lon": -77.0369175, "name": "b408e9b6ea4de05bdd5d1e23c8b33613", "is_reserved": 0, "is_disabled": 0}, {"lat": 38.93426633333333, "fusion_lat": 0.0, "type": "electric_scooter", "bike_id": "1a5d9ea0a7af0d4c26787b091d473389", "rental_uris": {"ios": "https://dc.lft.to/lastmile_qr_scan", "android": "https://dc.lft.to/lastmile_qr_scan"}, "fusion_lon": 0.0, "lon": -77.040038, "name": "1a5d9ea0a7af0d4c26787b091d473389", "is_reserved": 0, "is_disabled": 0}, {"lat": 38.99442, "fusion_lat": 0.0, "type": "electric_bike", "bike_id": "a2c917ee2c1fd3d4b397ea6ec72f2921", "rental_uris": {"ios": "https://dc.lft.to/lastmile_qr_scan", "android": "https://dc.lft.to/lastmile_qr_scan"}, "fusion_lon": 0.0, "lon": -77.02661366666666, "name": "a2c917ee2c1fd3d4b397ea6ec72f2921", "is_reserved": 0, "is_disabled": 0}, {"lat": 38.892400333333335, "fusion_lat": 0.0, "type": "electric_scooter", "bike_id": "dace86a6f6a1cebdc8599f5219ee9627", "rental_uris": {"ios": "https://dc.lft.to/lastmile_qr_scan", "android": "https://dc.lft.to/lastmile_qr_scan"}, "fusion_lon": 0.0, "lon": -77.04487483333334, "name": "dace86a6f6a1cebdc8599f5219ee9627", "is_reserved": 0, "is_disabled": 0}, {"lat": 38.94970683333333, "fusion_lat": 0.0, "type": "electric_scooter", "bike_id": "19c1a76aa3e77a5dfacd50a5a049581e", "rental_uris": {"ios": "https://dc.lft.to/lastmile_qr_scan", "android": "https://dc.lft.to/lastmile_qr_scan"}, "fusion_lon": 0.0, "lon": -77.09963966666666, "name": "19c1a76aa3e77a5dfacd50a5a049581e", "is_reserved": 0, "is_disabled": 0}, {"lat": 38.923598166666665, "fusion_lat": 0.0, "type": "electric_scooter", "bike_id": "de00ab2243cfe1f7c7ad37669101b08d", "rental_uris": {"ios": "https://dc.lft.to/lastmile_qr_scan", "android": "https://dc.lft.to/lastmile_qr_scan"}, "fusion_lon": 0.0, "lon": -77.0505085, "name": "de00ab2243cfe1f7c7ad37669101b08d", "is_reserved": 0, "is_disabled": 0}, {"lat": 38.847586, "fusion_lat": 0.0, "type": "electric_scooter", "bike_id": "c2c23803d5d51910474e1347ec75b4e1", "rental_uris": {"ios": "https://dc.lft.to/lastmile_qr_scan", "android": "https://dc.lft.to/lastmile_qr_scan"}, "fusion_lon": 0.0, "lon": -76.99501066666667, "name": "c2c23803d5d51910474e1347ec75b4e1", "is_reserved": 0, "is_disabled": 0}, {"lat": 38.9127805, "fusion_lat": 0.0, "type": "electric_scooter", "bike_id": "cba378b61d22ea03a17427590508c4de", "rental_uris": {"ios": "https://dc.lft.to/lastmile_qr_scan", "android": "https://dc.lft.to/lastmile_qr_scan"}, "fusion_lon": 0.0, "lon": -77.03850433333334, "name": "cba378b61d22ea03a17427590508c4de", "is_reserved": 0, "is_disabled": 0}, {"lat": 38.89977733333333, "fusion_lat": 0.0, "type": "electric_scooter", "bike_id": "1d457176aabe655252a1c5d6ddd56a26", "rental_uris": {"ios": "https://dc.lft.to/lastmile_qr_scan", "android": "https://dc.lft.to/lastmile_qr_scan"}, "fusion_lon": 0.0, "lon": -76.9854895, "name": "1d457176aabe655252a1c5d6ddd56a26", "is_reserved": 0, "is_disabled": 0}, {"lat": 38.904276333333335, "fusion_lat": 0.0, "type": "electric_scooter", "bike_id": "2759115d8af481d2a74409d7aa4ffe2c", "rental_uris": {"ios": "https://dc.lft.to/lastmile_qr_scan", "android": "https://dc.lft.to/lastmile_qr_scan"}, "fusion_lon": 0.0, "lon": -77.02601566666667, "name": "2759115d8af481d2a74409d7aa4ffe2c", "is_reserved": 0, "is_disabled": 0}, {"lat": 39.052561833333336, "fusion_lat": 0.0, "type": "electric_bike", "bike_id": "b5bb2e89147ffa1a870d088c778c5ebf", "rental_uris": {"ios": "https://dc.lft.to/lastmile_qr_scan", "android": "https://dc.lft.to/lastmile_qr_scan"}, "fusion_lon": 0.0, "lon": -77.08064916666666, "name": "b5bb2e89147ffa1a870d088c778c5ebf", "is_reserved": 0, "is_disabled": 0}, {"lat": 38.90637566666667, "fusion_lat": 0.0, "type": "electric_scooter", "bike_id": "c1e5a4b09dba498221671a41efbdc869", "rental_uris": {"ios": "https://dc.lft.to/lastmile_qr_scan", "android": "https://dc.lft.to/lastmile_qr_scan"}, "fusion_lon": 0.0, "lon": -77.03469766666667, "name": "c1e5a4b09dba498221671a41efbdc869", "is_reserved": 0, "is_disabled": 0}, {"lat": 38.916965833333336, "fusion_lat": 0.0, "type": "electric_scooter", "bike_id": "c8137d51581e9e7e6e908d741820472e", "rental_uris": {"ios": "https://dc.lft.to/lastmile_qr_scan", "android": "https://dc.lft.to/lastmile_qr_scan"}, "fusion_lon": 0.0, "lon": -77.012309, "name": "c8137d51581e9e7e6e908d741820472e", "is_reserved": 0, "is_disabled": 0}, {"lat": 38.8689265, "fusion_lat": 0.0, "type": "electric_bike", "bike_id": "6366055093e68167f5542dff9f15ac51", "rental_uris": {"ios": "https://dc.lft.to/lastmile_qr_scan", "android": "https://dc.lft.to/lastmile_qr_scan"}, "fusion_lon": 0.0, "lon": -76.98519633333333, "name": "6366055093e68167f5542dff9f15ac51", "is_reserved": 0, "is_disabled": 0}, {"lat": 38.90582466666667, "fusion_lat": 0.0, "type": "electric_scooter", "bike_id": "3274a7e8c4326d71bfba85b493003100", "rental_uris": {"ios": "https://dc.lft.to/lastmile_qr_scan", "android": "https://dc.lft.to/lastmile_qr_scan"}, "fusion_lon": 0.0, "lon": -77.018511, "name": "3274a7e8c4326d71bfba85b493003100", "is_reserved": 0, "is_disabled": 0}, {"lat": 38.893113166666666, "fusion_lat": 0.0, "type": "electric_scooter", "bike_id": "075252ac55079f7842cae3868789fc26", "rental_uris": {"ios": "https://dc.lft.to/lastmile_qr_scan", "android": "https://dc.lft.to/lastmile_qr_scan"}, "fusion_lon": 0.0, "lon": -77.0787665, "name": "075252ac55079f7842cae3868789fc26", "is_reserved": 0, "is_disabled": 0}, {"lat": 38.893894333333336, "fusion_lat": 0.0, "type": "electric_scooter", "bike_id": "7355746d179ee2970e34a0a83ae6a6e6", "rental_uris": {"ios": "https://dc.lft.to/lastmile_qr_scan", "android": "https://dc.lft.to/lastmile_qr_scan"}, "fusion_lon": 0.0, "lon": -76.92309566666667, "name": "7355746d179ee2970e34a0a83ae6a6e6", "is_reserved": 0, "is_disabled": 0}, {"lat": 38.90761066666666, "fusion_lat": 0.0, "type": "electric_scooter", "bike_id": "f6ee56576f1302b8335873af570bf855", "rental_uris": {"ios": "https://dc.lft.to/lastmile_qr_scan", "android": "https://dc.lft.to/lastmile_qr_scan"}, "fusion_lon": 0.0, "lon": -77.03840133333334, "name": "f6ee56576f1302b8335873af570bf855", "is_reserved": 0, "is_disabled": 0}, {"lat": 38.905061333333336, "fusion_lat": 0.0, "type": "electric_scooter", "bike_id": "3f6328aea7d414fa910babb1dd229093", "rental_uris": {"ios": "https://dc.lft.to/lastmile_qr_scan", "android": "https://dc.lft.to/lastmile_qr_scan"}, "fusion_lon": 0.0, "lon": -77.06469916666667, "name": "3f6328aea7d414fa910babb1dd229093", "is_reserved": 0, "is_disabled": 0}, {"lat": 38.921220166666664, "fusion_lat": 0.0, "type": "electric_bike", "bike_id": "0de7eab8e10c71f62604980e790d9195", "rental_uris": {"ios": "https://dc.lft.to/lastmile_qr_scan", "android": "https://dc.lft.to/lastmile_qr_scan"}, "fusion_lon": 0.0, "lon": -77.01210466666667, "name": "0de7eab8e10c71f62604980e790d9195", "is_reserved": 0, "is_disabled": 0}, {"lat": 38.921078, "fusion_lat": 0.0, "type": "electric_scooter", "bike_id": "3a414833074f62a0a3bbe47ee3fbbb4a", "rental_uris": {"ios": "https://dc.lft.to/lastmile_qr_scan", "android": "https://dc.lft.to/lastmile_qr_scan"}, "fusion_lon": 0.0, "lon": -77.02211983333333, "name": "3a414833074f62a0a3bbe47ee3fbbb4a", "is_reserved": 0, "is_disabled": 0}, {"lat": 38.90859016666667, "fusion_lat": 0.0, "type": "electric_scooter", "bike_id": "04c1e01d4659e87e74443f2491a7901a", "rental_uris": {"ios": "https://dc.lft.to/lastmile_qr_scan", "android": "https://dc.lft.to/lastmile_qr_scan"}, "fusion_lon": 0.0, "lon": -77.0016145, "name": "04c1e01d4659e87e74443f2491a7901a", "is_reserved": 0, "is_disabled": 0}, {"lat": 38.956371, "fusion_lat": 0.0, "type": "electric_bike", "bike_id": "69226897c233f84bb0b0001123ae5d53", "rental_uris": {"ios": "https://dc.lft.to/lastmile_qr_scan", "android": "https://dc.lft.to/lastmile_qr_scan"}, "fusion_lon": 0.0, "lon": -76.938713, "name": "69226897c233f84bb0b0001123ae5d53", "is_reserved": 0, "is_disabled": 0}, {"lat": 38.90852483333333, "fusion_lat": 0.0, "type": "electric_scooter", "bike_id": "e0b0402e8cc52f8a3c58e5386d593389", "rental_uris": {"ios": "https://dc.lft.to/lastmile_qr_scan", "android": "https://dc.lft.to/lastmile_qr_scan"}, "fusion_lon": 0.0, "lon": -77.02696583333334, "name": "e0b0402e8cc52f8a3c58e5386d593389", "is_reserved": 0, "is_disabled": 0}, {"lat": 38.932871666666664, "fusion_lat": 0.0, "type": "electric_scooter", "bike_id": "e686d64bb2c44b8d9c095e2e7269e3a5", "rental_uris": {"ios": "https://dc.lft.to/lastmile_qr_scan", "android": "https://dc.lft.to/lastmile_qr_scan"}, "fusion_lon": 0.0, "lon": -77.03549216666667, "name": "e686d64bb2c44b8d9c095e2e7269e3a5", "is_reserved": 0, "is_disabled": 0}, {"lat": 38.92780666666667, "fusion_lat": 0.0, "type": "electric_scooter", "bike_id": "10b1d0c3858e9637017c7964fdf8112e", "rental_uris": {"ios": "https://dc.lft.to/lastmile_qr_scan", "android": "https://dc.lft.to/lastmile_qr_scan"}, "fusion_lon": 0.0, "lon": -77.015683, "name": "10b1d0c3858e9637017c7964fdf8112e", "is_reserved": 0, "is_disabled": 0}, {"lat": 38.902651666666664, "fusion_lat": 0.0, "type": "electric_scooter", "bike_id": "919812c960f901fcea75e5d147014127", "rental_uris": {"ios": "https://dc.lft.to/lastmile_qr_scan", "android": "https://dc.lft.to/lastmile_qr_scan"}, "fusion_lon": 0.0, "lon": -77.0356845, "name": "919812c960f901fcea75e5d147014127", "is_reserved": 0, "is_disabled": 0}, {"lat": 38.8923045, "fusion_lat": 0.0, "type": "electric_scooter", "bike_id": "62f03351e8d8b0bb9e29c3d03e3df290", "rental_uris": {"ios": "https://dc.lft.to/lastmile_qr_scan", "android": "https://dc.lft.to/lastmile_qr_scan"}, "fusion_lon": 0.0, "lon": -77.05005466666667, "name": "62f03351e8d8b0bb9e29c3d03e3df290", "is_reserved": 0, "is_disabled": 0}, {"lat": 38.91099, "fusion_lat": 0.0, "type": "electric_scooter", "bike_id": "0bffee88efac4982508b467e2c3c5aea", "rental_uris": {"ios": "https://dc.lft.to/lastmile_qr_scan", "android": "https://dc.lft.to/lastmile_qr_scan"}, "fusion_lon": 0.0, "lon": -77.04499316666667, "name": "0bffee88efac4982508b467e2c3c5aea", "is_reserved": 0, "is_disabled": 0}, {"lat": 38.92033266666667, "fusion_lat": 0.0, "type": "electric_scooter", "bike_id": "a1fdd50df299bc84c1135c3b9fe453ba", "rental_uris": {"ios": "https://dc.lft.to/lastmile_qr_scan", "android": "https://dc.lft.to/lastmile_qr_scan"}, "fusion_lon": 0.0, "lon": -77.03850733333333, "name": "a1fdd50df299bc84c1135c3b9fe453ba", "is_reserved": 0, "is_disabled": 0}, {"lat": 38.9042515, "fusion_lat": 0.0, "type": "electric_scooter", "bike_id": "71f5bb7df6f95c321c672e1a0d0ba4bc", "rental_uris": {"ios": "https://dc.lft.to/lastmile_qr_scan", "android": "https://dc.lft.to/lastmile_qr_scan"}, "fusion_lon": 0.0, "lon": -77.02600433333333, "name": "71f5bb7df6f95c321c672e1a0d0ba4bc", "is_reserved": 0, "is_disabled": 0}, {"lat": 38.914738666666665, "fusion_lat": 0.0, "type": "electric_scooter", "bike_id": "e005efd38bdd136eac85185a6bbbb556", "rental_uris": {"ios": "https://dc.lft.to/lastmile_qr_scan", "android": "https://dc.lft.to/lastmile_qr_scan"}, "fusion_lon": 0.0, "lon": -77.02455333333333, "name": "e005efd38bdd136eac85185a6bbbb556", "is_reserved": 0, "is_disabled": 0}, {"lat": 38.9201215, "fusion_lat": 0.0, "type": "electric_scooter", "bike_id": "197b8ebe18403935b151458449af376f", "rental_uris": {"ios": "https://dc.lft.to/lastmile_qr_scan", "android": "https://dc.lft.to/lastmile_qr_scan"}, "fusion_lon": 0.0, "lon": -77.03215733333333, "name": "197b8ebe18403935b151458449af376f", "is_reserved": 0, "is_disabled": 0}, {"lat": 38.89221033333333, "fusion_lat": 0.0, "type": "electric_scooter", "bike_id": "85a36bb284d3c965131a38f463402676", "rental_uris": {"ios": "https://dc.lft.to/lastmile_qr_scan", "android": "https://dc.lft.to/lastmile_qr_scan"}, "fusion_lon": 0.0, "lon": -77.02656733333333, "name": "85a36bb284d3c965131a38f463402676", "is_reserved": 0, "is_disabled": 0}, {"lat": 38.9070705, "fusion_lat": 0.0, "type": "electric_scooter", "bike_id": "a74c41fb3db9a4eb2176fc727a1e05a0", "rental_uris": {"ios": "https://dc.lft.to/lastmile_qr_scan", "android": "https://dc.lft.to/lastmile_qr_scan"}, "fusion_lon": 0.0, "lon": -76.98699816666667, "name": "a74c41fb3db9a4eb2176fc727a1e05a0", "is_reserved": 0, "is_disabled": 0}, {"lat": 38.88493866666666, "fusion_lat": 0.0, "type": "electric_scooter", "bike_id": "796419f39c82a1f0068ca059dd623f4c", "rental_uris": {"ios": "https://dc.lft.to/lastmile_qr_scan", "android": "https://dc.lft.to/lastmile_qr_scan"}, "fusion_lon": 0.0, "lon": -76.98059716666667, "name": "796419f39c82a1f0068ca059dd623f4c", "is_reserved": 0, "is_disabled": 0}, {"lat": 38.902265166666666, "fusion_lat": 0.0, "type": "electric_scooter", "bike_id": "4c9f0174c84dae797834d72ecf319166", "rental_uris": {"ios": "https://dc.lft.to/lastmile_qr_scan", "android": "https://dc.lft.to/lastmile_qr_scan"}, "fusion_lon": 0.0, "lon": -76.94197333333334, "name": "4c9f0174c84dae797834d72ecf319166", "is_reserved": 0, "is_disabled": 0}, {"lat": 38.920946, "fusion_lat": 0.0, "type": "electric_scooter", "bike_id": "0fecb09092b7066d4fac103ebe9fd6db", "rental_uris": {"ios": "https://dc.lft.to/lastmile_qr_scan", "android": "https://dc.lft.to/lastmile_qr_scan"}, "fusion_lon": 0.0, "lon": -77.07549733333333, "name": "0fecb09092b7066d4fac103ebe9fd6db", "is_reserved": 0, "is_disabled": 0}, {"lat": 38.905548333333336, "fusion_lat": 0.0, "type": "electric_scooter", "bike_id": "4929aa878088bb37298a4a9616be5c55", "rental_uris": {"ios": "https://dc.lft.to/lastmile_qr_scan", "android": "https://dc.lft.to/lastmile_qr_scan"}, "fusion_lon": 0.0, "lon": -76.994898, "name": "4929aa878088bb37298a4a9616be5c55", "is_reserved": 0, "is_disabled": 0}, {"lat": 38.88609433333333, "fusion_lat": 0.0, "type": "electric_scooter", "bike_id": "93169f79f570f65075a5eca221f7159d", "rental_uris": {"ios": "https://dc.lft.to/lastmile_qr_scan", "android": "https://dc.lft.to/lastmile_qr_scan"}, "fusion_lon": 0.0, "lon": -77.0219085, "name": "93169f79f570f65075a5eca221f7159d", "is_reserved": 0, "is_disabled": 0}, {"lat": 38.914379833333335, "fusion_lat": 0.0, "type": "electric_scooter", "bike_id": "42e2fd77425b010f49b737b7db9eba6f", "rental_uris": {"ios": "https://dc.lft.to/lastmile_qr_scan", "android": "https://dc.lft.to/lastmile_qr_scan"}, "fusion_lon": 0.0, "lon": -77.01220916666666, "name": "42e2fd77425b010f49b737b7db9eba6f", "is_reserved": 0, "is_disabled": 0}, {"lat": 38.9244415, "fusion_lat": 0.0, "type": "electric_scooter", "bike_id": "d3d372afb1977c207147112f989668ed", "rental_uris": {"ios": "https://dc.lft.to/lastmile_qr_scan", "android": "https://dc.lft.to/lastmile_qr_scan"}, "fusion_lon": 0.0, "lon": -77.0202245, "name": "d3d372afb1977c207147112f989668ed", "is_reserved": 0, "is_disabled": 0}, {"lat": 38.93623983333333, "fusion_lat": 0.0, "type": "electric_scooter", "bike_id": "03a7d5b2ab14ad8e4d87b4743a5a638a", "rental_uris": {"ios": "https://dc.lft.to/lastmile_qr_scan", "android": "https://dc.lft.to/lastmile_qr_scan"}, "fusion_lon": 0.0, "lon": -77.0589025, "name": "03a7d5b2ab14ad8e4d87b4743a5a638a", "is_reserved": 0, "is_disabled": 0}, {"lat": 38.919366833333335, "fusion_lat": 0.0, "type": "electric_scooter", "bike_id": "9d2a53626e0a5db2cec850b29b7576f9", "rental_uris": {"ios": "https://dc.lft.to/lastmile_qr_scan", "android": "https://dc.lft.to/lastmile_qr_scan"}, "fusion_lon": 0.0, "lon": -77.02424833333333, "name": "9d2a53626e0a5db2cec850b29b7576f9", "is_reserved": 0, "is_disabled": 0}, {"lat": 38.89479716666666, "fusion_lat": 0.0, "type": "electric_scooter", "bike_id": "0b71ddb8d8ea295776ae86419aeab82b", "rental_uris": {"ios": "https://dc.lft.to/lastmile_qr_scan", "android": "https://dc.lft.to/lastmile_qr_scan"}, "fusion_lon": 0.0, "lon": -77.01093383333334, "name": "0b71ddb8d8ea295776ae86419aeab82b", "is_reserved": 0, "is_disabled": 0}, {"lat": 38.915563666666664, "fusion_lat": 0.0, "type": "electric_scooter", "bike_id": "3db935d38250e27603572c6d20c82acc", "rental_uris": {"ios": "https://dc.lft.to/lastmile_qr_scan", "android": "https://dc.lft.to/lastmile_qr_scan"}, "fusion_lon": 0.0, "lon": -77.0205545, "name": "3db935d38250e27603572c6d20c82acc", "is_reserved": 0, "is_disabled": 0}, {"lat": 38.90119216666667, "fusion_lat": 0.0, "type": "electric_scooter", "bike_id": "7fd1bae50523c18d6121461731398f8d", "rental_uris": {"ios": "https://dc.lft.to/lastmile_qr_scan", "android": "https://dc.lft.to/lastmile_qr_scan"}, "fusion_lon": 0.0, "lon": -77.03198483333334, "name": "7fd1bae50523c18d6121461731398f8d", "is_reserved": 0, "is_disabled": 0}, {"lat": 38.902544, "fusion_lat": 0.0, "type": "electric_scooter", "bike_id": "0a55d47d6bc9b6bf887d0095ed794eda", "rental_uris": {"ios": "https://dc.lft.to/lastmile_qr_scan", "android": "https://dc.lft.to/lastmile_qr_scan"}, "fusion_lon": 0.0, "lon": -77.02115066666667, "name": "0a55d47d6bc9b6bf887d0095ed794eda", "is_reserved": 0, "is_disabled": 0}, {"lat": 38.90359433333333, "fusion_lat": 0.0, "type": "electric_scooter", "bike_id": "0ddb12e90501b9cd52126d0d294f4906", "rental_uris": {"ios": "https://dc.lft.to/lastmile_qr_scan", "android": "https://dc.lft.to/lastmile_qr_scan"}, "fusion_lon": 0.0, "lon": -77.0175495, "name": "0ddb12e90501b9cd52126d0d294f4906", "is_reserved": 0, "is_disabled": 0}, {"lat": 38.923518666666666, "fusion_lat": 0.0, "type": "electric_scooter", "bike_id": "bb692b469abee38b9f13bb73607c54ff", "rental_uris": {"ios": "https://dc.lft.to/lastmile_qr_scan", "android": "https://dc.lft.to/lastmile_qr_scan"}, "fusion_lon": 0.0, "lon": -77.05054266666667, "name": "bb692b469abee38b9f13bb73607c54ff", "is_reserved": 0, "is_disabled": 0}, {"lat": 38.918196, "fusion_lat": 0.0, "type": "electric_scooter", "bike_id": "96e82b2b371060c37b871dee3617f10a", "rental_uris": {"ios": "https://dc.lft.to/lastmile_qr_scan", "android": "https://dc.lft.to/lastmile_qr_scan"}, "fusion_lon": 0.0, "lon": -77.02533183333334, "name": "96e82b2b371060c37b871dee3617f10a", "is_reserved": 0, "is_disabled": 0}, {"lat": 38.86014683333333, "fusion_lat": 0.0, "type": "electric_scooter", "bike_id": "f97b2db370ee521c810c378dc70634c2", "rental_uris": {"ios": "https://dc.lft.to/lastmile_qr_scan", "android": "https://dc.lft.to/lastmile_qr_scan"}, "fusion_lon": 0.0, "lon": -76.96704816666667, "name": "f97b2db370ee521c810c378dc70634c2", "is_reserved": 0, "is_disabled": 0}, {"lat": 38.9082265, "fusion_lat": 0.0, "type": "electric_scooter", "bike_id": "e2e3b1de1ed582a14c8dbcf997baf09b", "rental_uris": {"ios": "https://dc.lft.to/lastmile_qr_scan", "android": "https://dc.lft.to/lastmile_qr_scan"}, "fusion_lon": 0.0, "lon": -77.03202933333333, "name": "e2e3b1de1ed582a14c8dbcf997baf09b", "is_reserved": 0, "is_disabled": 0}, {"lat": 38.918509666666665, "fusion_lat": 0.0, "type": "electric_scooter", "bike_id": "1ddf44c3d84e4eeeb0a0b307d92221f1", "rental_uris": {"ios": "https://dc.lft.to/lastmile_qr_scan", "android": "https://dc.lft.to/lastmile_qr_scan"}, "fusion_lon": 0.0, "lon": -76.96544233333333, "name": "1ddf44c3d84e4eeeb0a0b307d92221f1", "is_reserved": 0, "is_disabled": 0}, {"lat": 38.91105666666667, "fusion_lat": 0.0, "type": "electric_scooter", "bike_id": "05fbb2d89122f9d71e1ab7429f4daa3a", "rental_uris": {"ios": "https://dc.lft.to/lastmile_qr_scan", "android": "https://dc.lft.to/lastmile_qr_scan"}, "fusion_lon": 0.0, "lon": -77.0454305, "name": "05fbb2d89122f9d71e1ab7429f4daa3a", "is_reserved": 0, "is_disabled": 0}, {"lat": 38.897443833333334, "fusion_lat": 0.0, "type": "electric_scooter", "bike_id": "afd9fd3360b8c83334c46f0a9ba98282", "rental_uris": {"ios": "https://dc.lft.to/lastmile_qr_scan", "android": "https://dc.lft.to/lastmile_qr_scan"}, "fusion_lon": 0.0, "lon": -77.02392083333334, "name": "afd9fd3360b8c83334c46f0a9ba98282", "is_reserved": 0, "is_disabled": 0}, {"lat": 38.98042016666667, "fusion_lat": 0.0, "type": "electric_bike", "bike_id": "954fa34774fc635b6edbe50130746807", "rental_uris": {"ios": "https://dc.lft.to/lastmile_qr_scan", "android": "https://dc.lft.to/lastmile_qr_scan"}, "fusion_lon": 0.0, "lon": -76.95791833333334, "name": "954fa34774fc635b6edbe50130746807", "is_reserved": 0, "is_disabled": 0}, {"lat": 38.89623233333333, "fusion_lat": 0.0, "type": "electric_scooter", "bike_id": "2a420f113edfa997a84bcdea66e73620", "rental_uris": {"ios": "https://dc.lft.to/lastmile_qr_scan", "android": "https://dc.lft.to/lastmile_qr_scan"}, "fusion_lon": 0.0, "lon": -77.0295025, "name": "2a420f113edfa997a84bcdea66e73620", "is_reserved": 0, "is_disabled": 0}, {"lat": 38.89705083333333, "fusion_lat": 0.0, "type": "electric_scooter", "bike_id": "b2f570886e68128dbfc79e2b15a5a77c", "rental_uris": {"ios": "https://dc.lft.to/lastmile_qr_scan", "android": "https://dc.lft.to/lastmile_qr_scan"}, "fusion_lon": 0.0, "lon": -76.9357065, "name": "b2f570886e68128dbfc79e2b15a5a77c", "is_reserved": 0, "is_disabled": 0}, {"lat": 38.96127583333333, "fusion_lat": 0.0, "type": "electric_scooter", "bike_id": "e611199f36d8d5cd82ab6f9e455d5ba7", "rental_uris": {"ios": "https://dc.lft.to/lastmile_qr_scan", "android": "https://dc.lft.to/lastmile_qr_scan"}, "fusion_lon": 0.0, "lon": -77.02825133333333, "name": "e611199f36d8d5cd82ab6f9e455d5ba7", "is_reserved": 0, "is_disabled": 0}, {"lat": 38.934552833333335, "fusion_lat": 0.0, "type": "electric_scooter", "bike_id": "3fe5d38966b9f0578d13fcf5f84d82ee", "rental_uris": {"ios": "https://dc.lft.to/lastmile_qr_scan", "android": "https://dc.lft.to/lastmile_qr_scan"}, "fusion_lon": 0.0, "lon": -77.029169, "name": "3fe5d38966b9f0578d13fcf5f84d82ee", "is_reserved": 0, "is_disabled": 0}, {"lat": 38.912707, "fusion_lat": 0.0, "type": "electric_scooter", "bike_id": "04b676f8209098a02b93538a97c1562c", "rental_uris": {"ios": "https://dc.lft.to/lastmile_qr_scan", "android": "https://dc.lft.to/lastmile_qr_scan"}, "fusion_lon": 0.0, "lon": -77.0743235, "name": "04b676f8209098a02b93538a97c1562c", "is_reserved": 0, "is_disabled": 0}, {"lat": 38.94455983333334, "fusion_lat": 0.0, "type": "electric_scooter", "bike_id": "db7c2902d7337a35b6b36b5c1cdc6778", "rental_uris": {"ios": "https://dc.lft.to/lastmile_qr_scan", "android": "https://dc.lft.to/lastmile_qr_scan"}, "fusion_lon": 0.0, "lon": -77.06351933333333, "name": "db7c2902d7337a35b6b36b5c1cdc6778", "is_reserved": 0, "is_disabled": 0}, {"lat": 38.92806483333333, "fusion_lat": 0.0, "type": "electric_scooter", "bike_id": "425ecc5ee6c5814fbb7e6ea8ab6a6d36", "rental_uris": {"ios": "https://dc.lft.to/lastmile_qr_scan", "android": "https://dc.lft.to/lastmile_qr_scan"}, "fusion_lon": 0.0, "lon": -77.03637866666666, "name": "425ecc5ee6c5814fbb7e6ea8ab6a6d36", "is_reserved": 0, "is_disabled": 0}, {"lat": 38.90949666666667, "fusion_lat": 0.0, "type": "electric_scooter", "bike_id": "ba57f14d3559ae080a35fc9aee2c4eb3", "rental_uris": {"ios": "https://dc.lft.to/lastmile_qr_scan", "android": "https://dc.lft.to/lastmile_qr_scan"}, "fusion_lon": 0.0, "lon": -77.0320865, "name": "ba57f14d3559ae080a35fc9aee2c4eb3", "is_reserved": 0, "is_disabled": 0}, {"lat": 38.89760016666666, "fusion_lat": 0.0, "type": "electric_scooter", "bike_id": "3fbf558defca33f45268d96352274a3f", "rental_uris": {"ios": "https://dc.lft.to/lastmile_qr_scan", "android": "https://dc.lft.to/lastmile_qr_scan"}, "fusion_lon": 0.0, "lon": -76.98552033333333, "name": "3fbf558defca33f45268d96352274a3f", "is_reserved": 0, "is_disabled": 0}, {"lat": 38.9207615, "fusion_lat": 0.0, "type": "electric_scooter", "bike_id": "649e556185eedf15baf6d69ab2aa052f", "rental_uris": {"ios": "https://dc.lft.to/lastmile_qr_scan", "android": "https://dc.lft.to/lastmile_qr_scan"}, "fusion_lon": 0.0, "lon": -77.02316266666666, "name": "649e556185eedf15baf6d69ab2aa052f", "is_reserved": 0, "is_disabled": 0}, {"lat": 38.916164333333334, "fusion_lat": 0.0, "type": "electric_scooter", "bike_id": "2e832879cc7205378764032244ba634e", "rental_uris": {"ios": "https://dc.lft.to/lastmile_qr_scan", "android": "https://dc.lft.to/lastmile_qr_scan"}, "fusion_lon": 0.0, "lon": -77.0319975, "name": "2e832879cc7205378764032244ba634e", "is_reserved": 0, "is_disabled": 0}, {"lat": 38.920349333333334, "fusion_lat": 0.0, "type": "electric_scooter", "bike_id": "84e4a0e20122226664a632aef9279ba3", "rental_uris": {"ios": "https://dc.lft.to/lastmile_qr_scan", "android": "https://dc.lft.to/lastmile_qr_scan"}, "fusion_lon": 0.0, "lon": -77.0175925, "name": "84e4a0e20122226664a632aef9279ba3", "is_reserved": 0, "is_disabled": 0}, {"lat": 38.899289, "fusion_lat": 0.0, "type": "electric_scooter", "bike_id": "c83355cda7555ae54d8f55b8ad109901", "rental_uris": {"ios": "https://dc.lft.to/lastmile_qr_scan", "android": "https://dc.lft.to/lastmile_qr_scan"}, "fusion_lon": 0.0, "lon": -77.01272516666667, "name": "c83355cda7555ae54d8f55b8ad109901", "is_reserved": 0, "is_disabled": 0}, {"lat": 38.92075216666667, "fusion_lat": 0.0, "type": "electric_scooter", "bike_id": "f71f0a0f2b2fb02968a579342a21a475", "rental_uris": {"ios": "https://dc.lft.to/lastmile_qr_scan", "android": "https://dc.lft.to/lastmile_qr_scan"}, "fusion_lon": 0.0, "lon": -77.02313983333333, "name": "f71f0a0f2b2fb02968a579342a21a475", "is_reserved": 0, "is_disabled": 0}, {"lat": 38.94418366666667, "fusion_lat": 0.0, "type": "electric_scooter", "bike_id": "6321d1500213c2561734dd689dc1eb47", "rental_uris": {"ios": "https://dc.lft.to/lastmile_qr_scan", "android": "https://dc.lft.to/lastmile_qr_scan"}, "fusion_lon": 0.0, "lon": -77.0177875, "name": "6321d1500213c2561734dd689dc1eb47", "is_reserved": 0, "is_disabled": 0}, {"lat": 38.89707416666667, "fusion_lat": 0.0, "type": "electric_scooter", "bike_id": "8434f8c21ae8f9281b4be64c39504e73", "rental_uris": {"ios": "https://dc.lft.to/lastmile_qr_scan", "android": "https://dc.lft.to/lastmile_qr_scan"}, "fusion_lon": 0.0, "lon": -77.02802583333333, "name": "8434f8c21ae8f9281b4be64c39504e73", "is_reserved": 0, "is_disabled": 0}, {"lat": 38.8594865, "fusion_lat": 0.0, "type": "electric_scooter", "bike_id": "3fbb73562051df7ef507bc3b9e59f086", "rental_uris": {"ios": "https://dc.lft.to/lastmile_qr_scan", "android": "https://dc.lft.to/lastmile_qr_scan"}, "fusion_lon": 0.0, "lon": -76.958799, "name": "3fbb73562051df7ef507bc3b9e59f086", "is_reserved": 0, "is_disabled": 0}, {"lat": 38.876536333333334, "fusion_lat": 0.0, "type": "electric_scooter", "bike_id": "b1b332861ce52d0d5029a448ad407b37", "rental_uris": {"ios": "https://dc.lft.to/lastmile_qr_scan", "android": "https://dc.lft.to/lastmile_qr_scan"}, "fusion_lon": 0.0, "lon": -77.00583316666666, "name": "b1b332861ce52d0d5029a448ad407b37", "is_reserved": 0, "is_disabled": 0}, {"lat": 38.92268683333333, "fusion_lat": 0.0, "type": "electric_scooter", "bike_id": "484e32a4366e995779a0e231d8226dfb", "rental_uris": {"ios": "https://dc.lft.to/lastmile_qr_scan", "android": "https://dc.lft.to/lastmile_qr_scan"}, "fusion_lon": 0.0, "lon": -76.99784766666667, "name": "484e32a4366e995779a0e231d8226dfb", "is_reserved": 0, "is_disabled": 0}, {"lat": 38.874596833333335, "fusion_lat": 0.0, "type": "electric_scooter", "bike_id": "9a8bac4cc05a0bf2e47e9362b836649a", "rental_uris": {"ios": "https://dc.lft.to/lastmile_qr_scan", "android": "https://dc.lft.to/lastmile_qr_scan"}, "fusion_lon": 0.0, "lon": -77.005421, "name": "9a8bac4cc05a0bf2e47e9362b836649a", "is_reserved": 0, "is_disabled": 0}, {"lat": 38.94296116666666, "fusion_lat": 0.0, "type": "electric_bike", "bike_id": "06b2432fc310b8c78ab3e853447f1936", "rental_uris": {"ios": "https://dc.lft.to/lastmile_qr_scan", "android": "https://dc.lft.to/lastmile_qr_scan"}, "fusion_lon": 0.0, "lon": -76.97393283333334, "name": "06b2432fc310b8c78ab3e853447f1936", "is_reserved": 0, "is_disabled": 0}, {"lat": 38.922255166666666, "fusion_lat": 0.0, "type": "electric_scooter", "bike_id": "eeafbee7e7179e8cd4dcf82a0b5058ed", "rental_uris": {"ios": "https://dc.lft.to/lastmile_qr_scan", "android": "https://dc.lft.to/lastmile_qr_scan"}, "fusion_lon": 0.0, "lon": -77.04239683333333, "name": "eeafbee7e7179e8cd4dcf82a0b5058ed", "is_reserved": 0, "is_disabled": 0}, {"lat": 38.892304333333335, "fusion_lat": 0.0, "type": "electric_scooter", "bike_id": "2423fb33cd6299c79c117946a9c99f01", "rental_uris": {"ios": "https://dc.lft.to/lastmile_qr_scan", "android": "https://dc.lft.to/lastmile_qr_scan"}, "fusion_lon": 0.0, "lon": -77.02182166666667, "name": "2423fb33cd6299c79c117946a9c99f01", "is_reserved": 0, "is_disabled": 0}, {"lat": 38.9181555, "fusion_lat": 0.0, "type": "electric_scooter", "bike_id": "f63c86fc3c87dcdafa57706f9ca5fe23", "rental_uris": {"ios": "https://dc.lft.to/lastmile_qr_scan", "android": "https://dc.lft.to/lastmile_qr_scan"}, "fusion_lon": 0.0, "lon": -77.01210483333334, "name": "f63c86fc3c87dcdafa57706f9ca5fe23", "is_reserved": 0, "is_disabled": 0}, {"lat": 38.906285833333335, "fusion_lat": 0.0, "type": "electric_scooter", "bike_id": "9208f76651df508cd7530f41df15e065", "rental_uris": {"ios": "https://dc.lft.to/lastmile_qr_scan", "android": "https://dc.lft.to/lastmile_qr_scan"}, "fusion_lon": 0.0, "lon": -77.05135566666667, "name": "9208f76651df508cd7530f41df15e065", "is_reserved": 0, "is_disabled": 0}, {"lat": 38.9237525, "fusion_lat": 0.0, "type": "electric_scooter", "bike_id": "9e8033b9c12031670c5868370d804394", "rental_uris": {"ios": "https://dc.lft.to/lastmile_qr_scan", "android": "https://dc.lft.to/lastmile_qr_scan"}, "fusion_lon": 0.0, "lon": -77.0225735, "name": "9e8033b9c12031670c5868370d804394", "is_reserved": 0, "is_disabled": 0}, {"lat": 38.895298, "fusion_lat": 0.0, "type": "electric_scooter", "bike_id": "e377c0318dca681a2a468038747f9c57", "rental_uris": {"ios": "https://dc.lft.to/lastmile_qr_scan", "android": "https://dc.lft.to/lastmile_qr_scan"}, "fusion_lon": 0.0, "lon": -76.94931183333334, "name": "e377c0318dca681a2a468038747f9c57", "is_reserved": 0, "is_disabled": 0}, {"lat": 38.92492383333333, "fusion_lat": 0.0, "type": "electric_scooter", "bike_id": "e78ccf057f57bb6dc60a7f026fe2dfe8", "rental_uris": {"ios": "https://dc.lft.to/lastmile_qr_scan", "android": "https://dc.lft.to/lastmile_qr_scan"}, "fusion_lon": 0.0, "lon": -77.03911216666667, "name": "e78ccf057f57bb6dc60a7f026fe2dfe8", "is_reserved": 0, "is_disabled": 0}, {"lat": 38.9389745, "fusion_lat": 0.0, "type": "electric_scooter", "bike_id": "b87bce0fca35265e9d5620e24af609d4", "rental_uris": {"ios": "https://dc.lft.to/lastmile_qr_scan", "android": "https://dc.lft.to/lastmile_qr_scan"}, "fusion_lon": 0.0, "lon": -76.9860795, "name": "b87bce0fca35265e9d5620e24af609d4", "is_reserved": 0, "is_disabled": 0}, {"lat": 38.916269166666666, "fusion_lat": 0.0, "type": "electric_scooter", "bike_id": "b7cc403a0babefa08628495208b164e7", "rental_uris": {"ios": "https://dc.lft.to/lastmile_qr_scan", "android": "https://dc.lft.to/lastmile_qr_scan"}, "fusion_lon": 0.0, "lon": -77.02692933333333, "name": "b7cc403a0babefa08628495208b164e7", "is_reserved": 0, "is_disabled": 0}, {"lat": 38.899965, "fusion_lat": 0.0, "type": "electric_scooter", "bike_id": "c4162c5f617eb8de27cbec89e12b75d5", "rental_uris": {"ios": "https://dc.lft.to/lastmile_qr_scan", "android": "https://dc.lft.to/lastmile_qr_scan"}, "fusion_lon": 0.0, "lon": -77.00148266666666, "name": "c4162c5f617eb8de27cbec89e12b75d5", "is_reserved": 0, "is_disabled": 0}, {"lat": 38.90240083333333, "fusion_lat": 0.0, "type": "electric_scooter", "bike_id": "4dbc10b49275427dd5d822207ebf3bb7", "rental_uris": {"ios": "https://dc.lft.to/lastmile_qr_scan", "android": "https://dc.lft.to/lastmile_qr_scan"}, "fusion_lon": 0.0, "lon": -77.00203866666666, "name": "4dbc10b49275427dd5d822207ebf3bb7", "is_reserved": 0, "is_disabled": 0}, {"lat": 38.9274485, "fusion_lat": 0.0, "type": "electric_scooter", "bike_id": "b3931cbe7f306da041da220b31cc8745", "rental_uris": {"ios": "https://dc.lft.to/lastmile_qr_scan", "android": "https://dc.lft.to/lastmile_qr_scan"}, "fusion_lon": 0.0, "lon": -77.036381, "name": "b3931cbe7f306da041da220b31cc8745", "is_reserved": 0, "is_disabled": 0}, {"lat": 38.925793, "fusion_lat": 0.0, "type": "electric_scooter", "bike_id": "893fe9848e003a8d690bc377ed0ca6a8", "rental_uris": {"ios": "https://dc.lft.to/lastmile_qr_scan", "android": "https://dc.lft.to/lastmile_qr_scan"}, "fusion_lon": 0.0, "lon": -77.03357583333333, "name": "893fe9848e003a8d690bc377ed0ca6a8", "is_reserved": 0, "is_disabled": 0}, {"lat": 38.86971116666667, "fusion_lat": 0.0, "type": "electric_scooter", "bike_id": "1f3bb402d5d5b0107462ae382ab23d12", "rental_uris": {"ios": "https://dc.lft.to/lastmile_qr_scan", "android": "https://dc.lft.to/lastmile_qr_scan"}, "fusion_lon": 0.0, "lon": -76.97851433333334, "name": "1f3bb402d5d5b0107462ae382ab23d12", "is_reserved": 0, "is_disabled": 0}, {"lat": 38.953543833333335, "fusion_lat": 0.0, "type": "electric_bike", "bike_id": "a22763e1ef3afb1f953f094fdbacaf48", "rental_uris": {"ios": "https://dc.lft.to/lastmile_qr_scan", "android": "https://dc.lft.to/lastmile_qr_scan"}, "fusion_lon": 0.0, "lon": -76.9809245, "name": "a22763e1ef3afb1f953f094fdbacaf48", "is_reserved": 0, "is_disabled": 0}, {"lat": 38.89359116666667, "fusion_lat": 0.0, "type": "electric_scooter", "bike_id": "450f4a35801d59efb68b73a927b0afb1", "rental_uris": {"ios": "https://dc.lft.to/lastmile_qr_scan", "android": "https://dc.lft.to/lastmile_qr_scan"}, "fusion_lon": 0.0, "lon": -77.026127, "name": "450f4a35801d59efb68b73a927b0afb1", "is_reserved": 0, "is_disabled": 0}, {"lat": 38.871172333333334, "fusion_lat": 0.0, "type": "electric_scooter", "bike_id": "384840a0df2894c8336164f1506f9451", "rental_uris": {"ios": "https://dc.lft.to/lastmile_qr_scan", "android": "https://dc.lft.to/lastmile_qr_scan"}, "fusion_lon": 0.0, "lon": -77.007599, "name": "384840a0df2894c8336164f1506f9451", "is_reserved": 0, "is_disabled": 0}, {"lat": 38.914979833333334, "fusion_lat": 0.0, "type": "electric_scooter", "bike_id": "76c7b30d49947ca02dc52b252ea01e51", "rental_uris": {"ios": "https://dc.lft.to/lastmile_qr_scan", "android": "https://dc.lft.to/lastmile_qr_scan"}, "fusion_lon": 0.0, "lon": -77.041583, "name": "76c7b30d49947ca02dc52b252ea01e51", "is_reserved": 0, "is_disabled": 0}, {"lat": 38.92303583333333, "fusion_lat": 0.0, "type": "electric_scooter", "bike_id": "67de8291774bff9fe2c4ede1de038bf0", "rental_uris": {"ios": "https://dc.lft.to/lastmile_qr_scan", "android": "https://dc.lft.to/lastmile_qr_scan"}, "fusion_lon": 0.0, "lon": -77.04184166666667, "name": "67de8291774bff9fe2c4ede1de038bf0", "is_reserved": 0, "is_disabled": 0}, {"lat": 38.89879333333333, "fusion_lat": 0.0, "type": "electric_scooter", "bike_id": "cb36216a41d660056389dd8b428ef056", "rental_uris": {"ios": "https://dc.lft.to/lastmile_qr_scan", "android": "https://dc.lft.to/lastmile_qr_scan"}, "fusion_lon": 0.0, "lon": -77.05004233333334, "name": "cb36216a41d660056389dd8b428ef056", "is_reserved": 0, "is_disabled": 0}, {"lat": 38.91711166666666, "fusion_lat": 0.0, "type": "electric_scooter", "bike_id": "095537d5596296cfcc6701e0bdc5e457", "rental_uris": {"ios": "https://dc.lft.to/lastmile_qr_scan", "android": "https://dc.lft.to/lastmile_qr_scan"}, "fusion_lon": 0.0, "lon": -77.03245516666667, "name": "095537d5596296cfcc6701e0bdc5e457", "is_reserved": 0, "is_disabled": 0}, {"lat": 38.872696166666664, "fusion_lat": 0.0, "type": "electric_scooter", "bike_id": "aa92e10d0876180612e6fb2409edcf6f", "rental_uris": {"ios": "https://dc.lft.to/lastmile_qr_scan", "android": "https://dc.lft.to/lastmile_qr_scan"}, "fusion_lon": 0.0, "lon": -77.01358316666666, "name": "aa92e10d0876180612e6fb2409edcf6f", "is_reserved": 0, "is_disabled": 0}, {"lat": 38.919669166666665, "fusion_lat": 0.0, "type": "electric_scooter", "bike_id": "827c5100595ce33f1c21f46fe3c024ec", "rental_uris": {"ios": "https://dc.lft.to/lastmile_qr_scan", "android": "https://dc.lft.to/lastmile_qr_scan"}, "fusion_lon": 0.0, "lon": -77.03855766666666, "name": "827c5100595ce33f1c21f46fe3c024ec", "is_reserved": 0, "is_disabled": 0}, {"lat": 38.92768566666667, "fusion_lat": 0.0, "type": "electric_scooter", "bike_id": "d40f54b0d75e112b1972bef88f5d1aee", "rental_uris": {"ios": "https://dc.lft.to/lastmile_qr_scan", "android": "https://dc.lft.to/lastmile_qr_scan"}, "fusion_lon": 0.0, "lon": -77.0278715, "name": "d40f54b0d75e112b1972bef88f5d1aee", "is_reserved": 0, "is_disabled": 0}, {"lat": 38.9128305, "fusion_lat": 0.0, "type": "electric_scooter", "bike_id": "d6fcbfbb6e6c39b090cc02eb3e5c443c", "rental_uris": {"ios": "https://dc.lft.to/lastmile_qr_scan", "android": "https://dc.lft.to/lastmile_qr_scan"}, "fusion_lon": 0.0, "lon": -77.03743633333333, "name": "d6fcbfbb6e6c39b090cc02eb3e5c443c", "is_reserved": 0, "is_disabled": 0}, {"lat": 38.91301766666667, "fusion_lat": 0.0, "type": "electric_scooter", "bike_id": "2e42e0840f5c3c4223674c2199f0540a", "rental_uris": {"ios": "https://dc.lft.to/lastmile_qr_scan", "android": "https://dc.lft.to/lastmile_qr_scan"}, "fusion_lon": 0.0, "lon": -77.02693833333333, "name": "2e42e0840f5c3c4223674c2199f0540a", "is_reserved": 0, "is_disabled": 0}, {"lat": 38.8943505, "fusion_lat": 0.0, "type": "electric_bike", "bike_id": "7d8a00d85be12cc1261007f46e2ab177", "rental_uris": {"ios": "https://dc.lft.to/lastmile_qr_scan", "android": "https://dc.lft.to/lastmile_qr_scan"}, "fusion_lon": 0.0, "lon": -77.03167033333334, "name": "7d8a00d85be12cc1261007f46e2ab177", "is_reserved": 0, "is_disabled": 0}, {"lat": 38.9165935, "fusion_lat": 0.0, "type": "electric_scooter", "bike_id": "1bfe44c078327569277b1eccb1b77b61", "rental_uris": {"ios": "https://dc.lft.to/lastmile_qr_scan", "android": "https://dc.lft.to/lastmile_qr_scan"}, "fusion_lon": 0.0, "lon": -77.03848066666667, "name": "1bfe44c078327569277b1eccb1b77b61", "is_reserved": 0, "is_disabled": 0}, {"lat": 38.918009, "fusion_lat": 0.0, "type": "electric_scooter", "bike_id": "ece321a992d0d8e3ed58a12342a7c50b", "rental_uris": {"ios": "https://dc.lft.to/lastmile_qr_scan", "android": "https://dc.lft.to/lastmile_qr_scan"}, "fusion_lon": 0.0, "lon": -77.034403, "name": "ece321a992d0d8e3ed58a12342a7c50b", "is_reserved": 0, "is_disabled": 0}, {"lat": 38.92033633333333, "fusion_lat": 0.0, "type": "electric_scooter", "bike_id": "ec9e1f58a13aaf5e53a37c2b5f1f08e0", "rental_uris": {"ios": "https://dc.lft.to/lastmile_qr_scan", "android": "https://dc.lft.to/lastmile_qr_scan"}, "fusion_lon": 0.0, "lon": -77.03062266666667, "name": "ec9e1f58a13aaf5e53a37c2b5f1f08e0", "is_reserved": 0, "is_disabled": 0}, {"lat": 38.893524166666666, "fusion_lat": 0.0, "type": "electric_scooter", "bike_id": "ba7b0adb1f6f58a2718895ef3f3547ed", "rental_uris": {"ios": "https://dc.lft.to/lastmile_qr_scan", "android": "https://dc.lft.to/lastmile_qr_scan"}, "fusion_lon": 0.0, "lon": -77.00339933333333, "name": "ba7b0adb1f6f58a2718895ef3f3547ed", "is_reserved": 0, "is_disabled": 0}, {"lat": 38.901008166666664, "fusion_lat": 0.0, "type": "electric_scooter", "bike_id": "e8b4d180cb69fb6de3675158243e0be8", "rental_uris": {"ios": "https://dc.lft.to/lastmile_qr_scan", "android": "https://dc.lft.to/lastmile_qr_scan"}, "fusion_lon": 0.0, "lon": -77.04539283333334, "name": "e8b4d180cb69fb6de3675158243e0be8", "is_reserved": 0, "is_disabled": 0}, {"lat": 38.92538716666667, "fusion_lat": 0.0, "type": "electric_bike", "bike_id": "a3d3f9d16c1db23c77208f393d08d64e", "rental_uris": {"ios": "https://dc.lft.to/lastmile_qr_scan", "android": "https://dc.lft.to/lastmile_qr_scan"}, "fusion_lon": 0.0, "lon": -77.0011225, "name": "a3d3f9d16c1db23c77208f393d08d64e", "is_reserved": 0, "is_disabled": 0}, {"lat": 38.887245, "fusion_lat": 0.0, "type": "electric_scooter", "bike_id": "b4b979b530eee9a0926389796127fe4c", "rental_uris": {"ios": "https://dc.lft.to/lastmile_qr_scan", "android": "https://dc.lft.to/lastmile_qr_scan"}, "fusion_lon": 0.0, "lon": -77.02207666666666, "name": "b4b979b530eee9a0926389796127fe4c", "is_reserved": 0, "is_disabled": 0}, {"lat": 38.88738216666667, "fusion_lat": 0.0, "type": "electric_scooter", "bike_id": "64f79ade0baec4f7b67346d4c75ad47d", "rental_uris": {"ios": "https://dc.lft.to/lastmile_qr_scan", "android": "https://dc.lft.to/lastmile_qr_scan"}, "fusion_lon": 0.0, "lon": -77.02129316666667, "name": "64f79ade0baec4f7b67346d4c75ad47d", "is_reserved": 0, "is_disabled": 0}, {"lat": 38.956012333333334, "fusion_lat": 0.0, "type": "electric_bike", "bike_id": "49688e06f3dd6d1249c0022d2c53b5da", "rental_uris": {"ios": "https://dc.lft.to/lastmile_qr_scan", "android": "https://dc.lft.to/lastmile_qr_scan"}, "fusion_lon": 0.0, "lon": -77.01032866666667, "name": "49688e06f3dd6d1249c0022d2c53b5da", "is_reserved": 0, "is_disabled": 0}, {"lat": 38.922819833333335, "fusion_lat": 0.0, "type": "electric_bike", "bike_id": "2a90ac5ac53ce2be248869c54723ac75", "rental_uris": {"ios": "https://dc.lft.to/lastmile_qr_scan", "android": "https://dc.lft.to/lastmile_qr_scan"}, "fusion_lon": 0.0, "lon": -76.99783866666667, "name": "2a90ac5ac53ce2be248869c54723ac75", "is_reserved": 0, "is_disabled": 0},