{"data": {"bikes": [{"is_reserved": 0, "lat": 38.88423066666667, "is_disabled": 0, "type": "electric_scooter", "fusion_lat": 0.0, "bike_id": "feb1113ca6fb4b757c184266434050f6", "rental_uris": {"ios": "https://dc.lft.to/lastmile_qr_scan", "android": "https://dc.lft.to/lastmile_qr_scan"}, "fusion_lon": 0.0, "name": "feb1113ca6fb4b757c184266434050f6", "lon": -76.996988}, {"is_reserved": 0, "lat": 38.93947033333333, "is_disabled": 0, "type": "electric_scooter", "fusion_lat": 0.0, "bike_id": "ddd7a246429c987db0675647802ee87c", "rental_uris": {"ios": "https://dc.lft.to/lastmile_qr_scan", "android": "https://dc.lft.to/lastmile_qr_scan"}, "fusion_lon": 0.0, "name": "ddd7a246429c987db0675647802ee87c", "lon": -77.07241666666667}, {"is_reserved": 0, "lat": 38.923821333333336, "is_disabled": 0, "type": "electric_scooter", "fusion_lat": 0.0, "bike_id": "0df07a636c663a8442c560a3e4f5a8fa", "rental_uris": {"ios": "https://dc.lft.to/lastmile_qr_scan", "android": "https://dc.lft.to/lastmile_qr_scan"}, "fusion_lon": 0.0, "name": "0df07a636c663a8442c560a3e4f5a8fa", "lon": -77.03191516666666}, {"is_reserved": 0, "lat": 38.9000885, "is_disabled": 0, "type": "electric_scooter", "fusion_lat": 0.0, "bike_id": "8c6c0dcecc1209928677559a8b7e05cb", "rental_uris": {"ios": "https://dc.lft.to/lastmile_qr_scan", "android": "https://dc.lft.to/lastmile_qr_scan"}, "fusion_lon": 0.0, "name": "8c6c0dcecc1209928677559a8b7e05cb", "lon": -77.01198733333334}, {"is_reserved": 0, "lat": 38.876725, "is_disabled": 0, "type": "electric_scooter", "fusion_lat": 0.0, "bike_id": "354a8654bdddcb1600ac76d25e69c74c", "rental_uris": {"ios": "https://dc.lft.to/lastmile_qr_scan", "android": "https://dc.lft.to/lastmile_qr_scan"}, "fusion_lon": 0.0, "name": "354a8654bdddcb1600ac76d25e69c74c", "lon": -77.0180195}, {"is_reserved": 0, "lat": 38.91095816666667, "is_disabled": 0, "type": "electric_scooter", "fusion_lat": 0.0, "bike_id": "cb24f2b0d129a81936c0b2afbf7e1e28", "rental_uris": {"ios": "https://dc.lft.to/lastmile_qr_scan", "android": "https://dc.lft.to/lastmile_qr_scan"}, "fusion_lon": 0.0, "name": "cb24f2b0d129a81936c0b2afbf7e1e28", "lon": -77.021997}, {"is_reserved": 0, "lat": 38.861189333333336, "is_disabled": 0, "type": "electric_scooter", "fusion_lat": 0.0, "bike_id": "a175b2cc7278d9618c0cd3f9cf189c80", "rental_uris": {"ios": "https://dc.lft.to/lastmile_qr_scan", "android": "https://dc.lft.to/lastmile_qr_scan"}, "fusion_lon": 0.0, "name": "a175b2cc7278d9618c0cd3f9cf189c80", "lon": -76.98382566666666}, {"is_reserved": 0, "lat": 38.914652, "is_disabled": 0, "type": "electric_scooter", "fusion_lat": 0.0, "bike_id": "3d9231c1fd22930357a5474a0c34d444", "rental_uris": {"ios": "https://dc.lft.to/lastmile_qr_scan", "android": "https://dc.lft.to/lastmile_qr_scan"}, "fusion_lon": 0.0, "name": "3d9231c1fd22930357a5474a0c34d444", "lon": -76.98118633333333}, {"is_reserved": 0, "lat": 38.90912766666667, "is_disabled": 0, "type": "electric_scooter", "fusion_lat": 0.0, "bike_id": "b14f48fc3783be1a05565b4cecfe8c2f", "rental_uris": {"ios": "https://dc.lft.to/lastmile_qr_scan", "android": "https://dc.lft.to/lastmile_qr_scan"}, "fusion_lon": 0.0, "name": "b14f48fc3783be1a05565b4cecfe8c2f", "lon": -77.03193666666667}, {"is_reserved": 0, "lat": 38.9173005, "is_disabled": 0, "type": "electric_scooter", "fusion_lat": 0.0, "bike_id": "7e7a99e5d8594867ddfdba50b84dbe1c", "rental_uris": {"ios": "https://dc.lft.to/lastmile_qr_scan", "android": "https://dc.lft.to/lastmile_qr_scan"}, "fusion_lon": 0.0, "name": "7e7a99e5d8594867ddfdba50b84dbe1c", "lon": -77.04171983333333}, {"is_reserved": 0, "lat": 38.9388735, "is_disabled": 0, "type": "electric_scooter", "fusion_lat": 0.0, "bike_id": "f3413e72b8a3b36cfdc92786fb08eb2f", "rental_uris": {"ios": "https://dc.lft.to/lastmile_qr_scan", "android": "https://dc.lft.to/lastmile_qr_scan"}, "fusion_lon": 0.0, "name": "f3413e72b8a3b36cfdc92786fb08eb2f", "lon": -77.032642}, {"is_reserved": 0, "lat": 38.862457666666664, "is_disabled": 0, "type": "electric_scooter", "fusion_lat": 0.0, "bike_id": "6f2dc85afa7aa657c70d67e5764a090c", "rental_uris": {"ios": "https://dc.lft.to/lastmile_qr_scan", "android": "https://dc.lft.to/lastmile_qr_scan"}, "fusion_lon": 0.0, "name": "6f2dc85afa7aa657c70d67e5764a090c", "lon": -76.995288}, {"is_reserved": 0, "lat": 38.894245833333336, "is_disabled": 0, "type": "electric_scooter", "fusion_lat": 0.0, "bike_id": "83c11ac8a4e6a8b615c2d87488462d2c", "rental_uris": {"ios": "https://dc.lft.to/lastmile_qr_scan", "android": "https://dc.lft.to/lastmile_qr_scan"}, "fusion_lon": 0.0, "name": "83c11ac8a4e6a8b615c2d87488462d2c", "lon": -77.02619083333333}, {"is_reserved": 0, "lat": 38.90246066666667, "is_disabled": 0, "type": "electric_scooter", "fusion_lat": 0.0, "bike_id": "ef5915ea9df38aa0b86f2d1aea995360", "rental_uris": {"ios": "https://dc.lft.to/lastmile_qr_scan", "android": "https://dc.lft.to/lastmile_qr_scan"}, "fusion_lon": 0.0, "name": "ef5915ea9df38aa0b86f2d1aea995360", "lon": -77.01771833333333}, {"is_reserved": 0, "lat": 38.92197316666667, "is_disabled": 0, "type": "electric_scooter", "fusion_lat": 0.0, "bike_id": "3be1b219c2e3d767acb94190095e0f26", "rental_uris": {"ios": "https://dc.lft.to/lastmile_qr_scan", "android": "https://dc.lft.to/lastmile_qr_scan"}, "fusion_lon": 0.0, "name": "3be1b219c2e3d767acb94190095e0f26", "lon": -77.0389605}, {"is_reserved": 0, "lat": 38.89001866666667, "is_disabled": 0, "type": "electric_scooter", "fusion_lat": 0.0, "bike_id": "b6ca2ebe10b524406eafb5162ac3b3be", "rental_uris": {"ios": "https://dc.lft.to/lastmile_qr_scan", "android": "https://dc.lft.to/lastmile_qr_scan"}, "fusion_lon": 0.0, "name": "b6ca2ebe10b524406eafb5162ac3b3be", "lon": -76.959439}, {"is_reserved": 0, "lat": 38.911341166666666, "is_disabled": 0, "type": "electric_scooter", "fusion_lat": 0.0, "bike_id": "2ebf2bbb7676705865b43fbd11da3a0a", "rental_uris": {"ios": "https://dc.lft.to/lastmile_qr_scan", "android": "https://dc.lft.to/lastmile_qr_scan"}, "fusion_lon": 0.0, "name": "2ebf2bbb7676705865b43fbd11da3a0a", "lon": -77.01681116666667}, {"is_reserved": 0, "lat": 38.900768166666666, "is_disabled": 0, "type": "electric_scooter", "fusion_lat": 0.0, "bike_id": "bcbde2a07767d753207994aff7647438", "rental_uris": {"ios": "https://dc.lft.to/lastmile_qr_scan", "android": "https://dc.lft.to/lastmile_qr_scan"}, "fusion_lon": 0.0, "name": "bcbde2a07767d753207994aff7647438", "lon": -77.04899633333333}, {"is_reserved": 0, "lat": 38.91954833333333, "is_disabled": 0, "type": "electric_scooter", "fusion_lat": 0.0, "bike_id": "6cea3666257853416b2efdffb3cd2830", "rental_uris": {"ios": "https://dc.lft.to/lastmile_qr_scan", "android": "https://dc.lft.to/lastmile_qr_scan"}, "fusion_lon": 0.0, "name": "6cea3666257853416b2efdffb3cd2830", "lon": -77.02380933333333}, {"is_reserved": 0, "lat": 38.9068375, "is_disabled": 0, "type": "electric_scooter", "fusion_lat": 0.0, "bike_id": "78ed615f81de428dc8bd9edcb1d659ef", "rental_uris": {"ios": "https://dc.lft.to/lastmile_qr_scan", "android": "https://dc.lft.to/lastmile_qr_scan"}, "fusion_lon": 0.0, "name": "78ed615f81de428dc8bd9edcb1d659ef", "lon": -77.02711016666667}, {"is_reserved": 0, "lat": 38.838595166666664, "is_disabled": 0, "type": "electric_bike", "fusion_lat": 0.0, "bike_id": "e55594283c6e1624446f00c1f707a5b0", "rental_uris": {"ios": "https://dc.lft.to/lastmile_qr_scan", "android": "https://dc.lft.to/lastmile_qr_scan"}, "fusion_lon": 0.0, "name": "e55594283c6e1624446f00c1f707a5b0", "lon": -76.99699366666667}, {"is_reserved": 0, "lat": 38.90721633333333, "is_disabled": 0, "type": "electric_scooter", "fusion_lat": 0.0, "bike_id": "d4c1c774e8aac0edaac686085aa48d9b", "rental_uris": {"ios": "https://dc.lft.to/lastmile_qr_scan", "android": "https://dc.lft.to/lastmile_qr_scan"}, "fusion_lon": 0.0, "name": "d4c1c774e8aac0edaac686085aa48d9b", "lon": -77.02977483333333}, {"is_reserved": 0, "lat": 38.90272616666667, "is_disabled": 0, "type": "electric_scooter", "fusion_lat": 0.0, "bike_id": "025a82c79723e18b31100f180b0ff90c", "rental_uris": {"ios": "https://dc.lft.to/lastmile_qr_scan", "android": "https://dc.lft.to/lastmile_qr_scan"}, "fusion_lon": 0.0, "name": "025a82c79723e18b31100f180b0ff90c", "lon": -77.04534166666667}, {"is_reserved": 0, "lat": 38.900701166666664, "is_disabled": 0, "type": "electric_scooter", "fusion_lat": 0.0, "bike_id": "625969ae83aad4dd7acc3b5dbe35068b", "rental_uris": {"ios": "https://dc.lft.to/lastmile_qr_scan", "android": "https://dc.lft.to/lastmile_qr_scan"}, "fusion_lon": 0.0, "name": "625969ae83aad4dd7acc3b5dbe35068b", "lon": -77.027136}, {"is_reserved": 0, "lat": 38.91620783333333, "is_disabled": 0, "type": "electric_scooter", "fusion_lat": 0.0, "bike_id": "a09d7f0bdb4dd4169ee3beb86c068a4e", "rental_uris": {"ios": "https://dc.lft.to/lastmile_qr_scan", "android": "https://dc.lft.to/lastmile_qr_scan"}, "fusion_lon": 0.0, "name": "a09d7f0bdb4dd4169ee3beb86c068a4e", "lon": -77.04268983333333}, {"is_reserved": 0, "lat": 38.90142933333333, "is_disabled": 0, "type": "electric_scooter", "fusion_lat": 0.0, "bike_id": "eba5927bd8479c8ad3f428818fdae860", "rental_uris": {"ios": "https://dc.lft.to/lastmile_qr_scan", "android": "https://dc.lft.to/lastmile_qr_scan"}, "fusion_lon": 0.0, "name": "eba5927bd8479c8ad3f428818fdae860", "lon": -77.04162}, {"is_reserved": 0, "lat": 38.93936266666667, "is_disabled": 0, "type": "electric_scooter", "fusion_lat": 0.0, "bike_id": "a1715533311b6604ac43a47ebb500808", "rental_uris": {"ios": "https://dc.lft.to/lastmile_qr_scan", "android": "https://dc.lft.to/lastmile_qr_scan"}, "fusion_lon": 0.0, "name": "a1715533311b6604ac43a47ebb500808", "lon": -77.05269183333333}, {"is_reserved": 0, "lat": 38.916955, "is_disabled": 0, "type": "electric_scooter", "fusion_lat": 0.0, "bike_id": "1db8fb945101d84da23f062a85edf4c2", "rental_uris": {"ios": "https://dc.lft.to/lastmile_qr_scan", "android": "https://dc.lft.to/lastmile_qr_scan"}, "fusion_lon": 0.0, "name": "1db8fb945101d84da23f062a85edf4c2", "lon": -77.046032}, {"is_reserved": 0, "lat": 38.90569883333333, "is_disabled": 0, "type": "electric_scooter", "fusion_lat": 0.0, "bike_id": "b03a7a14174521eaaf6f0c698d3c7b27", "rental_uris": {"ios": "https://dc.lft.to/lastmile_qr_scan", "android": "https://dc.lft.to/lastmile_qr_scan"}, "fusion_lon": 0.0, "name": "b03a7a14174521eaaf6f0c698d3c7b27", "lon": -77.03417266666666}, {"is_reserved": 0, "lat": 38.90565566666667, "is_disabled": 0, "type": "electric_scooter", "fusion_lat": 0.0, "bike_id": "97cd85919de5a3a46d0e00fd31c63bcd", "rental_uris": {"ios": "https://dc.lft.to/lastmile_qr_scan", "android": "https://dc.lft.to/lastmile_qr_scan"}, "fusion_lon": 0.0, "name": "97cd85919de5a3a46d0e00fd31c63bcd", "lon": -77.03470216666666}, {"is_reserved": 0, "lat": 38.897279, "is_disabled": 0, "type": "electric_scooter", "fusion_lat": 0.0, "bike_id": "23b3e115af3aa3fffecc29bc957e7e29", "rental_uris": {"ios": "https://dc.lft.to/lastmile_qr_scan", "android": "https://dc.lft.to/lastmile_qr_scan"}, "fusion_lon": 0.0, "name": "23b3e115af3aa3fffecc29bc957e7e29", "lon": -77.02691966666667}, {"is_reserved": 0, "lat": 38.91221433333333, "is_disabled": 0, "type": "electric_scooter", "fusion_lat": 0.0, "bike_id": "3c10c63590d6020a175a24cfd1637faf", "rental_uris": {"ios": "https://dc.lft.to/lastmile_qr_scan", "android": "https://dc.lft.to/lastmile_qr_scan"}, "fusion_lon": 0.0, "name": "3c10c63590d6020a175a24cfd1637faf", "lon": -77.03200516666666}, {"is_reserved": 0, "lat": 38.930276166666665, "is_disabled": 0, "type": "electric_scooter", "fusion_lat": 0.0, "bike_id": "4c421684043394b8c5af36508eb1763f", "rental_uris": {"ios": "https://dc.lft.to/lastmile_qr_scan", "android": "https://dc.lft.to/lastmile_qr_scan"}, "fusion_lon": 0.0, "name": "4c421684043394b8c5af36508eb1763f", "lon": -77.02020966666667}, {"is_reserved": 0, "lat": 38.925025166666664, "is_disabled": 0, "type": "electric_scooter", "fusion_lat": 0.0, "bike_id": "2f78650a4da7f9670a46024b89d8660f", "rental_uris": {"ios": "https://dc.lft.to/lastmile_qr_scan", "android": "https://dc.lft.to/lastmile_qr_scan"}, "fusion_lon": 0.0, "name": "2f78650a4da7f9670a46024b89d8660f", "lon": -77.0381325}, {"is_reserved": 0, "lat": 38.90662733333333, "is_disabled": 0, "type": "electric_scooter", "fusion_lat": 0.0, "bike_id": "04143e1c794e3846d1582e1496789905", "rental_uris": {"ios": "https://dc.lft.to/lastmile_qr_scan", "android": "https://dc.lft.to/lastmile_qr_scan"}, "fusion_lon": 0.0, "name": "04143e1c794e3846d1582e1496789905", "lon": -77.02696366666666}, {"is_reserved": 0, "lat": 38.938280166666665, "is_disabled": 0, "type": "electric_scooter", "fusion_lat": 0.0, "bike_id": "4e0485a8397845cdf4546c42c4c3819b", "rental_uris": {"ios": "https://dc.lft.to/lastmile_qr_scan", "android": "https://dc.lft.to/lastmile_qr_scan"}, "fusion_lon": 0.0, "name": "4e0485a8397845cdf4546c42c4c3819b", "lon": -76.98616783333334}, {"is_reserved": 0, "lat": 38.903604666666666, "is_disabled": 0, "type": "electric_scooter", "fusion_lat": 0.0, "bike_id": "c9cbf3d57d0fb3d4795edaa02704ada4", "rental_uris": {"ios": "https://dc.lft.to/lastmile_qr_scan", "android": "https://dc.lft.to/lastmile_qr_scan"}, "fusion_lon": 0.0, "name": "c9cbf3d57d0fb3d4795edaa02704ada4", "lon": -76.99613116666667}, {"is_reserved": 0, "lat": 38.91482533333333, "is_disabled": 0, "type": "electric_scooter", "fusion_lat": 0.0, "bike_id": "51917a9cd230599d50051cd0034444a0", "rental_uris": {"ios": "https://dc.lft.to/lastmile_qr_scan", "android": "https://dc.lft.to/lastmile_qr_scan"}, "fusion_lon": 0.0, "name": "51917a9cd230599d50051cd0034444a0", "lon": -77.032162}, {"is_reserved": 0, "lat": 38.92719266666667, "is_disabled": 0, "type": "electric_scooter", "fusion_lat": 0.0, "bike_id": "716b3dac49306114bce517b1ec23a2bd", "rental_uris": {"ios": "https://dc.lft.to/lastmile_qr_scan", "android": "https://dc.lft.to/lastmile_qr_scan"}, "fusion_lon": 0.0, "name": "716b3dac49306114bce517b1ec23a2bd", "lon": -77.03669716666667}, {"is_reserved": 0, "lat": 38.91519483333333, "is_disabled": 0, "type": "electric_scooter", "fusion_lat": 0.0, "bike_id": "497d10158c8536d31ba8327e53d3b45d", "rental_uris": {"ios": "https://dc.lft.to/lastmile_qr_scan", "android": "https://dc.lft.to/lastmile_qr_scan"}, "fusion_lon": 0.0, "name": "497d10158c8536d31ba8327e53d3b45d", "lon": -77.01842616666667}, {"is_reserved": 0, "lat": 38.928666, "is_disabled": 0, "type": "electric_scooter", "fusion_lat": 0.0, "bike_id": "f1131c338d03ed40b96cb4927fb9e624", "rental_uris": {"ios": "https://dc.lft.to/lastmile_qr_scan", "android": "https://dc.lft.to/lastmile_qr_scan"}, "fusion_lon": 0.0, "name": "f1131c338d03ed40b96cb4927fb9e624", "lon": -77.03170633333333}, {"is_reserved": 0, "lat": 38.92974933333333, "is_disabled": 0, "type": "electric_scooter", "fusion_lat": 0.0, "bike_id": "6bfcc3a9a310af7ead68f3a464559ee5", "rental_uris": {"ios": "https://dc.lft.to/lastmile_qr_scan", "android": "https://dc.lft.to/lastmile_qr_scan"}, "fusion_lon": 0.0, "name": "6bfcc3a9a310af7ead68f3a464559ee5", "lon": -77.03237816666666}, {"is_reserved": 0, "lat": 38.886694166666665, "is_disabled": 0, "type": "electric_scooter", "fusion_lat": 0.0, "bike_id": "61459ea98ab58e1760157f2ab16e1a77", "rental_uris": {"ios": "https://dc.lft.to/lastmile_qr_scan", "android": "https://dc.lft.to/lastmile_qr_scan"}, "fusion_lon": 0.0, "name": "61459ea98ab58e1760157f2ab16e1a77", "lon": -76.936098}, {"is_reserved": 0, "lat": 38.9156115, "is_disabled": 0, "type": "electric_scooter", "fusion_lat": 0.0, "bike_id": "ac7cbc667e66167a76ee7997b9cf426f", "rental_uris": {"ios": "https://dc.lft.to/lastmile_qr_scan", "android": "https://dc.lft.to/lastmile_qr_scan"}, "fusion_lon": 0.0, "name": "ac7cbc667e66167a76ee7997b9cf426f", "lon": -77.025143}, {"is_reserved": 0, "lat": 38.909053666666665, "is_disabled": 0, "type": "electric_scooter", "fusion_lat": 0.0, "bike_id": "0140f62e86b74b1af121bc7c5782dd15", "rental_uris": {"ios": "https://dc.lft.to/lastmile_qr_scan", "android": "https://dc.lft.to/lastmile_qr_scan"}, "fusion_lon": 0.0, "name": "0140f62e86b74b1af121bc7c5782dd15", "lon": -76.99775633333333}, {"is_reserved": 0, "lat": 38.94956166666667, "is_disabled": 0, "type": "electric_scooter", "fusion_lat": 0.0, "bike_id": "0d89d9d145c038497244c048494ecdcc", "rental_uris": {"ios": "https://dc.lft.to/lastmile_qr_scan", "android": "https://dc.lft.to/lastmile_qr_scan"}, "fusion_lon": 0.0, "name": "0d89d9d145c038497244c048494ecdcc", "lon": -77.02723016666667}, {"is_reserved": 0, "lat": 38.928763833333335, "is_disabled": 0, "type": "electric_scooter", "fusion_lat": 0.0, "bike_id": "391bb997324b960edbf2b994d8889031", "rental_uris": {"ios": "https://dc.lft.to/lastmile_qr_scan", "android": "https://dc.lft.to/lastmile_qr_scan"}, "fusion_lon": 0.0, "name": "391bb997324b960edbf2b994d8889031", "lon": -77.02969816666666}, {"is_reserved": 0, "lat": 38.892207, "is_disabled": 0, "type": "electric_scooter", "fusion_lat": 0.0, "bike_id": "5ed3080e1909c17dfe5dbf691399442e", "rental_uris": {"ios": "https://dc.lft.to/lastmile_qr_scan", "android": "https://dc.lft.to/lastmile_qr_scan"}, "fusion_lon": 0.0, "name": "5ed3080e1909c17dfe5dbf691399442e", "lon": -77.048045}, {"is_reserved": 0, "lat": 38.900409333333336, "is_disabled": 0, "type": "electric_scooter", "fusion_lat": 0.0, "bike_id": "6f95fd1ca8db89965feb3c65a41b2a8d", "rental_uris": {"ios": "https://dc.lft.to/lastmile_qr_scan", "android": "https://dc.lft.to/lastmile_qr_scan"}, "fusion_lon": 0.0, "name": "6f95fd1ca8db89965feb3c65a41b2a8d", "lon": -77.03291183333333}, {"is_reserved": 0, "lat": 38.892217333333335, "is_disabled": 0, "type": "electric_scooter", "fusion_lat": 0.0, "bike_id": "c3c3f177e552bf41521f0e13ac6f0d37", "rental_uris": {"ios": "https://dc.lft.to/lastmile_qr_scan", "android": "https://dc.lft.to/lastmile_qr_scan"}, "fusion_lon": 0.0, "name": "c3c3f177e552bf41521f0e13ac6f0d37", "lon": -77.04689233333333}, {"is_reserved": 0, "lat": 38.892183333333335, "is_disabled": 0, "type": "electric_scooter", "fusion_lat": 0.0, "bike_id": "970cdfe43d6f4aadfe7dc5e154c4d69e", "rental_uris": {"ios": "https://dc.lft.to/lastmile_qr_scan", "android": "https://dc.lft.to/lastmile_qr_scan"}, "fusion_lon": 0.0, "name": "970cdfe43d6f4aadfe7dc5e154c4d69e", "lon": -77.02629533333334}, {"is_reserved": 0, "lat": 38.9248705, "is_disabled": 0, "type": "electric_scooter", "fusion_lat": 0.0, "bike_id": "c5afc08a019d0a92f4baf9af809112f2", "rental_uris": {"ios": "https://dc.lft.to/lastmile_qr_scan", "android": "https://dc.lft.to/lastmile_qr_scan"}, "fusion_lon": 0.0, "name": "c5afc08a019d0a92f4baf9af809112f2", "lon": -77.021774}, {"is_reserved": 0, "lat": 38.923016833333335, "is_disabled": 0, "type": "electric_scooter", "fusion_lat": 0.0, "bike_id": "dbf152deb73d488d6b9678de08e38b23", "rental_uris": {"ios": "https://dc.lft.to/lastmile_qr_scan", "android": "https://dc.lft.to/lastmile_qr_scan"}, "fusion_lon": 0.0, "name": "dbf152deb73d488d6b9678de08e38b23", "lon": -77.04269916666667}, {"is_reserved": 0, "lat": 38.9085335, "is_disabled": 0, "type": "electric_scooter", "fusion_lat": 0.0, "bike_id": "182ae1b4a53d9cc0f4d40d5a48eed92d", "rental_uris": {"ios": "https://dc.lft.to/lastmile_qr_scan", "android": "https://dc.lft.to/lastmile_qr_scan"}, "fusion_lon": 0.0, "name": "182ae1b4a53d9cc0f4d40d5a48eed92d", "lon": -77.04256933333333}, {"is_reserved": 0, "lat": 38.842777166666664, "is_disabled": 0, "type": "electric_bike", "fusion_lat": 0.0, "bike_id": "dcb125e09feb707c52906221076ac178", "rental_uris": {"ios": "https://dc.lft.to/lastmile_qr_scan", "android": "https://dc.lft.to/lastmile_qr_scan"}, "fusion_lon": 0.0, "name": "dcb125e09feb707c52906221076ac178", "lon": -77.04544333333334}, {"is_reserved": 0, "lat": 38.897387333333334, "is_disabled": 0, "type": "electric_scooter", "fusion_lat": 0.0, "bike_id": "096b53c8bffd8861b828ebb1e5babc2a", "rental_uris": {"ios": "https://dc.lft.to/lastmile_qr_scan", "android": "https://dc.lft.to/lastmile_qr_scan"}, "fusion_lon": 0.0, "name": "096b53c8bffd8861b828ebb1e5babc2a", "lon": -77.029936}, {"is_reserved": 0, "lat": 38.950737, "is_disabled": 0, "type": "electric_scooter", "fusion_lat": 0.0, "bike_id": "7fa06798d83c17189789837394cdab27", "rental_uris": {"ios": "https://dc.lft.to/lastmile_qr_scan", "android": "https://dc.lft.to/lastmile_qr_scan"}, "fusion_lon": 0.0, "name": "7fa06798d83c17189789837394cdab27", "lon": -77.03101133333334}, {"is_reserved": 0, "lat": 38.907998, "is_disabled": 0, "type": "electric_scooter", "fusion_lat": 0.0, "bike_id": "7986fa30abe637189346ee206a717618", "rental_uris": {"ios": "https://dc.lft.to/lastmile_qr_scan", "android": "https://dc.lft.to/lastmile_qr_scan"}, "fusion_lon": 0.0, "name": "7986fa30abe637189346ee206a717618", "lon": -77.08401616666667}, {"is_reserved": 0, "lat": 38.90062533333333, "is_disabled": 0, "type": "electric_scooter", "fusion_lat": 0.0, "bike_id": "76a1f3084c1b37858ec953fcc209120d", "rental_uris": {"ios": "https://dc.lft.to/lastmile_qr_scan", "android": "https://dc.lft.to/lastmile_qr_scan"}, "fusion_lon": 0.0, "name": "76a1f3084c1b37858ec953fcc209120d", "lon": -76.9983765}, {"is_reserved": 0, "lat": 38.903813166666666, "is_disabled": 0, "type": "electric_scooter", "fusion_lat": 0.0, "bike_id": "2353456737879d901b10d0ef8b2735f8", "rental_uris": {"ios": "https://dc.lft.to/lastmile_qr_scan", "android": "https://dc.lft.to/lastmile_qr_scan"}, "fusion_lon": 0.0, "name": "2353456737879d901b10d0ef8b2735f8", "lon": -77.05315933333333}, {"is_reserved": 0, "lat": 38.87828316666667, "is_disabled": 0, "type": "electric_scooter", "fusion_lat": 0.0, "bike_id": "5f58d0f860c71e32edf3f807c074e66b", "rental_uris": {"ios": "https://dc.lft.to/lastmile_qr_scan", "android": "https://dc.lft.to/lastmile_qr_scan"}, "fusion_lon": 0.0, "name": "5f58d0f860c71e32edf3f807c074e66b", "lon": -76.9860755}, {"is_reserved": 0, "lat": 38.86207616666667, "is_disabled": 0, "type": "electric_bike", "fusion_lat": 0.0, "bike_id": "579ae78c364282769c84749b86c49364", "rental_uris": {"ios": "https://dc.lft.to/lastmile_qr_scan", "android": "https://dc.lft.to/lastmile_qr_scan"}, "fusion_lon": 0.0, "name": "579ae78c364282769c84749b86c49364", "lon": -76.997775}, {"is_reserved": 0, "lat": 38.96868683333334, "is_disabled": 0, "type": "electric_bike", "fusion_lat": 0.0, "bike_id": "b2020e004adda2433b7950f49a3c53fb", "rental_uris": {"ios": "https://dc.lft.to/lastmile_qr_scan", "android": "https://dc.lft.to/lastmile_qr_scan"}, "fusion_lon": 0.0, "name": "b2020e004adda2433b7950f49a3c53fb", "lon": -77.06503833333333}, {"is_reserved": 0, "lat": 38.84615333333333, "is_disabled": 0, "type": "electric_bike", "fusion_lat": 0.0, "bike_id": "6d9a0afe1659871a52ff582a242a1bcc", "rental_uris": {"ios": "https://dc.lft.to/lastmile_qr_scan", "android": "https://dc.lft.to/lastmile_qr_scan"}, "fusion_lon": 0.0, "name": "6d9a0afe1659871a52ff582a242a1bcc", "lon": -76.9691335}, {"is_reserved": 0, "lat": 38.906368666666665, "is_disabled": 0, "type": "electric_scooter", "fusion_lat": 0.0, "bike_id": "00b7e78695c16d6121997fb060e9a981", "rental_uris": {"ios": "https://dc.lft.to/lastmile_qr_scan", "android": "https://dc.lft.to/lastmile_qr_scan"}, "fusion_lon": 0.0, "name": "00b7e78695c16d6121997fb060e9a981", "lon": -77.03898816666667}, {"is_reserved": 0, "lat": 38.92881633333333, "is_disabled": 0, "type": "electric_scooter", "fusion_lat": 0.0, "bike_id": "e616050a5793ac2a1f350bd0c9f79223", "rental_uris": {"ios": "https://dc.lft.to/lastmile_qr_scan", "android": "https://dc.lft.to/lastmile_qr_scan"}, "fusion_lon": 0.0, "name": "e616050a5793ac2a1f350bd0c9f79223", "lon": -77.01366133333333}, {"is_reserved": 0, "lat": 38.89339566666666, "is_disabled": 0, "type": "electric_scooter", "fusion_lat": 0.0, "bike_id": "140cd3be01361ebb6ba626b16b20293e", "rental_uris": {"ios": "https://dc.lft.to/lastmile_qr_scan", "android": "https://dc.lft.to/lastmile_qr_scan"}, "fusion_lon": 0.0, "name": "140cd3be01361ebb6ba626b16b20293e", "lon": -76.949349}, {"is_reserved": 0, "lat": 38.9003735, "is_disabled": 0, "type": "electric_scooter", "fusion_lat": 0.0, "bike_id": "5b6e69c1a72d8283d12ef26470b0f757", "rental_uris": {"ios": "https://dc.lft.to/lastmile_qr_scan", "android": "https://dc.lft.to/lastmile_qr_scan"}, "fusion_lon": 0.0, "name": "5b6e69c1a72d8283d12ef26470b0f757", "lon": -76.99361983333333}, {"is_reserved": 0, "lat": 38.91331266666667, "is_disabled": 0, "type": "electric_scooter", "fusion_lat": 0.0, "bike_id": "74f5341c2a8d921ebcfeb32c153fd93e", "rental_uris": {"ios": "https://dc.lft.to/lastmile_qr_scan", "android": "https://dc.lft.to/lastmile_qr_scan"}, "fusion_lon": 0.0, "name": "74f5341c2a8d921ebcfeb32c153fd93e", "lon": -77.04276266666666}, {"is_reserved": 0, "lat": 38.915507833333336, "is_disabled": 0, "type": "electric_scooter", "fusion_lat": 0.0, "bike_id": "95439219dea198290e3ca40a3600ac17", "rental_uris": {"ios": "https://dc.lft.to/lastmile_qr_scan", "android": "https://dc.lft.to/lastmile_qr_scan"}, "fusion_lon": 0.0, "name": "95439219dea198290e3ca40a3600ac17", "lon": -77.0313305}, {"is_reserved": 0, "lat": 38.918174666666665, "is_disabled": 0, "type": "electric_scooter", "fusion_lat": 0.0, "bike_id": "c187b8ea5155735ef6dc51a3bfdc1819", "rental_uris": {"ios": "https://dc.lft.to/lastmile_qr_scan", "android": "https://dc.lft.to/lastmile_qr_scan"}, "fusion_lon": 0.0, "name": "c187b8ea5155735ef6dc51a3bfdc1819", "lon": -77.02719416666666}, {"is_reserved": 0, "lat": 38.877099666666666, "is_disabled": 0, "type": "electric_scooter", "fusion_lat": 0.0, "bike_id": "b6051b75a4a6aafca78be55eb1a319a8", "rental_uris": {"ios": "https://dc.lft.to/lastmile_qr_scan", "android": "https://dc.lft.to/lastmile_qr_scan"}, "fusion_lon": 0.0, "name": "b6051b75a4a6aafca78be55eb1a319a8", "lon": -77.01764983333334}, {"is_reserved": 0, "lat": 38.923259, "is_disabled": 0, "type": "electric_scooter", "fusion_lat": 0.0, "bike_id": "1cf28628b59b13e79ad39eda55385ecc", "rental_uris": {"ios": "https://dc.lft.to/lastmile_qr_scan", "android": "https://dc.lft.to/lastmile_qr_scan"}, "fusion_lon": 0.0, "name": "1cf28628b59b13e79ad39eda55385ecc", "lon": -77.02965433333334}, {"is_reserved": 0, "lat": 38.92645433333333, "is_disabled": 0, "type": "electric_scooter", "fusion_lat": 0.0, "bike_id": "33110c9db4fc26b2743713b4a93a4d09", "rental_uris": {"ios": "https://dc.lft.to/lastmile_qr_scan", "android": "https://dc.lft.to/lastmile_qr_scan"}, "fusion_lon": 0.0, "name": "33110c9db4fc26b2743713b4a93a4d09", "lon": -77.03703283333333}, {"is_reserved": 0, "lat": 38.91955266666667, "is_disabled": 0, "type": "electric_scooter", "fusion_lat": 0.0, "bike_id": "ffc52c4e13b80f416ceaa3c977a9f4c4", "rental_uris": {"ios": "https://dc.lft.to/lastmile_qr_scan", "android": "https://dc.lft.to/lastmile_qr_scan"}, "fusion_lon": 0.0, "name": "ffc52c4e13b80f416ceaa3c977a9f4c4", "lon": -77.02381016666666}, {"is_reserved": 0, "lat": 38.936028666666665, "is_disabled": 0, "type": "electric_scooter", "fusion_lat": 0.0, "bike_id": "9ba521a0eae475436aa37d113b8ad2d9", "rental_uris": {"ios": "https://dc.lft.to/lastmile_qr_scan", "android": "https://dc.lft.to/lastmile_qr_scan"}, "fusion_lon": 0.0, "name": "9ba521a0eae475436aa37d113b8ad2d9", "lon": -77.05861483333334}, {"is_reserved": 0, "lat": 38.90032516666667, "is_disabled": 0, "type": "electric_scooter", "fusion_lat": 0.0, "bike_id": "e2dec97193cd87c0cf6de44523d502fa", "rental_uris": {"ios": "https://dc.lft.to/lastmile_qr_scan", "android": "https://dc.lft.to/lastmile_qr_scan"}, "fusion_lon": 0.0, "name": "e2dec97193cd87c0cf6de44523d502fa", "lon": -77.0482255}, {"is_reserved": 0, "lat": 38.91757833333333, "is_disabled": 0, "type": "electric_scooter", "fusion_lat": 0.0, "bike_id": "4d36f20d254cb33d0f0e89d14b366cb9", "rental_uris": {"ios": "https://dc.lft.to/lastmile_qr_scan", "android": "https://dc.lft.to/lastmile_qr_scan"}, "fusion_lon": 0.0, "name": "4d36f20d254cb33d0f0e89d14b366cb9", "lon": -77.01605716666667}, {"is_reserved": 0, "lat": 38.92360816666667, "is_disabled": 0, "type": "electric_scooter", "fusion_lat": 0.0, "bike_id": "d5a321d8e48c25f1c8f18a4576a0ecb2", "rental_uris": {"ios": "https://dc.lft.to/lastmile_qr_scan", "android": "https://dc.lft.to/lastmile_qr_scan"}, "fusion_lon": 0.0, "name": "d5a321d8e48c25f1c8f18a4576a0ecb2", "lon": -77.02963383333334}, {"is_reserved": 0, "lat": 38.90964266666667, "is_disabled": 0, "type": "electric_scooter", "fusion_lat": 0.0, "bike_id": "631307fe2b290a321978d5746349f36c", "rental_uris": {"ios": "https://dc.lft.to/lastmile_qr_scan", "android": "https://dc.lft.to/lastmile_qr_scan"}, "fusion_lon": 0.0, "name": "631307fe2b290a321978d5746349f36c", "lon": -77.048244}, {"is_reserved": 0, "lat": 38.893501666666666, "is_disabled": 0, "type": "electric_bike", "fusion_lat": 0.0, "bike_id": "998bb15ea375b8967b7c9940b44f3042", "rental_uris": {"ios": "https://dc.lft.to/lastmile_qr_scan", "android": "https://dc.lft.to/lastmile_qr_scan"}, "fusion_lon": 0.0, "name": "998bb15ea375b8967b7c9940b44f3042", "lon": -77.18745333333334}, {"is_reserved": 0, "lat": 38.93880816666667, "is_disabled": 0, "type": "electric_scooter", "fusion_lat": 0.0, "bike_id": "cf94ab956d3e62cfff0662e9ef484f1b", "rental_uris": {"ios": "https://dc.lft.to/lastmile_qr_scan", "android": "https://dc.lft.to/lastmile_qr_scan"}, "fusion_lon": 0.0, "name": "cf94ab956d3e62cfff0662e9ef484f1b", "lon": -77.02464516666667}, {"is_reserved": 0, "lat": 38.9036775, "is_disabled": 0, "type": "electric_scooter", "fusion_lat": 0.0, "bike_id": "856ef62558e31512ba2a2059d1b4a30a", "rental_uris": {"ios": "https://dc.lft.to/lastmile_qr_scan", "android": "https://dc.lft.to/lastmile_qr_scan"}, "fusion_lon": 0.0, "name": "856ef62558e31512ba2a2059d1b4a30a", "lon": -77.04464283333333}, {"is_reserved": 0, "lat": 38.94916116666667, "is_disabled": 0, "type": "electric_bike", "fusion_lat": 0.0, "bike_id": "30d8c338a9ac903da607e9ae0fe11a59", "rental_uris": {"ios": "https://dc.lft.to/lastmile_qr_scan", "android": "https://dc.lft.to/lastmile_qr_scan"}, "fusion_lon": 0.0, "name": "30d8c338a9ac903da607e9ae0fe11a59", "lon": -77.00794566666667}, {"is_reserved": 0, "lat": 38.91175966666667, "is_disabled": 0, "type": "electric_scooter", "fusion_lat": 0.0, "bike_id": "fea66f636e784f7bdf4a9305977ecaa4", "rental_uris": {"ios": "https://dc.lft.to/lastmile_qr_scan", "android": "https://dc.lft.to/lastmile_qr_scan"}, "fusion_lon": 0.0, "name": "fea66f636e784f7bdf4a9305977ecaa4", "lon": -77.005532}, {"is_reserved": 0, "lat": 39.015635833333334, "is_disabled": 0, "type": "electric_bike", "fusion_lat": 0.0, "bike_id": "294735f8e8155f43152a3c6ce74182c7", "rental_uris": {"ios": "https://dc.lft.to/lastmile_qr_scan", "android": "https://dc.lft.to/lastmile_qr_scan"}, "fusion_lon": 0.0, "name": "294735f8e8155f43152a3c6ce74182c7", "lon": -77.04420616666667}, {"is_reserved": 0, "lat": 38.911183333333334, "is_disabled": 0, "type": "electric_scooter", "fusion_lat": 0.0, "bike_id": "56926767bcb7edc6d4e0bc8046fec33c", "rental_uris": {"ios": "https://dc.lft.to/lastmile_qr_scan", "android": "https://dc.lft.to/lastmile_qr_scan"}, "fusion_lon": 0.0, "name": "56926767bcb7edc6d4e0bc8046fec33c", "lon": -77.04232283333333}, {"is_reserved": 0, "lat": 38.892175, "is_disabled": 0, "type": "electric_scooter", "fusion_lat": 0.0, "bike_id": "987bb96846ebbd5c0c292af783445a3b", "rental_uris": {"ios": "https://dc.lft.to/lastmile_qr_scan", "android": "https://dc.lft.to/lastmile_qr_scan"}, "fusion_lon": 0.0, "name": "987bb96846ebbd5c0c292af783445a3b", "lon": -77.04368966666667}, {"is_reserved": 0, "lat": 38.908296, "is_disabled": 0, "type": "electric_scooter", "fusion_lat": 0.0, "bike_id": "4f26df9adfb97db26c556b91b949ea4b", "rental_uris": {"ios": "https://dc.lft.to/lastmile_qr_scan", "android": "https://dc.lft.to/lastmile_qr_scan"}, "fusion_lon": 0.0, "name": "4f26df9adfb97db26c556b91b949ea4b", "lon": -77.021846}, {"is_reserved": 0, "lat": 38.89223966666667, "is_disabled": 0, "type": "electric_scooter", "fusion_lat": 0.0, "bike_id": "3add9b2d53f6b58ead18dd305d0909c2", "rental_uris": {"ios": "https://dc.lft.to/lastmile_qr_scan", "android": "https://dc.lft.to/lastmile_qr_scan"}, "fusion_lon": 0.0, "name": "3add9b2d53f6b58ead18dd305d0909c2", "lon": -77.02783683333334}, {"is_reserved": 0, "lat": 38.91567666666667, "is_disabled": 0, "type": "electric_bike", "fusion_lat": 0.0, "bike_id": "b13da6289d9a545df5f2e67087f1b871", "rental_uris": {"ios": "https://dc.lft.to/lastmile_qr_scan", "android": "https://dc.lft.to/lastmile_qr_scan"}, "fusion_lon": 0.0, "name": "b13da6289d9a545df5f2e67087f1b871", "lon": -77.03376816666666}, {"is_reserved": 0, "lat": 38.92249966666667, "is_disabled": 0, "type": "electric_scooter", "fusion_lat": 0.0, "bike_id": "86114092df588b7cd36349895fb143c3", "rental_uris": {"ios": "https://dc.lft.to/lastmile_qr_scan", "android": "https://dc.lft.to/lastmile_qr_scan"}, "fusion_lon": 0.0, "name": "86114092df588b7cd36349895fb143c3", "lon": -77.0307475}, {"is_reserved": 0, "lat": 38.895254666666666, "is_disabled": 0, "type": "electric_scooter", "fusion_lat": 0.0, "bike_id": "86f6e1cc87b46d05f2e72e495ea7d741", "rental_uris": {"ios": "https://dc.lft.to/lastmile_qr_scan", "android": "https://dc.lft.to/lastmile_qr_scan"}, "fusion_lon": 0.0, "name": "86f6e1cc87b46d05f2e72e495ea7d741", "lon": -77.04336833333333}, {"is_reserved": 0, "lat": 38.910359166666666, "is_disabled": 0, "type": "electric_bike", "fusion_lat": 0.0, "bike_id": "1c25e073032351ce1b74f6faf0f8459a", "rental_uris": {"ios": "https://dc.lft.to/lastmile_qr_scan", "android": "https://dc.lft.to/lastmile_qr_scan"}, "fusion_lon": 0.0, "name": "1c25e073032351ce1b74f6faf0f8459a", "lon": -77.032216}, {"is_reserved": 0, "lat": 38.91295266666667, "is_disabled": 0, "type": "electric_scooter", "fusion_lat": 0.0, "bike_id": "9f4520ab3f8c32dbb1aaf648de01471e", "rental_uris": {"ios": "https://dc.lft.to/lastmile_qr_scan", "android": "https://dc.lft.to/lastmile_qr_scan"}, "fusion_lon": 0.0, "name": "9f4520ab3f8c32dbb1aaf648de01471e", "lon": -77.04172716666666}, {"is_reserved": 0, "lat": 38.892178, "is_disabled": 0, "type": "electric_scooter", "fusion_lat": 0.0, "bike_id": "e77fcf9e2ac69db2e991f013957dcc7b", "rental_uris": {"ios": "https://dc.lft.to/lastmile_qr_scan", "android": "https://dc.lft.to/lastmile_qr_scan"}, "fusion_lon": 0.0, "name": "e77fcf9e2ac69db2e991f013957dcc7b", "lon": -77.02220583333333}, {"is_reserved": 0, "lat": 39.029333333333334, "is_disabled": 0, "type": "electric_bike", "fusion_lat": 0.0, "bike_id": "b21da8da6934a87a69a39f5795ac4916", "rental_uris": {"ios": "https://dc.lft.to/lastmile_qr_scan", "android": "https://dc.lft.to/lastmile_qr_scan"}, "fusion_lon": 0.0, "name": "b21da8da6934a87a69a39f5795ac4916", "lon": -77.04931783333333}, {"is_reserved": 0, "lat": 38.897397166666664, "is_disabled": 0, "type": "electric_scooter", "fusion_lat": 0.0, "bike_id": "9fcf71985c3c59e6443df0323a28b3bb", "rental_uris": {"ios": "https://dc.lft.to/lastmile_qr_scan", "android": "https://dc.lft.to/lastmile_qr_scan"}, "fusion_lon": 0.0, "name": "9fcf71985c3c59e6443df0323a28b3bb", "lon": -77.0471085}, {"is_reserved": 0, "lat": 38.90534916666667, "is_disabled": 0, "type": "electric_scooter", "fusion_lat": 0.0, "bike_id": "97b58d225f1362be3ae365695eca8cd1", "rental_uris": {"ios": "https://dc.lft.to/lastmile_qr_scan", "android": "https://dc.lft.to/lastmile_qr_scan"}, "fusion_lon": 0.0, "name": "97b58d225f1362be3ae365695eca8cd1", "lon": -77.052285}, {"is_reserved": 0, "lat": 38.92259083333333, "is_disabled": 0, "type": "electric_bike", "fusion_lat": 0.0, "bike_id": "36a198440c8b7730c9af4c78ad5db775", "rental_uris": {"ios": "https://dc.lft.to/lastmile_qr_scan", "android": "https://dc.lft.to/lastmile_qr_scan"}, "fusion_lon": 0.0, "name": "36a198440c8b7730c9af4c78ad5db775", "lon": -76.98156566666667}, {"is_reserved": 0, "lat": 38.921205, "is_disabled": 0, "type": "electric_scooter", "fusion_lat": 0.0, "bike_id": "60f6250a6282156c40907675763268ee", "rental_uris": {"ios": "https://dc.lft.to/lastmile_qr_scan", "android": "https://dc.lft.to/lastmile_qr_scan"}, "fusion_lon": 0.0, "name": "60f6250a6282156c40907675763268ee", "lon": -77.0443135}, {"is_reserved": 0, "lat": 38.931145666666666, "is_disabled": 0, "type": "electric_scooter", "fusion_lat": 0.0, "bike_id": "cf91ca007cdadbae682997c05e722933", "rental_uris": {"ios": "https://dc.lft.to/lastmile_qr_scan", "android": "https://dc.lft.to/lastmile_qr_scan"}, "fusion_lon": 0.0, "name": "cf91ca007cdadbae682997c05e722933", "lon": -77.02983866666666}, {"is_reserved": 0, "lat": 38.915825166666664, "is_disabled": 0, "type": "electric_scooter", "fusion_lat": 0.0, "bike_id": "3824e0fd35002ac2de42d699f638ec19", "rental_uris": {"ios": "https://dc.lft.to/lastmile_qr_scan", "android": "https://dc.lft.to/lastmile_qr_scan"}, "fusion_lon": 0.0, "name": "3824e0fd35002ac2de42d699f638ec19", "lon": -77.046729}, {"is_reserved": 0, "lat": 38.908242333333334, "is_disabled": 0, "type": "electric_scooter", "fusion_lat": 0.0, "bike_id": "a7cdbe7f49c1d2f85c567c1782874862", "rental_uris": {"ios": "https://dc.lft.to/lastmile_qr_scan", "android": "https://dc.lft.to/lastmile_qr_scan"}, "fusion_lon": 0.0, "name": "a7cdbe7f49c1d2f85c567c1782874862", "lon": -76.99451866666666}, {"is_reserved": 0, "lat": 38.91560066666667, "is_disabled": 0, "type": "electric_scooter", "fusion_lat": 0.0, "bike_id": "51382afd1bca74bc071c3a52b8029301", "rental_uris": {"ios": "https://dc.lft.to/lastmile_qr_scan", "android": "https://dc.lft.to/lastmile_qr_scan"}, "fusion_lon": 0.0, "name": "51382afd1bca74bc071c3a52b8029301", "lon": -77.02726983333334}, {"is_reserved": 0, "lat": 38.92731033333333, "is_disabled": 0, "type": "electric_scooter", "fusion_lat": 0.0, "bike_id": "a3ea55a0b3bbb18d9f2fe1bd9b8c8d49", "rental_uris": {"ios": "https://dc.lft.to/lastmile_qr_scan", "android": "https://dc.lft.to/lastmile_qr_scan"}, "fusion_lon": 0.0, "name": "a3ea55a0b3bbb18d9f2fe1bd9b8c8d49", "lon": -77.03267983333333}, {"is_reserved": 0, "lat": 38.9008115, "is_disabled": 0, "type": "electric_scooter", "fusion_lat": 0.0, "bike_id": "539289523fdb8c868e2e46b23073e597", "rental_uris": {"ios": "https://dc.lft.to/lastmile_qr_scan", "android": "https://dc.lft.to/lastmile_qr_scan"}, "fusion_lon": 0.0, "name": "539289523fdb8c868e2e46b23073e597", "lon": -77.02021316666666}, {"is_reserved": 0, "lat": 38.9147535, "is_disabled": 0, "type": "electric_scooter", "fusion_lat": 0.0, "bike_id": "5fd862fc4ae57ffbb3e54e0bb87a84b5", "rental_uris": {"ios": "https://dc.lft.to/lastmile_qr_scan", "android": "https://dc.lft.to/lastmile_qr_scan"}, "fusion_lon": 0.0, "name": "5fd862fc4ae57ffbb3e54e0bb87a84b5", "lon": -77.02526083333333}, {"is_reserved": 0, "lat": 39.088567166666664, "is_disabled": 0, "type": "electric_bike", "fusion_lat": 0.0, "bike_id": "228637802be05a0b40e2abf79279f047", "rental_uris": {"ios": "https://dc.lft.to/lastmile_qr_scan", "android": "https://dc.lft.to/lastmile_qr_scan"}, "fusion_lon": 0.0, "name": "228637802be05a0b40e2abf79279f047", "lon": -77.17844866666667}, {"is_reserved": 0, "lat": 38.915820333333336, "is_disabled": 0, "type": "electric_bike", "fusion_lat": 0.0, "bike_id": "a6cd3248c9efd3758d8618bd7af7f5d7", "rental_uris": {"ios": "https://dc.lft.to/lastmile_qr_scan", "android": "https://dc.lft.to/lastmile_qr_scan"}, "fusion_lon": 0.0, "name": "a6cd3248c9efd3758d8618bd7af7f5d7", "lon": -76.97894666666667}, {"is_reserved": 0, "lat": 38.916757, "is_disabled": 0, "type": "electric_scooter", "fusion_lat": 0.0, "bike_id": "a9feefc4c5620c4ab4b7d0ac578cc84d", "rental_uris": {"ios": "https://dc.lft.to/lastmile_qr_scan", "android": "https://dc.lft.to/lastmile_qr_scan"}, "fusion_lon": 0.0, "name": "a9feefc4c5620c4ab4b7d0ac578cc84d", "lon": -77.04176916666667}, {"is_reserved": 0, "lat": 38.881990333333334, "is_disabled": 0, "type": "electric_bike", "fusion_lat": 0.0, "bike_id": "58ed5c4e40b56df6b93a35b4ef2b3203", "rental_uris": {"ios": "https://dc.lft.to/lastmile_qr_scan", "android": "https://dc.lft.to/lastmile_qr_scan"}, "fusion_lon": 0.0, "name": "58ed5c4e40b56df6b93a35b4ef2b3203", "lon": -77.01767066666666}, {"is_reserved": 0, "lat": 38.89666833333333, "is_disabled": 0, "type": "electric_scooter", "fusion_lat": 0.0, "bike_id": "a6c0f9008047dc4923801899c68d26a4", "rental_uris": {"ios": "https://dc.lft.to/lastmile_qr_scan", "android": "https://dc.lft.to/lastmile_qr_scan"}, "fusion_lon": 0.0, "name": "a6c0f9008047dc4923801899c68d26a4", "lon": -77.023257}, {"is_reserved": 0, "lat": 38.92847866666666, "is_disabled": 0, "type": "electric_bike", "fusion_lat": 0.0, "bike_id": "ffce38542382b49b999195553c8aaff5", "rental_uris": {"ios": "https://dc.lft.to/lastmile_qr_scan", "android": "https://dc.lft.to/lastmile_qr_scan"}, "fusion_lon": 0.0, "name": "ffce38542382b49b999195553c8aaff5", "lon": -77.22197916666667}, {"is_reserved": 0, "lat": 38.899802666666666, "is_disabled": 0, "type": "electric_scooter", "fusion_lat": 0.0, "bike_id": "097cf4ab33f9b384444ffb08145e130b", "rental_uris": {"ios": "https://dc.lft.to/lastmile_qr_scan", "android": "https://dc.lft.to/lastmile_qr_scan"}, "fusion_lon": 0.0, "name": "097cf4ab33f9b384444ffb08145e130b", "lon": -76.93990816666667}, {"is_reserved": 0, "lat": 38.87468716666667, "is_disabled": 0, "type": "electric_bike", "fusion_lat": 0.0, "bike_id": "fa5f94ca645a935a8059b44c9c5a9bd5", "rental_uris": {"ios": "https://dc.lft.to/lastmile_qr_scan", "android": "https://dc.lft.to/lastmile_qr_scan"}, "fusion_lon": 0.0, "name": "fa5f94ca645a935a8059b44c9c5a9bd5", "lon": -76.96509983333334}, {"is_reserved": 0, "lat": 38.89883233333333, "is_disabled": 0, "type": "electric_scooter", "fusion_lat": 0.0, "bike_id": "254e2b8e57a062e0c9b426e6abb747f1", "rental_uris": {"ios": "https://dc.lft.to/lastmile_qr_scan", "android": "https://dc.lft.to/lastmile_qr_scan"}, "fusion_lon": 0.0, "name": "254e2b8e57a062e0c9b426e6abb747f1", "lon": -76.93228966666666}, {"is_reserved": 0, "lat": 38.904762, "is_disabled": 0, "type": "electric_scooter", "fusion_lat": 0.0, "bike_id": "48cb25b3f5c83ea4e3da1b398a1e780e", "rental_uris": {"ios": "https://dc.lft.to/lastmile_qr_scan", "android": "https://dc.lft.to/lastmile_qr_scan"}, "fusion_lon": 0.0, "name": "48cb25b3f5c83ea4e3da1b398a1e780e", "lon": -77.04165966666666}, {"is_reserved": 0, "lat": 38.9027285, "is_disabled": 0, "type": "electric_scooter", "fusion_lat": 0.0, "bike_id": "8f4cd9add6b624653c09b8f7d0cf784e", "rental_uris": {"ios": "https://dc.lft.to/lastmile_qr_scan", "android": "https://dc.lft.to/lastmile_qr_scan"}, "fusion_lon": 0.0, "name": "8f4cd9add6b624653c09b8f7d0cf784e", "lon": -77.04593216666666}, {"is_reserved": 0, "lat": 38.899856666666665, "is_disabled": 0, "type": "electric_bike", "fusion_lat": 0.0, "bike_id": "7ce90607ffba3ba2f6a95e2d51156989", "rental_uris": {"ios": "https://dc.lft.to/lastmile_qr_scan", "android": "https://dc.lft.to/lastmile_qr_scan"}, "fusion_lon": 0.0, "name": "7ce90607ffba3ba2f6a95e2d51156989", "lon": -77.02936816666667}, {"is_reserved": 0, "lat": 38.924334333333334, "is_disabled": 0, "type": "electric_scooter", "fusion_lat": 0.0, "bike_id": "331033e7cf0f5ddf897374eee2489179", "rental_uris": {"ios": "https://dc.lft.to/lastmile_qr_scan", "android": "https://dc.lft.to/lastmile_qr_scan"}, "fusion_lon": 0.0, "name": "331033e7cf0f5ddf897374eee2489179", "lon": -77.05758783333333}, {"is_reserved": 0, "lat": 38.90887033333333, "is_disabled": 0, "type": "electric_scooter", "fusion_lat": 0.0, "bike_id": "65885d5dda2989508c7cf0d5d70a9cb8", "rental_uris": {"ios": "https://dc.lft.to/lastmile_qr_scan", "android": "https://dc.lft.to/lastmile_qr_scan"}, "fusion_lon": 0.0, "name": "65885d5dda2989508c7cf0d5d70a9cb8", "lon": -77.03443866666667}, {"is_reserved": 0, "lat": 38.89582733333334, "is_disabled": 0, "type": "electric_scooter", "fusion_lat": 0.0, "bike_id": "900e1d2d4728560be9fb20be89dda7a6", "rental_uris": {"ios": "https://dc.lft.to/lastmile_qr_scan", "android": "https://dc.lft.to/lastmile_qr_scan"}, "fusion_lon": 0.0, "name": "900e1d2d4728560be9fb20be89dda7a6", "lon": -77.03209733333334}, {"is_reserved": 0, "lat": 38.91208783333333, "is_disabled": 0, "type": "electric_scooter", "fusion_lat": 0.0, "bike_id": "b2da0da19c7829930899f9bb1a176dca", "rental_uris": {"ios": "https://dc.lft.to/lastmile_qr_scan", "android": "https://dc.lft.to/lastmile_qr_scan"}, "fusion_lon": 0.0, "name": "b2da0da19c7829930899f9bb1a176dca", "lon": -77.07596766666667}, {"is_reserved": 0, "lat": 38.9057675, "is_disabled": 0, "type": "electric_scooter", "fusion_lat": 0.0, "bike_id": "35600996b451d159e883d3835e183827", "rental_uris": {"ios": "https://dc.lft.to/lastmile_qr_scan", "android": "https://dc.lft.to/lastmile_qr_scan"}, "fusion_lon": 0.0, "name": "35600996b451d159e883d3835e183827", "lon": -77.0383405}, {"is_reserved": 0, "lat": 38.904172, "is_disabled": 0, "type": "electric_scooter", "fusion_lat": 0.0, "bike_id": "cb95b6a445cacaada7ddcdb8d615c8f9", "rental_uris": {"ios": "https://dc.lft.to/lastmile_qr_scan", "android": "https://dc.lft.to/lastmile_qr_scan"}, "fusion_lon": 0.0, "name": "cb95b6a445cacaada7ddcdb8d615c8f9", "lon": -77.04660883333334}, {"is_reserved": 0, "lat": 38.92430483333333, "is_disabled": 0, "type": "electric_scooter", "fusion_lat": 0.0, "bike_id": "8f6a453b2dd6cd7e55b1620dc97ccd30", "rental_uris": {"ios": "https://dc.lft.to/lastmile_qr_scan", "android": "https://dc.lft.to/lastmile_qr_scan"}, "fusion_lon": 0.0, "name": "8f6a453b2dd6cd7e55b1620dc97ccd30", "lon": -77.04007716666666}, {"is_reserved": 0, "lat": 38.921686666666666, "is_disabled": 0, "type": "electric_scooter", "fusion_lat": 0.0, "bike_id": "1749d296258235075de1eae776e0ef9c", "rental_uris": {"ios": "https://dc.lft.to/lastmile_qr_scan", "android": "https://dc.lft.to/lastmile_qr_scan"}, "fusion_lon": 0.0, "name": "1749d296258235075de1eae776e0ef9c", "lon": -77.04122}, {"is_reserved": 0, "lat": 38.899457, "is_disabled": 0, "type": "electric_scooter", "fusion_lat": 0.0, "bike_id": "d930f7b2f2c801cbb75e2e655ebd2b06", "rental_uris": {"ios": "https://dc.lft.to/lastmile_qr_scan", "android": "https://dc.lft.to/lastmile_qr_scan"}, "fusion_lon": 0.0, "name": "d930f7b2f2c801cbb75e2e655ebd2b06", "lon": -77.04668633333333}, {"is_reserved": 0, "lat": 38.92455133333333, "is_disabled": 0, "type": "electric_bike", "fusion_lat": 0.0, "bike_id": "e10c532d2d23015f8c85ab9f9b41024e", "rental_uris": {"ios": "https://dc.lft.to/lastmile_qr_scan", "android": "https://dc.lft.to/lastmile_qr_scan"}, "fusion_lon": 0.0, "name": "e10c532d2d23015f8c85ab9f9b41024e", "lon": -77.05200216666667}, {"is_reserved": 0, "lat": 38.90030266666667, "is_disabled": 0, "type": "electric_scooter", "fusion_lat": 0.0, "bike_id": "e9b12fff10005c911dbd8d3d10511c44", "rental_uris": {"ios": "https://dc.lft.to/lastmile_qr_scan", "android": "https://dc.lft.to/lastmile_qr_scan"}, "fusion_lon": 0.0, "name": "e9b12fff10005c911dbd8d3d10511c44", "lon": -76.9883525}, {"is_reserved": 0, "lat": 38.9089095, "is_disabled": 0, "type": "electric_scooter", "fusion_lat": 0.0, "bike_id": "d2de3c8bad2ae92e4a41af2df066b046", "rental_uris": {"ios": "https://dc.lft.to/lastmile_qr_scan", "android": "https://dc.lft.to/lastmile_qr_scan"}, "fusion_lon": 0.0, "name": "d2de3c8bad2ae92e4a41af2df066b046", "lon": -77.038317}, {"is_reserved": 0, "lat": 38.93079516666667, "is_disabled": 0, "type": "electric_scooter", "fusion_lat": 0.0, "bike_id": "489e77eb40911545dc8daaf5330c7d38", "rental_uris": {"ios": "https://dc.lft.to/lastmile_qr_scan", "android": "https://dc.lft.to/lastmile_qr_scan"}, "fusion_lon": 0.0, "name": "489e77eb40911545dc8daaf5330c7d38", "lon": -77.02805716666667}, {"is_reserved": 0, "lat": 38.8922285, "is_disabled": 0, "type": "electric_scooter", "fusion_lat": 0.0, "bike_id": "0ef89ee3d8414dc35a15932d4018547b", "rental_uris": {"ios": "https://dc.lft.to/lastmile_qr_scan", "android": "https://dc.lft.to/lastmile_qr_scan"}, "fusion_lon": 0.0, "name": "0ef89ee3d8414dc35a15932d4018547b", "lon": -77.04183566666667}, {"is_reserved": 0, "lat": 38.926739833333336, "is_disabled": 0, "type": "electric_scooter", "fusion_lat": 0.0, "bike_id": "4df00a7b42f9b71d6f1fe9780b346792", "rental_uris": {"ios": "https://dc.lft.to/lastmile_qr_scan", "android": "https://dc.lft.to/lastmile_qr_scan"}, "fusion_lon": 0.0, "name": "4df00a7b42f9b71d6f1fe9780b346792", "lon": -77.0147715}, {"is_reserved": 0, "lat": 38.9000905, "is_disabled": 0, "type": "electric_scooter", "fusion_lat": 0.0, "bike_id": "03d0d03919c1d6a0ad28449d10842c32", "rental_uris": {"ios": "https://dc.lft.to/lastmile_qr_scan", "android": "https://dc.lft.to/lastmile_qr_scan"}, "fusion_lon": 0.0, "name": "03d0d03919c1d6a0ad28449d10842c32", "lon": -76.99310583333333}, {"is_reserved": 0, "lat": 38.961322, "is_disabled": 0, "type": "electric_bike", "fusion_lat": 0.0, "bike_id": "5864c412bfa2a642233ecf7954eee3e4", "rental_uris": {"ios": "https://dc.lft.to/lastmile_qr_scan", "android": "https://dc.lft.to/lastmile_qr_scan"}, "fusion_lon": 0.0, "name": "5864c412bfa2a642233ecf7954eee3e4", "lon": -77.00973816666666}, {"is_reserved": 0, "lat": 38.9136245, "is_disabled": 0, "type": "electric_scooter", "fusion_lat": 0.0, "bike_id": "e2c9cba8f5dba58a8024c74dd42394bf", "rental_uris": {"ios": "https://dc.lft.to/lastmile_qr_scan", "android": "https://dc.lft.to/lastmile_qr_scan"}, "fusion_lon": 0.0, "name": "e2c9cba8f5dba58a8024c74dd42394bf", "lon": -77.04484383333333}, {"is_reserved": 0, "lat": 38.8901245, "is_disabled": 0, "type": "electric_scooter", "fusion_lat": 0.0, "bike_id": "9810fcf538e21e2bf2722be9c6dc2d3e", "rental_uris": {"ios": "https://dc.lft.to/lastmile_qr_scan", "android": "https://dc.lft.to/lastmile_qr_scan"}, "fusion_lon": 0.0, "name": "9810fcf538e21e2bf2722be9c6dc2d3e", "lon": -76.93742216666666}, {"is_reserved": 0, "lat": 38.8898615, "is_disabled": 0, "type": "electric_scooter", "fusion_lat": 0.0, "bike_id": "43ea854956cf0515b16b9225af3008df", "rental_uris": {"ios": "https://dc.lft.to/lastmile_qr_scan", "android": "https://dc.lft.to/lastmile_qr_scan"}, "fusion_lon": 0.0, "name": "43ea854956cf0515b16b9225af3008df", "lon": -77.00338116666667}, {"is_reserved": 0, "lat": 38.887414166666666, "is_disabled": 0, "type": "electric_scooter", "fusion_lat": 0.0, "bike_id": "e35775bfaeddc2b7a49dead98bf59a3a", "rental_uris": {"ios": "https://dc.lft.to/lastmile_qr_scan", "android": "https://dc.lft.to/lastmile_qr_scan"}, "fusion_lon": 0.0, "name": "e35775bfaeddc2b7a49dead98bf59a3a", "lon": -77.01404883333333}, {"is_reserved": 0, "lat": 38.887455833333334, "is_disabled": 0, "type": "electric_scooter", "fusion_lat": 0.0, "bike_id": "6b1de54f5e7e4947790b1304e07ae861", "rental_uris": {"ios": "https://dc.lft.to/lastmile_qr_scan", "android": "https://dc.lft.to/lastmile_qr_scan"}, "fusion_lon": 0.0, "name": "6b1de54f5e7e4947790b1304e07ae861", "lon": -77.0284035}, {"is_reserved": 0, "lat": 38.9008565, "is_disabled": 0, "type": "electric_scooter", "fusion_lat": 0.0, "bike_id": "72bc1f1088f448f1cad6b7eaec1a472a", "rental_uris": {"ios": "https://dc.lft.to/lastmile_qr_scan", "android": "https://dc.lft.to/lastmile_qr_scan"}, "fusion_lon": 0.0, "name": "72bc1f1088f448f1cad6b7eaec1a472a", "lon": -77.02101533333334}, {"is_reserved": 0, "lat": 38.90170416666667, "is_disabled": 0, "type": "electric_scooter", "fusion_lat": 0.0, "bike_id": "8e653212cad43de4d2c24a0d84c3e406", "rental_uris": {"ios": "https://dc.lft.to/lastmile_qr_scan", "android": "https://dc.lft.to/lastmile_qr_scan"}, "fusion_lon": 0.0, "name": "8e653212cad43de4d2c24a0d84c3e406", "lon": -77.05992933333333}, {"is_reserved": 0, "lat": 38.92812833333333, "is_disabled": 0, "type": "electric_scooter", "fusion_lat": 0.0, "bike_id": "ee1e2892f2d38cc1a90753ff331c84e6", "rental_uris": {"ios": "https://dc.lft.to/lastmile_qr_scan", "android": "https://dc.lft.to/lastmile_qr_scan"}, "fusion_lon": 0.0, "name": "ee1e2892f2d38cc1a90753ff331c84e6", "lon": -77.01409366666667}, {"is_reserved": 0, "lat": 38.9447115, "is_disabled": 0, "type": "electric_bike", "fusion_lat": 0.0, "bike_id": "a00614f3cc355ce06a92872bbb819b87", "rental_uris": {"ios": "https://dc.lft.to/lastmile_qr_scan", "android": "https://dc.lft.to/lastmile_qr_scan"}, "fusion_lon": 0.0, "name": "a00614f3cc355ce06a92872bbb819b87", "lon": -76.98689733333333}, {"is_reserved": 0, "lat": 38.89744533333333, "is_disabled": 0, "type": "electric_scooter", "fusion_lat": 0.0, "bike_id": "68ffe1e7a75a9e2c3c13cdf9a77774e3", "rental_uris": {"ios": "https://dc.lft.to/lastmile_qr_scan", "android": "https://dc.lft.to/lastmile_qr_scan"}, "fusion_lon": 0.0, "name": "68ffe1e7a75a9e2c3c13cdf9a77774e3", "lon": -77.02993916666667}, {"is_reserved": 0, "lat": 38.900662833333335, "is_disabled": 0, "type": "electric_scooter", "fusion_lat": 0.0, "bike_id": "514d42dd5e2d4840a6cd77cb091217b2", "rental_uris": {"ios": "https://dc.lft.to/lastmile_qr_scan", "android": "https://dc.lft.to/lastmile_qr_scan"}, "fusion_lon": 0.0, "name": "514d42dd5e2d4840a6cd77cb091217b2", "lon": -76.98713816666667}, {"is_reserved": 0, "lat": 38.894941833333334, "is_disabled": 0, "type": "electric_scooter", "fusion_lat": 0.0, "bike_id": "30995b5a76157e7baff41f8b2ace8bdf", "rental_uris": {"ios": "https://dc.lft.to/lastmile_qr_scan", "android": "https://dc.lft.to/lastmile_qr_scan"}, "fusion_lon": 0.0, "name": "30995b5a76157e7baff41f8b2ace8bdf", "lon": -76.949432}, {"is_reserved": 0, "lat": 38.90389533333333, "is_disabled": 0, "type": "electric_scooter", "fusion_lat": 0.0, "bike_id": "a7d8c9171ffab0a67c6e242e4b1a43ec", "rental_uris": {"ios": "https://dc.lft.to/lastmile_qr_scan", "android": "https://dc.lft.to/lastmile_qr_scan"}, "fusion_lon": 0.0, "name": "a7d8c9171ffab0a67c6e242e4b1a43ec", "lon": -77.04009466666666}, {"is_reserved": 0, "lat": 38.94305833333333, "is_disabled": 0, "type": "electric_scooter", "fusion_lat": 0.0, "bike_id": "f658ca79e7685e9c597da60c173ded23", "rental_uris": {"ios": "https://dc.lft.to/lastmile_qr_scan", "android": "https://dc.lft.to/lastmile_qr_scan"}, "fusion_lon": 0.0, "name": "f658ca79e7685e9c597da60c173ded23", "lon": -77.02494516666667}, {"is_reserved": 0, "lat": 38.927212, "is_disabled": 0, "type": "electric_scooter", "fusion_lat": 0.0, "bike_id": "546c7bd69f584d4e444c66f86f18687a", "rental_uris": {"ios": "https://dc.lft.to/lastmile_qr_scan", "android": "https://dc.lft.to/lastmile_qr_scan"}, "fusion_lon": 0.0, "name": "546c7bd69f584d4e444c66f86f18687a", "lon": -77.03666366666667}, {"is_reserved": 0, "lat": 38.905227833333335, "is_disabled": 0, "type": "electric_scooter", "fusion_lat": 0.0, "bike_id": "09f2c0781c106598a03151bc682c726f", "rental_uris": {"ios": "https://dc.lft.to/lastmile_qr_scan", "android": "https://dc.lft.to/lastmile_qr_scan"}, "fusion_lon": 0.0, "name": "09f2c0781c106598a03151bc682c726f", "lon": -77.051237}, {"is_reserved": 0, "lat": 38.94821533333333, "is_disabled": 0, "type": "electric_scooter", "fusion_lat": 0.0, "bike_id": "e107043e2e230003b243ee83ed3a5146", "rental_uris": {"ios": "https://dc.lft.to/lastmile_qr_scan", "android": "https://dc.lft.to/lastmile_qr_scan"}, "fusion_lon": 0.0, "name": "e107043e2e230003b243ee83ed3a5146", "lon": -76.99903083333334}, {"is_reserved": 0, "lat": 38.93002416666667, "is_disabled": 0, "type": "electric_scooter", "fusion_lat": 0.0, "bike_id": "9dc94b9db125ae65c3d72ece5b75cf63", "rental_uris": {"ios": "https://dc.lft.to/lastmile_qr_scan", "android": "https://dc.lft.to/lastmile_qr_scan"}, "fusion_lon": 0.0, "name": "9dc94b9db125ae65c3d72ece5b75cf63", "lon": -77.05550883333333}, {"is_reserved": 0, "lat": 38.916946333333335, "is_disabled": 0, "type": "electric_scooter", "fusion_lat": 0.0, "bike_id": "251a8f2147ff72814aa1f5653382febf", "rental_uris": {"ios": "https://dc.lft.to/lastmile_qr_scan", "android": "https://dc.lft.to/lastmile_qr_scan"}, "fusion_lon": 0.0, "name": "251a8f2147ff72814aa1f5653382febf", "lon": -77.03780816666666}, {"is_reserved": 0, "lat": 38.920411666666666, "is_disabled": 0, "type": "electric_scooter", "fusion_lat": 0.0, "bike_id": "dab2e8b5adb4e8311638febde3022347", "rental_uris": {"ios": "https://dc.lft.to/lastmile_qr_scan", "android": "https://dc.lft.to/lastmile_qr_scan"}, "fusion_lon": 0.0, "name": "dab2e8b5adb4e8311638febde3022347", "lon": -77.03415183333334}, {"is_reserved": 0, "lat": 38.900348, "is_disabled": 0, "type": "electric_scooter", "fusion_lat": 0.0, "bike_id": "e454c3354341eccb923c128219fe623f", "rental_uris": {"ios": "https://dc.lft.to/lastmile_qr_scan", "android": "https://dc.lft.to/lastmile_qr_scan"}, "fusion_lon": 0.0, "name": "e454c3354341eccb923c128219fe623f", "lon": -76.98826733333334}, {"is_reserved": 0, "lat": 38.877128666666664, "is_disabled": 0, "type": "electric_scooter", "fusion_lat": 0.0, "bike_id": "b008a648b8d05919448b276a8c0683a7", "rental_uris": {"ios": "https://dc.lft.to/lastmile_qr_scan", "android": "https://dc.lft.to/lastmile_qr_scan"}, "fusion_lon": 0.0, "name": "b008a648b8d05919448b276a8c0683a7", "lon": -77.01749483333333}, {"is_reserved": 0, "lat": 38.92746966666667, "is_disabled": 0, "type": "electric_scooter", "fusion_lat": 0.0, "bike_id": "0f6bbab9d3b05440c58f7ab19adc215c", "rental_uris": {"ios": "https://dc.lft.to/lastmile_qr_scan", "android": "https://dc.lft.to/lastmile_qr_scan"}, "fusion_lon": 0.0, "name": "0f6bbab9d3b05440c58f7ab19adc215c", "lon": -77.02484833333334}, {"is_reserved": 0, "lat": 38.91616583333333, "is_disabled": 0, "type": "electric_scooter", "fusion_lat": 0.0, "bike_id": "b3d463ae17e5654fe23dbe654d55333c", "rental_uris": {"ios": "https://dc.lft.to/lastmile_qr_scan", "android": "https://dc.lft.to/lastmile_qr_scan"}, "fusion_lon": 0.0, "name": "b3d463ae17e5654fe23dbe654d55333c", "lon": -77.032795}, {"is_reserved": 0, "lat": 38.9052945, "is_disabled": 0, "type": "electric_scooter", "fusion_lat": 0.0, "bike_id": "5121ea942b942d6b6f46e9234cc238c1", "rental_uris": {"ios": "https://dc.lft.to/lastmile_qr_scan", "android": "https://dc.lft.to/lastmile_qr_scan"}, "fusion_lon": 0.0, "name": "5121ea942b942d6b6f46e9234cc238c1", "lon": -77.05723866666666}, {"is_reserved": 0, "lat": 38.91182216666667, "is_disabled": 0, "type": "electric_scooter", "fusion_lat": 0.0, "bike_id": "4ffacdce9976a86cb9d98ebc48484a30", "rental_uris": {"ios": "https://dc.lft.to/lastmile_qr_scan", "android": "https://dc.lft.to/lastmile_qr_scan"}, "fusion_lon": 0.0, "name": "4ffacdce9976a86cb9d98ebc48484a30", "lon": -77.03164283333334}, {"is_reserved": 0, "lat": 38.9214635, "is_disabled": 0, "type": "electric_scooter", "fusion_lat": 0.0, "bike_id": "3e9d2a2e7d5f5bee6445d735efa031e4", "rental_uris": {"ios": "https://dc.lft.to/lastmile_qr_scan", "android": "https://dc.lft.to/lastmile_qr_scan"}, "fusion_lon": 0.0, "name": "3e9d2a2e7d5f5bee6445d735efa031e4", "lon": -77.03506833333333}, {"is_reserved": 0, "lat": 38.9153965, "is_disabled": 0, "type": "electric_scooter", "fusion_lat": 0.0, "bike_id": "a86ffa214fc77e194dc27f53c0e2eb04", "rental_uris": {"ios": "https://dc.lft.to/lastmile_qr_scan", "android": "https://dc.lft.to/lastmile_qr_scan"}, "fusion_lon": 0.0, "name": "a86ffa214fc77e194dc27f53c0e2eb04", "lon": -77.02975}, {"is_reserved": 0, "lat": 38.928524833333334, "is_disabled": 0, "type": "electric_scooter", "fusion_lat": 0.0, "bike_id": "d1fdb8f0c0f8308c3c2574f4ee346d8e", "rental_uris": {"ios": "https://dc.lft.to/lastmile_qr_scan", "android": "https://dc.lft.to/lastmile_qr_scan"}, "fusion_lon": 0.0, "name": "d1fdb8f0c0f8308c3c2574f4ee346d8e", "lon": -77.03398683333333}, {"is_reserved": 0, "lat": 38.881142833333335, "is_disabled": 0, "type": "electric_scooter", "fusion_lat": 0.0, "bike_id": "eb40e6a55093ed404e0957415bfdfa2d", "rental_uris": {"ios": "https://dc.lft.to/lastmile_qr_scan", "android": "https://dc.lft.to/lastmile_qr_scan"}, "fusion_lon": 0.0, "name": "eb40e6a55093ed404e0957415bfdfa2d", "lon": -77.01663333333333}, {"is_reserved": 0, "lat": 38.90779883333333, "is_disabled": 0, "type": "electric_scooter", "fusion_lat": 0.0, "bike_id": "e29c231a1d0576c833ced3b9baeef7d5", "rental_uris": {"ios": "https://dc.lft.to/lastmile_qr_scan", "android": "https://dc.lft.to/lastmile_qr_scan"}, "fusion_lon": 0.0, "name": "e29c231a1d0576c833ced3b9baeef7d5", "lon": -77.0021615}, {"is_reserved": 0, "lat": 38.900274, "is_disabled": 0, "type": "electric_scooter", "fusion_lat": 0.0, "bike_id": "13bea551bad90fba4a7e974f2c59678f", "rental_uris": {"ios": "https://dc.lft.to/lastmile_qr_scan", "android": "https://dc.lft.to/lastmile_qr_scan"}, "fusion_lon": 0.0, "name": "13bea551bad90fba4a7e974f2c59678f", "lon": -76.999923}, {"is_reserved": 0, "lat": 38.884001166666664, "is_disabled": 0, "type": "electric_scooter", "fusion_lat": 0.0, "bike_id": "861c6715b71cf3b10410102b10fdbbc9", "rental_uris": {"ios": "https://dc.lft.to/lastmile_qr_scan", "android": "https://dc.lft.to/lastmile_qr_scan"}, "fusion_lon": 0.0, "name": "861c6715b71cf3b10410102b10fdbbc9", "lon": -77.02967166666667}, {"is_reserved": 0, "lat": 38.914129, "is_disabled": 0, "type": "electric_scooter", "fusion_lat": 0.0, "bike_id": "7cfddd2e0737cfb149acb552c461ba04", "rental_uris": {"ios": "https://dc.lft.to/lastmile_qr_scan", "android": "https://dc.lft.to/lastmile_qr_scan"}, "fusion_lon": 0.0, "name": "7cfddd2e0737cfb149acb552c461ba04", "lon": -77.02817183333333}, {"is_reserved": 0, "lat": 38.9278525, "is_disabled": 0, "type": "electric_scooter", "fusion_lat": 0.0, "bike_id": "491d07d5ea64e2436ca45cae1a4be910", "rental_uris": {"ios": "https://dc.lft.to/lastmile_qr_scan", "android": "https://dc.lft.to/lastmile_qr_scan"}, "fusion_lon": 0.0, "name": "491d07d5ea64e2436ca45cae1a4be910", "lon": -77.03577133333333}, {"is_reserved": 0, "lat": 38.8938785, "is_disabled": 0, "type": "electric_scooter", "fusion_lat": 0.0, "bike_id": "0a05dff36c21924c34d01825bdcbe431", "rental_uris": {"ios": "https://dc.lft.to/lastmile_qr_scan", "android": "https://dc.lft.to/lastmile_qr_scan"}, "fusion_lon": 0.0, "name": "0a05dff36c21924c34d01825bdcbe431", "lon": -76.95019966666666}, {"is_reserved": 0, "lat": 38.9249785, "is_disabled": 0, "type": "electric_scooter", "fusion_lat": 0.0, "bike_id": "09633f0aff097dd3f51e3923bae57a53", "rental_uris": {"ios": "https://dc.lft.to/lastmile_qr_scan", "android": "https://dc.lft.to/lastmile_qr_scan"}, "fusion_lon": 0.0, "name": "09633f0aff097dd3f51e3923bae57a53", "lon": -77.03795216666667}, {"is_reserved": 0, "lat": 38.912764833333334, "is_disabled": 0, "type": "electric_bike", "fusion_lat": 0.0, "bike_id": "ff443885349bf7d7fe0fd2e2dbbc58da", "rental_uris": {"ios": "https://dc.lft.to/lastmile_qr_scan", "android": "https://dc.lft.to/lastmile_qr_scan"}, "fusion_lon": 0.0, "name": "ff443885349bf7d7fe0fd2e2dbbc58da", "lon": -77.07822916666667}, {"is_reserved": 0, "lat": 38.9595445, "is_disabled": 0, "type": "electric_bike", "fusion_lat": 0.0, "bike_id": "d30743365330978f3cbf720032e824f3", "rental_uris": {"ios": "https://dc.lft.to/lastmile_qr_scan", "android": "https://dc.lft.to/lastmile_qr_scan"}, "fusion_lon": 0.0, "name": "d30743365330978f3cbf720032e824f3", "lon": -77.10092233333333}, {"is_reserved": 0, "lat": 38.94083416666667, "is_disabled": 0, "type": "electric_scooter", "fusion_lat": 0.0, "bike_id": "3dc0c9d043c1675008e9ab48019d30fd", "rental_uris": {"ios": "https://dc.lft.to/lastmile_qr_scan", "android": "https://dc.lft.to/lastmile_qr_scan"}, "fusion_lon": 0.0, "name": "3dc0c9d043c1675008e9ab48019d30fd", "lon": -77.02729516666666}, {"is_reserved": 0, "lat": 38.913996833333336, "is_disabled": 0, "type": "electric_scooter", "fusion_lat": 0.0, "bike_id": "180e6bf0d22e5579e0ff6bba30005c45", "rental_uris": {"ios": "https://dc.lft.to/lastmile_qr_scan", "android": "https://dc.lft.to/lastmile_qr_scan"}, "fusion_lon": 0.0, "name": "180e6bf0d22e5579e0ff6bba30005c45", "lon": -77.03261883333333}, {"is_reserved": 0, "lat": 38.93185783333333, "is_disabled": 0, "type": "electric_scooter", "fusion_lat": 0.0, "bike_id": "edd234fa9e2339718e52b8f1a3b3629b", "rental_uris": {"ios": "https://dc.lft.to/lastmile_qr_scan", "android": "https://dc.lft.to/lastmile_qr_scan"}, "fusion_lon": 0.0, "name": "edd234fa9e2339718e52b8f1a3b3629b", "lon": -77.0296545}, {"is_reserved": 0, "lat": 38.91272133333333, "is_disabled": 0, "type": "electric_scooter", "fusion_lat": 0.0, "bike_id": "2050cfcaea81bada3abc71f62751133d", "rental_uris": {"ios": "https://dc.lft.to/lastmile_qr_scan", "android": "https://dc.lft.to/lastmile_qr_scan"}, "fusion_lon": 0.0, "name": "2050cfcaea81bada3abc71f62751133d", "lon": -77.078279}, {"is_reserved": 0, "lat": 38.9086525, "is_disabled": 0, "type": "electric_scooter", "fusion_lat": 0.0, "bike_id": "ac0110c3cbaf0b3d4e64fb640b6ee2e9", "rental_uris": {"ios": "https://dc.lft.to/lastmile_qr_scan", "android": "https://dc.lft.to/lastmile_qr_scan"}, "fusion_lon": 0.0, "name": "ac0110c3cbaf0b3d4e64fb640b6ee2e9", "lon": -77.02696316666666}, {"is_reserved": 0, "lat": 38.899842, "is_disabled": 0, "type": "electric_scooter", "fusion_lat": 0.0, "bike_id": "0bc206976c902b0974b617386038140d", "rental_uris": {"ios": "https://dc.lft.to/lastmile_qr_scan", "android": "https://dc.lft.to/lastmile_qr_scan"}, "fusion_lon": 0.0, "name": "0bc206976c902b0974b617386038140d", "lon": -76.98291883333333}, {"is_reserved": 0, "lat": 38.9235655, "is_disabled": 0, "type": "electric_scooter", "fusion_lat": 0.0, "bike_id": "8ceb4192071fbb1fe471da52b6b4940a", "rental_uris": {"ios": "https://dc.lft.to/lastmile_qr_scan", "android": "https://dc.lft.to/lastmile_qr_scan"}, "fusion_lon": 0.0, "name": "8ceb4192071fbb1fe471da52b6b4940a", "lon": -77.05041083333333}, {"is_reserved": 0, "lat": 38.9140085, "is_disabled": 0, "type": "electric_scooter", "fusion_lat": 0.0, "bike_id": "54e86d5462c5271bc599adea4a71a3c0", "rental_uris": {"ios": "https://dc.lft.to/lastmile_qr_scan", "android": "https://dc.lft.to/lastmile_qr_scan"}, "fusion_lon": 0.0, "name": "54e86d5462c5271bc599adea4a71a3c0", "lon": -77.01311616666666}, {"is_reserved": 0, "lat": 38.92118883333333, "is_disabled": 0, "type": "electric_scooter", "fusion_lat": 0.0, "bike_id": "00474d7adb0cc19d51024e339aba8e55", "rental_uris": {"ios": "https://dc.lft.to/lastmile_qr_scan", "android": "https://dc.lft.to/lastmile_qr_scan"}, "fusion_lon": 0.0, "name": "00474d7adb0cc19d51024e339aba8e55", "lon": -77.01212483333333}, {"is_reserved": 0, "lat": 38.8899575, "is_disabled": 0, "type": "electric_scooter", "fusion_lat": 0.0, "bike_id": "1acd10c23ca91ac5e60035298a794d2c", "rental_uris": {"ios": "https://dc.lft.to/lastmile_qr_scan", "android": "https://dc.lft.to/lastmile_qr_scan"}, "fusion_lon": 0.0, "name": "1acd10c23ca91ac5e60035298a794d2c", "lon": -77.00347233333333}, {"is_reserved": 0, "lat": 38.905309, "is_disabled": 0, "type": "electric_scooter", "fusion_lat": 0.0, "bike_id": "37f13fe5691637edb59490b5c8955af0", "rental_uris": {"ios": "https://dc.lft.to/lastmile_qr_scan", "android": "https://dc.lft.to/lastmile_qr_scan"}, "fusion_lon": 0.0, "name": "37f13fe5691637edb59490b5c8955af0", "lon": -77.05766883333334}, {"is_reserved": 0, "lat": 38.933284, "is_disabled": 0, "type": "electric_scooter", "fusion_lat": 0.0, "bike_id": "e7390b4c83c81f647131725b50168839", "rental_uris": {"ios": "https://dc.lft.to/lastmile_qr_scan", "android": "https://dc.lft.to/lastmile_qr_scan"}, "fusion_lon": 0.0, "name": "e7390b4c83c81f647131725b50168839", "lon": -77.032609}, {"is_reserved": 0, "lat": 38.95127683333333, "is_disabled": 0, "type": "electric_bike", "fusion_lat": 0.0, "bike_id": "1c2f8c27a46b0e272e2c85ab00d75ae0", "rental_uris": {"ios": "https://dc.lft.to/lastmile_qr_scan", "android": "https://dc.lft.to/lastmile_qr_scan"}, "fusion_lon": 0.0, "name": "1c2f8c27a46b0e272e2c85ab00d75ae0", "lon": -77.0333445}, {"is_reserved": 0, "lat": 38.9331755, "is_disabled": 0, "type": "electric_bike", "fusion_lat": 0.0, "bike_id": "9190435c0c475be2420aeff184278c2e", "rental_uris": {"ios": "https://dc.lft.to/lastmile_qr_scan", "android": "https://dc.lft.to/lastmile_qr_scan"}, "fusion_lon": 0.0, "name": "9190435c0c475be2420aeff184278c2e", "lon": -76.97188433333334}, {"is_reserved": 0, "lat": 38.929693666666665, "is_disabled": 0, "type": "electric_scooter", "fusion_lat": 0.0, "bike_id": "fd5854491a7a8ca997530a6401039fb5", "rental_uris": {"ios": "https://dc.lft.to/lastmile_qr_scan", "android": "https://dc.lft.to/lastmile_qr_scan"}, "fusion_lon": 0.0, "name": "fd5854491a7a8ca997530a6401039fb5", "lon": -77.05507533333333}, {"is_reserved": 0, "lat": 38.9323355, "is_disabled": 0, "type": "electric_scooter", "fusion_lat": 0.0, "bike_id": "c804f5391f1cf2e5f5e037c7ee4da323", "rental_uris": {"ios": "https://dc.lft.to/lastmile_qr_scan", "android": "https://dc.lft.to/lastmile_qr_scan"}, "fusion_lon": 0.0, "name": "c804f5391f1cf2e5f5e037c7ee4da323", "lon": -77.0387635}, {"is_reserved": 0, "lat": 38.9251635, "is_disabled": 0, "type": "electric_scooter", "fusion_lat": 0.0, "bike_id": "84e19f87268a654041f47dac41c56000", "rental_uris": {"ios": "https://dc.lft.to/lastmile_qr_scan", "android": "https://dc.lft.to/lastmile_qr_scan"}, "fusion_lon": 0.0, "name": "84e19f87268a654041f47dac41c56000", "lon": -77.02273783333334}, {"is_reserved": 0, "lat": 38.819327, "is_disabled": 0, "type": "electric_bike", "fusion_lat": 0.0, "bike_id": "876797415e680c9733478617cf5ebb67", "rental_uris": {"ios": "https://dc.lft.to/lastmile_qr_scan", "android": "https://dc.lft.to/lastmile_qr_scan"}, "fusion_lon": 0.0, "name": "876797415e680c9733478617cf5ebb67", "lon": -77.002041}, {"is_reserved": 0, "lat": 38.92264733333333, "is_disabled": 0, "type": "electric_scooter", "fusion_lat": 0.0, "bike_id": "cbba7536f0c13def2cc5554c333fd1cd", "rental_uris": {"ios": "https://dc.lft.to/lastmile_qr_scan", "android": "https://dc.lft.to/lastmile_qr_scan"}, "fusion_lon": 0.0, "name": "cbba7536f0c13def2cc5554c333fd1cd", "lon": -77.04023}, {"is_reserved": 0, "lat": 38.921610666666666, "is_disabled": 0, "type": "electric_scooter", "fusion_lat": 0.0, "bike_id": "05d9b60ba54a425cba1dbd460f2da83c", "rental_uris": {"ios": "https://dc.lft.to/lastmile_qr_scan", "android": "https://dc.lft.to/lastmile_qr_scan"}, "fusion_lon": 0.0, "name": "05d9b60ba54a425cba1dbd460f2da83c", "lon": -77.04133483333334}, {"is_reserved": 0, "lat": 38.927103333333335, "is_disabled": 0, "type": "electric_scooter", "fusion_lat": 0.0, "bike_id": "7a5bb5f34fe53a0c676f5040cfed07b4", "rental_uris": {"ios": "https://dc.lft.to/lastmile_qr_scan", "android": "https://dc.lft.to/lastmile_qr_scan"}, "fusion_lon": 0.0, "name": "7a5bb5f34fe53a0c676f5040cfed07b4", "lon": -77.02708983333333}, {"is_reserved": 0, "lat": 38.96520016666667, "is_disabled": 0, "type": "electric_bike", "fusion_lat": 0.0, "bike_id": "eb264f32daedd67c363ad2f420097d91", "rental_uris": {"ios": "https://dc.lft.to/lastmile_qr_scan", "android": "https://dc.lft.to/lastmile_qr_scan"}, "fusion_lon": 0.0, "name": "eb264f32daedd67c363ad2f420097d91", "lon": -77.00935883333334}, {"is_reserved": 0, "lat": 38.92134433333333, "is_disabled": 0, "type": "electric_scooter", "fusion_lat": 0.0, "bike_id": "f1e87f563b22653ae4c58f1dfc8c9185", "rental_uris": {"ios": "https://dc.lft.to/lastmile_qr_scan", "android": "https://dc.lft.to/lastmile_qr_scan"}, "fusion_lon": 0.0, "name": "f1e87f563b22653ae4c58f1dfc8c9185", "lon": -77.04132116666666}, {"is_reserved": 0, "lat": 38.915474833333334, "is_disabled": 0, "type": "electric_scooter", "fusion_lat": 0.0, "bike_id": "caf55d19acbef33c725937068ead40e0", "rental_uris": {"ios": "https://dc.lft.to/lastmile_qr_scan", "android": "https://dc.lft.to/lastmile_qr_scan"}, "fusion_lon": 0.0, "name": "caf55d19acbef33c725937068ead40e0", "lon": -77.02301616666666}, {"is_reserved": 0, "lat": 38.804930666666664, "is_disabled": 0, "type": "electric_bike", "fusion_lat": 0.0, "bike_id": "6d4c6931d586fa43d93d3d018bbc9d4c", "rental_uris": {"ios": "https://dc.lft.to/lastmile_qr_scan", "android": "https://dc.lft.to/lastmile_qr_scan"}, "fusion_lon": 0.0, "name": "6d4c6931d586fa43d93d3d018bbc9d4c", "lon": -77.04129633333334}, {"is_reserved": 0, "lat": 38.91550316666667, "is_disabled": 0, "type": "electric_scooter", "fusion_lat": 0.0, "bike_id": "20a576428374822db0262b4d168ea34b", "rental_uris": {"ios": "https://dc.lft.to/lastmile_qr_scan", "android": "https://dc.lft.to/lastmile_qr_scan"}, "fusion_lon": 0.0, "name": "20a576428374822db0262b4d168ea34b", "lon": -77.02050516666667}, {"is_reserved": 0, "lat": 38.9191635, "is_disabled": 0, "type": "electric_scooter", "fusion_lat": 0.0, "bike_id": "1f4cc54e0af950b1b697852f38e4b6fa", "rental_uris": {"ios": "https://dc.lft.to/lastmile_qr_scan", "android": "https://dc.lft.to/lastmile_qr_scan"}, "fusion_lon": 0.0, "name": "1f4cc54e0af950b1b697852f38e4b6fa", "lon": -77.03424216666667}, {"is_reserved": 0, "lat": 38.90368016666667, "is_disabled": 0, "type": "electric_scooter", "fusion_lat": 0.0, "bike_id": "bbe55d861886f42f9a6c3f8403833b73", "rental_uris": {"ios": "https://dc.lft.to/lastmile_qr_scan", "android": "https://dc.lft.to/lastmile_qr_scan"}, "fusion_lon": 0.0, "name": "bbe55d861886f42f9a6c3f8403833b73", "lon": -77.03176616666667}, {"is_reserved": 0, "lat": 38.9380765, "is_disabled": 0, "type": "electric_bike", "fusion_lat": 0.0, "bike_id": "b67422bd8afec9e8fcd01ae89daa3a41", "rental_uris": {"ios": "https://dc.lft.to/lastmile_qr_scan", "android": "https://dc.lft.to/lastmile_qr_scan"}, "fusion_lon": 0.0, "name": "b67422bd8afec9e8fcd01ae89daa3a41", "lon": -76.990434}, {"is_reserved": 0, "lat": 38.88445983333333, "is_disabled": 0, "type": "electric_scooter", "fusion_lat": 0.0, "bike_id": "90088c5fafd67942e43f1c62f3e8b07f", "rental_uris": {"ios": "https://dc.lft.to/lastmile_qr_scan", "android": "https://dc.lft.to/lastmile_qr_scan"}, "fusion_lon": 0.0, "name": "90088c5fafd67942e43f1c62f3e8b07f", "lon": -76.950974}, {"is_reserved": 0, "lat": 38.91176216666667, "is_disabled": 0, "type": "electric_scooter", "fusion_lat": 0.0, "bike_id": "2dad423990df28dda755a1e922205dd8", "rental_uris": {"ios": "https://dc.lft.to/lastmile_qr_scan", "android": "https://dc.lft.to/lastmile_qr_scan"}, "fusion_lon": 0.0, "name": "2dad423990df28dda755a1e922205dd8", "lon": -77.0318905}, {"is_reserved": 0, "lat": 38.927124666666664, "is_disabled": 0, "type": "electric_scooter", "fusion_lat": 0.0, "bike_id": "53c36c126ba7826909d3a5b000065877", "rental_uris": {"ios": "https://dc.lft.to/lastmile_qr_scan", "android": "https://dc.lft.to/lastmile_qr_scan"}, "fusion_lon": 0.0, "name": "53c36c126ba7826909d3a5b000065877", "lon": -77.0270455}, {"is_reserved": 0, "lat": 38.9228435, "is_disabled": 0, "type": "electric_scooter", "fusion_lat": 0.0, "bike_id": "58e01d1ae4534ff19b4876642c9ada67", "rental_uris": {"ios": "https://dc.lft.to/lastmile_qr_scan", "android": "https://dc.lft.to/lastmile_qr_scan"}, "fusion_lon": 0.0, "name": "58e01d1ae4534ff19b4876642c9ada67", "lon": -77.0297165}, {"is_reserved": 0, "lat": 38.90951866666666, "is_disabled": 0, "type": "electric_scooter", "fusion_lat": 0.0, "bike_id": "287d68466286f71951247511baa9cfd5", "rental_uris": {"ios": "https://dc.lft.to/lastmile_qr_scan", "android": "https://dc.lft.to/lastmile_qr_scan"}, "fusion_lon": 0.0, "name": "287d68466286f71951247511baa9cfd5", "lon": -77.0271735}, {"is_reserved": 0, "lat": 38.90236616666667, "is_disabled": 0, "type": "electric_scooter", "fusion_lat": 0.0, "bike_id": "e4e75d52341714c4dbb195a0585ea0aa", "rental_uris": {"ios": "https://dc.lft.to/lastmile_qr_scan", "android": "https://dc.lft.to/lastmile_qr_scan"}, "fusion_lon": 0.0, "name": "e4e75d52341714c4dbb195a0585ea0aa", "lon": -77.02602483333334}, {"is_reserved": 0, "lat": 38.90163866666666, "is_disabled": 0, "type": "electric_scooter", "fusion_lat": 0.0, "bike_id": "020f815b06b23c8c96fa879d71249e59", "rental_uris": {"ios": "https://dc.lft.to/lastmile_qr_scan", "android": "https://dc.lft.to/lastmile_qr_scan"}, "fusion_lon": 0.0, "name": "020f815b06b23c8c96fa879d71249e59", "lon": -77.0161575}, {"is_reserved": 0, "lat": 38.886362, "is_disabled": 0, "type": "electric_scooter", "fusion_lat": 0.0, "bike_id": "2edec8e9a65e9a0b019ed3f6ae4f85f2", "rental_uris": {"ios": "https://dc.lft.to/lastmile_qr_scan", "android": "https://dc.lft.to/lastmile_qr_scan"}, "fusion_lon": 0.0, "name": "2edec8e9a65e9a0b019ed3f6ae4f85f2", "lon": -76.9927165}, {"is_reserved": 0, "lat": 38.866527833333336, "is_disabled": 0, "type": "electric_scooter", "fusion_lat": 0.0, "bike_id": "9798c92dede27254364820251206115f", "rental_uris": {"ios": "https://dc.lft.to/lastmile_qr_scan", "android": "https://dc.lft.to/lastmile_qr_scan"}, "fusion_lon": 0.0, "name": "9798c92dede27254364820251206115f", "lon": -76.9888575}, {"is_reserved": 0, "lat": 38.890437666666664, "is_disabled": 0, "type": "electric_scooter", "fusion_lat": 0.0, "bike_id": "a906c73786eda9b65740beadcf9a1aea", "rental_uris": {"ios": "https://dc.lft.to/lastmile_qr_scan", "android": "https://dc.lft.to/lastmile_qr_scan"}, "fusion_lon": 0.0, "name": "a906c73786eda9b65740beadcf9a1aea", "lon": -76.93757283333333}, {"is_reserved": 0, "lat": 38.92655116666667, "is_disabled": 0, "type": "electric_scooter", "fusion_lat": 0.0, "bike_id": "e2db4aafb14d706445bb9909f5e304a1", "rental_uris": {"ios": "https://dc.lft.to/lastmile_qr_scan", "android": "https://dc.lft.to/lastmile_qr_scan"}, "fusion_lon": 0.0, "name": "e2db4aafb14d706445bb9909f5e304a1", "lon": -77.04312766666666}, {"is_reserved": 0, "lat": 38.899181666666664, "is_disabled": 0, "type": "electric_scooter", "fusion_lat": 0.0, "bike_id": "fe2b1b45918d6fdc17dc59cc050ac3c4", "rental_uris": {"ios": "https://dc.lft.to/lastmile_qr_scan", "android": "https://dc.lft.to/lastmile_qr_scan"}, "fusion_lon": 0.0, "name": "fe2b1b45918d6fdc17dc59cc050ac3c4", "lon": -77.0294095}, {"is_reserved": 0, "lat": 38.832156499999996, "is_disabled": 0, "type": "electric_bike", "fusion_lat": 0.0, "bike_id": "bbcb7dc15ba8510abee19bd4c0c76c8d", "rental_uris": {"ios": "https://dc.lft.to/lastmile_qr_scan", "android": "https://dc.lft.to/lastmile_qr_scan"}, "fusion_lon": 0.0, "name": "bbcb7dc15ba8510abee19bd4c0c76c8d", "lon": -77.049787}, {"is_reserved": 0, "lat": 38.93252316666667, "is_disabled": 0, "type": "electric_scooter", "fusion_lat": 0.0, "bike_id": "aa1379687aac207b0f540ec723b47f2c", "rental_uris": {"ios": "https://dc.lft.to/lastmile_qr_scan", "android": "https://dc.lft.to/lastmile_qr_scan"}, "fusion_lon": 0.0, "name": "aa1379687aac207b0f540ec723b47f2c", "lon": -77.03858133333334}, {"is_reserved": 0, "lat": 38.914848666666664, "is_disabled": 0, "type": "electric_scooter", "fusion_lat": 0.0, "bike_id": "df56dc72cc99401e73892def2119bba8", "rental_uris": {"ios": "https://dc.lft.to/lastmile_qr_scan", "android": "https://dc.lft.to/lastmile_qr_scan"}, "fusion_lon": 0.0, "name": "df56dc72cc99401e73892def2119bba8", "lon": -77.018576}, {"is_reserved": 0, "lat": 38.892171833333336, "is_disabled": 0, "type": "electric_scooter", "fusion_lat": 0.0, "bike_id": "424a559e0cc0221d0918789d8f090c09", "rental_uris": {"ios": "https://dc.lft.to/lastmile_qr_scan", "android": "https://dc.lft.to/lastmile_qr_scan"}, "fusion_lon": 0.0, "name": "424a559e0cc0221d0918789d8f090c09", "lon": -77.01543116666667}, {"is_reserved": 0, "lat": 38.928927, "is_disabled": 0, "type": "electric_scooter", "fusion_lat": 0.0, "bike_id": "4bcd6521361a5295f2f00a6a98a377b2", "rental_uris": {"ios": "https://dc.lft.to/lastmile_qr_scan", "android": "https://dc.lft.to/lastmile_qr_scan"}, "fusion_lon": 0.0, "name": "4bcd6521361a5295f2f00a6a98a377b2", "lon": -77.033138}, {"is_reserved": 0, "lat": 38.862519666666664, "is_disabled": 0, "type": "electric_scooter", "fusion_lat": 0.0, "bike_id": "91881aec98276381c7c392334c04833c", "rental_uris": {"ios": "https://dc.lft.to/lastmile_qr_scan", "android": "https://dc.lft.to/lastmile_qr_scan"}, "fusion_lon": 0.0, "name": "91881aec98276381c7c392334c04833c", "lon": -76.9951425}, {"is_reserved": 0, "lat": 38.909701166666665, "is_disabled": 0, "type": "electric_scooter", "fusion_lat": 0.0, "bike_id": "0fc24a98b5c59e903ece3c9defbc1945", "rental_uris": {"ios": "https://dc.lft.to/lastmile_qr_scan", "android": "https://dc.lft.to/lastmile_qr_scan"}, "fusion_lon": 0.0, "name": "0fc24a98b5c59e903ece3c9defbc1945", "lon": -77.032164}, {"is_reserved": 0, "lat": 38.9170735, "is_disabled": 0, "type": "electric_scooter", "fusion_lat": 0.0, "bike_id": "0fdf12f468322d4114ce96ed57701014", "rental_uris": {"ios": "https://dc.lft.to/lastmile_qr_scan", "android": "https://dc.lft.to/lastmile_qr_scan"}, "fusion_lon": 0.0, "name": "0fdf12f468322d4114ce96ed57701014", "lon": -77.02777583333334}, {"is_reserved": 0, "lat": 38.91266233333333, "is_disabled": 0, "type": "electric_scooter", "fusion_lat": 0.0, "bike_id": "f1d520d3fa22ca967d82cf70c470eb1e", "rental_uris": {"ios": "https://dc.lft.to/lastmile_qr_scan", "android": "https://dc.lft.to/lastmile_qr_scan"}, "fusion_lon": 0.0, "name": "f1d520d3fa22ca967d82cf70c470eb1e", "lon": -77.026863}, {"is_reserved": 0, "lat": 38.92024683333333, "is_disabled": 0, "type": "electric_scooter", "fusion_lat": 0.0, "bike_id": "9297e775360761c365f78de17ec4436f", "rental_uris": {"ios": "https://dc.lft.to/lastmile_qr_scan", "android": "https://dc.lft.to/lastmile_qr_scan"}, "fusion_lon": 0.0, "name": "9297e775360761c365f78de17ec4436f", "lon": -77.00094216666666}, {"is_reserved": 0, "lat": 38.8760295, "is_disabled": 0, "type": "electric_scooter", "fusion_lat": 0.0, "bike_id": "0ce8a2db482325a37b037b396a49522b", "rental_uris": {"ios": "https://dc.lft.to/lastmile_qr_scan", "android": "https://dc.lft.to/lastmile_qr_scan"}, "fusion_lon": 0.0, "name": "0ce8a2db482325a37b037b396a49522b", "lon": -77.00930166666667}, {"is_reserved": 0, "lat": 38.896012, "is_disabled": 0, "type": "electric_scooter", "fusion_lat": 0.0, "bike_id": "6d59b65958aedce26f9ecab15978a20c", "rental_uris": {"ios": "https://dc.lft.to/lastmile_qr_scan", "android": "https://dc.lft.to/lastmile_qr_scan"}, "fusion_lon": 0.0, "name": "6d59b65958aedce26f9ecab15978a20c", "lon": -77.03026783333334}, {"is_reserved": 0, "lat": 38.871797666666666, "is_disabled": 0, "type": "electric_scooter", "fusion_lat": 0.0, "bike_id": "15a947483fcab2b077277f332af9bb50", "rental_uris": {"ios": "https://dc.lft.to/lastmile_qr_scan", "android": "https://dc.lft.to/lastmile_qr_scan"}, "fusion_lon": 0.0, "name": "15a947483fcab2b077277f332af9bb50", "lon": -77.00610116666667}, {"is_reserved": 0, "lat": 38.876261166666666, "is_disabled": 0, "type": "electric_scooter", "fusion_lat": 0.0, "bike_id": "b604b9402dd0d4360b45c63390901c46", "rental_uris": {"ios": "https://dc.lft.to/lastmile_qr_scan", "android": "https://dc.lft.to/lastmile_qr_scan"}, "fusion_lon": 0.0, "name": "b604b9402dd0d4360b45c63390901c46", "lon": -76.96527383333333}, {"is_reserved": 0, "lat": 38.915605, "is_disabled": 0, "type": "electric_scooter", "fusion_lat": 0.0, "bike_id": "148399b3a135dbddd4ade29fa0102a18", "rental_uris": {"ios": "https://dc.lft.to/lastmile_qr_scan", "android": "https://dc.lft.to/lastmile_qr_scan"}, "fusion_lon": 0.0, "name": "148399b3a135dbddd4ade29fa0102a18", "lon": -76.982676}, {"is_reserved": 0, "lat": 38.921301166666666, "is_disabled": 0, "type": "electric_scooter", "fusion_lat": 0.0, "bike_id": "0e7edfb06351210aad9f25d3951fdfae", "rental_uris": {"ios": "https://dc.lft.to/lastmile_qr_scan", "android": "https://dc.lft.to/lastmile_qr_scan"}, "fusion_lon": 0.0, "name": "0e7edfb06351210aad9f25d3951fdfae", "lon": -77.041378}, {"is_reserved": 0, "lat": 38.915788, "is_disabled": 0, "type": "electric_scooter", "fusion_lat": 0.0, "bike_id": "0df7359e0f0e03e5860e66a61a514d32", "rental_uris": {"ios": "https://dc.lft.to/lastmile_qr_scan", "android": "https://dc.lft.to/lastmile_qr_scan"}, "fusion_lon": 0.0, "name": "0df7359e0f0e03e5860e66a61a514d32", "lon": -77.01130133333334}, {"is_reserved": 0, "lat": 38.966167, "is_disabled": 0, "type": "electric_bike", "fusion_lat": 0.0, "bike_id": "77c9af2ead519a2ec7af2422c27cf545", "rental_uris": {"ios": "https://dc.lft.to/lastmile_qr_scan", "android": "https://dc.lft.to/lastmile_qr_scan"}, "fusion_lon": 0.0, "name": "77c9af2ead519a2ec7af2422c27cf545", "lon": -77.03428616666666}, {"is_reserved": 0, "lat": 38.903484666666664, "is_disabled": 0, "type": "electric_scooter", "fusion_lat": 0.0, "bike_id": "e7323efb158e20f1befba853b9accea6", "rental_uris": {"ios": "https://dc.lft.to/lastmile_qr_scan", "android": "https://dc.lft.to/lastmile_qr_scan"}, "fusion_lon": 0.0, "name": "e7323efb158e20f1befba853b9accea6", "lon": -77.0342185}, {"is_reserved": 0, "lat": 38.874952, "is_disabled": 0, "type": "electric_scooter", "fusion_lat": 0.0, "bike_id": "307e384bddfb2abc38441135aed08d8f", "rental_uris": {"ios": "https://dc.lft.to/lastmile_qr_scan", "android": "https://dc.lft.to/lastmile_qr_scan"}, "fusion_lon": 0.0, "name": "307e384bddfb2abc38441135aed08d8f", "lon": -76.9979545}, {"is_reserved": 0, "lat": 38.873722, "is_disabled": 0, "type": "electric_bike", "fusion_lat": 0.0, "bike_id": "9a1844a73e108aeef9b14fbf46c75f3e", "rental_uris": {"ios": "https://dc.lft.to/lastmile_qr_scan", "android": "https://dc.lft.to/lastmile_qr_scan"}, "fusion_lon": 0.0, "name": "9a1844a73e108aeef9b14fbf46c75f3e", "lon": -77.1180075}, {"is_reserved": 0, "lat": 38.910931833333336, "is_disabled": 0, "type": "electric_scooter", "fusion_lat": 0.0, "bike_id": "e8943ec1d4c45f6ca56866d0c579c886", "rental_uris": {"ios": "https://dc.lft.to/lastmile_qr_scan", "android": "https://dc.lft.to/lastmile_qr_scan"}, "fusion_lon": 0.0, "name": "e8943ec1d4c45f6ca56866d0c579c886", "lon": -77.02201933333333}, {"is_reserved": 0, "lat": 38.920602333333335, "is_disabled": 0, "type": "electric_scooter", "fusion_lat": 0.0, "bike_id": "b47238928d48fbf1e1b8a35b93275071", "rental_uris": {"ios": "https://dc.lft.to/lastmile_qr_scan", "android": "https://dc.lft.to/lastmile_qr_scan"}, "fusion_lon": 0.0, "name": "b47238928d48fbf1e1b8a35b93275071", "lon": -77.028188}, {"is_reserved": 0, "lat": 38.9692755, "is_disabled": 0, "type": "electric_bike", "fusion_lat": 0.0, "bike_id": "ffd0bc9fff3941152023d52cb0b82664", "rental_uris": {"ios": "https://dc.lft.to/lastmile_qr_scan", "android": "https://dc.lft.to/lastmile_qr_scan"}, "fusion_lon": 0.0, "name": "ffd0bc9fff3941152023d52cb0b82664", "lon": -77.02625133333333}, {"is_reserved": 0, "lat": 38.910044666666664, "is_disabled": 0, "type": "electric_scooter", "fusion_lat": 0.0, "bike_id": "2d81d46afc8d634aea2f18387c9e05aa", "rental_uris": {"ios": "https://dc.lft.to/lastmile_qr_scan", "android": "https://dc.lft.to/lastmile_qr_scan"}, "fusion_lon": 0.0, "name": "2d81d46afc8d634aea2f18387c9e05aa", "lon": -77.03837083333333}, {"is_reserved": 0, "lat": 38.89013416666667, "is_disabled": 0, "type": "electric_scooter", "fusion_lat": 0.0, "bike_id": "d4c3ab71720a09ec8a16e8e8119d5f0a", "rental_uris": {"ios": "https://dc.lft.to/lastmile_qr_scan", "android": "https://dc.lft.to/lastmile_qr_scan"}, "fusion_lon": 0.0, "name": "d4c3ab71720a09ec8a16e8e8119d5f0a", "lon": -76.9373345}, {"is_reserved": 0, "lat": 38.926563, "is_disabled": 0, "type": "electric_scooter", "fusion_lat": 0.0, "bike_id": "047eb45441fb82b41f0382c95a72b274", "rental_uris": {"ios": "https://dc.lft.to/lastmile_qr_scan", "android": "https://dc.lft.to/lastmile_qr_scan"}, "fusion_lon": 0.0, "name": "047eb45441fb82b41f0382c95a72b274", "lon": -77.024234}, {"is_reserved": 0, "lat": 38.9060725, "is_disabled": 0, "type": "electric_scooter", "fusion_lat": 0.0, "bike_id": "7caa15a6c36473473db60a3724cf8e3d", "rental_uris": {"ios": "https://dc.lft.to/lastmile_qr_scan", "android": "https://dc.lft.to/lastmile_qr_scan"}, "fusion_lon": 0.0, "name": "7caa15a6c36473473db60a3724cf8e3d", "lon": -77.03646166666667}, {"is_reserved": 0, "lat": 38.876247, "is_disabled": 0, "type": "electric_scooter", "fusion_lat": 0.0, "bike_id": "1d6f03beda0bdc3c31330a716c8fee44", "rental_uris": {"ios": "https://dc.lft.to/lastmile_qr_scan", "android": "https://dc.lft.to/lastmile_qr_scan"}, "fusion_lon": 0.0, "name": "1d6f03beda0bdc3c31330a716c8fee44", "lon": -76.96528633333334}, {"is_reserved": 0, "lat": 38.916894166666665, "is_disabled": 0, "type": "electric_scooter", "fusion_lat": 0.0, "bike_id": "6ef40a70823c11a00fd583112f6d91c8", "rental_uris": {"ios": "https://dc.lft.to/lastmile_qr_scan", "android": "https://dc.lft.to/lastmile_qr_scan"}, "fusion_lon": 0.0, "name": "6ef40a70823c11a00fd583112f6d91c8", "lon": -77.035215}, {"is_reserved": 0, "lat": 38.91752, "is_disabled": 0, "type": "electric_scooter", "fusion_lat": 0.0, "bike_id": "95f67f5521b60747cef9651557884fe8", "rental_uris": {"ios": "https://dc.lft.to/lastmile_qr_scan", "android": "https://dc.lft.to/lastmile_qr_scan"}, "fusion_lon": 0.0, "name": "95f67f5521b60747cef9651557884fe8", "lon": -77.03991166666667}, {"is_reserved": 0, "lat": 38.90250983333333, "is_disabled": 0, "type": "electric_scooter", "fusion_lat": 0.0, "bike_id": "d213cc2054367f71838e96f14aa44798", "rental_uris": {"ios": "https://dc.lft.to/lastmile_qr_scan", "android": "https://dc.lft.to/lastmile_qr_scan"}, "fusion_lon": 0.0, "name": "d213cc2054367f71838e96f14aa44798", "lon": -76.98668783333333}, {"is_reserved": 0, "lat": 38.915545, "is_disabled": 0, "type": "electric_scooter", "fusion_lat": 0.0, "bike_id": "4be990bdc23cd4df6c2a3c80eb82fcb2", "rental_uris": {"ios": "https://dc.lft.to/lastmile_qr_scan", "android": "https://dc.lft.to/lastmile_qr_scan"}, "fusion_lon": 0.0, "name": "4be990bdc23cd4df6c2a3c80eb82fcb2", "lon": -77.03134533333333}, {"is_reserved": 0, "lat": 38.93124233333333, "is_disabled": 0, "type": "electric_scooter", "fusion_lat": 0.0, "bike_id": "d8e062a92e8204a0fcc7ec06579486cb", "rental_uris": {"ios": "https://dc.lft.to/lastmile_qr_scan", "android": "https://dc.lft.to/lastmile_qr_scan"}, "fusion_lon": 0.0, "name": "d8e062a92e8204a0fcc7ec06579486cb", "lon": -77.03405033333334}, {"is_reserved": 0, "lat": 38.89714083333333, "is_disabled": 0, "type": "electric_scooter", "fusion_lat": 0.0, "bike_id": "defb03c009454b61847507ca403a36d4", "rental_uris": {"ios": "https://dc.lft.to/lastmile_qr_scan", "android": "https://dc.lft.to/lastmile_qr_scan"}, "fusion_lon": 0.0, "name": "defb03c009454b61847507ca403a36d4", "lon": -77.00801966666667}, {"is_reserved": 0, "lat": 38.89760166666667, "is_disabled": 0, "type": "electric_scooter", "fusion_lat": 0.0, "bike_id": "95d2862023dfac553acd217a53766ce8", "rental_uris": {"ios": "https://dc.lft.to/lastmile_qr_scan", "android": "https://dc.lft.to/lastmile_qr_scan"}, "fusion_lon": 0.0, "name": "95d2862023dfac553acd217a53766ce8", "lon": -77.03077266666666}, {"is_reserved": 0, "lat": 38.918153833333335, "is_disabled": 0, "type": "electric_scooter", "fusion_lat": 0.0, "bike_id": "3d0f1b9bbfafacb44bb7bf0255e30060", "rental_uris": {"ios": "https://dc.lft.to/lastmile_qr_scan", "android": "https://dc.lft.to/lastmile_qr_scan"}, "fusion_lon": 0.0, "name": "3d0f1b9bbfafacb44bb7bf0255e30060", "lon": -77.03453966666666}, {"is_reserved": 0, "lat": 38.905637166666665, "is_disabled": 0, "type": "electric_scooter", "fusion_lat": 0.0, "bike_id": "ca821d09cbeae100a840da7f369f2273", "rental_uris": {"ios": "https://dc.lft.to/lastmile_qr_scan", "android": "https://dc.lft.to/lastmile_qr_scan"}, "fusion_lon": 0.0, "name": "ca821d09cbeae100a840da7f369f2273", "lon": -77.00574283333333}, {"is_reserved": 0, "lat": 38.85354366666667, "is_disabled": 0, "type": "electric_bike", "fusion_lat": 0.0, "bike_id": "870a0c1bf04378fd1f8e0874b6cf6f17", "rental_uris": {"ios": "https://dc.lft.to/lastmile_qr_scan", "android": "https://dc.lft.to/lastmile_qr_scan"}, "fusion_lon": 0.0, "name": "870a0c1bf04378fd1f8e0874b6cf6f17", "lon": -77.1347565}, {"is_reserved": 0, "lat": 38.932152333333335, "is_disabled": 0, "type": "electric_scooter", "fusion_lat": 0.0, "bike_id": "61b3a0b578a2080c1b0de9ecbaba1c3a", "rental_uris": {"ios": "https://dc.lft.to/lastmile_qr_scan", "android": "https://dc.lft.to/lastmile_qr_scan"}, "fusion_lon": 0.0, "name": "61b3a0b578a2080c1b0de9ecbaba1c3a", "lon": -77.0335115}, {"is_reserved": 0, "lat": 38.87838933333333, "is_disabled": 0, "type": "electric_scooter", "fusion_lat": 0.0, "bike_id": "2b36d994ca6192207e82301a0a06d5c7", "rental_uris": {"ios": "https://dc.lft.to/lastmile_qr_scan", "android": "https://dc.lft.to/lastmile_qr_scan"}, "fusion_lon": 0.0, "name": "2b36d994ca6192207e82301a0a06d5c7", "lon": -77.022679}, {"is_reserved": 0, "lat": 38.9000395, "is_disabled": 0, "type": "electric_scooter", "fusion_lat": 0.0, "bike_id": "e2f9cf600d9c043d9b2d0dd4dcc50cfb", "rental_uris": {"ios": "https://dc.lft.to/lastmile_qr_scan", "android": "https://dc.lft.to/lastmile_qr_scan"}, "fusion_lon": 0.0, "name": "e2f9cf600d9c043d9b2d0dd4dcc50cfb", "lon": -77.04360533333333}, {"is_reserved": 0, "lat": 38.8850055, "is_disabled": 0, "type": "electric_scooter", "fusion_lat": 0.0, "bike_id": "c5391b089b9674f6af0cb2167140868f", "rental_uris": {"ios": "https://dc.lft.to/lastmile_qr_scan", "android": "https://dc.lft.to/lastmile_qr_scan"}, "fusion_lon": 0.0, "name": "c5391b089b9674f6af0cb2167140868f", "lon": -77.0056715}, {"is_reserved": 0, "lat": 38.8915805, "is_disabled": 0, "type": "electric_scooter", "fusion_lat": 0.0, "bike_id": "ff279c75c1fe82f4295e95c27099d82d", "rental_uris": {"ios": "https://dc.lft.to/lastmile_qr_scan", "android": "https://dc.lft.to/lastmile_qr_scan"}, "fusion_lon": 0.0, "name": "ff279c75c1fe82f4295e95c27099d82d", "lon": -76.99501466666666}, {"is_reserved": 0, "lat": 38.924878166666666, "is_disabled": 0, "type": "electric_scooter", "fusion_lat": 0.0, "bike_id": "e33a9aa281f1eecfab7880a5eb7a0afa", "rental_uris": {"ios": "https://dc.lft.to/lastmile_qr_scan", "android": "https://dc.lft.to/lastmile_qr_scan"}, "fusion_lon": 0.0, "name": "e33a9aa281f1eecfab7880a5eb7a0afa", "lon": -77.031875}, {"is_reserved": 0, "lat": 38.827843, "is_disabled": 0, "type": "electric_scooter", "fusion_lat": 0.0, "bike_id": "8feac9dc8d9d19af97b9978a64c28bac", "rental_uris": {"ios": "https://dc.lft.to/lastmile_qr_scan", "android": "https://dc.lft.to/lastmile_qr_scan"}, "fusion_lon": 0.0, "name": "8feac9dc8d9d19af97b9978a64c28bac", "lon": -77.00920033333334}, {"is_reserved": 0, "lat": 38.907886166666664, "is_disabled": 0, "type": "electric_scooter", "fusion_lat": 0.0, "bike_id": "d78f1c18b04aa4b195ffe2449f55dbdc", "rental_uris": {"ios": "https://dc.lft.to/lastmile_qr_scan", "android": "https://dc.lft.to/lastmile_qr_scan"}, "fusion_lon": 0.0, "name": "d78f1c18b04aa4b195ffe2449f55dbdc", "lon": -77.0422385}, {"is_reserved": 0, "lat": 38.90638033333333, "is_disabled": 0, "type": "electric_scooter", "fusion_lat": 0.0, "bike_id": "9ca562a0cd1b3eee21f7bb028dc04699", "rental_uris": {"ios": "https://dc.lft.to/lastmile_qr_scan", "android": "https://dc.lft.to/lastmile_qr_scan"}, "fusion_lon": 0.0, "name": "9ca562a0cd1b3eee21f7bb028dc04699", "lon": -77.00588766666667}, {"is_reserved": 0, "lat": 38.928151166666666, "is_disabled": 0, "type": "electric_scooter", "fusion_lat": 0.0, "bike_id": "778191019c2f8d7579c53c87475cd06a", "rental_uris": {"ios": "https://dc.lft.to/lastmile_qr_scan", "android": "https://dc.lft.to/lastmile_qr_scan"}, "fusion_lon": 0.0, "name": "778191019c2f8d7579c53c87475cd06a", "lon": -77.029027}, {"is_reserved": 0, "lat": 38.87192433333333, "is_disabled": 0, "type": "electric_scooter", "fusion_lat": 0.0, "bike_id": "d6b360505d400ad9cb6e6bdf47aaae0d", "rental_uris": {"ios": "https://dc.lft.to/lastmile_qr_scan", "android": "https://dc.lft.to/lastmile_qr_scan"}, "fusion_lon": 0.0, "name": "d6b360505d400ad9cb6e6bdf47aaae0d", "lon": -77.006197}, {"is_reserved": 0, "lat": 38.90973066666667, "is_disabled": 0, "type": "electric_scooter", "fusion_lat": 0.0, "bike_id": "00906a9d3563a48961214e49d7d6b282", "rental_uris": {"ios": "https://dc.lft.to/lastmile_qr_scan", "android": "https://dc.lft.to/lastmile_qr_scan"}, "fusion_lon": 0.0, "name": "00906a9d3563a48961214e49d7d6b282", "lon": -77.0322055}, {"is_reserved": 0, "lat": 38.884888, "is_disabled": 0, "type": "electric_scooter", "fusion_lat": 0.0, "bike_id": "c414a26a4fcd6f783b966f46a79d3be4", "rental_uris": {"ios": "https://dc.lft.to/lastmile_qr_scan", "android": "https://dc.lft.to/lastmile_qr_scan"}, "fusion_lon": 0.0, "name": "c414a26a4fcd6f783b966f46a79d3be4", "lon": -77.02169516666666}, {"is_reserved": 0, "lat": 38.9159905, "is_disabled": 0, "type": "electric_scooter", "fusion_lat": 0.0, "bike_id": "a7f76fcae32fc1955f17470c368926ed", "rental_uris": {"ios": "https://dc.lft.to/lastmile_qr_scan", "android": "https://dc.lft.to/lastmile_qr_scan"}, "fusion_lon": 0.0, "name": "a7f76fcae32fc1955f17470c368926ed", "lon": -77.02577616666666}, {"is_reserved": 0, "lat": 38.9155025, "is_disabled": 0, "type": "electric_scooter", "fusion_lat": 0.0, "bike_id": "f410ca39ee6656bce702153956bf588b", "rental_uris": {"ios": "https://dc.lft.to/lastmile_qr_scan", "android": "https://dc.lft.to/lastmile_qr_scan"}, "fusion_lon": 0.0, "name": "f410ca39ee6656bce702153956bf588b", "lon": -77.0256115}, {"is_reserved": 0, "lat": 38.905697333333336, "is_disabled": 0, "type": "electric_scooter", "fusion_lat": 0.0, "bike_id": "d110b109c28318dd6dfd324139d83558", "rental_uris": {"ios": "https://dc.lft.to/lastmile_qr_scan", "android": "https://dc.lft.to/lastmile_qr_scan"}, "fusion_lon": 0.0, "name": "d110b109c28318dd6dfd324139d83558", "lon": -77.00121933333334}, {"is_reserved": 0, "lat": 38.92611816666667, "is_disabled": 0, "type": "electric_scooter", "fusion_lat": 0.0, "bike_id": "8767632d9a8196c23c56241d20524cc0", "rental_uris": {"ios": "https://dc.lft.to/lastmile_qr_scan", "android": "https://dc.lft.to/lastmile_qr_scan"}, "fusion_lon": 0.0, "name": "8767632d9a8196c23c56241d20524cc0", "lon": -77.02332183333333}, {"is_reserved": 0, "lat": 38.9395845, "is_disabled": 0, "type": "electric_scooter", "fusion_lat": 0.0, "bike_id": "d5c3720873f3177e8f41d4ced40e7bec", "rental_uris": {"ios": "https://dc.lft.to/lastmile_qr_scan", "android": "https://dc.lft.to/lastmile_qr_scan"}, "fusion_lon": 0.0, "name": "d5c3720873f3177e8f41d4ced40e7bec", "lon": -77.02777283333333}, {"is_reserved": 0, "lat": 38.90605883333333, "is_disabled": 0, "type": "electric_scooter", "fusion_lat": 0.0, "bike_id": "61991e6537af28624aa0a04763d10106", "rental_uris": {"ios": "https://dc.lft.to/lastmile_qr_scan", "android": "https://dc.lft.to/lastmile_qr_scan"}, "fusion_lon": 0.0, "name": "61991e6537af28624aa0a04763d10106", "lon": -77.04329416666667}, {"is_reserved": 0, "lat": 38.919328666666665, "is_disabled": 0, "type": "electric_scooter", "fusion_lat": 0.0, "bike_id": "0b75209f4faa49c9aa0e884a4b991cec", "rental_uris": {"ios": "https://dc.lft.to/lastmile_qr_scan", "android": "https://dc.lft.to/lastmile_qr_scan"}, "fusion_lon": 0.0, "name": "0b75209f4faa49c9aa0e884a4b991cec", "lon": -77.04635316666666}, {"is_reserved": 0, "lat": 38.88429583333333, "is_disabled": 0, "type": "electric_scooter", "fusion_lat": 0.0, "bike_id": "4d313ebb738086e3cc69fa936caeab4b", "rental_uris": {"ios": "https://dc.lft.to/lastmile_qr_scan", "android": "https://dc.lft.to/lastmile_qr_scan"}, "fusion_lon": 0.0, "name": "4d313ebb738086e3cc69fa936caeab4b", "lon": -76.99594}, {"is_reserved": 0, "lat": 38.90568, "is_disabled": 0, "type": "electric_scooter", "fusion_lat": 0.0, "bike_id": "0c5c60cf56ab134c8aad536460f0c174", "rental_uris": {"ios": "https://dc.lft.to/lastmile_qr_scan", "android": "https://dc.lft.to/lastmile_qr_scan"}, "fusion_lon": 0.0, "name": "0c5c60cf56ab134c8aad536460f0c174", "lon": -77.04861266666667}, {"is_reserved": 0, "lat": 38.9213955, "is_disabled": 0, "type": "electric_scooter", "fusion_lat": 0.0, "bike_id": "4cfd7bd7038f423629584003d5a2e1b7", "rental_uris": {"ios": "https://dc.lft.to/lastmile_qr_scan", "android": "https://dc.lft.to/lastmile_qr_scan"}, "fusion_lon": 0.0, "name": "4cfd7bd7038f423629584003d5a2e1b7", "lon": -77.04350866666667}, {"is_reserved": 0, "lat": 38.907202833333336, "is_disabled": 0, "type": "electric_scooter", "fusion_lat": 0.0, "bike_id": "e5eba3882f61902c368d68815bba2674", "rental_uris": {"ios": "https://dc.lft.to/lastmile_qr_scan", "android": "https://dc.lft.to/lastmile_qr_scan"}, "fusion_lon": 0.0, "name": "e5eba3882f61902c368d68815bba2674", "lon": -77.03867083333333}, {"is_reserved": 0, "lat": 38.9205675, "is_disabled": 0, "type": "electric_scooter", "fusion_lat": 0.0, "bike_id": "7d0db5fa465d69be1e97e8d855b2ff9b", "rental_uris": {"ios": "https://dc.lft.to/lastmile_qr_scan", "android": "https://dc.lft.to/lastmile_qr_scan"}, "fusion_lon": 0.0, "name": "7d0db5fa465d69be1e97e8d855b2ff9b", "lon": -77.0329725}, {"is_reserved": 0, "lat": 38.947637666666665, "is_disabled": 0, "type": "electric_scooter", "fusion_lat": 0.0, "bike_id": "c7dd11cb0d7083fbe57c5c840e2250f8", "rental_uris": {"ios": "https://dc.lft.to/lastmile_qr_scan", "android": "https://dc.lft.to/lastmile_qr_scan"}, "fusion_lon": 0.0, "name": "c7dd11cb0d7083fbe57c5c840e2250f8", "lon": -77.07941783333334},