{"data": {"bikes": [{"lat": 38.93594, "is_disabled": 0, "type": "electric_scooter", "lon": -77.057601, "bike_id": "aeea2c30578cae476e0264b7479647dd", "fusion_lat": 0.0, "name": "aeea2c30578cae476e0264b7479647dd", "is_reserved": 0, "rental_uris": {"android": "https://dc.lft.to/lastmile_qr_scan", "ios": "https://dc.lft.to/lastmile_qr_scan"}, "fusion_lon": 0.0}, {"lat": 38.91578, "is_disabled": 0, "type": "electric_scooter", "lon": -77.06659433333333, "bike_id": "da02884f0a6442385d8152f393cd9f94", "fusion_lat": 0.0, "name": "da02884f0a6442385d8152f393cd9f94", "is_reserved": 0, "rental_uris": {"android": "https://dc.lft.to/lastmile_qr_scan", "ios": "https://dc.lft.to/lastmile_qr_scan"}, "fusion_lon": 0.0}, {"lat": 38.906564, "is_disabled": 0, "type": "electric_scooter", "lon": -77.03530566666667, "bike_id": "52898b1256d5e76f544ab03393d127b9", "fusion_lat": 0.0, "name": "52898b1256d5e76f544ab03393d127b9", "is_reserved": 0, "rental_uris": {"android": "https://dc.lft.to/lastmile_qr_scan", "ios": "https://dc.lft.to/lastmile_qr_scan"}, "fusion_lon": 0.0}, {"lat": 38.90205, "is_disabled": 0, "type": "electric_scooter", "lon": -76.98209266666667, "bike_id": "a9f470529e57c96517a56158f6295e4d", "fusion_lat": 0.0, "name": "a9f470529e57c96517a56158f6295e4d", "is_reserved": 0, "rental_uris": {"android": "https://dc.lft.to/lastmile_qr_scan", "ios": "https://dc.lft.to/lastmile_qr_scan"}, "fusion_lon": 0.0}, {"lat": 38.896793, "is_disabled": 0, "type": "electric_scooter", "lon": -76.936075, "bike_id": "1dc4175ddee76b862e7972f59081a3ea", "fusion_lat": 0.0, "name": "1dc4175ddee76b862e7972f59081a3ea", "is_reserved": 0, "rental_uris": {"android": "https://dc.lft.to/lastmile_qr_scan", "ios": "https://dc.lft.to/lastmile_qr_scan"}, "fusion_lon": 0.0}, {"lat": 38.8959175, "is_disabled": 0, "type": "electric_scooter", "lon": -77.02184166666666, "bike_id": "e267e8d9598467106985917ce2b7f5f4", "fusion_lat": 0.0, "name": "e267e8d9598467106985917ce2b7f5f4", "is_reserved": 0, "rental_uris": {"android": "https://dc.lft.to/lastmile_qr_scan", "ios": "https://dc.lft.to/lastmile_qr_scan"}, "fusion_lon": 0.0}, {"lat": 38.905205, "is_disabled": 0, "type": "electric_scooter", "lon": -77.04750683333333, "bike_id": "de9c3181b6b447feca0fb0dee0219a2b", "fusion_lat": 0.0, "name": "de9c3181b6b447feca0fb0dee0219a2b", "is_reserved": 0, "rental_uris": {"android": "https://dc.lft.to/lastmile_qr_scan", "ios": "https://dc.lft.to/lastmile_qr_scan"}, "fusion_lon": 0.0}, {"lat": 38.8872375, "is_disabled": 0, "type": "electric_scooter", "lon": -76.95475016666667, "bike_id": "6a33f3311a4d2168a498b618dc18f68c", "fusion_lat": 0.0, "name": "6a33f3311a4d2168a498b618dc18f68c", "is_reserved": 0, "rental_uris": {"android": "https://dc.lft.to/lastmile_qr_scan", "ios": "https://dc.lft.to/lastmile_qr_scan"}, "fusion_lon": 0.0}, {"lat": 38.90335483333333, "is_disabled": 0, "type": "electric_bike", "lon": -77.05281266666667, "bike_id": "67b45f70f4e53b42a0bec80c866e9209", "fusion_lat": 0.0, "name": "67b45f70f4e53b42a0bec80c866e9209", "is_reserved": 0, "rental_uris": {"android": "https://dc.lft.to/lastmile_qr_scan", "ios": "https://dc.lft.to/lastmile_qr_scan"}, "fusion_lon": 0.0}, {"lat": 38.913526, "is_disabled": 0, "type": "electric_scooter", "lon": -77.04573933333333, "bike_id": "da8fc1943a437166316b5d487f7cccec", "fusion_lat": 0.0, "name": "da8fc1943a437166316b5d487f7cccec", "is_reserved": 0, "rental_uris": {"android": "https://dc.lft.to/lastmile_qr_scan", "ios": "https://dc.lft.to/lastmile_qr_scan"}, "fusion_lon": 0.0}, {"lat": 38.84810433333333, "is_disabled": 0, "type": "electric_bike", "lon": -77.07909633333334, "bike_id": "cf540249b95b3ee228885bd0ac252112", "fusion_lat": 0.0, "name": "cf540249b95b3ee228885bd0ac252112", "is_reserved": 0, "rental_uris": {"android": "https://dc.lft.to/lastmile_qr_scan", "ios": "https://dc.lft.to/lastmile_qr_scan"}, "fusion_lon": 0.0}, {"lat": 38.907958666666666, "is_disabled": 0, "type": "electric_scooter", "lon": -77.04334233333333, "bike_id": "b1873ed5a31eb748619022badb7cfbd0", "fusion_lat": 0.0, "name": "b1873ed5a31eb748619022badb7cfbd0", "is_reserved": 0, "rental_uris": {"android": "https://dc.lft.to/lastmile_qr_scan", "ios": "https://dc.lft.to/lastmile_qr_scan"}, "fusion_lon": 0.0}, {"lat": 38.8945905, "is_disabled": 0, "type": "electric_scooter", "lon": -77.02796883333333, "bike_id": "f3013939aa6d73cf365e3d4b9e57c01e", "fusion_lat": 0.0, "name": "f3013939aa6d73cf365e3d4b9e57c01e", "is_reserved": 0, "rental_uris": {"android": "https://dc.lft.to/lastmile_qr_scan", "ios": "https://dc.lft.to/lastmile_qr_scan"}, "fusion_lon": 0.0}, {"lat": 38.897537, "is_disabled": 0, "type": "electric_scooter", "lon": -76.94188533333333, "bike_id": "e67efac035d0f371e8d4d0c8cda4fa1e", "fusion_lat": 0.0, "name": "e67efac035d0f371e8d4d0c8cda4fa1e", "is_reserved": 0, "rental_uris": {"android": "https://dc.lft.to/lastmile_qr_scan", "ios": "https://dc.lft.to/lastmile_qr_scan"}, "fusion_lon": 0.0}, {"lat": 38.903585666666665, "is_disabled": 0, "type": "electric_scooter", "lon": -77.038827, "bike_id": "85c57e0ea9ce6d61717480547e106ee4", "fusion_lat": 0.0, "name": "85c57e0ea9ce6d61717480547e106ee4", "is_reserved": 0, "rental_uris": {"android": "https://dc.lft.to/lastmile_qr_scan", "ios": "https://dc.lft.to/lastmile_qr_scan"}, "fusion_lon": 0.0}, {"lat": 38.902335, "is_disabled": 0, "type": "electric_scooter", "lon": -77.02694966666667, "bike_id": "755449048389249dddc7f082a51f967e", "fusion_lat": 0.0, "name": "755449048389249dddc7f082a51f967e", "is_reserved": 0, "rental_uris": {"android": "https://dc.lft.to/lastmile_qr_scan", "ios": "https://dc.lft.to/lastmile_qr_scan"}, "fusion_lon": 0.0}, {"lat": 38.89221283333333, "is_disabled": 0, "type": "electric_scooter", "lon": -77.04866833333334, "bike_id": "763304c286e44d8118136e181ed1a097", "fusion_lat": 0.0, "name": "763304c286e44d8118136e181ed1a097", "is_reserved": 0, "rental_uris": {"android": "https://dc.lft.to/lastmile_qr_scan", "ios": "https://dc.lft.to/lastmile_qr_scan"}, "fusion_lon": 0.0}, {"lat": 38.88427033333333, "is_disabled": 0, "type": "electric_scooter", "lon": -76.95760266666667, "bike_id": "70364f22d01d6f6e2a3428f5d1b3eb74", "fusion_lat": 0.0, "name": "70364f22d01d6f6e2a3428f5d1b3eb74", "is_reserved": 0, "rental_uris": {"android": "https://dc.lft.to/lastmile_qr_scan", "ios": "https://dc.lft.to/lastmile_qr_scan"}, "fusion_lon": 0.0}, {"lat": 38.9260935, "is_disabled": 0, "type": "electric_scooter", "lon": -77.021733, "bike_id": "e3d024b9ce44b06798abce45902c8f84", "fusion_lat": 0.0, "name": "e3d024b9ce44b06798abce45902c8f84", "is_reserved": 0, "rental_uris": {"android": "https://dc.lft.to/lastmile_qr_scan", "ios": "https://dc.lft.to/lastmile_qr_scan"}, "fusion_lon": 0.0}, {"lat": 38.88513533333333, "is_disabled": 0, "type": "electric_scooter", "lon": -77.00572066666666, "bike_id": "80c4f1aceb6510810a856d6cb196fb33", "fusion_lat": 0.0, "name": "80c4f1aceb6510810a856d6cb196fb33", "is_reserved": 0, "rental_uris": {"android": "https://dc.lft.to/lastmile_qr_scan", "ios": "https://dc.lft.to/lastmile_qr_scan"}, "fusion_lon": 0.0}, {"lat": 38.855039833333336, "is_disabled": 0, "type": "electric_bike", "lon": -76.98396116666666, "bike_id": "e2d543dac303d89ec80e9502f9b0548b", "fusion_lat": 0.0, "name": "e2d543dac303d89ec80e9502f9b0548b", "is_reserved": 0, "rental_uris": {"android": "https://dc.lft.to/lastmile_qr_scan", "ios": "https://dc.lft.to/lastmile_qr_scan"}, "fusion_lon": 0.0}, {"lat": 38.906218833333334, "is_disabled": 0, "type": "electric_scooter", "lon": -77.03707466666667, "bike_id": "d8ea8a602c1048325788022d87b05820", "fusion_lat": 0.0, "name": "d8ea8a602c1048325788022d87b05820", "is_reserved": 0, "rental_uris": {"android": "https://dc.lft.to/lastmile_qr_scan", "ios": "https://dc.lft.to/lastmile_qr_scan"}, "fusion_lon": 0.0}, {"lat": 38.9191345, "is_disabled": 0, "type": "electric_scooter", "lon": -77.02408, "bike_id": "5a31e44da4af633275fec1a180087bfe", "fusion_lat": 0.0, "name": "5a31e44da4af633275fec1a180087bfe", "is_reserved": 0, "rental_uris": {"android": "https://dc.lft.to/lastmile_qr_scan", "ios": "https://dc.lft.to/lastmile_qr_scan"}, "fusion_lon": 0.0}, {"lat": 38.926740833333334, "is_disabled": 0, "type": "electric_scooter", "lon": -77.05128516666667, "bike_id": "f3fdde96ae0e23931953ce4e171be911", "fusion_lat": 0.0, "name": "f3fdde96ae0e23931953ce4e171be911", "is_reserved": 0, "rental_uris": {"android": "https://dc.lft.to/lastmile_qr_scan", "ios": "https://dc.lft.to/lastmile_qr_scan"}, "fusion_lon": 0.0}, {"lat": 38.9587415, "is_disabled": 0, "type": "electric_scooter", "lon": -77.02734066666666, "bike_id": "206832f78db2dcd0f88ee8ed579a7286", "fusion_lat": 0.0, "name": "206832f78db2dcd0f88ee8ed579a7286", "is_reserved": 0, "rental_uris": {"android": "https://dc.lft.to/lastmile_qr_scan", "ios": "https://dc.lft.to/lastmile_qr_scan"}, "fusion_lon": 0.0}, {"lat": 38.905841333333335, "is_disabled": 0, "type": "electric_scooter", "lon": -77.05814233333334, "bike_id": "4e3598836004f956cf540bf31d78b1e3", "fusion_lat": 0.0, "name": "4e3598836004f956cf540bf31d78b1e3", "is_reserved": 0, "rental_uris": {"android": "https://dc.lft.to/lastmile_qr_scan", "ios": "https://dc.lft.to/lastmile_qr_scan"}, "fusion_lon": 0.0}, {"lat": 38.89881483333333, "is_disabled": 0, "type": "electric_bike", "lon": -77.02132766666666, "bike_id": "b538f7cfa0a54f509614078f443312a1", "fusion_lat": 0.0, "name": "b538f7cfa0a54f509614078f443312a1", "is_reserved": 0, "rental_uris": {"android": "https://dc.lft.to/lastmile_qr_scan", "ios": "https://dc.lft.to/lastmile_qr_scan"}, "fusion_lon": 0.0}, {"lat": 38.899124, "is_disabled": 0, "type": "electric_scooter", "lon": -76.9338335, "bike_id": "cf9c519eb279ce18ad772e21640431df", "fusion_lat": 0.0, "name": "cf9c519eb279ce18ad772e21640431df", "is_reserved": 0, "rental_uris": {"android": "https://dc.lft.to/lastmile_qr_scan", "ios": "https://dc.lft.to/lastmile_qr_scan"}, "fusion_lon": 0.0}, {"lat": 38.876588166666664, "is_disabled": 0, "type": "electric_scooter", "lon": -77.00570283333333, "bike_id": "c21b6a3538149df85291b5b7f2ee5d04", "fusion_lat": 0.0, "name": "c21b6a3538149df85291b5b7f2ee5d04", "is_reserved": 0, "rental_uris": {"android": "https://dc.lft.to/lastmile_qr_scan", "ios": "https://dc.lft.to/lastmile_qr_scan"}, "fusion_lon": 0.0}, {"lat": 38.909467666666664, "is_disabled": 0, "type": "electric_scooter", "lon": -77.06449, "bike_id": "caf76e25c68c6967cc929a1056d9a30f", "fusion_lat": 0.0, "name": "caf76e25c68c6967cc929a1056d9a30f", "is_reserved": 0, "rental_uris": {"android": "https://dc.lft.to/lastmile_qr_scan", "ios": "https://dc.lft.to/lastmile_qr_scan"}, "fusion_lon": 0.0}, {"lat": 38.842892666666664, "is_disabled": 0, "type": "electric_scooter", "lon": -76.99955283333334, "bike_id": "e0c99bc7469d05359095dedec4ec5997", "fusion_lat": 0.0, "name": "e0c99bc7469d05359095dedec4ec5997", "is_reserved": 0, "rental_uris": {"android": "https://dc.lft.to/lastmile_qr_scan", "ios": "https://dc.lft.to/lastmile_qr_scan"}, "fusion_lon": 0.0}, {"lat": 38.86341866666667, "is_disabled": 0, "type": "electric_scooter", "lon": -76.9901115, "bike_id": "2edcc65d4d823e370208a1e545b2cbc1", "fusion_lat": 0.0, "name": "2edcc65d4d823e370208a1e545b2cbc1", "is_reserved": 0, "rental_uris": {"android": "https://dc.lft.to/lastmile_qr_scan", "ios": "https://dc.lft.to/lastmile_qr_scan"}, "fusion_lon": 0.0}, {"lat": 38.91264666666667, "is_disabled": 0, "type": "electric_scooter", "lon": -77.01313416666666, "bike_id": "df89678df15ab48c8202a2572c8aee17", "fusion_lat": 0.0, "name": "df89678df15ab48c8202a2572c8aee17", "is_reserved": 0, "rental_uris": {"android": "https://dc.lft.to/lastmile_qr_scan", "ios": "https://dc.lft.to/lastmile_qr_scan"}, "fusion_lon": 0.0}, {"lat": 38.955535, "is_disabled": 0, "type": "electric_bike", "lon": -76.93554616666667, "bike_id": "33ecaf69aff038f10dd182aafbf8dafe", "fusion_lat": 0.0, "name": "33ecaf69aff038f10dd182aafbf8dafe", "is_reserved": 0, "rental_uris": {"android": "https://dc.lft.to/lastmile_qr_scan", "ios": "https://dc.lft.to/lastmile_qr_scan"}, "fusion_lon": 0.0}, {"lat": 38.9048825, "is_disabled": 0, "type": "electric_scooter", "lon": -77.00136333333333, "bike_id": "3d7b2b57cfa72c0d59e94b5ac8f5ee26", "fusion_lat": 0.0, "name": "3d7b2b57cfa72c0d59e94b5ac8f5ee26", "is_reserved": 0, "rental_uris": {"android": "https://dc.lft.to/lastmile_qr_scan", "ios": "https://dc.lft.to/lastmile_qr_scan"}, "fusion_lon": 0.0}, {"lat": 38.916666, "is_disabled": 0, "type": "electric_scooter", "lon": -77.02409166666666, "bike_id": "47a125368372a236c46795f2e1af52f9", "fusion_lat": 0.0, "name": "47a125368372a236c46795f2e1af52f9", "is_reserved": 0, "rental_uris": {"android": "https://dc.lft.to/lastmile_qr_scan", "ios": "https://dc.lft.to/lastmile_qr_scan"}, "fusion_lon": 0.0}, {"lat": 38.91986333333333, "is_disabled": 0, "type": "electric_scooter", "lon": -77.01739416666666, "bike_id": "651905e3c880b476206fce4bed656c3e", "fusion_lat": 0.0, "name": "651905e3c880b476206fce4bed656c3e", "is_reserved": 0, "rental_uris": {"android": "https://dc.lft.to/lastmile_qr_scan", "ios": "https://dc.lft.to/lastmile_qr_scan"}, "fusion_lon": 0.0}, {"lat": 38.903395833333335, "is_disabled": 0, "type": "electric_bike", "lon": -77.05318216666667, "bike_id": "995ad98c7a1ec7ee203f672062696435", "fusion_lat": 0.0, "name": "995ad98c7a1ec7ee203f672062696435", "is_reserved": 0, "rental_uris": {"android": "https://dc.lft.to/lastmile_qr_scan", "ios": "https://dc.lft.to/lastmile_qr_scan"}, "fusion_lon": 0.0}, {"lat": 38.903486666666666, "is_disabled": 0, "type": "electric_scooter", "lon": -77.00733683333333, "bike_id": "01f7459ad17cb7798fc26425340bbd3e", "fusion_lat": 0.0, "name": "01f7459ad17cb7798fc26425340bbd3e", "is_reserved": 0, "rental_uris": {"android": "https://dc.lft.to/lastmile_qr_scan", "ios": "https://dc.lft.to/lastmile_qr_scan"}, "fusion_lon": 0.0}, {"lat": 38.88761933333333, "is_disabled": 0, "type": "electric_scooter", "lon": -76.95608283333334, "bike_id": "b522a38dab71c97c67dec3c09d710930", "fusion_lat": 0.0, "name": "b522a38dab71c97c67dec3c09d710930", "is_reserved": 0, "rental_uris": {"android": "https://dc.lft.to/lastmile_qr_scan", "ios": "https://dc.lft.to/lastmile_qr_scan"}, "fusion_lon": 0.0}, {"lat": 38.935647, "is_disabled": 0, "type": "electric_scooter", "lon": -77.0876865, "bike_id": "0822d958522a5778a9df919ff640e8ec", "fusion_lat": 0.0, "name": "0822d958522a5778a9df919ff640e8ec", "is_reserved": 0, "rental_uris": {"android": "https://dc.lft.to/lastmile_qr_scan", "ios": "https://dc.lft.to/lastmile_qr_scan"}, "fusion_lon": 0.0}, {"lat": 38.88464966666667, "is_disabled": 0, "type": "electric_scooter", "lon": -76.99264416666666, "bike_id": "ff05831db0c448fa268f57a0770acd15", "fusion_lat": 0.0, "name": "ff05831db0c448fa268f57a0770acd15", "is_reserved": 0, "rental_uris": {"android": "https://dc.lft.to/lastmile_qr_scan", "ios": "https://dc.lft.to/lastmile_qr_scan"}, "fusion_lon": 0.0}, {"lat": 39.02934333333334, "is_disabled": 0, "type": "electric_bike", "lon": -77.04927383333333, "bike_id": "844aee9dbe17dcce6a9c72a1afbe60ee", "fusion_lat": 0.0, "name": "844aee9dbe17dcce6a9c72a1afbe60ee", "is_reserved": 0, "rental_uris": {"android": "https://dc.lft.to/lastmile_qr_scan", "ios": "https://dc.lft.to/lastmile_qr_scan"}, "fusion_lon": 0.0}, {"lat": 38.903971, "is_disabled": 0, "type": "electric_scooter", "lon": -77.062976, "bike_id": "2e490205f0390374507ff28132429b69", "fusion_lat": 0.0, "name": "2e490205f0390374507ff28132429b69", "is_reserved": 0, "rental_uris": {"android": "https://dc.lft.to/lastmile_qr_scan", "ios": "https://dc.lft.to/lastmile_qr_scan"}, "fusion_lon": 0.0}, {"lat": 38.884923, "is_disabled": 0, "type": "electric_scooter", "lon": -77.00714466666666, "bike_id": "95f35ee3e7ef6e9caa3bc6f6080c3b87", "fusion_lat": 0.0, "name": "95f35ee3e7ef6e9caa3bc6f6080c3b87", "is_reserved": 0, "rental_uris": {"android": "https://dc.lft.to/lastmile_qr_scan", "ios": "https://dc.lft.to/lastmile_qr_scan"}, "fusion_lon": 0.0}, {"lat": 38.9734395, "is_disabled": 0, "type": "electric_scooter", "lon": -77.01795716666666, "bike_id": "b58f41d276aee7cd8db26cdd4899426e", "fusion_lat": 0.0, "name": "b58f41d276aee7cd8db26cdd4899426e", "is_reserved": 0, "rental_uris": {"android": "https://dc.lft.to/lastmile_qr_scan", "ios": "https://dc.lft.to/lastmile_qr_scan"}, "fusion_lon": 0.0}, {"lat": 38.9140435, "is_disabled": 0, "type": "electric_scooter", "lon": -77.0322105, "bike_id": "1ce88358ae0e59ae6d4d62bb091aa1cb", "fusion_lat": 0.0, "name": "1ce88358ae0e59ae6d4d62bb091aa1cb", "is_reserved": 0, "rental_uris": {"android": "https://dc.lft.to/lastmile_qr_scan", "ios": "https://dc.lft.to/lastmile_qr_scan"}, "fusion_lon": 0.0}, {"lat": 38.899931, "is_disabled": 0, "type": "electric_scooter", "lon": -77.02270733333333, "bike_id": "31a94e24dcf392a93cc826d2b1017094", "fusion_lat": 0.0, "name": "31a94e24dcf392a93cc826d2b1017094", "is_reserved": 0, "rental_uris": {"android": "https://dc.lft.to/lastmile_qr_scan", "ios": "https://dc.lft.to/lastmile_qr_scan"}, "fusion_lon": 0.0}, {"lat": 38.96015466666667, "is_disabled": 0, "type": "electric_bike", "lon": -77.01730566666667, "bike_id": "15e98890fc601a400678d5839dbfbf18", "fusion_lat": 0.0, "name": "15e98890fc601a400678d5839dbfbf18", "is_reserved": 0, "rental_uris": {"android": "https://dc.lft.to/lastmile_qr_scan", "ios": "https://dc.lft.to/lastmile_qr_scan"}, "fusion_lon": 0.0}, {"lat": 38.897251833333335, "is_disabled": 0, "type": "electric_scooter", "lon": -77.03359566666667, "bike_id": "a9a8b23c133a4e5ce73fd906e9586e07", "fusion_lat": 0.0, "name": "a9a8b23c133a4e5ce73fd906e9586e07", "is_reserved": 0, "rental_uris": {"android": "https://dc.lft.to/lastmile_qr_scan", "ios": "https://dc.lft.to/lastmile_qr_scan"}, "fusion_lon": 0.0}, {"lat": 38.953232166666666, "is_disabled": 0, "type": "electric_scooter", "lon": -77.02760066666667, "bike_id": "018cae3d24923b166e48187797dd4ba8", "fusion_lat": 0.0, "name": "018cae3d24923b166e48187797dd4ba8", "is_reserved": 0, "rental_uris": {"android": "https://dc.lft.to/lastmile_qr_scan", "ios": "https://dc.lft.to/lastmile_qr_scan"}, "fusion_lon": 0.0}, {"lat": 38.91984, "is_disabled": 0, "type": "electric_scooter", "lon": -76.97309583333333, "bike_id": "7a873afa9c09593ef89e542697f39d0e", "fusion_lat": 0.0, "name": "7a873afa9c09593ef89e542697f39d0e", "is_reserved": 0, "rental_uris": {"android": "https://dc.lft.to/lastmile_qr_scan", "ios": "https://dc.lft.to/lastmile_qr_scan"}, "fusion_lon": 0.0}, {"lat": 38.91554283333333, "is_disabled": 0, "type": "electric_scooter", "lon": -77.03243883333333, "bike_id": "d8b7951cc199d3b3f43a9fa88f88f821", "fusion_lat": 0.0, "name": "d8b7951cc199d3b3f43a9fa88f88f821", "is_reserved": 0, "rental_uris": {"android": "https://dc.lft.to/lastmile_qr_scan", "ios": "https://dc.lft.to/lastmile_qr_scan"}, "fusion_lon": 0.0}, {"lat": 38.929391, "is_disabled": 0, "type": "electric_scooter", "lon": -77.018951, "bike_id": "549a9624048417897de33f84fb8838b5", "fusion_lat": 0.0, "name": "549a9624048417897de33f84fb8838b5", "is_reserved": 0, "rental_uris": {"android": "https://dc.lft.to/lastmile_qr_scan", "ios": "https://dc.lft.to/lastmile_qr_scan"}, "fusion_lon": 0.0}, {"lat": 38.91914166666667, "is_disabled": 0, "type": "electric_scooter", "lon": -77.03115933333333, "bike_id": "4ade6fc91124850b12d0b2fd936aaeb8", "fusion_lat": 0.0, "name": "4ade6fc91124850b12d0b2fd936aaeb8", "is_reserved": 0, "rental_uris": {"android": "https://dc.lft.to/lastmile_qr_scan", "ios": "https://dc.lft.to/lastmile_qr_scan"}, "fusion_lon": 0.0}, {"lat": 38.91051233333334, "is_disabled": 0, "type": "electric_scooter", "lon": -77.0384495, "bike_id": "8331328c5699635fafff7b0bf722aa87", "fusion_lat": 0.0, "name": "8331328c5699635fafff7b0bf722aa87", "is_reserved": 0, "rental_uris": {"android": "https://dc.lft.to/lastmile_qr_scan", "ios": "https://dc.lft.to/lastmile_qr_scan"}, "fusion_lon": 0.0}, {"lat": 38.921481166666666, "is_disabled": 0, "type": "electric_scooter", "lon": -77.03513833333334, "bike_id": "01498680b669927b1c025b765258f47e", "fusion_lat": 0.0, "name": "01498680b669927b1c025b765258f47e", "is_reserved": 0, "rental_uris": {"android": "https://dc.lft.to/lastmile_qr_scan", "ios": "https://dc.lft.to/lastmile_qr_scan"}, "fusion_lon": 0.0}, {"lat": 38.922733666666666, "is_disabled": 0, "type": "electric_scooter", "lon": -77.02248383333334, "bike_id": "e44c5076d07a9815ab8fbaedff42e66d", "fusion_lat": 0.0, "name": "e44c5076d07a9815ab8fbaedff42e66d", "is_reserved": 0, "rental_uris": {"android": "https://dc.lft.to/lastmile_qr_scan", "ios": "https://dc.lft.to/lastmile_qr_scan"}, "fusion_lon": 0.0}, {"lat": 38.919665333333334, "is_disabled": 0, "type": "electric_scooter", "lon": -77.01359966666666, "bike_id": "945790f583b88ccf12c20f96bbf892a5", "fusion_lat": 0.0, "name": "945790f583b88ccf12c20f96bbf892a5", "is_reserved": 0, "rental_uris": {"android": "https://dc.lft.to/lastmile_qr_scan", "ios": "https://dc.lft.to/lastmile_qr_scan"}, "fusion_lon": 0.0}, {"lat": 39.051995833333336, "is_disabled": 0, "type": "electric_bike", "lon": -77.10919116666666, "bike_id": "dd4fd9a05b234a6801e702d16b262b0e", "fusion_lat": 0.0, "name": "dd4fd9a05b234a6801e702d16b262b0e", "is_reserved": 0, "rental_uris": {"android": "https://dc.lft.to/lastmile_qr_scan", "ios": "https://dc.lft.to/lastmile_qr_scan"}, "fusion_lon": 0.0}, {"lat": 38.89969816666667, "is_disabled": 0, "type": "electric_scooter", "lon": -76.92647683333334, "bike_id": "9ce287fd9953ceaa750e43d257fc278b", "fusion_lat": 0.0, "name": "9ce287fd9953ceaa750e43d257fc278b", "is_reserved": 0, "rental_uris": {"android": "https://dc.lft.to/lastmile_qr_scan", "ios": "https://dc.lft.to/lastmile_qr_scan"}, "fusion_lon": 0.0}, {"lat": 38.90818466666666, "is_disabled": 0, "type": "electric_scooter", "lon": -77.044665, "bike_id": "a154d01ee5014454a3aaf02988de1aa0", "fusion_lat": 0.0, "name": "a154d01ee5014454a3aaf02988de1aa0", "is_reserved": 0, "rental_uris": {"android": "https://dc.lft.to/lastmile_qr_scan", "ios": "https://dc.lft.to/lastmile_qr_scan"}, "fusion_lon": 0.0}, {"lat": 38.9144435, "is_disabled": 0, "type": "electric_scooter", "lon": -77.03184216666666, "bike_id": "9dbade9e14db6726410dd94d7fbaade4", "fusion_lat": 0.0, "name": "9dbade9e14db6726410dd94d7fbaade4", "is_reserved": 0, "rental_uris": {"android": "https://dc.lft.to/lastmile_qr_scan", "ios": "https://dc.lft.to/lastmile_qr_scan"}, "fusion_lon": 0.0}, {"lat": 38.900592, "is_disabled": 0, "type": "electric_scooter", "lon": -77.02601666666666, "bike_id": "b01064fc3e62864df2b98c3e38630967", "fusion_lat": 0.0, "name": "b01064fc3e62864df2b98c3e38630967", "is_reserved": 0, "rental_uris": {"android": "https://dc.lft.to/lastmile_qr_scan", "ios": "https://dc.lft.to/lastmile_qr_scan"}, "fusion_lon": 0.0}, {"lat": 38.9001245, "is_disabled": 0, "type": "electric_scooter", "lon": -77.0450665, "bike_id": "96c3f0cd585c10b161ef0c4960ab2326", "fusion_lat": 0.0, "name": "96c3f0cd585c10b161ef0c4960ab2326", "is_reserved": 0, "rental_uris": {"android": "https://dc.lft.to/lastmile_qr_scan", "ios": "https://dc.lft.to/lastmile_qr_scan"}, "fusion_lon": 0.0}, {"lat": 38.9038505, "is_disabled": 0, "type": "electric_scooter", "lon": -77.053867, "bike_id": "d20abf9d48fc99ec84d24b1358c50a21", "fusion_lat": 0.0, "name": "d20abf9d48fc99ec84d24b1358c50a21", "is_reserved": 0, "rental_uris": {"android": "https://dc.lft.to/lastmile_qr_scan", "ios": "https://dc.lft.to/lastmile_qr_scan"}, "fusion_lon": 0.0}, {"lat": 38.917810333333335, "is_disabled": 0, "type": "electric_scooter", "lon": -77.02309933333333, "bike_id": "bd732075a84173ced2ee52b12520e1e4", "fusion_lat": 0.0, "name": "bd732075a84173ced2ee52b12520e1e4", "is_reserved": 0, "rental_uris": {"android": "https://dc.lft.to/lastmile_qr_scan", "ios": "https://dc.lft.to/lastmile_qr_scan"}, "fusion_lon": 0.0}, {"lat": 38.92131716666667, "is_disabled": 0, "type": "electric_scooter", "lon": -77.01044216666666, "bike_id": "4b644b3576cc934e4a9658b0b0d3e142", "fusion_lat": 0.0, "name": "4b644b3576cc934e4a9658b0b0d3e142", "is_reserved": 0, "rental_uris": {"android": "https://dc.lft.to/lastmile_qr_scan", "ios": "https://dc.lft.to/lastmile_qr_scan"}, "fusion_lon": 0.0}, {"lat": 38.86624316666666, "is_disabled": 0, "type": "electric_scooter", "lon": -76.98699966666666, "bike_id": "65710c1d722a1e69eeb5864c7e02d4a1", "fusion_lat": 0.0, "name": "65710c1d722a1e69eeb5864c7e02d4a1", "is_reserved": 0, "rental_uris": {"android": "https://dc.lft.to/lastmile_qr_scan", "ios": "https://dc.lft.to/lastmile_qr_scan"}, "fusion_lon": 0.0}, {"lat": 38.842765, "is_disabled": 0, "type": "electric_bike", "lon": -76.98843633333334, "bike_id": "b82b22ba9f5ab446152579e422e7a69e", "fusion_lat": 0.0, "name": "b82b22ba9f5ab446152579e422e7a69e", "is_reserved": 0, "rental_uris": {"android": "https://dc.lft.to/lastmile_qr_scan", "ios": "https://dc.lft.to/lastmile_qr_scan"}, "fusion_lon": 0.0}, {"lat": 38.8875535, "is_disabled": 0, "type": "electric_scooter", "lon": -76.95607283333334, "bike_id": "1a76455da1d95b16a58018bdfbce63fe", "fusion_lat": 0.0, "name": "1a76455da1d95b16a58018bdfbce63fe", "is_reserved": 0, "rental_uris": {"android": "https://dc.lft.to/lastmile_qr_scan", "ios": "https://dc.lft.to/lastmile_qr_scan"}, "fusion_lon": 0.0}, {"lat": 38.84288, "is_disabled": 0, "type": "electric_scooter", "lon": -76.99954683333333, "bike_id": "3b69461c496dbe175641a125bfd18bce", "fusion_lat": 0.0, "name": "3b69461c496dbe175641a125bfd18bce", "is_reserved": 0, "rental_uris": {"android": "https://dc.lft.to/lastmile_qr_scan", "ios": "https://dc.lft.to/lastmile_qr_scan"}, "fusion_lon": 0.0}, {"lat": 38.884865166666664, "is_disabled": 0, "type": "electric_scooter", "lon": -77.007143, "bike_id": "47626d765db58c53225f689c0ca27295", "fusion_lat": 0.0, "name": "47626d765db58c53225f689c0ca27295", "is_reserved": 0, "rental_uris": {"android": "https://dc.lft.to/lastmile_qr_scan", "ios": "https://dc.lft.to/lastmile_qr_scan"}, "fusion_lon": 0.0}, {"lat": 38.957452, "is_disabled": 0, "type": "electric_bike", "lon": -77.00223783333334, "bike_id": "751b73aa3d7b0bc200051363c325f5b3", "fusion_lat": 0.0, "name": "751b73aa3d7b0bc200051363c325f5b3", "is_reserved": 0, "rental_uris": {"android": "https://dc.lft.to/lastmile_qr_scan", "ios": "https://dc.lft.to/lastmile_qr_scan"}, "fusion_lon": 0.0}, {"lat": 38.923649166666664, "is_disabled": 0, "type": "electric_scooter", "lon": -77.0404005, "bike_id": "8b6968e573f982ecfc099ab27890ae00", "fusion_lat": 0.0, "name": "8b6968e573f982ecfc099ab27890ae00", "is_reserved": 0, "rental_uris": {"android": "https://dc.lft.to/lastmile_qr_scan", "ios": "https://dc.lft.to/lastmile_qr_scan"}, "fusion_lon": 0.0}, {"lat": 38.849344, "is_disabled": 0, "type": "electric_bike", "lon": -77.100177, "bike_id": "740cff7249e42663942a559492d884f0", "fusion_lat": 0.0, "name": "740cff7249e42663942a559492d884f0", "is_reserved": 0, "rental_uris": {"android": "https://dc.lft.to/lastmile_qr_scan", "ios": "https://dc.lft.to/lastmile_qr_scan"}, "fusion_lon": 0.0}, {"lat": 38.8955865, "is_disabled": 0, "type": "electric_scooter", "lon": -76.93079316666666, "bike_id": "675062a4f8a43ebf8163cb3c64aa49ca", "fusion_lat": 0.0, "name": "675062a4f8a43ebf8163cb3c64aa49ca", "is_reserved": 0, "rental_uris": {"android": "https://dc.lft.to/lastmile_qr_scan", "ios": "https://dc.lft.to/lastmile_qr_scan"}, "fusion_lon": 0.0}, {"lat": 38.9058745, "is_disabled": 0, "type": "electric_scooter", "lon": -77.04674283333334, "bike_id": "70963678fb7d3ba1a05af07ec736e13f", "fusion_lat": 0.0, "name": "70963678fb7d3ba1a05af07ec736e13f", "is_reserved": 0, "rental_uris": {"android": "https://dc.lft.to/lastmile_qr_scan", "ios": "https://dc.lft.to/lastmile_qr_scan"}, "fusion_lon": 0.0}, {"lat": 38.931517166666666, "is_disabled": 0, "type": "electric_scooter", "lon": -77.02934733333333, "bike_id": "8ddafd2aab6821614b4315676d2c52cc", "fusion_lat": 0.0, "name": "8ddafd2aab6821614b4315676d2c52cc", "is_reserved": 0, "rental_uris": {"android": "https://dc.lft.to/lastmile_qr_scan", "ios": "https://dc.lft.to/lastmile_qr_scan"}, "fusion_lon": 0.0}, {"lat": 38.92753316666666, "is_disabled": 0, "type": "electric_scooter", "lon": -77.03208666666667, "bike_id": "8dff243432854a000df442530cb54a2f", "fusion_lat": 0.0, "name": "8dff243432854a000df442530cb54a2f", "is_reserved": 0, "rental_uris": {"android": "https://dc.lft.to/lastmile_qr_scan", "ios": "https://dc.lft.to/lastmile_qr_scan"}, "fusion_lon": 0.0}, {"lat": 38.9201395, "is_disabled": 0, "type": "electric_scooter", "lon": -77.0387785, "bike_id": "1fba5c84aa88d0011eb715b91e98ae85", "fusion_lat": 0.0, "name": "1fba5c84aa88d0011eb715b91e98ae85", "is_reserved": 0, "rental_uris": {"android": "https://dc.lft.to/lastmile_qr_scan", "ios": "https://dc.lft.to/lastmile_qr_scan"}, "fusion_lon": 0.0}, {"lat": 38.93951783333333, "is_disabled": 0, "type": "electric_bike", "lon": -77.36094316666667, "bike_id": "a8306969023cfaefe7461e2faaaacad7", "fusion_lat": 0.0, "name": "a8306969023cfaefe7461e2faaaacad7", "is_reserved": 0, "rental_uris": {"android": "https://dc.lft.to/lastmile_qr_scan", "ios": "https://dc.lft.to/lastmile_qr_scan"}, "fusion_lon": 0.0}, {"lat": 38.95284733333333, "is_disabled": 0, "type": "electric_bike", "lon": -76.94587666666666, "bike_id": "d5854c60b9a90660ee7c42f147fce716", "fusion_lat": 0.0, "name": "d5854c60b9a90660ee7c42f147fce716", "is_reserved": 0, "rental_uris": {"android": "https://dc.lft.to/lastmile_qr_scan", "ios": "https://dc.lft.to/lastmile_qr_scan"}, "fusion_lon": 0.0}, {"lat": 38.9173115, "is_disabled": 0, "type": "electric_scooter", "lon": -77.02404066666666, "bike_id": "d2d20b00ea0ea4defa9f88d7d963e3d9", "fusion_lat": 0.0, "name": "d2d20b00ea0ea4defa9f88d7d963e3d9", "is_reserved": 0, "rental_uris": {"android": "https://dc.lft.to/lastmile_qr_scan", "ios": "https://dc.lft.to/lastmile_qr_scan"}, "fusion_lon": 0.0}, {"lat": 38.90891116666667, "is_disabled": 0, "type": "electric_scooter", "lon": -77.04313066666667, "bike_id": "fc10c49977b9c9ca69f3c9c20fd85f0d", "fusion_lat": 0.0, "name": "fc10c49977b9c9ca69f3c9c20fd85f0d", "is_reserved": 0, "rental_uris": {"android": "https://dc.lft.to/lastmile_qr_scan", "ios": "https://dc.lft.to/lastmile_qr_scan"}, "fusion_lon": 0.0}, {"lat": 38.91705533333333, "is_disabled": 0, "type": "electric_scooter", "lon": -77.00116433333334, "bike_id": "75b4f617f9c550351eceb9c4981ead26", "fusion_lat": 0.0, "name": "75b4f617f9c550351eceb9c4981ead26", "is_reserved": 0, "rental_uris": {"android": "https://dc.lft.to/lastmile_qr_scan", "ios": "https://dc.lft.to/lastmile_qr_scan"}, "fusion_lon": 0.0}, {"lat": 38.92422333333333, "is_disabled": 0, "type": "electric_scooter", "lon": -77.05191783333333, "bike_id": "7af1f536e9be466651ea651efed79aaf", "fusion_lat": 0.0, "name": "7af1f536e9be466651ea651efed79aaf", "is_reserved": 0, "rental_uris": {"android": "https://dc.lft.to/lastmile_qr_scan", "ios": "https://dc.lft.to/lastmile_qr_scan"}, "fusion_lon": 0.0}, {"lat": 38.90968, "is_disabled": 0, "type": "electric_scooter", "lon": -77.00925833333334, "bike_id": "ef2ced0f3f278c197cac82d27867205a", "fusion_lat": 0.0, "name": "ef2ced0f3f278c197cac82d27867205a", "is_reserved": 0, "rental_uris": {"android": "https://dc.lft.to/lastmile_qr_scan", "ios": "https://dc.lft.to/lastmile_qr_scan"}, "fusion_lon": 0.0}, {"lat": 38.91267966666667, "is_disabled": 0, "type": "electric_scooter", "lon": -77.03943133333334, "bike_id": "8a4eedba49358e750ec41000dc234030", "fusion_lat": 0.0, "name": "8a4eedba49358e750ec41000dc234030", "is_reserved": 0, "rental_uris": {"android": "https://dc.lft.to/lastmile_qr_scan", "ios": "https://dc.lft.to/lastmile_qr_scan"}, "fusion_lon": 0.0}, {"lat": 38.88984133333334, "is_disabled": 0, "type": "electric_bike", "lon": -77.07136366666667, "bike_id": "e5bc3c72608153ee4fc992797b15d7d0", "fusion_lat": 0.0, "name": "e5bc3c72608153ee4fc992797b15d7d0", "is_reserved": 0, "rental_uris": {"android": "https://dc.lft.to/lastmile_qr_scan", "ios": "https://dc.lft.to/lastmile_qr_scan"}, "fusion_lon": 0.0}, {"lat": 38.90554316666667, "is_disabled": 0, "type": "electric_scooter", "lon": -77.03401866666667, "bike_id": "ee092c7fda17670fd4dcc92743c85268", "fusion_lat": 0.0, "name": "ee092c7fda17670fd4dcc92743c85268", "is_reserved": 0, "rental_uris": {"android": "https://dc.lft.to/lastmile_qr_scan", "ios": "https://dc.lft.to/lastmile_qr_scan"}, "fusion_lon": 0.0}, {"lat": 38.90868366666667, "is_disabled": 0, "type": "electric_scooter", "lon": -77.02408516666667, "bike_id": "3d0fa03ce1d871b64d579ccc7efb4131", "fusion_lat": 0.0, "name": "3d0fa03ce1d871b64d579ccc7efb4131", "is_reserved": 0, "rental_uris": {"android": "https://dc.lft.to/lastmile_qr_scan", "ios": "https://dc.lft.to/lastmile_qr_scan"}, "fusion_lon": 0.0}, {"lat": 38.893397666666665, "is_disabled": 0, "type": "electric_scooter", "lon": -76.94938, "bike_id": "69cb116df1adb588735f10384b8531a6", "fusion_lat": 0.0, "name": "69cb116df1adb588735f10384b8531a6", "is_reserved": 0, "rental_uris": {"android": "https://dc.lft.to/lastmile_qr_scan", "ios": "https://dc.lft.to/lastmile_qr_scan"}, "fusion_lon": 0.0}, {"lat": 38.91710883333333, "is_disabled": 0, "type": "electric_scooter", "lon": -77.024088, "bike_id": "88c3c2fbdd35bdd1722533067e749293", "fusion_lat": 0.0, "name": "88c3c2fbdd35bdd1722533067e749293", "is_reserved": 0, "rental_uris": {"android": "https://dc.lft.to/lastmile_qr_scan", "ios": "https://dc.lft.to/lastmile_qr_scan"}, "fusion_lon": 0.0}, {"lat": 38.886189333333334, "is_disabled": 0, "type": "electric_scooter", "lon": -77.0217785, "bike_id": "8ad4037afba1d6228616d2ee7aaec51c", "fusion_lat": 0.0, "name": "8ad4037afba1d6228616d2ee7aaec51c", "is_reserved": 0, "rental_uris": {"android": "https://dc.lft.to/lastmile_qr_scan", "ios": "https://dc.lft.to/lastmile_qr_scan"}, "fusion_lon": 0.0}, {"lat": 38.8984775, "is_disabled": 0, "type": "electric_bike", "lon": -76.93194083333333, "bike_id": "7ad9f32459d07e6b753254752a4432c6", "fusion_lat": 0.0, "name": "7ad9f32459d07e6b753254752a4432c6", "is_reserved": 0, "rental_uris": {"android": "https://dc.lft.to/lastmile_qr_scan", "ios": "https://dc.lft.to/lastmile_qr_scan"}, "fusion_lon": 0.0}, {"lat": 38.90108333333333, "is_disabled": 0, "type": "electric_scooter", "lon": -77.05904566666666, "bike_id": "cb50884b8581d65a43ce039c661d7865", "fusion_lat": 0.0, "name": "cb50884b8581d65a43ce039c661d7865", "is_reserved": 0, "rental_uris": {"android": "https://dc.lft.to/lastmile_qr_scan", "ios": "https://dc.lft.to/lastmile_qr_scan"}, "fusion_lon": 0.0}, {"lat": 38.97194283333333, "is_disabled": 0, "type": "electric_bike", "lon": -77.02722116666666, "bike_id": "be0de4c43b3a990ee10debd9d8d7f7cb", "fusion_lat": 0.0, "name": "be0de4c43b3a990ee10debd9d8d7f7cb", "is_reserved": 0, "rental_uris": {"android": "https://dc.lft.to/lastmile_qr_scan", "ios": "https://dc.lft.to/lastmile_qr_scan"}, "fusion_lon": 0.0}, {"lat": 38.90039633333333, "is_disabled": 0, "type": "electric_scooter", "lon": -76.99509783333333, "bike_id": "99eff69bbb1c459c29eaa86e4718c0f5", "fusion_lat": 0.0, "name": "99eff69bbb1c459c29eaa86e4718c0f5", "is_reserved": 0, "rental_uris": {"android": "https://dc.lft.to/lastmile_qr_scan", "ios": "https://dc.lft.to/lastmile_qr_scan"}, "fusion_lon": 0.0}, {"lat": 38.928039, "is_disabled": 0, "type": "electric_scooter", "lon": -77.03647233333334, "bike_id": "cfabe0704f8b208eca05d9e9f05019f8", "fusion_lat": 0.0, "name": "cfabe0704f8b208eca05d9e9f05019f8", "is_reserved": 0, "rental_uris": {"android": "https://dc.lft.to/lastmile_qr_scan", "ios": "https://dc.lft.to/lastmile_qr_scan"}, "fusion_lon": 0.0}, {"lat": 38.908233333333335, "is_disabled": 0, "type": "electric_scooter", "lon": -76.94150683333334, "bike_id": "f5052b890546e05d26fc3bea5f5fbede", "fusion_lat": 0.0, "name": "f5052b890546e05d26fc3bea5f5fbede", "is_reserved": 0, "rental_uris": {"android": "https://dc.lft.to/lastmile_qr_scan", "ios": "https://dc.lft.to/lastmile_qr_scan"}, "fusion_lon": 0.0}, {"lat": 38.915826, "is_disabled": 0, "type": "electric_scooter", "lon": -77.03182916666667, "bike_id": "8aa374cdaa1f2b72de2c04fca33bebd3", "fusion_lat": 0.0, "name": "8aa374cdaa1f2b72de2c04fca33bebd3", "is_reserved": 0, "rental_uris": {"android": "https://dc.lft.to/lastmile_qr_scan", "ios": "https://dc.lft.to/lastmile_qr_scan"}, "fusion_lon": 0.0}, {"lat": 38.92481516666667, "is_disabled": 0, "type": "electric_scooter", "lon": -77.027225, "bike_id": "9cc0e7838b76a1cc2a0acd090505fd9c", "fusion_lat": 0.0, "name": "9cc0e7838b76a1cc2a0acd090505fd9c", "is_reserved": 0, "rental_uris": {"android": "https://dc.lft.to/lastmile_qr_scan", "ios": "https://dc.lft.to/lastmile_qr_scan"}, "fusion_lon": 0.0}, {"lat": 38.88748433333333, "is_disabled": 0, "type": "electric_scooter", "lon": -76.99369383333334, "bike_id": "d77a98a568871a6d348d8c02befbd7d8", "fusion_lat": 0.0, "name": "d77a98a568871a6d348d8c02befbd7d8", "is_reserved": 0, "rental_uris": {"android": "https://dc.lft.to/lastmile_qr_scan", "ios": "https://dc.lft.to/lastmile_qr_scan"}, "fusion_lon": 0.0}, {"lat": 38.884013, "is_disabled": 0, "type": "electric_bike", "lon": -76.960658, "bike_id": "234823f42d37c2b88300b56e5c718395", "fusion_lat": 0.0, "name": "234823f42d37c2b88300b56e5c718395", "is_reserved": 0, "rental_uris": {"android": "https://dc.lft.to/lastmile_qr_scan", "ios": "https://dc.lft.to/lastmile_qr_scan"}, "fusion_lon": 0.0}, {"lat": 38.83982666666667, "is_disabled": 0, "type": "electric_bike", "lon": -77.00574683333333, "bike_id": "1f9f46ea124d9fa92053bbba6411d79a", "fusion_lat": 0.0, "name": "1f9f46ea124d9fa92053bbba6411d79a", "is_reserved": 0, "rental_uris": {"android": "https://dc.lft.to/lastmile_qr_scan", "ios": "https://dc.lft.to/lastmile_qr_scan"}, "fusion_lon": 0.0}, {"lat": 38.92916266666667, "is_disabled": 0, "type": "electric_scooter", "lon": -77.03264583333333, "bike_id": "b28a8c0e64a2a15f1a4a05f4a5e8225e", "fusion_lat": 0.0, "name": "b28a8c0e64a2a15f1a4a05f4a5e8225e", "is_reserved": 0, "rental_uris": {"android": "https://dc.lft.to/lastmile_qr_scan", "ios": "https://dc.lft.to/lastmile_qr_scan"}, "fusion_lon": 0.0}, {"lat": 38.91685966666667, "is_disabled": 0, "type": "electric_scooter", "lon": -77.04282833333333, "bike_id": "c72fd56e3873dbe94eb6237487664a97", "fusion_lat": 0.0, "name": "c72fd56e3873dbe94eb6237487664a97", "is_reserved": 0, "rental_uris": {"android": "https://dc.lft.to/lastmile_qr_scan", "ios": "https://dc.lft.to/lastmile_qr_scan"}, "fusion_lon": 0.0}, {"lat": 38.900387, "is_disabled": 0, "type": "electric_scooter", "lon": -77.00580783333334, "bike_id": "2e151cc5de5de1b93e80d28f33156215", "fusion_lat": 0.0, "name": "2e151cc5de5de1b93e80d28f33156215", "is_reserved": 0, "rental_uris": {"android": "https://dc.lft.to/lastmile_qr_scan", "ios": "https://dc.lft.to/lastmile_qr_scan"}, "fusion_lon": 0.0}, {"lat": 38.898921333333334, "is_disabled": 0, "type": "electric_scooter", "lon": -77.03953133333333, "bike_id": "d52f680e1f7ae66404029ab5a45af57f", "fusion_lat": 0.0, "name": "d52f680e1f7ae66404029ab5a45af57f", "is_reserved": 0, "rental_uris": {"android": "https://dc.lft.to/lastmile_qr_scan", "ios": "https://dc.lft.to/lastmile_qr_scan"}, "fusion_lon": 0.0}, {"lat": 38.91797616666667, "is_disabled": 0, "type": "electric_scooter", "lon": -77.03660483333333, "bike_id": "96f7927f02bc9ceb4ce82610fc905e6e", "fusion_lat": 0.0, "name": "96f7927f02bc9ceb4ce82610fc905e6e", "is_reserved": 0, "rental_uris": {"android": "https://dc.lft.to/lastmile_qr_scan", "ios": "https://dc.lft.to/lastmile_qr_scan"}, "fusion_lon": 0.0}, {"lat": 38.924606833333335, "is_disabled": 0, "type": "electric_bike", "lon": -77.208457, "bike_id": "121381da1398913e580a35af41561d18", "fusion_lat": 0.0, "name": "121381da1398913e580a35af41561d18", "is_reserved": 0, "rental_uris": {"android": "https://dc.lft.to/lastmile_qr_scan", "ios": "https://dc.lft.to/lastmile_qr_scan"}, "fusion_lon": 0.0}, {"lat": 38.92711666666667, "is_disabled": 0, "type": "electric_scooter", "lon": -77.0210255, "bike_id": "745a0f7448c28bedc102cc982cee0ae1", "fusion_lat": 0.0, "name": "745a0f7448c28bedc102cc982cee0ae1", "is_reserved": 0, "rental_uris": {"android": "https://dc.lft.to/lastmile_qr_scan", "ios": "https://dc.lft.to/lastmile_qr_scan"}, "fusion_lon": 0.0}, {"lat": 38.9224345, "is_disabled": 0, "type": "electric_scooter", "lon": -76.99384683333334, "bike_id": "adb347e3595833a67c837ab19a8ae388", "fusion_lat": 0.0, "name": "adb347e3595833a67c837ab19a8ae388", "is_reserved": 0, "rental_uris": {"android": "https://dc.lft.to/lastmile_qr_scan", "ios": "https://dc.lft.to/lastmile_qr_scan"}, "fusion_lon": 0.0}, {"lat": 38.92612916666667, "is_disabled": 0, "type": "electric_scooter", "lon": -77.03732783333334, "bike_id": "e1a8b207373a78c742c6edef1efd6e9b", "fusion_lat": 0.0, "name": "e1a8b207373a78c742c6edef1efd6e9b", "is_reserved": 0, "rental_uris": {"android": "https://dc.lft.to/lastmile_qr_scan", "ios": "https://dc.lft.to/lastmile_qr_scan"}, "fusion_lon": 0.0}, {"lat": 38.95277216666667, "is_disabled": 0, "type": "electric_scooter", "lon": -77.03653766666666, "bike_id": "9f65a4e4024fec72e5e9667be2a57e32", "fusion_lat": 0.0, "name": "9f65a4e4024fec72e5e9667be2a57e32", "is_reserved": 0, "rental_uris": {"android": "https://dc.lft.to/lastmile_qr_scan", "ios": "https://dc.lft.to/lastmile_qr_scan"}, "fusion_lon": 0.0}, {"lat": 38.94461833333333, "is_disabled": 0, "type": "electric_scooter", "lon": -77.06040916666667, "bike_id": "fa4825c28ade03165dd60d8ac73e1b4d", "fusion_lat": 0.0, "name": "fa4825c28ade03165dd60d8ac73e1b4d", "is_reserved": 0, "rental_uris": {"android": "https://dc.lft.to/lastmile_qr_scan", "ios": "https://dc.lft.to/lastmile_qr_scan"}, "fusion_lon": 0.0}, {"lat": 38.89092133333333, "is_disabled": 0, "type": "electric_scooter", "lon": -76.9430405, "bike_id": "f1e76396ded78db4ce98e008e164f7e9", "fusion_lat": 0.0, "name": "f1e76396ded78db4ce98e008e164f7e9", "is_reserved": 0, "rental_uris": {"android": "https://dc.lft.to/lastmile_qr_scan", "ios": "https://dc.lft.to/lastmile_qr_scan"}, "fusion_lon": 0.0}, {"lat": 38.8580695, "is_disabled": 0, "type": "electric_scooter", "lon": -76.98653383333334, "bike_id": "9fcb5578658a979fee54e25813758cf9", "fusion_lat": 0.0, "name": "9fcb5578658a979fee54e25813758cf9", "is_reserved": 0, "rental_uris": {"android": "https://dc.lft.to/lastmile_qr_scan", "ios": "https://dc.lft.to/lastmile_qr_scan"}, "fusion_lon": 0.0}, {"lat": 38.90437716666667, "is_disabled": 0, "type": "electric_scooter", "lon": -77.06277866666667, "bike_id": "377323a6c63ca99f7515ac81ff27f73b", "fusion_lat": 0.0, "name": "377323a6c63ca99f7515ac81ff27f73b", "is_reserved": 0, "rental_uris": {"android": "https://dc.lft.to/lastmile_qr_scan", "ios": "https://dc.lft.to/lastmile_qr_scan"}, "fusion_lon": 0.0}, {"lat": 38.87744816666667, "is_disabled": 0, "type": "electric_bike", "lon": -76.99522216666666, "bike_id": "83a4f38cdf0e1686bdb721fdf1e3c461", "fusion_lat": 0.0, "name": "83a4f38cdf0e1686bdb721fdf1e3c461", "is_reserved": 0, "rental_uris": {"android": "https://dc.lft.to/lastmile_qr_scan", "ios": "https://dc.lft.to/lastmile_qr_scan"}, "fusion_lon": 0.0}, {"lat": 38.9191745, "is_disabled": 0, "type": "electric_scooter", "lon": -77.0311995, "bike_id": "89c7b31782649c77caccee7d33fa15a0", "fusion_lat": 0.0, "name": "89c7b31782649c77caccee7d33fa15a0", "is_reserved": 0, "rental_uris": {"android": "https://dc.lft.to/lastmile_qr_scan", "ios": "https://dc.lft.to/lastmile_qr_scan"}, "fusion_lon": 0.0}, {"lat": 38.850471166666665, "is_disabled": 0, "type": "electric_bike", "lon": -76.97320583333334, "bike_id": "119fc252b85dd70f9321850f762c5646", "fusion_lat": 0.0, "name": "119fc252b85dd70f9321850f762c5646", "is_reserved": 0, "rental_uris": {"android": "https://dc.lft.to/lastmile_qr_scan", "ios": "https://dc.lft.to/lastmile_qr_scan"}, "fusion_lon": 0.0}, {"lat": 38.906634, "is_disabled": 0, "type": "electric_scooter", "lon": -77.03755683333333, "bike_id": "85932c1fb7c993bb1d0664b81244c11d", "fusion_lat": 0.0, "name": "85932c1fb7c993bb1d0664b81244c11d", "is_reserved": 0, "rental_uris": {"android": "https://dc.lft.to/lastmile_qr_scan", "ios": "https://dc.lft.to/lastmile_qr_scan"}, "fusion_lon": 0.0}, {"lat": 38.9127415, "is_disabled": 0, "type": "electric_scooter", "lon": -77.0227125, "bike_id": "7c1d55e2cee52763606e4d3c3929faec", "fusion_lat": 0.0, "name": "7c1d55e2cee52763606e4d3c3929faec", "is_reserved": 0, "rental_uris": {"android": "https://dc.lft.to/lastmile_qr_scan", "ios": "https://dc.lft.to/lastmile_qr_scan"}, "fusion_lon": 0.0}, {"lat": 38.918651, "is_disabled": 0, "type": "electric_scooter", "lon": -77.04111083333333, "bike_id": "60b724edd2e6506178914fbcad901d45", "fusion_lat": 0.0, "name": "60b724edd2e6506178914fbcad901d45", "is_reserved": 0, "rental_uris": {"android": "https://dc.lft.to/lastmile_qr_scan", "ios": "https://dc.lft.to/lastmile_qr_scan"}, "fusion_lon": 0.0}, {"lat": 38.936033, "is_disabled": 0, "type": "electric_scooter", "lon": -77.05894383333333, "bike_id": "c3f76c8eb25f14beb30844ab55a66947", "fusion_lat": 0.0, "name": "c3f76c8eb25f14beb30844ab55a66947", "is_reserved": 0, "rental_uris": {"android": "https://dc.lft.to/lastmile_qr_scan", "ios": "https://dc.lft.to/lastmile_qr_scan"}, "fusion_lon": 0.0}, {"lat": 38.9122025, "is_disabled": 0, "type": "electric_scooter", "lon": -77.0318635, "bike_id": "bde425a3883804b70468f291b6bbfcdb", "fusion_lat": 0.0, "name": "bde425a3883804b70468f291b6bbfcdb", "is_reserved": 0, "rental_uris": {"android": "https://dc.lft.to/lastmile_qr_scan", "ios": "https://dc.lft.to/lastmile_qr_scan"}, "fusion_lon": 0.0}, {"lat": 38.89735066666667, "is_disabled": 0, "type": "electric_scooter", "lon": -77.04776666666666, "bike_id": "914c00343b87e80351a289581d8ffb8e", "fusion_lat": 0.0, "name": "914c00343b87e80351a289581d8ffb8e", "is_reserved": 0, "rental_uris": {"android": "https://dc.lft.to/lastmile_qr_scan", "ios": "https://dc.lft.to/lastmile_qr_scan"}, "fusion_lon": 0.0}, {"lat": 38.89882033333333, "is_disabled": 0, "type": "electric_scooter", "lon": -76.93177833333333, "bike_id": "1016c6204995ca7989716632eb6690eb", "fusion_lat": 0.0, "name": "1016c6204995ca7989716632eb6690eb", "is_reserved": 0, "rental_uris": {"android": "https://dc.lft.to/lastmile_qr_scan", "ios": "https://dc.lft.to/lastmile_qr_scan"}, "fusion_lon": 0.0}, {"lat": 38.921153833333335, "is_disabled": 0, "type": "electric_scooter", "lon": -77.04386083333333, "bike_id": "ce328d327a4797cbe4a094da101f42aa", "fusion_lat": 0.0, "name": "ce328d327a4797cbe4a094da101f42aa", "is_reserved": 0, "rental_uris": {"android": "https://dc.lft.to/lastmile_qr_scan", "ios": "https://dc.lft.to/lastmile_qr_scan"}, "fusion_lon": 0.0}, {"lat": 38.90035016666667, "is_disabled": 0, "type": "electric_scooter", "lon": -77.0259455, "bike_id": "061d7d262b12cac2a75878fd71860143", "fusion_lat": 0.0, "name": "061d7d262b12cac2a75878fd71860143", "is_reserved": 0, "rental_uris": {"android": "https://dc.lft.to/lastmile_qr_scan", "ios": "https://dc.lft.to/lastmile_qr_scan"}, "fusion_lon": 0.0}, {"lat": 38.9117605, "is_disabled": 0, "type": "electric_bike", "lon": -77.04670566666667, "bike_id": "53b6550ea67002093f0de2b414200313", "fusion_lat": 0.0, "name": "53b6550ea67002093f0de2b414200313", "is_reserved": 0, "rental_uris": {"android": "https://dc.lft.to/lastmile_qr_scan", "ios": "https://dc.lft.to/lastmile_qr_scan"}, "fusion_lon": 0.0}, {"lat": 38.922405166666664, "is_disabled": 0, "type": "electric_scooter", "lon": -77.045812, "bike_id": "80b1e9c60b2a7fb30afe458464e41a0f", "fusion_lat": 0.0, "name": "80b1e9c60b2a7fb30afe458464e41a0f", "is_reserved": 0, "rental_uris": {"android": "https://dc.lft.to/lastmile_qr_scan", "ios": "https://dc.lft.to/lastmile_qr_scan"}, "fusion_lon": 0.0}, {"lat": 38.908206166666666, "is_disabled": 0, "type": "electric_scooter", "lon": -77.06375216666666, "bike_id": "38d278da0fa18d7c296d61081596f2fb", "fusion_lat": 0.0, "name": "38d278da0fa18d7c296d61081596f2fb", "is_reserved": 0, "rental_uris": {"android": "https://dc.lft.to/lastmile_qr_scan", "ios": "https://dc.lft.to/lastmile_qr_scan"}, "fusion_lon": 0.0}, {"lat": 38.90115816666667, "is_disabled": 0, "type": "electric_scooter", "lon": -77.04981066666667, "bike_id": "47896f96fbeb19dc2787899c88284d80", "fusion_lat": 0.0, "name": "47896f96fbeb19dc2787899c88284d80", "is_reserved": 0, "rental_uris": {"android": "https://dc.lft.to/lastmile_qr_scan", "ios": "https://dc.lft.to/lastmile_qr_scan"}, "fusion_lon": 0.0}, {"lat": 38.84421283333333, "is_disabled": 0, "type": "electric_scooter", "lon": -76.997829, "bike_id": "1f76c93c20e321cdca86c29b88790c75", "fusion_lat": 0.0, "name": "1f76c93c20e321cdca86c29b88790c75", "is_reserved": 0, "rental_uris": {"android": "https://dc.lft.to/lastmile_qr_scan", "ios": "https://dc.lft.to/lastmile_qr_scan"}, "fusion_lon": 0.0}, {"lat": 38.89854316666667, "is_disabled": 0, "type": "electric_scooter", "lon": -77.02316633333334, "bike_id": "63affbc07a1689eb7fd8a33c51b25ade", "fusion_lat": 0.0, "name": "63affbc07a1689eb7fd8a33c51b25ade", "is_reserved": 0, "rental_uris": {"android": "https://dc.lft.to/lastmile_qr_scan", "ios": "https://dc.lft.to/lastmile_qr_scan"}, "fusion_lon": 0.0}, {"lat": 38.912647, "is_disabled": 0, "type": "electric_scooter", "lon": -77.03239716666667, "bike_id": "0bec83607daed037e3797134a7144e0e", "fusion_lat": 0.0, "name": "0bec83607daed037e3797134a7144e0e", "is_reserved": 0, "rental_uris": {"android": "https://dc.lft.to/lastmile_qr_scan", "ios": "https://dc.lft.to/lastmile_qr_scan"}, "fusion_lon": 0.0}, {"lat": 38.873927333333334, "is_disabled": 0, "type": "electric_scooter", "lon": -77.0003385, "bike_id": "cb26e1f347e042b5666032b011b15fd5", "fusion_lat": 0.0, "name": "cb26e1f347e042b5666032b011b15fd5", "is_reserved": 0, "rental_uris": {"android": "https://dc.lft.to/lastmile_qr_scan", "ios": "https://dc.lft.to/lastmile_qr_scan"}, "fusion_lon": 0.0}, {"lat": 38.936541166666665, "is_disabled": 0, "type": "electric_bike", "lon": -76.9522565, "bike_id": "5d80986ed91765bdf43695f7dcb065d5", "fusion_lat": 0.0, "name": "5d80986ed91765bdf43695f7dcb065d5", "is_reserved": 0, "rental_uris": {"android": "https://dc.lft.to/lastmile_qr_scan", "ios": "https://dc.lft.to/lastmile_qr_scan"}, "fusion_lon": 0.0}, {"lat": 38.905159833333336, "is_disabled": 0, "type": "electric_scooter", "lon": -77.02717433333333, "bike_id": "3cec033f3b6958c6c9aa9250dba91b8e", "fusion_lat": 0.0, "name": "3cec033f3b6958c6c9aa9250dba91b8e", "is_reserved": 0, "rental_uris": {"android": "https://dc.lft.to/lastmile_qr_scan", "ios": "https://dc.lft.to/lastmile_qr_scan"}, "fusion_lon": 0.0}, {"lat": 38.900288333333336, "is_disabled": 0, "type": "electric_scooter", "lon": -76.99604833333333, "bike_id": "957d4dd8f431cd2c8312428906e9d444", "fusion_lat": 0.0, "name": "957d4dd8f431cd2c8312428906e9d444", "is_reserved": 0, "rental_uris": {"android": "https://dc.lft.to/lastmile_qr_scan", "ios": "https://dc.lft.to/lastmile_qr_scan"}, "fusion_lon": 0.0}, {"lat": 38.918959, "is_disabled": 0, "type": "electric_scooter", "lon": -77.039327, "bike_id": "74ffe3dc2a7e88bb24febf1c39ba2bb7", "fusion_lat": 0.0, "name": "74ffe3dc2a7e88bb24febf1c39ba2bb7", "is_reserved": 0, "rental_uris": {"android": "https://dc.lft.to/lastmile_qr_scan", "ios": "https://dc.lft.to/lastmile_qr_scan"}, "fusion_lon": 0.0}, {"lat": 39.03423, "is_disabled": 0, "type": "electric_bike", "lon": -77.04303166666666, "bike_id": "9f7e639702f1856b4ec2cf42f233af65", "fusion_lat": 0.0, "name": "9f7e639702f1856b4ec2cf42f233af65", "is_reserved": 0, "rental_uris": {"android": "https://dc.lft.to/lastmile_qr_scan", "ios": "https://dc.lft.to/lastmile_qr_scan"}, "fusion_lon": 0.0}, {"lat": 38.91644083333333, "is_disabled": 0, "type": "electric_scooter", "lon": -76.98228316666666, "bike_id": "d03c2db2f9fd4046f9c2673004515bac", "fusion_lat": 0.0, "name": "d03c2db2f9fd4046f9c2673004515bac", "is_reserved": 0, "rental_uris": {"android": "https://dc.lft.to/lastmile_qr_scan", "ios": "https://dc.lft.to/lastmile_qr_scan"}, "fusion_lon": 0.0}, {"lat": 38.897632, "is_disabled": 0, "type": "electric_scooter", "lon": -77.0317095, "bike_id": "f6ada3a2841229c072233d0a3783284f", "fusion_lat": 0.0, "name": "f6ada3a2841229c072233d0a3783284f", "is_reserved": 0, "rental_uris": {"android": "https://dc.lft.to/lastmile_qr_scan", "ios": "https://dc.lft.to/lastmile_qr_scan"}, "fusion_lon": 0.0}, {"lat": 38.87359383333333, "is_disabled": 0, "type": "electric_scooter", "lon": -77.00882633333333, "bike_id": "467479f42069ac06143fa9046d3c6582", "fusion_lat": 0.0, "name": "467479f42069ac06143fa9046d3c6582", "is_reserved": 0, "rental_uris": {"android": "https://dc.lft.to/lastmile_qr_scan", "ios": "https://dc.lft.to/lastmile_qr_scan"}, "fusion_lon": 0.0}, {"lat": 38.92934483333333, "is_disabled": 0, "type": "electric_scooter", "lon": -77.03286933333334, "bike_id": "68512a4a50a5788d744d8ebce0223db9", "fusion_lat": 0.0, "name": "68512a4a50a5788d744d8ebce0223db9", "is_reserved": 0, "rental_uris": {"android": "https://dc.lft.to/lastmile_qr_scan", "ios": "https://dc.lft.to/lastmile_qr_scan"}, "fusion_lon": 0.0}, {"lat": 38.85189033333333, "is_disabled": 0, "type": "electric_scooter", "lon": -76.97623, "bike_id": "326673b7212427a36001e6ac95280cf9", "fusion_lat": 0.0, "name": "326673b7212427a36001e6ac95280cf9", "is_reserved": 0, "rental_uris": {"android": "https://dc.lft.to/lastmile_qr_scan", "ios": "https://dc.lft.to/lastmile_qr_scan"}, "fusion_lon": 0.0}, {"lat": 38.90108033333333, "is_disabled": 0, "type": "electric_scooter", "lon": -77.04879783333334, "bike_id": "f109b53d7bec925eff707acab387707b", "fusion_lat": 0.0, "name": "f109b53d7bec925eff707acab387707b", "is_reserved": 0, "rental_uris": {"android": "https://dc.lft.to/lastmile_qr_scan", "ios": "https://dc.lft.to/lastmile_qr_scan"}, "fusion_lon": 0.0}, {"lat": 38.919658166666665, "is_disabled": 0, "type": "electric_scooter", "lon": -77.02317366666666, "bike_id": "7355db75e6491d07a148b98f6b72939a", "fusion_lat": 0.0, "name": "7355db75e6491d07a148b98f6b72939a", "is_reserved": 0, "rental_uris": {"android": "https://dc.lft.to/lastmile_qr_scan", "ios": "https://dc.lft.to/lastmile_qr_scan"}, "fusion_lon": 0.0}, {"lat": 38.9732415, "is_disabled": 0, "type": "electric_bike", "lon": -77.02154833333333, "bike_id": "1d7b5880d20b82ed5ed86f043876abd4", "fusion_lat": 0.0, "name": "1d7b5880d20b82ed5ed86f043876abd4", "is_reserved": 0, "rental_uris": {"android": "https://dc.lft.to/lastmile_qr_scan", "ios": "https://dc.lft.to/lastmile_qr_scan"}, "fusion_lon": 0.0}, {"lat": 38.909605, "is_disabled": 0, "type": "electric_scooter", "lon": -77.04033233333334, "bike_id": "a184aca3e28bc27f1ec6b1e75cdf1575", "fusion_lat": 0.0, "name": "a184aca3e28bc27f1ec6b1e75cdf1575", "is_reserved": 0, "rental_uris": {"android": "https://dc.lft.to/lastmile_qr_scan", "ios": "https://dc.lft.to/lastmile_qr_scan"}, "fusion_lon": 0.0}, {"lat": 38.91105983333333, "is_disabled": 0, "type": "electric_scooter", "lon": -77.04507383333333, "bike_id": "96997cc5fa33a48b01112d87a172ea26", "fusion_lat": 0.0, "name": "96997cc5fa33a48b01112d87a172ea26", "is_reserved": 0, "rental_uris": {"android": "https://dc.lft.to/lastmile_qr_scan", "ios": "https://dc.lft.to/lastmile_qr_scan"}, "fusion_lon": 0.0}, {"lat": 38.941178666666666, "is_disabled": 0, "type": "electric_scooter", "lon": -77.02345, "bike_id": "0e0b2a5eb8d2c15866220fc05be07eaf", "fusion_lat": 0.0, "name": "0e0b2a5eb8d2c15866220fc05be07eaf", "is_reserved": 0, "rental_uris": {"android": "https://dc.lft.to/lastmile_qr_scan", "ios": "https://dc.lft.to/lastmile_qr_scan"}, "fusion_lon": 0.0}, {"lat": 38.93567433333333, "is_disabled": 0, "type": "electric_scooter", "lon": -77.03266983333333, "bike_id": "2e38e75499d9dc04411ad12dc3763e88", "fusion_lat": 0.0, "name": "2e38e75499d9dc04411ad12dc3763e88", "is_reserved": 0, "rental_uris": {"android": "https://dc.lft.to/lastmile_qr_scan", "ios": "https://dc.lft.to/lastmile_qr_scan"}, "fusion_lon": 0.0}, {"lat": 38.90477766666667, "is_disabled": 0, "type": "electric_scooter", "lon": -77.05734916666667, "bike_id": "5db773899355aaedbfe0374fcf1a788f", "fusion_lat": 0.0, "name": "5db773899355aaedbfe0374fcf1a788f", "is_reserved": 0, "rental_uris": {"android": "https://dc.lft.to/lastmile_qr_scan", "ios": "https://dc.lft.to/lastmile_qr_scan"}, "fusion_lon": 0.0}, {"lat": 38.932312333333336, "is_disabled": 0, "type": "electric_scooter", "lon": -77.04660133333333, "bike_id": "63d2be8440e9779dc578606f71ee680a", "fusion_lat": 0.0, "name": "63d2be8440e9779dc578606f71ee680a", "is_reserved": 0, "rental_uris": {"android": "https://dc.lft.to/lastmile_qr_scan", "ios": "https://dc.lft.to/lastmile_qr_scan"}, "fusion_lon": 0.0}, {"lat": 38.86268483333333, "is_disabled": 0, "type": "electric_scooter", "lon": -76.99252966666667, "bike_id": "ed60cb4bbed29bda1a88712d2a1a1ca7", "fusion_lat": 0.0, "name": "ed60cb4bbed29bda1a88712d2a1a1ca7", "is_reserved": 0, "rental_uris": {"android": "https://dc.lft.to/lastmile_qr_scan", "ios": "https://dc.lft.to/lastmile_qr_scan"}, "fusion_lon": 0.0}, {"lat": 38.9135955, "is_disabled": 0, "type": "electric_scooter", "lon": -77.04594416666667, "bike_id": "234bd3f4da4c3170aec8bb52f0afb4e6", "fusion_lat": 0.0, "name": "234bd3f4da4c3170aec8bb52f0afb4e6", "is_reserved": 0, "rental_uris": {"android": "https://dc.lft.to/lastmile_qr_scan", "ios": "https://dc.lft.to/lastmile_qr_scan"}, "fusion_lon": 0.0}, {"lat": 38.92166016666667, "is_disabled": 0, "type": "electric_scooter", "lon": -77.04246866666666, "bike_id": "6d3fafa984cf0db28a4c0c539a62d63a", "fusion_lat": 0.0, "name": "6d3fafa984cf0db28a4c0c539a62d63a", "is_reserved": 0, "rental_uris": {"android": "https://dc.lft.to/lastmile_qr_scan", "ios": "https://dc.lft.to/lastmile_qr_scan"}, "fusion_lon": 0.0}, {"lat": 38.896038833333336, "is_disabled": 0, "type": "electric_scooter", "lon": -77.0093145, "bike_id": "e32d85ac638bf4a0015c8604b319c105", "fusion_lat": 0.0, "name": "e32d85ac638bf4a0015c8604b319c105", "is_reserved": 0, "rental_uris": {"android": "https://dc.lft.to/lastmile_qr_scan", "ios": "https://dc.lft.to/lastmile_qr_scan"}, "fusion_lon": 0.0}, {"lat": 38.9023705, "is_disabled": 0, "type": "electric_scooter", "lon": -77.01915816666667, "bike_id": "1ad73808bfe12d79c891c40fd512c3fa", "fusion_lat": 0.0, "name": "1ad73808bfe12d79c891c40fd512c3fa", "is_reserved": 0, "rental_uris": {"android": "https://dc.lft.to/lastmile_qr_scan", "ios": "https://dc.lft.to/lastmile_qr_scan"}, "fusion_lon": 0.0}, {"lat": 38.908921166666666, "is_disabled": 0, "type": "electric_scooter", "lon": -77.04308583333334, "bike_id": "410f47c4557325a930794e06b1e61da6", "fusion_lat": 0.0, "name": "410f47c4557325a930794e06b1e61da6", "is_reserved": 0, "rental_uris": {"android": "https://dc.lft.to/lastmile_qr_scan", "ios": "https://dc.lft.to/lastmile_qr_scan"}, "fusion_lon": 0.0}, {"lat": 38.914195, "is_disabled": 0, "type": "electric_scooter", "lon": -77.03177183333334, "bike_id": "9608fd55c30f402461d30369d3d10bec", "fusion_lat": 0.0, "name": "9608fd55c30f402461d30369d3d10bec", "is_reserved": 0, "rental_uris": {"android": "https://dc.lft.to/lastmile_qr_scan", "ios": "https://dc.lft.to/lastmile_qr_scan"}, "fusion_lon": 0.0}, {"lat": 38.907728, "is_disabled": 0, "type": "electric_scooter", "lon": -77.003986, "bike_id": "fdf3c4817fbf53d7ba1d3447de238bdc", "fusion_lat": 0.0, "name": "fdf3c4817fbf53d7ba1d3447de238bdc", "is_reserved": 0, "rental_uris": {"android": "https://dc.lft.to/lastmile_qr_scan", "ios": "https://dc.lft.to/lastmile_qr_scan"}, "fusion_lon": 0.0}, {"lat": 38.89912016666667, "is_disabled": 0, "type": "electric_scooter", "lon": -77.03331933333334, "bike_id": "29b8f52198f77d2c1c6861650b458b25", "fusion_lat": 0.0, "name": "29b8f52198f77d2c1c6861650b458b25", "is_reserved": 0, "rental_uris": {"android": "https://dc.lft.to/lastmile_qr_scan", "ios": "https://dc.lft.to/lastmile_qr_scan"}, "fusion_lon": 0.0}, {"lat": 38.938573, "is_disabled": 0, "type": "electric_scooter", "lon": -77.026545, "bike_id": "8e571e0f110aaca9ef22f4620365f31c", "fusion_lat": 0.0, "name": "8e571e0f110aaca9ef22f4620365f31c", "is_reserved": 0, "rental_uris": {"android": "https://dc.lft.to/lastmile_qr_scan", "ios": "https://dc.lft.to/lastmile_qr_scan"}, "fusion_lon": 0.0}, {"lat": 38.89318883333333, "is_disabled": 0, "type": "electric_scooter", "lon": -76.93001033333333, "bike_id": "a2806afc2510525ab88f8fcc940d9286", "fusion_lat": 0.0, "name": "a2806afc2510525ab88f8fcc940d9286", "is_reserved": 0, "rental_uris": {"android": "https://dc.lft.to/lastmile_qr_scan", "ios": "https://dc.lft.to/lastmile_qr_scan"}, "fusion_lon": 0.0}, {"lat": 38.917079666666666, "is_disabled": 0, "type": "electric_scooter", "lon": -77.035079, "bike_id": "751e6b05294ff06bb38086e39a655086", "fusion_lat": 0.0, "name": "751e6b05294ff06bb38086e39a655086", "is_reserved": 0, "rental_uris": {"android": "https://dc.lft.to/lastmile_qr_scan", "ios": "https://dc.lft.to/lastmile_qr_scan"}, "fusion_lon": 0.0}, {"lat": 38.898496, "is_disabled": 0, "type": "electric_scooter", "lon": -77.04361316666666, "bike_id": "6d6699d7e71af6d46e1ef10ec84cfb5f", "fusion_lat": 0.0, "name": "6d6699d7e71af6d46e1ef10ec84cfb5f", "is_reserved": 0, "rental_uris": {"android": "https://dc.lft.to/lastmile_qr_scan", "ios": "https://dc.lft.to/lastmile_qr_scan"}, "fusion_lon": 0.0}, {"lat": 38.89617583333333, "is_disabled": 0, "type": "electric_scooter", "lon": -76.998467, "bike_id": "7f5b0ba28b6eb2b64a1fc1f29fa61699", "fusion_lat": 0.0, "name": "7f5b0ba28b6eb2b64a1fc1f29fa61699", "is_reserved": 0, "rental_uris": {"android": "https://dc.lft.to/lastmile_qr_scan", "ios": "https://dc.lft.to/lastmile_qr_scan"}, "fusion_lon": 0.0}, {"lat": 39.0340215, "is_disabled": 0, "type": "electric_bike", "lon": -77.04222833333333, "bike_id": "d13fecc9c348edfe48215e3be6e86aed", "fusion_lat": 0.0, "name": "d13fecc9c348edfe48215e3be6e86aed", "is_reserved": 0, "rental_uris": {"android": "https://dc.lft.to/lastmile_qr_scan", "ios": "https://dc.lft.to/lastmile_qr_scan"}, "fusion_lon": 0.0}, {"lat": 38.876282, "is_disabled": 0, "type": "electric_scooter", "lon": -76.965268, "bike_id": "6c49bd56fe5d6b2b1ea4c8de5b7acad2", "fusion_lat": 0.0, "name": "6c49bd56fe5d6b2b1ea4c8de5b7acad2", "is_reserved": 0, "rental_uris": {"android": "https://dc.lft.to/lastmile_qr_scan", "ios": "https://dc.lft.to/lastmile_qr_scan"}, "fusion_lon": 0.0}, {"lat": 38.9169535, "is_disabled": 0, "type": "electric_scooter", "lon": -77.0331795, "bike_id": "a41dcbbde72e7547149e20750547c5b9", "fusion_lat": 0.0, "name": "a41dcbbde72e7547149e20750547c5b9", "is_reserved": 0, "rental_uris": {"android": "https://dc.lft.to/lastmile_qr_scan", "ios": "https://dc.lft.to/lastmile_qr_scan"}, "fusion_lon": 0.0}, {"lat": 38.9169275, "is_disabled": 0, "type": "electric_scooter", "lon": -77.03034166666667, "bike_id": "9e8779710ef00fe4f119f21f12efa5b5", "fusion_lat": 0.0, "name": "9e8779710ef00fe4f119f21f12efa5b5", "is_reserved": 0, "rental_uris": {"android": "https://dc.lft.to/lastmile_qr_scan", "ios": "https://dc.lft.to/lastmile_qr_scan"}, "fusion_lon": 0.0}, {"lat": 38.916837, "is_disabled": 0, "type": "electric_scooter", "lon": -77.02894266666667, "bike_id": "735258b6df88d332b26e3d6d372e085c", "fusion_lat": 0.0, "name": "735258b6df88d332b26e3d6d372e085c", "is_reserved": 0, "rental_uris": {"android": "https://dc.lft.to/lastmile_qr_scan", "ios": "https://dc.lft.to/lastmile_qr_scan"}, "fusion_lon": 0.0}, {"lat": 38.881311, "is_disabled": 0, "type": "electric_scooter", "lon": -76.98724866666667, "bike_id": "e5ea0fb9fc11acdd248ba216e251068c", "fusion_lat": 0.0, "name": "e5ea0fb9fc11acdd248ba216e251068c", "is_reserved": 0, "rental_uris": {"android": "https://dc.lft.to/lastmile_qr_scan", "ios": "https://dc.lft.to/lastmile_qr_scan"}, "fusion_lon": 0.0}, {"lat": 38.928383833333335, "is_disabled": 0, "type": "electric_scooter", "lon": -77.05420483333333, "bike_id": "e0fdb9e68bff857a73f64cb7cc12adf1", "fusion_lat": 0.0, "name": "e0fdb9e68bff857a73f64cb7cc12adf1", "is_reserved": 0, "rental_uris": {"android": "https://dc.lft.to/lastmile_qr_scan", "ios": "https://dc.lft.to/lastmile_qr_scan"}, "fusion_lon": 0.0}, {"lat": 38.909857833333334, "is_disabled": 0, "type": "electric_scooter", "lon": -76.9974235, "bike_id": "6152a082a11c1d86fef2da77c8591d66", "fusion_lat": 0.0, "name": "6152a082a11c1d86fef2da77c8591d66", "is_reserved": 0, "rental_uris": {"android": "https://dc.lft.to/lastmile_qr_scan", "ios": "https://dc.lft.to/lastmile_qr_scan"}, "fusion_lon": 0.0}, {"lat": 38.91936783333333, "is_disabled": 0, "type": "electric_scooter", "lon": -77.041763, "bike_id": "baa840401ac78bdb9422e5c577676007", "fusion_lat": 0.0, "name": "baa840401ac78bdb9422e5c577676007", "is_reserved": 0, "rental_uris": {"android": "https://dc.lft.to/lastmile_qr_scan", "ios": "https://dc.lft.to/lastmile_qr_scan"}, "fusion_lon": 0.0}, {"lat": 38.93133566666667, "is_disabled": 0, "type": "electric_scooter", "lon": -77.021599, "bike_id": "c4c0f206ca6a6841474c41c887f54718", "fusion_lat": 0.0, "name": "c4c0f206ca6a6841474c41c887f54718", "is_reserved": 0, "rental_uris": {"android": "https://dc.lft.to/lastmile_qr_scan", "ios": "https://dc.lft.to/lastmile_qr_scan"}, "fusion_lon": 0.0}, {"lat": 38.906273166666665, "is_disabled": 0, "type": "electric_scooter", "lon": -77.00841666666666, "bike_id": "2d8b4c1ab4f67dbfe750f776c8796e9c", "fusion_lat": 0.0, "name": "2d8b4c1ab4f67dbfe750f776c8796e9c", "is_reserved": 0, "rental_uris": {"android": "https://dc.lft.to/lastmile_qr_scan", "ios": "https://dc.lft.to/lastmile_qr_scan"}, "fusion_lon": 0.0}, {"lat": 38.866558, "is_disabled": 0, "type": "electric_scooter", "lon": -76.9889795, "bike_id": "3629a2a74c7887a63ee94858188f2141", "fusion_lat": 0.0, "name": "3629a2a74c7887a63ee94858188f2141", "is_reserved": 0, "rental_uris": {"android": "https://dc.lft.to/lastmile_qr_scan", "ios": "https://dc.lft.to/lastmile_qr_scan"}, "fusion_lon": 0.0}, {"lat": 38.896434166666666, "is_disabled": 0, "type": "electric_scooter", "lon": -77.04686083333333, "bike_id": "3b7325398b0919c7c6eb1125ae3c7634", "fusion_lat": 0.0, "name": "3b7325398b0919c7c6eb1125ae3c7634", "is_reserved": 0, "rental_uris": {"android": "https://dc.lft.to/lastmile_qr_scan", "ios": "https://dc.lft.to/lastmile_qr_scan"}, "fusion_lon": 0.0}, {"lat": 38.906841166666666, "is_disabled": 0, "type": "electric_scooter", "lon": -77.06282633333333, "bike_id": "6c3e94df7861adeb0ee5c2778ba5b5ef", "fusion_lat": 0.0, "name": "6c3e94df7861adeb0ee5c2778ba5b5ef", "is_reserved": 0, "rental_uris": {"android": "https://dc.lft.to/lastmile_qr_scan", "ios": "https://dc.lft.to/lastmile_qr_scan"}, "fusion_lon": 0.0}, {"lat": 38.938426166666666, "is_disabled": 0, "type": "electric_scooter", "lon": -77.03390066666667, "bike_id": "0249c3a51a2595dfe9a9e01ba8fb55ca", "fusion_lat": 0.0, "name": "0249c3a51a2595dfe9a9e01ba8fb55ca", "is_reserved": 0, "rental_uris": {"android": "https://dc.lft.to/lastmile_qr_scan", "ios": "https://dc.lft.to/lastmile_qr_scan"}, "fusion_lon": 0.0}, {"lat": 38.9113985, "is_disabled": 0, "type": "electric_scooter", "lon": -77.0218545, "bike_id": "0a6573bc0d9530f4c37ce92048e552b8", "fusion_lat": 0.0, "name": "0a6573bc0d9530f4c37ce92048e552b8", "is_reserved": 0, "rental_uris": {"android": "https://dc.lft.to/lastmile_qr_scan", "ios": "https://dc.lft.to/lastmile_qr_scan"}, "fusion_lon": 0.0}, {"lat": 38.9130085, "is_disabled": 0, "type": "electric_scooter", "lon": -77.0321485, "bike_id": "1e60ed47bc2f948588c3be7bea8d0a93", "fusion_lat": 0.0, "name": "1e60ed47bc2f948588c3be7bea8d0a93", "is_reserved": 0, "rental_uris": {"android": "https://dc.lft.to/lastmile_qr_scan", "ios": "https://dc.lft.to/lastmile_qr_scan"}, "fusion_lon": 0.0}, {"lat": 38.88733633333333, "is_disabled": 0, "type": "electric_scooter", "lon": -77.02073416666667, "bike_id": "57f221fac062b2fa8ee48f3881a3b12e", "fusion_lat": 0.0, "name": "57f221fac062b2fa8ee48f3881a3b12e", "is_reserved": 0, "rental_uris": {"android": "https://dc.lft.to/lastmile_qr_scan", "ios": "https://dc.lft.to/lastmile_qr_scan"}, "fusion_lon": 0.0}, {"lat": 38.867068833333335, "is_disabled": 0, "type": "electric_scooter", "lon": -76.98730783333333, "bike_id": "8c076e02d264680c80eda925051c64be", "fusion_lat": 0.0, "name": "8c076e02d264680c80eda925051c64be", "is_reserved": 0, "rental_uris": {"android": "https://dc.lft.to/lastmile_qr_scan", "ios": "https://dc.lft.to/lastmile_qr_scan"}, "fusion_lon": 0.0}, {"lat": 38.884676, "is_disabled": 0, "type": "electric_scooter", "lon": -77.024234, "bike_id": "d07688514f889d881c695bf157ab3b00", "fusion_lat": 0.0, "name": "d07688514f889d881c695bf157ab3b00", "is_reserved": 0, "rental_uris": {"android": "https://dc.lft.to/lastmile_qr_scan", "ios": "https://dc.lft.to/lastmile_qr_scan"}, "fusion_lon": 0.0}, {"lat": 38.92510333333333, "is_disabled": 0, "type": "electric_scooter", "lon": -76.98570983333333, "bike_id": "8d299ee626bcc21e31b84721735268de", "fusion_lat": 0.0, "name": "8d299ee626bcc21e31b84721735268de", "is_reserved": 0, "rental_uris": {"android": "https://dc.lft.to/lastmile_qr_scan", "ios": "https://dc.lft.to/lastmile_qr_scan"}, "fusion_lon": 0.0}, {"lat": 38.91191233333333, "is_disabled": 0, "type": "electric_scooter", "lon": -77.04340233333333, "bike_id": "aae950c02ef647f4d7c8b3df441dc66d", "fusion_lat": 0.0, "name": "aae950c02ef647f4d7c8b3df441dc66d", "is_reserved": 0, "rental_uris": {"android": "https://dc.lft.to/lastmile_qr_scan", "ios": "https://dc.lft.to/lastmile_qr_scan"}, "fusion_lon": 0.0}, {"lat": 38.88737416666667, "is_disabled": 0, "type": "electric_scooter", "lon": -77.01538166666667, "bike_id": "6d7646b4b69e337aa3e4cd7727e7e7b5", "fusion_lat": 0.0, "name": "6d7646b4b69e337aa3e4cd7727e7e7b5", "is_reserved": 0, "rental_uris": {"android": "https://dc.lft.to/lastmile_qr_scan", "ios": "https://dc.lft.to/lastmile_qr_scan"}, "fusion_lon": 0.0}, {"lat": 38.905791, "is_disabled": 0, "type": "electric_scooter", "lon": -77.0435235, "bike_id": "3e75fa30080d14ea7557305819ae5deb", "fusion_lat": 0.0, "name": "3e75fa30080d14ea7557305819ae5deb", "is_reserved": 0, "rental_uris": {"android": "https://dc.lft.to/lastmile_qr_scan", "ios": "https://dc.lft.to/lastmile_qr_scan"}, "fusion_lon": 0.0}, {"lat": 38.921584333333335, "is_disabled": 0, "type": "electric_scooter", "lon": -77.04234666666666, "bike_id": "c9de82cd4cde4d703a4553e2e873d6f5", "fusion_lat": 0.0, "name": "c9de82cd4cde4d703a4553e2e873d6f5", "is_reserved": 0, "rental_uris": {"android": "https://dc.lft.to/lastmile_qr_scan", "ios": "https://dc.lft.to/lastmile_qr_scan"}, "fusion_lon": 0.0}, {"lat": 38.9178005, "is_disabled": 0, "type": "electric_scooter", "lon": -77.02262933333333, "bike_id": "4557e7ed0c18de10d5149783e92e0874", "fusion_lat": 0.0, "name": "4557e7ed0c18de10d5149783e92e0874", "is_reserved": 0, "rental_uris": {"android": "https://dc.lft.to/lastmile_qr_scan", "ios": "https://dc.lft.to/lastmile_qr_scan"}, "fusion_lon": 0.0}, {"lat": 38.908726, "is_disabled": 0, "type": "electric_scooter", "lon": -77.0434315, "bike_id": "4fb93721ee0ab844827e3e345d120c6b", "fusion_lat": 0.0, "name": "4fb93721ee0ab844827e3e345d120c6b", "is_reserved": 0, "rental_uris": {"android": "https://dc.lft.to/lastmile_qr_scan", "ios": "https://dc.lft.to/lastmile_qr_scan"}, "fusion_lon": 0.0}, {"lat": 38.92054783333333, "is_disabled": 0, "type": "electric_scooter", "lon": -77.03294883333334, "bike_id": "97f788d4ff7818a67cae9551821efabc", "fusion_lat": 0.0, "name": "97f788d4ff7818a67cae9551821efabc", "is_reserved": 0, "rental_uris": {"android": "https://dc.lft.to/lastmile_qr_scan", "ios": "https://dc.lft.to/lastmile_qr_scan"}, "fusion_lon": 0.0}, {"lat": 38.861592, "is_disabled": 0, "type": "electric_bike", "lon": -77.130959, "bike_id": "e11580ca0f6c697131895c7fdbff0f82", "fusion_lat": 0.0, "name": "e11580ca0f6c697131895c7fdbff0f82", "is_reserved": 0, "rental_uris": {"android": "https://dc.lft.to/lastmile_qr_scan", "ios": "https://dc.lft.to/lastmile_qr_scan"}, "fusion_lon": 0.0}, {"lat": 38.91798933333333, "is_disabled": 0, "type": "electric_scooter", "lon": -77.03646516666667, "bike_id": "6a6e23fe0e7d46ab850aa56277b1c49c", "fusion_lat": 0.0, "name": "6a6e23fe0e7d46ab850aa56277b1c49c", "is_reserved": 0, "rental_uris": {"android": "https://dc.lft.to/lastmile_qr_scan", "ios": "https://dc.lft.to/lastmile_qr_scan"}, "fusion_lon": 0.0}, {"lat": 38.88923583333333, "is_disabled": 0, "type": "electric_scooter", "lon": -76.97382866666666, "bike_id": "6e15907c0073c4a147a248b7f822a819", "fusion_lat": 0.0, "name": "6e15907c0073c4a147a248b7f822a819", "is_reserved": 0, "rental_uris": {"android": "https://dc.lft.to/lastmile_qr_scan", "ios": "https://dc.lft.to/lastmile_qr_scan"}, "fusion_lon": 0.0}, {"lat": 38.905434666666665, "is_disabled": 0, "type": "electric_scooter", "lon": -77.02203766666666, "bike_id": "abe763c6efced772f8198855524ba6ee", "fusion_lat": 0.0, "name": "abe763c6efced772f8198855524ba6ee", "is_reserved": 0, "rental_uris": {"android": "https://dc.lft.to/lastmile_qr_scan", "ios": "https://dc.lft.to/lastmile_qr_scan"}, "fusion_lon": 0.0}, {"lat": 38.906302833333335, "is_disabled": 0, "type": "electric_scooter", "lon": -77.06285666666666, "bike_id": "b4eb2e41b5f978a6fe08a280ee75ea66", "fusion_lat": 0.0, "name": "b4eb2e41b5f978a6fe08a280ee75ea66", "is_reserved": 0, "rental_uris": {"android": "https://dc.lft.to/lastmile_qr_scan", "ios": "https://dc.lft.to/lastmile_qr_scan"}, "fusion_lon": 0.0}, {"lat": 38.8754245, "is_disabled": 0, "type": "electric_scooter", "lon": -77.0053985, "bike_id": "55e7cb1c255f0426fa455247db41c2f3", "fusion_lat": 0.0, "name": "55e7cb1c255f0426fa455247db41c2f3", "is_reserved": 0, "rental_uris": {"android": "https://dc.lft.to/lastmile_qr_scan", "ios": "https://dc.lft.to/lastmile_qr_scan"}, "fusion_lon": 0.0}, {"lat": 38.881134333333335, "is_disabled": 0, "type": "electric_scooter", "lon": -76.98338666666666, "bike_id": "59b03cf02fcf1526c6aae9b2f9f83663", "fusion_lat": 0.0, "name": "59b03cf02fcf1526c6aae9b2f9f83663", "is_reserved": 0, "rental_uris": {"android": "https://dc.lft.to/lastmile_qr_scan", "ios": "https://dc.lft.to/lastmile_qr_scan"}, "fusion_lon": 0.0}, {"lat": 38.907369, "is_disabled": 0, "type": "electric_scooter", "lon": -77.0016835, "bike_id": "bc9be2c2aa146063da77f5df678435e2", "fusion_lat": 0.0, "name": "bc9be2c2aa146063da77f5df678435e2", "is_reserved": 0, "rental_uris": {"android": "https://dc.lft.to/lastmile_qr_scan", "ios": "https://dc.lft.to/lastmile_qr_scan"}, "fusion_lon": 0.0}, {"lat": 38.87139066666667, "is_disabled": 0, "type": "electric_bike", "lon": -76.9371195, "bike_id": "7987243ba22df51f5f81da034730d081", "fusion_lat": 0.0, "name": "7987243ba22df51f5f81da034730d081", "is_reserved": 0, "rental_uris": {"android": "https://dc.lft.to/lastmile_qr_scan", "ios": "https://dc.lft.to/lastmile_qr_scan"}, "fusion_lon": 0.0}, {"lat": 38.916261666666664, "is_disabled": 0, "type": "electric_scooter", "lon": -77.03288933333333, "bike_id": "3bf971fc6ddfee5f3bfbcc5bc15efa8c", "fusion_lat": 0.0, "name": "3bf971fc6ddfee5f3bfbcc5bc15efa8c", "is_reserved": 0, "rental_uris": {"android": "https://dc.lft.to/lastmile_qr_scan", "ios": "https://dc.lft.to/lastmile_qr_scan"}, "fusion_lon": 0.0}, {"lat": 38.9309625, "is_disabled": 0, "type": "electric_scooter", "lon": -77.0250665, "bike_id": "4a17273a22ac34b42ce8bd4ae93bbd83", "fusion_lat": 0.0, "name": "4a17273a22ac34b42ce8bd4ae93bbd83", "is_reserved": 0, "rental_uris": {"android": "https://dc.lft.to/lastmile_qr_scan", "ios": "https://dc.lft.to/lastmile_qr_scan"}, "fusion_lon": 0.0}, {"lat": 38.91170133333333, "is_disabled": 0, "type": "electric_bike", "lon": -77.002771, "bike_id": "c9936af6541eee63c2bcd44fcf1a0145", "fusion_lat": 0.0, "name": "c9936af6541eee63c2bcd44fcf1a0145", "is_reserved": 0, "rental_uris": {"android": "https://dc.lft.to/lastmile_qr_scan", "ios": "https://dc.lft.to/lastmile_qr_scan"}, "fusion_lon": 0.0}, {"lat": 38.86702483333333, "is_disabled": 0, "type": "electric_scooter", "lon": -76.9872845, "bike_id": "1fd370b2c49dfff7e6bdc13b3fe34ff2", "fusion_lat": 0.0, "name": "1fd370b2c49dfff7e6bdc13b3fe34ff2", "is_reserved": 0, "rental_uris": {"android": "https://dc.lft.to/lastmile_qr_scan", "ios": "https://dc.lft.to/lastmile_qr_scan"}, "fusion_lon": 0.0}, {"lat": 38.845601333333335, "is_disabled": 0, "type": "electric_bike", "lon": -77.09627416666666, "bike_id": "795431ca3979f89b752b8efb1d4ee812", "fusion_lat": 0.0, "name": "795431ca3979f89b752b8efb1d4ee812", "is_reserved": 0, "rental_uris": {"android": "https://dc.lft.to/lastmile_qr_scan", "ios": "https://dc.lft.to/lastmile_qr_scan"}, "fusion_lon": 0.0}, {"lat": 38.911091666666664, "is_disabled": 0, "type": "electric_scooter", "lon": -77.021684, "bike_id": "4c63f728352ed6406888cbe1cd935080", "fusion_lat": 0.0, "name": "4c63f728352ed6406888cbe1cd935080", "is_reserved": 0, "rental_uris": {"android": "https://dc.lft.to/lastmile_qr_scan", "ios": "https://dc.lft.to/lastmile_qr_scan"}, "fusion_lon": 0.0}, {"lat": 38.901589, "is_disabled": 0, "type": "electric_scooter", "lon": -77.0533145, "bike_id": "427881e14170b3ab8fa13e5a16ddeb7e", "fusion_lat": 0.0, "name": "427881e14170b3ab8fa13e5a16ddeb7e", "is_reserved": 0, "rental_uris": {"android": "https://dc.lft.to/lastmile_qr_scan", "ios": "https://dc.lft.to/lastmile_qr_scan"}, "fusion_lon": 0.0}, {"lat": 38.92708433333333, "is_disabled": 0, "type": "electric_scooter", "lon": -77.02104683333333, "bike_id": "6c7f6809a375ce8f1a18c7170c67427a", "fusion_lat": 0.0, "name": "6c7f6809a375ce8f1a18c7170c67427a", "is_reserved": 0, "rental_uris": {"android": "https://dc.lft.to/lastmile_qr_scan", "ios": "https://dc.lft.to/lastmile_qr_scan"}, "fusion_lon": 0.0}, {"lat": 38.899237666666664, "is_disabled": 0, "type": "electric_scooter", "lon": -77.040202, "bike_id": "b44454d1b5d7ed78eb76d702ac439666", "fusion_lat": 0.0, "name": "b44454d1b5d7ed78eb76d702ac439666", "is_reserved": 0, "rental_uris": {"android": "https://dc.lft.to/lastmile_qr_scan", "ios": "https://dc.lft.to/lastmile_qr_scan"}, "fusion_lon": 0.0}, {"lat": 38.898134666666664, "is_disabled": 0, "type": "electric_scooter", "lon": -77.03017383333334, "bike_id": "be70ff89cc7da8a37986a7b841910624", "fusion_lat": 0.0, "name": "be70ff89cc7da8a37986a7b841910624", "is_reserved": 0, "rental_uris": {"android": "https://dc.lft.to/lastmile_qr_scan", "ios": "https://dc.lft.to/lastmile_qr_scan"}, "fusion_lon": 0.0}, {"lat": 38.91046, "is_disabled": 0, "type": "electric_scooter", "lon": -77.038527, "bike_id": "4690831381587b9da6d91686668aa725", "fusion_lat": 0.0, "name": "4690831381587b9da6d91686668aa725", "is_reserved": 0, "rental_uris": {"android": "https://dc.lft.to/lastmile_qr_scan", "ios": "https://dc.lft.to/lastmile_qr_scan"}, "fusion_lon": 0.0}, {"lat": 38.90667716666667, "is_disabled": 0, "type": "electric_scooter", "lon": -76.989973, "bike_id": "8ed55bc16660633901a2aa27baa1e179", "fusion_lat": 0.0, "name": "8ed55bc16660633901a2aa27baa1e179", "is_reserved": 0, "rental_uris": {"android": "https://dc.lft.to/lastmile_qr_scan", "ios": "https://dc.lft.to/lastmile_qr_scan"}, "fusion_lon": 0.0}, {"lat": 38.90780016666667, "is_disabled": 0, "type": "electric_scooter", "lon": -77.00394783333333, "bike_id": "21cb10450f9dfd79a84527f0910fd026", "fusion_lat": 0.0, "name": "21cb10450f9dfd79a84527f0910fd026", "is_reserved": 0, "rental_uris": {"android": "https://dc.lft.to/lastmile_qr_scan", "ios": "https://dc.lft.to/lastmile_qr_scan"}, "fusion_lon": 0.0}, {"lat": 38.86108133333333, "is_disabled": 0, "type": "electric_scooter", "lon": -76.98379166666666, "bike_id": "b6e918acdd645b2b758ff44262833025", "fusion_lat": 0.0, "name": "b6e918acdd645b2b758ff44262833025", "is_reserved": 0, "rental_uris": {"android": "https://dc.lft.to/lastmile_qr_scan", "ios": "https://dc.lft.to/lastmile_qr_scan"}, "fusion_lon": 0.0}, {"lat": 38.9384985, "is_disabled": 0, "type": "electric_bike", "lon": -77.07237083333334, "bike_id": "fc6ed91bfcba044d90c21ad3d7b10c63", "fusion_lat": 0.0, "name": "fc6ed91bfcba044d90c21ad3d7b10c63", "is_reserved": 0, "rental_uris": {"android": "https://dc.lft.to/lastmile_qr_scan", "ios": "https://dc.lft.to/lastmile_qr_scan"}, "fusion_lon": 0.0}, {"lat": 38.93533766666667, "is_disabled": 0, "type": "electric_scooter", "lon": -77.03411566666666, "bike_id": "9f9e9810ce28517b9950d6309cf2b53e", "fusion_lat": 0.0, "name": "9f9e9810ce28517b9950d6309cf2b53e", "is_reserved": 0, "rental_uris": {"android": "https://dc.lft.to/lastmile_qr_scan", "ios": "https://dc.lft.to/lastmile_qr_scan"}, "fusion_lon": 0.0}, {"lat": 38.90718866666667, "is_disabled": 0, "type": "electric_scooter", "lon": -76.98934783333333, "bike_id": "38989dfea5089e2eb1b904ee55969403", "fusion_lat": 0.0, "name": "38989dfea5089e2eb1b904ee55969403", "is_reserved": 0, "rental_uris": {"android": "https://dc.lft.to/lastmile_qr_scan", "ios": "https://dc.lft.to/lastmile_qr_scan"}, "fusion_lon": 0.0}, {"lat": 38.92064333333333, "is_disabled": 0, "type": "electric_bike", "lon": -76.98371583333333, "bike_id": "f3f9c7088fd16a60da3bf8a717bad584", "fusion_lat": 0.0, "name": "f3f9c7088fd16a60da3bf8a717bad584", "is_reserved": 0, "rental_uris": {"android": "https://dc.lft.to/lastmile_qr_scan", "ios": "https://dc.lft.to/lastmile_qr_scan"}, "fusion_lon": 0.0}, {"lat": 38.93085383333333, "is_disabled": 0, "type": "electric_scooter", "lon": -77.07756583333334, "bike_id": "22e685c1d8121cfd8fad9f93b72985cb", "fusion_lat": 0.0, "name": "22e685c1d8121cfd8fad9f93b72985cb", "is_reserved": 0, "rental_uris": {"android": "https://dc.lft.to/lastmile_qr_scan", "ios": "https://dc.lft.to/lastmile_qr_scan"}, "fusion_lon": 0.0}, {"lat": 38.89618433333333, "is_disabled": 0, "type": "electric_scooter", "lon": -77.03012683333333, "bike_id": "edc5346881f51347baf9f92526bfc8ac", "fusion_lat": 0.0, "name": "edc5346881f51347baf9f92526bfc8ac", "is_reserved": 0, "rental_uris": {"android": "https://dc.lft.to/lastmile_qr_scan", "ios": "https://dc.lft.to/lastmile_qr_scan"}, "fusion_lon": 0.0}, {"lat": 38.8427675, "is_disabled": 0, "type": "electric_bike", "lon": -76.98848033333333, "bike_id": "f84af6271c060af813319a2ef0d166b1", "fusion_lat": 0.0, "name": "f84af6271c060af813319a2ef0d166b1", "is_reserved": 0, "rental_uris": {"android": "https://dc.lft.to/lastmile_qr_scan", "ios": "https://dc.lft.to/lastmile_qr_scan"}, "fusion_lon": 0.0}, {"lat": 38.89770933333333, "is_disabled": 0, "type": "electric_bike", "lon": -76.90436816666667, "bike_id": "853637e633b9eb26faf6d26c66871f17", "fusion_lat": 0.0, "name": "853637e633b9eb26faf6d26c66871f17", "is_reserved": 0, "rental_uris": {"android": "https://dc.lft.to/lastmile_qr_scan", "ios": "https://dc.lft.to/lastmile_qr_scan"}, "fusion_lon": 0.0}, {"lat": 38.91468866666666, "is_disabled": 0, "type": "electric_scooter", "lon": -77.00368733333333, "bike_id": "7f41237e1c18df8f6d10855e7df26b8a", "fusion_lat": 0.0, "name": "7f41237e1c18df8f6d10855e7df26b8a", "is_reserved": 0, "rental_uris": {"android": "https://dc.lft.to/lastmile_qr_scan", "ios": "https://dc.lft.to/lastmile_qr_scan"}, "fusion_lon": 0.0}, {"lat": 38.90427233333333, "is_disabled": 0, "type": "electric_scooter", "lon": -77.05340333333334, "bike_id": "7d9c0d241e1a5add033c73609dbf5b57", "fusion_lat": 0.0, "name": "7d9c0d241e1a5add033c73609dbf5b57", "is_reserved": 0, "rental_uris": {"android": "https://dc.lft.to/lastmile_qr_scan", "ios": "https://dc.lft.to/lastmile_qr_scan"}, "fusion_lon": 0.0}, {"lat": 38.956965833333335, "is_disabled": 0, "type": "electric_scooter", "lon": -77.07095533333333, "bike_id": "417b8edcb3fc0f09b04811cfd623ba02", "fusion_lat": 0.0, "name": "417b8edcb3fc0f09b04811cfd623ba02", "is_reserved": 0, "rental_uris": {"android": "https://dc.lft.to/lastmile_qr_scan", "ios": "https://dc.lft.to/lastmile_qr_scan"}, "fusion_lon": 0.0}, {"lat": 38.901589, "is_disabled": 0, "type": "electric_scooter", "lon": -76.986378, "bike_id": "1af47ed34d71e3377ff292175d98809c", "fusion_lat": 0.0, "name": "1af47ed34d71e3377ff292175d98809c", "is_reserved": 0, "rental_uris": {"android": "https://dc.lft.to/lastmile_qr_scan", "ios": "https://dc.lft.to/lastmile_qr_scan"}, "fusion_lon": 0.0}, {"lat": 38.91681483333333, "is_disabled": 0, "type": "electric_scooter", "lon": -77.0374055, "bike_id": "9e055a67d6309c4e5544770b12e1fb21", "fusion_lat": 0.0, "name": "9e055a67d6309c4e5544770b12e1fb21", "is_reserved": 0, "rental_uris": {"android": "https://dc.lft.to/lastmile_qr_scan", "ios": "https://dc.lft.to/lastmile_qr_scan"}, "fusion_lon": 0.0}, {"lat": 38.89233133333333, "is_disabled": 0, "type": "electric_scooter", "lon": -77.02785166666666, "bike_id": "ba96a29de67b7cad6778d0256caf1cf7", "fusion_lat": 0.0, "name": "ba96a29de67b7cad6778d0256caf1cf7", "is_reserved": 0, "rental_uris": {"android": "https://dc.lft.to/lastmile_qr_scan", "ios": "https://dc.lft.to/lastmile_qr_scan"}, "fusion_lon": 0.0}, {"lat": 38.903640833333334, "is_disabled": 0, "type": "electric_scooter", "lon": -77.040197, "bike_id": "832460d88d98d2419aa9fee55a045e10", "fusion_lat": 0.0, "name": "832460d88d98d2419aa9fee55a045e10", "is_reserved": 0, "rental_uris": {"android": "https://dc.lft.to/lastmile_qr_scan", "ios": "https://dc.lft.to/lastmile_qr_scan"}, "fusion_lon": 0.0}, {"lat": 38.90109966666667, "is_disabled": 0, "type": "electric_scooter", "lon": -77.0170895, "bike_id": "a0cdedd792e4639e256614ffdfd002e6", "fusion_lat": 0.0, "name": "a0cdedd792e4639e256614ffdfd002e6", "is_reserved": 0, "rental_uris": {"android": "https://dc.lft.to/lastmile_qr_scan", "ios": "https://dc.lft.to/lastmile_qr_scan"}, "fusion_lon": 0.0}, {"lat": 38.885126666666665, "is_disabled": 0, "type": "electric_scooter", "lon": -77.00281316666667, "bike_id": "b117c7dde8da79fe37969e0fe424f7c9", "fusion_lat": 0.0, "name": "b117c7dde8da79fe37969e0fe424f7c9", "is_reserved": 0, "rental_uris": {"android": "https://dc.lft.to/lastmile_qr_scan", "ios": "https://dc.lft.to/lastmile_qr_scan"}, "fusion_lon": 0.0}, {"lat": 38.9095285, "is_disabled": 0, "type": "electric_scooter", "lon": -77.03081366666666, "bike_id": "0bfc738ae4af40026b0ef239a5e97fbd", "fusion_lat": 0.0, "name": "0bfc738ae4af40026b0ef239a5e97fbd", "is_reserved": 0, "rental_uris": {"android": "https://dc.lft.to/lastmile_qr_scan", "ios": "https://dc.lft.to/lastmile_qr_scan"}, "fusion_lon": 0.0}, {"lat": 38.873725666666665, "is_disabled": 0, "type": "electric_scooter", "lon": -77.00052716666667, "bike_id": "f1f05690c0eb56227e4a67f35fd30145", "fusion_lat": 0.0, "name": "f1f05690c0eb56227e4a67f35fd30145", "is_reserved": 0, "rental_uris": {"android": "https://dc.lft.to/lastmile_qr_scan", "ios": "https://dc.lft.to/lastmile_qr_scan"}, "fusion_lon": 0.0}, {"lat": 38.92563783333333, "is_disabled": 0, "type": "electric_scooter", "lon": -77.05753416666667, "bike_id": "6640c035157ce602280d241bc4d17dda", "fusion_lat": 0.0, "name": "6640c035157ce602280d241bc4d17dda", "is_reserved": 0, "rental_uris": {"android": "https://dc.lft.to/lastmile_qr_scan", "ios": "https://dc.lft.to/lastmile_qr_scan"}, "fusion_lon": 0.0}, {"lat": 38.94133933333333, "is_disabled": 0, "type": "electric_scooter", "lon": -77.0761405, "bike_id": "d8a3505ff715a75dc7a5875756593e98", "fusion_lat": 0.0, "name": "d8a3505ff715a75dc7a5875756593e98", "is_reserved": 0, "rental_uris": {"android": "https://dc.lft.to/lastmile_qr_scan", "ios": "https://dc.lft.to/lastmile_qr_scan"}, "fusion_lon": 0.0}, {"lat": 38.92272883333333, "is_disabled": 0, "type": "electric_scooter", "lon": -77.042433, "bike_id": "1af4e36afcd6c8ff7cbda1b105ccf2d4", "fusion_lat": 0.0, "name": "1af4e36afcd6c8ff7cbda1b105ccf2d4", "is_reserved": 0, "rental_uris": {"android": "https://dc.lft.to/lastmile_qr_scan", "ios": "https://dc.lft.to/lastmile_qr_scan"}, "fusion_lon": 0.0}, {"lat": 38.96618866666667, "is_disabled": 0, "type": "electric_bike", "lon": -76.9767445, "bike_id": "488824d5b57ebf077d88de746412f761", "fusion_lat": 0.0, "name": "488824d5b57ebf077d88de746412f761", "is_reserved": 0, "rental_uris": {"android": "https://dc.lft.to/lastmile_qr_scan", "ios": "https://dc.lft.to/lastmile_qr_scan"}, "fusion_lon": 0.0}, {"lat": 38.93576733333333, "is_disabled": 0, "type": "electric_bike", "lon": -77.10689516666666, "bike_id": "8ce8c4ee8e9dc135bd256540fcc43a6a", "fusion_lat": 0.0, "name": "8ce8c4ee8e9dc135bd256540fcc43a6a", "is_reserved": 0, "rental_uris": {"android": "https://dc.lft.to/lastmile_qr_scan", "ios": "https://dc.lft.to/lastmile_qr_scan"}, "fusion_lon": 0.0}, {"lat": 38.927401333333336, "is_disabled": 0, "type": "electric_scooter", "lon": -77.02312716666667, "bike_id": "6b5ed5be64c00c540d5bcdb043395153", "fusion_lat": 0.0, "name": "6b5ed5be64c00c540d5bcdb043395153", "is_reserved": 0, "rental_uris": {"android": "https://dc.lft.to/lastmile_qr_scan", "ios": "https://dc.lft.to/lastmile_qr_scan"}, "fusion_lon": 0.0}, {"lat": 38.886893, "is_disabled": 0, "type": "electric_scooter", "lon": -76.99387783333333, "bike_id": "79af814283b7ac35f7e0ee5dcea9af71", "fusion_lat": 0.0, "name": "79af814283b7ac35f7e0ee5dcea9af71", "is_reserved": 0, "rental_uris": {"android": "https://dc.lft.to/lastmile_qr_scan", "ios": "https://dc.lft.to/lastmile_qr_scan"}, "fusion_lon": 0.0}, {"lat": 38.91793533333333, "is_disabled": 0, "type": "electric_scooter", "lon": -77.03198016666667, "bike_id": "6fbb5c6701d1ee618cf2958b2085402a", "fusion_lat": 0.0, "name": "6fbb5c6701d1ee618cf2958b2085402a", "is_reserved": 0, "rental_uris": {"android": "https://dc.lft.to/lastmile_qr_scan", "ios": "https://dc.lft.to/lastmile_qr_scan"}, "fusion_lon": 0.0}, {"lat": 38.89398533333333, "is_disabled": 0, "type": "electric_scooter", "lon": -77.0559025, "bike_id": "6bcd2a37a5c41abf35724ed77e98c5bc", "fusion_lat": 0.0, "name": "6bcd2a37a5c41abf35724ed77e98c5bc", "is_reserved": 0, "rental_uris": {"android": "https://dc.lft.to/lastmile_qr_scan", "ios": "https://dc.lft.to/lastmile_qr_scan"}, "fusion_lon": 0.0}, {"lat": 38.90248533333333, "is_disabled": 0, "type": "electric_scooter", "lon": -77.02058983333333, "bike_id": "d4cd3f50a7ee46762168816ef34b1403", "fusion_lat": 0.0, "name": "d4cd3f50a7ee46762168816ef34b1403", "is_reserved": 0, "rental_uris": {"android": "https://dc.lft.to/lastmile_qr_scan", "ios": "https://dc.lft.to/lastmile_qr_scan"}, "fusion_lon": 0.0}, {"lat": 38.914157333333335, "is_disabled": 0, "type": "electric_scooter", "lon": -77.03182416666667, "bike_id": "84a413a6155c9c6c4cef9913f6986226", "fusion_lat": 0.0, "name": "84a413a6155c9c6c4cef9913f6986226", "is_reserved": 0, "rental_uris": {"android": "https://dc.lft.to/lastmile_qr_scan", "ios": "https://dc.lft.to/lastmile_qr_scan"}, "fusion_lon": 0.0}, {"lat": 38.87145733333333, "is_disabled": 0, "type": "electric_bike", "lon": -76.93674066666667, "bike_id": "3c8aa7d608ee0e9cceecebd2feca081d", "fusion_lat": 0.0, "name": "3c8aa7d608ee0e9cceecebd2feca081d", "is_reserved": 0, "rental_uris": {"android": "https://dc.lft.to/lastmile_qr_scan", "ios": "https://dc.lft.to/lastmile_qr_scan"}, "fusion_lon": 0.0}, {"lat": 38.920316, "is_disabled": 0, "type": "electric_scooter", "lon": -77.04093666666667, "bike_id": "a6d086f1cc872ae5c0a5bd995dba0fb7", "fusion_lat": 0.0, "name": "a6d086f1cc872ae5c0a5bd995dba0fb7", "is_reserved": 0, "rental_uris": {"android": "https://dc.lft.to/lastmile_qr_scan", "ios": "https://dc.lft.to/lastmile_qr_scan"}, "fusion_lon": 0.0}, {"lat": 38.919766, "is_disabled": 0, "type": "electric_scooter", "lon": -77.01220383333333, "bike_id": "8c277ffc526e9d1272e5950e9f35e3d6", "fusion_lat": 0.0, "name": "8c277ffc526e9d1272e5950e9f35e3d6", "is_reserved": 0, "rental_uris": {"android": "https://dc.lft.to/lastmile_qr_scan", "ios": "https://dc.lft.to/lastmile_qr_scan"}, "fusion_lon": 0.0}, {"lat": 38.934055666666666, "is_disabled": 0, "type": "electric_scooter", "lon": -77.02039333333333, "bike_id": "3056aed3a0a40c0fb82c1a0813ff70b4", "fusion_lat": 0.0, "name": "3056aed3a0a40c0fb82c1a0813ff70b4", "is_reserved": 0, "rental_uris": {"android": "https://dc.lft.to/lastmile_qr_scan", "ios": "https://dc.lft.to/lastmile_qr_scan"}, "fusion_lon": 0.0}, {"lat": 38.92263966666667, "is_disabled": 0, "type": "electric_scooter", "lon": -77.02702033333334, "bike_id": "8bd595a2b072e2806e6008a048d2197f", "fusion_lat": 0.0, "name": "8bd595a2b072e2806e6008a048d2197f", "is_reserved": 0, "rental_uris": {"android": "https://dc.lft.to/lastmile_qr_scan", "ios": "https://dc.lft.to/lastmile_qr_scan"}, "fusion_lon": 0.0}, {"lat": 38.88881633333333, "is_disabled": 0, "type": "electric_scooter", "lon": -76.93157716666667, "bike_id": "091ea3153d32830939094c355b7998d8", "fusion_lat": 0.0, "name": "091ea3153d32830939094c355b7998d8", "is_reserved": 0, "rental_uris": {"android": "https://dc.lft.to/lastmile_qr_scan", "ios": "https://dc.lft.to/lastmile_qr_scan"}, "fusion_lon": 0.0}, {"lat": 38.94497366666667, "is_disabled": 0, "type": "electric_bike", "lon": -77.00681283333333, "bike_id": "55ca7bb304528d34d08c83398735cd79", "fusion_lat": 0.0, "name": "55ca7bb304528d34d08c83398735cd79", "is_reserved": 0, "rental_uris": {"android": "https://dc.lft.to/lastmile_qr_scan", "ios": "https://dc.lft.to/lastmile_qr_scan"}, "fusion_lon": 0.0}, {"lat": 38.944261833333336, "is_disabled": 0, "type": "electric_scooter", "lon": -77.06304766666666, "bike_id": "1b99b583588bbb1bd805f9964de16657", "fusion_lat": 0.0, "name": "1b99b583588bbb1bd805f9964de16657", "is_reserved": 0, "rental_uris": {"android": "https://dc.lft.to/lastmile_qr_scan", "ios": "https://dc.lft.to/lastmile_qr_scan"}, "fusion_lon": 0.0}, {"lat": 38.9094, "is_disabled": 0, "type": "electric_scooter", "lon": -77.04667633333334, "bike_id": "1c248bba9fde7a65dab03088dfb51afd", "fusion_lat": 0.0, "name": "1c248bba9fde7a65dab03088dfb51afd", "is_reserved": 0, "rental_uris": {"android": "https://dc.lft.to/lastmile_qr_scan", "ios": "https://dc.lft.to/lastmile_qr_scan"}, "fusion_lon": 0.0}, {"lat": 38.96621733333333, "is_disabled": 0, "type": "electric_scooter", "lon": -77.02003966666666, "bike_id": "d91fad181fdcd51a45fcb174a71db34e", "fusion_lat": 0.0, "name": "d91fad181fdcd51a45fcb174a71db34e", "is_reserved": 0, "rental_uris": {"android": "https://dc.lft.to/lastmile_qr_scan", "ios": "https://dc.lft.to/lastmile_qr_scan"}, "fusion_lon": 0.0}, {"lat": 38.896640833333336, "is_disabled": 0, "type": "electric_bike", "lon": -77.024659, "bike_id": "2c30a772107d29f9e7a09780263d789e", "fusion_lat": 0.0, "name": "2c30a772107d29f9e7a09780263d789e", "is_reserved": 0, "rental_uris": {"android": "https://dc.lft.to/lastmile_qr_scan", "ios": "https://dc.lft.to/lastmile_qr_scan"}, "fusion_lon": 0.0}, {"lat": 38.916877166666666, "is_disabled": 0, "type": "electric_scooter", "lon": -77.036381, "bike_id": "12dc7705c94624c166787c4b42225370", "fusion_lat": 0.0, "name": "12dc7705c94624c166787c4b42225370", "is_reserved": 0, "rental_uris": {"android": "https://dc.lft.to/lastmile_qr_scan", "ios": "https://dc.lft.to/lastmile_qr_scan"}, "fusion_lon": 0.0}, {"lat": 38.939599333333334, "is_disabled": 0, "type": "electric_scooter", "lon": -77.02752483333333, "bike_id": "1cef4bfb6e942857ef035c49864a9d1a", "fusion_lat": 0.0, "name": "1cef4bfb6e942857ef035c49864a9d1a", "is_reserved": 0, "rental_uris": {"android": "https://dc.lft.to/lastmile_qr_scan", "ios": "https://dc.lft.to/lastmile_qr_scan"}, "fusion_lon": 0.0}, {"lat": 38.91657633333333, "is_disabled": 0, "type": "electric_scooter", "lon": -77.043878, "bike_id": "9498ab04e4be0a9e1f26969dfc2c3491", "fusion_lat": 0.0, "name": "9498ab04e4be0a9e1f26969dfc2c3491", "is_reserved": 0, "rental_uris": {"android": "https://dc.lft.to/lastmile_qr_scan", "ios": "https://dc.lft.to/lastmile_qr_scan"}, "fusion_lon": 0.0}, {"lat": 38.8737075, "is_disabled": 0, "type": "electric_scooter", "lon": -77.00209033333333, "bike_id": "9345e19491073ebf54f5138c728a22a1", "fusion_lat": 0.0, "name": "9345e19491073ebf54f5138c728a22a1", "is_reserved": 0, "rental_uris": {"android": "https://dc.lft.to/lastmile_qr_scan", "ios": "https://dc.lft.to/lastmile_qr_scan"}, "fusion_lon": 0.0}, {"lat": 38.898497166666665, "is_disabled": 0, "type": "electric_scooter", "lon": -77.0291855, "bike_id": "750d367b3532232afbb9cc49c8fd5d23", "fusion_lat": 0.0, "name": "750d367b3532232afbb9cc49c8fd5d23", "is_reserved": 0, "rental_uris": {"android": "https://dc.lft.to/lastmile_qr_scan", "ios": "https://dc.lft.to/lastmile_qr_scan"}, "fusion_lon": 0.0}, {"lat": 38.899866333333335, "is_disabled": 0, "type": "electric_bike", "lon": -76.9812495, "bike_id": "0d2cb0be24e08e6b7bd9f6e5f779b8ec", "fusion_lat": 0.0, "name": "0d2cb0be24e08e6b7bd9f6e5f779b8ec", "is_reserved": 0, "rental_uris": {"android": "https://dc.lft.to/lastmile_qr_scan", "ios": "https://dc.lft.to/lastmile_qr_scan"}, "fusion_lon": 0.0}, {"lat": 38.92753066666667, "is_disabled": 0, "type": "electric_scooter", "lon": -77.00600733333333, "bike_id": "317542be65f9316642fbe18c6efb38c2", "fusion_lat": 0.0, "name": "317542be65f9316642fbe18c6efb38c2", "is_reserved": 0, "rental_uris": {"android": "https://dc.lft.to/lastmile_qr_scan", "ios": "https://dc.lft.to/lastmile_qr_scan"}, "fusion_lon": 0.0}, {"lat": 38.91105433333333, "is_disabled": 0, "type": "electric_scooter", "lon": -77.03838216666666, "bike_id": "b358daa525d1223c5fae962274c35671", "fusion_lat": 0.0, "name": "b358daa525d1223c5fae962274c35671", "is_reserved": 0, "rental_uris": {"android": "https://dc.lft.to/lastmile_qr_scan", "ios": "https://dc.lft.to/lastmile_qr_scan"}, "fusion_lon": 0.0}, {"lat": 38.912645, "is_disabled": 0, "type": "electric_scooter", "lon": -77.03144433333334, "bike_id": "c28bb4d12c8874fc072c9c91a0d1f3e2", "fusion_lat": 0.0, "name": "c28bb4d12c8874fc072c9c91a0d1f3e2", "is_reserved": 0, "rental_uris": {"android": "https://dc.lft.to/lastmile_qr_scan", "ios": "https://dc.lft.to/lastmile_qr_scan"}, "fusion_lon": 0.0}, {"lat": 38.90009533333333, "is_disabled": 0, "type": "electric_scooter", "lon": -76.92224333333333, "bike_id": "c84cae8522b036f3dd8a981e17bdabd3", "fusion_lat": 0.0, "name": "c84cae8522b036f3dd8a981e17bdabd3", "is_reserved": 0, "rental_uris": {"android": "https://dc.lft.to/lastmile_qr_scan", "ios": "https://dc.lft.to/lastmile_qr_scan"}, "fusion_lon": 0.0}, {"lat": 38.90681166666667, "is_disabled": 0, "type": "electric_scooter", "lon": -77.03538333333333, "bike_id": "72d973d9991955f81f2222eb2913956f", "fusion_lat": 0.0, "name": "72d973d9991955f81f2222eb2913956f", "is_reserved": 0, "rental_uris": {"android": "https://dc.lft.to/lastmile_qr_scan", "ios": "https://dc.lft.to/lastmile_qr_scan"}, "fusion_lon": 0.0}, {"lat": 38.925357166666664, "is_disabled": 0, "type": "electric_scooter", "lon": -77.0525315, "bike_id": "dd4abda16c6d011bf2a72c50d3cd1f07", "fusion_lat": 0.0, "name": "dd4abda16c6d011bf2a72c50d3cd1f07", "is_reserved": 0, "rental_uris": {"android": "https://dc.lft.to/lastmile_qr_scan", "ios": "https://dc.lft.to/lastmile_qr_scan"}, "fusion_lon": 0.0}, {"lat": 38.900821, "is_disabled": 0, "type": "electric_scooter", "lon": -77.00338316666667, "bike_id": "db87cf9fe5385eae4e246915e58d8c93", "fusion_lat": 0.0, "name": "db87cf9fe5385eae4e246915e58d8c93", "is_reserved": 0, "rental_uris": {"android": "https://dc.lft.to/lastmile_qr_scan", "ios": "https://dc.lft.to/lastmile_qr_scan"}, "fusion_lon": 0.0}, {"lat": 38.917826833333336, "is_disabled": 0, "type": "electric_bike", "lon": -76.97204416666666, "bike_id": "9562e5860577b0344fe4806c0a1dfa1a", "fusion_lat": 0.0, "name": "9562e5860577b0344fe4806c0a1dfa1a", "is_reserved": 0, "rental_uris": {"android": "https://dc.lft.to/lastmile_qr_scan", "ios": "https://dc.lft.to/lastmile_qr_scan"}, "fusion_lon": 0.0}, {"lat": 38.872398, "is_disabled": 0, "type": "electric_bike", "lon": -77.01178283333333, "bike_id": "669c82feb89effff0d7ed6882c76ec04", "fusion_lat": 0.0, "name": "669c82feb89effff0d7ed6882c76ec04", "is_reserved": 0, "rental_uris": {"android": "https://dc.lft.to/lastmile_qr_scan", "ios": "https://dc.lft.to/lastmile_qr_scan"}, "fusion_lon": 0.0}, {"lat": 38.8616285, "is_disabled": 0, "type": "electric_bike", "lon": -77.13152866666667, "bike_id": "bca687d3bbefe3e3b07e8585e1777201", "fusion_lat": 0.0, "name": "bca687d3bbefe3e3b07e8585e1777201", "is_reserved": 0, "rental_uris": {"android": "https://dc.lft.to/lastmile_qr_scan", "ios": "https://dc.lft.to/lastmile_qr_scan"}, "fusion_lon": 0.0}, {"lat": 38.90718533333333, "is_disabled": 0, "type": "electric_scooter", "lon": -76.99820933333334, "bike_id": "7cf9bd6c1681a92b53aa6e6a1ebaa665", "fusion_lat": 0.0, "name": "7cf9bd6c1681a92b53aa6e6a1ebaa665", "is_reserved": 0, "rental_uris": {"android": "https://dc.lft.to/lastmile_qr_scan", "ios": "https://dc.lft.to/lastmile_qr_scan"}, "fusion_lon": 0.0},