{"data": {"bikes": [{"bike_id": "b4f4e0553456d6551beaa3f4e33e8774", "fusion_lon": 0.0, "lon": -77.0350075, "name": "b4f4e0553456d6551beaa3f4e33e8774", "is_disabled": 0, "rental_uris": {"android": "https://dc.lft.to/lastmile_qr_scan", "ios": "https://dc.lft.to/lastmile_qr_scan"}, "type": "electric_scooter", "lat": 38.963896166666665, "is_reserved": 0, "fusion_lat": 0.0}, {"bike_id": "482121d3d81a21f2d0c7df9ef6ca3d04", "fusion_lon": 0.0, "lon": -77.01771933333333, "name": "482121d3d81a21f2d0c7df9ef6ca3d04", "is_disabled": 0, "rental_uris": {"android": "https://dc.lft.to/lastmile_qr_scan", "ios": "https://dc.lft.to/lastmile_qr_scan"}, "type": "electric_bike", "lat": 38.982714333333334, "is_reserved": 0, "fusion_lat": 0.0}, {"bike_id": "40c86449d4125a75279974ae47b53bfd", "fusion_lon": 0.0, "lon": -77.021655, "name": "40c86449d4125a75279974ae47b53bfd", "is_disabled": 0, "rental_uris": {"android": "https://dc.lft.to/lastmile_qr_scan", "ios": "https://dc.lft.to/lastmile_qr_scan"}, "type": "electric_scooter", "lat": 38.9469985, "is_reserved": 0, "fusion_lat": 0.0}, {"bike_id": "0d9d0ee9f5102040fdca53fec4cf218b", "fusion_lon": 0.0, "lon": -77.031706, "name": "0d9d0ee9f5102040fdca53fec4cf218b", "is_disabled": 0, "rental_uris": {"android": "https://dc.lft.to/lastmile_qr_scan", "ios": "https://dc.lft.to/lastmile_qr_scan"}, "type": "electric_scooter", "lat": 38.914091666666664, "is_reserved": 0, "fusion_lat": 0.0}, {"bike_id": "141b0e8b84b5616d044f0f6f29fd1a90", "fusion_lon": 0.0, "lon": -77.040938, "name": "141b0e8b84b5616d044f0f6f29fd1a90", "is_disabled": 0, "rental_uris": {"android": "https://dc.lft.to/lastmile_qr_scan", "ios": "https://dc.lft.to/lastmile_qr_scan"}, "type": "electric_scooter", "lat": 38.91778866666667, "is_reserved": 0, "fusion_lat": 0.0}, {"bike_id": "2858558abf5d53efa382357bda775bce", "fusion_lon": 0.0, "lon": -77.0295095, "name": "2858558abf5d53efa382357bda775bce", "is_disabled": 0, "rental_uris": {"android": "https://dc.lft.to/lastmile_qr_scan", "ios": "https://dc.lft.to/lastmile_qr_scan"}, "type": "electric_scooter", "lat": 38.90513716666667, "is_reserved": 0, "fusion_lat": 0.0}, {"bike_id": "ed1ba5f577ef1c19b5d3491e7019ee55", "fusion_lon": 0.0, "lon": -76.98195816666667, "name": "ed1ba5f577ef1c19b5d3491e7019ee55", "is_disabled": 0, "rental_uris": {"android": "https://dc.lft.to/lastmile_qr_scan", "ios": "https://dc.lft.to/lastmile_qr_scan"}, "type": "electric_bike", "lat": 38.985018, "is_reserved": 0, "fusion_lat": 0.0}, {"bike_id": "449e9d51c087db2d7fed8220b42ff3b4", "fusion_lon": 0.0, "lon": -76.97809233333334, "name": "449e9d51c087db2d7fed8220b42ff3b4", "is_disabled": 0, "rental_uris": {"android": "https://dc.lft.to/lastmile_qr_scan", "ios": "https://dc.lft.to/lastmile_qr_scan"}, "type": "electric_scooter", "lat": 38.8945445, "is_reserved": 0, "fusion_lat": 0.0}, {"bike_id": "1cd74e1e691faefe75204c509fe6d382", "fusion_lon": 0.0, "lon": -76.99763633333333, "name": "1cd74e1e691faefe75204c509fe6d382", "is_disabled": 0, "rental_uris": {"android": "https://dc.lft.to/lastmile_qr_scan", "ios": "https://dc.lft.to/lastmile_qr_scan"}, "type": "electric_scooter", "lat": 38.88766533333333, "is_reserved": 0, "fusion_lat": 0.0}, {"bike_id": "41998545eb49f8d5e66e268e55b5d058", "fusion_lon": 0.0, "lon": -77.02089116666667, "name": "41998545eb49f8d5e66e268e55b5d058", "is_disabled": 0, "rental_uris": {"android": "https://dc.lft.to/lastmile_qr_scan", "ios": "https://dc.lft.to/lastmile_qr_scan"}, "type": "electric_scooter", "lat": 38.94110116666667, "is_reserved": 0, "fusion_lat": 0.0}, {"bike_id": "7f9686004887bdd845b9d3e58bc1474f", "fusion_lon": 0.0, "lon": -77.018525, "name": "7f9686004887bdd845b9d3e58bc1474f", "is_disabled": 0, "rental_uris": {"android": "https://dc.lft.to/lastmile_qr_scan", "ios": "https://dc.lft.to/lastmile_qr_scan"}, "type": "electric_scooter", "lat": 38.903834833333335, "is_reserved": 0, "fusion_lat": 0.0}, {"bike_id": "fd820d27b090321917213bf1e5de9a14", "fusion_lon": 0.0, "lon": -76.94280666666667, "name": "fd820d27b090321917213bf1e5de9a14", "is_disabled": 0, "rental_uris": {"android": "https://dc.lft.to/lastmile_qr_scan", "ios": "https://dc.lft.to/lastmile_qr_scan"}, "type": "electric_bike", "lat": 38.879683166666666, "is_reserved": 0, "fusion_lat": 0.0}, {"bike_id": "072ea67002af680fa2aef06ec372c1f5", "fusion_lon": 0.0, "lon": -77.02324066666667, "name": "072ea67002af680fa2aef06ec372c1f5", "is_disabled": 0, "rental_uris": {"android": "https://dc.lft.to/lastmile_qr_scan", "ios": "https://dc.lft.to/lastmile_qr_scan"}, "type": "electric_scooter", "lat": 38.89715983333333, "is_reserved": 0, "fusion_lat": 0.0}, {"bike_id": "8bec0226a32347b2cd8c15935453f1e4", "fusion_lon": 0.0, "lon": -77.0685775, "name": "8bec0226a32347b2cd8c15935453f1e4", "is_disabled": 0, "rental_uris": {"android": "https://dc.lft.to/lastmile_qr_scan", "ios": "https://dc.lft.to/lastmile_qr_scan"}, "type": "electric_bike", "lat": 38.80574983333333, "is_reserved": 0, "fusion_lat": 0.0}, {"bike_id": "d4fd237dd6e88418f683fa99c18ab270", "fusion_lon": 0.0, "lon": -77.02720166666667, "name": "d4fd237dd6e88418f683fa99c18ab270", "is_disabled": 0, "rental_uris": {"android": "https://dc.lft.to/lastmile_qr_scan", "ios": "https://dc.lft.to/lastmile_qr_scan"}, "type": "electric_scooter", "lat": 38.9248365, "is_reserved": 0, "fusion_lat": 0.0}, {"bike_id": "bd7166028be930473a000f9c9aa693ac", "fusion_lon": 0.0, "lon": -77.04996166666666, "name": "bd7166028be930473a000f9c9aa693ac", "is_disabled": 0, "rental_uris": {"android": "https://dc.lft.to/lastmile_qr_scan", "ios": "https://dc.lft.to/lastmile_qr_scan"}, "type": "electric_scooter", "lat": 38.892285, "is_reserved": 0, "fusion_lat": 0.0}, {"bike_id": "c91a516f3cdc3d1561b94ac0fe3e08a6", "fusion_lon": 0.0, "lon": -77.016908, "name": "c91a516f3cdc3d1561b94ac0fe3e08a6", "is_disabled": 0, "rental_uris": {"android": "https://dc.lft.to/lastmile_qr_scan", "ios": "https://dc.lft.to/lastmile_qr_scan"}, "type": "electric_scooter", "lat": 38.90646133333333, "is_reserved": 0, "fusion_lat": 0.0}, {"bike_id": "5dc943936ec2e51f0f36bff77c310510", "fusion_lon": 0.0, "lon": -77.030004, "name": "5dc943936ec2e51f0f36bff77c310510", "is_disabled": 0, "rental_uris": {"android": "https://dc.lft.to/lastmile_qr_scan", "ios": "https://dc.lft.to/lastmile_qr_scan"}, "type": "electric_scooter", "lat": 38.916965833333336, "is_reserved": 0, "fusion_lat": 0.0}, {"bike_id": "6a229b49092aa0d00df160150068df62", "fusion_lon": 0.0, "lon": -77.021814, "name": "6a229b49092aa0d00df160150068df62", "is_disabled": 0, "rental_uris": {"android": "https://dc.lft.to/lastmile_qr_scan", "ios": "https://dc.lft.to/lastmile_qr_scan"}, "type": "electric_scooter", "lat": 38.914209, "is_reserved": 0, "fusion_lat": 0.0}, {"bike_id": "023e9813bc619708e9ecd8c5c4273b11", "fusion_lon": 0.0, "lon": -77.02346966666667, "name": "023e9813bc619708e9ecd8c5c4273b11", "is_disabled": 0, "rental_uris": {"android": "https://dc.lft.to/lastmile_qr_scan", "ios": "https://dc.lft.to/lastmile_qr_scan"}, "type": "electric_scooter", "lat": 38.90727583333333, "is_reserved": 0, "fusion_lat": 0.0}, {"bike_id": "9c1956985cac240e73245da987009361", "fusion_lon": 0.0, "lon": -76.99025316666666, "name": "9c1956985cac240e73245da987009361", "is_disabled": 0, "rental_uris": {"android": "https://dc.lft.to/lastmile_qr_scan", "ios": "https://dc.lft.to/lastmile_qr_scan"}, "type": "electric_scooter", "lat": 38.865296, "is_reserved": 0, "fusion_lat": 0.0}, {"bike_id": "1384c87fd1377effaf7f4b5e9ff4f358", "fusion_lon": 0.0, "lon": -77.12965716666666, "name": "1384c87fd1377effaf7f4b5e9ff4f358", "is_disabled": 0, "rental_uris": {"android": "https://dc.lft.to/lastmile_qr_scan", "ios": "https://dc.lft.to/lastmile_qr_scan"}, "type": "electric_bike", "lat": 38.852237833333334, "is_reserved": 0, "fusion_lat": 0.0}, {"bike_id": "8d7d4e57f492867811c6d9751a55b331", "fusion_lon": 0.0, "lon": -77.05522016666667, "name": "8d7d4e57f492867811c6d9751a55b331", "is_disabled": 0, "rental_uris": {"android": "https://dc.lft.to/lastmile_qr_scan", "ios": "https://dc.lft.to/lastmile_qr_scan"}, "type": "electric_scooter", "lat": 38.897341833333336, "is_reserved": 0, "fusion_lat": 0.0}, {"bike_id": "f2a370afed68cd7860401f379e6fff04", "fusion_lon": 0.0, "lon": -77.01479883333333, "name": "f2a370afed68cd7860401f379e6fff04", "is_disabled": 0, "rental_uris": {"android": "https://dc.lft.to/lastmile_qr_scan", "ios": "https://dc.lft.to/lastmile_qr_scan"}, "type": "electric_scooter", "lat": 38.8763405, "is_reserved": 0, "fusion_lat": 0.0}, {"bike_id": "57875d80f55c807255163eac18d4c72c", "fusion_lon": 0.0, "lon": -77.0310445, "name": "57875d80f55c807255163eac18d4c72c", "is_disabled": 0, "rental_uris": {"android": "https://dc.lft.to/lastmile_qr_scan", "ios": "https://dc.lft.to/lastmile_qr_scan"}, "type": "electric_scooter", "lat": 38.919286, "is_reserved": 0, "fusion_lat": 0.0}, {"bike_id": "e94b7fc4c284925d12ee11a745c4c502", "fusion_lon": 0.0, "lon": -77.03875483333333, "name": "e94b7fc4c284925d12ee11a745c4c502", "is_disabled": 0, "rental_uris": {"android": "https://dc.lft.to/lastmile_qr_scan", "ios": "https://dc.lft.to/lastmile_qr_scan"}, "type": "electric_scooter", "lat": 38.9170965, "is_reserved": 0, "fusion_lat": 0.0}, {"bike_id": "4954febc3c7f78cf58f99daf90b4d77e", "fusion_lon": 0.0, "lon": -77.03669416666666, "name": "4954febc3c7f78cf58f99daf90b4d77e", "is_disabled": 0, "rental_uris": {"android": "https://dc.lft.to/lastmile_qr_scan", "ios": "https://dc.lft.to/lastmile_qr_scan"}, "type": "electric_scooter", "lat": 38.917076333333334, "is_reserved": 0, "fusion_lat": 0.0}, {"bike_id": "b834ad987aa3741f66a459b0fc4654ea", "fusion_lon": 0.0, "lon": -77.03388616666666, "name": "b834ad987aa3741f66a459b0fc4654ea", "is_disabled": 0, "rental_uris": {"android": "https://dc.lft.to/lastmile_qr_scan", "ios": "https://dc.lft.to/lastmile_qr_scan"}, "type": "electric_scooter", "lat": 38.919697666666664, "is_reserved": 0, "fusion_lat": 0.0}, {"bike_id": "37aff3752fa303095fe3bb6477b73589", "fusion_lon": 0.0, "lon": -76.932267, "name": "37aff3752fa303095fe3bb6477b73589", "is_disabled": 0, "rental_uris": {"android": "https://dc.lft.to/lastmile_qr_scan", "ios": "https://dc.lft.to/lastmile_qr_scan"}, "type": "electric_bike", "lat": 38.86599416666667, "is_reserved": 0, "fusion_lat": 0.0}, {"bike_id": "9663042ddcdcde7b48710f3f18bdf608", "fusion_lon": 0.0, "lon": -77.03470833333333, "name": "9663042ddcdcde7b48710f3f18bdf608", "is_disabled": 0, "rental_uris": {"android": "https://dc.lft.to/lastmile_qr_scan", "ios": "https://dc.lft.to/lastmile_qr_scan"}, "type": "electric_bike", "lat": 38.935286833333336, "is_reserved": 0, "fusion_lat": 0.0}, {"bike_id": "f2f011d46ac5d9bb8f2a4523c90d71b6", "fusion_lon": 0.0, "lon": -77.01739383333333, "name": "f2f011d46ac5d9bb8f2a4523c90d71b6", "is_disabled": 0, "rental_uris": {"android": "https://dc.lft.to/lastmile_qr_scan", "ios": "https://dc.lft.to/lastmile_qr_scan"}, "type": "electric_scooter", "lat": 38.883349333333335, "is_reserved": 0, "fusion_lat": 0.0}, {"bike_id": "db266ca20255727eefa1b677632322ba", "fusion_lon": 0.0, "lon": -77.02871916666666, "name": "db266ca20255727eefa1b677632322ba", "is_disabled": 0, "rental_uris": {"android": "https://dc.lft.to/lastmile_qr_scan", "ios": "https://dc.lft.to/lastmile_qr_scan"}, "type": "electric_scooter", "lat": 38.904301833333335, "is_reserved": 0, "fusion_lat": 0.0}, {"bike_id": "2e140fc25e0be25a665fac869dca8b6f", "fusion_lon": 0.0, "lon": -77.0341655, "name": "2e140fc25e0be25a665fac869dca8b6f", "is_disabled": 0, "rental_uris": {"android": "https://dc.lft.to/lastmile_qr_scan", "ios": "https://dc.lft.to/lastmile_qr_scan"}, "type": "electric_scooter", "lat": 38.9192665, "is_reserved": 0, "fusion_lat": 0.0}, {"bike_id": "56bd5f3020908a70579772f41ee21a02", "fusion_lon": 0.0, "lon": -77.0459875, "name": "56bd5f3020908a70579772f41ee21a02", "is_disabled": 0, "rental_uris": {"android": "https://dc.lft.to/lastmile_qr_scan", "ios": "https://dc.lft.to/lastmile_qr_scan"}, "type": "electric_scooter", "lat": 38.91922866666667, "is_reserved": 0, "fusion_lat": 0.0}, {"bike_id": "bbe6b182eaa5473c0657e40231bd1cc2", "fusion_lon": 0.0, "lon": -77.04495416666667, "name": "bbe6b182eaa5473c0657e40231bd1cc2", "is_disabled": 0, "rental_uris": {"android": "https://dc.lft.to/lastmile_qr_scan", "ios": "https://dc.lft.to/lastmile_qr_scan"}, "type": "electric_scooter", "lat": 38.9034885, "is_reserved": 0, "fusion_lat": 0.0}, {"bike_id": "39dac6f31f1a5fedc7eab20d8b65c64b", "fusion_lon": 0.0, "lon": -77.0147175, "name": "39dac6f31f1a5fedc7eab20d8b65c64b", "is_disabled": 0, "rental_uris": {"android": "https://dc.lft.to/lastmile_qr_scan", "ios": "https://dc.lft.to/lastmile_qr_scan"}, "type": "electric_scooter", "lat": 38.9176855, "is_reserved": 0, "fusion_lat": 0.0}, {"bike_id": "fc89325956c29d80e21ed11213ef2944", "fusion_lon": 0.0, "lon": -77.027099, "name": "fc89325956c29d80e21ed11213ef2944", "is_disabled": 0, "rental_uris": {"android": "https://dc.lft.to/lastmile_qr_scan", "ios": "https://dc.lft.to/lastmile_qr_scan"}, "type": "electric_scooter", "lat": 38.91558366666667, "is_reserved": 0, "fusion_lat": 0.0}, {"bike_id": "9f1c3fbfad6eed70ae2e693349423e24", "fusion_lon": 0.0, "lon": -77.01773933333334, "name": "9f1c3fbfad6eed70ae2e693349423e24", "is_disabled": 0, "rental_uris": {"android": "https://dc.lft.to/lastmile_qr_scan", "ios": "https://dc.lft.to/lastmile_qr_scan"}, "type": "electric_scooter", "lat": 38.90078783333333, "is_reserved": 0, "fusion_lat": 0.0}, {"bike_id": "66204bd4b84693f58dc48c61313afa96", "fusion_lon": 0.0, "lon": -77.04144066666667, "name": "66204bd4b84693f58dc48c61313afa96", "is_disabled": 0, "rental_uris": {"android": "https://dc.lft.to/lastmile_qr_scan", "ios": "https://dc.lft.to/lastmile_qr_scan"}, "type": "electric_scooter", "lat": 38.92302983333333, "is_reserved": 0, "fusion_lat": 0.0}, {"bike_id": "0a46b872bdcdbb61a6a6c58b70e3d0fb", "fusion_lon": 0.0, "lon": -76.9934795, "name": "0a46b872bdcdbb61a6a6c58b70e3d0fb", "is_disabled": 0, "rental_uris": {"android": "https://dc.lft.to/lastmile_qr_scan", "ios": "https://dc.lft.to/lastmile_qr_scan"}, "type": "electric_scooter", "lat": 38.91482333333333, "is_reserved": 0, "fusion_lat": 0.0}, {"bike_id": "c2550461492c20e4aa37f9c5c285b434", "fusion_lon": 0.0, "lon": -77.0552285, "name": "c2550461492c20e4aa37f9c5c285b434", "is_disabled": 0, "rental_uris": {"android": "https://dc.lft.to/lastmile_qr_scan", "ios": "https://dc.lft.to/lastmile_qr_scan"}, "type": "electric_scooter", "lat": 38.930159, "is_reserved": 0, "fusion_lat": 0.0}, {"bike_id": "f76e2903a31610603a7bc3a518f9a904", "fusion_lon": 0.0, "lon": -77.03824483333334, "name": "f76e2903a31610603a7bc3a518f9a904", "is_disabled": 0, "rental_uris": {"android": "https://dc.lft.to/lastmile_qr_scan", "ios": "https://dc.lft.to/lastmile_qr_scan"}, "type": "electric_scooter", "lat": 38.90683083333333, "is_reserved": 0, "fusion_lat": 0.0}, {"bike_id": "c67bbc747a6eb94ab307a9a57c754e43", "fusion_lon": 0.0, "lon": -76.98106583333333, "name": "c67bbc747a6eb94ab307a9a57c754e43", "is_disabled": 0, "rental_uris": {"android": "https://dc.lft.to/lastmile_qr_scan", "ios": "https://dc.lft.to/lastmile_qr_scan"}, "type": "electric_bike", "lat": 38.87730966666667, "is_reserved": 0, "fusion_lat": 0.0}, {"bike_id": "e8ff1d5629c81cbc16b1937f7e29464d", "fusion_lon": 0.0, "lon": -77.0159375, "name": "e8ff1d5629c81cbc16b1937f7e29464d", "is_disabled": 0, "rental_uris": {"android": "https://dc.lft.to/lastmile_qr_scan", "ios": "https://dc.lft.to/lastmile_qr_scan"}, "type": "electric_scooter", "lat": 38.94938833333333, "is_reserved": 0, "fusion_lat": 0.0}, {"bike_id": "beaa853670cb3b5a6e2f564beff448e4", "fusion_lon": 0.0, "lon": -77.02418433333334, "name": "beaa853670cb3b5a6e2f564beff448e4", "is_disabled": 0, "rental_uris": {"android": "https://dc.lft.to/lastmile_qr_scan", "ios": "https://dc.lft.to/lastmile_qr_scan"}, "type": "electric_scooter", "lat": 38.93714766666667, "is_reserved": 0, "fusion_lat": 0.0}, {"bike_id": "ebf677d87c7ccfa6035fe524ee71c792", "fusion_lon": 0.0, "lon": -77.03846783333333, "name": "ebf677d87c7ccfa6035fe524ee71c792", "is_disabled": 0, "rental_uris": {"android": "https://dc.lft.to/lastmile_qr_scan", "ios": "https://dc.lft.to/lastmile_qr_scan"}, "type": "electric_scooter", "lat": 38.9154565, "is_reserved": 0, "fusion_lat": 0.0}, {"bike_id": "ebc79c687aa63c4b07f0f1f68899e70c", "fusion_lon": 0.0, "lon": -77.02723466666667, "name": "ebc79c687aa63c4b07f0f1f68899e70c", "is_disabled": 0, "rental_uris": {"android": "https://dc.lft.to/lastmile_qr_scan", "ios": "https://dc.lft.to/lastmile_qr_scan"}, "type": "electric_scooter", "lat": 38.94957183333333, "is_reserved": 0, "fusion_lat": 0.0}, {"bike_id": "50bf8488e55d4088882e78534b6aef1d", "fusion_lon": 0.0, "lon": -77.018608, "name": "50bf8488e55d4088882e78534b6aef1d", "is_disabled": 0, "rental_uris": {"android": "https://dc.lft.to/lastmile_qr_scan", "ios": "https://dc.lft.to/lastmile_qr_scan"}, "type": "electric_scooter", "lat": 38.973683, "is_reserved": 0, "fusion_lat": 0.0}, {"bike_id": "9213112559f5f7f56325599e5025c0ef", "fusion_lon": 0.0, "lon": -77.0296355, "name": "9213112559f5f7f56325599e5025c0ef", "is_disabled": 0, "rental_uris": {"android": "https://dc.lft.to/lastmile_qr_scan", "ios": "https://dc.lft.to/lastmile_qr_scan"}, "type": "electric_scooter", "lat": 38.90530233333333, "is_reserved": 0, "fusion_lat": 0.0}, {"bike_id": "6af62b7e968d0461d7cb51edb4e614c2", "fusion_lon": 0.0, "lon": -77.058584, "name": "6af62b7e968d0461d7cb51edb4e614c2", "is_disabled": 0, "rental_uris": {"android": "https://dc.lft.to/lastmile_qr_scan", "ios": "https://dc.lft.to/lastmile_qr_scan"}, "type": "electric_scooter", "lat": 38.93608966666667, "is_reserved": 0, "fusion_lat": 0.0}, {"bike_id": "bb7661e2b1a5531a6690b71fb7d29575", "fusion_lon": 0.0, "lon": -77.03655833333333, "name": "bb7661e2b1a5531a6690b71fb7d29575", "is_disabled": 0, "rental_uris": {"android": "https://dc.lft.to/lastmile_qr_scan", "ios": "https://dc.lft.to/lastmile_qr_scan"}, "type": "electric_scooter", "lat": 38.923415166666665, "is_reserved": 0, "fusion_lat": 0.0}, {"bike_id": "821746be32102a96a8ccb41779800744", "fusion_lon": 0.0, "lon": -77.0080225, "name": "821746be32102a96a8ccb41779800744", "is_disabled": 0, "rental_uris": {"android": "https://dc.lft.to/lastmile_qr_scan", "ios": "https://dc.lft.to/lastmile_qr_scan"}, "type": "electric_bike", "lat": 38.9492055, "is_reserved": 0, "fusion_lat": 0.0}, {"bike_id": "25acd8ce0d8041e1e279c69e1509706c", "fusion_lon": 0.0, "lon": -77.02947133333333, "name": "25acd8ce0d8041e1e279c69e1509706c", "is_disabled": 0, "rental_uris": {"android": "https://dc.lft.to/lastmile_qr_scan", "ios": "https://dc.lft.to/lastmile_qr_scan"}, "type": "electric_scooter", "lat": 38.9050575, "is_reserved": 0, "fusion_lat": 0.0}, {"bike_id": "fed7fd04e2a74bc97e7b522e7fbb2b3c", "fusion_lon": 0.0, "lon": -76.99031333333333, "name": "fed7fd04e2a74bc97e7b522e7fbb2b3c", "is_disabled": 0, "rental_uris": {"android": "https://dc.lft.to/lastmile_qr_scan", "ios": "https://dc.lft.to/lastmile_qr_scan"}, "type": "electric_scooter", "lat": 38.90187783333333, "is_reserved": 0, "fusion_lat": 0.0}, {"bike_id": "cfd3012dc397c8361bf8bdd01d508ef9", "fusion_lon": 0.0, "lon": -77.021994, "name": "cfd3012dc397c8361bf8bdd01d508ef9", "is_disabled": 0, "rental_uris": {"android": "https://dc.lft.to/lastmile_qr_scan", "ios": "https://dc.lft.to/lastmile_qr_scan"}, "type": "electric_scooter", "lat": 38.9109945, "is_reserved": 0, "fusion_lat": 0.0}, {"bike_id": "833d23af4c7236594c718f89936da99e", "fusion_lon": 0.0, "lon": -77.00574983333334, "name": "833d23af4c7236594c718f89936da99e", "is_disabled": 0, "rental_uris": {"android": "https://dc.lft.to/lastmile_qr_scan", "ios": "https://dc.lft.to/lastmile_qr_scan"}, "type": "electric_scooter", "lat": 38.90572433333333, "is_reserved": 0, "fusion_lat": 0.0}, {"bike_id": "51afe4a7d547d593ac2a0efe360bc239", "fusion_lon": 0.0, "lon": -77.03985416666667, "name": "51afe4a7d547d593ac2a0efe360bc239", "is_disabled": 0, "rental_uris": {"android": "https://dc.lft.to/lastmile_qr_scan", "ios": "https://dc.lft.to/lastmile_qr_scan"}, "type": "electric_scooter", "lat": 38.9258645, "is_reserved": 0, "fusion_lat": 0.0}, {"bike_id": "e39c9dabbf503bf143eff39050a4bb00", "fusion_lon": 0.0, "lon": -77.0253635, "name": "e39c9dabbf503bf143eff39050a4bb00", "is_disabled": 0, "rental_uris": {"android": "https://dc.lft.to/lastmile_qr_scan", "ios": "https://dc.lft.to/lastmile_qr_scan"}, "type": "electric_scooter", "lat": 38.909628166666664, "is_reserved": 0, "fusion_lat": 0.0}, {"bike_id": "524a5033daaec27e3b43c509564b53fc", "fusion_lon": 0.0, "lon": -77.0254585, "name": "524a5033daaec27e3b43c509564b53fc", "is_disabled": 0, "rental_uris": {"android": "https://dc.lft.to/lastmile_qr_scan", "ios": "https://dc.lft.to/lastmile_qr_scan"}, "type": "electric_scooter", "lat": 38.898434333333334, "is_reserved": 0, "fusion_lat": 0.0}, {"bike_id": "697807d0221e2a2a80d05e4d3b98ec31", "fusion_lon": 0.0, "lon": -77.01531066666666, "name": "697807d0221e2a2a80d05e4d3b98ec31", "is_disabled": 0, "rental_uris": {"android": "https://dc.lft.to/lastmile_qr_scan", "ios": "https://dc.lft.to/lastmile_qr_scan"}, "type": "electric_scooter", "lat": 38.8840755, "is_reserved": 0, "fusion_lat": 0.0}, {"bike_id": "aca36101a60e86f673c859135e001058", "fusion_lon": 0.0, "lon": -76.99904, "name": "aca36101a60e86f673c859135e001058", "is_disabled": 0, "rental_uris": {"android": "https://dc.lft.to/lastmile_qr_scan", "ios": "https://dc.lft.to/lastmile_qr_scan"}, "type": "electric_bike", "lat": 38.89207866666667, "is_reserved": 0, "fusion_lat": 0.0}, {"bike_id": "00a229d580dae14d3d4a9f264d2cfae9", "fusion_lon": 0.0, "lon": -77.02961533333334, "name": "00a229d580dae14d3d4a9f264d2cfae9", "is_disabled": 0, "rental_uris": {"android": "https://dc.lft.to/lastmile_qr_scan", "ios": "https://dc.lft.to/lastmile_qr_scan"}, "type": "electric_scooter", "lat": 38.923311, "is_reserved": 0, "fusion_lat": 0.0}, {"bike_id": "539088c25519e33fb0ee9aeb83b9e455", "fusion_lon": 0.0, "lon": -77.04604766666667, "name": "539088c25519e33fb0ee9aeb83b9e455", "is_disabled": 0, "rental_uris": {"android": "https://dc.lft.to/lastmile_qr_scan", "ios": "https://dc.lft.to/lastmile_qr_scan"}, "type": "electric_scooter", "lat": 38.917301333333334, "is_reserved": 0, "fusion_lat": 0.0}, {"bike_id": "08352059330c05536e26aa5bb15fad6f", "fusion_lon": 0.0, "lon": -77.021646, "name": "08352059330c05536e26aa5bb15fad6f", "is_disabled": 0, "rental_uris": {"android": "https://dc.lft.to/lastmile_qr_scan", "ios": "https://dc.lft.to/lastmile_qr_scan"}, "type": "electric_scooter", "lat": 38.926109, "is_reserved": 0, "fusion_lat": 0.0}, {"bike_id": "f62fdd7162f57bf8dcbfd3f06794da3a", "fusion_lon": 0.0, "lon": -77.027938, "name": "f62fdd7162f57bf8dcbfd3f06794da3a", "is_disabled": 0, "rental_uris": {"android": "https://dc.lft.to/lastmile_qr_scan", "ios": "https://dc.lft.to/lastmile_qr_scan"}, "type": "electric_scooter", "lat": 38.929717, "is_reserved": 0, "fusion_lat": 0.0}, {"bike_id": "238ccb0e70a5073075659625aca518ff", "fusion_lon": 0.0, "lon": -76.92331416666667, "name": "238ccb0e70a5073075659625aca518ff", "is_disabled": 0, "rental_uris": {"android": "https://dc.lft.to/lastmile_qr_scan", "ios": "https://dc.lft.to/lastmile_qr_scan"}, "type": "electric_bike", "lat": 38.871101, "is_reserved": 0, "fusion_lat": 0.0}, {"bike_id": "4742790e54e9034dd71186360d422442", "fusion_lon": 0.0, "lon": -76.97730483333333, "name": "4742790e54e9034dd71186360d422442", "is_disabled": 0, "rental_uris": {"android": "https://dc.lft.to/lastmile_qr_scan", "ios": "https://dc.lft.to/lastmile_qr_scan"}, "type": "electric_scooter", "lat": 38.89518116666667, "is_reserved": 0, "fusion_lat": 0.0}, {"bike_id": "82636629c870dbd041a650dcb6e1eca9", "fusion_lon": 0.0, "lon": -77.015849, "name": "82636629c870dbd041a650dcb6e1eca9", "is_disabled": 0, "rental_uris": {"android": "https://dc.lft.to/lastmile_qr_scan", "ios": "https://dc.lft.to/lastmile_qr_scan"}, "type": "electric_scooter", "lat": 38.891802, "is_reserved": 0, "fusion_lat": 0.0}, {"bike_id": "12123425f63166cea0c1d67319e87102", "fusion_lon": 0.0, "lon": -77.0272485, "name": "12123425f63166cea0c1d67319e87102", "is_disabled": 0, "rental_uris": {"android": "https://dc.lft.to/lastmile_qr_scan", "ios": "https://dc.lft.to/lastmile_qr_scan"}, "type": "electric_bike", "lat": 38.9455325, "is_reserved": 0, "fusion_lat": 0.0}, {"bike_id": "c549bf8d1f9056e536055dee9a19e032", "fusion_lon": 0.0, "lon": -77.02369216666666, "name": "c549bf8d1f9056e536055dee9a19e032", "is_disabled": 0, "rental_uris": {"android": "https://dc.lft.to/lastmile_qr_scan", "ios": "https://dc.lft.to/lastmile_qr_scan"}, "type": "electric_scooter", "lat": 38.90371066666667, "is_reserved": 0, "fusion_lat": 0.0}, {"bike_id": "78ad9b47ec45bcb7c9d768bbc2185fa4", "fusion_lon": 0.0, "lon": -77.07354933333333, "name": "78ad9b47ec45bcb7c9d768bbc2185fa4", "is_disabled": 0, "rental_uris": {"android": "https://dc.lft.to/lastmile_qr_scan", "ios": "https://dc.lft.to/lastmile_qr_scan"}, "type": "electric_bike", "lat": 38.930505, "is_reserved": 0, "fusion_lat": 0.0}, {"bike_id": "3bbc93b19b6c0f032cb2ab7cb2ee45d4", "fusion_lon": 0.0, "lon": -77.054308, "name": "3bbc93b19b6c0f032cb2ab7cb2ee45d4", "is_disabled": 0, "rental_uris": {"android": "https://dc.lft.to/lastmile_qr_scan", "ios": "https://dc.lft.to/lastmile_qr_scan"}, "type": "electric_bike", "lat": 38.93538516666667, "is_reserved": 0, "fusion_lat": 0.0}, {"bike_id": "f878e6e5fd2f248ffc2f1a22f38a65de", "fusion_lon": 0.0, "lon": -77.04138583333334, "name": "f878e6e5fd2f248ffc2f1a22f38a65de", "is_disabled": 0, "rental_uris": {"android": "https://dc.lft.to/lastmile_qr_scan", "ios": "https://dc.lft.to/lastmile_qr_scan"}, "type": "electric_scooter", "lat": 38.9265065, "is_reserved": 0, "fusion_lat": 0.0}, {"bike_id": "905fda42517ca73393084f2e89cf0f0e", "fusion_lon": 0.0, "lon": -77.0131055, "name": "905fda42517ca73393084f2e89cf0f0e", "is_disabled": 0, "rental_uris": {"android": "https://dc.lft.to/lastmile_qr_scan", "ios": "https://dc.lft.to/lastmile_qr_scan"}, "type": "electric_scooter", "lat": 38.9013385, "is_reserved": 0, "fusion_lat": 0.0}, {"bike_id": "f51200a170a37f9d4718bf716b6c08c7", "fusion_lon": 0.0, "lon": -77.05785566666667, "name": "f51200a170a37f9d4718bf716b6c08c7", "is_disabled": 0, "rental_uris": {"android": "https://dc.lft.to/lastmile_qr_scan", "ios": "https://dc.lft.to/lastmile_qr_scan"}, "type": "electric_scooter", "lat": 38.901027166666665, "is_reserved": 0, "fusion_lat": 0.0}, {"bike_id": "3833ca204f7279ad2ab71d0fdd6229be", "fusion_lon": 0.0, "lon": -77.02884983333334, "name": "3833ca204f7279ad2ab71d0fdd6229be", "is_disabled": 0, "rental_uris": {"android": "https://dc.lft.to/lastmile_qr_scan", "ios": "https://dc.lft.to/lastmile_qr_scan"}, "type": "electric_scooter", "lat": 38.90432766666667, "is_reserved": 0, "fusion_lat": 0.0}, {"bike_id": "17c6e8ebfe1813a414445b96fc85e475", "fusion_lon": 0.0, "lon": -77.02385716666667, "name": "17c6e8ebfe1813a414445b96fc85e475", "is_disabled": 0, "rental_uris": {"android": "https://dc.lft.to/lastmile_qr_scan", "ios": "https://dc.lft.to/lastmile_qr_scan"}, "type": "electric_scooter", "lat": 38.90754116666667, "is_reserved": 0, "fusion_lat": 0.0}, {"bike_id": "09a24724ed8b32a0da908c8adf861b8d", "fusion_lon": 0.0, "lon": -77.0240185, "name": "09a24724ed8b32a0da908c8adf861b8d", "is_disabled": 0, "rental_uris": {"android": "https://dc.lft.to/lastmile_qr_scan", "ios": "https://dc.lft.to/lastmile_qr_scan"}, "type": "electric_scooter", "lat": 38.91744083333333, "is_reserved": 0, "fusion_lat": 0.0}, {"bike_id": "fffcc206eb0ffee31d5d92940a82e007", "fusion_lon": 0.0, "lon": -77.0336365, "name": "fffcc206eb0ffee31d5d92940a82e007", "is_disabled": 0, "rental_uris": {"android": "https://dc.lft.to/lastmile_qr_scan", "ios": "https://dc.lft.to/lastmile_qr_scan"}, "type": "electric_scooter", "lat": 38.928899333333334, "is_reserved": 0, "fusion_lat": 0.0}, {"bike_id": "062a710e59d2b0655c019711a5bdc65b", "fusion_lon": 0.0, "lon": -77.02342366666667, "name": "062a710e59d2b0655c019711a5bdc65b", "is_disabled": 0, "rental_uris": {"android": "https://dc.lft.to/lastmile_qr_scan", "ios": "https://dc.lft.to/lastmile_qr_scan"}, "type": "electric_scooter", "lat": 38.946115166666665, "is_reserved": 0, "fusion_lat": 0.0}, {"bike_id": "5ae7ca1ef3067aba8736fcb5c7832814", "fusion_lon": 0.0, "lon": -77.03236933333334, "name": "5ae7ca1ef3067aba8736fcb5c7832814", "is_disabled": 0, "rental_uris": {"android": "https://dc.lft.to/lastmile_qr_scan", "ios": "https://dc.lft.to/lastmile_qr_scan"}, "type": "electric_scooter", "lat": 38.9235885, "is_reserved": 0, "fusion_lat": 0.0}, {"bike_id": "0e434fa95463a7f9ba57b50fd66d57c4", "fusion_lon": 0.0, "lon": -76.9862765, "name": "0e434fa95463a7f9ba57b50fd66d57c4", "is_disabled": 0, "rental_uris": {"android": "https://dc.lft.to/lastmile_qr_scan", "ios": "https://dc.lft.to/lastmile_qr_scan"}, "type": "electric_scooter", "lat": 38.880486833333336, "is_reserved": 0, "fusion_lat": 0.0}, {"bike_id": "27483b497d1f5c97a02cb03fc268ff31", "fusion_lon": 0.0, "lon": -77.01738, "name": "27483b497d1f5c97a02cb03fc268ff31", "is_disabled": 0, "rental_uris": {"android": "https://dc.lft.to/lastmile_qr_scan", "ios": "https://dc.lft.to/lastmile_qr_scan"}, "type": "electric_scooter", "lat": 38.883351, "is_reserved": 0, "fusion_lat": 0.0}, {"bike_id": "4f6db4cd67240a0e8f15dc6230cf4df2", "fusion_lon": 0.0, "lon": -77.02504083333334, "name": "4f6db4cd67240a0e8f15dc6230cf4df2", "is_disabled": 0, "rental_uris": {"android": "https://dc.lft.to/lastmile_qr_scan", "ios": "https://dc.lft.to/lastmile_qr_scan"}, "type": "electric_scooter", "lat": 38.92102283333333, "is_reserved": 0, "fusion_lat": 0.0}, {"bike_id": "21f045a21f0b85235357bdc70d7ab507", "fusion_lon": 0.0, "lon": -77.013669, "name": "21f045a21f0b85235357bdc70d7ab507", "is_disabled": 0, "rental_uris": {"android": "https://dc.lft.to/lastmile_qr_scan", "ios": "https://dc.lft.to/lastmile_qr_scan"}, "type": "electric_scooter", "lat": 38.89335233333333, "is_reserved": 0, "fusion_lat": 0.0}, {"bike_id": "7465fcd235e837c3a32b21f7bf38c54b", "fusion_lon": 0.0, "lon": -77.05311766666667, "name": "7465fcd235e837c3a32b21f7bf38c54b", "is_disabled": 0, "rental_uris": {"android": "https://dc.lft.to/lastmile_qr_scan", "ios": "https://dc.lft.to/lastmile_qr_scan"}, "type": "electric_scooter", "lat": 38.9026665, "is_reserved": 0, "fusion_lat": 0.0}, {"bike_id": "04403b9cd2a4331332a6f61d48a7106d", "fusion_lon": 0.0, "lon": -77.037793, "name": "04403b9cd2a4331332a6f61d48a7106d", "is_disabled": 0, "rental_uris": {"android": "https://dc.lft.to/lastmile_qr_scan", "ios": "https://dc.lft.to/lastmile_qr_scan"}, "type": "electric_scooter", "lat": 38.912582666666665, "is_reserved": 0, "fusion_lat": 0.0}, {"bike_id": "52ecff2b84df61594c03242a88cf8e91", "fusion_lon": 0.0, "lon": -77.01398166666667, "name": "52ecff2b84df61594c03242a88cf8e91", "is_disabled": 0, "rental_uris": {"android": "https://dc.lft.to/lastmile_qr_scan", "ios": "https://dc.lft.to/lastmile_qr_scan"}, "type": "electric_scooter", "lat": 38.9181375, "is_reserved": 0, "fusion_lat": 0.0}, {"bike_id": "3812df84682127ea9060b1c727b1a396", "fusion_lon": 0.0, "lon": -77.03837633333333, "name": "3812df84682127ea9060b1c727b1a396", "is_disabled": 0, "rental_uris": {"android": "https://dc.lft.to/lastmile_qr_scan", "ios": "https://dc.lft.to/lastmile_qr_scan"}, "type": "electric_scooter", "lat": 38.9101935, "is_reserved": 0, "fusion_lat": 0.0}, {"bike_id": "91a32099e836dfdf2be41c9e110233fe", "fusion_lon": 0.0, "lon": -77.03502233333333, "name": "91a32099e836dfdf2be41c9e110233fe", "is_disabled": 0, "rental_uris": {"android": "https://dc.lft.to/lastmile_qr_scan", "ios": "https://dc.lft.to/lastmile_qr_scan"}, "type": "electric_scooter", "lat": 38.921529666666665, "is_reserved": 0, "fusion_lat": 0.0}, {"bike_id": "bea30c48eeafbc70aab985e10fdf2a56", "fusion_lon": 0.0, "lon": -77.223577, "name": "bea30c48eeafbc70aab985e10fdf2a56", "is_disabled": 0, "rental_uris": {"android": "https://dc.lft.to/lastmile_qr_scan", "ios": "https://dc.lft.to/lastmile_qr_scan"}, "type": "electric_bike", "lat": 38.917871, "is_reserved": 0, "fusion_lat": 0.0}, {"bike_id": "c9d25b551f4cd08171a440469de54cb8", "fusion_lon": 0.0, "lon": -77.03862016666666, "name": "c9d25b551f4cd08171a440469de54cb8", "is_disabled": 0, "rental_uris": {"android": "https://dc.lft.to/lastmile_qr_scan", "ios": "https://dc.lft.to/lastmile_qr_scan"}, "type": "electric_scooter", "lat": 38.9077995, "is_reserved": 0, "fusion_lat": 0.0}, {"bike_id": "cb9f47e4c8d11c6ca4b13b0a424c7a52", "fusion_lon": 0.0, "lon": -77.03816266666666, "name": "cb9f47e4c8d11c6ca4b13b0a424c7a52", "is_disabled": 0, "rental_uris": {"android": "https://dc.lft.to/lastmile_qr_scan", "ios": "https://dc.lft.to/lastmile_qr_scan"}, "type": "electric_scooter", "lat": 38.914133, "is_reserved": 0, "fusion_lat": 0.0}, {"bike_id": "e74f7fe9e41763d410e748e1dd472b92", "fusion_lon": 0.0, "lon": -77.02345133333333, "name": "e74f7fe9e41763d410e748e1dd472b92", "is_disabled": 0, "rental_uris": {"android": "https://dc.lft.to/lastmile_qr_scan", "ios": "https://dc.lft.to/lastmile_qr_scan"}, "type": "electric_scooter", "lat": 38.935359, "is_reserved": 0, "fusion_lat": 0.0}, {"bike_id": "4a1a6b6c78fa625c45c66d9778abcd94", "fusion_lon": 0.0, "lon": -77.04158816666667, "name": "4a1a6b6c78fa625c45c66d9778abcd94", "is_disabled": 0, "rental_uris": {"android": "https://dc.lft.to/lastmile_qr_scan", "ios": "https://dc.lft.to/lastmile_qr_scan"}, "type": "electric_scooter", "lat": 38.9198955, "is_reserved": 0, "fusion_lat": 0.0}, {"bike_id": "84e2119b20fd5d7422a989170de4b601", "fusion_lon": 0.0, "lon": -77.04830066666666, "name": "84e2119b20fd5d7422a989170de4b601", "is_disabled": 0, "rental_uris": {"android": "https://dc.lft.to/lastmile_qr_scan", "ios": "https://dc.lft.to/lastmile_qr_scan"}, "type": "electric_scooter", "lat": 38.911119666666664, "is_reserved": 0, "fusion_lat": 0.0}, {"bike_id": "b1a38beb8a68d0035da5ec2d9a2f1546", "fusion_lon": 0.0, "lon": -77.09522316666667, "name": "b1a38beb8a68d0035da5ec2d9a2f1546", "is_disabled": 0, "rental_uris": {"android": "https://dc.lft.to/lastmile_qr_scan", "ios": "https://dc.lft.to/lastmile_qr_scan"}, "type": "electric_bike", "lat": 38.838108, "is_reserved": 0, "fusion_lat": 0.0}, {"bike_id": "bdf62e3e5b78a48012e3da5e1150d200", "fusion_lon": 0.0, "lon": -76.93858516666667, "name": "bdf62e3e5b78a48012e3da5e1150d200", "is_disabled": 0, "rental_uris": {"android": "https://dc.lft.to/lastmile_qr_scan", "ios": "https://dc.lft.to/lastmile_qr_scan"}, "type": "electric_scooter", "lat": 38.8989955, "is_reserved": 0, "fusion_lat": 0.0}, {"bike_id": "503eb62a28eafe27b90b34580e2faecc", "fusion_lon": 0.0, "lon": -77.07858366666666, "name": "503eb62a28eafe27b90b34580e2faecc", "is_disabled": 0, "rental_uris": {"android": "https://dc.lft.to/lastmile_qr_scan", "ios": "https://dc.lft.to/lastmile_qr_scan"}, "type": "electric_bike", "lat": 38.9313635, "is_reserved": 0, "fusion_lat": 0.0}, {"bike_id": "423b1b63a2d8d9ff568a46f88effff02", "fusion_lon": 0.0, "lon": -76.99860333333334, "name": "423b1b63a2d8d9ff568a46f88effff02", "is_disabled": 0, "rental_uris": {"android": "https://dc.lft.to/lastmile_qr_scan", "ios": "https://dc.lft.to/lastmile_qr_scan"}, "type": "electric_scooter", "lat": 38.90365633333333, "is_reserved": 0, "fusion_lat": 0.0}, {"bike_id": "998fc2db96af3a2b0a3dbf68de1df072", "fusion_lon": 0.0, "lon": -77.0270095, "name": "998fc2db96af3a2b0a3dbf68de1df072", "is_disabled": 0, "rental_uris": {"android": "https://dc.lft.to/lastmile_qr_scan", "ios": "https://dc.lft.to/lastmile_qr_scan"}, "type": "electric_scooter", "lat": 38.918015833333335, "is_reserved": 0, "fusion_lat": 0.0}, {"bike_id": "f7df60b2a9f7e879dcbf1c158bc6a089", "fusion_lon": 0.0, "lon": -77.03255033333333, "name": "f7df60b2a9f7e879dcbf1c158bc6a089", "is_disabled": 0, "rental_uris": {"android": "https://dc.lft.to/lastmile_qr_scan", "ios": "https://dc.lft.to/lastmile_qr_scan"}, "type": "electric_scooter", "lat": 38.942737666666666, "is_reserved": 0, "fusion_lat": 0.0}, {"bike_id": "958eb7bb5c02eaaabd4e5f339348ea1a", "fusion_lon": 0.0, "lon": -76.98382133333334, "name": "958eb7bb5c02eaaabd4e5f339348ea1a", "is_disabled": 0, "rental_uris": {"android": "https://dc.lft.to/lastmile_qr_scan", "ios": "https://dc.lft.to/lastmile_qr_scan"}, "type": "electric_scooter", "lat": 38.86119716666666, "is_reserved": 0, "fusion_lat": 0.0}, {"bike_id": "d9992849443a7d557af24ec83dd1d00b", "fusion_lon": 0.0, "lon": -77.011986, "name": "d9992849443a7d557af24ec83dd1d00b", "is_disabled": 0, "rental_uris": {"android": "https://dc.lft.to/lastmile_qr_scan", "ios": "https://dc.lft.to/lastmile_qr_scan"}, "type": "electric_scooter", "lat": 38.900116, "is_reserved": 0, "fusion_lat": 0.0}, {"bike_id": "dec447449af2ad3c7c407445b40e3c78", "fusion_lon": 0.0, "lon": -77.00211183333333, "name": "dec447449af2ad3c7c407445b40e3c78", "is_disabled": 0, "rental_uris": {"android": "https://dc.lft.to/lastmile_qr_scan", "ios": "https://dc.lft.to/lastmile_qr_scan"}, "type": "electric_scooter", "lat": 38.9007485, "is_reserved": 0, "fusion_lat": 0.0}, {"bike_id": "56760f78c0f737b06ac7c5a3361b0ec8", "fusion_lon": 0.0, "lon": -76.99334216666666, "name": "56760f78c0f737b06ac7c5a3361b0ec8", "is_disabled": 0, "rental_uris": {"android": "https://dc.lft.to/lastmile_qr_scan", "ios": "https://dc.lft.to/lastmile_qr_scan"}, "type": "electric_bike", "lat": 38.89366183333333, "is_reserved": 0, "fusion_lat": 0.0}, {"bike_id": "a30844ac9466ccca5d9df80977bfc50a", "fusion_lon": 0.0, "lon": -77.01220033333334, "name": "a30844ac9466ccca5d9df80977bfc50a", "is_disabled": 0, "rental_uris": {"android": "https://dc.lft.to/lastmile_qr_scan", "ios": "https://dc.lft.to/lastmile_qr_scan"}, "type": "electric_scooter", "lat": 38.91436183333333, "is_reserved": 0, "fusion_lat": 0.0}, {"bike_id": "8f8bc127702417c4b851ceb2fae82be1", "fusion_lon": 0.0, "lon": -77.0179975, "name": "8f8bc127702417c4b851ceb2fae82be1", "is_disabled": 0, "rental_uris": {"android": "https://dc.lft.to/lastmile_qr_scan", "ios": "https://dc.lft.to/lastmile_qr_scan"}, "type": "electric_scooter", "lat": 38.876757, "is_reserved": 0, "fusion_lat": 0.0}, {"bike_id": "923e96c3520a1c36c690cfc506c50469", "fusion_lon": 0.0, "lon": -77.031761, "name": "923e96c3520a1c36c690cfc506c50469", "is_disabled": 0, "rental_uris": {"android": "https://dc.lft.to/lastmile_qr_scan", "ios": "https://dc.lft.to/lastmile_qr_scan"}, "type": "electric_scooter", "lat": 38.9098155, "is_reserved": 0, "fusion_lat": 0.0}, {"bike_id": "fde4c7a7188d4e7bc128af7e5dfb563c", "fusion_lon": 0.0, "lon": -77.02194733333333, "name": "fde4c7a7188d4e7bc128af7e5dfb563c", "is_disabled": 0, "rental_uris": {"android": "https://dc.lft.to/lastmile_qr_scan", "ios": "https://dc.lft.to/lastmile_qr_scan"}, "type": "electric_scooter", "lat": 38.911025, "is_reserved": 0, "fusion_lat": 0.0}, {"bike_id": "376fff732697dd291b40f093ba7c1c08", "fusion_lon": 0.0, "lon": -77.0318595, "name": "376fff732697dd291b40f093ba7c1c08", "is_disabled": 0, "rental_uris": {"android": "https://dc.lft.to/lastmile_qr_scan", "ios": "https://dc.lft.to/lastmile_qr_scan"}, "type": "electric_scooter", "lat": 38.92384333333333, "is_reserved": 0, "fusion_lat": 0.0}, {"bike_id": "3bae7a920a011369826e085224c1a876", "fusion_lon": 0.0, "lon": -77.02382683333333, "name": "3bae7a920a011369826e085224c1a876", "is_disabled": 0, "rental_uris": {"android": "https://dc.lft.to/lastmile_qr_scan", "ios": "https://dc.lft.to/lastmile_qr_scan"}, "type": "electric_scooter", "lat": 38.907506166666664, "is_reserved": 0, "fusion_lat": 0.0}, {"bike_id": "0f449fffca4b603a64cf062a286a362e", "fusion_lon": 0.0, "lon": -77.069259, "name": "0f449fffca4b603a64cf062a286a362e", "is_disabled": 0, "rental_uris": {"android": "https://dc.lft.to/lastmile_qr_scan", "ios": "https://dc.lft.to/lastmile_qr_scan"}, "type": "electric_scooter", "lat": 38.90777333333333, "is_reserved": 0, "fusion_lat": 0.0}, {"bike_id": "31153cfa930693e8813e959d56e4ed27", "fusion_lon": 0.0, "lon": -77.03702183333333, "name": "31153cfa930693e8813e959d56e4ed27", "is_disabled": 0, "rental_uris": {"android": "https://dc.lft.to/lastmile_qr_scan", "ios": "https://dc.lft.to/lastmile_qr_scan"}, "type": "electric_scooter", "lat": 38.926450333333335, "is_reserved": 0, "fusion_lat": 0.0}, {"bike_id": "64c27ff22c28f669e2f0c74748394d7c", "fusion_lon": 0.0, "lon": -77.048882, "name": "64c27ff22c28f669e2f0c74748394d7c", "is_disabled": 0, "rental_uris": {"android": "https://dc.lft.to/lastmile_qr_scan", "ios": "https://dc.lft.to/lastmile_qr_scan"}, "type": "electric_scooter", "lat": 38.90077766666667, "is_reserved": 0, "fusion_lat": 0.0}, {"bike_id": "2847d09448474ec249feb7be5520ee80", "fusion_lon": 0.0, "lon": -77.01493116666667, "name": "2847d09448474ec249feb7be5520ee80", "is_disabled": 0, "rental_uris": {"android": "https://dc.lft.to/lastmile_qr_scan", "ios": "https://dc.lft.to/lastmile_qr_scan"}, "type": "electric_scooter", "lat": 38.899250333333335, "is_reserved": 0, "fusion_lat": 0.0}, {"bike_id": "3df4bd037d7725ceb15694048d4676ef", "fusion_lon": 0.0, "lon": -77.03362533333333, "name": "3df4bd037d7725ceb15694048d4676ef", "is_disabled": 0, "rental_uris": {"android": "https://dc.lft.to/lastmile_qr_scan", "ios": "https://dc.lft.to/lastmile_qr_scan"}, "type": "electric_scooter", "lat": 38.92885883333334, "is_reserved": 0, "fusion_lat": 0.0}, {"bike_id": "e351805519c05cf3c6a8bcb889ba9362", "fusion_lon": 0.0, "lon": -77.059325, "name": "e351805519c05cf3c6a8bcb889ba9362", "is_disabled": 0, "rental_uris": {"android": "https://dc.lft.to/lastmile_qr_scan", "ios": "https://dc.lft.to/lastmile_qr_scan"}, "type": "electric_scooter", "lat": 38.909347333333336, "is_reserved": 0, "fusion_lat": 0.0}, {"bike_id": "9529d56b5c2a0a2385a8b9dd2339957a", "fusion_lon": 0.0, "lon": -76.998159, "name": "9529d56b5c2a0a2385a8b9dd2339957a", "is_disabled": 0, "rental_uris": {"android": "https://dc.lft.to/lastmile_qr_scan", "ios": "https://dc.lft.to/lastmile_qr_scan"}, "type": "electric_scooter", "lat": 38.84432833333334, "is_reserved": 0, "fusion_lat": 0.0}, {"bike_id": "5b06bba4898de88cf661cddc502e6a2b", "fusion_lon": 0.0, "lon": -77.05230533333334, "name": "5b06bba4898de88cf661cddc502e6a2b", "is_disabled": 0, "rental_uris": {"android": "https://dc.lft.to/lastmile_qr_scan", "ios": "https://dc.lft.to/lastmile_qr_scan"}, "type": "electric_scooter", "lat": 38.92701383333333, "is_reserved": 0, "fusion_lat": 0.0}, {"bike_id": "e41e16c3e825e2f3d0c17a9c13f5c2be", "fusion_lon": 0.0, "lon": -76.986518, "name": "e41e16c3e825e2f3d0c17a9c13f5c2be", "is_disabled": 0, "rental_uris": {"android": "https://dc.lft.to/lastmile_qr_scan", "ios": "https://dc.lft.to/lastmile_qr_scan"}, "type": "electric_scooter", "lat": 38.8580885, "is_reserved": 0, "fusion_lat": 0.0}, {"bike_id": "f2fa8c9430dc6561379478188ce01537", "fusion_lon": 0.0, "lon": -77.0346205, "name": "f2fa8c9430dc6561379478188ce01537", "is_disabled": 0, "rental_uris": {"android": "https://dc.lft.to/lastmile_qr_scan", "ios": "https://dc.lft.to/lastmile_qr_scan"}, "type": "electric_scooter", "lat": 38.908044, "is_reserved": 0, "fusion_lat": 0.0}, {"bike_id": "5fe8fb4f04c129979c96f3a6a76ee5d4", "fusion_lon": 0.0, "lon": -77.02595916666667, "name": "5fe8fb4f04c129979c96f3a6a76ee5d4", "is_disabled": 0, "rental_uris": {"android": "https://dc.lft.to/lastmile_qr_scan", "ios": "https://dc.lft.to/lastmile_qr_scan"}, "type": "electric_scooter", "lat": 38.91690883333333, "is_reserved": 0, "fusion_lat": 0.0}, {"bike_id": "163e14846dddf4c398292090c077a600", "fusion_lon": 0.0, "lon": -77.00972316666666, "name": "163e14846dddf4c398292090c077a600", "is_disabled": 0, "rental_uris": {"android": "https://dc.lft.to/lastmile_qr_scan", "ios": "https://dc.lft.to/lastmile_qr_scan"}, "type": "electric_scooter", "lat": 38.90785416666667, "is_reserved": 0, "fusion_lat": 0.0}, {"bike_id": "1b2f04206450eeb254068acfd8d13a8c", "fusion_lon": 0.0, "lon": -77.023949, "name": "1b2f04206450eeb254068acfd8d13a8c", "is_disabled": 0, "rental_uris": {"android": "https://dc.lft.to/lastmile_qr_scan", "ios": "https://dc.lft.to/lastmile_qr_scan"}, "type": "electric_bike", "lat": 38.934642333333336, "is_reserved": 0, "fusion_lat": 0.0}, {"bike_id": "08a0f86b39518236736411faed50656f", "fusion_lon": 0.0, "lon": -76.98924666666667, "name": "08a0f86b39518236736411faed50656f", "is_disabled": 0, "rental_uris": {"android": "https://dc.lft.to/lastmile_qr_scan", "ios": "https://dc.lft.to/lastmile_qr_scan"}, "type": "electric_scooter", "lat": 38.8581315, "is_reserved": 0, "fusion_lat": 0.0}, {"bike_id": "1b5b6101f31d4fe129812c53e8ea081a", "fusion_lon": 0.0, "lon": -77.0166845, "name": "1b5b6101f31d4fe129812c53e8ea081a", "is_disabled": 0, "rental_uris": {"android": "https://dc.lft.to/lastmile_qr_scan", "ios": "https://dc.lft.to/lastmile_qr_scan"}, "type": "electric_scooter", "lat": 38.88129266666667, "is_reserved": 0, "fusion_lat": 0.0}, {"bike_id": "527f195eca81da0420ada18da32fff11", "fusion_lon": 0.0, "lon": -77.0384185, "name": "527f195eca81da0420ada18da32fff11", "is_disabled": 0, "rental_uris": {"android": "https://dc.lft.to/lastmile_qr_scan", "ios": "https://dc.lft.to/lastmile_qr_scan"}, "type": "electric_scooter", "lat": 38.909626833333334, "is_reserved": 0, "fusion_lat": 0.0}, {"bike_id": "9f72d031a77742d898491fbe6b2c978f", "fusion_lon": 0.0, "lon": -77.03121783333333, "name": "9f72d031a77742d898491fbe6b2c978f", "is_disabled": 0, "rental_uris": {"android": "https://dc.lft.to/lastmile_qr_scan", "ios": "https://dc.lft.to/lastmile_qr_scan"}, "type": "electric_bike", "lat": 38.95926633333333, "is_reserved": 0, "fusion_lat": 0.0}, {"bike_id": "159b3a79c4143ef46de382b2e0046adb", "fusion_lon": 0.0, "lon": -77.0281415, "name": "159b3a79c4143ef46de382b2e0046adb", "is_disabled": 0, "rental_uris": {"android": "https://dc.lft.to/lastmile_qr_scan", "ios": "https://dc.lft.to/lastmile_qr_scan"}, "type": "electric_scooter", "lat": 38.91431216666667, "is_reserved": 0, "fusion_lat": 0.0}, {"bike_id": "d991b3f29b559e27ac48e6d1d18b6636", "fusion_lon": 0.0, "lon": -77.01752016666667, "name": "d991b3f29b559e27ac48e6d1d18b6636", "is_disabled": 0, "rental_uris": {"android": "https://dc.lft.to/lastmile_qr_scan", "ios": "https://dc.lft.to/lastmile_qr_scan"}, "type": "electric_scooter", "lat": 38.90382733333333, "is_reserved": 0, "fusion_lat": 0.0}, {"bike_id": "b00e13c47573a7e4078ec1a29249a21f", "fusion_lon": 0.0, "lon": -77.04465916666666, "name": "b00e13c47573a7e4078ec1a29249a21f", "is_disabled": 0, "rental_uris": {"android": "https://dc.lft.to/lastmile_qr_scan", "ios": "https://dc.lft.to/lastmile_qr_scan"}, "type": "electric_scooter", "lat": 38.89528216666667, "is_reserved": 0, "fusion_lat": 0.0}, {"bike_id": "c156f9cac4f553b027c4cb1c66b5cb3d", "fusion_lon": 0.0, "lon": -77.03556366666666, "name": "c156f9cac4f553b027c4cb1c66b5cb3d", "is_disabled": 0, "rental_uris": {"android": "https://dc.lft.to/lastmile_qr_scan", "ios": "https://dc.lft.to/lastmile_qr_scan"}, "type": "electric_scooter", "lat": 38.928831833333334, "is_reserved": 0, "fusion_lat": 0.0}, {"bike_id": "88007db1dad6d087589b8184e8bb4a7b", "fusion_lon": 0.0, "lon": -77.0446475, "name": "88007db1dad6d087589b8184e8bb4a7b", "is_disabled": 0, "rental_uris": {"android": "https://dc.lft.to/lastmile_qr_scan", "ios": "https://dc.lft.to/lastmile_qr_scan"}, "type": "electric_scooter", "lat": 38.91853066666667, "is_reserved": 0, "fusion_lat": 0.0}, {"bike_id": "3ded57e3968d4e6911373adcdfddbb85", "fusion_lon": 0.0, "lon": -77.03291533333334, "name": "3ded57e3968d4e6911373adcdfddbb85", "is_disabled": 0, "rental_uris": {"android": "https://dc.lft.to/lastmile_qr_scan", "ios": "https://dc.lft.to/lastmile_qr_scan"}, "type": "electric_scooter", "lat": 38.920503333333336, "is_reserved": 0, "fusion_lat": 0.0}, {"bike_id": "9ff0dd228e2235fe5e9ba1ad8e222b5b", "fusion_lon": 0.0, "lon": -77.03935483333333, "name": "9ff0dd228e2235fe5e9ba1ad8e222b5b", "is_disabled": 0, "rental_uris": {"android": "https://dc.lft.to/lastmile_qr_scan", "ios": "https://dc.lft.to/lastmile_qr_scan"}, "type": "electric_scooter", "lat": 38.9250115, "is_reserved": 0, "fusion_lat": 0.0}, {"bike_id": "00c0e5aac376c2814720096f5394d084", "fusion_lon": 0.0, "lon": -77.03787366666667, "name": "00c0e5aac376c2814720096f5394d084", "is_disabled": 0, "rental_uris": {"android": "https://dc.lft.to/lastmile_qr_scan", "ios": "https://dc.lft.to/lastmile_qr_scan"}, "type": "electric_scooter", "lat": 38.925567, "is_reserved": 0, "fusion_lat": 0.0}, {"bike_id": "89003ceeb20929aa083d351541ef43bb", "fusion_lon": 0.0, "lon": -77.03158733333333, "name": "89003ceeb20929aa083d351541ef43bb", "is_disabled": 0, "rental_uris": {"android": "https://dc.lft.to/lastmile_qr_scan", "ios": "https://dc.lft.to/lastmile_qr_scan"}, "type": "electric_bike", "lat": 38.99947816666667, "is_reserved": 0, "fusion_lat": 0.0}, {"bike_id": "d710a7c32696f3f1d5ba0c74485b5416", "fusion_lon": 0.0, "lon": -77.0019495, "name": "d710a7c32696f3f1d5ba0c74485b5416", "is_disabled": 0, "rental_uris": {"android": "https://dc.lft.to/lastmile_qr_scan", "ios": "https://dc.lft.to/lastmile_qr_scan"}, "type": "electric_scooter", "lat": 38.902428, "is_reserved": 0, "fusion_lat": 0.0}, {"bike_id": "2ad6065c9faf340efd4baa009f40f19a", "fusion_lon": 0.0, "lon": -76.98365283333334, "name": "2ad6065c9faf340efd4baa009f40f19a", "is_disabled": 0, "rental_uris": {"android": "https://dc.lft.to/lastmile_qr_scan", "ios": "https://dc.lft.to/lastmile_qr_scan"}, "type": "electric_scooter", "lat": 38.88592083333333, "is_reserved": 0, "fusion_lat": 0.0}, {"bike_id": "0fbbca65821e268254f2ad838a885925", "fusion_lon": 0.0, "lon": -77.07010266666667, "name": "0fbbca65821e268254f2ad838a885925", "is_disabled": 0, "rental_uris": {"android": "https://dc.lft.to/lastmile_qr_scan", "ios": "https://dc.lft.to/lastmile_qr_scan"}, "type": "electric_bike", "lat": 38.92769116666667, "is_reserved": 0, "fusion_lat": 0.0}, {"bike_id": "de2b6cc72a0964fbc5d6adab7cec617a", "fusion_lon": 0.0, "lon": -76.95184283333333, "name": "de2b6cc72a0964fbc5d6adab7cec617a", "is_disabled": 0, "rental_uris": {"android": "https://dc.lft.to/lastmile_qr_scan", "ios": "https://dc.lft.to/lastmile_qr_scan"}, "type": "electric_scooter", "lat": 38.907396166666665, "is_reserved": 0, "fusion_lat": 0.0}, {"bike_id": "bc2caa1abf9d2a35ccc25611c1a336ae", "fusion_lon": 0.0, "lon": -77.01776483333333, "name": "bc2caa1abf9d2a35ccc25611c1a336ae", "is_disabled": 0, "rental_uris": {"android": "https://dc.lft.to/lastmile_qr_scan", "ios": "https://dc.lft.to/lastmile_qr_scan"}, "type": "electric_scooter", "lat": 38.90780566666667, "is_reserved": 0, "fusion_lat": 0.0}, {"bike_id": "2c28414d338d91d1e3c94df8256ad74b", "fusion_lon": 0.0, "lon": -77.04403133333334, "name": "2c28414d338d91d1e3c94df8256ad74b", "is_disabled": 0, "rental_uris": {"android": "https://dc.lft.to/lastmile_qr_scan", "ios": "https://dc.lft.to/lastmile_qr_scan"}, "type": "electric_scooter", "lat": 38.92073116666667, "is_reserved": 0, "fusion_lat": 0.0}, {"bike_id": "082344fcc9c7e22d4d7b9ab6a662e712", "fusion_lon": 0.0, "lon": -77.0560675, "name": "082344fcc9c7e22d4d7b9ab6a662e712", "is_disabled": 0, "rental_uris": {"android": "https://dc.lft.to/lastmile_qr_scan", "ios": "https://dc.lft.to/lastmile_qr_scan"}, "type": "electric_scooter", "lat": 38.93166333333333, "is_reserved": 0, "fusion_lat": 0.0}, {"bike_id": "ae0fed755edb8f16fda5c26186461946", "fusion_lon": 0.0, "lon": -77.03545416666667, "name": "ae0fed755edb8f16fda5c26186461946", "is_disabled": 0, "rental_uris": {"android": "https://dc.lft.to/lastmile_qr_scan", "ios": "https://dc.lft.to/lastmile_qr_scan"}, "type": "electric_scooter", "lat": 38.908432, "is_reserved": 0, "fusion_lat": 0.0}, {"bike_id": "bd8782f2e2c5f5de3c0ec43394ad8ddf", "fusion_lon": 0.0, "lon": -77.005718, "name": "bd8782f2e2c5f5de3c0ec43394ad8ddf", "is_disabled": 0, "rental_uris": {"android": "https://dc.lft.to/lastmile_qr_scan", "ios": "https://dc.lft.to/lastmile_qr_scan"}, "type": "electric_scooter", "lat": 38.88499816666667, "is_reserved": 0, "fusion_lat": 0.0}, {"bike_id": "d54cf23b5b9f282e029de611e1569bed", "fusion_lon": 0.0, "lon": -77.031665, "name": "d54cf23b5b9f282e029de611e1569bed", "is_disabled": 0, "rental_uris": {"android": "https://dc.lft.to/lastmile_qr_scan", "ios": "https://dc.lft.to/lastmile_qr_scan"}, "type": "electric_scooter", "lat": 38.9209485, "is_reserved": 0, "fusion_lat": 0.0}, {"bike_id": "cdcaee408531b85c03fad59fcb350738", "fusion_lon": 0.0, "lon": -77.08193516666667, "name": "cdcaee408531b85c03fad59fcb350738", "is_disabled": 0, "rental_uris": {"android": "https://dc.lft.to/lastmile_qr_scan", "ios": "https://dc.lft.to/lastmile_qr_scan"}, "type": "electric_bike", "lat": 38.8556535, "is_reserved": 0, "fusion_lat": 0.0}, {"bike_id": "08bdc3cc9c0ddbfb4f7425b039ed3a44", "fusion_lon": 0.0, "lon": -76.93734, "name": "08bdc3cc9c0ddbfb4f7425b039ed3a44", "is_disabled": 0, "rental_uris": {"android": "https://dc.lft.to/lastmile_qr_scan", "ios": "https://dc.lft.to/lastmile_qr_scan"}, "type": "electric_scooter", "lat": 38.89016316666667, "is_reserved": 0, "fusion_lat": 0.0}, {"bike_id": "23d81d3321f7940e4fc20335c2738e1b", "fusion_lon": 0.0, "lon": -77.00138483333333, "name": "23d81d3321f7940e4fc20335c2738e1b", "is_disabled": 0, "rental_uris": {"android": "https://dc.lft.to/lastmile_qr_scan", "ios": "https://dc.lft.to/lastmile_qr_scan"}, "type": "electric_scooter", "lat": 38.90514433333333, "is_reserved": 0, "fusion_lat": 0.0}, {"bike_id": "ba93351435802274f59fdfbcd27ab2f4", "fusion_lon": 0.0, "lon": -77.04163866666667, "name": "ba93351435802274f59fdfbcd27ab2f4", "is_disabled": 0, "rental_uris": {"android": "https://dc.lft.to/lastmile_qr_scan", "ios": "https://dc.lft.to/lastmile_qr_scan"}, "type": "electric_scooter", "lat": 38.905667333333334, "is_reserved": 0, "fusion_lat": 0.0}, {"bike_id": "ccb66b2180daa2eef61985ebca03362a", "fusion_lon": 0.0, "lon": -77.03842466666667, "name": "ccb66b2180daa2eef61985ebca03362a", "is_disabled": 0, "rental_uris": {"android": "https://dc.lft.to/lastmile_qr_scan", "ios": "https://dc.lft.to/lastmile_qr_scan"}, "type": "electric_scooter", "lat": 38.9084395, "is_reserved": 0, "fusion_lat": 0.0}, {"bike_id": "921038dff785bafcea0e2c9757629a85", "fusion_lon": 0.0, "lon": -76.98980633333333, "name": "921038dff785bafcea0e2c9757629a85", "is_disabled": 0, "rental_uris": {"android": "https://dc.lft.to/lastmile_qr_scan", "ios": "https://dc.lft.to/lastmile_qr_scan"}, "type": "electric_scooter", "lat": 38.865086, "is_reserved": 0, "fusion_lat": 0.0}, {"bike_id": "db0140500106626874188e7239898720", "fusion_lon": 0.0, "lon": -76.91161166666667, "name": "db0140500106626874188e7239898720", "is_disabled": 0, "rental_uris": {"android": "https://dc.lft.to/lastmile_qr_scan", "ios": "https://dc.lft.to/lastmile_qr_scan"}, "type": "electric_scooter", "lat": 38.8940515, "is_reserved": 0, "fusion_lat": 0.0}, {"bike_id": "e4ffdf2c0831c639805ca91069c19507", "fusion_lon": 0.0, "lon": -77.02002566666667, "name": "e4ffdf2c0831c639805ca91069c19507", "is_disabled": 0, "rental_uris": {"android": "https://dc.lft.to/lastmile_qr_scan", "ios": "https://dc.lft.to/lastmile_qr_scan"}, "type": "electric_scooter", "lat": 38.91312033333333, "is_reserved": 0, "fusion_lat": 0.0}, {"bike_id": "cf5535062c7cb3fc83854aa4197260b4", "fusion_lon": 0.0, "lon": -76.9941895, "name": "cf5535062c7cb3fc83854aa4197260b4", "is_disabled": 0, "rental_uris": {"android": "https://dc.lft.to/lastmile_qr_scan", "ios": "https://dc.lft.to/lastmile_qr_scan"}, "type": "electric_scooter", "lat": 38.87787733333333, "is_reserved": 0, "fusion_lat": 0.0}, {"bike_id": "c26ac609bf3ef614f56545d35e008ef1", "fusion_lon": 0.0, "lon": -77.02188566666666, "name": "c26ac609bf3ef614f56545d35e008ef1", "is_disabled": 0, "rental_uris": {"android": "https://dc.lft.to/lastmile_qr_scan", "ios": "https://dc.lft.to/lastmile_qr_scan"}, "type": "electric_scooter", "lat": 38.911455833333335, "is_reserved": 0, "fusion_lat": 0.0}, {"bike_id": "d59589f89363e91351bc641840385da3", "fusion_lon": 0.0, "lon": -77.0408245, "name": "d59589f89363e91351bc641840385da3", "is_disabled": 0, "rental_uris": {"android": "https://dc.lft.to/lastmile_qr_scan", "ios": "https://dc.lft.to/lastmile_qr_scan"}, "type": "electric_scooter", "lat": 38.91697166666667, "is_reserved": 0, "fusion_lat": 0.0}, {"bike_id": "11d796d905ffd59df4e9c1235aa4ff94", "fusion_lon": 0.0, "lon": -77.054268, "name": "11d796d905ffd59df4e9c1235aa4ff94", "is_disabled": 0, "rental_uris": {"android": "https://dc.lft.to/lastmile_qr_scan", "ios": "https://dc.lft.to/lastmile_qr_scan"}, "type": "electric_scooter", "lat": 38.90260883333333, "is_reserved": 0, "fusion_lat": 0.0}, {"bike_id": "076e3838943992a4d6821c927dc2a9de", "fusion_lon": 0.0, "lon": -77.05104566666667, "name": "076e3838943992a4d6821c927dc2a9de", "is_disabled": 0, "rental_uris": {"android": "https://dc.lft.to/lastmile_qr_scan", "ios": "https://dc.lft.to/lastmile_qr_scan"}, "type": "electric_scooter", "lat": 38.905610833333334, "is_reserved": 0, "fusion_lat": 0.0}, {"bike_id": "bc61970e06fb186044757e6cc857746f", "fusion_lon": 0.0, "lon": -77.032266, "name": "bc61970e06fb186044757e6cc857746f", "is_disabled": 0, "rental_uris": {"android": "https://dc.lft.to/lastmile_qr_scan", "ios": "https://dc.lft.to/lastmile_qr_scan"}, "type": "electric_scooter", "lat": 38.91404383333333, "is_reserved": 0, "fusion_lat": 0.0}, {"bike_id": "476b37cb162e130ba0d28944c9c61d86", "fusion_lon": 0.0, "lon": -77.02387133333333, "name": "476b37cb162e130ba0d28944c9c61d86", "is_disabled": 0, "rental_uris": {"android": "https://dc.lft.to/lastmile_qr_scan", "ios": "https://dc.lft.to/lastmile_qr_scan"}, "type": "electric_scooter", "lat": 38.89713716666667, "is_reserved": 0, "fusion_lat": 0.0}, {"bike_id": "391c642eddfb94d412a16850abf4849c", "fusion_lon": 0.0, "lon": -77.03330966666667, "name": "391c642eddfb94d412a16850abf4849c", "is_disabled": 0, "rental_uris": {"android": "https://dc.lft.to/lastmile_qr_scan", "ios": "https://dc.lft.to/lastmile_qr_scan"}, "type": "electric_scooter", "lat": 38.89843233333333, "is_reserved": 0, "fusion_lat": 0.0}, {"bike_id": "5f09908e207fa190bfca56fca0d1f931", "fusion_lon": 0.0, "lon": -77.03113633333334, "name": "5f09908e207fa190bfca56fca0d1f931", "is_disabled": 0, "rental_uris": {"android": "https://dc.lft.to/lastmile_qr_scan", "ios": "https://dc.lft.to/lastmile_qr_scan"}, "type": "electric_scooter", "lat": 38.916985833333335, "is_reserved": 0, "fusion_lat": 0.0}, {"bike_id": "1613aefd996659622f63db4b410c5c02", "fusion_lon": 0.0, "lon": -77.03230916666666, "name": "1613aefd996659622f63db4b410c5c02", "is_disabled": 0, "rental_uris": {"android": "https://dc.lft.to/lastmile_qr_scan", "ios": "https://dc.lft.to/lastmile_qr_scan"}, "type": "electric_scooter", "lat": 38.92761516666667, "is_reserved": 0, "fusion_lat": 0.0}, {"bike_id": "cd6fba01542f1a27db84b90da5936c56", "fusion_lon": 0.0, "lon": -76.99950583333333, "name": "cd6fba01542f1a27db84b90da5936c56", "is_disabled": 0, "rental_uris": {"android": "https://dc.lft.to/lastmile_qr_scan", "ios": "https://dc.lft.to/lastmile_qr_scan"}, "type": "electric_scooter", "lat": 38.842993, "is_reserved": 0, "fusion_lat": 0.0}, {"bike_id": "959b6b5b9f389a833c6a4c95fb45cd25", "fusion_lon": 0.0, "lon": -77.03421616666667, "name": "959b6b5b9f389a833c6a4c95fb45cd25", "is_disabled": 0, "rental_uris": {"android": "https://dc.lft.to/lastmile_qr_scan", "ios": "https://dc.lft.to/lastmile_qr_scan"}, "type": "electric_scooter", "lat": 38.90436966666667, "is_reserved": 0, "fusion_lat": 0.0}, {"bike_id": "653aaa3b3da3d16c7801f312bd81f339", "fusion_lon": 0.0, "lon": -77.04187016666667, "name": "653aaa3b3da3d16c7801f312bd81f339", "is_disabled": 0, "rental_uris": {"android": "https://dc.lft.to/lastmile_qr_scan", "ios": "https://dc.lft.to/lastmile_qr_scan"}, "type": "electric_scooter", "lat": 38.9262985, "is_reserved": 0, "fusion_lat": 0.0}, {"bike_id": "10d322dc1e63cb7d94802614041cb9d4", "fusion_lon": 0.0, "lon": -77.03264116666666, "name": "10d322dc1e63cb7d94802614041cb9d4", "is_disabled": 0, "rental_uris": {"android": "https://dc.lft.to/lastmile_qr_scan", "ios": "https://dc.lft.to/lastmile_qr_scan"}, "type": "electric_scooter", "lat": 38.914062333333334, "is_reserved": 0, "fusion_lat": 0.0}, {"bike_id": "265c986b8ee37ec84c43e4a74102e22f", "fusion_lon": 0.0, "lon": -77.00324816666667, "name": "265c986b8ee37ec84c43e4a74102e22f", "is_disabled": 0, "rental_uris": {"android": "https://dc.lft.to/lastmile_qr_scan", "ios": "https://dc.lft.to/lastmile_qr_scan"}, "type": "electric_scooter", "lat": 38.90266483333333, "is_reserved": 0, "fusion_lat": 0.0}, {"bike_id": "5686b680e737ab6dba990ac1c0908448", "fusion_lon": 0.0, "lon": -76.981119, "name": "5686b680e737ab6dba990ac1c0908448", "is_disabled": 0, "rental_uris": {"android": "https://dc.lft.to/lastmile_qr_scan", "ios": "https://dc.lft.to/lastmile_qr_scan"}, "type": "electric_bike", "lat": 38.91475466666667, "is_reserved": 0, "fusion_lat": 0.0}, {"bike_id": "ce43fd491348e39a1c6560248807903c", "fusion_lon": 0.0, "lon": -77.03138216666666, "name": "ce43fd491348e39a1c6560248807903c", "is_disabled": 0, "rental_uris": {"android": "https://dc.lft.to/lastmile_qr_scan", "ios": "https://dc.lft.to/lastmile_qr_scan"}, "type": "electric_scooter", "lat": 38.923745333333336, "is_reserved": 0, "fusion_lat": 0.0}, {"bike_id": "a6f5a350a09290de80f9c7a01474dbad", "fusion_lon": 0.0, "lon": -77.03658683333333, "name": "a6f5a350a09290de80f9c7a01474dbad", "is_disabled": 0, "rental_uris": {"android": "https://dc.lft.to/lastmile_qr_scan", "ios": "https://dc.lft.to/lastmile_qr_scan"}, "type": "electric_scooter", "lat": 38.92292033333333, "is_reserved": 0, "fusion_lat": 0.0}, {"bike_id": "f4a9acacd0ac88229f4c9946793e02c4", "fusion_lon": 0.0, "lon": -77.024911, "name": "f4a9acacd0ac88229f4c9946793e02c4", "is_disabled": 0, "rental_uris": {"android": "https://dc.lft.to/lastmile_qr_scan", "ios": "https://dc.lft.to/lastmile_qr_scan"}, "type": "electric_scooter", "lat": 38.941822333333334, "is_reserved": 0, "fusion_lat": 0.0}, {"bike_id": "e3f00e2296bbd7a34f39eee4b4dbc57b", "fusion_lon": 0.0, "lon": -77.045989, "name": "e3f00e2296bbd7a34f39eee4b4dbc57b", "is_disabled": 0, "rental_uris": {"android": "https://dc.lft.to/lastmile_qr_scan", "ios": "https://dc.lft.to/lastmile_qr_scan"}, "type": "electric_scooter", "lat": 38.91916116666667, "is_reserved": 0, "fusion_lat": 0.0}, {"bike_id": "b8bd90245a5e7928716182abc5d14b76", "fusion_lon": 0.0, "lon": -77.082785, "name": "b8bd90245a5e7928716182abc5d14b76", "is_disabled": 0, "rental_uris": {"android": "https://dc.lft.to/lastmile_qr_scan", "ios": "https://dc.lft.to/lastmile_qr_scan"}, "type": "electric_scooter", "lat": 38.930223, "is_reserved": 0, "fusion_lat": 0.0}, {"bike_id": "d055e934c9adfc55847f35cf9d2ec0d7", "fusion_lon": 0.0, "lon": -77.03504633333333, "name": "d055e934c9adfc55847f35cf9d2ec0d7", "is_disabled": 0, "rental_uris": {"android": "https://dc.lft.to/lastmile_qr_scan", "ios": "https://dc.lft.to/lastmile_qr_scan"}, "type": "electric_scooter", "lat": 38.921536833333334, "is_reserved": 0, "fusion_lat": 0.0}, {"bike_id": "4fa0110faf2b1abe877c876f21dc753d", "fusion_lon": 0.0, "lon": -76.98324266666667, "name": "4fa0110faf2b1abe877c876f21dc753d", "is_disabled": 0, "rental_uris": {"android": "https://dc.lft.to/lastmile_qr_scan", "ios": "https://dc.lft.to/lastmile_qr_scan"}, "type": "electric_scooter", "lat": 38.908731833333334, "is_reserved": 0, "fusion_lat": 0.0}, {"bike_id": "146608f9c5e43f3add08b91f13a6e065", "fusion_lon": 0.0, "lon": -77.0347775, "name": "146608f9c5e43f3add08b91f13a6e065", "is_disabled": 0, "rental_uris": {"android": "https://dc.lft.to/lastmile_qr_scan", "ios": "https://dc.lft.to/lastmile_qr_scan"}, "type": "electric_scooter", "lat": 38.904515333333336, "is_reserved": 0, "fusion_lat": 0.0}, {"bike_id": "770f293b6fe23ec56f7f32e3348546d7", "fusion_lon": 0.0, "lon": -76.99701383333333, "name": "770f293b6fe23ec56f7f32e3348546d7", "is_disabled": 0, "rental_uris": {"android": "https://dc.lft.to/lastmile_qr_scan", "ios": "https://dc.lft.to/lastmile_qr_scan"}, "type": "electric_scooter", "lat": 38.908339166666664, "is_reserved": 0, "fusion_lat": 0.0}, {"bike_id": "f57ef193e64906f66afb5c82d94263e9", "fusion_lon": 0.0, "lon": -77.00736483333333, "name": "f57ef193e64906f66afb5c82d94263e9", "is_disabled": 0, "rental_uris": {"android": "https://dc.lft.to/lastmile_qr_scan", "ios": "https://dc.lft.to/lastmile_qr_scan"}, "type": "electric_scooter", "lat": 38.90622116666667, "is_reserved": 0, "fusion_lat": 0.0}, {"bike_id": "23f2efda6a303e4fc246c0d6ea0294f8", "fusion_lon": 0.0, "lon": -77.01707183333333, "name": "23f2efda6a303e4fc246c0d6ea0294f8", "is_disabled": 0, "rental_uris": {"android": "https://dc.lft.to/lastmile_qr_scan", "ios": "https://dc.lft.to/lastmile_qr_scan"}, "type": "electric_scooter", "lat": 38.91746466666667, "is_reserved": 0, "fusion_lat": 0.0}, {"bike_id": "0fb3a2b64629fe784d3faeb69f4d4765", "fusion_lon": 0.0, "lon": -77.044298, "name": "0fb3a2b64629fe784d3faeb69f4d4765", "is_disabled": 0, "rental_uris": {"android": "https://dc.lft.to/lastmile_qr_scan", "ios": "https://dc.lft.to/lastmile_qr_scan"}, "type": "electric_scooter", "lat": 38.917741666666664, "is_reserved": 0, "fusion_lat": 0.0}, {"bike_id": "1be3b24cf5aeee72a52ac29d75529c2b", "fusion_lon": 0.0, "lon": -77.02960033333333, "name": "1be3b24cf5aeee72a52ac29d75529c2b", "is_disabled": 0, "rental_uris": {"android": "https://dc.lft.to/lastmile_qr_scan", "ios": "https://dc.lft.to/lastmile_qr_scan"}, "type": "electric_scooter", "lat": 38.926865, "is_reserved": 0, "fusion_lat": 0.0}, {"bike_id": "5a37063124522285555c30754f537453", "fusion_lon": 0.0, "lon": -77.08182283333333, "name": "5a37063124522285555c30754f537453", "is_disabled": 0, "rental_uris": {"android": "https://dc.lft.to/lastmile_qr_scan", "ios": "https://dc.lft.to/lastmile_qr_scan"}, "type": "electric_scooter", "lat": 38.93560816666667, "is_reserved": 0, "fusion_lat": 0.0}, {"bike_id": "88762447c437c78bdb554a6079a380da", "fusion_lon": 0.0, "lon": -77.002126, "name": "88762447c437c78bdb554a6079a380da", "is_disabled": 0, "rental_uris": {"android": "https://dc.lft.to/lastmile_qr_scan", "ios": "https://dc.lft.to/lastmile_qr_scan"}, "type": "electric_scooter", "lat": 38.897246833333334, "is_reserved": 0, "fusion_lat": 0.0}, {"bike_id": "0fc15150bfabbc0b6d3e8b570bad96e6", "fusion_lon": 0.0, "lon": -77.01983866666667, "name": "0fc15150bfabbc0b6d3e8b570bad96e6", "is_disabled": 0, "rental_uris": {"android": "https://dc.lft.to/lastmile_qr_scan", "ios": "https://dc.lft.to/lastmile_qr_scan"}, "type": "electric_scooter", "lat": 38.886161333333334, "is_reserved": 0, "fusion_lat": 0.0}, {"bike_id": "099adeb260b473d8599ebb6bdb4305f2", "fusion_lon": 0.0, "lon": -77.01789566666666, "name": "099adeb260b473d8599ebb6bdb4305f2", "is_disabled": 0, "rental_uris": {"android": "https://dc.lft.to/lastmile_qr_scan", "ios": "https://dc.lft.to/lastmile_qr_scan"}, "type": "electric_scooter", "lat": 38.91117933333334, "is_reserved": 0, "fusion_lat": 0.0}, {"bike_id": "1cfef8a312fb78a89d2efa468af22206", "fusion_lon": 0.0, "lon": -77.041496, "name": "1cfef8a312fb78a89d2efa468af22206", "is_disabled": 0, "rental_uris": {"android": "https://dc.lft.to/lastmile_qr_scan", "ios": "https://dc.lft.to/lastmile_qr_scan"}, "type": "electric_scooter", "lat": 38.91554583333333, "is_reserved": 0, "fusion_lat": 0.0}, {"bike_id": "2aad31c65ba3473bac875a7f59ff58b4", "fusion_lon": 0.0, "lon": -76.98059333333333, "name": "2aad31c65ba3473bac875a7f59ff58b4", "is_disabled": 0, "rental_uris": {"android": "https://dc.lft.to/lastmile_qr_scan", "ios": "https://dc.lft.to/lastmile_qr_scan"}, "type": "electric_scooter", "lat": 38.8849205, "is_reserved": 0, "fusion_lat": 0.0}, {"bike_id": "28571b0ab8a17282a83d279b883bbaf7", "fusion_lon": 0.0, "lon": -77.04338833333334, "name": "28571b0ab8a17282a83d279b883bbaf7", "is_disabled": 0, "rental_uris": {"android": "https://dc.lft.to/lastmile_qr_scan", "ios": "https://dc.lft.to/lastmile_qr_scan"}, "type": "electric_scooter", "lat": 38.897295166666666, "is_reserved": 0, "fusion_lat": 0.0}, {"bike_id": "1c17d7469e332cb65fcaa0ff1bc284b8", "fusion_lon": 0.0, "lon": -77.03905883333333, "name": "1c17d7469e332cb65fcaa0ff1bc284b8", "is_disabled": 0, "rental_uris": {"android": "https://dc.lft.to/lastmile_qr_scan", "ios": "https://dc.lft.to/lastmile_qr_scan"}, "type": "electric_scooter", "lat": 38.91418216666667, "is_reserved": 0, "fusion_lat": 0.0}, {"bike_id": "5ade4ffa4a6b67ed9c486927edaf6482", "fusion_lon": 0.0, "lon": -77.0456435, "name": "5ade4ffa4a6b67ed9c486927edaf6482", "is_disabled": 0, "rental_uris": {"android": "https://dc.lft.to/lastmile_qr_scan", "ios": "https://dc.lft.to/lastmile_qr_scan"}, "type": "electric_scooter", "lat": 38.91772616666667, "is_reserved": 0, "fusion_lat": 0.0}, {"bike_id": "5a80727661227dbef4343bfbd802e1ee", "fusion_lon": 0.0, "lon": -77.02211183333333, "name": "5a80727661227dbef4343bfbd802e1ee", "is_disabled": 0, "rental_uris": {"android": "https://dc.lft.to/lastmile_qr_scan", "ios": "https://dc.lft.to/lastmile_qr_scan"}, "type": "electric_scooter", "lat": 38.91051816666667, "is_reserved": 0, "fusion_lat": 0.0}, {"bike_id": "846125f1bade2c4031af70f24edf0f52", "fusion_lon": 0.0, "lon": -76.99389516666666, "name": "846125f1bade2c4031af70f24edf0f52", "is_disabled": 0, "rental_uris": {"android": "https://dc.lft.to/lastmile_qr_scan", "ios": "https://dc.lft.to/lastmile_qr_scan"}, "type": "electric_scooter", "lat": 38.89734766666667, "is_reserved": 0, "fusion_lat": 0.0}, {"bike_id": "73315b22cb461dbe79f6e869566a2502", "fusion_lon": 0.0, "lon": -77.01534933333333, "name": "73315b22cb461dbe79f6e869566a2502", "is_disabled": 0, "rental_uris": {"android": "https://dc.lft.to/lastmile_qr_scan", "ios": "https://dc.lft.to/lastmile_qr_scan"}, "type": "electric_scooter", "lat": 38.88741616666667, "is_reserved": 0, "fusion_lat": 0.0}, {"bike_id": "b874d695e7918fccb69b2abe4ab7dc6d", "fusion_lon": 0.0, "lon": -77.01852133333334, "name": "b874d695e7918fccb69b2abe4ab7dc6d", "is_disabled": 0, "rental_uris": {"android": "https://dc.lft.to/lastmile_qr_scan", "ios": "https://dc.lft.to/lastmile_qr_scan"}, "type": "electric_scooter", "lat": 38.90398283333333, "is_reserved": 0, "fusion_lat": 0.0}, {"bike_id": "8b83477ed08cd3e465a44906ece4ad2d", "fusion_lon": 0.0, "lon": -77.0271405, "name": "8b83477ed08cd3e465a44906ece4ad2d", "is_disabled": 0, "rental_uris": {"android": "https://dc.lft.to/lastmile_qr_scan", "ios": "https://dc.lft.to/lastmile_qr_scan"}, "type": "electric_scooter", "lat": 38.90666616666667, "is_reserved": 0, "fusion_lat": 0.0}, {"bike_id": "d0061165d3e9684c52fc18396854feb7", "fusion_lon": 0.0, "lon": -77.05271416666666, "name": "d0061165d3e9684c52fc18396854feb7", "is_disabled": 0, "rental_uris": {"android": "https://dc.lft.to/lastmile_qr_scan", "ios": "https://dc.lft.to/lastmile_qr_scan"}, "type": "electric_scooter", "lat": 38.925420833333334, "is_reserved": 0, "fusion_lat": 0.0}, {"bike_id": "62be4177e4cbc33868e2ee8a7da10e14", "fusion_lon": 0.0, "lon": -77.0175065, "name": "62be4177e4cbc33868e2ee8a7da10e14", "is_disabled": 0, "rental_uris": {"android": "https://dc.lft.to/lastmile_qr_scan", "ios": "https://dc.lft.to/lastmile_qr_scan"}, "type": "electric_scooter", "lat": 38.8772665, "is_reserved": 0, "fusion_lat": 0.0}, {"bike_id": "60679c40cb78a574cf2f2727daede044", "fusion_lon": 0.0, "lon": -76.99818666666667, "name": "60679c40cb78a574cf2f2727daede044", "is_disabled": 0, "rental_uris": {"android": "https://dc.lft.to/lastmile_qr_scan", "ios": "https://dc.lft.to/lastmile_qr_scan"}, "type": "electric_scooter", "lat": 38.90824833333333, "is_reserved": 0, "fusion_lat": 0.0}, {"bike_id": "4c19d4f37b1ad71b07a36e227a81d3a6", "fusion_lon": 0.0, "lon": -77.03129133333333, "name": "4c19d4f37b1ad71b07a36e227a81d3a6", "is_disabled": 0, "rental_uris": {"android": "https://dc.lft.to/lastmile_qr_scan", "ios": "https://dc.lft.to/lastmile_qr_scan"}, "type": "electric_scooter", "lat": 38.9180075, "is_reserved": 0, "fusion_lat": 0.0}, {"bike_id": "99ada242b56e7a89645d6902b676df0d", "fusion_lon": 0.0, "lon": -77.01745533333333, "name": "99ada242b56e7a89645d6902b676df0d", "is_disabled": 0, "rental_uris": {"android": "https://dc.lft.to/lastmile_qr_scan", "ios": "https://dc.lft.to/lastmile_qr_scan"}, "type": "electric_scooter", "lat": 38.883401666666664, "is_reserved": 0, "fusion_lat": 0.0}, {"bike_id": "6713cfa7a9afb69dad2ee6b39df7e803", "fusion_lon": 0.0, "lon": -76.99353816666667, "name": "6713cfa7a9afb69dad2ee6b39df7e803", "is_disabled": 0, "rental_uris": {"android": "https://dc.lft.to/lastmile_qr_scan", "ios": "https://dc.lft.to/lastmile_qr_scan"}, "type": "electric_bike", "lat": 38.84504783333333, "is_reserved": 0, "fusion_lat": 0.0}, {"bike_id": "6484720dab980b5c38975f545a38bf58", "fusion_lon": 0.0, "lon": -77.02718633333333, "name": "6484720dab980b5c38975f545a38bf58", "is_disabled": 0, "rental_uris": {"android": "https://dc.lft.to/lastmile_qr_scan", "ios": "https://dc.lft.to/lastmile_qr_scan"}, "type": "electric_scooter", "lat": 38.9068255, "is_reserved": 0, "fusion_lat": 0.0}, {"bike_id": "09bb8ffbebc94032244a7453a567b8ca", "fusion_lon": 0.0, "lon": -77.0356815, "name": "09bb8ffbebc94032244a7453a567b8ca", "is_disabled": 0, "rental_uris": {"android": "https://dc.lft.to/lastmile_qr_scan", "ios": "https://dc.lft.to/lastmile_qr_scan"}, "type": "electric_scooter", "lat": 38.92338983333333, "is_reserved": 0, "fusion_lat": 0.0}, {"bike_id": "a75b0021351e7f8e058bbd9d5dd3c47d", "fusion_lon": 0.0, "lon": -77.00727833333333, "name": "a75b0021351e7f8e058bbd9d5dd3c47d", "is_disabled": 0, "rental_uris": {"android": "https://dc.lft.to/lastmile_qr_scan", "ios": "https://dc.lft.to/lastmile_qr_scan"}, "type": "electric_scooter", "lat": 38.88491366666667, "is_reserved": 0, "fusion_lat": 0.0}, {"bike_id": "955ae253c71312a678b618ce59e4034b", "fusion_lon": 0.0, "lon": -77.00154383333333, "name": "955ae253c71312a678b618ce59e4034b", "is_disabled": 0, "rental_uris": {"android": "https://dc.lft.to/lastmile_qr_scan", "ios": "https://dc.lft.to/lastmile_qr_scan"}, "type": "electric_scooter", "lat": 38.9073225, "is_reserved": 0, "fusion_lat": 0.0}, {"bike_id": "f803b9af246c333e7bf71f55af292c65", "fusion_lon": 0.0, "lon": -76.97947766666667, "name": "f803b9af246c333e7bf71f55af292c65", "is_disabled": 0, "rental_uris": {"android": "https://dc.lft.to/lastmile_qr_scan", "ios": "https://dc.lft.to/lastmile_qr_scan"}, "type": "electric_scooter", "lat": 38.945257, "is_reserved": 0, "fusion_lat": 0.0}, {"bike_id": "64cfa7a176775e8aac610b5622fdfa10", "fusion_lon": 0.0, "lon": -77.029641, "name": "64cfa7a176775e8aac610b5622fdfa10", "is_disabled": 0, "rental_uris": {"android": "https://dc.lft.to/lastmile_qr_scan", "ios": "https://dc.lft.to/lastmile_qr_scan"}, "type": "electric_scooter", "lat": 38.907314666666664, "is_reserved": 0, "fusion_lat": 0.0}, {"bike_id": "dea584b25b6ee7c1a6d51e6662913a6c", "fusion_lon": 0.0, "lon": -77.020724, "name": "dea584b25b6ee7c1a6d51e6662913a6c", "is_disabled": 0, "rental_uris": {"android": "https://dc.lft.to/lastmile_qr_scan", "ios": "https://dc.lft.to/lastmile_qr_scan"}, "type": "electric_bike", "lat": 38.9644085, "is_reserved": 0, "fusion_lat": 0.0}, {"bike_id": "46d07d91a4b17f0a640912c6c25d0eeb", "fusion_lon": 0.0, "lon": -77.03578166666667, "name": "46d07d91a4b17f0a640912c6c25d0eeb", "is_disabled": 0, "rental_uris": {"android": "https://dc.lft.to/lastmile_qr_scan", "ios": "https://dc.lft.to/lastmile_qr_scan"}, "type": "electric_scooter", "lat": 38.91280716666667, "is_reserved": 0, "fusion_lat": 0.0}, {"bike_id": "c594ef36f839390bfbb4c51c8f181216", "fusion_lon": 0.0, "lon": -77.00955066666667, "name": "c594ef36f839390bfbb4c51c8f181216", "is_disabled": 0, "rental_uris": {"android": "https://dc.lft.to/lastmile_qr_scan", "ios": "https://dc.lft.to/lastmile_qr_scan"}, "type": "electric_scooter", "lat": 38.90793083333333, "is_reserved": 0, "fusion_lat": 0.0}, {"bike_id": "1ce57cfbbc0dae544108e589a7898510", "fusion_lon": 0.0, "lon": -77.026621, "name": "1ce57cfbbc0dae544108e589a7898510", "is_disabled": 0, "rental_uris": {"android": "https://dc.lft.to/lastmile_qr_scan", "ios": "https://dc.lft.to/lastmile_qr_scan"}, "type": "electric_scooter", "lat": 38.92221033333333, "is_reserved": 0, "fusion_lat": 0.0}, {"bike_id": "2e9dccf2e87a75cc1b96827d5969c64b", "fusion_lon": 0.0, "lon": -77.04663216666667, "name": "2e9dccf2e87a75cc1b96827d5969c64b", "is_disabled": 0, "rental_uris": {"android": "https://dc.lft.to/lastmile_qr_scan", "ios": "https://dc.lft.to/lastmile_qr_scan"}, "type": "electric_scooter", "lat": 38.90549383333333, "is_reserved": 0, "fusion_lat": 0.0}, {"bike_id": "844da3ac5c95fd982c41b132d0ae79ad", "fusion_lon": 0.0, "lon": -77.04735616666666, "name": "844da3ac5c95fd982c41b132d0ae79ad", "is_disabled": 0, "rental_uris": {"android": "https://dc.lft.to/lastmile_qr_scan", "ios": "https://dc.lft.to/lastmile_qr_scan"}, "type": "electric_scooter", "lat": 38.901421666666664, "is_reserved": 0, "fusion_lat": 0.0}, {"bike_id": "b1cf7f9c6d8ad76e2c4ccd29c3730122", "fusion_lon": 0.0, "lon": -77.01749283333334, "name": "b1cf7f9c6d8ad76e2c4ccd29c3730122", "is_disabled": 0, "rental_uris": {"android": "https://dc.lft.to/lastmile_qr_scan", "ios": "https://dc.lft.to/lastmile_qr_scan"}, "type": "electric_scooter", "lat": 38.87719033333333, "is_reserved": 0, "fusion_lat": 0.0}, {"bike_id": "10f7f35b2b6a695bf9a105749e5c6f35", "fusion_lon": 0.0, "lon": -77.022175, "name": "10f7f35b2b6a695bf9a105749e5c6f35", "is_disabled": 0, "rental_uris": {"android": "https://dc.lft.to/lastmile_qr_scan", "ios": "https://dc.lft.to/lastmile_qr_scan"}, "type": "electric_scooter", "lat": 38.915587333333335, "is_reserved": 0, "fusion_lat": 0.0}, {"bike_id": "e41bbe15982ba65d34ade96b02acc0fb", "fusion_lon": 0.0, "lon": -77.024726, "name": "e41bbe15982ba65d34ade96b02acc0fb", "is_disabled": 0, "rental_uris": {"android": "https://dc.lft.to/lastmile_qr_scan", "ios": "https://dc.lft.to/lastmile_qr_scan"}, "type": "electric_scooter", "lat": 38.909651, "is_reserved": 0, "fusion_lat": 0.0}, {"bike_id": "a9097f4ff50e1864016ed8fbb49d4cfe", "fusion_lon": 0.0, "lon": -76.99530316666667, "name": "a9097f4ff50e1864016ed8fbb49d4cfe", "is_disabled": 0, "rental_uris": {"android": "https://dc.lft.to/lastmile_qr_scan", "ios": "https://dc.lft.to/lastmile_qr_scan"}, "type": "electric_scooter", "lat": 38.9267685, "is_reserved": 0, "fusion_lat": 0.0}, {"bike_id": "262559541e225e577824b472317ba98a", "fusion_lon": 0.0, "lon": -77.04797283333333, "name": "262559541e225e577824b472317ba98a", "is_disabled": 0, "rental_uris": {"android": "https://dc.lft.to/lastmile_qr_scan", "ios": "https://dc.lft.to/lastmile_qr_scan"}, "type": "electric_scooter", "lat": 38.90212783333333, "is_reserved": 0, "fusion_lat": 0.0}, {"bike_id": "28312fd25072754315b47a344f13a440", "fusion_lon": 0.0, "lon": -76.92869033333334, "name": "28312fd25072754315b47a344f13a440", "is_disabled": 0, "rental_uris": {"android": "https://dc.lft.to/lastmile_qr_scan", "ios": "https://dc.lft.to/lastmile_qr_scan"}, "type": "electric_scooter", "lat": 38.88522316666667, "is_reserved": 0, "fusion_lat": 0.0}, {"bike_id": "96899cf851c7becdaf58f119a88a4e8d", "fusion_lon": 0.0, "lon": -77.09801216666666, "name": "96899cf851c7becdaf58f119a88a4e8d", "is_disabled": 0, "rental_uris": {"android": "https://dc.lft.to/lastmile_qr_scan", "ios": "https://dc.lft.to/lastmile_qr_scan"}, "type": "electric_bike", "lat": 38.85030616666667, "is_reserved": 0, "fusion_lat": 0.0}, {"bike_id": "5079ff7b256a0d0f5563cc55218a6e8f", "fusion_lon": 0.0, "lon": -77.099624, "name": "5079ff7b256a0d0f5563cc55218a6e8f", "is_disabled": 0, "rental_uris": {"android": "https://dc.lft.to/lastmile_qr_scan", "ios": "https://dc.lft.to/lastmile_qr_scan"}, "type": "electric_bike", "lat": 38.857970333333334, "is_reserved": 0, "fusion_lat": 0.0}, {"bike_id": "26de246c7e49ec8ef10c0931ce9baeff", "fusion_lon": 0.0, "lon": -77.02389083333334, "name": "26de246c7e49ec8ef10c0931ce9baeff", "is_disabled": 0, "rental_uris": {"android": "https://dc.lft.to/lastmile_qr_scan", "ios": "https://dc.lft.to/lastmile_qr_scan"}, "type": "electric_scooter", "lat": 38.901959166666664, "is_reserved": 0, "fusion_lat": 0.0}, {"bike_id": "713ed5816b2fa507416b5220a38511c1", "fusion_lon": 0.0, "lon": -76.98513483333333, "name": "713ed5816b2fa507416b5220a38511c1", "is_disabled": 0, "rental_uris": {"android": "https://dc.lft.to/lastmile_qr_scan", "ios": "https://dc.lft.to/lastmile_qr_scan"}, "type": "electric_scooter", "lat": 38.866543666666665, "is_reserved": 0, "fusion_lat": 0.0}, {"bike_id": "7f9271687c700b80ce3ec66e978c0485", "fusion_lon": 0.0, "lon": -77.053159, "name": "7f9271687c700b80ce3ec66e978c0485", "is_disabled": 0, "rental_uris": {"android": "https://dc.lft.to/lastmile_qr_scan", "ios": "https://dc.lft.to/lastmile_qr_scan"}, "type": "electric_scooter", "lat": 38.902653666666666, "is_reserved": 0, "fusion_lat": 0.0}, {"bike_id": "6cee7eb4a82f64c3cff3ab29c6f20759", "fusion_lon": 0.0, "lon": -77.03445316666667, "name": "6cee7eb4a82f64c3cff3ab29c6f20759", "is_disabled": 0, "rental_uris": {"android": "https://dc.lft.to/lastmile_qr_scan", "ios": "https://dc.lft.to/lastmile_qr_scan"}, "type": "electric_scooter", "lat": 38.90738416666667, "is_reserved": 0, "fusion_lat": 0.0}, {"bike_id": "5d80601de663d1dda52dd4dcb85c384d", "fusion_lon": 0.0, "lon": -77.03696883333333, "name": "5d80601de663d1dda52dd4dcb85c384d", "is_disabled": 0, "rental_uris": {"android": "https://dc.lft.to/lastmile_qr_scan", "ios": "https://dc.lft.to/lastmile_qr_scan"}, "type": "electric_scooter", "lat": 38.916527333333335, "is_reserved": 0, "fusion_lat": 0.0}, {"bike_id": "2d737f4744ff922203395864fd3ced2b", "fusion_lon": 0.0, "lon": -77.02948116666667, "name": "2d737f4744ff922203395864fd3ced2b", "is_disabled": 0, "rental_uris": {"android": "https://dc.lft.to/lastmile_qr_scan", "ios": "https://dc.lft.to/lastmile_qr_scan"}, "type": "electric_scooter", "lat": 38.905039333333335, "is_reserved": 0, "fusion_lat": 0.0}, {"bike_id": "55bb4b61048fd544f4fd8817ed287d2f", "fusion_lon": 0.0, "lon": -77.03018883333333, "name": "55bb4b61048fd544f4fd8817ed287d2f", "is_disabled": 0, "rental_uris": {"android": "https://dc.lft.to/lastmile_qr_scan", "ios": "https://dc.lft.to/lastmile_qr_scan"}, "type": "electric_scooter", "lat": 38.896237166666666, "is_reserved": 0, "fusion_lat": 0.0}, {"bike_id": "a76dad9bf8598581fc08447f15afc37e", "fusion_lon": 0.0, "lon": -77.05335583333333, "name": "a76dad9bf8598581fc08447f15afc37e", "is_disabled": 0, "rental_uris": {"android": "https://dc.lft.to/lastmile_qr_scan", "ios": "https://dc.lft.to/lastmile_qr_scan"}, "type": "electric_scooter", "lat": 38.92795816666667, "is_reserved": 0, "fusion_lat": 0.0}, {"bike_id": "2d12615f218a33817ef7cd06a6f94965", "fusion_lon": 0.0, "lon": -76.99777533333334, "name": "2d12615f218a33817ef7cd06a6f94965", "is_disabled": 0, "rental_uris": {"android": "https://dc.lft.to/lastmile_qr_scan", "ios": "https://dc.lft.to/lastmile_qr_scan"}, "type": "electric_bike", "lat": 38.862108166666665, "is_reserved": 0, "fusion_lat": 0.0}, {"bike_id": "c598cf1e32b0409e532820c7a94e4574", "fusion_lon": 0.0, "lon": -77.01861466666666, "name": "c598cf1e32b0409e532820c7a94e4574", "is_disabled": 0, "rental_uris": {"android": "https://dc.lft.to/lastmile_qr_scan", "ios": "https://dc.lft.to/lastmile_qr_scan"}, "type": "electric_scooter", "lat": 38.90023866666667, "is_reserved": 0, "fusion_lat": 0.0}, {"bike_id": "fa5b25428d08e2f78cbc7e2fb7c91357", "fusion_lon": 0.0, "lon": -76.96467033333333, "name": "fa5b25428d08e2f78cbc7e2fb7c91357", "is_disabled": 0, "rental_uris": {"android": "https://dc.lft.to/lastmile_qr_scan", "ios": "https://dc.lft.to/lastmile_qr_scan"}, "type": "electric_scooter", "lat": 38.93446633333333, "is_reserved": 0, "fusion_lat": 0.0}, {"bike_id": "71592c34549572ebd0dd5ffb68b90dc7", "fusion_lon": 0.0, "lon": -77.04391816666667, "name": "71592c34549572ebd0dd5ffb68b90dc7", "is_disabled": 0, "rental_uris": {"android": "https://dc.lft.to/lastmile_qr_scan", "ios": "https://dc.lft.to/lastmile_qr_scan"}, "type": "electric_scooter", "lat": 38.9108995, "is_reserved": 0, "fusion_lat": 0.0}, {"bike_id": "eab5eef3d138491ff8f908693b4ba44b", "fusion_lon": 0.0, "lon": -76.99947116666667, "name": "eab5eef3d138491ff8f908693b4ba44b", "is_disabled": 0, "rental_uris": {"android": "https://dc.lft.to/lastmile_qr_scan", "ios": "https://dc.lft.to/lastmile_qr_scan"}, "type": "electric_scooter", "lat": 38.842962666666665, "is_reserved": 0, "fusion_lat": 0.0}, {"bike_id": "909cf86d353e6c2350230b0c9fa03a32", "fusion_lon": 0.0, "lon": -77.031852, "name": "909cf86d353e6c2350230b0c9fa03a32", "is_disabled": 0, "rental_uris": {"android": "https://dc.lft.to/lastmile_qr_scan", "ios": "https://dc.lft.to/lastmile_qr_scan"}, "type": "electric_scooter", "lat": 38.924808, "is_reserved": 0, "fusion_lat": 0.0}, {"bike_id": "7df99421eda5d10b3172ecc94e39129b", "fusion_lon": 0.0, "lon": -77.04448566666667, "name": "7df99421eda5d10b3172ecc94e39129b", "is_disabled": 0, "rental_uris": {"android": "https://dc.lft.to/lastmile_qr_scan", "ios": "https://dc.lft.to/lastmile_qr_scan"}, "type": "electric_scooter", "lat": 38.911912, "is_reserved": 0, "fusion_lat": 0.0}, {"bike_id": "438334d2731f1fef549993acdadbe87b", "fusion_lon": 0.0, "lon": -77.03853283333333, "name": "438334d2731f1fef549993acdadbe87b", "is_disabled": 0, "rental_uris": {"android": "https://dc.lft.to/lastmile_qr_scan", "ios": "https://dc.lft.to/lastmile_qr_scan"}, "type": "electric_scooter", "lat": 38.91541733333333, "is_reserved": 0, "fusion_lat": 0.0}, {"bike_id": "6dc41087fb3d7defc29f4e2714e687d3", "fusion_lon": 0.0, "lon": -77.01854333333333, "name": "6dc41087fb3d7defc29f4e2714e687d3", "is_disabled": 0, "rental_uris": {"android": "https://dc.lft.to/lastmile_qr_scan", "ios": "https://dc.lft.to/lastmile_qr_scan"}, "type": "electric_scooter", "lat": 38.877173, "is_reserved": 0, "fusion_lat": 0.0}, {"bike_id": "8d640bfe8dff6b6185c5dd7fa3ceaa0e", "fusion_lon": 0.0, "lon": -76.99599166666667, "name": "8d640bfe8dff6b6185c5dd7fa3ceaa0e", "is_disabled": 0, "rental_uris": {"android": "https://dc.lft.to/lastmile_qr_scan", "ios": "https://dc.lft.to/lastmile_qr_scan"}, "type": "electric_bike", "lat": 38.9507545, "is_reserved": 0, "fusion_lat": 0.0}, {"bike_id": "60f61268ca742a0e5391f9ea266c4e8e", "fusion_lon": 0.0, "lon": -77.02517583333334, "name": "60f61268ca742a0e5391f9ea266c4e8e", "is_disabled": 0, "rental_uris": {"android": "https://dc.lft.to/lastmile_qr_scan", "ios": "https://dc.lft.to/lastmile_qr_scan"}, "type": "electric_scooter", "lat": 38.902946166666666, "is_reserved": 0, "fusion_lat": 0.0}, {"bike_id": "3d5e342a1315b4582521da1c2715346b", "fusion_lon": 0.0, "lon": -77.02818533333334, "name": "3d5e342a1315b4582521da1c2715346b", "is_disabled": 0, "rental_uris": {"android": "https://dc.lft.to/lastmile_qr_scan", "ios": "https://dc.lft.to/lastmile_qr_scan"}, "type": "electric_scooter", "lat": 38.916853333333336, "is_reserved": 0, "fusion_lat": 0.0}, {"bike_id": "a9623e0a2ae1a83a60c954dc8fc5e503", "fusion_lon": 0.0, "lon": -77.05900783333334, "name": "a9623e0a2ae1a83a60c954dc8fc5e503", "is_disabled": 0, "rental_uris": {"android": "https://dc.lft.to/lastmile_qr_scan", "ios": "https://dc.lft.to/lastmile_qr_scan"}, "type": "electric_scooter", "lat": 38.93604033333333, "is_reserved": 0, "fusion_lat": 0.0}, {"bike_id": "0fbd5f9b2aabef5a252b464dc2deb7bd", "fusion_lon": 0.0, "lon": -77.022086, "name": "0fbd5f9b2aabef5a252b464dc2deb7bd", "is_disabled": 0, "rental_uris": {"android": "https://dc.lft.to/lastmile_qr_scan", "ios": "https://dc.lft.to/lastmile_qr_scan"}, "type": "electric_scooter", "lat": 38.9156255, "is_reserved": 0, "fusion_lat": 0.0}, {"bike_id": "9a880d3e51c8d8f6628fb2fff0ee8ae7", "fusion_lon": 0.0, "lon": -77.08594683333334, "name": "9a880d3e51c8d8f6628fb2fff0ee8ae7", "is_disabled": 0, "rental_uris": {"android": "https://dc.lft.to/lastmile_qr_scan", "ios": "https://dc.lft.to/lastmile_qr_scan"}, "type": "electric_scooter", "lat": 38.90868016666667, "is_reserved": 0, "fusion_lat": 0.0}, {"bike_id": "8595e83727ce868c4644d01920f873e0", "fusion_lon": 0.0, "lon": -77.04333433333333, "name": "8595e83727ce868c4644d01920f873e0", "is_disabled": 0, "rental_uris": {"android": "https://dc.lft.to/lastmile_qr_scan", "ios": "https://dc.lft.to/lastmile_qr_scan"}, "type": "electric_scooter", "lat": 38.8952485, "is_reserved": 0, "fusion_lat": 0.0}, {"bike_id": "6cc966643634a80fb23267bd45917a1c", "fusion_lon": 0.0, "lon": -76.98817916666667, "name": "6cc966643634a80fb23267bd45917a1c", "is_disabled": 0, "rental_uris": {"android": "https://dc.lft.to/lastmile_qr_scan", "ios": "https://dc.lft.to/lastmile_qr_scan"}, "type": "electric_scooter", "lat": 38.90034033333333, "is_reserved": 0, "fusion_lat": 0.0}, {"bike_id": "db091a6cc8e8138abb748298bb4af1bc", "fusion_lon": 0.0, "lon": -77.019859, "name": "db091a6cc8e8138abb748298bb4af1bc", "is_disabled": 0, "rental_uris": {"android": "https://dc.lft.to/lastmile_qr_scan", "ios": "https://dc.lft.to/lastmile_qr_scan"}, "type": "electric_scooter", "lat": 38.884822166666666, "is_reserved": 0, "fusion_lat": 0.0}, {"bike_id": "ad4102bb5af7ea3baa43fce6f0100a09", "fusion_lon": 0.0, "lon": -77.02080766666667, "name": "ad4102bb5af7ea3baa43fce6f0100a09", "is_disabled": 0, "rental_uris": {"android": "https://dc.lft.to/lastmile_qr_scan", "ios": "https://dc.lft.to/lastmile_qr_scan"}, "type": "electric_scooter", "lat": 38.87572133333333, "is_reserved": 0, "fusion_lat": 0.0}, {"bike_id": "7dabc62b806eed2239314e4e3a70e21f", "fusion_lon": 0.0, "lon": -77.02948316666667, "name": "7dabc62b806eed2239314e4e3a70e21f", "is_disabled": 0, "rental_uris": {"android": "https://dc.lft.to/lastmile_qr_scan", "ios": "https://dc.lft.to/lastmile_qr_scan"}, "type": "electric_scooter", "lat": 38.90503566666667, "is_reserved": 0, "fusion_lat": 0.0}, {"bike_id": "ea07788f6ad9fb79bafc7b185b0fa141", "fusion_lon": 0.0, "lon": -76.98943833333334, "name": "ea07788f6ad9fb79bafc7b185b0fa141", "is_disabled": 0, "rental_uris": {"android": "https://dc.lft.to/lastmile_qr_scan", "ios": "https://dc.lft.to/lastmile_qr_scan"}, "type": "electric_scooter", "lat": 38.90397266666667, "is_reserved": 0, "fusion_lat": 0.0}, {"bike_id": "760cc157192360792cb6c81833e6f1f4", "fusion_lon": 0.0, "lon": -77.03377416666666, "name": "760cc157192360792cb6c81833e6f1f4", "is_disabled": 0, "rental_uris": {"android": "https://dc.lft.to/lastmile_qr_scan", "ios": "https://dc.lft.to/lastmile_qr_scan"}, "type": "electric_scooter", "lat": 38.9136625, "is_reserved": 0, "fusion_lat": 0.0}, {"bike_id": "85c76aacdb764899c29d01f860fc3c88", "fusion_lon": 0.0, "lon": -76.97332783333333, "name": "85c76aacdb764899c29d01f860fc3c88", "is_disabled": 0, "rental_uris": {"android": "https://dc.lft.to/lastmile_qr_scan", "ios": "https://dc.lft.to/lastmile_qr_scan"}, "type": "electric_scooter", "lat": 38.904115166666664, "is_reserved": 0, "fusion_lat": 0.0}, {"bike_id": "3d79b168a4b062ed5728600c5d20371f", "fusion_lon": 0.0, "lon": -77.0071665, "name": "3d79b168a4b062ed5728600c5d20371f", "is_disabled": 0, "rental_uris": {"android": "https://dc.lft.to/lastmile_qr_scan", "ios": "https://dc.lft.to/lastmile_qr_scan"}, "type": "electric_scooter", "lat": 38.87689266666667, "is_reserved": 0, "fusion_lat": 0.0}, {"bike_id": "f47a3e5eacd1bea9f2b497c641c77141", "fusion_lon": 0.0, "lon": -76.99255916666667, "name": "f47a3e5eacd1bea9f2b497c641c77141", "is_disabled": 0, "rental_uris": {"android": "https://dc.lft.to/lastmile_qr_scan", "ios": "https://dc.lft.to/lastmile_qr_scan"}, "type": "electric_scooter", "lat": 38.91969433333333, "is_reserved": 0, "fusion_lat": 0.0}, {"bike_id": "d9c77c8db26efb3f0e2614d56e2dbef5", "fusion_lon": 0.0, "lon": -77.03779533333334, "name": "d9c77c8db26efb3f0e2614d56e2dbef5", "is_disabled": 0, "rental_uris": {"android": "https://dc.lft.to/lastmile_qr_scan", "ios": "https://dc.lft.to/lastmile_qr_scan"}, "type": "electric_scooter", "lat": 38.906783, "is_reserved": 0, "fusion_lat": 0.0}, {"bike_id": "e9efc56639e6d00f6a57802966a9927e", "fusion_lon": 0.0, "lon": -77.030425, "name": "e9efc56639e6d00f6a57802966a9927e", "is_disabled": 0, "rental_uris": {"android": "https://dc.lft.to/lastmile_qr_scan", "ios": "https://dc.lft.to/lastmile_qr_scan"}, "type": "electric_scooter", "lat": 38.88435483333333, "is_reserved": 0, "fusion_lat": 0.0}, {"bike_id": "ab46fb1299fdf4686185f002b7aba944", "fusion_lon": 0.0, "lon": -77.04880883333334, "name": "ab46fb1299fdf4686185f002b7aba944", "is_disabled": 0, "rental_uris": {"android": "https://dc.lft.to/lastmile_qr_scan", "ios": "https://dc.lft.to/lastmile_qr_scan"}, "type": "electric_scooter", "lat": 38.91342733333333, "is_reserved": 0, "fusion_lat": 0.0}, {"bike_id": "fd653710b068efd0d3cfea365efef702", "fusion_lon": 0.0, "lon": -77.03224066666667, "name": "fd653710b068efd0d3cfea365efef702", "is_disabled": 0, "rental_uris": {"android": "https://dc.lft.to/lastmile_qr_scan", "ios": "https://dc.lft.to/lastmile_qr_scan"}, "type": "electric_scooter", "lat": 38.91476333333333, "is_reserved": 0, "fusion_lat": 0.0}, {"bike_id": "08a65cc1d85f2036dc5d0c9374babea7", "fusion_lon": 0.0, "lon": -77.04876916666667, "name": "08a65cc1d85f2036dc5d0c9374babea7", "is_disabled": 0, "rental_uris": {"android": "https://dc.lft.to/lastmile_qr_scan", "ios": "https://dc.lft.to/lastmile_qr_scan"}, "type": "electric_scooter", "lat": 38.91571533333333, "is_reserved": 0, "fusion_lat": 0.0}, {"bike_id": "6e167060c0d66cf6ae097aa70f413b9d", "fusion_lon": 0.0, "lon": -77.02333016666667, "name": "6e167060c0d66cf6ae097aa70f413b9d", "is_disabled": 0, "rental_uris": {"android": "https://dc.lft.to/lastmile_qr_scan", "ios": "https://dc.lft.to/lastmile_qr_scan"}, "type": "electric_scooter", "lat": 38.9247925, "is_reserved": 0, "fusion_lat": 0.0}, {"bike_id": "3c925ebb903cba4973e873eb0617e41c", "fusion_lon": 0.0, "lon": -77.094818, "name": "3c925ebb903cba4973e873eb0617e41c", "is_disabled": 0, "rental_uris": {"android": "https://dc.lft.to/lastmile_qr_scan", "ios": "https://dc.lft.to/lastmile_qr_scan"}, "type": "electric_bike", "lat": 39.03044966666667, "is_reserved": 0, "fusion_lat": 0.0}, {"bike_id": "4ca124806dcb3db8c52020ee8b1f82b3", "fusion_lon": 0.0, "lon": -77.06340983333334, "name": "4ca124806dcb3db8c52020ee8b1f82b3", "is_disabled": 0, "rental_uris": {"android": "https://dc.lft.to/lastmile_qr_scan", "ios": "https://dc.lft.to/lastmile_qr_scan"}, "type": "electric_scooter", "lat": 38.90684383333333, "is_reserved": 0, "fusion_lat": 0.0}, {"bike_id": "9c909420e3f19892402a6c2ff7f06791", "fusion_lon": 0.0, "lon": -77.03849316666667, "name": "9c909420e3f19892402a6c2ff7f06791", "is_disabled": 0, "rental_uris": {"android": "https://dc.lft.to/lastmile_qr_scan", "ios": "https://dc.lft.to/lastmile_qr_scan"}, "type": "electric_scooter", "lat": 38.867476333333336, "is_reserved": 0, "fusion_lat": 0.0}, {"bike_id": "066e17ccb41ec42f28b91360d73e1610", "fusion_lon": 0.0, "lon": -77.02962883333333, "name": "066e17ccb41ec42f28b91360d73e1610", "is_disabled": 0, "rental_uris": {"android": "https://dc.lft.to/lastmile_qr_scan", "ios": "https://dc.lft.to/lastmile_qr_scan"}, "type": "electric_scooter", "lat": 38.93226583333333, "is_reserved": 0, "fusion_lat": 0.0}, {"bike_id": "6e05152d639ebf9a8a86dc0be3e5d739", "fusion_lon": 0.0, "lon": -77.05352083333334, "name": "6e05152d639ebf9a8a86dc0be3e5d739", "is_disabled": 0, "rental_uris": {"android": "https://dc.lft.to/lastmile_qr_scan", "ios": "https://dc.lft.to/lastmile_qr_scan"}, "type": "electric_scooter", "lat": 38.92653933333333, "is_reserved": 0, "fusion_lat": 0.0}, {"bike_id": "11197d6193e6123146f38d82d7fe0abc", "fusion_lon": 0.0, "lon": -76.99332716666666, "name": "11197d6193e6123146f38d82d7fe0abc", "is_disabled": 0, "rental_uris": {"android": "https://dc.lft.to/lastmile_qr_scan", "ios": "https://dc.lft.to/lastmile_qr_scan"}, "type": "electric_scooter", "lat": 38.871431, "is_reserved": 0, "fusion_lat": 0.0}, {"bike_id": "12ef5d9ed7bd8ccf6b7224dffb7265a6", "fusion_lon": 0.0, "lon": -76.94806883333334, "name": "12ef5d9ed7bd8ccf6b7224dffb7265a6", "is_disabled": 0, "rental_uris": {"android": "https://dc.lft.to/lastmile_qr_scan", "ios": "https://dc.lft.to/lastmile_qr_scan"}, "type": "electric_bike", "lat": 38.8939, "is_reserved": 0, "fusion_lat": 0.0}, {"bike_id": "6801b8dc635a12018cc02dbba8f0cb5d", "fusion_lon": 0.0, "lon": -76.98874, "name": "6801b8dc635a12018cc02dbba8f0cb5d", "is_disabled": 0, "rental_uris": {"android": "https://dc.lft.to/lastmile_qr_scan", "ios": "https://dc.lft.to/lastmile_qr_scan"}, "type": "electric_bike", "lat": 38.95482333333333, "is_reserved": 0, "fusion_lat": 0.0}, {"bike_id": "e80006645a9928b8b02df86689eeb90c", "fusion_lon": 0.0, "lon": -77.04381233333334, "name": "e80006645a9928b8b02df86689eeb90c", "is_disabled": 0, "rental_uris": {"android": "https://dc.lft.to/lastmile_qr_scan", "ios": "https://dc.lft.to/lastmile_qr_scan"}, "type": "electric_scooter", "lat": 38.910774333333336, "is_reserved": 0, "fusion_lat": 0.0}, {"bike_id": "c6b9fc80a9e2786145d5cae48c7771d1", "fusion_lon": 0.0, "lon": -76.937339, "name": "c6b9fc80a9e2786145d5cae48c7771d1", "is_disabled": 0, "rental_uris": {"android": "https://dc.lft.to/lastmile_qr_scan", "ios": "https://dc.lft.to/lastmile_qr_scan"}, "type": "electric_scooter", "lat": 38.890159, "is_reserved": 0, "fusion_lat": 0.0}, {"bike_id": "3dfa721fd1c776d7e2b82747113a9114", "fusion_lon": 0.0, "lon": -77.06906166666667, "name": "3dfa721fd1c776d7e2b82747113a9114", "is_disabled": 0, "rental_uris": {"android": "https://dc.lft.to/lastmile_qr_scan", "ios": "https://dc.lft.to/lastmile_qr_scan"}, "type": "electric_scooter", "lat": 38.91012933333333, "is_reserved": 0, "fusion_lat": 0.0}, {"bike_id": "9ed75669c03d392ff051f1b8c2c7e299", "fusion_lon": 0.0, "lon": -77.0175905, "name": "9ed75669c03d392ff051f1b8c2c7e299", "is_disabled": 0, "rental_uris": {"android": "https://dc.lft.to/lastmile_qr_scan", "ios": "https://dc.lft.to/lastmile_qr_scan"}, "type": "electric_scooter", "lat": 38.902618333333336, "is_reserved": 0, "fusion_lat": 0.0}, {"bike_id": "9d14d455ceb3f63234b4c0927df005d2", "fusion_lon": 0.0, "lon": -77.027394, "name": "9d14d455ceb3f63234b4c0927df005d2", "is_disabled": 0, "rental_uris": {"android": "https://dc.lft.to/lastmile_qr_scan", "ios": "https://dc.lft.to/lastmile_qr_scan"}, "type": "electric_scooter", "lat": 38.96703133333333, "is_reserved": 0, "fusion_lat": 0.0}, {"bike_id": "c5000a776e018de4a283fd66fe7ea324", "fusion_lon": 0.0, "lon": -77.00721816666666, "name": "c5000a776e018de4a283fd66fe7ea324", "is_disabled": 0, "rental_uris": {"android": "https://dc.lft.to/lastmile_qr_scan", "ios": "https://dc.lft.to/lastmile_qr_scan"}, "type": "electric_scooter", "lat": 38.90339516666667, "is_reserved": 0, "fusion_lat": 0.0}, {"bike_id": "c27ca763a4086682ba6bfcb2049da83f", "fusion_lon": 0.0, "lon": -77.01909516666667, "name": "c27ca763a4086682ba6bfcb2049da83f", "is_disabled": 0, "rental_uris": {"android": "https://dc.lft.to/lastmile_qr_scan", "ios": "https://dc.lft.to/lastmile_qr_scan"}, "type": "electric_scooter", "lat": 38.91505466666667, "is_reserved": 0, "fusion_lat": 0.0}, {"bike_id": "c909433f140b7e64d6c7a9c57131ab5e", "fusion_lon": 0.0, "lon": -76.97834283333333, "name": "c909433f140b7e64d6c7a9c57131ab5e", "is_disabled": 0, "rental_uris": {"android": "https://dc.lft.to/lastmile_qr_scan", "ios": "https://dc.lft.to/lastmile_qr_scan"}, "type": "electric_bike", "lat": 38.870732333333336, "is_reserved": 0, "fusion_lat": 0.0}, {"bike_id": "0832b39aa21a7668bb2dd1dea473fd5f", "fusion_lon": 0.0, "lon": -77.05393716666667, "name": "0832b39aa21a7668bb2dd1dea473fd5f", "is_disabled": 0, "rental_uris": {"android": "https://dc.lft.to/lastmile_qr_scan", "ios": "https://dc.lft.to/lastmile_qr_scan"}, "type": "electric_scooter", "lat": 38.92811233333333, "is_reserved": 0, "fusion_lat": 0.0}, {"bike_id": "20735812ec7b6f4bd907ea8fef223224", "fusion_lon": 0.0, "lon": -77.00567616666666, "name": "20735812ec7b6f4bd907ea8fef223224", "is_disabled": 0, "rental_uris": {"android": "https://dc.lft.to/lastmile_qr_scan", "ios": "https://dc.lft.to/lastmile_qr_scan"}, "type": "electric_scooter", "lat": 38.905642666666665, "is_reserved": 0, "fusion_lat": 0.0},