{"data": {"bikes": [{"rental_uris": {"ios": "https://dc.lft.to/lastmile_qr_scan", "android": "https://dc.lft.to/lastmile_qr_scan"}, "lat": 38.866796666666666, "is_reserved": 0, "bike_id": "5a0b0df702ef1c293537a999ed683022", "lon": -76.98574766666667, "is_disabled": 0, "fusion_lat": 0.0, "fusion_lon": 0.0, "name": "5a0b0df702ef1c293537a999ed683022", "type": "electric_scooter"}, {"rental_uris": {"ios": "https://dc.lft.to/lastmile_qr_scan", "android": "https://dc.lft.to/lastmile_qr_scan"}, "lat": 38.897360166666665, "is_reserved": 0, "bike_id": "78556e467072e88af5eb534c3b3e3d85", "lon": -76.979809, "is_disabled": 0, "fusion_lat": 0.0, "fusion_lon": 0.0, "name": "78556e467072e88af5eb534c3b3e3d85", "type": "electric_scooter"}, {"rental_uris": {"ios": "https://dc.lft.to/lastmile_qr_scan", "android": "https://dc.lft.to/lastmile_qr_scan"}, "lat": 38.876242166666664, "is_reserved": 0, "bike_id": "e0b793484355d1e7f38dc5b195e46be9", "lon": -77.00743366666667, "is_disabled": 0, "fusion_lat": 0.0, "fusion_lon": 0.0, "name": "e0b793484355d1e7f38dc5b195e46be9", "type": "electric_scooter"}, {"rental_uris": {"ios": "https://dc.lft.to/lastmile_qr_scan", "android": "https://dc.lft.to/lastmile_qr_scan"}, "lat": 38.89751233333333, "is_reserved": 0, "bike_id": "489258396d4ce1e4688b445e274fd2bc", "lon": -77.05145616666667, "is_disabled": 0, "fusion_lat": 0.0, "fusion_lon": 0.0, "name": "489258396d4ce1e4688b445e274fd2bc", "type": "electric_scooter"}, {"rental_uris": {"ios": "https://dc.lft.to/lastmile_qr_scan", "android": "https://dc.lft.to/lastmile_qr_scan"}, "lat": 38.896451166666665, "is_reserved": 0, "bike_id": "5b044283bced99dbfc82b42cdd39ae78", "lon": -77.00933983333333, "is_disabled": 0, "fusion_lat": 0.0, "fusion_lon": 0.0, "name": "5b044283bced99dbfc82b42cdd39ae78", "type": "electric_scooter"}, {"rental_uris": {"ios": "https://dc.lft.to/lastmile_qr_scan", "android": "https://dc.lft.to/lastmile_qr_scan"}, "lat": 38.916270833333336, "is_reserved": 0, "bike_id": "8e5ae201283773698c7c245484b7b274", "lon": -77.03223483333333, "is_disabled": 0, "fusion_lat": 0.0, "fusion_lon": 0.0, "name": "8e5ae201283773698c7c245484b7b274", "type": "electric_scooter"}, {"rental_uris": {"ios": "https://dc.lft.to/lastmile_qr_scan", "android": "https://dc.lft.to/lastmile_qr_scan"}, "lat": 38.932584, "is_reserved": 0, "bike_id": "2ca3fa2614c4429d613d6e4d20fbd686", "lon": -77.03278733333333, "is_disabled": 0, "fusion_lat": 0.0, "fusion_lon": 0.0, "name": "2ca3fa2614c4429d613d6e4d20fbd686", "type": "electric_scooter"}, {"rental_uris": {"ios": "https://dc.lft.to/lastmile_qr_scan", "android": "https://dc.lft.to/lastmile_qr_scan"}, "lat": 38.892197333333336, "is_reserved": 0, "bike_id": "75a59bd9e36fcb51e817348383ab6711", "lon": -77.04516816666667, "is_disabled": 0, "fusion_lat": 0.0, "fusion_lon": 0.0, "name": "75a59bd9e36fcb51e817348383ab6711", "type": "electric_scooter"}, {"rental_uris": {"ios": "https://dc.lft.to/lastmile_qr_scan", "android": "https://dc.lft.to/lastmile_qr_scan"}, "lat": 38.92735283333333, "is_reserved": 0, "bike_id": "9c6a75fc977bbb9de3fd43e51de7a92e", "lon": -77.03432116666667, "is_disabled": 0, "fusion_lat": 0.0, "fusion_lon": 0.0, "name": "9c6a75fc977bbb9de3fd43e51de7a92e", "type": "electric_scooter"}, {"rental_uris": {"ios": "https://dc.lft.to/lastmile_qr_scan", "android": "https://dc.lft.to/lastmile_qr_scan"}, "lat": 38.907781, "is_reserved": 0, "bike_id": "fb5b9526c2bb9290dac81bb632788f3d", "lon": -77.03803216666667, "is_disabled": 0, "fusion_lat": 0.0, "fusion_lon": 0.0, "name": "fb5b9526c2bb9290dac81bb632788f3d", "type": "electric_scooter"}, {"rental_uris": {"ios": "https://dc.lft.to/lastmile_qr_scan", "android": "https://dc.lft.to/lastmile_qr_scan"}, "lat": 38.9558335, "is_reserved": 0, "bike_id": "11812969cceed632bfb8bde8cca5ff26", "lon": -77.07015583333333, "is_disabled": 0, "fusion_lat": 0.0, "fusion_lon": 0.0, "name": "11812969cceed632bfb8bde8cca5ff26", "type": "electric_scooter"}, {"rental_uris": {"ios": "https://dc.lft.to/lastmile_qr_scan", "android": "https://dc.lft.to/lastmile_qr_scan"}, "lat": 38.903132166666666, "is_reserved": 0, "bike_id": "26683ac66e5b516572e644636561ca2f", "lon": -77.02134583333333, "is_disabled": 0, "fusion_lat": 0.0, "fusion_lon": 0.0, "name": "26683ac66e5b516572e644636561ca2f", "type": "electric_scooter"}, {"rental_uris": {"ios": "https://dc.lft.to/lastmile_qr_scan", "android": "https://dc.lft.to/lastmile_qr_scan"}, "lat": 38.91137916666667, "is_reserved": 0, "bike_id": "74b95c701deeae1dc5f55eaaa92ab5a6", "lon": -77.02192116666667, "is_disabled": 0, "fusion_lat": 0.0, "fusion_lon": 0.0, "name": "74b95c701deeae1dc5f55eaaa92ab5a6", "type": "electric_scooter"}, {"rental_uris": {"ios": "https://dc.lft.to/lastmile_qr_scan", "android": "https://dc.lft.to/lastmile_qr_scan"}, "lat": 38.913839333333335, "is_reserved": 0, "bike_id": "03a946c694bd7008c4ad28ba69fd7645", "lon": -77.036588, "is_disabled": 0, "fusion_lat": 0.0, "fusion_lon": 0.0, "name": "03a946c694bd7008c4ad28ba69fd7645", "type": "electric_scooter"}, {"rental_uris": {"ios": "https://dc.lft.to/lastmile_qr_scan", "android": "https://dc.lft.to/lastmile_qr_scan"}, "lat": 38.898749333333335, "is_reserved": 0, "bike_id": "c74fafb6f2426e1bfed7e73899594693", "lon": -77.00921433333333, "is_disabled": 0, "fusion_lat": 0.0, "fusion_lon": 0.0, "name": "c74fafb6f2426e1bfed7e73899594693", "type": "electric_scooter"}, {"rental_uris": {"ios": "https://dc.lft.to/lastmile_qr_scan", "android": "https://dc.lft.to/lastmile_qr_scan"}, "lat": 38.914131833333336, "is_reserved": 0, "bike_id": "12784fb8f8a091bc0bd3e9c9d135eb64", "lon": -77.02236883333333, "is_disabled": 0, "fusion_lat": 0.0, "fusion_lon": 0.0, "name": "12784fb8f8a091bc0bd3e9c9d135eb64", "type": "electric_scooter"}, {"rental_uris": {"ios": "https://dc.lft.to/lastmile_qr_scan", "android": "https://dc.lft.to/lastmile_qr_scan"}, "lat": 38.88728066666667, "is_reserved": 0, "bike_id": "f01c2fef5de8a4f427630fbdc239c439", "lon": -77.0258515, "is_disabled": 0, "fusion_lat": 0.0, "fusion_lon": 0.0, "name": "f01c2fef5de8a4f427630fbdc239c439", "type": "electric_scooter"}, {"rental_uris": {"ios": "https://dc.lft.to/lastmile_qr_scan", "android": "https://dc.lft.to/lastmile_qr_scan"}, "lat": 38.89232583333333, "is_reserved": 0, "bike_id": "dcc0b469edd30546ebd925b87965b9db", "lon": -77.0218345, "is_disabled": 0, "fusion_lat": 0.0, "fusion_lon": 0.0, "name": "dcc0b469edd30546ebd925b87965b9db", "type": "electric_scooter"}, {"rental_uris": {"ios": "https://dc.lft.to/lastmile_qr_scan", "android": "https://dc.lft.to/lastmile_qr_scan"}, "lat": 38.90152166666667, "is_reserved": 0, "bike_id": "7784f63aca341de338eadbe311b35139", "lon": -77.0357055, "is_disabled": 0, "fusion_lat": 0.0, "fusion_lon": 0.0, "name": "7784f63aca341de338eadbe311b35139", "type": "electric_scooter"}, {"rental_uris": {"ios": "https://dc.lft.to/lastmile_qr_scan", "android": "https://dc.lft.to/lastmile_qr_scan"}, "lat": 38.91911866666667, "is_reserved": 0, "bike_id": "22c1f49a15d8b725de64d6996bf055b5", "lon": -77.03189133333333, "is_disabled": 0, "fusion_lat": 0.0, "fusion_lon": 0.0, "name": "22c1f49a15d8b725de64d6996bf055b5", "type": "electric_scooter"}, {"rental_uris": {"ios": "https://dc.lft.to/lastmile_qr_scan", "android": "https://dc.lft.to/lastmile_qr_scan"}, "lat": 39.012195, "is_reserved": 0, "bike_id": "f4b33fbafffaa59c20b673f5a8498c18", "lon": -77.11090216666666, "is_disabled": 0, "fusion_lat": 0.0, "fusion_lon": 0.0, "name": "f4b33fbafffaa59c20b673f5a8498c18", "type": "electric_bike"}, {"rental_uris": {"ios": "https://dc.lft.to/lastmile_qr_scan", "android": "https://dc.lft.to/lastmile_qr_scan"}, "lat": 39.003791666666665, "is_reserved": 0, "bike_id": "9c1b330065d8367013e03e612bb222d3", "lon": -77.01292583333333, "is_disabled": 0, "fusion_lat": 0.0, "fusion_lon": 0.0, "name": "9c1b330065d8367013e03e612bb222d3", "type": "electric_bike"}, {"rental_uris": {"ios": "https://dc.lft.to/lastmile_qr_scan", "android": "https://dc.lft.to/lastmile_qr_scan"}, "lat": 38.895952, "is_reserved": 0, "bike_id": "1fa79ac678940ed7450c86ad2622ec89", "lon": -77.0148825, "is_disabled": 0, "fusion_lat": 0.0, "fusion_lon": 0.0, "name": "1fa79ac678940ed7450c86ad2622ec89", "type": "electric_scooter"}, {"rental_uris": {"ios": "https://dc.lft.to/lastmile_qr_scan", "android": "https://dc.lft.to/lastmile_qr_scan"}, "lat": 38.94441333333333, "is_reserved": 0, "bike_id": "2a7304597f44bfc630cec5d9915907cf", "lon": -77.063518, "is_disabled": 0, "fusion_lat": 0.0, "fusion_lon": 0.0, "name": "2a7304597f44bfc630cec5d9915907cf", "type": "electric_scooter"}, {"rental_uris": {"ios": "https://dc.lft.to/lastmile_qr_scan", "android": "https://dc.lft.to/lastmile_qr_scan"}, "lat": 38.884635833333334, "is_reserved": 0, "bike_id": "409d55406a995ace18de6bd7514809fb", "lon": -77.015116, "is_disabled": 0, "fusion_lat": 0.0, "fusion_lon": 0.0, "name": "409d55406a995ace18de6bd7514809fb", "type": "electric_scooter"}, {"rental_uris": {"ios": "https://dc.lft.to/lastmile_qr_scan", "android": "https://dc.lft.to/lastmile_qr_scan"}, "lat": 38.898446166666666, "is_reserved": 0, "bike_id": "fde2e6631d9d9dead6d82fbd8c233b78", "lon": -77.02880716666667, "is_disabled": 0, "fusion_lat": 0.0, "fusion_lon": 0.0, "name": "fde2e6631d9d9dead6d82fbd8c233b78", "type": "electric_scooter"}, {"rental_uris": {"ios": "https://dc.lft.to/lastmile_qr_scan", "android": "https://dc.lft.to/lastmile_qr_scan"}, "lat": 38.885035333333335, "is_reserved": 0, "bike_id": "290a1500f5d773a8290caf603814a1c6", "lon": -77.02149816666666, "is_disabled": 0, "fusion_lat": 0.0, "fusion_lon": 0.0, "name": "290a1500f5d773a8290caf603814a1c6", "type": "electric_scooter"}, {"rental_uris": {"ios": "https://dc.lft.to/lastmile_qr_scan", "android": "https://dc.lft.to/lastmile_qr_scan"}, "lat": 38.882874666666666, "is_reserved": 0, "bike_id": "a1fe3554f1ee57f0d8be762c74a8d64e", "lon": -76.98360166666667, "is_disabled": 0, "fusion_lat": 0.0, "fusion_lon": 0.0, "name": "a1fe3554f1ee57f0d8be762c74a8d64e", "type": "electric_scooter"}, {"rental_uris": {"ios": "https://dc.lft.to/lastmile_qr_scan", "android": "https://dc.lft.to/lastmile_qr_scan"}, "lat": 38.923638833333335, "is_reserved": 0, "bike_id": "bd4d76bd82ff5bfe53fad9a457575a17", "lon": -77.05031716666667, "is_disabled": 0, "fusion_lat": 0.0, "fusion_lon": 0.0, "name": "bd4d76bd82ff5bfe53fad9a457575a17", "type": "electric_scooter"}, {"rental_uris": {"ios": "https://dc.lft.to/lastmile_qr_scan", "android": "https://dc.lft.to/lastmile_qr_scan"}, "lat": 38.9149455, "is_reserved": 0, "bike_id": "62cf3eb3fc9967f1ae3d55a5f18672e1", "lon": -77.019961, "is_disabled": 0, "fusion_lat": 0.0, "fusion_lon": 0.0, "name": "62cf3eb3fc9967f1ae3d55a5f18672e1", "type": "electric_scooter"}, {"rental_uris": {"ios": "https://dc.lft.to/lastmile_qr_scan", "android": "https://dc.lft.to/lastmile_qr_scan"}, "lat": 38.9363745, "is_reserved": 0, "bike_id": "3fc68e5d20de4391e1e9eebb68a49ac9", "lon": -77.0601345, "is_disabled": 0, "fusion_lat": 0.0, "fusion_lon": 0.0, "name": "3fc68e5d20de4391e1e9eebb68a49ac9", "type": "electric_scooter"}, {"rental_uris": {"ios": "https://dc.lft.to/lastmile_qr_scan", "android": "https://dc.lft.to/lastmile_qr_scan"}, "lat": 38.92368833333333, "is_reserved": 0, "bike_id": "47e7e2be6d63f31d4afc61071d6ca394", "lon": -77.019061, "is_disabled": 0, "fusion_lat": 0.0, "fusion_lon": 0.0, "name": "47e7e2be6d63f31d4afc61071d6ca394", "type": "electric_scooter"}, {"rental_uris": {"ios": "https://dc.lft.to/lastmile_qr_scan", "android": "https://dc.lft.to/lastmile_qr_scan"}, "lat": 38.92676766666666, "is_reserved": 0, "bike_id": "bbe470d41173320b2b7373a3e40c20ea", "lon": -77.015573, "is_disabled": 0, "fusion_lat": 0.0, "fusion_lon": 0.0, "name": "bbe470d41173320b2b7373a3e40c20ea", "type": "electric_scooter"}, {"rental_uris": {"ios": "https://dc.lft.to/lastmile_qr_scan", "android": "https://dc.lft.to/lastmile_qr_scan"}, "lat": 38.92633583333333, "is_reserved": 0, "bike_id": "83b0ea033e269b6ebda2c135fe44b448", "lon": -77.02700766666666, "is_disabled": 0, "fusion_lat": 0.0, "fusion_lon": 0.0, "name": "83b0ea033e269b6ebda2c135fe44b448", "type": "electric_scooter"}, {"rental_uris": {"ios": "https://dc.lft.to/lastmile_qr_scan", "android": "https://dc.lft.to/lastmile_qr_scan"}, "lat": 38.89402616666667, "is_reserved": 0, "bike_id": "c51d6f390086cb7234727bf528d0b1a2", "lon": -77.02993316666667, "is_disabled": 0, "fusion_lat": 0.0, "fusion_lon": 0.0, "name": "c51d6f390086cb7234727bf528d0b1a2", "type": "electric_scooter"}, {"rental_uris": {"ios": "https://dc.lft.to/lastmile_qr_scan", "android": "https://dc.lft.to/lastmile_qr_scan"}, "lat": 38.9271255, "is_reserved": 0, "bike_id": "74be3905ea5b3bf2b9859cbfff5a3466", "lon": -77.01593566666666, "is_disabled": 0, "fusion_lat": 0.0, "fusion_lon": 0.0, "name": "74be3905ea5b3bf2b9859cbfff5a3466", "type": "electric_scooter"}, {"rental_uris": {"ios": "https://dc.lft.to/lastmile_qr_scan", "android": "https://dc.lft.to/lastmile_qr_scan"}, "lat": 38.905339166666664, "is_reserved": 0, "bike_id": "0e9996cb1e6e26385ade578076ccb0da", "lon": -77.06098583333333, "is_disabled": 0, "fusion_lat": 0.0, "fusion_lon": 0.0, "name": "0e9996cb1e6e26385ade578076ccb0da", "type": "electric_scooter"}, {"rental_uris": {"ios": "https://dc.lft.to/lastmile_qr_scan", "android": "https://dc.lft.to/lastmile_qr_scan"}, "lat": 38.811475, "is_reserved": 0, "bike_id": "5cdec44f05d794c0a2619ee58b55775a", "lon": -77.05038416666666, "is_disabled": 0, "fusion_lat": 0.0, "fusion_lon": 0.0, "name": "5cdec44f05d794c0a2619ee58b55775a", "type": "electric_bike"}, {"rental_uris": {"ios": "https://dc.lft.to/lastmile_qr_scan", "android": "https://dc.lft.to/lastmile_qr_scan"}, "lat": 38.931326166666665, "is_reserved": 0, "bike_id": "e04e7254fd16b6412dd69e31fb3f8dee", "lon": -77.03854283333334, "is_disabled": 0, "fusion_lat": 0.0, "fusion_lon": 0.0, "name": "e04e7254fd16b6412dd69e31fb3f8dee", "type": "electric_scooter"}, {"rental_uris": {"ios": "https://dc.lft.to/lastmile_qr_scan", "android": "https://dc.lft.to/lastmile_qr_scan"}, "lat": 38.91675566666667, "is_reserved": 0, "bike_id": "680c22693aedd7dbe8f356c0228825fa", "lon": -77.0296705, "is_disabled": 0, "fusion_lat": 0.0, "fusion_lon": 0.0, "name": "680c22693aedd7dbe8f356c0228825fa", "type": "electric_scooter"}, {"rental_uris": {"ios": "https://dc.lft.to/lastmile_qr_scan", "android": "https://dc.lft.to/lastmile_qr_scan"}, "lat": 38.931928666666664, "is_reserved": 0, "bike_id": "47b0abb1627342d1f7549c8dcd4e3269", "lon": -77.22928516666667, "is_disabled": 0, "fusion_lat": 0.0, "fusion_lon": 0.0, "name": "47b0abb1627342d1f7549c8dcd4e3269", "type": "electric_bike"}, {"rental_uris": {"ios": "https://dc.lft.to/lastmile_qr_scan", "android": "https://dc.lft.to/lastmile_qr_scan"}, "lat": 38.90011883333333, "is_reserved": 0, "bike_id": "69c7fdbf11ce61a543f14fe139b854f6", "lon": -76.991722, "is_disabled": 0, "fusion_lat": 0.0, "fusion_lon": 0.0, "name": "69c7fdbf11ce61a543f14fe139b854f6", "type": "electric_scooter"}, {"rental_uris": {"ios": "https://dc.lft.to/lastmile_qr_scan", "android": "https://dc.lft.to/lastmile_qr_scan"}, "lat": 38.8837995, "is_reserved": 0, "bike_id": "2d18a33e4493db7e291d0c589489afb6", "lon": -77.01988383333334, "is_disabled": 0, "fusion_lat": 0.0, "fusion_lon": 0.0, "name": "2d18a33e4493db7e291d0c589489afb6", "type": "electric_scooter"}, {"rental_uris": {"ios": "https://dc.lft.to/lastmile_qr_scan", "android": "https://dc.lft.to/lastmile_qr_scan"}, "lat": 38.88301233333333, "is_reserved": 0, "bike_id": "ceacdc15574667f7ed59eb43cfa4f7e4", "lon": -77.02474933333333, "is_disabled": 0, "fusion_lat": 0.0, "fusion_lon": 0.0, "name": "ceacdc15574667f7ed59eb43cfa4f7e4", "type": "electric_scooter"}, {"rental_uris": {"ios": "https://dc.lft.to/lastmile_qr_scan", "android": "https://dc.lft.to/lastmile_qr_scan"}, "lat": 38.916106, "is_reserved": 0, "bike_id": "1c8a80f33968acbab13be942f47db3e2", "lon": -77.03063983333334, "is_disabled": 0, "fusion_lat": 0.0, "fusion_lon": 0.0, "name": "1c8a80f33968acbab13be942f47db3e2", "type": "electric_scooter"}, {"rental_uris": {"ios": "https://dc.lft.to/lastmile_qr_scan", "android": "https://dc.lft.to/lastmile_qr_scan"}, "lat": 38.87576716666667, "is_reserved": 0, "bike_id": "9d9399f3e550a00a8623f125e0f32afd", "lon": -77.23415133333333, "is_disabled": 0, "fusion_lat": 0.0, "fusion_lon": 0.0, "name": "9d9399f3e550a00a8623f125e0f32afd", "type": "electric_bike"}, {"rental_uris": {"ios": "https://dc.lft.to/lastmile_qr_scan", "android": "https://dc.lft.to/lastmile_qr_scan"}, "lat": 38.9054025, "is_reserved": 0, "bike_id": "61e7f212cf4aa7da125c9a71ffb7eaf8", "lon": -77.05907116666667, "is_disabled": 0, "fusion_lat": 0.0, "fusion_lon": 0.0, "name": "61e7f212cf4aa7da125c9a71ffb7eaf8", "type": "electric_scooter"}, {"rental_uris": {"ios": "https://dc.lft.to/lastmile_qr_scan", "android": "https://dc.lft.to/lastmile_qr_scan"}, "lat": 38.9002965, "is_reserved": 0, "bike_id": "84e3881c1e1a992171ea1a6390ffa859", "lon": -77.0118255, "is_disabled": 0, "fusion_lat": 0.0, "fusion_lon": 0.0, "name": "84e3881c1e1a992171ea1a6390ffa859", "type": "electric_scooter"}, {"rental_uris": {"ios": "https://dc.lft.to/lastmile_qr_scan", "android": "https://dc.lft.to/lastmile_qr_scan"}, "lat": 38.916939166666666, "is_reserved": 0, "bike_id": "baf2bed376b6d51fe34c0305c177571c", "lon": -77.02656533333334, "is_disabled": 0, "fusion_lat": 0.0, "fusion_lon": 0.0, "name": "baf2bed376b6d51fe34c0305c177571c", "type": "electric_scooter"}, {"rental_uris": {"ios": "https://dc.lft.to/lastmile_qr_scan", "android": "https://dc.lft.to/lastmile_qr_scan"}, "lat": 38.91703833333333, "is_reserved": 0, "bike_id": "2303449356f912bcc28759e796576a20", "lon": -77.01199633333333, "is_disabled": 0, "fusion_lat": 0.0, "fusion_lon": 0.0, "name": "2303449356f912bcc28759e796576a20", "type": "electric_scooter"}, {"rental_uris": {"ios": "https://dc.lft.to/lastmile_qr_scan", "android": "https://dc.lft.to/lastmile_qr_scan"}, "lat": 38.916346, "is_reserved": 0, "bike_id": "3a30de072b54ff86f2681e1de1ffabad", "lon": -77.03208366666667, "is_disabled": 0, "fusion_lat": 0.0, "fusion_lon": 0.0, "name": "3a30de072b54ff86f2681e1de1ffabad", "type": "electric_scooter"}, {"rental_uris": {"ios": "https://dc.lft.to/lastmile_qr_scan", "android": "https://dc.lft.to/lastmile_qr_scan"}, "lat": 38.91092166666667, "is_reserved": 0, "bike_id": "015d1934b02ca17f891e7282c9977db9", "lon": -77.042363, "is_disabled": 0, "fusion_lat": 0.0, "fusion_lon": 0.0, "name": "015d1934b02ca17f891e7282c9977db9", "type": "electric_scooter"}, {"rental_uris": {"ios": "https://dc.lft.to/lastmile_qr_scan", "android": "https://dc.lft.to/lastmile_qr_scan"}, "lat": 38.911037666666665, "is_reserved": 0, "bike_id": "a598d92ceb782737adcb4f4857630be8", "lon": -77.04220183333334, "is_disabled": 0, "fusion_lat": 0.0, "fusion_lon": 0.0, "name": "a598d92ceb782737adcb4f4857630be8", "type": "electric_scooter"}, {"rental_uris": {"ios": "https://dc.lft.to/lastmile_qr_scan", "android": "https://dc.lft.to/lastmile_qr_scan"}, "lat": 38.860571166666666, "is_reserved": 0, "bike_id": "bd08bf5c451174912d1dbbf4e03be589", "lon": -76.9850565, "is_disabled": 0, "fusion_lat": 0.0, "fusion_lon": 0.0, "name": "bd08bf5c451174912d1dbbf4e03be589", "type": "electric_scooter"}, {"rental_uris": {"ios": "https://dc.lft.to/lastmile_qr_scan", "android": "https://dc.lft.to/lastmile_qr_scan"}, "lat": 38.91549333333333, "is_reserved": 0, "bike_id": "b746a8263fe890fb131b66f6fd7a745e", "lon": -77.01047533333333, "is_disabled": 0, "fusion_lat": 0.0, "fusion_lon": 0.0, "name": "b746a8263fe890fb131b66f6fd7a745e", "type": "electric_scooter"}, {"rental_uris": {"ios": "https://dc.lft.to/lastmile_qr_scan", "android": "https://dc.lft.to/lastmile_qr_scan"}, "lat": 38.923481, "is_reserved": 0, "bike_id": "9de716f510d42cda86f50730b893e6e4", "lon": -77.041543, "is_disabled": 0, "fusion_lat": 0.0, "fusion_lon": 0.0, "name": "9de716f510d42cda86f50730b893e6e4", "type": "electric_scooter"}, {"rental_uris": {"ios": "https://dc.lft.to/lastmile_qr_scan", "android": "https://dc.lft.to/lastmile_qr_scan"}, "lat": 38.90852266666667, "is_reserved": 0, "bike_id": "17b266c3ddc870c83d904821ce8f76e7", "lon": -77.01971383333333, "is_disabled": 0, "fusion_lat": 0.0, "fusion_lon": 0.0, "name": "17b266c3ddc870c83d904821ce8f76e7", "type": "electric_scooter"}, {"rental_uris": {"ios": "https://dc.lft.to/lastmile_qr_scan", "android": "https://dc.lft.to/lastmile_qr_scan"}, "lat": 38.87777766666667, "is_reserved": 0, "bike_id": "3bb88c382c861367d77225e0c312f4d7", "lon": -76.99412516666666, "is_disabled": 0, "fusion_lat": 0.0, "fusion_lon": 0.0, "name": "3bb88c382c861367d77225e0c312f4d7", "type": "electric_scooter"}, {"rental_uris": {"ios": "https://dc.lft.to/lastmile_qr_scan", "android": "https://dc.lft.to/lastmile_qr_scan"}, "lat": 38.920482666666665, "is_reserved": 0, "bike_id": "0195ea440deefc4e3ba61beddf8c0d34", "lon": -77.03445533333333, "is_disabled": 0, "fusion_lat": 0.0, "fusion_lon": 0.0, "name": "0195ea440deefc4e3ba61beddf8c0d34", "type": "electric_scooter"}, {"rental_uris": {"ios": "https://dc.lft.to/lastmile_qr_scan", "android": "https://dc.lft.to/lastmile_qr_scan"}, "lat": 38.928514, "is_reserved": 0, "bike_id": "03f65b5eea9bb74cf7625e865290b2c5", "lon": -77.03327833333333, "is_disabled": 0, "fusion_lat": 0.0, "fusion_lon": 0.0, "name": "03f65b5eea9bb74cf7625e865290b2c5", "type": "electric_scooter"}, {"rental_uris": {"ios": "https://dc.lft.to/lastmile_qr_scan", "android": "https://dc.lft.to/lastmile_qr_scan"}, "lat": 38.904072666666664, "is_reserved": 0, "bike_id": "803b58fa408ab31b400ffd10239ca0ed", "lon": -76.97328566666667, "is_disabled": 0, "fusion_lat": 0.0, "fusion_lon": 0.0, "name": "803b58fa408ab31b400ffd10239ca0ed", "type": "electric_scooter"}, {"rental_uris": {"ios": "https://dc.lft.to/lastmile_qr_scan", "android": "https://dc.lft.to/lastmile_qr_scan"}, "lat": 38.892318, "is_reserved": 0, "bike_id": "4815cea10d60bbc75cde31d4feeec757", "lon": -77.0321055, "is_disabled": 0, "fusion_lat": 0.0, "fusion_lon": 0.0, "name": "4815cea10d60bbc75cde31d4feeec757", "type": "electric_scooter"}, {"rental_uris": {"ios": "https://dc.lft.to/lastmile_qr_scan", "android": "https://dc.lft.to/lastmile_qr_scan"}, "lat": 38.907671666666666, "is_reserved": 0, "bike_id": "2f5ad66c439a41656b72cfb585b313d0", "lon": -77.03841183333333, "is_disabled": 0, "fusion_lat": 0.0, "fusion_lon": 0.0, "name": "2f5ad66c439a41656b72cfb585b313d0", "type": "electric_scooter"}, {"rental_uris": {"ios": "https://dc.lft.to/lastmile_qr_scan", "android": "https://dc.lft.to/lastmile_qr_scan"}, "lat": 38.8990655, "is_reserved": 0, "bike_id": "cf244e0e2f3a2d40bc490a3bcb5e1e39", "lon": -77.02825466666667, "is_disabled": 0, "fusion_lat": 0.0, "fusion_lon": 0.0, "name": "cf244e0e2f3a2d40bc490a3bcb5e1e39", "type": "electric_scooter"}, {"rental_uris": {"ios": "https://dc.lft.to/lastmile_qr_scan", "android": "https://dc.lft.to/lastmile_qr_scan"}, "lat": 38.91924266666667, "is_reserved": 0, "bike_id": "a40d21214e32640849f40225d65601b4", "lon": -77.03418183333334, "is_disabled": 0, "fusion_lat": 0.0, "fusion_lon": 0.0, "name": "a40d21214e32640849f40225d65601b4", "type": "electric_scooter"}, {"rental_uris": {"ios": "https://dc.lft.to/lastmile_qr_scan", "android": "https://dc.lft.to/lastmile_qr_scan"}, "lat": 38.907107333333336, "is_reserved": 0, "bike_id": "ddfc562d32cc11e8f3ce4af00ca802a4", "lon": -77.002083, "is_disabled": 0, "fusion_lat": 0.0, "fusion_lon": 0.0, "name": "ddfc562d32cc11e8f3ce4af00ca802a4", "type": "electric_scooter"}, {"rental_uris": {"ios": "https://dc.lft.to/lastmile_qr_scan", "android": "https://dc.lft.to/lastmile_qr_scan"}, "lat": 38.90373183333333, "is_reserved": 0, "bike_id": "08b6e48d3e4dd1e57c6fb53d47471579", "lon": -77.0364005, "is_disabled": 0, "fusion_lat": 0.0, "fusion_lon": 0.0, "name": "08b6e48d3e4dd1e57c6fb53d47471579", "type": "electric_scooter"}, {"rental_uris": {"ios": "https://dc.lft.to/lastmile_qr_scan", "android": "https://dc.lft.to/lastmile_qr_scan"}, "lat": 38.916956, "is_reserved": 0, "bike_id": "a6cbade4e0bd2207f73df2383dc0d27b", "lon": -77.02799366666666, "is_disabled": 0, "fusion_lat": 0.0, "fusion_lon": 0.0, "name": "a6cbade4e0bd2207f73df2383dc0d27b", "type": "electric_scooter"}, {"rental_uris": {"ios": "https://dc.lft.to/lastmile_qr_scan", "android": "https://dc.lft.to/lastmile_qr_scan"}, "lat": 38.902608666666666, "is_reserved": 0, "bike_id": "a39f4148dd81d6a8d770d3b4f41821f7", "lon": -77.039605, "is_disabled": 0, "fusion_lat": 0.0, "fusion_lon": 0.0, "name": "a39f4148dd81d6a8d770d3b4f41821f7", "type": "electric_scooter"}, {"rental_uris": {"ios": "https://dc.lft.to/lastmile_qr_scan", "android": "https://dc.lft.to/lastmile_qr_scan"}, "lat": 38.9183195, "is_reserved": 0, "bike_id": "c054d133ab3eb46708794dcf39515d88", "lon": -77.03516583333334, "is_disabled": 0, "fusion_lat": 0.0, "fusion_lon": 0.0, "name": "c054d133ab3eb46708794dcf39515d88", "type": "electric_scooter"}, {"rental_uris": {"ios": "https://dc.lft.to/lastmile_qr_scan", "android": "https://dc.lft.to/lastmile_qr_scan"}, "lat": 38.91074916666667, "is_reserved": 0, "bike_id": "fc30a9d93f60969c33d6118df7976e85", "lon": -77.0045695, "is_disabled": 0, "fusion_lat": 0.0, "fusion_lon": 0.0, "name": "fc30a9d93f60969c33d6118df7976e85", "type": "electric_scooter"}, {"rental_uris": {"ios": "https://dc.lft.to/lastmile_qr_scan", "android": "https://dc.lft.to/lastmile_qr_scan"}, "lat": 38.934253166666664, "is_reserved": 0, "bike_id": "2fd30ed55ce2846b518d16085d25202e", "lon": -77.04, "is_disabled": 0, "fusion_lat": 0.0, "fusion_lon": 0.0, "name": "2fd30ed55ce2846b518d16085d25202e", "type": "electric_scooter"}, {"rental_uris": {"ios": "https://dc.lft.to/lastmile_qr_scan", "android": "https://dc.lft.to/lastmile_qr_scan"}, "lat": 38.97236816666667, "is_reserved": 0, "bike_id": "cc55445fd892bba4aca221a964357b97", "lon": -77.02716683333334, "is_disabled": 0, "fusion_lat": 0.0, "fusion_lon": 0.0, "name": "cc55445fd892bba4aca221a964357b97", "type": "electric_scooter"}, {"rental_uris": {"ios": "https://dc.lft.to/lastmile_qr_scan", "android": "https://dc.lft.to/lastmile_qr_scan"}, "lat": 38.91806116666667, "is_reserved": 0, "bike_id": "a95ce2f452fbdc934fece31d99b603b5", "lon": -77.03718716666667, "is_disabled": 0, "fusion_lat": 0.0, "fusion_lon": 0.0, "name": "a95ce2f452fbdc934fece31d99b603b5", "type": "electric_scooter"}, {"rental_uris": {"ios": "https://dc.lft.to/lastmile_qr_scan", "android": "https://dc.lft.to/lastmile_qr_scan"}, "lat": 38.926834, "is_reserved": 0, "bike_id": "59cee5ad5b5f69f47857199de1e2cca1", "lon": -77.03228183333333, "is_disabled": 0, "fusion_lat": 0.0, "fusion_lon": 0.0, "name": "59cee5ad5b5f69f47857199de1e2cca1", "type": "electric_scooter"}, {"rental_uris": {"ios": "https://dc.lft.to/lastmile_qr_scan", "android": "https://dc.lft.to/lastmile_qr_scan"}, "lat": 38.901216, "is_reserved": 0, "bike_id": "acaa0409967eef7d9b70cc6772a77eac", "lon": -77.02803483333334, "is_disabled": 0, "fusion_lat": 0.0, "fusion_lon": 0.0, "name": "acaa0409967eef7d9b70cc6772a77eac", "type": "electric_scooter"}, {"rental_uris": {"ios": "https://dc.lft.to/lastmile_qr_scan", "android": "https://dc.lft.to/lastmile_qr_scan"}, "lat": 38.90267983333333, "is_reserved": 0, "bike_id": "e568e8b44cdcf5997b19ade251057a66", "lon": -77.03862416666666, "is_disabled": 0, "fusion_lat": 0.0, "fusion_lon": 0.0, "name": "e568e8b44cdcf5997b19ade251057a66", "type": "electric_scooter"}, {"rental_uris": {"ios": "https://dc.lft.to/lastmile_qr_scan", "android": "https://dc.lft.to/lastmile_qr_scan"}, "lat": 38.92151283333333, "is_reserved": 0, "bike_id": "d2591f0441bca152858b9945efa59cad", "lon": -77.0366645, "is_disabled": 0, "fusion_lat": 0.0, "fusion_lon": 0.0, "name": "d2591f0441bca152858b9945efa59cad", "type": "electric_scooter"}, {"rental_uris": {"ios": "https://dc.lft.to/lastmile_qr_scan", "android": "https://dc.lft.to/lastmile_qr_scan"}, "lat": 38.87900883333333, "is_reserved": 0, "bike_id": "58156a9266a4cce8fba450b5ea2712ce", "lon": -77.013748, "is_disabled": 0, "fusion_lat": 0.0, "fusion_lon": 0.0, "name": "58156a9266a4cce8fba450b5ea2712ce", "type": "electric_scooter"}, {"rental_uris": {"ios": "https://dc.lft.to/lastmile_qr_scan", "android": "https://dc.lft.to/lastmile_qr_scan"}, "lat": 38.899613, "is_reserved": 0, "bike_id": "2e2194615c5bb255c12fd9736f86d2f5", "lon": -77.01615733333334, "is_disabled": 0, "fusion_lat": 0.0, "fusion_lon": 0.0, "name": "2e2194615c5bb255c12fd9736f86d2f5", "type": "electric_scooter"}, {"rental_uris": {"ios": "https://dc.lft.to/lastmile_qr_scan", "android": "https://dc.lft.to/lastmile_qr_scan"}, "lat": 38.958718833333336, "is_reserved": 0, "bike_id": "a97072c216b4e8adf75c7490632ce8a0", "lon": -76.97052933333333, "is_disabled": 0, "fusion_lat": 0.0, "fusion_lon": 0.0, "name": "a97072c216b4e8adf75c7490632ce8a0", "type": "electric_bike"}, {"rental_uris": {"ios": "https://dc.lft.to/lastmile_qr_scan", "android": "https://dc.lft.to/lastmile_qr_scan"}, "lat": 38.90004366666667, "is_reserved": 0, "bike_id": "fb33db7df6e711b43929ffac985f40d2", "lon": -77.0438785, "is_disabled": 0, "fusion_lat": 0.0, "fusion_lon": 0.0, "name": "fb33db7df6e711b43929ffac985f40d2", "type": "electric_scooter"}, {"rental_uris": {"ios": "https://dc.lft.to/lastmile_qr_scan", "android": "https://dc.lft.to/lastmile_qr_scan"}, "lat": 38.912481166666666, "is_reserved": 0, "bike_id": "8035cd268047b0adb5421212387daf2f", "lon": -77.02229066666666, "is_disabled": 0, "fusion_lat": 0.0, "fusion_lon": 0.0, "name": "8035cd268047b0adb5421212387daf2f", "type": "electric_scooter"}, {"rental_uris": {"ios": "https://dc.lft.to/lastmile_qr_scan", "android": "https://dc.lft.to/lastmile_qr_scan"}, "lat": 38.903407333333334, "is_reserved": 0, "bike_id": "b87a4de30b31289d080f19c535b7d445", "lon": -77.02010216666666, "is_disabled": 0, "fusion_lat": 0.0, "fusion_lon": 0.0, "name": "b87a4de30b31289d080f19c535b7d445", "type": "electric_scooter"}, {"rental_uris": {"ios": "https://dc.lft.to/lastmile_qr_scan", "android": "https://dc.lft.to/lastmile_qr_scan"}, "lat": 38.92901333333333, "is_reserved": 0, "bike_id": "7fa0cfbcd8872c6f9f3511529f902ff4", "lon": -77.03245183333334, "is_disabled": 0, "fusion_lat": 0.0, "fusion_lon": 0.0, "name": "7fa0cfbcd8872c6f9f3511529f902ff4", "type": "electric_scooter"}, {"rental_uris": {"ios": "https://dc.lft.to/lastmile_qr_scan", "android": "https://dc.lft.to/lastmile_qr_scan"}, "lat": 38.90706816666667, "is_reserved": 0, "bike_id": "0efc28e04d5d588cd3439cae192042d3", "lon": -77.03205933333334, "is_disabled": 0, "fusion_lat": 0.0, "fusion_lon": 0.0, "name": "0efc28e04d5d588cd3439cae192042d3", "type": "electric_scooter"}, {"rental_uris": {"ios": "https://dc.lft.to/lastmile_qr_scan", "android": "https://dc.lft.to/lastmile_qr_scan"}, "lat": 38.92119316666667, "is_reserved": 0, "bike_id": "0300deab663e3c977aabb42cf7763cff", "lon": -77.0208135, "is_disabled": 0, "fusion_lat": 0.0, "fusion_lon": 0.0, "name": "0300deab663e3c977aabb42cf7763cff", "type": "electric_scooter"}, {"rental_uris": {"ios": "https://dc.lft.to/lastmile_qr_scan", "android": "https://dc.lft.to/lastmile_qr_scan"}, "lat": 38.8934145, "is_reserved": 0, "bike_id": "8e09ec2d54ff1bdaddeb69ae446d0717", "lon": -76.93972216666667, "is_disabled": 0, "fusion_lat": 0.0, "fusion_lon": 0.0, "name": "8e09ec2d54ff1bdaddeb69ae446d0717", "type": "electric_scooter"}, {"rental_uris": {"ios": "https://dc.lft.to/lastmile_qr_scan", "android": "https://dc.lft.to/lastmile_qr_scan"}, "lat": 38.91108766666667, "is_reserved": 0, "bike_id": "1d2573df6c237c14549d417adf3e7e65", "lon": -77.03828883333334, "is_disabled": 0, "fusion_lat": 0.0, "fusion_lon": 0.0, "name": "1d2573df6c237c14549d417adf3e7e65", "type": "electric_scooter"}, {"rental_uris": {"ios": "https://dc.lft.to/lastmile_qr_scan", "android": "https://dc.lft.to/lastmile_qr_scan"}, "lat": 38.89837416666667, "is_reserved": 0, "bike_id": "afcf21a3fce42c03b2ddcbe8a7c764eb", "lon": -77.01270566666666, "is_disabled": 0, "fusion_lat": 0.0, "fusion_lon": 0.0, "name": "afcf21a3fce42c03b2ddcbe8a7c764eb", "type": "electric_scooter"}, {"rental_uris": {"ios": "https://dc.lft.to/lastmile_qr_scan", "android": "https://dc.lft.to/lastmile_qr_scan"}, "lat": 38.93261916666667, "is_reserved": 0, "bike_id": "e310a417a7c22404bbbea7d642f1d32d", "lon": -77.03880833333334, "is_disabled": 0, "fusion_lat": 0.0, "fusion_lon": 0.0, "name": "e310a417a7c22404bbbea7d642f1d32d", "type": "electric_scooter"}, {"rental_uris": {"ios": "https://dc.lft.to/lastmile_qr_scan", "android": "https://dc.lft.to/lastmile_qr_scan"}, "lat": 39.010760166666664, "is_reserved": 0, "bike_id": "3d6b028bc229a451a7fd7ece257be071", "lon": -76.91064416666667, "is_disabled": 0, "fusion_lat": 0.0, "fusion_lon": 0.0, "name": "3d6b028bc229a451a7fd7ece257be071", "type": "electric_bike"}, {"rental_uris": {"ios": "https://dc.lft.to/lastmile_qr_scan", "android": "https://dc.lft.to/lastmile_qr_scan"}, "lat": 38.9099415, "is_reserved": 0, "bike_id": "c1a6269e95a261fb471e48ddab1640e0", "lon": -77.00498283333333, "is_disabled": 0, "fusion_lat": 0.0, "fusion_lon": 0.0, "name": "c1a6269e95a261fb471e48ddab1640e0", "type": "electric_scooter"}, {"rental_uris": {"ios": "https://dc.lft.to/lastmile_qr_scan", "android": "https://dc.lft.to/lastmile_qr_scan"}, "lat": 38.902327166666666, "is_reserved": 0, "bike_id": "de248d795e6cd3706cf6f6091f533f79", "lon": -77.03930616666666, "is_disabled": 0, "fusion_lat": 0.0, "fusion_lon": 0.0, "name": "de248d795e6cd3706cf6f6091f533f79", "type": "electric_scooter"}, {"rental_uris": {"ios": "https://dc.lft.to/lastmile_qr_scan", "android": "https://dc.lft.to/lastmile_qr_scan"}, "lat": 38.897138166666664, "is_reserved": 0, "bike_id": "5a49e57b290d980e758a5371341f3a28", "lon": -77.02506133333333, "is_disabled": 0, "fusion_lat": 0.0, "fusion_lon": 0.0, "name": "5a49e57b290d980e758a5371341f3a28", "type": "electric_scooter"}, {"rental_uris": {"ios": "https://dc.lft.to/lastmile_qr_scan", "android": "https://dc.lft.to/lastmile_qr_scan"}, "lat": 38.8947995, "is_reserved": 0, "bike_id": "8f1b6cfefeca47464b8a0f63ecb8caf5", "lon": -77.02075583333334, "is_disabled": 0, "fusion_lat": 0.0, "fusion_lon": 0.0, "name": "8f1b6cfefeca47464b8a0f63ecb8caf5", "type": "electric_scooter"}, {"rental_uris": {"ios": "https://dc.lft.to/lastmile_qr_scan", "android": "https://dc.lft.to/lastmile_qr_scan"}, "lat": 38.94440016666667, "is_reserved": 0, "bike_id": "15c935f85fcf4f3ed4c669f92b9545cf", "lon": -77.06402483333333, "is_disabled": 0, "fusion_lat": 0.0, "fusion_lon": 0.0, "name": "15c935f85fcf4f3ed4c669f92b9545cf", "type": "electric_scooter"}, {"rental_uris": {"ios": "https://dc.lft.to/lastmile_qr_scan", "android": "https://dc.lft.to/lastmile_qr_scan"}, "lat": 38.90239033333334, "is_reserved": 0, "bike_id": "2bd9d917b260489954ecf24dae837836", "lon": -77.0392965, "is_disabled": 0, "fusion_lat": 0.0, "fusion_lon": 0.0, "name": "2bd9d917b260489954ecf24dae837836", "type": "electric_scooter"}, {"rental_uris": {"ios": "https://dc.lft.to/lastmile_qr_scan", "android": "https://dc.lft.to/lastmile_qr_scan"}, "lat": 38.911086, "is_reserved": 0, "bike_id": "d12930b81d10036fbb7afc5d3d8691eb", "lon": -77.03829866666666, "is_disabled": 0, "fusion_lat": 0.0, "fusion_lon": 0.0, "name": "d12930b81d10036fbb7afc5d3d8691eb", "type": "electric_scooter"}, {"rental_uris": {"ios": "https://dc.lft.to/lastmile_qr_scan", "android": "https://dc.lft.to/lastmile_qr_scan"}, "lat": 38.925458666666664, "is_reserved": 0, "bike_id": "3fadb73e782692a458b779519c2e1ac8", "lon": -77.0270345, "is_disabled": 0, "fusion_lat": 0.0, "fusion_lon": 0.0, "name": "3fadb73e782692a458b779519c2e1ac8", "type": "electric_scooter"}, {"rental_uris": {"ios": "https://dc.lft.to/lastmile_qr_scan", "android": "https://dc.lft.to/lastmile_qr_scan"}, "lat": 38.9000595, "is_reserved": 0, "bike_id": "488d5a655deedf4a22bd735959e75cd7", "lon": -76.98836433333334, "is_disabled": 0, "fusion_lat": 0.0, "fusion_lon": 0.0, "name": "488d5a655deedf4a22bd735959e75cd7", "type": "electric_scooter"}, {"rental_uris": {"ios": "https://dc.lft.to/lastmile_qr_scan", "android": "https://dc.lft.to/lastmile_qr_scan"}, "lat": 38.939807, "is_reserved": 0, "bike_id": "5d4359101268d8f34be2d728cde0f61f", "lon": -77.032661, "is_disabled": 0, "fusion_lat": 0.0, "fusion_lon": 0.0, "name": "5d4359101268d8f34be2d728cde0f61f", "type": "electric_scooter"}, {"rental_uris": {"ios": "https://dc.lft.to/lastmile_qr_scan", "android": "https://dc.lft.to/lastmile_qr_scan"}, "lat": 38.86566233333333, "is_reserved": 0, "bike_id": "9bac2527808590991252cf38ad0c859a", "lon": -76.98338316666667, "is_disabled": 0, "fusion_lat": 0.0, "fusion_lon": 0.0, "name": "9bac2527808590991252cf38ad0c859a", "type": "electric_scooter"}, {"rental_uris": {"ios": "https://dc.lft.to/lastmile_qr_scan", "android": "https://dc.lft.to/lastmile_qr_scan"}, "lat": 38.89895933333333, "is_reserved": 0, "bike_id": "ae4259c0f268d730c7aa17b92d7f0c41", "lon": -77.00224433333334, "is_disabled": 0, "fusion_lat": 0.0, "fusion_lon": 0.0, "name": "ae4259c0f268d730c7aa17b92d7f0c41", "type": "electric_scooter"}, {"rental_uris": {"ios": "https://dc.lft.to/lastmile_qr_scan", "android": "https://dc.lft.to/lastmile_qr_scan"}, "lat": 38.923222333333335, "is_reserved": 0, "bike_id": "159bcbb1b16c95a4b0c2a7d82e426603", "lon": -77.02126583333333, "is_disabled": 0, "fusion_lat": 0.0, "fusion_lon": 0.0, "name": "159bcbb1b16c95a4b0c2a7d82e426603", "type": "electric_scooter"}, {"rental_uris": {"ios": "https://dc.lft.to/lastmile_qr_scan", "android": "https://dc.lft.to/lastmile_qr_scan"}, "lat": 38.90125583333333, "is_reserved": 0, "bike_id": "f475029b6a3a3164d4678a7f9e0bd5b7", "lon": -77.04234033333333, "is_disabled": 0, "fusion_lat": 0.0, "fusion_lon": 0.0, "name": "f475029b6a3a3164d4678a7f9e0bd5b7", "type": "electric_scooter"}, {"rental_uris": {"ios": "https://dc.lft.to/lastmile_qr_scan", "android": "https://dc.lft.to/lastmile_qr_scan"}, "lat": 38.89468316666667, "is_reserved": 0, "bike_id": "21f454baddc8c383a4d62e47d9127a23", "lon": -76.99501416666666, "is_disabled": 0, "fusion_lat": 0.0, "fusion_lon": 0.0, "name": "21f454baddc8c383a4d62e47d9127a23", "type": "electric_scooter"}, {"rental_uris": {"ios": "https://dc.lft.to/lastmile_qr_scan", "android": "https://dc.lft.to/lastmile_qr_scan"}, "lat": 38.895771333333336, "is_reserved": 0, "bike_id": "0f12f8e1df527f94d82df5da0e5adba6", "lon": -77.02304233333334, "is_disabled": 0, "fusion_lat": 0.0, "fusion_lon": 0.0, "name": "0f12f8e1df527f94d82df5da0e5adba6", "type": "electric_scooter"}, {"rental_uris": {"ios": "https://dc.lft.to/lastmile_qr_scan", "android": "https://dc.lft.to/lastmile_qr_scan"}, "lat": 38.90139083333333, "is_reserved": 0, "bike_id": "3b1d648d2395104065e275d76319849e", "lon": -77.01817616666666, "is_disabled": 0, "fusion_lat": 0.0, "fusion_lon": 0.0, "name": "3b1d648d2395104065e275d76319849e", "type": "electric_scooter"}, {"rental_uris": {"ios": "https://dc.lft.to/lastmile_qr_scan", "android": "https://dc.lft.to/lastmile_qr_scan"}, "lat": 38.892218, "is_reserved": 0, "bike_id": "5acac97c3c072f8ff4f80f11efef43a5", "lon": -77.04773283333333, "is_disabled": 0, "fusion_lat": 0.0, "fusion_lon": 0.0, "name": "5acac97c3c072f8ff4f80f11efef43a5", "type": "electric_scooter"}, {"rental_uris": {"ios": "https://dc.lft.to/lastmile_qr_scan", "android": "https://dc.lft.to/lastmile_qr_scan"}, "lat": 38.86564933333333, "is_reserved": 0, "bike_id": "1e83f3b66bb6a4086cb52eb4b3bb1038", "lon": -76.98340133333333, "is_disabled": 0, "fusion_lat": 0.0, "fusion_lon": 0.0, "name": "1e83f3b66bb6a4086cb52eb4b3bb1038", "type": "electric_scooter"}, {"rental_uris": {"ios": "https://dc.lft.to/lastmile_qr_scan", "android": "https://dc.lft.to/lastmile_qr_scan"}, "lat": 38.892161333333334, "is_reserved": 0, "bike_id": "b0b1004174b3089cb0e7ac2cdd8afe9f", "lon": -77.04516183333334, "is_disabled": 0, "fusion_lat": 0.0, "fusion_lon": 0.0, "name": "b0b1004174b3089cb0e7ac2cdd8afe9f", "type": "electric_scooter"}, {"rental_uris": {"ios": "https://dc.lft.to/lastmile_qr_scan", "android": "https://dc.lft.to/lastmile_qr_scan"}, "lat": 38.915957, "is_reserved": 0, "bike_id": "c7e56c9eefcdf93782f8ad08c616df9a", "lon": -77.02194033333333, "is_disabled": 0, "fusion_lat": 0.0, "fusion_lon": 0.0, "name": "c7e56c9eefcdf93782f8ad08c616df9a", "type": "electric_scooter"}, {"rental_uris": {"ios": "https://dc.lft.to/lastmile_qr_scan", "android": "https://dc.lft.to/lastmile_qr_scan"}, "lat": 38.928937833333336, "is_reserved": 0, "bike_id": "f549e150f7099697a5029c11f13eb325", "lon": -77.01652683333333, "is_disabled": 0, "fusion_lat": 0.0, "fusion_lon": 0.0, "name": "f549e150f7099697a5029c11f13eb325", "type": "electric_scooter"}, {"rental_uris": {"ios": "https://dc.lft.to/lastmile_qr_scan", "android": "https://dc.lft.to/lastmile_qr_scan"}, "lat": 38.90375866666667, "is_reserved": 0, "bike_id": "806460c7ffe38377a6d21f1ddd068ad9", "lon": -77.0363545, "is_disabled": 0, "fusion_lat": 0.0, "fusion_lon": 0.0, "name": "806460c7ffe38377a6d21f1ddd068ad9", "type": "electric_scooter"}, {"rental_uris": {"ios": "https://dc.lft.to/lastmile_qr_scan", "android": "https://dc.lft.to/lastmile_qr_scan"}, "lat": 38.90234733333333, "is_reserved": 0, "bike_id": "4be38d394bcd1870ab61808182d9af7e", "lon": -77.02698083333334, "is_disabled": 0, "fusion_lat": 0.0, "fusion_lon": 0.0, "name": "4be38d394bcd1870ab61808182d9af7e", "type": "electric_scooter"}, {"rental_uris": {"ios": "https://dc.lft.to/lastmile_qr_scan", "android": "https://dc.lft.to/lastmile_qr_scan"}, "lat": 38.904712833333335, "is_reserved": 0, "bike_id": "0b0083df408ec72010bc7ad4d15f2d24", "lon": -77.043673, "is_disabled": 0, "fusion_lat": 0.0, "fusion_lon": 0.0, "name": "0b0083df408ec72010bc7ad4d15f2d24", "type": "electric_scooter"}, {"rental_uris": {"ios": "https://dc.lft.to/lastmile_qr_scan", "android": "https://dc.lft.to/lastmile_qr_scan"}, "lat": 38.923111666666664, "is_reserved": 0, "bike_id": "8c81b7097aceaa014c73b58fc42f8b3b", "lon": -77.04189383333333, "is_disabled": 0, "fusion_lat": 0.0, "fusion_lon": 0.0, "name": "8c81b7097aceaa014c73b58fc42f8b3b", "type": "electric_scooter"}, {"rental_uris": {"ios": "https://dc.lft.to/lastmile_qr_scan", "android": "https://dc.lft.to/lastmile_qr_scan"}, "lat": 38.92328466666667, "is_reserved": 0, "bike_id": "35179d7247472fd7db4e6bb9dafd822b", "lon": -77.04311016666666, "is_disabled": 0, "fusion_lat": 0.0, "fusion_lon": 0.0, "name": "35179d7247472fd7db4e6bb9dafd822b", "type": "electric_scooter"}, {"rental_uris": {"ios": "https://dc.lft.to/lastmile_qr_scan", "android": "https://dc.lft.to/lastmile_qr_scan"}, "lat": 38.899731, "is_reserved": 0, "bike_id": "6ad18df2eea85df5fabeea184f23f2b5", "lon": -77.00682416666666, "is_disabled": 0, "fusion_lat": 0.0, "fusion_lon": 0.0, "name": "6ad18df2eea85df5fabeea184f23f2b5", "type": "electric_scooter"}, {"rental_uris": {"ios": "https://dc.lft.to/lastmile_qr_scan", "android": "https://dc.lft.to/lastmile_qr_scan"}, "lat": 38.904028333333336, "is_reserved": 0, "bike_id": "666f6dfb609d3740052a2f097c9b960e", "lon": -77.04052866666666, "is_disabled": 0, "fusion_lat": 0.0, "fusion_lon": 0.0, "name": "666f6dfb609d3740052a2f097c9b960e", "type": "electric_scooter"}, {"rental_uris": {"ios": "https://dc.lft.to/lastmile_qr_scan", "android": "https://dc.lft.to/lastmile_qr_scan"}, "lat": 38.87899633333333, "is_reserved": 0, "bike_id": "a1741a23b518f21ec8bc32867b737456", "lon": -77.02194533333333, "is_disabled": 0, "fusion_lat": 0.0, "fusion_lon": 0.0, "name": "a1741a23b518f21ec8bc32867b737456", "type": "electric_scooter"}, {"rental_uris": {"ios": "https://dc.lft.to/lastmile_qr_scan", "android": "https://dc.lft.to/lastmile_qr_scan"}, "lat": 38.90378116666667, "is_reserved": 0, "bike_id": "061288854d9184b9496b5ae0afe3e01d", "lon": -77.04497383333333, "is_disabled": 0, "fusion_lat": 0.0, "fusion_lon": 0.0, "name": "061288854d9184b9496b5ae0afe3e01d", "type": "electric_scooter"}, {"rental_uris": {"ios": "https://dc.lft.to/lastmile_qr_scan", "android": "https://dc.lft.to/lastmile_qr_scan"}, "lat": 38.90726866666667, "is_reserved": 0, "bike_id": "57bdb38e1b215cee69fec6d25fd9bfe2", "lon": -77.02496216666667, "is_disabled": 0, "fusion_lat": 0.0, "fusion_lon": 0.0, "name": "57bdb38e1b215cee69fec6d25fd9bfe2", "type": "electric_scooter"}, {"rental_uris": {"ios": "https://dc.lft.to/lastmile_qr_scan", "android": "https://dc.lft.to/lastmile_qr_scan"}, "lat": 38.92408366666667, "is_reserved": 0, "bike_id": "127a1ee8dfc1c803e473938ea209a146", "lon": -77.02007833333333, "is_disabled": 0, "fusion_lat": 0.0, "fusion_lon": 0.0, "name": "127a1ee8dfc1c803e473938ea209a146", "type": "electric_scooter"}, {"rental_uris": {"ios": "https://dc.lft.to/lastmile_qr_scan", "android": "https://dc.lft.to/lastmile_qr_scan"}, "lat": 38.89829866666667, "is_reserved": 0, "bike_id": "5efbd299d5cec95b78226071f2974152", "lon": -76.94629383333333, "is_disabled": 0, "fusion_lat": 0.0, "fusion_lon": 0.0, "name": "5efbd299d5cec95b78226071f2974152", "type": "electric_scooter"}, {"rental_uris": {"ios": "https://dc.lft.to/lastmile_qr_scan", "android": "https://dc.lft.to/lastmile_qr_scan"}, "lat": 38.88117833333333, "is_reserved": 0, "bike_id": "25b99db55aa287dac3b8ddd78e04f3a8", "lon": -77.0165395, "is_disabled": 0, "fusion_lat": 0.0, "fusion_lon": 0.0, "name": "25b99db55aa287dac3b8ddd78e04f3a8", "type": "electric_scooter"}, {"rental_uris": {"ios": "https://dc.lft.to/lastmile_qr_scan", "android": "https://dc.lft.to/lastmile_qr_scan"}, "lat": 38.907708166666666, "is_reserved": 0, "bike_id": "2631d530b55d723ba0549eaab02791a7", "lon": -77.03767483333333, "is_disabled": 0, "fusion_lat": 0.0, "fusion_lon": 0.0, "name": "2631d530b55d723ba0549eaab02791a7", "type": "electric_bike"}, {"rental_uris": {"ios": "https://dc.lft.to/lastmile_qr_scan", "android": "https://dc.lft.to/lastmile_qr_scan"}, "lat": 38.9416285, "is_reserved": 0, "bike_id": "8c32da5a75c61c942bd3d7cc859bf4d3", "lon": -77.0255965, "is_disabled": 0, "fusion_lat": 0.0, "fusion_lon": 0.0, "name": "8c32da5a75c61c942bd3d7cc859bf4d3", "type": "electric_scooter"}, {"rental_uris": {"ios": "https://dc.lft.to/lastmile_qr_scan", "android": "https://dc.lft.to/lastmile_qr_scan"}, "lat": 38.887201, "is_reserved": 0, "bike_id": "5cbbb745f65a5a14d6c68780a23d68e8", "lon": -77.03178216666667, "is_disabled": 0, "fusion_lat": 0.0, "fusion_lon": 0.0, "name": "5cbbb745f65a5a14d6c68780a23d68e8", "type": "electric_scooter"}, {"rental_uris": {"ios": "https://dc.lft.to/lastmile_qr_scan", "android": "https://dc.lft.to/lastmile_qr_scan"}, "lat": 38.899410833333334, "is_reserved": 0, "bike_id": "e75cd46f8d04825c36e2c8cbb05b4baf", "lon": -76.99731233333333, "is_disabled": 0, "fusion_lat": 0.0, "fusion_lon": 0.0, "name": "e75cd46f8d04825c36e2c8cbb05b4baf", "type": "electric_scooter"}, {"rental_uris": {"ios": "https://dc.lft.to/lastmile_qr_scan", "android": "https://dc.lft.to/lastmile_qr_scan"}, "lat": 38.93426016666667, "is_reserved": 0, "bike_id": "90a2f381f2b8a1d20b165c3501ff5fe8", "lon": -77.04004133333333, "is_disabled": 0, "fusion_lat": 0.0, "fusion_lon": 0.0, "name": "90a2f381f2b8a1d20b165c3501ff5fe8", "type": "electric_scooter"}, {"rental_uris": {"ios": "https://dc.lft.to/lastmile_qr_scan", "android": "https://dc.lft.to/lastmile_qr_scan"}, "lat": 38.935427, "is_reserved": 0, "bike_id": "51af7667eab85e18031ce488cb707642", "lon": -77.03089883333334, "is_disabled": 0, "fusion_lat": 0.0, "fusion_lon": 0.0, "name": "51af7667eab85e18031ce488cb707642", "type": "electric_scooter"}, {"rental_uris": {"ios": "https://dc.lft.to/lastmile_qr_scan", "android": "https://dc.lft.to/lastmile_qr_scan"}, "lat": 38.907186333333335, "is_reserved": 0, "bike_id": "263a7bbf00aaf4e99275c45ec5939f81", "lon": -77.01917116666667, "is_disabled": 0, "fusion_lat": 0.0, "fusion_lon": 0.0, "name": "263a7bbf00aaf4e99275c45ec5939f81", "type": "electric_scooter"}, {"rental_uris": {"ios": "https://dc.lft.to/lastmile_qr_scan", "android": "https://dc.lft.to/lastmile_qr_scan"}, "lat": 38.8874295, "is_reserved": 0, "bike_id": "a4369d23e35c238e4861a5aa3a71a9bf", "lon": -77.02280683333333, "is_disabled": 0, "fusion_lat": 0.0, "fusion_lon": 0.0, "name": "a4369d23e35c238e4861a5aa3a71a9bf", "type": "electric_scooter"}, {"rental_uris": {"ios": "https://dc.lft.to/lastmile_qr_scan", "android": "https://dc.lft.to/lastmile_qr_scan"}, "lat": 38.9060125, "is_reserved": 0, "bike_id": "6ed60487347b05bbd89822bc49320978", "lon": -77.04051183333333, "is_disabled": 0, "fusion_lat": 0.0, "fusion_lon": 0.0, "name": "6ed60487347b05bbd89822bc49320978", "type": "electric_scooter"}, {"rental_uris": {"ios": "https://dc.lft.to/lastmile_qr_scan", "android": "https://dc.lft.to/lastmile_qr_scan"}, "lat": 38.918111833333334, "is_reserved": 0, "bike_id": "6bc156a70f30c46d1c81357f2ef17afe", "lon": -77.02477316666666, "is_disabled": 0, "fusion_lat": 0.0, "fusion_lon": 0.0, "name": "6bc156a70f30c46d1c81357f2ef17afe", "type": "electric_scooter"}, {"rental_uris": {"ios": "https://dc.lft.to/lastmile_qr_scan", "android": "https://dc.lft.to/lastmile_qr_scan"}, "lat": 38.8524565, "is_reserved": 0, "bike_id": "453192b22eb65f5115d7f0512a0fc4c9", "lon": -77.10789816666667, "is_disabled": 0, "fusion_lat": 0.0, "fusion_lon": 0.0, "name": "453192b22eb65f5115d7f0512a0fc4c9", "type": "electric_bike"}, {"rental_uris": {"ios": "https://dc.lft.to/lastmile_qr_scan", "android": "https://dc.lft.to/lastmile_qr_scan"}, "lat": 38.8810885, "is_reserved": 0, "bike_id": "1c3cc58b1b3b98756a2ac1f6ae7d9a3a", "lon": -77.02636683333333, "is_disabled": 0, "fusion_lat": 0.0, "fusion_lon": 0.0, "name": "1c3cc58b1b3b98756a2ac1f6ae7d9a3a", "type": "electric_scooter"}, {"rental_uris": {"ios": "https://dc.lft.to/lastmile_qr_scan", "android": "https://dc.lft.to/lastmile_qr_scan"}, "lat": 38.821729166666664, "is_reserved": 0, "bike_id": "6f8dd79ddd5b1033fe9a737051f0fe75", "lon": -76.9951465, "is_disabled": 0, "fusion_lat": 0.0, "fusion_lon": 0.0, "name": "6f8dd79ddd5b1033fe9a737051f0fe75", "type": "electric_bike"}, {"rental_uris": {"ios": "https://dc.lft.to/lastmile_qr_scan", "android": "https://dc.lft.to/lastmile_qr_scan"}, "lat": 38.9028585, "is_reserved": 0, "bike_id": "28fed7de96975f7563027333d481f34e", "lon": -77.04480616666666, "is_disabled": 0, "fusion_lat": 0.0, "fusion_lon": 0.0, "name": "28fed7de96975f7563027333d481f34e", "type": "electric_scooter"}, {"rental_uris": {"ios": "https://dc.lft.to/lastmile_qr_scan", "android": "https://dc.lft.to/lastmile_qr_scan"}, "lat": 38.934844, "is_reserved": 0, "bike_id": "761a724e132ddf1a16cd529609af4238", "lon": -77.08157833333334, "is_disabled": 0, "fusion_lat": 0.0, "fusion_lon": 0.0, "name": "761a724e132ddf1a16cd529609af4238", "type": "electric_scooter"}, {"rental_uris": {"ios": "https://dc.lft.to/lastmile_qr_scan", "android": "https://dc.lft.to/lastmile_qr_scan"}, "lat": 38.9072345, "is_reserved": 0, "bike_id": "117d3b09f7b83e54a6a5c61d6ad30182", "lon": -77.0093215, "is_disabled": 0, "fusion_lat": 0.0, "fusion_lon": 0.0, "name": "117d3b09f7b83e54a6a5c61d6ad30182", "type": "electric_scooter"}, {"rental_uris": {"ios": "https://dc.lft.to/lastmile_qr_scan", "android": "https://dc.lft.to/lastmile_qr_scan"}, "lat": 38.866895, "is_reserved": 0, "bike_id": "af22422d9f5d62271ed2a81ecb56ae77", "lon": -76.98543533333333, "is_disabled": 0, "fusion_lat": 0.0, "fusion_lon": 0.0, "name": "af22422d9f5d62271ed2a81ecb56ae77", "type": "electric_scooter"}, {"rental_uris": {"ios": "https://dc.lft.to/lastmile_qr_scan", "android": "https://dc.lft.to/lastmile_qr_scan"}, "lat": 38.91806066666667, "is_reserved": 0, "bike_id": "ca58c3a16762b49b91ca972b5ce9213b", "lon": -77.03696383333333, "is_disabled": 0, "fusion_lat": 0.0, "fusion_lon": 0.0, "name": "ca58c3a16762b49b91ca972b5ce9213b", "type": "electric_scooter"}, {"rental_uris": {"ios": "https://dc.lft.to/lastmile_qr_scan", "android": "https://dc.lft.to/lastmile_qr_scan"}, "lat": 38.944321, "is_reserved": 0, "bike_id": "64216d0438274f7936bc4ba1db5de2f6", "lon": -77.02602933333333, "is_disabled": 0, "fusion_lat": 0.0, "fusion_lon": 0.0, "name": "64216d0438274f7936bc4ba1db5de2f6", "type": "electric_bike"}, {"rental_uris": {"ios": "https://dc.lft.to/lastmile_qr_scan", "android": "https://dc.lft.to/lastmile_qr_scan"}, "lat": 38.879918833333335, "is_reserved": 0, "bike_id": "d9291409cf29cb3dc5b8421f87e400e9", "lon": -77.02409416666667, "is_disabled": 0, "fusion_lat": 0.0, "fusion_lon": 0.0, "name": "d9291409cf29cb3dc5b8421f87e400e9", "type": "electric_scooter"}, {"rental_uris": {"ios": "https://dc.lft.to/lastmile_qr_scan", "android": "https://dc.lft.to/lastmile_qr_scan"}, "lat": 38.9524365, "is_reserved": 0, "bike_id": "fd779b92954f00527db52400a3e2d1ac", "lon": -77.00700233333333, "is_disabled": 0, "fusion_lat": 0.0, "fusion_lon": 0.0, "name": "fd779b92954f00527db52400a3e2d1ac", "type": "electric_scooter"}, {"rental_uris": {"ios": "https://dc.lft.to/lastmile_qr_scan", "android": "https://dc.lft.to/lastmile_qr_scan"}, "lat": 38.887318666666665, "is_reserved": 0, "bike_id": "651409d8a2c0c032337940c50fd3ea48", "lon": -77.02830683333333, "is_disabled": 0, "fusion_lat": 0.0, "fusion_lon": 0.0, "name": "651409d8a2c0c032337940c50fd3ea48", "type": "electric_scooter"}, {"rental_uris": {"ios": "https://dc.lft.to/lastmile_qr_scan", "android": "https://dc.lft.to/lastmile_qr_scan"}, "lat": 38.84176883333333, "is_reserved": 0, "bike_id": "d2de1db4cedd08c06b1451880639d913", "lon": -76.99785083333333, "is_disabled": 0, "fusion_lat": 0.0, "fusion_lon": 0.0, "name": "d2de1db4cedd08c06b1451880639d913", "type": "electric_scooter"}, {"rental_uris": {"ios": "https://dc.lft.to/lastmile_qr_scan", "android": "https://dc.lft.to/lastmile_qr_scan"}, "lat": 38.90027083333333, "is_reserved": 0, "bike_id": "2b19bc866452fb14dfe647a18fe18ddf", "lon": -77.01188916666666, "is_disabled": 0, "fusion_lat": 0.0, "fusion_lon": 0.0, "name": "2b19bc866452fb14dfe647a18fe18ddf", "type": "electric_scooter"}, {"rental_uris": {"ios": "https://dc.lft.to/lastmile_qr_scan", "android": "https://dc.lft.to/lastmile_qr_scan"}, "lat": 38.902345, "is_reserved": 0, "bike_id": "f7d8dd6c85bf77835f9ad3c1854f7709", "lon": -77.0020295, "is_disabled": 0, "fusion_lat": 0.0, "fusion_lon": 0.0, "name": "f7d8dd6c85bf77835f9ad3c1854f7709", "type": "electric_scooter"}, {"rental_uris": {"ios": "https://dc.lft.to/lastmile_qr_scan", "android": "https://dc.lft.to/lastmile_qr_scan"}, "lat": 38.90558633333333, "is_reserved": 0, "bike_id": "648c9bfcc4bc0453077c658f8fd82e62", "lon": -77.0347205, "is_disabled": 0, "fusion_lat": 0.0, "fusion_lon": 0.0, "name": "648c9bfcc4bc0453077c658f8fd82e62", "type": "electric_scooter"}, {"rental_uris": {"ios": "https://dc.lft.to/lastmile_qr_scan", "android": "https://dc.lft.to/lastmile_qr_scan"}, "lat": 38.90624016666666, "is_reserved": 0, "bike_id": "40a43b534d75b1818d854d38f6db0a5c", "lon": -77.03875433333333, "is_disabled": 0, "fusion_lat": 0.0, "fusion_lon": 0.0, "name": "40a43b534d75b1818d854d38f6db0a5c", "type": "electric_scooter"}, {"rental_uris": {"ios": "https://dc.lft.to/lastmile_qr_scan", "android": "https://dc.lft.to/lastmile_qr_scan"}, "lat": 38.94406816666667, "is_reserved": 0, "bike_id": "fd48e02f9a91ca38c96a25ac3631ee82", "lon": -77.02606016666667, "is_disabled": 0, "fusion_lat": 0.0, "fusion_lon": 0.0, "name": "fd48e02f9a91ca38c96a25ac3631ee82", "type": "electric_scooter"}, {"rental_uris": {"ios": "https://dc.lft.to/lastmile_qr_scan", "android": "https://dc.lft.to/lastmile_qr_scan"}, "lat": 38.8952305, "is_reserved": 0, "bike_id": "e4de6649f0a9063c4ccbfe2059ee1f97", "lon": -77.0228965, "is_disabled": 0, "fusion_lat": 0.0, "fusion_lon": 0.0, "name": "e4de6649f0a9063c4ccbfe2059ee1f97", "type": "electric_scooter"}, {"rental_uris": {"ios": "https://dc.lft.to/lastmile_qr_scan", "android": "https://dc.lft.to/lastmile_qr_scan"}, "lat": 38.9106945, "is_reserved": 0, "bike_id": "6261406436ce4e6af3ffc65c4f04121e", "lon": -77.03025183333334, "is_disabled": 0, "fusion_lat": 0.0, "fusion_lon": 0.0, "name": "6261406436ce4e6af3ffc65c4f04121e", "type": "electric_scooter"}, {"rental_uris": {"ios": "https://dc.lft.to/lastmile_qr_scan", "android": "https://dc.lft.to/lastmile_qr_scan"}, "lat": 38.917308166666665, "is_reserved": 0, "bike_id": "91e16da82f427395ae18deeeb75507e5", "lon": -77.02815966666667, "is_disabled": 0, "fusion_lat": 0.0, "fusion_lon": 0.0, "name": "91e16da82f427395ae18deeeb75507e5", "type": "electric_scooter"}, {"rental_uris": {"ios": "https://dc.lft.to/lastmile_qr_scan", "android": "https://dc.lft.to/lastmile_qr_scan"}, "lat": 38.85770683333333, "is_reserved": 0, "bike_id": "a47c0bc31e0dfc9e64bc1da669174d96", "lon": -76.98755166666666, "is_disabled": 0, "fusion_lat": 0.0, "fusion_lon": 0.0, "name": "a47c0bc31e0dfc9e64bc1da669174d96", "type": "electric_bike"}, {"rental_uris": {"ios": "https://dc.lft.to/lastmile_qr_scan", "android": "https://dc.lft.to/lastmile_qr_scan"}, "lat": 38.909274833333335, "is_reserved": 0, "bike_id": "b43ead0ea020b9a3772d111040ab3e0c", "lon": -77.02692383333333, "is_disabled": 0, "fusion_lat": 0.0, "fusion_lon": 0.0, "name": "b43ead0ea020b9a3772d111040ab3e0c", "type": "electric_scooter"}, {"rental_uris": {"ios": "https://dc.lft.to/lastmile_qr_scan", "android": "https://dc.lft.to/lastmile_qr_scan"}, "lat": 38.902286833333335, "is_reserved": 0, "bike_id": "39181f1b1659c5adf1e3eea33db70d77", "lon": -77.0454775, "is_disabled": 0, "fusion_lat": 0.0, "fusion_lon": 0.0, "name": "39181f1b1659c5adf1e3eea33db70d77", "type": "electric_scooter"}, {"rental_uris": {"ios": "https://dc.lft.to/lastmile_qr_scan", "android": "https://dc.lft.to/lastmile_qr_scan"}, "lat": 38.91970466666667, "is_reserved": 0, "bike_id": "8cfa134121b8faf74b7ae56e107627e7", "lon": -77.02326133333334, "is_disabled": 0, "fusion_lat": 0.0, "fusion_lon": 0.0, "name": "8cfa134121b8faf74b7ae56e107627e7", "type": "electric_scooter"}, {"rental_uris": {"ios": "https://dc.lft.to/lastmile_qr_scan", "android": "https://dc.lft.to/lastmile_qr_scan"}, "lat": 38.911205, "is_reserved": 0, "bike_id": "47ac37077b30901b69ed18799c0c9690", "lon": -77.02241366666667, "is_disabled": 0, "fusion_lat": 0.0, "fusion_lon": 0.0, "name": "47ac37077b30901b69ed18799c0c9690", "type": "electric_scooter"}, {"rental_uris": {"ios": "https://dc.lft.to/lastmile_qr_scan", "android": "https://dc.lft.to/lastmile_qr_scan"}, "lat": 38.8579505, "is_reserved": 0, "bike_id": "0f0345d5bbe447adbdb1688018a68782", "lon": -76.98914866666667, "is_disabled": 0, "fusion_lat": 0.0, "fusion_lon": 0.0, "name": "0f0345d5bbe447adbdb1688018a68782", "type": "electric_scooter"}, {"rental_uris": {"ios": "https://dc.lft.to/lastmile_qr_scan", "android": "https://dc.lft.to/lastmile_qr_scan"}, "lat": 38.913646166666666, "is_reserved": 0, "bike_id": "70437d4f3dbefaa9c02425a81a921d74", "lon": -77.04489466666666, "is_disabled": 0, "fusion_lat": 0.0, "fusion_lon": 0.0, "name": "70437d4f3dbefaa9c02425a81a921d74", "type": "electric_scooter"}, {"rental_uris": {"ios": "https://dc.lft.to/lastmile_qr_scan", "android": "https://dc.lft.to/lastmile_qr_scan"}, "lat": 38.798517, "is_reserved": 0, "bike_id": "6e8163588c99756e1dfeaf77ec62fbb4", "lon": -77.06306483333333, "is_disabled": 0, "fusion_lat": 0.0, "fusion_lon": 0.0, "name": "6e8163588c99756e1dfeaf77ec62fbb4", "type": "electric_bike"}, {"rental_uris": {"ios": "https://dc.lft.to/lastmile_qr_scan", "android": "https://dc.lft.to/lastmile_qr_scan"}, "lat": 38.8665435, "is_reserved": 0, "bike_id": "f2830e13009f5b03e51dc7d9a7cf7a43", "lon": -76.98888466666666, "is_disabled": 0, "fusion_lat": 0.0, "fusion_lon": 0.0, "name": "f2830e13009f5b03e51dc7d9a7cf7a43", "type": "electric_scooter"}, {"rental_uris": {"ios": "https://dc.lft.to/lastmile_qr_scan", "android": "https://dc.lft.to/lastmile_qr_scan"}, "lat": 38.866872, "is_reserved": 0, "bike_id": "35e303e08965fe7e19cd77699cd64873", "lon": -76.98546433333334, "is_disabled": 0, "fusion_lat": 0.0, "fusion_lon": 0.0, "name": "35e303e08965fe7e19cd77699cd64873", "type": "electric_scooter"}, {"rental_uris": {"ios": "https://dc.lft.to/lastmile_qr_scan", "android": "https://dc.lft.to/lastmile_qr_scan"}, "lat": 38.929222, "is_reserved": 0, "bike_id": "f46838385047fb8a9ea923796d9c77cd", "lon": -77.0328245, "is_disabled": 0, "fusion_lat": 0.0, "fusion_lon": 0.0, "name": "f46838385047fb8a9ea923796d9c77cd", "type": "electric_scooter"}, {"rental_uris": {"ios": "https://dc.lft.to/lastmile_qr_scan", "android": "https://dc.lft.to/lastmile_qr_scan"}, "lat": 38.92040083333333, "is_reserved": 0, "bike_id": "06a82d5711058c01cb0a693724c7462a", "lon": -77.01677016666666, "is_disabled": 0, "fusion_lat": 0.0, "fusion_lon": 0.0, "name": "06a82d5711058c01cb0a693724c7462a", "type": "electric_scooter"}, {"rental_uris": {"ios": "https://dc.lft.to/lastmile_qr_scan", "android": "https://dc.lft.to/lastmile_qr_scan"}, "lat": 38.902329, "is_reserved": 0, "bike_id": "9c1d26a6ad35415d36f969db34ec0a20", "lon": -77.04351733333333, "is_disabled": 0, "fusion_lat": 0.0, "fusion_lon": 0.0, "name": "9c1d26a6ad35415d36f969db34ec0a20", "type": "electric_scooter"}, {"rental_uris": {"ios": "https://dc.lft.to/lastmile_qr_scan", "android": "https://dc.lft.to/lastmile_qr_scan"}, "lat": 38.8971285, "is_reserved": 0, "bike_id": "fd3905e1921b9b8820aa0f48998f5dc0", "lon": -77.02685983333333, "is_disabled": 0, "fusion_lat": 0.0, "fusion_lon": 0.0, "name": "fd3905e1921b9b8820aa0f48998f5dc0", "type": "electric_scooter"}, {"rental_uris": {"ios": "https://dc.lft.to/lastmile_qr_scan", "android": "https://dc.lft.to/lastmile_qr_scan"}, "lat": 38.80656366666667, "is_reserved": 0, "bike_id": "1926a75cf0f8cfe3188cba440c7729a9", "lon": -77.08763933333333, "is_disabled": 0, "fusion_lat": 0.0, "fusion_lon": 0.0, "name": "1926a75cf0f8cfe3188cba440c7729a9", "type": "electric_bike"}, {"rental_uris": {"ios": "https://dc.lft.to/lastmile_qr_scan", "android": "https://dc.lft.to/lastmile_qr_scan"}, "lat": 38.972148, "is_reserved": 0, "bike_id": "f915515709d5a736f12aaaf7d3a83a96", "lon": -77.01428366666667, "is_disabled": 0, "fusion_lat": 0.0, "fusion_lon": 0.0, "name": "f915515709d5a736f12aaaf7d3a83a96", "type": "electric_bike"}, {"rental_uris": {"ios": "https://dc.lft.to/lastmile_qr_scan", "android": "https://dc.lft.to/lastmile_qr_scan"}, "lat": 38.79466333333333, "is_reserved": 0, "bike_id": "2bf7bb29385acaf192cad707e06683b3", "lon": -76.9924845, "is_disabled": 0, "fusion_lat": 0.0, "fusion_lon": 0.0, "name": "2bf7bb29385acaf192cad707e06683b3", "type": "electric_bike"}, {"rental_uris": {"ios": "https://dc.lft.to/lastmile_qr_scan", "android": "https://dc.lft.to/lastmile_qr_scan"}, "lat": 38.90051, "is_reserved": 0, "bike_id": "5debbd8c5d222a43387721cf8f12ad7a", "lon": -77.00204116666667, "is_disabled": 0, "fusion_lat": 0.0, "fusion_lon": 0.0, "name": "5debbd8c5d222a43387721cf8f12ad7a", "type": "electric_scooter"}, {"rental_uris": {"ios": "https://dc.lft.to/lastmile_qr_scan", "android": "https://dc.lft.to/lastmile_qr_scan"}, "lat": 38.90030516666667, "is_reserved": 0, "bike_id": "f4ad3b5aa26420e2f9ec11a6ab3461ee", "lon": -77.05823816666667, "is_disabled": 0, "fusion_lat": 0.0, "fusion_lon": 0.0, "name": "f4ad3b5aa26420e2f9ec11a6ab3461ee", "type": "electric_scooter"}, {"rental_uris": {"ios": "https://dc.lft.to/lastmile_qr_scan", "android": "https://dc.lft.to/lastmile_qr_scan"}, "lat": 38.94379083333333, "is_reserved": 0, "bike_id": "7baf6599f31fc88ed6b6b65e264b10fe", "lon": -77.077033, "is_disabled": 0, "fusion_lat": 0.0, "fusion_lon": 0.0, "name": "7baf6599f31fc88ed6b6b65e264b10fe", "type": "electric_scooter"}, {"rental_uris": {"ios": "https://dc.lft.to/lastmile_qr_scan", "android": "https://dc.lft.to/lastmile_qr_scan"}, "lat": 38.923459, "is_reserved": 0, "bike_id": "7018dbb4de14e300a4a9139f2afd0b00", "lon": -77.03534383333333, "is_disabled": 0, "fusion_lat": 0.0, "fusion_lon": 0.0, "name": "7018dbb4de14e300a4a9139f2afd0b00", "type": "electric_scooter"}, {"rental_uris": {"ios": "https://dc.lft.to/lastmile_qr_scan", "android": "https://dc.lft.to/lastmile_qr_scan"}, "lat": 38.926536, "is_reserved": 0, "bike_id": "1bfb937fdf1ba6ee8f1c02d018a3a6cd", "lon": -77.03730283333333, "is_disabled": 0, "fusion_lat": 0.0, "fusion_lon": 0.0, "name": "1bfb937fdf1ba6ee8f1c02d018a3a6cd", "type": "electric_scooter"}, {"rental_uris": {"ios": "https://dc.lft.to/lastmile_qr_scan", "android": "https://dc.lft.to/lastmile_qr_scan"}, "lat": 38.89100916666666, "is_reserved": 0, "bike_id": "5a6a4e10e21b4aff23d50247df4bbcba", "lon": -76.93483533333334, "is_disabled": 0, "fusion_lat": 0.0, "fusion_lon": 0.0, "name": "5a6a4e10e21b4aff23d50247df4bbcba", "type": "electric_bike"}, {"rental_uris": {"ios": "https://dc.lft.to/lastmile_qr_scan", "android": "https://dc.lft.to/lastmile_qr_scan"}, "lat": 38.874901, "is_reserved": 0, "bike_id": "2f0782a717e648f3125c6c2a905a6ba8", "lon": -77.21126833333334, "is_disabled": 0, "fusion_lat": 0.0, "fusion_lon": 0.0, "name": "2f0782a717e648f3125c6c2a905a6ba8", "type": "electric_bike"}, {"rental_uris": {"ios": "https://dc.lft.to/lastmile_qr_scan", "android": "https://dc.lft.to/lastmile_qr_scan"}, "lat": 38.89614816666667, "is_reserved": 0, "bike_id": "12bead52f520c188f54a6a6bc0d17d3c", "lon": -76.90733483333334, "is_disabled": 0, "fusion_lat": 0.0, "fusion_lon": 0.0, "name": "12bead52f520c188f54a6a6bc0d17d3c", "type": "electric_bike"}, {"rental_uris": {"ios": "https://dc.lft.to/lastmile_qr_scan", "android": "https://dc.lft.to/lastmile_qr_scan"}, "lat": 38.9163135, "is_reserved": 0, "bike_id": "26e504db4a2e1ccedfa0d6737984cda4", "lon": -77.02552133333333, "is_disabled": 0, "fusion_lat": 0.0, "fusion_lon": 0.0, "name": "26e504db4a2e1ccedfa0d6737984cda4", "type": "electric_scooter"}, {"rental_uris": {"ios": "https://dc.lft.to/lastmile_qr_scan", "android": "https://dc.lft.to/lastmile_qr_scan"}, "lat": 38.91874883333333, "is_reserved": 0, "bike_id": "5eb0c4e0b9c6db4362edc8f670154c35", "lon": -77.02208783333333, "is_disabled": 0, "fusion_lat": 0.0, "fusion_lon": 0.0, "name": "5eb0c4e0b9c6db4362edc8f670154c35", "type": "electric_scooter"}, {"rental_uris": {"ios": "https://dc.lft.to/lastmile_qr_scan", "android": "https://dc.lft.to/lastmile_qr_scan"}, "lat": 38.897404, "is_reserved": 0, "bike_id": "a543571d1b9803fde777bd8f8b16ef87", "lon": -77.03340366666667, "is_disabled": 0, "fusion_lat": 0.0, "fusion_lon": 0.0, "name": "a543571d1b9803fde777bd8f8b16ef87", "type": "electric_scooter"}, {"rental_uris": {"ios": "https://dc.lft.to/lastmile_qr_scan", "android": "https://dc.lft.to/lastmile_qr_scan"}, "lat": 38.897519833333334, "is_reserved": 0, "bike_id": "e25aeb66c0911c780e5276222f31552c", "lon": -77.0189115, "is_disabled": 0, "fusion_lat": 0.0, "fusion_lon": 0.0, "name": "e25aeb66c0911c780e5276222f31552c", "type": "electric_scooter"}, {"rental_uris": {"ios": "https://dc.lft.to/lastmile_qr_scan", "android": "https://dc.lft.to/lastmile_qr_scan"}, "lat": 38.846082833333334, "is_reserved": 0, "bike_id": "9714613cc0fa28b0560b327c1f091320", "lon": -76.96919116666666, "is_disabled": 0, "fusion_lat": 0.0, "fusion_lon": 0.0, "name": "9714613cc0fa28b0560b327c1f091320", "type": "electric_bike"}, {"rental_uris": {"ios": "https://dc.lft.to/lastmile_qr_scan", "android": "https://dc.lft.to/lastmile_qr_scan"}, "lat": 38.919025833333336, "is_reserved": 0, "bike_id": "bb4a0a78f59ce81c6a89fbf15d61ce2a", "lon": -77.03127133333334, "is_disabled": 0, "fusion_lat": 0.0, "fusion_lon": 0.0, "name": "bb4a0a78f59ce81c6a89fbf15d61ce2a", "type": "electric_scooter"}, {"rental_uris": {"ios": "https://dc.lft.to/lastmile_qr_scan", "android": "https://dc.lft.to/lastmile_qr_scan"}, "lat": 38.874228, "is_reserved": 0, "bike_id": "a43860b4a0bc9da1dccf27847f935e48", "lon": -77.08568116666666, "is_disabled": 0, "fusion_lat": 0.0, "fusion_lon": 0.0, "name": "a43860b4a0bc9da1dccf27847f935e48", "type": "electric_bike"}, {"rental_uris": {"ios": "https://dc.lft.to/lastmile_qr_scan", "android": "https://dc.lft.to/lastmile_qr_scan"}, "lat": 38.875559, "is_reserved": 0, "bike_id": "db8017b6fd9e8c963e732fa7eae6bbec", "lon": -77.10694916666667, "is_disabled": 0, "fusion_lat": 0.0, "fusion_lon": 0.0, "name": "db8017b6fd9e8c963e732fa7eae6bbec", "type": "electric_bike"}, {"rental_uris": {"ios": "https://dc.lft.to/lastmile_qr_scan", "android": "https://dc.lft.to/lastmile_qr_scan"}, "lat": 38.924992333333336, "is_reserved": 0, "bike_id": "7879e637b56fea63a40c1d3e70a02eb3", "lon": -77.05758583333333, "is_disabled": 0, "fusion_lat": 0.0, "fusion_lon": 0.0, "name": "7879e637b56fea63a40c1d3e70a02eb3", "type": "electric_scooter"}, {"rental_uris": {"ios": "https://dc.lft.to/lastmile_qr_scan", "android": "https://dc.lft.to/lastmile_qr_scan"}, "lat": 38.909469, "is_reserved": 0, "bike_id": "f61a2c24b7dc0825e1e9fe61c5b39cc8", "lon": -77.03179283333333, "is_disabled": 0, "fusion_lat": 0.0, "fusion_lon": 0.0, "name": "f61a2c24b7dc0825e1e9fe61c5b39cc8", "type": "electric_bike"}, {"rental_uris": {"ios": "https://dc.lft.to/lastmile_qr_scan", "android": "https://dc.lft.to/lastmile_qr_scan"}, "lat": 38.88716433333333, "is_reserved": 0, "bike_id": "43f28246bb816a9befdbbf67cb2866bc", "lon": -76.99612883333333, "is_disabled": 0, "fusion_lat": 0.0, "fusion_lon": 0.0, "name": "43f28246bb816a9befdbbf67cb2866bc", "type": "electric_scooter"}, {"rental_uris": {"ios": "https://dc.lft.to/lastmile_qr_scan", "android": "https://dc.lft.to/lastmile_qr_scan"}, "lat": 38.95236116666667, "is_reserved": 0, "bike_id": "d279005101a33137b43059a059e229d2", "lon": -77.00272466666667, "is_disabled": 0, "fusion_lat": 0.0, "fusion_lon": 0.0, "name": "d279005101a33137b43059a059e229d2", "type": "electric_bike"}, {"rental_uris": {"ios": "https://dc.lft.to/lastmile_qr_scan", "android": "https://dc.lft.to/lastmile_qr_scan"}, "lat": 38.919958666666666, "is_reserved": 0, "bike_id": "d2f4db908273313c5b07f15f00e1518a", "lon": -77.0322305, "is_disabled": 0, "fusion_lat": 0.0, "fusion_lon": 0.0, "name": "d2f4db908273313c5b07f15f00e1518a", "type": "electric_scooter"}, {"rental_uris": {"ios": "https://dc.lft.to/lastmile_qr_scan", "android": "https://dc.lft.to/lastmile_qr_scan"}, "lat": 38.9042655, "is_reserved": 0, "bike_id": "8f6f56fd7cf4983f3baaf9479ce4428c", "lon": -77.04663583333334, "is_disabled": 0, "fusion_lat": 0.0, "fusion_lon": 0.0, "name": "8f6f56fd7cf4983f3baaf9479ce4428c", "type": "electric_scooter"}, {"rental_uris": {"ios": "https://dc.lft.to/lastmile_qr_scan", "android": "https://dc.lft.to/lastmile_qr_scan"}, "lat": 38.929446666666664, "is_reserved": 0, "bike_id": "bba0a9bccdda0d15fafbc5d32a1befc6", "lon": -77.0550425, "is_disabled": 0, "fusion_lat": 0.0, "fusion_lon": 0.0, "name": "bba0a9bccdda0d15fafbc5d32a1befc6", "type": "electric_scooter"}, {"rental_uris": {"ios": "https://dc.lft.to/lastmile_qr_scan", "android": "https://dc.lft.to/lastmile_qr_scan"}, "lat": 38.902352, "is_reserved": 0, "bike_id": "0778341be9d238e1bfb8d4fbc5460f85", "lon": -77.00202166666666, "is_disabled": 0, "fusion_lat": 0.0, "fusion_lon": 0.0, "name": "0778341be9d238e1bfb8d4fbc5460f85", "type": "electric_scooter"}, {"rental_uris": {"ios": "https://dc.lft.to/lastmile_qr_scan", "android": "https://dc.lft.to/lastmile_qr_scan"}, "lat": 39.08444166666666, "is_reserved": 0, "bike_id": "a08bedfff949510f0e59232fad648e3d", "lon": -76.952003, "is_disabled": 0, "fusion_lat": 0.0, "fusion_lon": 0.0, "name": "a08bedfff949510f0e59232fad648e3d", "type": "electric_bike"}, {"rental_uris": {"ios": "https://dc.lft.to/lastmile_qr_scan", "android": "https://dc.lft.to/lastmile_qr_scan"}, "lat": 38.90073616666667, "is_reserved": 0, "bike_id": "10da3ddde3f08f9b0e118c9e1904db54", "lon": -77.0477245, "is_disabled": 0, "fusion_lat": 0.0, "fusion_lon": 0.0, "name": "10da3ddde3f08f9b0e118c9e1904db54", "type": "electric_scooter"}, {"rental_uris": {"ios": "https://dc.lft.to/lastmile_qr_scan", "android": "https://dc.lft.to/lastmile_qr_scan"}, "lat": 38.923834, "is_reserved": 0, "bike_id": "b702325bbd9322289310bcf152aef460", "lon": -77.02686883333334, "is_disabled": 0, "fusion_lat": 0.0, "fusion_lon": 0.0, "name": "b702325bbd9322289310bcf152aef460", "type": "electric_scooter"}, {"rental_uris": {"ios": "https://dc.lft.to/lastmile_qr_scan", "android": "https://dc.lft.to/lastmile_qr_scan"}, "lat": 38.90686933333333, "is_reserved": 0, "bike_id": "e94f5946c2023a9b4fc0f7050e310e11", "lon": -77.0572105, "is_disabled": 0, "fusion_lat": 0.0, "fusion_lon": 0.0, "name": "e94f5946c2023a9b4fc0f7050e310e11", "type": "electric_scooter"}, {"rental_uris": {"ios": "https://dc.lft.to/lastmile_qr_scan", "android": "https://dc.lft.to/lastmile_qr_scan"}, "lat": 38.9180795, "is_reserved": 0, "bike_id": "c068ab30f18bd3320907fde89b6b26bf", "lon": -77.04438766666667, "is_disabled": 0, "fusion_lat": 0.0, "fusion_lon": 0.0, "name": "c068ab30f18bd3320907fde89b6b26bf", "type": "electric_scooter"}, {"rental_uris": {"ios": "https://dc.lft.to/lastmile_qr_scan", "android": "https://dc.lft.to/lastmile_qr_scan"}, "lat": 38.926493666666666, "is_reserved": 0, "bike_id": "b27c3b54713fea270d66aaf7356ca83c", "lon": -77.0430705, "is_disabled": 0, "fusion_lat": 0.0, "fusion_lon": 0.0, "name": "b27c3b54713fea270d66aaf7356ca83c", "type": "electric_scooter"}, {"rental_uris": {"ios": "https://dc.lft.to/lastmile_qr_scan", "android": "https://dc.lft.to/lastmile_qr_scan"}, "lat": 38.916682, "is_reserved": 0, "bike_id": "f299ae7469323932bf1454e9f4646d51", "lon": -77.0239295, "is_disabled": 0, "fusion_lat": 0.0, "fusion_lon": 0.0, "name": "f299ae7469323932bf1454e9f4646d51", "type": "electric_scooter"}, {"rental_uris": {"ios": "https://dc.lft.to/lastmile_qr_scan", "android": "https://dc.lft.to/lastmile_qr_scan"}, "lat": 38.9394815, "is_reserved": 0, "bike_id": "19763abaa3dc093cd379e27c334dbac3", "lon": -77.07241283333333, "is_disabled": 0, "fusion_lat": 0.0, "fusion_lon": 0.0, "name": "19763abaa3dc093cd379e27c334dbac3", "type": "electric_scooter"}, {"rental_uris": {"ios": "https://dc.lft.to/lastmile_qr_scan", "android": "https://dc.lft.to/lastmile_qr_scan"}, "lat": 38.9561255, "is_reserved": 0, "bike_id": "a3f9ca64d1cc994329c5c1de0989fc1e", "lon": -77.02823683333334, "is_disabled": 0, "fusion_lat": 0.0, "fusion_lon": 0.0, "name": "a3f9ca64d1cc994329c5c1de0989fc1e", "type": "electric_scooter"}, {"rental_uris": {"ios": "https://dc.lft.to/lastmile_qr_scan", "android": "https://dc.lft.to/lastmile_qr_scan"}, "lat": 38.90028183333333, "is_reserved": 0, "bike_id": "77436bb615c17a9c844599c01bbe71e5", "lon": -76.9985995, "is_disabled": 0, "fusion_lat": 0.0, "fusion_lon": 0.0, "name": "77436bb615c17a9c844599c01bbe71e5", "type": "electric_scooter"}, {"rental_uris": {"ios": "https://dc.lft.to/lastmile_qr_scan", "android": "https://dc.lft.to/lastmile_qr_scan"}, "lat": 38.90270366666667, "is_reserved": 0, "bike_id": "26678eebef93f446f206e6e195adb0ff", "lon": -77.03952683333333, "is_disabled": 0, "fusion_lat": 0.0, "fusion_lon": 0.0, "name": "26678eebef93f446f206e6e195adb0ff", "type": "electric_scooter"}, {"rental_uris": {"ios": "https://dc.lft.to/lastmile_qr_scan", "android": "https://dc.lft.to/lastmile_qr_scan"}, "lat": 38.89351033333333, "is_reserved": 0, "bike_id": "29d0cdb71d3b1e91eb33657d5fb8ef2f", "lon": -77.187371, "is_disabled": 0, "fusion_lat": 0.0, "fusion_lon": 0.0, "name": "29d0cdb71d3b1e91eb33657d5fb8ef2f", "type": "electric_bike"}, {"rental_uris": {"ios": "https://dc.lft.to/lastmile_qr_scan", "android": "https://dc.lft.to/lastmile_qr_scan"}, "lat": 38.84437333333333, "is_reserved": 0, "bike_id": "f4c118d3b8ad7c0e475363133ed68163", "lon": -76.99778333333333, "is_disabled": 0, "fusion_lat": 0.0, "fusion_lon": 0.0, "name": "f4c118d3b8ad7c0e475363133ed68163", "type": "electric_scooter"}, {"rental_uris": {"ios": "https://dc.lft.to/lastmile_qr_scan", "android": "https://dc.lft.to/lastmile_qr_scan"}, "lat": 38.87896166666667, "is_reserved": 0, "bike_id": "aab3060ceef6e2a5ac9240c86f4a6e1c", "lon": -77.02190633333333, "is_disabled": 0, "fusion_lat": 0.0, "fusion_lon": 0.0, "name": "aab3060ceef6e2a5ac9240c86f4a6e1c", "type": "electric_scooter"}, {"rental_uris": {"ios": "https://dc.lft.to/lastmile_qr_scan", "android": "https://dc.lft.to/lastmile_qr_scan"}, "lat": 38.84487716666667, "is_reserved": 0, "bike_id": "e223d81cfe123d272e93f8c6b1423109", "lon": -76.98791683333333, "is_disabled": 0, "fusion_lat": 0.0, "fusion_lon": 0.0, "name": "e223d81cfe123d272e93f8c6b1423109", "type": "electric_scooter"}, {"rental_uris": {"ios": "https://dc.lft.to/lastmile_qr_scan", "android": "https://dc.lft.to/lastmile_qr_scan"}, "lat": 38.990484333333335, "is_reserved": 0, "bike_id": "3ae14a335441ea5e025477c0a660deae", "lon": -77.03868233333333, "is_disabled": 0, "fusion_lat": 0.0, "fusion_lon": 0.0, "name": "3ae14a335441ea5e025477c0a660deae", "type": "electric_bike"}, {"rental_uris": {"ios": "https://dc.lft.to/lastmile_qr_scan", "android": "https://dc.lft.to/lastmile_qr_scan"}, "lat": 38.902868, "is_reserved": 0, "bike_id": "fc076f3f978bf3083ff5d1f70fc20479", "lon": -77.04239, "is_disabled": 0, "fusion_lat": 0.0, "fusion_lon": 0.0, "name": "fc076f3f978bf3083ff5d1f70fc20479", "type": "electric_scooter"}, {"rental_uris": {"ios": "https://dc.lft.to/lastmile_qr_scan", "android": "https://dc.lft.to/lastmile_qr_scan"}, "lat": 38.923229166666665, "is_reserved": 0, "bike_id": "81b6ad4b4a366a4d1d97504e444f1924", "lon": -77.0195075, "is_disabled": 0, "fusion_lat": 0.0, "fusion_lon": 0.0, "name": "81b6ad4b4a366a4d1d97504e444f1924", "type": "electric_scooter"}, {"rental_uris": {"ios": "https://dc.lft.to/lastmile_qr_scan", "android": "https://dc.lft.to/lastmile_qr_scan"}, "lat": 38.8922365, "is_reserved": 0, "bike_id": "6882fac2efdb0aea7e9b304fc4b2b1e9", "lon": -77.047743, "is_disabled": 0, "fusion_lat": 0.0, "fusion_lon": 0.0, "name": "6882fac2efdb0aea7e9b304fc4b2b1e9", "type": "electric_scooter"}, {"rental_uris": {"ios": "https://dc.lft.to/lastmile_qr_scan", "android": "https://dc.lft.to/lastmile_qr_scan"}, "lat": 38.9076385, "is_reserved": 0, "bike_id": "897ad4c858dd4276a77feb1ba8895f88", "lon": -77.042656, "is_disabled": 0, "fusion_lat": 0.0, "fusion_lon": 0.0, "name": "897ad4c858dd4276a77feb1ba8895f88", "type": "electric_scooter"}, {"rental_uris": {"ios": "https://dc.lft.to/lastmile_qr_scan", "android": "https://dc.lft.to/lastmile_qr_scan"}, "lat": 38.886265, "is_reserved": 0, "bike_id": "a1417cbae4566069ea0143472eaf6933", "lon": -77.01530016666666, "is_disabled": 0, "fusion_lat": 0.0, "fusion_lon": 0.0, "name": "a1417cbae4566069ea0143472eaf6933", "type": "electric_scooter"}, {"rental_uris": {"ios": "https://dc.lft.to/lastmile_qr_scan", "android": "https://dc.lft.to/lastmile_qr_scan"}, "lat": 38.835415166666664, "is_reserved": 0, "bike_id": "35152e806bd5129e0a9c559eec00942f", "lon": -76.9872645, "is_disabled": 0, "fusion_lat": 0.0, "fusion_lon": 0.0, "name": "35152e806bd5129e0a9c559eec00942f", "type": "electric_bike"}, {"rental_uris": {"ios": "https://dc.lft.to/lastmile_qr_scan", "android": "https://dc.lft.to/lastmile_qr_scan"}, "lat": 38.917312833333334, "is_reserved": 0, "bike_id": "a1e9a25d1f07a1f99f7bc2a2550087c8", "lon": -77.034503, "is_disabled": 0, "fusion_lat": 0.0, "fusion_lon": 0.0, "name": "a1e9a25d1f07a1f99f7bc2a2550087c8", "type": "electric_scooter"}, {"rental_uris": {"ios": "https://dc.lft.to/lastmile_qr_scan", "android": "https://dc.lft.to/lastmile_qr_scan"}, "lat": 38.92957666666667, "is_reserved": 0, "bike_id": "60a3704c9ea86e4188eaf41760ab0205", "lon": -77.0114595, "is_disabled": 0, "fusion_lat": 0.0, "fusion_lon": 0.0, "name": "60a3704c9ea86e4188eaf41760ab0205", "type": "electric_scooter"}, {"rental_uris": {"ios": "https://dc.lft.to/lastmile_qr_scan", "android": "https://dc.lft.to/lastmile_qr_scan"}, "lat": 38.90915533333333, "is_reserved": 0, "bike_id": "eba2da9252e9816dbccbc765e8833fa7", "lon": -77.041611, "is_disabled": 0, "fusion_lat": 0.0, "fusion_lon": 0.0, "name": "eba2da9252e9816dbccbc765e8833fa7", "type": "electric_scooter"}, {"rental_uris": {"ios": "https://dc.lft.to/lastmile_qr_scan", "android": "https://dc.lft.to/lastmile_qr_scan"}, "lat": 38.907640666666666, "is_reserved": 0, "bike_id": "45cff24387e94b7d3c6f1c315451a8a1", "lon": -77.0322265, "is_disabled": 0, "fusion_lat": 0.0, "fusion_lon": 0.0, "name": "45cff24387e94b7d3c6f1c315451a8a1", "type": "electric_scooter"}, {"rental_uris": {"ios": "https://dc.lft.to/lastmile_qr_scan", "android": "https://dc.lft.to/lastmile_qr_scan"}, "lat": 38.91104216666667, "is_reserved": 0, "bike_id": "9fc29d6f2587224b4d1e06306bb66e1c", "lon": -77.043525, "is_disabled": 0, "fusion_lat": 0.0, "fusion_lon": 0.0, "name": "9fc29d6f2587224b4d1e06306bb66e1c", "type": "electric_scooter"}, {"rental_uris": {"ios": "https://dc.lft.to/lastmile_qr_scan", "android": "https://dc.lft.to/lastmile_qr_scan"}, "lat": 38.8336415, "is_reserved": 0, "bike_id": "3e0fe79f386771206271b66ed04dad4d", "lon": -77.0030515, "is_disabled": 0, "fusion_lat": 0.0, "fusion_lon": 0.0, "name": "3e0fe79f386771206271b66ed04dad4d", "type": "electric_bike"}, {"rental_uris": {"ios": "https://dc.lft.to/lastmile_qr_scan", "android": "https://dc.lft.to/lastmile_qr_scan"}, "lat": 38.9217195, "is_reserved": 0, "bike_id": "ec5c00b2292404e4e8c4484b1304bdf0", "lon": -77.0469385, "is_disabled": 0, "fusion_lat": 0.0, "fusion_lon": 0.0, "name": "ec5c00b2292404e4e8c4484b1304bdf0", "type": "electric_scooter"}, {"rental_uris": {"ios": "https://dc.lft.to/lastmile_qr_scan", "android": "https://dc.lft.to/lastmile_qr_scan"}, "lat": 38.925320666666664, "is_reserved": 0, "bike_id": "c691ef0762550a3f8ae79b4e93b4270f", "lon": -77.03531966666667, "is_disabled": 0, "fusion_lat": 0.0, "fusion_lon": 0.0, "name": "c691ef0762550a3f8ae79b4e93b4270f", "type": "electric_scooter"}, {"rental_uris": {"ios": "https://dc.lft.to/lastmile_qr_scan", "android": "https://dc.lft.to/lastmile_qr_scan"}, "lat": 38.922503666666664, "is_reserved": 0, "bike_id": "39d98fb69947e6f285354a96f53778d8", "lon": -77.01949716666667, "is_disabled": 0, "fusion_lat": 0.0, "fusion_lon": 0.0, "name": "39d98fb69947e6f285354a96f53778d8", "type": "electric_scooter"}, {"rental_uris": {"ios": "https://dc.lft.to/lastmile_qr_scan", "android": "https://dc.lft.to/lastmile_qr_scan"}, "lat": 38.91589783333333, "is_reserved": 0, "bike_id": "5a784b6df18c37f8e8f726c7e01ccafa", "lon": -76.98373966666666, "is_disabled": 0, "fusion_lat": 0.0, "fusion_lon": 0.0, "name": "5a784b6df18c37f8e8f726c7e01ccafa", "type": "electric_scooter"}, {"rental_uris": {"ios": "https://dc.lft.to/lastmile_qr_scan", "android": "https://dc.lft.to/lastmile_qr_scan"}, "lat": 38.907709833333335, "is_reserved": 0, "bike_id": "fc49603f0054dc39e53dde3cecb0ee06", "lon": -77.07165533333334, "is_disabled": 0, "fusion_lat": 0.0, "fusion_lon": 0.0, "name": "fc49603f0054dc39e53dde3cecb0ee06", "type": "electric_scooter"}, {"rental_uris": {"ios": "https://dc.lft.to/lastmile_qr_scan", "android": "https://dc.lft.to/lastmile_qr_scan"}, "lat": 38.90650316666667, "is_reserved": 0, "bike_id": "e6dce832b39246c7fcbbd75cd752bb84", "lon": -77.04259083333334, "is_disabled": 0, "fusion_lat": 0.0, "fusion_lon": 0.0, "name": "e6dce832b39246c7fcbbd75cd752bb84", "type": "electric_scooter"}, {"rental_uris": {"ios": "https://dc.lft.to/lastmile_qr_scan", "android": "https://dc.lft.to/lastmile_qr_scan"}, "lat": 38.90849016666667, "is_reserved": 0, "bike_id": "5ec78e53a678e57a7fea25c4eb25afc7", "lon": -77.02994466666667, "is_disabled": 0, "fusion_lat": 0.0, "fusion_lon": 0.0, "name": "5ec78e53a678e57a7fea25c4eb25afc7", "type": "electric_scooter"}, {"rental_uris": {"ios": "https://dc.lft.to/lastmile_qr_scan", "android": "https://dc.lft.to/lastmile_qr_scan"}, "lat": 38.90045466666667, "is_reserved": 0, "bike_id": "25f869a5214a9005ead9c4bffcbad87b", "lon": -77.04339533333334, "is_disabled": 0, "fusion_lat": 0.0, "fusion_lon": 0.0, "name": "25f869a5214a9005ead9c4bffcbad87b", "type": "electric_scooter"}, {"rental_uris": {"ios": "https://dc.lft.to/lastmile_qr_scan", "android": "https://dc.lft.to/lastmile_qr_scan"}, "lat": 38.916955, "is_reserved": 0, "bike_id": "cff54d5ceee0cd37d870524bdb850e2d", "lon": -77.029085, "is_disabled": 0, "fusion_lat": 0.0, "fusion_lon": 0.0, "name": "cff54d5ceee0cd37d870524bdb850e2d", "type": "electric_scooter"}, {"rental_uris": {"ios": "https://dc.lft.to/lastmile_qr_scan", "android": "https://dc.lft.to/lastmile_qr_scan"}, "lat": 38.905319666666664, "is_reserved": 0, "bike_id": "5c8aa625c5ec1a9d04897a2dd2292edd", "lon": -77.0559795, "is_disabled": 0, "fusion_lat": 0.0, "fusion_lon": 0.0, "name": "5c8aa625c5ec1a9d04897a2dd2292edd", "type": "electric_scooter"}, {"rental_uris": {"ios": "https://dc.lft.to/lastmile_qr_scan", "android": "https://dc.lft.to/lastmile_qr_scan"}, "lat": 38.917801, "is_reserved": 0, "bike_id": "2a3fa2420faa0682927286470deed5d6", "lon": -77.02299883333333, "is_disabled": 0, "fusion_lat": 0.0, "fusion_lon": 0.0, "name": "2a3fa2420faa0682927286470deed5d6", "type": "electric_scooter"}, {"rental_uris": {"ios": "https://dc.lft.to/lastmile_qr_scan", "android": "https://dc.lft.to/lastmile_qr_scan"}, "lat": 38.905294833333336, "is_reserved": 0, "bike_id": "604e63f1ba50f2ab444ebedfe8097b96", "lon": -77.060417, "is_disabled": 0, "fusion_lat": 0.0, "fusion_lon": 0.0, "name": "604e63f1ba50f2ab444ebedfe8097b96", "type": "electric_scooter"}, {"rental_uris": {"ios": "https://dc.lft.to/lastmile_qr_scan", "android": "https://dc.lft.to/lastmile_qr_scan"}, "lat": 38.90367166666667, "is_reserved": 0, "bike_id": "d043206359f0a9ac3523c0f26181cbd1", "lon": -77.03732983333333, "is_disabled": 0, "fusion_lat": 0.0, "fusion_lon": 0.0, "name": "d043206359f0a9ac3523c0f26181cbd1", "type": "electric_scooter"}, {"rental_uris": {"ios": "https://dc.lft.to/lastmile_qr_scan", "android": "https://dc.lft.to/lastmile_qr_scan"}, "lat": 38.903893833333335, "is_reserved": 0, "bike_id": "2ffc500d3ff4022bc1e474a43ab5b983", "lon": -77.06328483333333, "is_disabled": 0, "fusion_lat": 0.0, "fusion_lon": 0.0, "name": "2ffc500d3ff4022bc1e474a43ab5b983", "type": "electric_scooter"}, {"rental_uris": {"ios": "https://dc.lft.to/lastmile_qr_scan", "android": "https://dc.lft.to/lastmile_qr_scan"}, "lat": 38.887456666666665, "is_reserved": 0, "bike_id": "06909cfcc6bc4a861ad6050c5d363562", "lon": -77.01802166666667, "is_disabled": 0, "fusion_lat": 0.0, "fusion_lon": 0.0, "name": "06909cfcc6bc4a861ad6050c5d363562", "type": "electric_scooter"}, {"rental_uris": {"ios": "https://dc.lft.to/lastmile_qr_scan", "android": "https://dc.lft.to/lastmile_qr_scan"}, "lat": 38.901758666666666, "is_reserved": 0, "bike_id": "b0e9e9e06d36a2e7b88d8fe3c27de401", "lon": -76.9290925, "is_disabled": 0, "fusion_lat": 0.0, "fusion_lon": 0.0, "name": "b0e9e9e06d36a2e7b88d8fe3c27de401", "type": "electric_scooter"}, {"rental_uris": {"ios": "https://dc.lft.to/lastmile_qr_scan", "android": "https://dc.lft.to/lastmile_qr_scan"}, "lat": 38.882676833333335, "is_reserved": 0, "bike_id": "a542765aa4a0082bdca447df64a5bfa4", "lon": -76.99480716666666, "is_disabled": 0, "fusion_lat": 0.0, "fusion_lon": 0.0, "name": "a542765aa4a0082bdca447df64a5bfa4", "type": "electric_scooter"}, {"rental_uris": {"ios": "https://dc.lft.to/lastmile_qr_scan", "android": "https://dc.lft.to/lastmile_qr_scan"}, "lat": 38.8922075, "is_reserved": 0, "bike_id": "ef2b981af824509bfa0d7decbdecc244", "lon": -77.04807833333334, "is_disabled": 0, "fusion_lat": 0.0, "fusion_lon": 0.0, "name": "ef2b981af824509bfa0d7decbdecc244", "type": "electric_scooter"}, {"rental_uris": {"ios": "https://dc.lft.to/lastmile_qr_scan", "android": "https://dc.lft.to/lastmile_qr_scan"}, "lat": 38.91805566666667, "is_reserved": 0, "bike_id": "7515de2f6d0af3776f76d7c77b80b07a", "lon": -77.02702783333334, "is_disabled": 0, "fusion_lat": 0.0, "fusion_lon": 0.0, "name": "7515de2f6d0af3776f76d7c77b80b07a", "type": "electric_scooter"}, {"rental_uris": {"ios": "https://dc.lft.to/lastmile_qr_scan", "android": "https://dc.lft.to/lastmile_qr_scan"}, "lat": 38.90370033333333, "is_reserved": 0, "bike_id": "aa7a738366aab4b20f4518c7d9637a5f", "lon": -77.040025, "is_disabled": 0, "fusion_lat": 0.0, "fusion_lon": 0.0, "name": "aa7a738366aab4b20f4518c7d9637a5f", "type": "electric_scooter"}, {"rental_uris": {"ios": "https://dc.lft.to/lastmile_qr_scan", "android": "https://dc.lft.to/lastmile_qr_scan"}, "lat": 38.9249325, "is_reserved": 0, "bike_id": "b257ed218b160033961c589e98522b9b", "lon": -77.0252505, "is_disabled": 0, "fusion_lat": 0.0, "fusion_lon": 0.0, "name": "b257ed218b160033961c589e98522b9b", "type": "electric_scooter"}, {"rental_uris": {"ios": "https://dc.lft.to/lastmile_qr_scan", "android": "https://dc.lft.to/lastmile_qr_scan"}, "lat": 38.8994625, "is_reserved": 0, "bike_id": "9f5d2d56641968ca1e32ed0754790a2d", "lon": -77.04876583333333, "is_disabled": 0, "fusion_lat": 0.0, "fusion_lon": 0.0, "name": "9f5d2d56641968ca1e32ed0754790a2d", "type": "electric_scooter"}, {"rental_uris": {"ios": "https://dc.lft.to/lastmile_qr_scan", "android": "https://dc.lft.to/lastmile_qr_scan"}, "lat": 38.89194416666667, "is_reserved": 0, "bike_id": "084f3eae143e617ea277fac7e0ea52c9", "lon": -77.02380983333333, "is_disabled": 0, "fusion_lat": 0.0, "fusion_lon": 0.0, "name": "084f3eae143e617ea277fac7e0ea52c9", "type": "electric_scooter"}, {"rental_uris": {"ios": "https://dc.lft.to/lastmile_qr_scan", "android": "https://dc.lft.to/lastmile_qr_scan"}, "lat": 38.9023625, "is_reserved": 0, "bike_id": "b6659fb4b38dd245771e5d3f50d95d90", "lon": -77.002004, "is_disabled": 0, "fusion_lat": 0.0, "fusion_lon": 0.0, "name": "b6659fb4b38dd245771e5d3f50d95d90", "type": "electric_scooter"}, {"rental_uris": {"ios": "https://dc.lft.to/lastmile_qr_scan", "android": "https://dc.lft.to/lastmile_qr_scan"}, "lat": 38.88436166666666, "is_reserved": 0, "bike_id": "bbb1924a13fcaef7b8cc8dde938aea50", "lon": -76.99617033333334, "is_disabled": 0, "fusion_lat": 0.0, "fusion_lon": 0.0, "name": "bbb1924a13fcaef7b8cc8dde938aea50", "type": "electric_scooter"}, {"rental_uris": {"ios": "https://dc.lft.to/lastmile_qr_scan", "android": "https://dc.lft.to/lastmile_qr_scan"}, "lat": 38.92117266666666, "is_reserved": 0, "bike_id": "95fcf5c7d518a52885af90a0e58e4060", "lon": -77.01803533333333, "is_disabled": 0, "fusion_lat": 0.0, "fusion_lon": 0.0, "name": "95fcf5c7d518a52885af90a0e58e4060", "type": "electric_scooter"}, {"rental_uris": {"ios": "https://dc.lft.to/lastmile_qr_scan", "android": "https://dc.lft.to/lastmile_qr_scan"}, "lat": 38.93688383333333, "is_reserved": 0, "bike_id": "ac3d1fc0767b9c5513fc0eaac9e7a5bd", "lon": -76.990587, "is_disabled": 0, "fusion_lat": 0.0, "fusion_lon": 0.0, "name": "ac3d1fc0767b9c5513fc0eaac9e7a5bd", "type": "electric_bike"}, {"rental_uris": {"ios": "https://dc.lft.to/lastmile_qr_scan", "android": "https://dc.lft.to/lastmile_qr_scan"}, "lat": 38.90258016666667, "is_reserved": 0, "bike_id": "5dc59d45851ce7b3c752dc496d8c6d73", "lon": -77.03465183333333, "is_disabled": 0, "fusion_lat": 0.0, "fusion_lon": 0.0, "name": "5dc59d45851ce7b3c752dc496d8c6d73", "type": "electric_scooter"}, {"rental_uris": {"ios": "https://dc.lft.to/lastmile_qr_scan", "android": "https://dc.lft.to/lastmile_qr_scan"}, "lat": 38.938762, "is_reserved": 0, "bike_id": "9864c173b4198d42d07b581d4b6dcccf", "lon": -77.02482966666666, "is_disabled": 0, "fusion_lat": 0.0, "fusion_lon": 0.0, "name": "9864c173b4198d42d07b581d4b6dcccf", "type": "electric_scooter"}, {"rental_uris": {"ios": "https://dc.lft.to/lastmile_qr_scan", "android": "https://dc.lft.to/lastmile_qr_scan"}, "lat": 38.899703333333335, "is_reserved": 0, "bike_id": "bbd8c9dde65fef6dbc81c9b966795af7", "lon": -76.994849, "is_disabled": 0, "fusion_lat": 0.0, "fusion_lon": 0.0, "name": "bbd8c9dde65fef6dbc81c9b966795af7", "type": "electric_scooter"}, {"rental_uris": {"ios": "https://dc.lft.to/lastmile_qr_scan", "android": "https://dc.lft.to/lastmile_qr_scan"}, "lat": 38.93859666666667, "is_reserved": 0, "bike_id": "17eee9c538a3b119d4463cc62b06f807", "lon": -77.027865, "is_disabled": 0, "fusion_lat": 0.0, "fusion_lon": 0.0, "name": "17eee9c538a3b119d4463cc62b06f807", "type": "electric_scooter"}, {"rental_uris": {"ios": "https://dc.lft.to/lastmile_qr_scan", "android": "https://dc.lft.to/lastmile_qr_scan"}, "lat": 38.921387, "is_reserved": 0, "bike_id": "e6d7d24dfed49afd14828c0ff255abee", "lon": -77.01811116666667, "is_disabled": 0, "fusion_lat": 0.0, "fusion_lon": 0.0, "name": "e6d7d24dfed49afd14828c0ff255abee", "type": "electric_scooter"}, {"rental_uris": {"ios": "https://dc.lft.to/lastmile_qr_scan", "android": "https://dc.lft.to/lastmile_qr_scan"}, "lat": 38.9752915, "is_reserved": 0, "bike_id": "691fde23defb2eca3fbd66a9ee3ca9bd", "lon": -77.016863, "is_disabled": 0, "fusion_lat": 0.0, "fusion_lon": 0.0, "name": "691fde23defb2eca3fbd66a9ee3ca9bd", "type": "electric_bike"}, {"rental_uris": {"ios": "https://dc.lft.to/lastmile_qr_scan", "android": "https://dc.lft.to/lastmile_qr_scan"}, "lat": 38.94806633333334, "is_reserved": 0, "bike_id": "964f239c8b17900dbcd8f92f20ee8632", "lon": -77.0214605, "is_disabled": 0, "fusion_lat": 0.0, "fusion_lon": 0.0, "name": "964f239c8b17900dbcd8f92f20ee8632", "type": "electric_scooter"}, {"rental_uris": {"ios": "https://dc.lft.to/lastmile_qr_scan", "android": "https://dc.lft.to/lastmile_qr_scan"}, "lat": 38.920615833333336, "is_reserved": 0, "bike_id": "62946927e90b1da63393c5fb2c8eee40", "lon": -76.981937, "is_disabled": 0, "fusion_lat": 0.0, "fusion_lon": 0.0, "name": "62946927e90b1da63393c5fb2c8eee40", "type": "electric_scooter"}, {"rental_uris": {"ios": "https://dc.lft.to/lastmile_qr_scan", "android": "https://dc.lft.to/lastmile_qr_scan"}, "lat": 38.92361483333333, "is_reserved": 0, "bike_id": "da890c055ead908068c44300ab510841", "lon": -77.05032366666667, "is_disabled": 0, "fusion_lat": 0.0, "fusion_lon": 0.0, "name": "da890c055ead908068c44300ab510841", "type": "electric_scooter"}, {"rental_uris": {"ios": "https://dc.lft.to/lastmile_qr_scan", "android": "https://dc.lft.to/lastmile_qr_scan"}, "lat": 38.8667705, "is_reserved": 0, "bike_id": "96135be814f610acf883dd5ad8c30a18", "lon": -76.98567716666666, "is_disabled": 0, "fusion_lat": 0.0, "fusion_lon": 0.0, "name": "96135be814f610acf883dd5ad8c30a18", "type": "electric_scooter"}, {"rental_uris": {"ios": "https://dc.lft.to/lastmile_qr_scan", "android": "https://dc.lft.to/lastmile_qr_scan"}, "lat": 38.89228116666666, "is_reserved": 0, "bike_id": "60f614083bb847e34dfcc95fa0d5ffd0", "lon": -77.02208116666667, "is_disabled": 0, "fusion_lat": 0.0, "fusion_lon": 0.0, "name": "60f614083bb847e34dfcc95fa0d5ffd0", "type": "electric_scooter"}, {"rental_uris": {"ios": "https://dc.lft.to/lastmile_qr_scan", "android": "https://dc.lft.to/lastmile_qr_scan"}, "lat": 38.9909395, "is_reserved": 0, "bike_id": "08a0df213187bcaa87d8be0e3ed8be4a", "lon": -76.99373033333333, "is_disabled": 0, "fusion_lat": 0.0, "fusion_lon": 0.0, "name": "08a0df213187bcaa87d8be0e3ed8be4a", "type": "electric_bike"}, {"rental_uris": {"ios": "https://dc.lft.to/lastmile_qr_scan", "android": "https://dc.lft.to/lastmile_qr_scan"}, "lat": 38.877100666666664, "is_reserved": 0, "bike_id": "aeaee1fcededc3cda8a6f4b2abc64bc1", "lon": -77.00425233333333, "is_disabled": 0, "fusion_lat": 0.0, "fusion_lon": 0.0, "name": "aeaee1fcededc3cda8a6f4b2abc64bc1", "type": "electric_scooter"}, {"rental_uris": {"ios": "https://dc.lft.to/lastmile_qr_scan", "android": "https://dc.lft.to/lastmile_qr_scan"}, "lat": 38.892193, "is_reserved": 0, "bike_id": "6da656aedb4f6534aa037a5f8a59d580", "lon": -77.02508183333333, "is_disabled": 0, "fusion_lat": 0.0, "fusion_lon": 0.0, "name": "6da656aedb4f6534aa037a5f8a59d580", "type": "electric_scooter"}, {"rental_uris": {"ios": "https://dc.lft.to/lastmile_qr_scan", "android": "https://dc.lft.to/lastmile_qr_scan"}, "lat": 38.905311833333336, "is_reserved": 0, "bike_id": "84ad9899bccd5174e377ba69dafdffc9", "lon": -77.05162516666667, "is_disabled": 0, "fusion_lat": 0.0, "fusion_lon": 0.0, "name": "84ad9899bccd5174e377ba69dafdffc9", "type": "electric_scooter"}, {"rental_uris": {"ios": "https://dc.lft.to/lastmile_qr_scan", "android": "https://dc.lft.to/lastmile_qr_scan"}, "lat": 38.909540166666666, "is_reserved": 0, "bike_id": "afe0ed1b3a75b781ba0457ee762a03b4", "lon": -77.228935, "is_disabled": 0, "fusion_lat": 0.0, "fusion_lon": 0.0, "name": "afe0ed1b3a75b781ba0457ee762a03b4", "type": "electric_bike"}, {"rental_uris": {"ios": "https://dc.lft.to/lastmile_qr_scan", "android": "https://dc.lft.to/lastmile_qr_scan"}, "lat": 38.92450383333333, "is_reserved": 0, "bike_id": "058ed0f5372b565a9cfa3404d6f354b9", "lon": -77.02152216666667, "is_disabled": 0, "fusion_lat": 0.0, "fusion_lon": 0.0, "name": "058ed0f5372b565a9cfa3404d6f354b9", "type": "electric_scooter"}, {"rental_uris": {"ios": "https://dc.lft.to/lastmile_qr_scan", "android": "https://dc.lft.to/lastmile_qr_scan"}, "lat": 38.93422616666667, "is_reserved": 0, "bike_id": "df494208536b88052b52760ab62ea594", "lon": -77.04409516666666, "is_disabled": 0, "fusion_lat": 0.0, "fusion_lon": 0.0, "name": "df494208536b88052b52760ab62ea594", "type": "electric_scooter"}, {"rental_uris": {"ios": "https://dc.lft.to/lastmile_qr_scan", "android": "https://dc.lft.to/lastmile_qr_scan"}, "lat": 38.87671733333333, "is_reserved": 0, "bike_id": "b8cfb679ba3789eb2fc3aa4a82530408", "lon": -77.01762733333334, "is_disabled": 0, "fusion_lat": 0.0, "fusion_lon": 0.0, "name": "b8cfb679ba3789eb2fc3aa4a82530408", "type": "electric_scooter"}, {"rental_uris": {"ios": "https://dc.lft.to/lastmile_qr_scan", "android": "https://dc.lft.to/lastmile_qr_scan"}, "lat": 38.8981245, "is_reserved": 0, "bike_id": "6f3bf7d44cf7b08fecb305afe05ce71b", "lon": -77.03331633333333, "is_disabled": 0, "fusion_lat": 0.0, "fusion_lon": 0.0, "name": "6f3bf7d44cf7b08fecb305afe05ce71b", "type": "electric_scooter"}, {"rental_uris": {"ios": "https://dc.lft.to/lastmile_qr_scan", "android": "https://dc.lft.to/lastmile_qr_scan"}, "lat": 38.901488666666665, "is_reserved": 0, "bike_id": "e29d6730d81c5e1ce52fa19a890b0d71", "lon": -76.990278, "is_disabled": 0, "fusion_lat": 0.0, "fusion_lon": 0.0, "name": "e29d6730d81c5e1ce52fa19a890b0d71", "type": "electric_scooter"}, {"rental_uris": {"ios": "https://dc.lft.to/lastmile_qr_scan", "android": "https://dc.lft.to/lastmile_qr_scan"}, "lat": 38.86655016666667, "is_reserved": 0, "bike_id": "bdfe7d6034bdb4feecdce5829b432f04", "lon": -76.98884416666667, "is_disabled": 0, "fusion_lat": 0.0, "fusion_lon": 0.0, "name": "bdfe7d6034bdb4feecdce5829b432f04", "type": "electric_scooter"}, {"rental_uris": {"ios": "https://dc.lft.to/lastmile_qr_scan", "android": "https://dc.lft.to/lastmile_qr_scan"}, "lat": 38.942966166666665, "is_reserved": 0, "bike_id": "d0abc023ebc7e10ccfb2348d520134b8", "lon": -77.029511, "is_disabled": 0, "fusion_lat": 0.0, "fusion_lon": 0.0, "name": "d0abc023ebc7e10ccfb2348d520134b8", "type": "electric_scooter"}, {"rental_uris": {"ios": "https://dc.lft.to/lastmile_qr_scan", "android": "https://dc.lft.to/lastmile_qr_scan"}, "lat": 38.893525, "is_reserved": 0, "bike_id": "a49244f75f44f96926fa471e588602ac", "lon": -77.0033455, "is_disabled": 0, "fusion_lat": 0.0, "fusion_lon": 0.0, "name": "a49244f75f44f96926fa471e588602ac", "type": "electric_scooter"}, {"rental_uris": {"ios": "https://dc.lft.to/lastmile_qr_scan", "android": "https://dc.lft.to/lastmile_qr_scan"}, "lat": 38.895385166666664, "is_reserved": 0, "bike_id": "0b1cc8d7fc7f4aca887a9f16c7eea6ed", "lon": -77.03172683333334, "is_disabled": 0, "fusion_lat": 0.0, "fusion_lon": 0.0, "name": "0b1cc8d7fc7f4aca887a9f16c7eea6ed", "type": "electric_scooter"}, {"rental_uris": {"ios": "https://dc.lft.to/lastmile_qr_scan", "android": "https://dc.lft.to/lastmile_qr_scan"}, "lat": 38.92001883333333, "is_reserved": 0, "bike_id": "276995f9e87d0a7e82bf40589b8599b4", "lon": -77.0246725, "is_disabled": 0, "fusion_lat": 0.0, "fusion_lon": 0.0, "name": "276995f9e87d0a7e82bf40589b8599b4", "type": "electric_scooter"}, {"rental_uris": {"ios": "https://dc.lft.to/lastmile_qr_scan", "android": "https://dc.lft.to/lastmile_qr_scan"}, "lat": 38.90845066666667, "is_reserved": 0, "bike_id": "5d1dc636cd89cd3cc7f7efd96a0ff445", "lon": -77.00219183333333, "is_disabled": 0, "fusion_lat": 0.0, "fusion_lon": 0.0, "name": "5d1dc636cd89cd3cc7f7efd96a0ff445", "type": "electric_scooter"}, {"rental_uris": {"ios": "https://dc.lft.to/lastmile_qr_scan", "android": "https://dc.lft.to/lastmile_qr_scan"}, "lat": 38.905006166666666, "is_reserved": 0, "bike_id": "f124db15d0fe5644f0362cc0098d94df", "lon": -77.06020666666667, "is_disabled": 0, "fusion_lat": 0.0, "fusion_lon": 0.0, "name": "f124db15d0fe5644f0362cc0098d94df", "type": "electric_scooter"},