{"data": {"bikes": [{"name": "458b8ab28d2d6c87f6cec5e2c0196014", "fusion_lat": 0.0, "type": "electric_scooter", "lat": 38.907287833333335, "is_reserved": 0, "is_disabled": 0, "fusion_lon": 0.0, "bike_id": "458b8ab28d2d6c87f6cec5e2c0196014", "lon": -77.04493966666666, "rental_uris": {"ios": "https://dc.lft.to/lastmile_qr_scan", "android": "https://dc.lft.to/lastmile_qr_scan"}}, {"name": "0b334200edd951a0c78a27f0055e9b8d", "fusion_lat": 0.0, "type": "electric_scooter", "lat": 38.93473266666667, "is_reserved": 0, "is_disabled": 0, "fusion_lon": 0.0, "bike_id": "0b334200edd951a0c78a27f0055e9b8d", "lon": -77.0285005, "rental_uris": {"ios": "https://dc.lft.to/lastmile_qr_scan", "android": "https://dc.lft.to/lastmile_qr_scan"}}, {"name": "ef144bdcf06b38dc5dbe99c556c03186", "fusion_lat": 0.0, "type": "electric_scooter", "lat": 38.927048666666664, "is_reserved": 0, "is_disabled": 0, "fusion_lon": 0.0, "bike_id": "ef144bdcf06b38dc5dbe99c556c03186", "lon": -77.03730066666667, "rental_uris": {"ios": "https://dc.lft.to/lastmile_qr_scan", "android": "https://dc.lft.to/lastmile_qr_scan"}}, {"name": "b9c97cd9bce925a2deae496ab452fb3b", "fusion_lat": 0.0, "type": "electric_scooter", "lat": 38.915785166666666, "is_reserved": 0, "is_disabled": 0, "fusion_lon": 0.0, "bike_id": "b9c97cd9bce925a2deae496ab452fb3b", "lon": -77.0318415, "rental_uris": {"ios": "https://dc.lft.to/lastmile_qr_scan", "android": "https://dc.lft.to/lastmile_qr_scan"}}, {"name": "3ed0d20b7d53fdaed62963ccb195a74d", "fusion_lat": 0.0, "type": "electric_scooter", "lat": 38.922348, "is_reserved": 0, "is_disabled": 0, "fusion_lon": 0.0, "bike_id": "3ed0d20b7d53fdaed62963ccb195a74d", "lon": -77.04254266666666, "rental_uris": {"ios": "https://dc.lft.to/lastmile_qr_scan", "android": "https://dc.lft.to/lastmile_qr_scan"}}, {"name": "a923118de4d1f1e5f9b438389dca316e", "fusion_lat": 0.0, "type": "electric_bike", "lat": 38.8524695, "is_reserved": 0, "is_disabled": 0, "fusion_lon": 0.0, "bike_id": "a923118de4d1f1e5f9b438389dca316e", "lon": -77.11431483333334, "rental_uris": {"ios": "https://dc.lft.to/lastmile_qr_scan", "android": "https://dc.lft.to/lastmile_qr_scan"}}, {"name": "4ed1e37364821d4a912ef1574317cfca", "fusion_lat": 0.0, "type": "electric_scooter", "lat": 38.9587085, "is_reserved": 0, "is_disabled": 0, "fusion_lon": 0.0, "bike_id": "4ed1e37364821d4a912ef1574317cfca", "lon": -77.0205445, "rental_uris": {"ios": "https://dc.lft.to/lastmile_qr_scan", "android": "https://dc.lft.to/lastmile_qr_scan"}}, {"name": "7e885d616b33a5b7640afed099385b88", "fusion_lat": 0.0, "type": "electric_scooter", "lat": 38.929132833333334, "is_reserved": 0, "is_disabled": 0, "fusion_lon": 0.0, "bike_id": "7e885d616b33a5b7640afed099385b88", "lon": -77.026157, "rental_uris": {"ios": "https://dc.lft.to/lastmile_qr_scan", "android": "https://dc.lft.to/lastmile_qr_scan"}}, {"name": "48b471478ee7b5ab4aba381105412e49", "fusion_lat": 0.0, "type": "electric_scooter", "lat": 38.90950933333333, "is_reserved": 0, "is_disabled": 0, "fusion_lon": 0.0, "bike_id": "48b471478ee7b5ab4aba381105412e49", "lon": -77.04134116666667, "rental_uris": {"ios": "https://dc.lft.to/lastmile_qr_scan", "android": "https://dc.lft.to/lastmile_qr_scan"}}, {"name": "57fe123c0d4d1320e20979eac403c949", "fusion_lat": 0.0, "type": "electric_scooter", "lat": 38.842979166666666, "is_reserved": 0, "is_disabled": 0, "fusion_lon": 0.0, "bike_id": "57fe123c0d4d1320e20979eac403c949", "lon": -76.9995065, "rental_uris": {"ios": "https://dc.lft.to/lastmile_qr_scan", "android": "https://dc.lft.to/lastmile_qr_scan"}}, {"name": "162c97bcab31e293911620488dbe5b45", "fusion_lat": 0.0, "type": "electric_scooter", "lat": 38.90275033333333, "is_reserved": 0, "is_disabled": 0, "fusion_lon": 0.0, "bike_id": "162c97bcab31e293911620488dbe5b45", "lon": -77.03854283333334, "rental_uris": {"ios": "https://dc.lft.to/lastmile_qr_scan", "android": "https://dc.lft.to/lastmile_qr_scan"}}, {"name": "d2936cd910e0dca6b9454d88e57f42f6", "fusion_lat": 0.0, "type": "electric_scooter", "lat": 38.914095833333334, "is_reserved": 0, "is_disabled": 0, "fusion_lon": 0.0, "bike_id": "d2936cd910e0dca6b9454d88e57f42f6", "lon": -77.02727933333334, "rental_uris": {"ios": "https://dc.lft.to/lastmile_qr_scan", "android": "https://dc.lft.to/lastmile_qr_scan"}}, {"name": "c01a48cc203309836f5ddb85774a7ab7", "fusion_lat": 0.0, "type": "electric_scooter", "lat": 38.918026, "is_reserved": 0, "is_disabled": 0, "fusion_lon": 0.0, "bike_id": "c01a48cc203309836f5ddb85774a7ab7", "lon": -77.04017016666667, "rental_uris": {"ios": "https://dc.lft.to/lastmile_qr_scan", "android": "https://dc.lft.to/lastmile_qr_scan"}}, {"name": "682d04101f674ce1e3b81abbbe90c457", "fusion_lat": 0.0, "type": "electric_scooter", "lat": 38.909709666666664, "is_reserved": 0, "is_disabled": 0, "fusion_lon": 0.0, "bike_id": "682d04101f674ce1e3b81abbbe90c457", "lon": -77.04552966666667, "rental_uris": {"ios": "https://dc.lft.to/lastmile_qr_scan", "android": "https://dc.lft.to/lastmile_qr_scan"}}, {"name": "37b2d36c518d7ee3127369fd64e8063b", "fusion_lat": 0.0, "type": "electric_scooter", "lat": 38.904467333333336, "is_reserved": 0, "is_disabled": 0, "fusion_lon": 0.0, "bike_id": "37b2d36c518d7ee3127369fd64e8063b", "lon": -76.99629783333333, "rental_uris": {"ios": "https://dc.lft.to/lastmile_qr_scan", "android": "https://dc.lft.to/lastmile_qr_scan"}}, {"name": "bd919aa47c896b19e0040f762f9355bd", "fusion_lat": 0.0, "type": "electric_bike", "lat": 38.920086833333336, "is_reserved": 0, "is_disabled": 0, "fusion_lon": 0.0, "bike_id": "bd919aa47c896b19e0040f762f9355bd", "lon": -76.97492666666666, "rental_uris": {"ios": "https://dc.lft.to/lastmile_qr_scan", "android": "https://dc.lft.to/lastmile_qr_scan"}}, {"name": "f543996ad3e33b097d0027a397600e7a", "fusion_lat": 0.0, "type": "electric_scooter", "lat": 38.8958745, "is_reserved": 0, "is_disabled": 0, "fusion_lon": 0.0, "bike_id": "f543996ad3e33b097d0027a397600e7a", "lon": -76.937188, "rental_uris": {"ios": "https://dc.lft.to/lastmile_qr_scan", "android": "https://dc.lft.to/lastmile_qr_scan"}}, {"name": "28edb01507da5875c134a092f690715b", "fusion_lat": 0.0, "type": "electric_scooter", "lat": 38.877587, "is_reserved": 0, "is_disabled": 0, "fusion_lon": 0.0, "bike_id": "28edb01507da5875c134a092f690715b", "lon": -76.994218, "rental_uris": {"ios": "https://dc.lft.to/lastmile_qr_scan", "android": "https://dc.lft.to/lastmile_qr_scan"}}, {"name": "2ab52fd8d1318c94377f4607b574a947", "fusion_lat": 0.0, "type": "electric_scooter", "lat": 38.85617766666667, "is_reserved": 0, "is_disabled": 0, "fusion_lon": 0.0, "bike_id": "2ab52fd8d1318c94377f4607b574a947", "lon": -76.98023266666667, "rental_uris": {"ios": "https://dc.lft.to/lastmile_qr_scan", "android": "https://dc.lft.to/lastmile_qr_scan"}}, {"name": "c44458c97970d8f2002907ea2bad0460", "fusion_lat": 0.0, "type": "electric_scooter", "lat": 38.90306316666667, "is_reserved": 0, "is_disabled": 0, "fusion_lon": 0.0, "bike_id": "c44458c97970d8f2002907ea2bad0460", "lon": -77.03458283333333, "rental_uris": {"ios": "https://dc.lft.to/lastmile_qr_scan", "android": "https://dc.lft.to/lastmile_qr_scan"}}, {"name": "09cc53924057d504c420f0dec111ed87", "fusion_lat": 0.0, "type": "electric_scooter", "lat": 38.91918366666667, "is_reserved": 0, "is_disabled": 0, "fusion_lon": 0.0, "bike_id": "09cc53924057d504c420f0dec111ed87", "lon": -77.0134225, "rental_uris": {"ios": "https://dc.lft.to/lastmile_qr_scan", "android": "https://dc.lft.to/lastmile_qr_scan"}}, {"name": "8d057b4e47abe733bc40d36cea664351", "fusion_lat": 0.0, "type": "electric_scooter", "lat": 38.9125615, "is_reserved": 0, "is_disabled": 0, "fusion_lon": 0.0, "bike_id": "8d057b4e47abe733bc40d36cea664351", "lon": -77.08166366666667, "rental_uris": {"ios": "https://dc.lft.to/lastmile_qr_scan", "android": "https://dc.lft.to/lastmile_qr_scan"}}, {"name": "910a491611ebf698d00d12806ff80b17", "fusion_lat": 0.0, "type": "electric_scooter", "lat": 38.91809216666667, "is_reserved": 0, "is_disabled": 0, "fusion_lon": 0.0, "bike_id": "910a491611ebf698d00d12806ff80b17", "lon": -77.0102465, "rental_uris": {"ios": "https://dc.lft.to/lastmile_qr_scan", "android": "https://dc.lft.to/lastmile_qr_scan"}}, {"name": "7782deba244212c7ffcdefc1da11a75c", "fusion_lat": 0.0, "type": "electric_scooter", "lat": 38.91272816666667, "is_reserved": 0, "is_disabled": 0, "fusion_lon": 0.0, "bike_id": "7782deba244212c7ffcdefc1da11a75c", "lon": -77.06084583333333, "rental_uris": {"ios": "https://dc.lft.to/lastmile_qr_scan", "android": "https://dc.lft.to/lastmile_qr_scan"}}, {"name": "97fe687bf512236a7d77b554c9201c21", "fusion_lat": 0.0, "type": "electric_scooter", "lat": 38.88067316666667, "is_reserved": 0, "is_disabled": 0, "fusion_lon": 0.0, "bike_id": "97fe687bf512236a7d77b554c9201c21", "lon": -76.93532416666666, "rental_uris": {"ios": "https://dc.lft.to/lastmile_qr_scan", "android": "https://dc.lft.to/lastmile_qr_scan"}}, {"name": "6cb185f9dd41d52daedc48ffc34b080e", "fusion_lat": 0.0, "type": "electric_scooter", "lat": 38.8429535, "is_reserved": 0, "is_disabled": 0, "fusion_lon": 0.0, "bike_id": "6cb185f9dd41d52daedc48ffc34b080e", "lon": -76.99948066666667, "rental_uris": {"ios": "https://dc.lft.to/lastmile_qr_scan", "android": "https://dc.lft.to/lastmile_qr_scan"}}, {"name": "3601e1e9ccceabf4ca784def2bfcce98", "fusion_lat": 0.0, "type": "electric_scooter", "lat": 38.91821066666667, "is_reserved": 0, "is_disabled": 0, "fusion_lon": 0.0, "bike_id": "3601e1e9ccceabf4ca784def2bfcce98", "lon": -77.01209783333333, "rental_uris": {"ios": "https://dc.lft.to/lastmile_qr_scan", "android": "https://dc.lft.to/lastmile_qr_scan"}}, {"name": "f6a45124697bb1410fa43a364aed2f0d", "fusion_lat": 0.0, "type": "electric_scooter", "lat": 38.884935, "is_reserved": 0, "is_disabled": 0, "fusion_lon": 0.0, "bike_id": "f6a45124697bb1410fa43a364aed2f0d", "lon": -77.02199216666666, "rental_uris": {"ios": "https://dc.lft.to/lastmile_qr_scan", "android": "https://dc.lft.to/lastmile_qr_scan"}}, {"name": "5645eda8b6b3525d6e576fb00da863a7", "fusion_lat": 0.0, "type": "electric_scooter", "lat": 38.918231666666664, "is_reserved": 0, "is_disabled": 0, "fusion_lon": 0.0, "bike_id": "5645eda8b6b3525d6e576fb00da863a7", "lon": -77.00259483333333, "rental_uris": {"ios": "https://dc.lft.to/lastmile_qr_scan", "android": "https://dc.lft.to/lastmile_qr_scan"}}, {"name": "e8f5eca440fc792963ff76a5a161352d", "fusion_lat": 0.0, "type": "electric_scooter", "lat": 38.91817483333333, "is_reserved": 0, "is_disabled": 0, "fusion_lon": 0.0, "bike_id": "e8f5eca440fc792963ff76a5a161352d", "lon": -77.02503933333334, "rental_uris": {"ios": "https://dc.lft.to/lastmile_qr_scan", "android": "https://dc.lft.to/lastmile_qr_scan"}}, {"name": "3e13a511a715d063dadd58bc21b5e10e", "fusion_lat": 0.0, "type": "electric_scooter", "lat": 38.910248, "is_reserved": 0, "is_disabled": 0, "fusion_lon": 0.0, "bike_id": "3e13a511a715d063dadd58bc21b5e10e", "lon": -77.0488125, "rental_uris": {"ios": "https://dc.lft.to/lastmile_qr_scan", "android": "https://dc.lft.to/lastmile_qr_scan"}}, {"name": "015dfa78ccfca435ec7ee8c7e8df72fe", "fusion_lat": 0.0, "type": "electric_scooter", "lat": 38.90557533333333, "is_reserved": 0, "is_disabled": 0, "fusion_lon": 0.0, "bike_id": "015dfa78ccfca435ec7ee8c7e8df72fe", "lon": -77.03248483333333, "rental_uris": {"ios": "https://dc.lft.to/lastmile_qr_scan", "android": "https://dc.lft.to/lastmile_qr_scan"}}, {"name": "1d4876b33ffa8ce509bbb45ca44587e4", "fusion_lat": 0.0, "type": "electric_scooter", "lat": 38.897838666666665, "is_reserved": 0, "is_disabled": 0, "fusion_lon": 0.0, "bike_id": "1d4876b33ffa8ce509bbb45ca44587e4", "lon": -77.03189816666666, "rental_uris": {"ios": "https://dc.lft.to/lastmile_qr_scan", "android": "https://dc.lft.to/lastmile_qr_scan"}}, {"name": "aab18362a3640a68c8686f439e5ed246", "fusion_lat": 0.0, "type": "electric_scooter", "lat": 38.9193585, "is_reserved": 0, "is_disabled": 0, "fusion_lon": 0.0, "bike_id": "aab18362a3640a68c8686f439e5ed246", "lon": -77.02369516666667, "rental_uris": {"ios": "https://dc.lft.to/lastmile_qr_scan", "android": "https://dc.lft.to/lastmile_qr_scan"}}, {"name": "f7fe1b38cda849d5d76cc41e17e43d20", "fusion_lat": 0.0, "type": "electric_scooter", "lat": 38.93316216666667, "is_reserved": 0, "is_disabled": 0, "fusion_lon": 0.0, "bike_id": "f7fe1b38cda849d5d76cc41e17e43d20", "lon": -77.03436183333334, "rental_uris": {"ios": "https://dc.lft.to/lastmile_qr_scan", "android": "https://dc.lft.to/lastmile_qr_scan"}}, {"name": "13c23933b1c8d34779a99dc335c74671", "fusion_lat": 0.0, "type": "electric_bike", "lat": 38.839370833333334, "is_reserved": 0, "is_disabled": 0, "fusion_lon": 0.0, "bike_id": "13c23933b1c8d34779a99dc335c74671", "lon": -77.07898466666667, "rental_uris": {"ios": "https://dc.lft.to/lastmile_qr_scan", "android": "https://dc.lft.to/lastmile_qr_scan"}}, {"name": "bce306fc0c450ccdb3139f8d00f6acc9", "fusion_lat": 0.0, "type": "electric_scooter", "lat": 38.92156166666667, "is_reserved": 0, "is_disabled": 0, "fusion_lon": 0.0, "bike_id": "bce306fc0c450ccdb3139f8d00f6acc9", "lon": -77.03471533333334, "rental_uris": {"ios": "https://dc.lft.to/lastmile_qr_scan", "android": "https://dc.lft.to/lastmile_qr_scan"}}, {"name": "0c2b398c5f24ec7daea8089e61c2dc47", "fusion_lat": 0.0, "type": "electric_scooter", "lat": 38.918086, "is_reserved": 0, "is_disabled": 0, "fusion_lon": 0.0, "bike_id": "0c2b398c5f24ec7daea8089e61c2dc47", "lon": -77.04623183333334, "rental_uris": {"ios": "https://dc.lft.to/lastmile_qr_scan", "android": "https://dc.lft.to/lastmile_qr_scan"}}, {"name": "4e25924b7a7dc113f72897ee0169fde0", "fusion_lat": 0.0, "type": "electric_scooter", "lat": 38.89245833333333, "is_reserved": 0, "is_disabled": 0, "fusion_lon": 0.0, "bike_id": "4e25924b7a7dc113f72897ee0169fde0", "lon": -77.03379416666667, "rental_uris": {"ios": "https://dc.lft.to/lastmile_qr_scan", "android": "https://dc.lft.to/lastmile_qr_scan"}}, {"name": "94ddce47729419ef7913c4ce2e57c7de", "fusion_lat": 0.0, "type": "electric_scooter", "lat": 38.921874333333335, "is_reserved": 0, "is_disabled": 0, "fusion_lon": 0.0, "bike_id": "94ddce47729419ef7913c4ce2e57c7de", "lon": -77.04284566666666, "rental_uris": {"ios": "https://dc.lft.to/lastmile_qr_scan", "android": "https://dc.lft.to/lastmile_qr_scan"}}, {"name": "22e410337d1712be9e0c2da50101689b", "fusion_lat": 0.0, "type": "electric_scooter", "lat": 38.90741583333333, "is_reserved": 0, "is_disabled": 0, "fusion_lon": 0.0, "bike_id": "22e410337d1712be9e0c2da50101689b", "lon": -77.0269495, "rental_uris": {"ios": "https://dc.lft.to/lastmile_qr_scan", "android": "https://dc.lft.to/lastmile_qr_scan"}}, {"name": "e4b3ee9120c89a5eb0b8c4988c98c7ca", "fusion_lat": 0.0, "type": "electric_scooter", "lat": 38.90557416666667, "is_reserved": 0, "is_disabled": 0, "fusion_lon": 0.0, "bike_id": "e4b3ee9120c89a5eb0b8c4988c98c7ca", "lon": -77.04574916666667, "rental_uris": {"ios": "https://dc.lft.to/lastmile_qr_scan", "android": "https://dc.lft.to/lastmile_qr_scan"}}, {"name": "56088744c7be3876e5e565a6771bff58", "fusion_lat": 0.0, "type": "electric_scooter", "lat": 38.93195766666667, "is_reserved": 0, "is_disabled": 0, "fusion_lon": 0.0, "bike_id": "56088744c7be3876e5e565a6771bff58", "lon": -77.03449083333334, "rental_uris": {"ios": "https://dc.lft.to/lastmile_qr_scan", "android": "https://dc.lft.to/lastmile_qr_scan"}}, {"name": "d4cbeaa73ef1fa193a47261c7e78ec04", "fusion_lat": 0.0, "type": "electric_scooter", "lat": 38.86662116666667, "is_reserved": 0, "is_disabled": 0, "fusion_lon": 0.0, "bike_id": "d4cbeaa73ef1fa193a47261c7e78ec04", "lon": -76.98887733333333, "rental_uris": {"ios": "https://dc.lft.to/lastmile_qr_scan", "android": "https://dc.lft.to/lastmile_qr_scan"}}, {"name": "c53dbedaab12dedf77ab68b656e66a99", "fusion_lat": 0.0, "type": "electric_scooter", "lat": 38.92484916666667, "is_reserved": 0, "is_disabled": 0, "fusion_lon": 0.0, "bike_id": "c53dbedaab12dedf77ab68b656e66a99", "lon": -77.028959, "rental_uris": {"ios": "https://dc.lft.to/lastmile_qr_scan", "android": "https://dc.lft.to/lastmile_qr_scan"}}, {"name": "e2968c5c46928a3b20de8632a2fcd17e", "fusion_lat": 0.0, "type": "electric_scooter", "lat": 38.911331833333335, "is_reserved": 0, "is_disabled": 0, "fusion_lon": 0.0, "bike_id": "e2968c5c46928a3b20de8632a2fcd17e", "lon": -77.02183116666667, "rental_uris": {"ios": "https://dc.lft.to/lastmile_qr_scan", "android": "https://dc.lft.to/lastmile_qr_scan"}}, {"name": "51618bab1e3868e5f7a58d574e811c28", "fusion_lat": 0.0, "type": "electric_scooter", "lat": 38.886270333333336, "is_reserved": 0, "is_disabled": 0, "fusion_lon": 0.0, "bike_id": "51618bab1e3868e5f7a58d574e811c28", "lon": -77.01959233333334, "rental_uris": {"ios": "https://dc.lft.to/lastmile_qr_scan", "android": "https://dc.lft.to/lastmile_qr_scan"}}, {"name": "55ff46990795e0b3dcb74ede33e60734", "fusion_lat": 0.0, "type": "electric_scooter", "lat": 38.906151333333334, "is_reserved": 0, "is_disabled": 0, "fusion_lon": 0.0, "bike_id": "55ff46990795e0b3dcb74ede33e60734", "lon": -77.04678883333334, "rental_uris": {"ios": "https://dc.lft.to/lastmile_qr_scan", "android": "https://dc.lft.to/lastmile_qr_scan"}}, {"name": "18eb75e9a0fbc946d38cf3b4d354ddc4", "fusion_lat": 0.0, "type": "electric_scooter", "lat": 38.91705283333334, "is_reserved": 0, "is_disabled": 0, "fusion_lon": 0.0, "bike_id": "18eb75e9a0fbc946d38cf3b4d354ddc4", "lon": -77.0335195, "rental_uris": {"ios": "https://dc.lft.to/lastmile_qr_scan", "android": "https://dc.lft.to/lastmile_qr_scan"}}, {"name": "1a92ec050dd33c0b3cbebf7fb48ae7ca", "fusion_lat": 0.0, "type": "electric_scooter", "lat": 38.9052375, "is_reserved": 0, "is_disabled": 0, "fusion_lon": 0.0, "bike_id": "1a92ec050dd33c0b3cbebf7fb48ae7ca", "lon": -77.06630183333333, "rental_uris": {"ios": "https://dc.lft.to/lastmile_qr_scan", "android": "https://dc.lft.to/lastmile_qr_scan"}}, {"name": "edb6efca7c5be86ccc0d49df33c02f47", "fusion_lat": 0.0, "type": "electric_scooter", "lat": 38.92068733333333, "is_reserved": 0, "is_disabled": 0, "fusion_lon": 0.0, "bike_id": "edb6efca7c5be86ccc0d49df33c02f47", "lon": -77.04257183333333, "rental_uris": {"ios": "https://dc.lft.to/lastmile_qr_scan", "android": "https://dc.lft.to/lastmile_qr_scan"}}, {"name": "f571094d72e5298f592a91ae3d17c0ed", "fusion_lat": 0.0, "type": "electric_scooter", "lat": 38.9101155, "is_reserved": 0, "is_disabled": 0, "fusion_lon": 0.0, "bike_id": "f571094d72e5298f592a91ae3d17c0ed", "lon": -76.99390966666667, "rental_uris": {"ios": "https://dc.lft.to/lastmile_qr_scan", "android": "https://dc.lft.to/lastmile_qr_scan"}}, {"name": "d8bbce1f193c76f71391dd9668d29afd", "fusion_lat": 0.0, "type": "electric_bike", "lat": 38.87484633333333, "is_reserved": 0, "is_disabled": 0, "fusion_lon": 0.0, "bike_id": "d8bbce1f193c76f71391dd9668d29afd", "lon": -76.96528733333334, "rental_uris": {"ios": "https://dc.lft.to/lastmile_qr_scan", "android": "https://dc.lft.to/lastmile_qr_scan"}}, {"name": "da4f7336d5227066ec3186437fd1815a", "fusion_lat": 0.0, "type": "electric_bike", "lat": 38.9427535, "is_reserved": 0, "is_disabled": 0, "fusion_lon": 0.0, "bike_id": "da4f7336d5227066ec3186437fd1815a", "lon": -76.98075083333333, "rental_uris": {"ios": "https://dc.lft.to/lastmile_qr_scan", "android": "https://dc.lft.to/lastmile_qr_scan"}}, {"name": "e0556ad3f090ca7ee1450c4a274c2586", "fusion_lat": 0.0, "type": "electric_scooter", "lat": 38.89630016666667, "is_reserved": 0, "is_disabled": 0, "fusion_lon": 0.0, "bike_id": "e0556ad3f090ca7ee1450c4a274c2586", "lon": -77.01008166666666, "rental_uris": {"ios": "https://dc.lft.to/lastmile_qr_scan", "android": "https://dc.lft.to/lastmile_qr_scan"}}, {"name": "fb53860ac3337edf051fe06f2e87cf6f", "fusion_lat": 0.0, "type": "electric_scooter", "lat": 38.92467366666666, "is_reserved": 0, "is_disabled": 0, "fusion_lon": 0.0, "bike_id": "fb53860ac3337edf051fe06f2e87cf6f", "lon": -77.03765783333333, "rental_uris": {"ios": "https://dc.lft.to/lastmile_qr_scan", "android": "https://dc.lft.to/lastmile_qr_scan"}}, {"name": "6c4c71788a03f4df1ff219daf358852c", "fusion_lat": 0.0, "type": "electric_scooter", "lat": 38.91260166666667, "is_reserved": 0, "is_disabled": 0, "fusion_lon": 0.0, "bike_id": "6c4c71788a03f4df1ff219daf358852c", "lon": -77.03433033333333, "rental_uris": {"ios": "https://dc.lft.to/lastmile_qr_scan", "android": "https://dc.lft.to/lastmile_qr_scan"}}, {"name": "4190120fee9428137caa7cde815f4481", "fusion_lat": 0.0, "type": "electric_scooter", "lat": 38.90004483333333, "is_reserved": 0, "is_disabled": 0, "fusion_lon": 0.0, "bike_id": "4190120fee9428137caa7cde815f4481", "lon": -77.01123033333333, "rental_uris": {"ios": "https://dc.lft.to/lastmile_qr_scan", "android": "https://dc.lft.to/lastmile_qr_scan"}}, {"name": "4295fddd936f448ce14d4b0be5d49cc7", "fusion_lat": 0.0, "type": "electric_bike", "lat": 38.988197666666665, "is_reserved": 0, "is_disabled": 0, "fusion_lon": 0.0, "bike_id": "4295fddd936f448ce14d4b0be5d49cc7", "lon": -77.0264965, "rental_uris": {"ios": "https://dc.lft.to/lastmile_qr_scan", "android": "https://dc.lft.to/lastmile_qr_scan"}}, {"name": "12e386a685d002e1388a6698e215bbe0", "fusion_lat": 0.0, "type": "electric_scooter", "lat": 38.900426333333336, "is_reserved": 0, "is_disabled": 0, "fusion_lon": 0.0, "bike_id": "12e386a685d002e1388a6698e215bbe0", "lon": -76.9882825, "rental_uris": {"ios": "https://dc.lft.to/lastmile_qr_scan", "android": "https://dc.lft.to/lastmile_qr_scan"}}, {"name": "01c182559933b9e4f1d63cba939f7283", "fusion_lat": 0.0, "type": "electric_scooter", "lat": 38.932578666666664, "is_reserved": 0, "is_disabled": 0, "fusion_lon": 0.0, "bike_id": "01c182559933b9e4f1d63cba939f7283", "lon": -77.040084, "rental_uris": {"ios": "https://dc.lft.to/lastmile_qr_scan", "android": "https://dc.lft.to/lastmile_qr_scan"}}, {"name": "8b843433344ea389a316307185e57d04", "fusion_lat": 0.0, "type": "electric_scooter", "lat": 38.91732066666667, "is_reserved": 0, "is_disabled": 0, "fusion_lon": 0.0, "bike_id": "8b843433344ea389a316307185e57d04", "lon": -77.03840383333333, "rental_uris": {"ios": "https://dc.lft.to/lastmile_qr_scan", "android": "https://dc.lft.to/lastmile_qr_scan"}}, {"name": "549221976614d6e0cf3effecf9ceade7", "fusion_lat": 0.0, "type": "electric_scooter", "lat": 38.916946833333334, "is_reserved": 0, "is_disabled": 0, "fusion_lon": 0.0, "bike_id": "549221976614d6e0cf3effecf9ceade7", "lon": -77.02441616666667, "rental_uris": {"ios": "https://dc.lft.to/lastmile_qr_scan", "android": "https://dc.lft.to/lastmile_qr_scan"}}, {"name": "873997eb90e74117edd9a0a2d6b78fe6", "fusion_lat": 0.0, "type": "electric_scooter", "lat": 38.9111955, "is_reserved": 0, "is_disabled": 0, "fusion_lon": 0.0, "bike_id": "873997eb90e74117edd9a0a2d6b78fe6", "lon": -77.03301383333333, "rental_uris": {"ios": "https://dc.lft.to/lastmile_qr_scan", "android": "https://dc.lft.to/lastmile_qr_scan"}}, {"name": "ec3b39b9961af25307c62163fb56b749", "fusion_lat": 0.0, "type": "electric_scooter", "lat": 38.91658816666666, "is_reserved": 0, "is_disabled": 0, "fusion_lon": 0.0, "bike_id": "ec3b39b9961af25307c62163fb56b749", "lon": -77.02568866666667, "rental_uris": {"ios": "https://dc.lft.to/lastmile_qr_scan", "android": "https://dc.lft.to/lastmile_qr_scan"}}, {"name": "7e9fabe0e1562dfb61736a30cd21a47b", "fusion_lat": 0.0, "type": "electric_bike", "lat": 38.956881833333334, "is_reserved": 0, "is_disabled": 0, "fusion_lon": 0.0, "bike_id": "7e9fabe0e1562dfb61736a30cd21a47b", "lon": -77.02228783333334, "rental_uris": {"ios": "https://dc.lft.to/lastmile_qr_scan", "android": "https://dc.lft.to/lastmile_qr_scan"}}, {"name": "da7f12584845d6cf5ed052a615f8d90d", "fusion_lat": 0.0, "type": "electric_scooter", "lat": 38.90007966666667, "is_reserved": 0, "is_disabled": 0, "fusion_lon": 0.0, "bike_id": "da7f12584845d6cf5ed052a615f8d90d", "lon": -77.033191, "rental_uris": {"ios": "https://dc.lft.to/lastmile_qr_scan", "android": "https://dc.lft.to/lastmile_qr_scan"}}, {"name": "76fdf424bbd14668a95dace18f9f3bfb", "fusion_lat": 0.0, "type": "electric_bike", "lat": 38.895677166666665, "is_reserved": 0, "is_disabled": 0, "fusion_lon": 0.0, "bike_id": "76fdf424bbd14668a95dace18f9f3bfb", "lon": -77.12741033333333, "rental_uris": {"ios": "https://dc.lft.to/lastmile_qr_scan", "android": "https://dc.lft.to/lastmile_qr_scan"}}, {"name": "185815b591738edc6b48ff655e24de60", "fusion_lat": 0.0, "type": "electric_scooter", "lat": 38.911916, "is_reserved": 0, "is_disabled": 0, "fusion_lon": 0.0, "bike_id": "185815b591738edc6b48ff655e24de60", "lon": -77.04500616666667, "rental_uris": {"ios": "https://dc.lft.to/lastmile_qr_scan", "android": "https://dc.lft.to/lastmile_qr_scan"}}, {"name": "4411c195c38e195d3bc66e0363aace5a", "fusion_lat": 0.0, "type": "electric_scooter", "lat": 38.89608716666667, "is_reserved": 0, "is_disabled": 0, "fusion_lon": 0.0, "bike_id": "4411c195c38e195d3bc66e0363aace5a", "lon": -77.04120883333333, "rental_uris": {"ios": "https://dc.lft.to/lastmile_qr_scan", "android": "https://dc.lft.to/lastmile_qr_scan"}}, {"name": "08da3eed4f21448f2d912e2d51eb47a8", "fusion_lat": 0.0, "type": "electric_scooter", "lat": 38.90232566666667, "is_reserved": 0, "is_disabled": 0, "fusion_lon": 0.0, "bike_id": "08da3eed4f21448f2d912e2d51eb47a8", "lon": -77.02681016666666, "rental_uris": {"ios": "https://dc.lft.to/lastmile_qr_scan", "android": "https://dc.lft.to/lastmile_qr_scan"}}, {"name": "7192d8d5e48bff0fcb3eadceba356e59", "fusion_lat": 0.0, "type": "electric_scooter", "lat": 38.896558166666665, "is_reserved": 0, "is_disabled": 0, "fusion_lon": 0.0, "bike_id": "7192d8d5e48bff0fcb3eadceba356e59", "lon": -77.04654033333334, "rental_uris": {"ios": "https://dc.lft.to/lastmile_qr_scan", "android": "https://dc.lft.to/lastmile_qr_scan"}}, {"name": "a03c18e5ac2eb6052737fdc3c467ef29", "fusion_lat": 0.0, "type": "electric_bike", "lat": 38.955463333333334, "is_reserved": 0, "is_disabled": 0, "fusion_lon": 0.0, "bike_id": "a03c18e5ac2eb6052737fdc3c467ef29", "lon": -77.01619416666666, "rental_uris": {"ios": "https://dc.lft.to/lastmile_qr_scan", "android": "https://dc.lft.to/lastmile_qr_scan"}}, {"name": "00d4a24bf093b05fc5b620c1f38e574f", "fusion_lat": 0.0, "type": "electric_bike", "lat": 39.105670333333336, "is_reserved": 0, "is_disabled": 0, "fusion_lon": 0.0, "bike_id": "00d4a24bf093b05fc5b620c1f38e574f", "lon": -77.15271533333333, "rental_uris": {"ios": "https://dc.lft.to/lastmile_qr_scan", "android": "https://dc.lft.to/lastmile_qr_scan"}}, {"name": "b248e0e6f6fd07ee6b2f88fd1a111b9e", "fusion_lat": 0.0, "type": "electric_scooter", "lat": 38.94281516666667, "is_reserved": 0, "is_disabled": 0, "fusion_lon": 0.0, "bike_id": "b248e0e6f6fd07ee6b2f88fd1a111b9e", "lon": -77.02504633333334, "rental_uris": {"ios": "https://dc.lft.to/lastmile_qr_scan", "android": "https://dc.lft.to/lastmile_qr_scan"}}, {"name": "0191e0da945a454e1a617eb5d10f6e08", "fusion_lat": 0.0, "type": "electric_scooter", "lat": 38.923869333333336, "is_reserved": 0, "is_disabled": 0, "fusion_lon": 0.0, "bike_id": "0191e0da945a454e1a617eb5d10f6e08", "lon": -77.03104783333333, "rental_uris": {"ios": "https://dc.lft.to/lastmile_qr_scan", "android": "https://dc.lft.to/lastmile_qr_scan"}}, {"name": "baec59af897b23c5afa3ff97ac238722", "fusion_lat": 0.0, "type": "electric_scooter", "lat": 38.876495166666665, "is_reserved": 0, "is_disabled": 0, "fusion_lon": 0.0, "bike_id": "baec59af897b23c5afa3ff97ac238722", "lon": -76.96504116666667, "rental_uris": {"ios": "https://dc.lft.to/lastmile_qr_scan", "android": "https://dc.lft.to/lastmile_qr_scan"}}, {"name": "7ba3b5980f71bbcc37e0fd558dc3d3bc", "fusion_lat": 0.0, "type": "electric_scooter", "lat": 38.9097525, "is_reserved": 0, "is_disabled": 0, "fusion_lon": 0.0, "bike_id": "7ba3b5980f71bbcc37e0fd558dc3d3bc", "lon": -77.036786, "rental_uris": {"ios": "https://dc.lft.to/lastmile_qr_scan", "android": "https://dc.lft.to/lastmile_qr_scan"}}, {"name": "9f12b2becb1f76d9b36df165f9c63e5e", "fusion_lat": 0.0, "type": "electric_scooter", "lat": 38.90569266666667, "is_reserved": 0, "is_disabled": 0, "fusion_lon": 0.0, "bike_id": "9f12b2becb1f76d9b36df165f9c63e5e", "lon": -77.0297065, "rental_uris": {"ios": "https://dc.lft.to/lastmile_qr_scan", "android": "https://dc.lft.to/lastmile_qr_scan"}}, {"name": "16b549ae063a77d3d67fb9634accbee4", "fusion_lat": 0.0, "type": "electric_scooter", "lat": 38.933025, "is_reserved": 0, "is_disabled": 0, "fusion_lon": 0.0, "bike_id": "16b549ae063a77d3d67fb9634accbee4", "lon": -77.02466016666666, "rental_uris": {"ios": "https://dc.lft.to/lastmile_qr_scan", "android": "https://dc.lft.to/lastmile_qr_scan"}}, {"name": "ac2f0ac82a86780cb62771ad7e6bd20f", "fusion_lat": 0.0, "type": "electric_scooter", "lat": 38.91116733333333, "is_reserved": 0, "is_disabled": 0, "fusion_lon": 0.0, "bike_id": "ac2f0ac82a86780cb62771ad7e6bd20f", "lon": -77.03472683333334, "rental_uris": {"ios": "https://dc.lft.to/lastmile_qr_scan", "android": "https://dc.lft.to/lastmile_qr_scan"}}, {"name": "5cbb4bb2c709366eab5024e50e4c7133", "fusion_lat": 0.0, "type": "electric_scooter", "lat": 38.90482466666667, "is_reserved": 0, "is_disabled": 0, "fusion_lon": 0.0, "bike_id": "5cbb4bb2c709366eab5024e50e4c7133", "lon": -77.041628, "rental_uris": {"ios": "https://dc.lft.to/lastmile_qr_scan", "android": "https://dc.lft.to/lastmile_qr_scan"}}, {"name": "6828cf21275e1c7ff278905658d86a9f", "fusion_lat": 0.0, "type": "electric_bike", "lat": 38.954823166666664, "is_reserved": 0, "is_disabled": 0, "fusion_lon": 0.0, "bike_id": "6828cf21275e1c7ff278905658d86a9f", "lon": -77.08241966666667, "rental_uris": {"ios": "https://dc.lft.to/lastmile_qr_scan", "android": "https://dc.lft.to/lastmile_qr_scan"}}, {"name": "4da536254a1c66da10ffc0127f554ad1", "fusion_lat": 0.0, "type": "electric_scooter", "lat": 38.90083633333333, "is_reserved": 0, "is_disabled": 0, "fusion_lon": 0.0, "bike_id": "4da536254a1c66da10ffc0127f554ad1", "lon": -77.0500575, "rental_uris": {"ios": "https://dc.lft.to/lastmile_qr_scan", "android": "https://dc.lft.to/lastmile_qr_scan"}}, {"name": "f6180c15a4beba6299b96f0890670940", "fusion_lat": 0.0, "type": "electric_scooter", "lat": 38.924225666666665, "is_reserved": 0, "is_disabled": 0, "fusion_lon": 0.0, "bike_id": "f6180c15a4beba6299b96f0890670940", "lon": -77.01951283333334, "rental_uris": {"ios": "https://dc.lft.to/lastmile_qr_scan", "android": "https://dc.lft.to/lastmile_qr_scan"}}, {"name": "a9c324d0a8bc4a2efeacce8e13fa6dd1", "fusion_lat": 0.0, "type": "electric_scooter", "lat": 38.89672483333333, "is_reserved": 0, "is_disabled": 0, "fusion_lon": 0.0, "bike_id": "a9c324d0a8bc4a2efeacce8e13fa6dd1", "lon": -77.0489135, "rental_uris": {"ios": "https://dc.lft.to/lastmile_qr_scan", "android": "https://dc.lft.to/lastmile_qr_scan"}}, {"name": "9758daeae6add6d903004b096eacd82a", "fusion_lat": 0.0, "type": "electric_scooter", "lat": 38.92877633333333, "is_reserved": 0, "is_disabled": 0, "fusion_lon": 0.0, "bike_id": "9758daeae6add6d903004b096eacd82a", "lon": -77.0412965, "rental_uris": {"ios": "https://dc.lft.to/lastmile_qr_scan", "android": "https://dc.lft.to/lastmile_qr_scan"}}, {"name": "405cf7f08107868cc2a2ea4054c3986f", "fusion_lat": 0.0, "type": "electric_scooter", "lat": 38.904414333333335, "is_reserved": 0, "is_disabled": 0, "fusion_lon": 0.0, "bike_id": "405cf7f08107868cc2a2ea4054c3986f", "lon": -77.03261833333333, "rental_uris": {"ios": "https://dc.lft.to/lastmile_qr_scan", "android": "https://dc.lft.to/lastmile_qr_scan"}}, {"name": "4560dee2adbb3d18cfe40a3da7f2e7bf", "fusion_lat": 0.0, "type": "electric_scooter", "lat": 38.933679, "is_reserved": 0, "is_disabled": 0, "fusion_lon": 0.0, "bike_id": "4560dee2adbb3d18cfe40a3da7f2e7bf", "lon": -77.0572765, "rental_uris": {"ios": "https://dc.lft.to/lastmile_qr_scan", "android": "https://dc.lft.to/lastmile_qr_scan"}}, {"name": "a6e38cc1d6a4df1dc4fe8288eaf80a6f", "fusion_lat": 0.0, "type": "electric_scooter", "lat": 38.92900983333333, "is_reserved": 0, "is_disabled": 0, "fusion_lon": 0.0, "bike_id": "a6e38cc1d6a4df1dc4fe8288eaf80a6f", "lon": -77.05941816666666, "rental_uris": {"ios": "https://dc.lft.to/lastmile_qr_scan", "android": "https://dc.lft.to/lastmile_qr_scan"}}, {"name": "b114f9d3346a25a7f7cca86a59791590", "fusion_lat": 0.0, "type": "electric_bike", "lat": 38.929839333333334, "is_reserved": 0, "is_disabled": 0, "fusion_lon": 0.0, "bike_id": "b114f9d3346a25a7f7cca86a59791590", "lon": -77.01978116666666, "rental_uris": {"ios": "https://dc.lft.to/lastmile_qr_scan", "android": "https://dc.lft.to/lastmile_qr_scan"}}, {"name": "3f8093abf83e881a9faac64ce1fb6dec", "fusion_lat": 0.0, "type": "electric_scooter", "lat": 38.9077665, "is_reserved": 0, "is_disabled": 0, "fusion_lon": 0.0, "bike_id": "3f8093abf83e881a9faac64ce1fb6dec", "lon": -77.03553716666667, "rental_uris": {"ios": "https://dc.lft.to/lastmile_qr_scan", "android": "https://dc.lft.to/lastmile_qr_scan"}}, {"name": "4541dadaf63c3f61e0ac8075c0ee6345", "fusion_lat": 0.0, "type": "electric_bike", "lat": 38.857908333333334, "is_reserved": 0, "is_disabled": 0, "fusion_lon": 0.0, "bike_id": "4541dadaf63c3f61e0ac8075c0ee6345", "lon": -76.98743333333333, "rental_uris": {"ios": "https://dc.lft.to/lastmile_qr_scan", "android": "https://dc.lft.to/lastmile_qr_scan"}}, {"name": "4ad003145464759576322f084d5d5370", "fusion_lat": 0.0, "type": "electric_scooter", "lat": 38.90709866666667, "is_reserved": 0, "is_disabled": 0, "fusion_lon": 0.0, "bike_id": "4ad003145464759576322f084d5d5370", "lon": -77.00535366666666, "rental_uris": {"ios": "https://dc.lft.to/lastmile_qr_scan", "android": "https://dc.lft.to/lastmile_qr_scan"}}, {"name": "2aca725bdcd2462a745a4525415cad2e", "fusion_lat": 0.0, "type": "electric_bike", "lat": 38.959567166666666, "is_reserved": 0, "is_disabled": 0, "fusion_lon": 0.0, "bike_id": "2aca725bdcd2462a745a4525415cad2e", "lon": -77.10094383333333, "rental_uris": {"ios": "https://dc.lft.to/lastmile_qr_scan", "android": "https://dc.lft.to/lastmile_qr_scan"}}, {"name": "58acf30ef1e9a5b2c9151314be66b883", "fusion_lat": 0.0, "type": "electric_scooter", "lat": 38.935397, "is_reserved": 0, "is_disabled": 0, "fusion_lon": 0.0, "bike_id": "58acf30ef1e9a5b2c9151314be66b883", "lon": -77.03418683333334, "rental_uris": {"ios": "https://dc.lft.to/lastmile_qr_scan", "android": "https://dc.lft.to/lastmile_qr_scan"}}, {"name": "9bcd30a2dbd6388aed65082a2f249f3b", "fusion_lat": 0.0, "type": "electric_scooter", "lat": 38.917045333333334, "is_reserved": 0, "is_disabled": 0, "fusion_lon": 0.0, "bike_id": "9bcd30a2dbd6388aed65082a2f249f3b", "lon": -77.03165966666667, "rental_uris": {"ios": "https://dc.lft.to/lastmile_qr_scan", "android": "https://dc.lft.to/lastmile_qr_scan"}}, {"name": "7f811364979e1ca34738d9aed4ea7ecf", "fusion_lat": 0.0, "type": "electric_scooter", "lat": 38.90462633333333, "is_reserved": 0, "is_disabled": 0, "fusion_lon": 0.0, "bike_id": "7f811364979e1ca34738d9aed4ea7ecf", "lon": -77.0142865, "rental_uris": {"ios": "https://dc.lft.to/lastmile_qr_scan", "android": "https://dc.lft.to/lastmile_qr_scan"}}, {"name": "1c30a298b1c0b1b9b2b94d5300549700", "fusion_lat": 0.0, "type": "electric_scooter", "lat": 38.9185235, "is_reserved": 0, "is_disabled": 0, "fusion_lon": 0.0, "bike_id": "1c30a298b1c0b1b9b2b94d5300549700", "lon": -77.02601983333334, "rental_uris": {"ios": "https://dc.lft.to/lastmile_qr_scan", "android": "https://dc.lft.to/lastmile_qr_scan"}}, {"name": "6e3923b890ae054b40a4c3c1ae6d5bd2", "fusion_lat": 0.0, "type": "electric_scooter", "lat": 38.9189365, "is_reserved": 0, "is_disabled": 0, "fusion_lon": 0.0, "bike_id": "6e3923b890ae054b40a4c3c1ae6d5bd2", "lon": -77.03752566666667, "rental_uris": {"ios": "https://dc.lft.to/lastmile_qr_scan", "android": "https://dc.lft.to/lastmile_qr_scan"}}, {"name": "1ab4ade558aab3860ee4925ca848f32d", "fusion_lat": 0.0, "type": "electric_scooter", "lat": 38.90607816666667, "is_reserved": 0, "is_disabled": 0, "fusion_lon": 0.0, "bike_id": "1ab4ade558aab3860ee4925ca848f32d", "lon": -77.0412735, "rental_uris": {"ios": "https://dc.lft.to/lastmile_qr_scan", "android": "https://dc.lft.to/lastmile_qr_scan"}}, {"name": "400e723df43fd857b29f0daa135a0e22", "fusion_lat": 0.0, "type": "electric_scooter", "lat": 38.90032266666667, "is_reserved": 0, "is_disabled": 0, "fusion_lon": 0.0, "bike_id": "400e723df43fd857b29f0daa135a0e22", "lon": -76.99838966666667, "rental_uris": {"ios": "https://dc.lft.to/lastmile_qr_scan", "android": "https://dc.lft.to/lastmile_qr_scan"}}, {"name": "ef19db5fcbad56e0e0f58514271022fd", "fusion_lat": 0.0, "type": "electric_scooter", "lat": 38.914831166666666, "is_reserved": 0, "is_disabled": 0, "fusion_lon": 0.0, "bike_id": "ef19db5fcbad56e0e0f58514271022fd", "lon": -77.04063216666667, "rental_uris": {"ios": "https://dc.lft.to/lastmile_qr_scan", "android": "https://dc.lft.to/lastmile_qr_scan"}}, {"name": "a182358aa55dbc7f6bca194dc76856e7", "fusion_lat": 0.0, "type": "electric_scooter", "lat": 38.921540666666665, "is_reserved": 0, "is_disabled": 0, "fusion_lon": 0.0, "bike_id": "a182358aa55dbc7f6bca194dc76856e7", "lon": -77.04015916666667, "rental_uris": {"ios": "https://dc.lft.to/lastmile_qr_scan", "android": "https://dc.lft.to/lastmile_qr_scan"}}, {"name": "1d314ec79de54b1a7d5745ee77c2fc84", "fusion_lat": 0.0, "type": "electric_scooter", "lat": 38.904168166666665, "is_reserved": 0, "is_disabled": 0, "fusion_lon": 0.0, "bike_id": "1d314ec79de54b1a7d5745ee77c2fc84", "lon": -76.978935, "rental_uris": {"ios": "https://dc.lft.to/lastmile_qr_scan", "android": "https://dc.lft.to/lastmile_qr_scan"}}, {"name": "f27b9ce561ad576f12c5aeebe3b18801", "fusion_lat": 0.0, "type": "electric_bike", "lat": 38.92993216666667, "is_reserved": 0, "is_disabled": 0, "fusion_lon": 0.0, "bike_id": "f27b9ce561ad576f12c5aeebe3b18801", "lon": -77.01966033333333, "rental_uris": {"ios": "https://dc.lft.to/lastmile_qr_scan", "android": "https://dc.lft.to/lastmile_qr_scan"}}, {"name": "4c3187d06c3c73291da86be5b4b987a4", "fusion_lat": 0.0, "type": "electric_scooter", "lat": 38.908834666666664, "is_reserved": 0, "is_disabled": 0, "fusion_lon": 0.0, "bike_id": "4c3187d06c3c73291da86be5b4b987a4", "lon": -77.019019, "rental_uris": {"ios": "https://dc.lft.to/lastmile_qr_scan", "android": "https://dc.lft.to/lastmile_qr_scan"}}, {"name": "0786d44c722232cf30af3cf384968bef", "fusion_lat": 0.0, "type": "electric_scooter", "lat": 38.91126366666667, "is_reserved": 0, "is_disabled": 0, "fusion_lon": 0.0, "bike_id": "0786d44c722232cf30af3cf384968bef", "lon": -77.023898, "rental_uris": {"ios": "https://dc.lft.to/lastmile_qr_scan", "android": "https://dc.lft.to/lastmile_qr_scan"}}, {"name": "48a2544e833a52ca6c55b58dea434c3b", "fusion_lat": 0.0, "type": "electric_scooter", "lat": 38.9212835, "is_reserved": 0, "is_disabled": 0, "fusion_lon": 0.0, "bike_id": "48a2544e833a52ca6c55b58dea434c3b", "lon": -77.04215483333333, "rental_uris": {"ios": "https://dc.lft.to/lastmile_qr_scan", "android": "https://dc.lft.to/lastmile_qr_scan"}}, {"name": "39547dcd209b5c926d4b71f67006f251", "fusion_lat": 0.0, "type": "electric_scooter", "lat": 38.907345166666666, "is_reserved": 0, "is_disabled": 0, "fusion_lon": 0.0, "bike_id": "39547dcd209b5c926d4b71f67006f251", "lon": -77.0345125, "rental_uris": {"ios": "https://dc.lft.to/lastmile_qr_scan", "android": "https://dc.lft.to/lastmile_qr_scan"}}, {"name": "914c030341d0f1cd21ef0aca68acdfa7", "fusion_lat": 0.0, "type": "electric_scooter", "lat": 38.90140516666666, "is_reserved": 0, "is_disabled": 0, "fusion_lon": 0.0, "bike_id": "914c030341d0f1cd21ef0aca68acdfa7", "lon": -77.04494066666666, "rental_uris": {"ios": "https://dc.lft.to/lastmile_qr_scan", "android": "https://dc.lft.to/lastmile_qr_scan"}}, {"name": "f85a22d98f4d37c239272458c6cb2f09", "fusion_lat": 0.0, "type": "electric_scooter", "lat": 38.908426, "is_reserved": 0, "is_disabled": 0, "fusion_lon": 0.0, "bike_id": "f85a22d98f4d37c239272458c6cb2f09", "lon": -77.03181833333333, "rental_uris": {"ios": "https://dc.lft.to/lastmile_qr_scan", "android": "https://dc.lft.to/lastmile_qr_scan"}}, {"name": "baacfd15eff980f617bd97a5c0e5f328", "fusion_lat": 0.0, "type": "electric_scooter", "lat": 38.91123266666666, "is_reserved": 0, "is_disabled": 0, "fusion_lon": 0.0, "bike_id": "baacfd15eff980f617bd97a5c0e5f328", "lon": -77.0373975, "rental_uris": {"ios": "https://dc.lft.to/lastmile_qr_scan", "android": "https://dc.lft.to/lastmile_qr_scan"}}, {"name": "bf9f8270805c67cde291d93cbded1d87", "fusion_lat": 0.0, "type": "electric_scooter", "lat": 38.904677, "is_reserved": 0, "is_disabled": 0, "fusion_lon": 0.0, "bike_id": "bf9f8270805c67cde291d93cbded1d87", "lon": -76.98253683333333, "rental_uris": {"ios": "https://dc.lft.to/lastmile_qr_scan", "android": "https://dc.lft.to/lastmile_qr_scan"}}, {"name": "bb117647fbaab56b2143c6d56a0d299f", "fusion_lat": 0.0, "type": "electric_scooter", "lat": 38.906546, "is_reserved": 0, "is_disabled": 0, "fusion_lon": 0.0, "bike_id": "bb117647fbaab56b2143c6d56a0d299f", "lon": -77.05323766666666, "rental_uris": {"ios": "https://dc.lft.to/lastmile_qr_scan", "android": "https://dc.lft.to/lastmile_qr_scan"}}, {"name": "4ec94ecdcfb3627d9bc82d85e635158d", "fusion_lat": 0.0, "type": "electric_bike", "lat": 38.943669, "is_reserved": 0, "is_disabled": 0, "fusion_lon": 0.0, "bike_id": "4ec94ecdcfb3627d9bc82d85e635158d", "lon": -77.00348966666667, "rental_uris": {"ios": "https://dc.lft.to/lastmile_qr_scan", "android": "https://dc.lft.to/lastmile_qr_scan"}}, {"name": "58a68376b1068ee220155e499dad4c4a", "fusion_lat": 0.0, "type": "electric_scooter", "lat": 38.90339433333333, "is_reserved": 0, "is_disabled": 0, "fusion_lon": 0.0, "bike_id": "58a68376b1068ee220155e499dad4c4a", "lon": -76.94670566666667, "rental_uris": {"ios": "https://dc.lft.to/lastmile_qr_scan", "android": "https://dc.lft.to/lastmile_qr_scan"}}, {"name": "f182973e746e46587c090444629c1d5d", "fusion_lat": 0.0, "type": "electric_bike", "lat": 38.99229916666667, "is_reserved": 0, "is_disabled": 0, "fusion_lon": 0.0, "bike_id": "f182973e746e46587c090444629c1d5d", "lon": -76.87823616666667, "rental_uris": {"ios": "https://dc.lft.to/lastmile_qr_scan", "android": "https://dc.lft.to/lastmile_qr_scan"}}, {"name": "2764f5f9f75baf526005adb46c1a6007", "fusion_lat": 0.0, "type": "electric_scooter", "lat": 38.901401166666666, "is_reserved": 0, "is_disabled": 0, "fusion_lon": 0.0, "bike_id": "2764f5f9f75baf526005adb46c1a6007", "lon": -77.03971816666666, "rental_uris": {"ios": "https://dc.lft.to/lastmile_qr_scan", "android": "https://dc.lft.to/lastmile_qr_scan"}}, {"name": "4cf31bbcab293f7a01bd5b64ef2e550d", "fusion_lat": 0.0, "type": "electric_scooter", "lat": 38.90642066666667, "is_reserved": 0, "is_disabled": 0, "fusion_lon": 0.0, "bike_id": "4cf31bbcab293f7a01bd5b64ef2e550d", "lon": -77.03848816666667, "rental_uris": {"ios": "https://dc.lft.to/lastmile_qr_scan", "android": "https://dc.lft.to/lastmile_qr_scan"}}, {"name": "6c6a925c56b68081518cbcda6e4b7cfa", "fusion_lat": 0.0, "type": "electric_bike", "lat": 38.9589625, "is_reserved": 0, "is_disabled": 0, "fusion_lon": 0.0, "bike_id": "6c6a925c56b68081518cbcda6e4b7cfa", "lon": -77.02601283333334, "rental_uris": {"ios": "https://dc.lft.to/lastmile_qr_scan", "android": "https://dc.lft.to/lastmile_qr_scan"}}, {"name": "f2901d33dde0bce5a2d77613e8ba849f", "fusion_lat": 0.0, "type": "electric_scooter", "lat": 38.906757666666664, "is_reserved": 0, "is_disabled": 0, "fusion_lon": 0.0, "bike_id": "f2901d33dde0bce5a2d77613e8ba849f", "lon": -77.02706316666666, "rental_uris": {"ios": "https://dc.lft.to/lastmile_qr_scan", "android": "https://dc.lft.to/lastmile_qr_scan"}}, {"name": "29301d8bae356f7697915904a50e5971", "fusion_lat": 0.0, "type": "electric_scooter", "lat": 38.86662183333333, "is_reserved": 0, "is_disabled": 0, "fusion_lon": 0.0, "bike_id": "29301d8bae356f7697915904a50e5971", "lon": -76.98889566666666, "rental_uris": {"ios": "https://dc.lft.to/lastmile_qr_scan", "android": "https://dc.lft.to/lastmile_qr_scan"}}, {"name": "82e78e863e6d98dc8c989d0fec8a4900", "fusion_lat": 0.0, "type": "electric_scooter", "lat": 38.926267833333334, "is_reserved": 0, "is_disabled": 0, "fusion_lon": 0.0, "bike_id": "82e78e863e6d98dc8c989d0fec8a4900", "lon": -77.03702033333333, "rental_uris": {"ios": "https://dc.lft.to/lastmile_qr_scan", "android": "https://dc.lft.to/lastmile_qr_scan"}}, {"name": "3a1d97d5b673b682d61eacc0ffdf2199", "fusion_lat": 0.0, "type": "electric_scooter", "lat": 38.90508666666667, "is_reserved": 0, "is_disabled": 0, "fusion_lon": 0.0, "bike_id": "3a1d97d5b673b682d61eacc0ffdf2199", "lon": -76.9944895, "rental_uris": {"ios": "https://dc.lft.to/lastmile_qr_scan", "android": "https://dc.lft.to/lastmile_qr_scan"}}, {"name": "9a843a86804e8ceab5486efd25d208d1", "fusion_lat": 0.0, "type": "electric_scooter", "lat": 38.881041833333335, "is_reserved": 0, "is_disabled": 0, "fusion_lon": 0.0, "bike_id": "9a843a86804e8ceab5486efd25d208d1", "lon": -77.01209333333334, "rental_uris": {"ios": "https://dc.lft.to/lastmile_qr_scan", "android": "https://dc.lft.to/lastmile_qr_scan"}}, {"name": "0520c7d81935fb9cb4db0f54f585ab44", "fusion_lat": 0.0, "type": "electric_scooter", "lat": 38.898573, "is_reserved": 0, "is_disabled": 0, "fusion_lon": 0.0, "bike_id": "0520c7d81935fb9cb4db0f54f585ab44", "lon": -76.99032966666667, "rental_uris": {"ios": "https://dc.lft.to/lastmile_qr_scan", "android": "https://dc.lft.to/lastmile_qr_scan"}}, {"name": "00636f5c316552451d6d714a3771bf41", "fusion_lat": 0.0, "type": "electric_scooter", "lat": 38.901003333333335, "is_reserved": 0, "is_disabled": 0, "fusion_lon": 0.0, "bike_id": "00636f5c316552451d6d714a3771bf41", "lon": -77.01360983333333, "rental_uris": {"ios": "https://dc.lft.to/lastmile_qr_scan", "android": "https://dc.lft.to/lastmile_qr_scan"}}, {"name": "c74977bd1de9b8dfe7d1e396f95b7da1", "fusion_lat": 0.0, "type": "electric_scooter", "lat": 38.93997383333333, "is_reserved": 0, "is_disabled": 0, "fusion_lon": 0.0, "bike_id": "c74977bd1de9b8dfe7d1e396f95b7da1", "lon": -77.02961183333333, "rental_uris": {"ios": "https://dc.lft.to/lastmile_qr_scan", "android": "https://dc.lft.to/lastmile_qr_scan"}}, {"name": "411734be864c0dfb49c6d93c8cd7bc2f", "fusion_lat": 0.0, "type": "electric_scooter", "lat": 38.9325575, "is_reserved": 0, "is_disabled": 0, "fusion_lon": 0.0, "bike_id": "411734be864c0dfb49c6d93c8cd7bc2f", "lon": -77.040053, "rental_uris": {"ios": "https://dc.lft.to/lastmile_qr_scan", "android": "https://dc.lft.to/lastmile_qr_scan"}}, {"name": "a94eeead184b5b60548464db3e4c28f7", "fusion_lat": 0.0, "type": "electric_scooter", "lat": 38.894859, "is_reserved": 0, "is_disabled": 0, "fusion_lon": 0.0, "bike_id": "a94eeead184b5b60548464db3e4c28f7", "lon": -76.94879666666667, "rental_uris": {"ios": "https://dc.lft.to/lastmile_qr_scan", "android": "https://dc.lft.to/lastmile_qr_scan"}}, {"name": "c8c05c859f06a1ee77bb039c6983d6d1", "fusion_lat": 0.0, "type": "electric_scooter", "lat": 38.90839366666667, "is_reserved": 0, "is_disabled": 0, "fusion_lon": 0.0, "bike_id": "c8c05c859f06a1ee77bb039c6983d6d1", "lon": -76.99982033333333, "rental_uris": {"ios": "https://dc.lft.to/lastmile_qr_scan", "android": "https://dc.lft.to/lastmile_qr_scan"}}, {"name": "3572eea3f375c5d83d3c01a2c28e985e", "fusion_lat": 0.0, "type": "electric_bike", "lat": 38.945554666666666, "is_reserved": 0, "is_disabled": 0, "fusion_lon": 0.0, "bike_id": "3572eea3f375c5d83d3c01a2c28e985e", "lon": -76.89541683333333, "rental_uris": {"ios": "https://dc.lft.to/lastmile_qr_scan", "android": "https://dc.lft.to/lastmile_qr_scan"}}, {"name": "586f414825a730abb7fdb4f5a128e70c", "fusion_lat": 0.0, "type": "electric_scooter", "lat": 38.89280466666666, "is_reserved": 0, "is_disabled": 0, "fusion_lon": 0.0, "bike_id": "586f414825a730abb7fdb4f5a128e70c", "lon": -77.03217183333334, "rental_uris": {"ios": "https://dc.lft.to/lastmile_qr_scan", "android": "https://dc.lft.to/lastmile_qr_scan"}}, {"name": "83dbbfc8163faa88cba850258f5a21ce", "fusion_lat": 0.0, "type": "electric_scooter", "lat": 38.93119866666667, "is_reserved": 0, "is_disabled": 0, "fusion_lon": 0.0, "bike_id": "83dbbfc8163faa88cba850258f5a21ce", "lon": -77.035997, "rental_uris": {"ios": "https://dc.lft.to/lastmile_qr_scan", "android": "https://dc.lft.to/lastmile_qr_scan"}}, {"name": "df07fd26991ca42360b589169111b7fd", "fusion_lat": 0.0, "type": "electric_scooter", "lat": 38.89774516666667, "is_reserved": 0, "is_disabled": 0, "fusion_lon": 0.0, "bike_id": "df07fd26991ca42360b589169111b7fd", "lon": -76.99152183333334, "rental_uris": {"ios": "https://dc.lft.to/lastmile_qr_scan", "android": "https://dc.lft.to/lastmile_qr_scan"}}, {"name": "6af493809565ddd6360ac10a6e448f78", "fusion_lat": 0.0, "type": "electric_scooter", "lat": 38.9154605, "is_reserved": 0, "is_disabled": 0, "fusion_lon": 0.0, "bike_id": "6af493809565ddd6360ac10a6e448f78", "lon": -77.03852333333333, "rental_uris": {"ios": "https://dc.lft.to/lastmile_qr_scan", "android": "https://dc.lft.to/lastmile_qr_scan"}}, {"name": "7341667bc582a049dc1544b6b688240b", "fusion_lat": 0.0, "type": "electric_scooter", "lat": 38.884003166666666, "is_reserved": 0, "is_disabled": 0, "fusion_lon": 0.0, "bike_id": "7341667bc582a049dc1544b6b688240b", "lon": -76.93049616666667, "rental_uris": {"ios": "https://dc.lft.to/lastmile_qr_scan", "android": "https://dc.lft.to/lastmile_qr_scan"}}, {"name": "9204cfc8bc953c2bc478e448426b284b", "fusion_lat": 0.0, "type": "electric_bike", "lat": 38.9733, "is_reserved": 0, "is_disabled": 0, "fusion_lon": 0.0, "bike_id": "9204cfc8bc953c2bc478e448426b284b", "lon": -77.0214905, "rental_uris": {"ios": "https://dc.lft.to/lastmile_qr_scan", "android": "https://dc.lft.to/lastmile_qr_scan"}}, {"name": "eba45463fe115e98ac8e8e7fcb1bdbb3", "fusion_lat": 0.0, "type": "electric_scooter", "lat": 38.90813816666667, "is_reserved": 0, "is_disabled": 0, "fusion_lon": 0.0, "bike_id": "eba45463fe115e98ac8e8e7fcb1bdbb3", "lon": -77.0260315, "rental_uris": {"ios": "https://dc.lft.to/lastmile_qr_scan", "android": "https://dc.lft.to/lastmile_qr_scan"}}, {"name": "3eb45c769e762a3d7facc14509674904", "fusion_lat": 0.0, "type": "electric_scooter", "lat": 38.90761233333333, "is_reserved": 0, "is_disabled": 0, "fusion_lon": 0.0, "bike_id": "3eb45c769e762a3d7facc14509674904", "lon": -77.0004035, "rental_uris": {"ios": "https://dc.lft.to/lastmile_qr_scan", "android": "https://dc.lft.to/lastmile_qr_scan"}}, {"name": "564bf7be4526be881c46c6fe57fa27ff", "fusion_lat": 0.0, "type": "electric_scooter", "lat": 38.918220166666664, "is_reserved": 0, "is_disabled": 0, "fusion_lon": 0.0, "bike_id": "564bf7be4526be881c46c6fe57fa27ff", "lon": -77.0316495, "rental_uris": {"ios": "https://dc.lft.to/lastmile_qr_scan", "android": "https://dc.lft.to/lastmile_qr_scan"}}, {"name": "d754e3e19fa4f54aa4778d32ad8ec94b", "fusion_lat": 0.0, "type": "electric_scooter", "lat": 38.90046, "is_reserved": 0, "is_disabled": 0, "fusion_lon": 0.0, "bike_id": "d754e3e19fa4f54aa4778d32ad8ec94b", "lon": -77.04330116666667, "rental_uris": {"ios": "https://dc.lft.to/lastmile_qr_scan", "android": "https://dc.lft.to/lastmile_qr_scan"}}, {"name": "5d8b9fc53c2cf528b0803a40125ec267", "fusion_lat": 0.0, "type": "electric_scooter", "lat": 38.92833516666666, "is_reserved": 0, "is_disabled": 0, "fusion_lon": 0.0, "bike_id": "5d8b9fc53c2cf528b0803a40125ec267", "lon": -77.01382783333334, "rental_uris": {"ios": "https://dc.lft.to/lastmile_qr_scan", "android": "https://dc.lft.to/lastmile_qr_scan"}}, {"name": "cc5ec49026e8dfa1b7f01d47ee21fea4", "fusion_lat": 0.0, "type": "electric_scooter", "lat": 38.905092333333336, "is_reserved": 0, "is_disabled": 0, "fusion_lon": 0.0, "bike_id": "cc5ec49026e8dfa1b7f01d47ee21fea4", "lon": -77.0638065, "rental_uris": {"ios": "https://dc.lft.to/lastmile_qr_scan", "android": "https://dc.lft.to/lastmile_qr_scan"}}, {"name": "16596a8e7c98d4713d5a24584323d468", "fusion_lat": 0.0, "type": "electric_scooter", "lat": 38.941867, "is_reserved": 0, "is_disabled": 0, "fusion_lon": 0.0, "bike_id": "16596a8e7c98d4713d5a24584323d468", "lon": -77.024927, "rental_uris": {"ios": "https://dc.lft.to/lastmile_qr_scan", "android": "https://dc.lft.to/lastmile_qr_scan"}}, {"name": "c24b84e9fd0cb08993b43a5ce3328d4d", "fusion_lat": 0.0, "type": "electric_scooter", "lat": 38.9162005, "is_reserved": 0, "is_disabled": 0, "fusion_lon": 0.0, "bike_id": "c24b84e9fd0cb08993b43a5ce3328d4d", "lon": -77.0385705, "rental_uris": {"ios": "https://dc.lft.to/lastmile_qr_scan", "android": "https://dc.lft.to/lastmile_qr_scan"}}, {"name": "e66eba7f544bef9ca7505a639733aea1", "fusion_lat": 0.0, "type": "electric_scooter", "lat": 38.86418883333333, "is_reserved": 0, "is_disabled": 0, "fusion_lon": 0.0, "bike_id": "e66eba7f544bef9ca7505a639733aea1", "lon": -76.98045883333333, "rental_uris": {"ios": "https://dc.lft.to/lastmile_qr_scan", "android": "https://dc.lft.to/lastmile_qr_scan"}}, {"name": "2f9c0ef0184a6a6c6214b660fe1f8f2c", "fusion_lat": 0.0, "type": "electric_scooter", "lat": 38.952659, "is_reserved": 0, "is_disabled": 0, "fusion_lon": 0.0, "bike_id": "2f9c0ef0184a6a6c6214b660fe1f8f2c", "lon": -77.02567933333333, "rental_uris": {"ios": "https://dc.lft.to/lastmile_qr_scan", "android": "https://dc.lft.to/lastmile_qr_scan"}}, {"name": "bba64cfb186851a46ca9ea483790174d", "fusion_lat": 0.0, "type": "electric_scooter", "lat": 38.89404916666667, "is_reserved": 0, "is_disabled": 0, "fusion_lon": 0.0, "bike_id": "bba64cfb186851a46ca9ea483790174d", "lon": -76.948022, "rental_uris": {"ios": "https://dc.lft.to/lastmile_qr_scan", "android": "https://dc.lft.to/lastmile_qr_scan"}}, {"name": "666ee772affe0b788c54a97e7f7d05ae", "fusion_lat": 0.0, "type": "electric_scooter", "lat": 38.8840825, "is_reserved": 0, "is_disabled": 0, "fusion_lon": 0.0, "bike_id": "666ee772affe0b788c54a97e7f7d05ae", "lon": -76.98590783333333, "rental_uris": {"ios": "https://dc.lft.to/lastmile_qr_scan", "android": "https://dc.lft.to/lastmile_qr_scan"}}, {"name": "7238de8bf544930e9f00325e9d96cc5e", "fusion_lat": 0.0, "type": "electric_scooter", "lat": 38.923118833333334, "is_reserved": 0, "is_disabled": 0, "fusion_lon": 0.0, "bike_id": "7238de8bf544930e9f00325e9d96cc5e", "lon": -77.03543216666667, "rental_uris": {"ios": "https://dc.lft.to/lastmile_qr_scan", "android": "https://dc.lft.to/lastmile_qr_scan"}}, {"name": "e1b231e4df37b5473f0fe5fa245d1465", "fusion_lat": 0.0, "type": "electric_scooter", "lat": 38.924852666666666, "is_reserved": 0, "is_disabled": 0, "fusion_lon": 0.0, "bike_id": "e1b231e4df37b5473f0fe5fa245d1465", "lon": -77.03488416666667, "rental_uris": {"ios": "https://dc.lft.to/lastmile_qr_scan", "android": "https://dc.lft.to/lastmile_qr_scan"}}, {"name": "4c0b14806ccf1eebfc6594a888e540bb", "fusion_lat": 0.0, "type": "electric_scooter", "lat": 38.8552855, "is_reserved": 0, "is_disabled": 0, "fusion_lon": 0.0, "bike_id": "4c0b14806ccf1eebfc6594a888e540bb", "lon": -76.96916633333333, "rental_uris": {"ios": "https://dc.lft.to/lastmile_qr_scan", "android": "https://dc.lft.to/lastmile_qr_scan"}}, {"name": "80cc10ef8ded36d5ae5fe21f40a90d71", "fusion_lat": 0.0, "type": "electric_scooter", "lat": 38.92034783333333, "is_reserved": 0, "is_disabled": 0, "fusion_lon": 0.0, "bike_id": "80cc10ef8ded36d5ae5fe21f40a90d71", "lon": -77.02363483333333, "rental_uris": {"ios": "https://dc.lft.to/lastmile_qr_scan", "android": "https://dc.lft.to/lastmile_qr_scan"}}, {"name": "3d8032fcc788927555ce3e423150cc18", "fusion_lat": 0.0, "type": "electric_bike", "lat": 38.89639583333334, "is_reserved": 0, "is_disabled": 0, "fusion_lon": 0.0, "bike_id": "3d8032fcc788927555ce3e423150cc18", "lon": -77.104543, "rental_uris": {"ios": "https://dc.lft.to/lastmile_qr_scan", "android": "https://dc.lft.to/lastmile_qr_scan"}}, {"name": "5d983baabf92381973df620b09b7ec22", "fusion_lat": 0.0, "type": "electric_scooter", "lat": 38.9231295, "is_reserved": 0, "is_disabled": 0, "fusion_lon": 0.0, "bike_id": "5d983baabf92381973df620b09b7ec22", "lon": -77.04109483333333, "rental_uris": {"ios": "https://dc.lft.to/lastmile_qr_scan", "android": "https://dc.lft.to/lastmile_qr_scan"}}, {"name": "b388d2ceeb78fddf7f63732232962c7e", "fusion_lat": 0.0, "type": "electric_scooter", "lat": 38.92389033333333, "is_reserved": 0, "is_disabled": 0, "fusion_lon": 0.0, "bike_id": "b388d2ceeb78fddf7f63732232962c7e", "lon": -77.02978266666666, "rental_uris": {"ios": "https://dc.lft.to/lastmile_qr_scan", "android": "https://dc.lft.to/lastmile_qr_scan"}}, {"name": "1608aa172ea9f0deeec7e4fb109fee14", "fusion_lat": 0.0, "type": "electric_scooter", "lat": 38.921315666666665, "is_reserved": 0, "is_disabled": 0, "fusion_lon": 0.0, "bike_id": "1608aa172ea9f0deeec7e4fb109fee14", "lon": -77.03655766666667, "rental_uris": {"ios": "https://dc.lft.to/lastmile_qr_scan", "android": "https://dc.lft.to/lastmile_qr_scan"}}, {"name": "5715c2fa601f34000c9c2983944dba43", "fusion_lat": 0.0, "type": "electric_bike", "lat": 38.90535583333333, "is_reserved": 0, "is_disabled": 0, "fusion_lon": 0.0, "bike_id": "5715c2fa601f34000c9c2983944dba43", "lon": -76.99807816666667, "rental_uris": {"ios": "https://dc.lft.to/lastmile_qr_scan", "android": "https://dc.lft.to/lastmile_qr_scan"}}, {"name": "8f3da9b23172f59114c852a310f76527", "fusion_lat": 0.0, "type": "electric_scooter", "lat": 38.914093333333334, "is_reserved": 0, "is_disabled": 0, "fusion_lon": 0.0, "bike_id": "8f3da9b23172f59114c852a310f76527", "lon": -77.03907716666667, "rental_uris": {"ios": "https://dc.lft.to/lastmile_qr_scan", "android": "https://dc.lft.to/lastmile_qr_scan"}}, {"name": "e0c66acf7dba1f8d4a8d5588c8f77dfa", "fusion_lat": 0.0, "type": "electric_bike", "lat": 38.99092316666667, "is_reserved": 0, "is_disabled": 0, "fusion_lon": 0.0, "bike_id": "e0c66acf7dba1f8d4a8d5588c8f77dfa", "lon": -76.8749735, "rental_uris": {"ios": "https://dc.lft.to/lastmile_qr_scan", "android": "https://dc.lft.to/lastmile_qr_scan"}}, {"name": "697e07704aa79e65ae2efb37088a07ca", "fusion_lat": 0.0, "type": "electric_scooter", "lat": 38.909224, "is_reserved": 0, "is_disabled": 0, "fusion_lon": 0.0, "bike_id": "697e07704aa79e65ae2efb37088a07ca", "lon": -77.04160433333334, "rental_uris": {"ios": "https://dc.lft.to/lastmile_qr_scan", "android": "https://dc.lft.to/lastmile_qr_scan"}}, {"name": "ec910a4e555c8b6e89af4bc1842fdf14", "fusion_lat": 0.0, "type": "electric_scooter", "lat": 38.91694916666667, "is_reserved": 0, "is_disabled": 0, "fusion_lon": 0.0, "bike_id": "ec910a4e555c8b6e89af4bc1842fdf14", "lon": -77.03895666666666, "rental_uris": {"ios": "https://dc.lft.to/lastmile_qr_scan", "android": "https://dc.lft.to/lastmile_qr_scan"}}, {"name": "dece30024af7286c6f7de4a32d63b9b3", "fusion_lat": 0.0, "type": "electric_scooter", "lat": 38.908666833333335, "is_reserved": 0, "is_disabled": 0, "fusion_lon": 0.0, "bike_id": "dece30024af7286c6f7de4a32d63b9b3", "lon": -77.02717916666667, "rental_uris": {"ios": "https://dc.lft.to/lastmile_qr_scan", "android": "https://dc.lft.to/lastmile_qr_scan"}}, {"name": "3adac2da256f48b164eec1bd4134d128", "fusion_lat": 0.0, "type": "electric_scooter", "lat": 38.90276133333333, "is_reserved": 0, "is_disabled": 0, "fusion_lon": 0.0, "bike_id": "3adac2da256f48b164eec1bd4134d128", "lon": -77.038529, "rental_uris": {"ios": "https://dc.lft.to/lastmile_qr_scan", "android": "https://dc.lft.to/lastmile_qr_scan"}}, {"name": "c92701932ec0d68df201e204a3948cf0", "fusion_lat": 0.0, "type": "electric_scooter", "lat": 38.899836, "is_reserved": 0, "is_disabled": 0, "fusion_lon": 0.0, "bike_id": "c92701932ec0d68df201e204a3948cf0", "lon": -77.02701066666667, "rental_uris": {"ios": "https://dc.lft.to/lastmile_qr_scan", "android": "https://dc.lft.to/lastmile_qr_scan"}}, {"name": "a23b0f8593be52a48089d4de8169b1c6", "fusion_lat": 0.0, "type": "electric_scooter", "lat": 38.8933795, "is_reserved": 0, "is_disabled": 0, "fusion_lon": 0.0, "bike_id": "a23b0f8593be52a48089d4de8169b1c6", "lon": -76.92895533333333, "rental_uris": {"ios": "https://dc.lft.to/lastmile_qr_scan", "android": "https://dc.lft.to/lastmile_qr_scan"}}, {"name": "46f116b700205cb2356b9eeec6ad0483", "fusion_lat": 0.0, "type": "electric_scooter", "lat": 38.900013333333334, "is_reserved": 0, "is_disabled": 0, "fusion_lon": 0.0, "bike_id": "46f116b700205cb2356b9eeec6ad0483", "lon": -76.98560583333334, "rental_uris": {"ios": "https://dc.lft.to/lastmile_qr_scan", "android": "https://dc.lft.to/lastmile_qr_scan"}}, {"name": "87e02b037afdb59785d0f7d17d7188cc", "fusion_lat": 0.0, "type": "electric_scooter", "lat": 38.916324, "is_reserved": 0, "is_disabled": 0, "fusion_lon": 0.0, "bike_id": "87e02b037afdb59785d0f7d17d7188cc", "lon": -77.04345966666666, "rental_uris": {"ios": "https://dc.lft.to/lastmile_qr_scan", "android": "https://dc.lft.to/lastmile_qr_scan"}}, {"name": "3ed5f3ccae89af3b5eb4504062391b88", "fusion_lat": 0.0, "type": "electric_scooter", "lat": 38.9017875, "is_reserved": 0, "is_disabled": 0, "fusion_lon": 0.0, "bike_id": "3ed5f3ccae89af3b5eb4504062391b88", "lon": -77.03359166666667, "rental_uris": {"ios": "https://dc.lft.to/lastmile_qr_scan", "android": "https://dc.lft.to/lastmile_qr_scan"}}, {"name": "c03ae4ecfff97d08bdd98e30f2bef8e1", "fusion_lat": 0.0, "type": "electric_scooter", "lat": 38.91869333333333, "is_reserved": 0, "is_disabled": 0, "fusion_lon": 0.0, "bike_id": "c03ae4ecfff97d08bdd98e30f2bef8e1", "lon": -77.0459425, "rental_uris": {"ios": "https://dc.lft.to/lastmile_qr_scan", "android": "https://dc.lft.to/lastmile_qr_scan"}}, {"name": "3789f3086214f2384f4025917ccf7569", "fusion_lat": 0.0, "type": "electric_bike", "lat": 38.9254465, "is_reserved": 0, "is_disabled": 0, "fusion_lon": 0.0, "bike_id": "3789f3086214f2384f4025917ccf7569", "lon": -77.07898366666667, "rental_uris": {"ios": "https://dc.lft.to/lastmile_qr_scan", "android": "https://dc.lft.to/lastmile_qr_scan"}}, {"name": "cbd6574eb43545588c9c73a30301c4ed", "fusion_lat": 0.0, "type": "electric_scooter", "lat": 38.90742566666667, "is_reserved": 0, "is_disabled": 0, "fusion_lon": 0.0, "bike_id": "cbd6574eb43545588c9c73a30301c4ed", "lon": -77.04326566666667, "rental_uris": {"ios": "https://dc.lft.to/lastmile_qr_scan", "android": "https://dc.lft.to/lastmile_qr_scan"}}, {"name": "45015ade1d18687b3737e9e01b2a7b9f", "fusion_lat": 0.0, "type": "electric_bike", "lat": 38.949053666666664, "is_reserved": 0, "is_disabled": 0, "fusion_lon": 0.0, "bike_id": "45015ade1d18687b3737e9e01b2a7b9f", "lon": -77.0395555, "rental_uris": {"ios": "https://dc.lft.to/lastmile_qr_scan", "android": "https://dc.lft.to/lastmile_qr_scan"}}, {"name": "7225d34c795727e87b1bb5872f5eb112", "fusion_lat": 0.0, "type": "electric_bike", "lat": 38.943833833333336, "is_reserved": 0, "is_disabled": 0, "fusion_lon": 0.0, "bike_id": "7225d34c795727e87b1bb5872f5eb112", "lon": -76.96289033333333, "rental_uris": {"ios": "https://dc.lft.to/lastmile_qr_scan", "android": "https://dc.lft.to/lastmile_qr_scan"}}, {"name": "a6b3456ccd7587e4735af501345a9933", "fusion_lat": 0.0, "type": "electric_scooter", "lat": 38.892029666666666, "is_reserved": 0, "is_disabled": 0, "fusion_lon": 0.0, "bike_id": "a6b3456ccd7587e4735af501345a9933", "lon": -77.0029085, "rental_uris": {"ios": "https://dc.lft.to/lastmile_qr_scan", "android": "https://dc.lft.to/lastmile_qr_scan"}}, {"name": "9a9d6089c32f77bba73412afda1c0c93", "fusion_lat": 0.0, "type": "electric_scooter", "lat": 38.874354333333336, "is_reserved": 0, "is_disabled": 0, "fusion_lon": 0.0, "bike_id": "9a9d6089c32f77bba73412afda1c0c93", "lon": -77.02068383333334, "rental_uris": {"ios": "https://dc.lft.to/lastmile_qr_scan", "android": "https://dc.lft.to/lastmile_qr_scan"}}, {"name": "49bc8b364edda7d75e72d177f65b70c1", "fusion_lat": 0.0, "type": "electric_scooter", "lat": 38.884584, "is_reserved": 0, "is_disabled": 0, "fusion_lon": 0.0, "bike_id": "49bc8b364edda7d75e72d177f65b70c1", "lon": -77.02576433333333, "rental_uris": {"ios": "https://dc.lft.to/lastmile_qr_scan", "android": "https://dc.lft.to/lastmile_qr_scan"}}, {"name": "44538bf4e40f8f9ce90d606169473d2a", "fusion_lat": 0.0, "type": "electric_scooter", "lat": 38.92378433333333, "is_reserved": 0, "is_disabled": 0, "fusion_lon": 0.0, "bike_id": "44538bf4e40f8f9ce90d606169473d2a", "lon": -77.03034566666666, "rental_uris": {"ios": "https://dc.lft.to/lastmile_qr_scan", "android": "https://dc.lft.to/lastmile_qr_scan"}}, {"name": "5c947c69c454af77f77a5e6747b924f1", "fusion_lat": 0.0, "type": "electric_bike", "lat": 38.952524, "is_reserved": 0, "is_disabled": 0, "fusion_lon": 0.0, "bike_id": "5c947c69c454af77f77a5e6747b924f1", "lon": -77.06994933333333, "rental_uris": {"ios": "https://dc.lft.to/lastmile_qr_scan", "android": "https://dc.lft.to/lastmile_qr_scan"}}, {"name": "e3722a9d9135b5a731fd783cdac3628d", "fusion_lat": 0.0, "type": "electric_scooter", "lat": 38.91775333333333, "is_reserved": 0, "is_disabled": 0, "fusion_lon": 0.0, "bike_id": "e3722a9d9135b5a731fd783cdac3628d", "lon": -77.0149605, "rental_uris": {"ios": "https://dc.lft.to/lastmile_qr_scan", "android": "https://dc.lft.to/lastmile_qr_scan"}}, {"name": "5433107aef76663a82a7933cdc43c50f", "fusion_lat": 0.0, "type": "electric_scooter", "lat": 38.891012833333335, "is_reserved": 0, "is_disabled": 0, "fusion_lon": 0.0, "bike_id": "5433107aef76663a82a7933cdc43c50f", "lon": -76.98209266666667, "rental_uris": {"ios": "https://dc.lft.to/lastmile_qr_scan", "android": "https://dc.lft.to/lastmile_qr_scan"}}, {"name": "56b65250b0591db60415b5bab8c39289", "fusion_lat": 0.0, "type": "electric_scooter", "lat": 38.91258916666666, "is_reserved": 0, "is_disabled": 0, "fusion_lon": 0.0, "bike_id": "56b65250b0591db60415b5bab8c39289", "lon": -77.031481, "rental_uris": {"ios": "https://dc.lft.to/lastmile_qr_scan", "android": "https://dc.lft.to/lastmile_qr_scan"}}, {"name": "c1af54442e660c654e7f7501206a13f1", "fusion_lat": 0.0, "type": "electric_scooter", "lat": 38.900781333333335, "is_reserved": 0, "is_disabled": 0, "fusion_lon": 0.0, "bike_id": "c1af54442e660c654e7f7501206a13f1", "lon": -77.05019566666667, "rental_uris": {"ios": "https://dc.lft.to/lastmile_qr_scan", "android": "https://dc.lft.to/lastmile_qr_scan"}}, {"name": "3139e9605fc6e2bc673d88229462e791", "fusion_lat": 0.0, "type": "electric_scooter", "lat": 38.906527833333335, "is_reserved": 0, "is_disabled": 0, "fusion_lon": 0.0, "bike_id": "3139e9605fc6e2bc673d88229462e791", "lon": -77.05325233333333, "rental_uris": {"ios": "https://dc.lft.to/lastmile_qr_scan", "android": "https://dc.lft.to/lastmile_qr_scan"}}, {"name": "e109009c73ed62f5a628589153e68409", "fusion_lat": 0.0, "type": "electric_scooter", "lat": 38.89919833333333, "is_reserved": 0, "is_disabled": 0, "fusion_lon": 0.0, "bike_id": "e109009c73ed62f5a628589153e68409", "lon": -77.03907883333333, "rental_uris": {"ios": "https://dc.lft.to/lastmile_qr_scan", "android": "https://dc.lft.to/lastmile_qr_scan"}}, {"name": "909e840fff6c8fecfd8739cd82112541", "fusion_lat": 0.0, "type": "electric_scooter", "lat": 38.903697, "is_reserved": 0, "is_disabled": 0, "fusion_lon": 0.0, "bike_id": "909e840fff6c8fecfd8739cd82112541", "lon": -77.03573166666666, "rental_uris": {"ios": "https://dc.lft.to/lastmile_qr_scan", "android": "https://dc.lft.to/lastmile_qr_scan"}}, {"name": "84e935d82e38606ba6add0af354ae81c", "fusion_lat": 0.0, "type": "electric_scooter", "lat": 38.910209, "is_reserved": 0, "is_disabled": 0, "fusion_lon": 0.0, "bike_id": "84e935d82e38606ba6add0af354ae81c", "lon": -77.02782833333333, "rental_uris": {"ios": "https://dc.lft.to/lastmile_qr_scan", "android": "https://dc.lft.to/lastmile_qr_scan"}}, {"name": "9ac6719d19913f5890fd4a51b2c02a2a", "fusion_lat": 0.0, "type": "electric_scooter", "lat": 38.911908333333336, "is_reserved": 0, "is_disabled": 0, "fusion_lon": 0.0, "bike_id": "9ac6719d19913f5890fd4a51b2c02a2a", "lon": -77.03137316666667, "rental_uris": {"ios": "https://dc.lft.to/lastmile_qr_scan", "android": "https://dc.lft.to/lastmile_qr_scan"}}, {"name": "7eb7d9ed677e3fcfc783233327864a71", "fusion_lat": 0.0, "type": "electric_scooter", "lat": 38.911363, "is_reserved": 0, "is_disabled": 0, "fusion_lon": 0.0, "bike_id": "7eb7d9ed677e3fcfc783233327864a71", "lon": -77.0366365, "rental_uris": {"ios": "https://dc.lft.to/lastmile_qr_scan", "android": "https://dc.lft.to/lastmile_qr_scan"}}, {"name": "c5ae9482aedcbac4cfa9a8ac83f67474", "fusion_lat": 0.0, "type": "electric_scooter", "lat": 38.918351666666666, "is_reserved": 0, "is_disabled": 0, "fusion_lon": 0.0, "bike_id": "c5ae9482aedcbac4cfa9a8ac83f67474", "lon": -77.023102, "rental_uris": {"ios": "https://dc.lft.to/lastmile_qr_scan", "android": "https://dc.lft.to/lastmile_qr_scan"}}, {"name": "f1b17485401239b4bc9d5a065afe4418", "fusion_lat": 0.0, "type": "electric_scooter", "lat": 38.89856433333333, "is_reserved": 0, "is_disabled": 0, "fusion_lon": 0.0, "bike_id": "f1b17485401239b4bc9d5a065afe4418", "lon": -77.01616616666666, "rental_uris": {"ios": "https://dc.lft.to/lastmile_qr_scan", "android": "https://dc.lft.to/lastmile_qr_scan"}}, {"name": "ff0edaf09ffd7d6941070105688d4050", "fusion_lat": 0.0, "type": "electric_scooter", "lat": 38.86352383333333, "is_reserved": 0, "is_disabled": 0, "fusion_lon": 0.0, "bike_id": "ff0edaf09ffd7d6941070105688d4050", "lon": -76.99064533333333, "rental_uris": {"ios": "https://dc.lft.to/lastmile_qr_scan", "android": "https://dc.lft.to/lastmile_qr_scan"}}, {"name": "5b30e3d2bd00c6148060fb5cb6568d86", "fusion_lat": 0.0, "type": "electric_scooter", "lat": 38.88053716666667, "is_reserved": 0, "is_disabled": 0, "fusion_lon": 0.0, "bike_id": "5b30e3d2bd00c6148060fb5cb6568d86", "lon": -77.01326516666667, "rental_uris": {"ios": "https://dc.lft.to/lastmile_qr_scan", "android": "https://dc.lft.to/lastmile_qr_scan"}}, {"name": "262b2b9073d3e668fa785c36dc598c92", "fusion_lat": 0.0, "type": "electric_scooter", "lat": 38.92073216666667, "is_reserved": 0, "is_disabled": 0, "fusion_lon": 0.0, "bike_id": "262b2b9073d3e668fa785c36dc598c92", "lon": -76.99856283333334, "rental_uris": {"ios": "https://dc.lft.to/lastmile_qr_scan", "android": "https://dc.lft.to/lastmile_qr_scan"}}, {"name": "306322aa63224c63b2f0abbb816cb552", "fusion_lat": 0.0, "type": "electric_scooter", "lat": 38.8998085, "is_reserved": 0, "is_disabled": 0, "fusion_lon": 0.0, "bike_id": "306322aa63224c63b2f0abbb816cb552", "lon": -77.05528766666667, "rental_uris": {"ios": "https://dc.lft.to/lastmile_qr_scan", "android": "https://dc.lft.to/lastmile_qr_scan"}}, {"name": "a7b64bf0c34b80f7bd887d37aa072af4", "fusion_lat": 0.0, "type": "electric_scooter", "lat": 38.907397333333336, "is_reserved": 0, "is_disabled": 0, "fusion_lon": 0.0, "bike_id": "a7b64bf0c34b80f7bd887d37aa072af4", "lon": -77.0061455, "rental_uris": {"ios": "https://dc.lft.to/lastmile_qr_scan", "android": "https://dc.lft.to/lastmile_qr_scan"}}, {"name": "21b52ef1126f9cfc671af0964f27258d", "fusion_lat": 0.0, "type": "electric_scooter", "lat": 38.912614833333336, "is_reserved": 0, "is_disabled": 0, "fusion_lon": 0.0, "bike_id": "21b52ef1126f9cfc671af0964f27258d", "lon": -77.0386825, "rental_uris": {"ios": "https://dc.lft.to/lastmile_qr_scan", "android": "https://dc.lft.to/lastmile_qr_scan"}}, {"name": "797be22447844ec6f791c2a9be2b7af7", "fusion_lat": 0.0, "type": "electric_scooter", "lat": 38.922989333333334, "is_reserved": 0, "is_disabled": 0, "fusion_lon": 0.0, "bike_id": "797be22447844ec6f791c2a9be2b7af7", "lon": -77.0420305, "rental_uris": {"ios": "https://dc.lft.to/lastmile_qr_scan", "android": "https://dc.lft.to/lastmile_qr_scan"}}, {"name": "918f45edb039a7c79278f7539243a1f2", "fusion_lat": 0.0, "type": "electric_scooter", "lat": 38.942148, "is_reserved": 0, "is_disabled": 0, "fusion_lon": 0.0, "bike_id": "918f45edb039a7c79278f7539243a1f2", "lon": -77.03585266666667, "rental_uris": {"ios": "https://dc.lft.to/lastmile_qr_scan", "android": "https://dc.lft.to/lastmile_qr_scan"}}, {"name": "9bbacb970d53d89f3051a39386e04043", "fusion_lat": 0.0, "type": "electric_scooter", "lat": 38.898283666666664, "is_reserved": 0, "is_disabled": 0, "fusion_lon": 0.0, "bike_id": "9bbacb970d53d89f3051a39386e04043", "lon": -76.987908, "rental_uris": {"ios": "https://dc.lft.to/lastmile_qr_scan", "android": "https://dc.lft.to/lastmile_qr_scan"}}, {"name": "7a13cb8f5f6bbf219080f5c70fae1e3c", "fusion_lat": 0.0, "type": "electric_scooter", "lat": 38.89806083333333, "is_reserved": 0, "is_disabled": 0, "fusion_lon": 0.0, "bike_id": "7a13cb8f5f6bbf219080f5c70fae1e3c", "lon": -76.99164116666667, "rental_uris": {"ios": "https://dc.lft.to/lastmile_qr_scan", "android": "https://dc.lft.to/lastmile_qr_scan"}}, {"name": "5e50f12937fb4c21c531487e385bcb29", "fusion_lat": 0.0, "type": "electric_scooter", "lat": 38.89602583333333, "is_reserved": 0, "is_disabled": 0, "fusion_lon": 0.0, "bike_id": "5e50f12937fb4c21c531487e385bcb29", "lon": -77.02668716666666, "rental_uris": {"ios": "https://dc.lft.to/lastmile_qr_scan", "android": "https://dc.lft.to/lastmile_qr_scan"}}, {"name": "01a4b480a51e139f4f5e1f85c81b5509", "fusion_lat": 0.0, "type": "electric_scooter", "lat": 38.901225833333335, "is_reserved": 0, "is_disabled": 0, "fusion_lon": 0.0, "bike_id": "01a4b480a51e139f4f5e1f85c81b5509", "lon": -77.049916, "rental_uris": {"ios": "https://dc.lft.to/lastmile_qr_scan", "android": "https://dc.lft.to/lastmile_qr_scan"}}, {"name": "b4d51828c036a91d348565a62ce1e73c", "fusion_lat": 0.0, "type": "electric_scooter", "lat": 38.898559166666665, "is_reserved": 0, "is_disabled": 0, "fusion_lon": 0.0, "bike_id": "b4d51828c036a91d348565a62ce1e73c", "lon": -77.01617133333333, "rental_uris": {"ios": "https://dc.lft.to/lastmile_qr_scan", "android": "https://dc.lft.to/lastmile_qr_scan"}}, {"name": "10bfb61b1a187f8aeded75bd8f45d96a", "fusion_lat": 0.0, "type": "electric_scooter", "lat": 38.900240833333335, "is_reserved": 0, "is_disabled": 0, "fusion_lon": 0.0, "bike_id": "10bfb61b1a187f8aeded75bd8f45d96a", "lon": -76.99855666666667, "rental_uris": {"ios": "https://dc.lft.to/lastmile_qr_scan", "android": "https://dc.lft.to/lastmile_qr_scan"}}, {"name": "8d4dccaf05691b5d2f7c52fcb85f357c", "fusion_lat": 0.0, "type": "electric_scooter", "lat": 38.893728333333335, "is_reserved": 0, "is_disabled": 0, "fusion_lon": 0.0, "bike_id": "8d4dccaf05691b5d2f7c52fcb85f357c", "lon": -76.9500085, "rental_uris": {"ios": "https://dc.lft.to/lastmile_qr_scan", "android": "https://dc.lft.to/lastmile_qr_scan"}}, {"name": "6896feb48e3baf055f7e5754aeb8ec8b", "fusion_lat": 0.0, "type": "electric_scooter", "lat": 38.9428285, "is_reserved": 0, "is_disabled": 0, "fusion_lon": 0.0, "bike_id": "6896feb48e3baf055f7e5754aeb8ec8b", "lon": -77.0250815, "rental_uris": {"ios": "https://dc.lft.to/lastmile_qr_scan", "android": "https://dc.lft.to/lastmile_qr_scan"}}, {"name": "af539bb12b0c4877243fb02ecb12abdf", "fusion_lat": 0.0, "type": "electric_scooter", "lat": 38.90044783333333, "is_reserved": 0, "is_disabled": 0, "fusion_lon": 0.0, "bike_id": "af539bb12b0c4877243fb02ecb12abdf", "lon": -76.99815516666666, "rental_uris": {"ios": "https://dc.lft.to/lastmile_qr_scan", "android": "https://dc.lft.to/lastmile_qr_scan"}}, {"name": "4700c11843fa41e35ddd9d980cb38d30", "fusion_lat": 0.0, "type": "electric_scooter", "lat": 38.9341805, "is_reserved": 0, "is_disabled": 0, "fusion_lon": 0.0, "bike_id": "4700c11843fa41e35ddd9d980cb38d30", "lon": -77.04185166666667, "rental_uris": {"ios": "https://dc.lft.to/lastmile_qr_scan", "android": "https://dc.lft.to/lastmile_qr_scan"}}, {"name": "d03136f8d38d03cd8fee96507211c1d5", "fusion_lat": 0.0, "type": "electric_bike", "lat": 38.88345783333333, "is_reserved": 0, "is_disabled": 0, "fusion_lon": 0.0, "bike_id": "d03136f8d38d03cd8fee96507211c1d5", "lon": -77.18295133333334, "rental_uris": {"ios": "https://dc.lft.to/lastmile_qr_scan", "android": "https://dc.lft.to/lastmile_qr_scan"}}, {"name": "33fc863a1625192ad98e315360538a57", "fusion_lat": 0.0, "type": "electric_scooter", "lat": 38.88599766666667, "is_reserved": 0, "is_disabled": 0, "fusion_lon": 0.0, "bike_id": "33fc863a1625192ad98e315360538a57", "lon": -77.02205916666666, "rental_uris": {"ios": "https://dc.lft.to/lastmile_qr_scan", "android": "https://dc.lft.to/lastmile_qr_scan"}}, {"name": "e39425bc4ca86a9c86716f42560938fd", "fusion_lat": 0.0, "type": "electric_scooter", "lat": 38.90547083333333, "is_reserved": 0, "is_disabled": 0, "fusion_lon": 0.0, "bike_id": "e39425bc4ca86a9c86716f42560938fd", "lon": -77.06272033333333, "rental_uris": {"ios": "https://dc.lft.to/lastmile_qr_scan", "android": "https://dc.lft.to/lastmile_qr_scan"}}, {"name": "7b3e405fce06e14843ff3cfef3d35469", "fusion_lat": 0.0, "type": "electric_scooter", "lat": 38.92726966666667, "is_reserved": 0, "is_disabled": 0, "fusion_lon": 0.0, "bike_id": "7b3e405fce06e14843ff3cfef3d35469", "lon": -77.07143933333333, "rental_uris": {"ios": "https://dc.lft.to/lastmile_qr_scan", "android": "https://dc.lft.to/lastmile_qr_scan"}}, {"name": "19cad16ff7a9ad3a74fc733702ac3fbe", "fusion_lat": 0.0, "type": "electric_scooter", "lat": 38.9104865, "is_reserved": 0, "is_disabled": 0, "fusion_lon": 0.0, "bike_id": "19cad16ff7a9ad3a74fc733702ac3fbe", "lon": -77.04369466666667, "rental_uris": {"ios": "https://dc.lft.to/lastmile_qr_scan", "android": "https://dc.lft.to/lastmile_qr_scan"}}, {"name": "7a36f402eda29074e3a874c1e61091d4", "fusion_lat": 0.0, "type": "electric_bike", "lat": 38.950913666666665, "is_reserved": 0, "is_disabled": 0, "fusion_lon": 0.0, "bike_id": "7a36f402eda29074e3a874c1e61091d4", "lon": -77.012287, "rental_uris": {"ios": "https://dc.lft.to/lastmile_qr_scan", "android": "https://dc.lft.to/lastmile_qr_scan"}}, {"name": "e1b5ba978e08268ec3b58a6eb6aa2b3a", "fusion_lat": 0.0, "type": "electric_scooter", "lat": 38.90964533333333, "is_reserved": 0, "is_disabled": 0, "fusion_lon": 0.0, "bike_id": "e1b5ba978e08268ec3b58a6eb6aa2b3a", "lon": -77.02300083333333, "rental_uris": {"ios": "https://dc.lft.to/lastmile_qr_scan", "android": "https://dc.lft.to/lastmile_qr_scan"}}, {"name": "defac16418f646b62c3509184c5c92d5", "fusion_lat": 0.0, "type": "electric_scooter", "lat": 38.9224145, "is_reserved": 0, "is_disabled": 0, "fusion_lon": 0.0, "bike_id": "defac16418f646b62c3509184c5c92d5", "lon": -77.03663116666667, "rental_uris": {"ios": "https://dc.lft.to/lastmile_qr_scan", "android": "https://dc.lft.to/lastmile_qr_scan"}}, {"name": "641d63eb07779bac7f6e565b69e16154", "fusion_lat": 0.0, "type": "electric_scooter", "lat": 38.931000833333336, "is_reserved": 0, "is_disabled": 0, "fusion_lon": 0.0, "bike_id": "641d63eb07779bac7f6e565b69e16154", "lon": -77.02457683333333, "rental_uris": {"ios": "https://dc.lft.to/lastmile_qr_scan", "android": "https://dc.lft.to/lastmile_qr_scan"}}, {"name": "b62179106fbc69ad10e617ff30610735", "fusion_lat": 0.0, "type": "electric_scooter", "lat": 38.92458833333333, "is_reserved": 0, "is_disabled": 0, "fusion_lon": 0.0, "bike_id": "b62179106fbc69ad10e617ff30610735", "lon": -77.0328095, "rental_uris": {"ios": "https://dc.lft.to/lastmile_qr_scan", "android": "https://dc.lft.to/lastmile_qr_scan"}}, {"name": "124f505bb8aed2d75654658ca11df7e9", "fusion_lat": 0.0, "type": "electric_bike", "lat": 38.85689516666667, "is_reserved": 0, "is_disabled": 0, "fusion_lon": 0.0, "bike_id": "124f505bb8aed2d75654658ca11df7e9", "lon": -77.08535766666667, "rental_uris": {"ios": "https://dc.lft.to/lastmile_qr_scan", "android": "https://dc.lft.to/lastmile_qr_scan"}}, {"name": "3452bf6b41079f0bca1a6c3a6d117a5e", "fusion_lat": 0.0, "type": "electric_bike", "lat": 38.8075525, "is_reserved": 0, "is_disabled": 0, "fusion_lon": 0.0, "bike_id": "3452bf6b41079f0bca1a6c3a6d117a5e", "lon": -77.09456416666667, "rental_uris": {"ios": "https://dc.lft.to/lastmile_qr_scan", "android": "https://dc.lft.to/lastmile_qr_scan"}}, {"name": "d8a8762643ace6eb5c092dc0ddf89802", "fusion_lat": 0.0, "type": "electric_scooter", "lat": 38.8812225, "is_reserved": 0, "is_disabled": 0, "fusion_lon": 0.0, "bike_id": "d8a8762643ace6eb5c092dc0ddf89802", "lon": -76.9901655, "rental_uris": {"ios": "https://dc.lft.to/lastmile_qr_scan", "android": "https://dc.lft.to/lastmile_qr_scan"}}, {"name": "d69c2278d9cfad5ba2743fc5157db638", "fusion_lat": 0.0, "type": "electric_scooter", "lat": 38.921992, "is_reserved": 0, "is_disabled": 0, "fusion_lon": 0.0, "bike_id": "d69c2278d9cfad5ba2743fc5157db638", "lon": -77.02432966666667, "rental_uris": {"ios": "https://dc.lft.to/lastmile_qr_scan", "android": "https://dc.lft.to/lastmile_qr_scan"}}, {"name": "4df1e9aa98c00dabcab3413487d27a1c", "fusion_lat": 0.0, "type": "electric_scooter", "lat": 38.920321, "is_reserved": 0, "is_disabled": 0, "fusion_lon": 0.0, "bike_id": "4df1e9aa98c00dabcab3413487d27a1c", "lon": -77.034648, "rental_uris": {"ios": "https://dc.lft.to/lastmile_qr_scan", "android": "https://dc.lft.to/lastmile_qr_scan"}}, {"name": "e218e6e7fdfd79d0826f42b6f188e9ce", "fusion_lat": 0.0, "type": "electric_scooter", "lat": 38.930672, "is_reserved": 0, "is_disabled": 0, "fusion_lon": 0.0, "bike_id": "e218e6e7fdfd79d0826f42b6f188e9ce", "lon": -77.029786, "rental_uris": {"ios": "https://dc.lft.to/lastmile_qr_scan", "android": "https://dc.lft.to/lastmile_qr_scan"}}, {"name": "e4e11402fe22f1661da5522129dc52da", "fusion_lat": 0.0, "type": "electric_scooter", "lat": 38.939665166666664, "is_reserved": 0, "is_disabled": 0, "fusion_lon": 0.0, "bike_id": "e4e11402fe22f1661da5522129dc52da", "lon": -77.02753383333334, "rental_uris": {"ios": "https://dc.lft.to/lastmile_qr_scan", "android": "https://dc.lft.to/lastmile_qr_scan"}}, {"name": "33b727adf00097c4a457dec8d4e5447b", "fusion_lat": 0.0, "type": "electric_scooter", "lat": 38.904039833333336, "is_reserved": 0, "is_disabled": 0, "fusion_lon": 0.0, "bike_id": "33b727adf00097c4a457dec8d4e5447b", "lon": -77.03441133333334, "rental_uris": {"ios": "https://dc.lft.to/lastmile_qr_scan", "android": "https://dc.lft.to/lastmile_qr_scan"}}, {"name": "526553c532f8681fd7eec674870881e2", "fusion_lat": 0.0, "type": "electric_bike", "lat": 38.99941483333333, "is_reserved": 0, "is_disabled": 0, "fusion_lon": 0.0, "bike_id": "526553c532f8681fd7eec674870881e2", "lon": -77.017727, "rental_uris": {"ios": "https://dc.lft.to/lastmile_qr_scan", "android": "https://dc.lft.to/lastmile_qr_scan"}}, {"name": "0a31bffd005ca7ab667b996b33683742", "fusion_lat": 0.0, "type": "electric_scooter", "lat": 38.910399, "is_reserved": 0, "is_disabled": 0, "fusion_lon": 0.0, "bike_id": "0a31bffd005ca7ab667b996b33683742", "lon": -77.02389883333333, "rental_uris": {"ios": "https://dc.lft.to/lastmile_qr_scan", "android": "https://dc.lft.to/lastmile_qr_scan"}}, {"name": "41c9e3a8deda6056e6712766d22bde1c", "fusion_lat": 0.0, "type": "electric_scooter", "lat": 38.9147935, "is_reserved": 0, "is_disabled": 0, "fusion_lon": 0.0, "bike_id": "41c9e3a8deda6056e6712766d22bde1c", "lon": -77.02162116666666, "rental_uris": {"ios": "https://dc.lft.to/lastmile_qr_scan", "android": "https://dc.lft.to/lastmile_qr_scan"}}, {"name": "8c2792564ef85ebe6a81a484e753d0a7", "fusion_lat": 0.0, "type": "electric_bike", "lat": 38.91757916666667, "is_reserved": 0, "is_disabled": 0, "fusion_lon": 0.0, "bike_id": "8c2792564ef85ebe6a81a484e753d0a7", "lon": -77.01607416666667, "rental_uris": {"ios": "https://dc.lft.to/lastmile_qr_scan", "android": "https://dc.lft.to/lastmile_qr_scan"}}, {"name": "6f3b9036297c7f8c92429d477f464cea", "fusion_lat": 0.0, "type": "electric_scooter", "lat": 38.897689166666666, "is_reserved": 0, "is_disabled": 0, "fusion_lon": 0.0, "bike_id": "6f3b9036297c7f8c92429d477f464cea", "lon": -76.97725116666666, "rental_uris": {"ios": "https://dc.lft.to/lastmile_qr_scan", "android": "https://dc.lft.to/lastmile_qr_scan"}}, {"name": "9e6936ee3c8a6ad314548f613dd5b215", "fusion_lat": 0.0, "type": "electric_scooter", "lat": 38.944443, "is_reserved": 0, "is_disabled": 0, "fusion_lon": 0.0, "bike_id": "9e6936ee3c8a6ad314548f613dd5b215", "lon": -77.0328195, "rental_uris": {"ios": "https://dc.lft.to/lastmile_qr_scan", "android": "https://dc.lft.to/lastmile_qr_scan"}}, {"name": "c580db6821874f3c8091bdaf1de68a30", "fusion_lat": 0.0, "type": "electric_scooter", "lat": 38.93733, "is_reserved": 0, "is_disabled": 0, "fusion_lon": 0.0, "bike_id": "c580db6821874f3c8091bdaf1de68a30", "lon": -77.032661, "rental_uris": {"ios": "https://dc.lft.to/lastmile_qr_scan", "android": "https://dc.lft.to/lastmile_qr_scan"}}, {"name": "06fbb47faceb5817cecbe319f23d1eeb", "fusion_lat": 0.0, "type": "electric_scooter", "lat": 38.915644666666665, "is_reserved": 0, "is_disabled": 0, "fusion_lon": 0.0, "bike_id": "06fbb47faceb5817cecbe319f23d1eeb", "lon": -77.014183, "rental_uris": {"ios": "https://dc.lft.to/lastmile_qr_scan", "android": "https://dc.lft.to/lastmile_qr_scan"}}, {"name": "48ef106656c3c4dc3dc2f7b65210b75e", "fusion_lat": 0.0, "type": "electric_scooter", "lat": 38.922872, "is_reserved": 0, "is_disabled": 0, "fusion_lon": 0.0, "bike_id": "48ef106656c3c4dc3dc2f7b65210b75e", "lon": -77.03663116666667, "rental_uris": {"ios": "https://dc.lft.to/lastmile_qr_scan", "android": "https://dc.lft.to/lastmile_qr_scan"}}, {"name": "c6fc84749c2edb758b8f3e14008d74b5", "fusion_lat": 0.0, "type": "electric_bike", "lat": 38.85413233333333, "is_reserved": 0, "is_disabled": 0, "fusion_lon": 0.0, "bike_id": "c6fc84749c2edb758b8f3e14008d74b5", "lon": -77.118322, "rental_uris": {"ios": "https://dc.lft.to/lastmile_qr_scan", "android": "https://dc.lft.to/lastmile_qr_scan"}}, {"name": "80e99a3431583ab20480511c7ef1346b", "fusion_lat": 0.0, "type": "electric_bike", "lat": 38.94606816666667, "is_reserved": 0, "is_disabled": 0, "fusion_lon": 0.0, "bike_id": "80e99a3431583ab20480511c7ef1346b", "lon": -77.0298205, "rental_uris": {"ios": "https://dc.lft.to/lastmile_qr_scan", "android": "https://dc.lft.to/lastmile_qr_scan"}}, {"name": "57e1474e468aa5389471321be5c1f4d4", "fusion_lat": 0.0, "type": "electric_scooter", "lat": 38.91660983333333, "is_reserved": 0, "is_disabled": 0, "fusion_lon": 0.0, "bike_id": "57e1474e468aa5389471321be5c1f4d4", "lon": -77.02291366666667, "rental_uris": {"ios": "https://dc.lft.to/lastmile_qr_scan", "android": "https://dc.lft.to/lastmile_qr_scan"}}, {"name": "d0fcade97746a49d2aab81e109decc16", "fusion_lat": 0.0, "type": "electric_scooter", "lat": 38.90964433333333, "is_reserved": 0, "is_disabled": 0, "fusion_lon": 0.0, "bike_id": "d0fcade97746a49d2aab81e109decc16", "lon": -77.011382, "rental_uris": {"ios": "https://dc.lft.to/lastmile_qr_scan", "android": "https://dc.lft.to/lastmile_qr_scan"}}, {"name": "bbe5f15cf74379533f14aa817caf9dbb", "fusion_lat": 0.0, "type": "electric_scooter", "lat": 38.9268545, "is_reserved": 0, "is_disabled": 0, "fusion_lon": 0.0, "bike_id": "bbe5f15cf74379533f14aa817caf9dbb", "lon": -77.06645166666667, "rental_uris": {"ios": "https://dc.lft.to/lastmile_qr_scan", "android": "https://dc.lft.to/lastmile_qr_scan"}}, {"name": "7f03155ede172f7d3a54753f9c7579fd", "fusion_lat": 0.0, "type": "electric_scooter", "lat": 38.89486383333333, "is_reserved": 0, "is_disabled": 0, "fusion_lon": 0.0, "bike_id": "7f03155ede172f7d3a54753f9c7579fd", "lon": -76.94875316666666, "rental_uris": {"ios": "https://dc.lft.to/lastmile_qr_scan", "android": "https://dc.lft.to/lastmile_qr_scan"}}, {"name": "fd134856cdcc3b09de36365e791b5d62", "fusion_lat": 0.0, "type": "electric_scooter", "lat": 38.9180625, "is_reserved": 0, "is_disabled": 0, "fusion_lon": 0.0, "bike_id": "fd134856cdcc3b09de36365e791b5d62", "lon": -77.0683425, "rental_uris": {"ios": "https://dc.lft.to/lastmile_qr_scan", "android": "https://dc.lft.to/lastmile_qr_scan"}}, {"name": "466aae6908fea5c217d33e4c117c710e", "fusion_lat": 0.0, "type": "electric_scooter", "lat": 38.90536083333333, "is_reserved": 0, "is_disabled": 0, "fusion_lon": 0.0, "bike_id": "466aae6908fea5c217d33e4c117c710e", "lon": -77.0503525, "rental_uris": {"ios": "https://dc.lft.to/lastmile_qr_scan", "android": "https://dc.lft.to/lastmile_qr_scan"}}, {"name": "aff688c09463652ca860e09cffce1e01", "fusion_lat": 0.0, "type": "electric_scooter", "lat": 38.909699, "is_reserved": 0, "is_disabled": 0, "fusion_lon": 0.0, "bike_id": "aff688c09463652ca860e09cffce1e01", "lon": -77.01694916666666, "rental_uris": {"ios": "https://dc.lft.to/lastmile_qr_scan", "android": "https://dc.lft.to/lastmile_qr_scan"}}, {"name": "3d5deb850528ac10727c7dbed07d2474", "fusion_lat": 0.0, "type": "electric_scooter", "lat": 38.91634483333333, "is_reserved": 0, "is_disabled": 0, "fusion_lon": 0.0, "bike_id": "3d5deb850528ac10727c7dbed07d2474", "lon": -77.00113116666667, "rental_uris": {"ios": "https://dc.lft.to/lastmile_qr_scan", "android": "https://dc.lft.to/lastmile_qr_scan"}}, {"name": "3fb74f439cbb90e46687a59fc60b25a0", "fusion_lat": 0.0, "type": "electric_scooter", "lat": 38.975027833333336, "is_reserved": 0, "is_disabled": 0, "fusion_lon": 0.0, "bike_id": "3fb74f439cbb90e46687a59fc60b25a0", "lon": -77.016889, "rental_uris": {"ios": "https://dc.lft.to/lastmile_qr_scan", "android": "https://dc.lft.to/lastmile_qr_scan"}}, {"name": "734e4f5adf99fc8369887f929945b8cb", "fusion_lat": 0.0, "type": "electric_scooter", "lat": 38.89663566666667, "is_reserved": 0, "is_disabled": 0, "fusion_lon": 0.0, "bike_id": "734e4f5adf99fc8369887f929945b8cb", "lon": -77.02587966666667, "rental_uris": {"ios": "https://dc.lft.to/lastmile_qr_scan", "android": "https://dc.lft.to/lastmile_qr_scan"}}, {"name": "bc9e73effb90996b772c74e9a04a05b9", "fusion_lat": 0.0, "type": "electric_scooter", "lat": 38.911932, "is_reserved": 0, "is_disabled": 0, "fusion_lon": 0.0, "bike_id": "bc9e73effb90996b772c74e9a04a05b9", "lon": -77.06097716666666, "rental_uris": {"ios": "https://dc.lft.to/lastmile_qr_scan", "android": "https://dc.lft.to/lastmile_qr_scan"}}, {"name": "363b720bf18a0e30b9e850ceefd542c9", "fusion_lat": 0.0, "type": "electric_scooter", "lat": 38.90141283333333, "is_reserved": 0, "is_disabled": 0, "fusion_lon": 0.0, "bike_id": "363b720bf18a0e30b9e850ceefd542c9", "lon": -77.03969633333334, "rental_uris": {"ios": "https://dc.lft.to/lastmile_qr_scan", "android": "https://dc.lft.to/lastmile_qr_scan"}}, {"name": "32e41385346b4078d5915588b423d52b", "fusion_lat": 0.0, "type": "electric_scooter", "lat": 38.89000716666666, "is_reserved": 0, "is_disabled": 0, "fusion_lon": 0.0, "bike_id": "32e41385346b4078d5915588b423d52b", "lon": -76.95414816666667, "rental_uris": {"ios": "https://dc.lft.to/lastmile_qr_scan", "android": "https://dc.lft.to/lastmile_qr_scan"}}, {"name": "3b7f0ed013e4b7e9e32068c3cb552dfb", "fusion_lat": 0.0, "type": "electric_scooter", "lat": 38.902278833333334, "is_reserved": 0, "is_disabled": 0, "fusion_lon": 0.0, "bike_id": "3b7f0ed013e4b7e9e32068c3cb552dfb", "lon": -77.01762883333333, "rental_uris": {"ios": "https://dc.lft.to/lastmile_qr_scan", "android": "https://dc.lft.to/lastmile_qr_scan"}}, {"name": "60a7f2a9daa8f50afa3bddb722628c42", "fusion_lat": 0.0, "type": "electric_scooter", "lat": 38.92344533333333, "is_reserved": 0, "is_disabled": 0, "fusion_lon": 0.0, "bike_id": "60a7f2a9daa8f50afa3bddb722628c42", "lon": -77.05016133333334, "rental_uris": {"ios": "https://dc.lft.to/lastmile_qr_scan", "android": "https://dc.lft.to/lastmile_qr_scan"}}, {"name": "e4e8b8c0f0c510496413ad70aa6c6115", "fusion_lat": 0.0, "type": "electric_scooter", "lat": 38.84300866666667, "is_reserved": 0, "is_disabled": 0, "fusion_lon": 0.0, "bike_id": "e4e8b8c0f0c510496413ad70aa6c6115", "lon": -76.99950633333333, "rental_uris": {"ios": "https://dc.lft.to/lastmile_qr_scan", "android": "https://dc.lft.to/lastmile_qr_scan"}}, {"name": "e4c158af756ed209daf2bc1ac3410593", "fusion_lat": 0.0, "type": "electric_bike", "lat": 38.935789, "is_reserved": 0, "is_disabled": 0, "fusion_lon": 0.0, "bike_id": "e4c158af756ed209daf2bc1ac3410593", "lon": -77.02126633333333, "rental_uris": {"ios": "https://dc.lft.to/lastmile_qr_scan", "android": "https://dc.lft.to/lastmile_qr_scan"}}, {"name": "43f69abbc561fdeac13a6338b3d8f99c", "fusion_lat": 0.0, "type": "electric_scooter", "lat": 38.91704716666667, "is_reserved": 0, "is_disabled": 0, "fusion_lon": 0.0, "bike_id": "43f69abbc561fdeac13a6338b3d8f99c", "lon": -77.03171116666667, "rental_uris": {"ios": "https://dc.lft.to/lastmile_qr_scan", "android": "https://dc.lft.to/lastmile_qr_scan"}}, {"name": "35c4ae6a3357694bedd819a2849eea99", "fusion_lat": 0.0, "type": "electric_scooter", "lat": 38.92292916666667, "is_reserved": 0, "is_disabled": 0, "fusion_lon": 0.0, "bike_id": "35c4ae6a3357694bedd819a2849eea99", "lon": -77.029604, "rental_uris": {"ios": "https://dc.lft.to/lastmile_qr_scan", "android": "https://dc.lft.to/lastmile_qr_scan"}}, {"name": "1394056536d38cd60d0622039e1ee607", "fusion_lat": 0.0, "type": "electric_scooter", "lat": 38.9062725, "is_reserved": 0, "is_disabled": 0, "fusion_lon": 0.0, "bike_id": "1394056536d38cd60d0622039e1ee607", "lon": -77.005684, "rental_uris": {"ios": "https://dc.lft.to/lastmile_qr_scan", "android": "https://dc.lft.to/lastmile_qr_scan"}}, {"name": "291275d9d6d18c4c02c5271ad24d5994", "fusion_lat": 0.0, "type": "electric_scooter", "lat": 38.900251833333336, "is_reserved": 0, "is_disabled": 0, "fusion_lon": 0.0, "bike_id": "291275d9d6d18c4c02c5271ad24d5994", "lon": -77.00088916666667, "rental_uris": {"ios": "https://dc.lft.to/lastmile_qr_scan", "android": "https://dc.lft.to/lastmile_qr_scan"}}, {"name": "6420facad56beec66fcc54613be99764", "fusion_lat": 0.0, "type": "electric_scooter", "lat": 38.9204985, "is_reserved": 0, "is_disabled": 0, "fusion_lon": 0.0, "bike_id": "6420facad56beec66fcc54613be99764", "lon": -77.02375383333333, "rental_uris": {"ios": "https://dc.lft.to/lastmile_qr_scan", "android": "https://dc.lft.to/lastmile_qr_scan"}}, {"name": "e8c67230626451f7df1862e67bbf9927", "fusion_lat": 0.0, "type": "electric_scooter", "lat": 38.9140625, "is_reserved": 0, "is_disabled": 0, "fusion_lon": 0.0, "bike_id": "e8c67230626451f7df1862e67bbf9927", "lon": -77.02231033333334, "rental_uris": {"ios": "https://dc.lft.to/lastmile_qr_scan", "android": "https://dc.lft.to/lastmile_qr_scan"}}, {"name": "d5187a02edbaad96ed28edef170bdbac", "fusion_lat": 0.0, "type": "electric_scooter", "lat": 38.87499916666667, "is_reserved": 0, "is_disabled": 0, "fusion_lon": 0.0, "bike_id": "d5187a02edbaad96ed28edef170bdbac", "lon": -76.99796333333333, "rental_uris": {"ios": "https://dc.lft.to/lastmile_qr_scan", "android": "https://dc.lft.to/lastmile_qr_scan"}}, {"name": "b5cff5756156a317b96a66ebe72d4298", "fusion_lat": 0.0, "type": "electric_bike", "lat": 38.917038833333336, "is_reserved": 0, "is_disabled": 0, "fusion_lon": 0.0, "bike_id": "b5cff5756156a317b96a66ebe72d4298", "lon": -77.04285716666666, "rental_uris": {"ios": "https://dc.lft.to/lastmile_qr_scan", "android": "https://dc.lft.to/lastmile_qr_scan"}}, {"name": "04c4c9e1948078889634362acdadaa41", "fusion_lat": 0.0, "type": "electric_scooter", "lat": 38.94312516666667, "is_reserved": 0, "is_disabled": 0, "fusion_lon": 0.0, "bike_id": "04c4c9e1948078889634362acdadaa41", "lon": -77.0249025, "rental_uris": {"ios": "https://dc.lft.to/lastmile_qr_scan", "android": "https://dc.lft.to/lastmile_qr_scan"}}, {"name": "f9427877a4f3b03795b2d41757e89183", "fusion_lat": 0.0, "type": "electric_scooter", "lat": 38.9298165, "is_reserved": 0, "is_disabled": 0, "fusion_lon": 0.0, "bike_id": "f9427877a4f3b03795b2d41757e89183", "lon": -77.01450483333333, "rental_uris": {"ios": "https://dc.lft.to/lastmile_qr_scan", "android": "https://dc.lft.to/lastmile_qr_scan"}}, {"name": "b91608f91387e95206bcd760a1a0f03b", "fusion_lat": 0.0, "type": "electric_scooter", "lat": 38.91249283333333, "is_reserved": 0, "is_disabled": 0, "fusion_lon": 0.0, "bike_id": "b91608f91387e95206bcd760a1a0f03b", "lon": -77.03843983333333, "rental_uris": {"ios": "https://dc.lft.to/lastmile_qr_scan", "android": "https://dc.lft.to/lastmile_qr_scan"}}, {"name": "b8939e047699c176e83c3b4729e300d9", "fusion_lat": 0.0, "type": "electric_bike", "lat": 38.862766, "is_reserved": 0, "is_disabled": 0, "fusion_lon": 0.0, "bike_id": "b8939e047699c176e83c3b4729e300d9", "lon": -77.05969766666666, "rental_uris": {"ios": "https://dc.lft.to/lastmile_qr_scan", "android": "https://dc.lft.to/lastmile_qr_scan"}}, {"name": "3c6c0d31a1a955a57ba16652315cd6f3", "fusion_lat": 0.0, "type": "electric_scooter", "lat": 38.86247766666666, "is_reserved": 0, "is_disabled": 0, "fusion_lon": 0.0, "bike_id": "3c6c0d31a1a955a57ba16652315cd6f3", "lon": -76.99534033333333, "rental_uris": {"ios": "https://dc.lft.to/lastmile_qr_scan", "android": "https://dc.lft.to/lastmile_qr_scan"}}, {"name": "101ccb6d965ccfd16ec449a33379dc6f", "fusion_lat": 0.0, "type": "electric_scooter", "lat": 38.9008655, "is_reserved": 0, "is_disabled": 0, "fusion_lon": 0.0, "bike_id": "101ccb6d965ccfd16ec449a33379dc6f", "lon": -77.05030866666667, "rental_uris": {"ios": "https://dc.lft.to/lastmile_qr_scan", "android": "https://dc.lft.to/lastmile_qr_scan"}}, {"name": "5e7330443cbc74bcbddace7c71833c0a", "fusion_lat": 0.0, "type": "electric_scooter", "lat": 38.88844016666667, "is_reserved": 0, "is_disabled": 0, "fusion_lon": 0.0, "bike_id": "5e7330443cbc74bcbddace7c71833c0a", "lon": -77.049074, "rental_uris": {"ios": "https://dc.lft.to/lastmile_qr_scan", "android": "https://dc.lft.to/lastmile_qr_scan"}}, {"name": "f4266a389e34ff399776396e7a70edd1", "fusion_lat": 0.0, "type": "electric_bike", "lat": 38.83990983333333, "is_reserved": 0, "is_disabled": 0, "fusion_lon": 0.0, "bike_id": "f4266a389e34ff399776396e7a70edd1", "lon": -77.00565866666666, "rental_uris": {"ios": "https://dc.lft.to/lastmile_qr_scan", "android": "https://dc.lft.to/lastmile_qr_scan"}}, {"name": "3e60abd52636b89ccda5c646ffacfb24", "fusion_lat": 0.0, "type": "electric_scooter", "lat": 38.91267916666666, "is_reserved": 0, "is_disabled": 0, "fusion_lon": 0.0, "bike_id": "3e60abd52636b89ccda5c646ffacfb24", "lon": -77.0383085, "rental_uris": {"ios": "https://dc.lft.to/lastmile_qr_scan", "android": "https://dc.lft.to/lastmile_qr_scan"}}, {"name": "da7fba339c1ab770fae9e2ec69efaf0d", "fusion_lat": 0.0, "type": "electric_scooter", "lat": 38.9123025, "is_reserved": 0, "is_disabled": 0, "fusion_lon": 0.0, "bike_id": "da7fba339c1ab770fae9e2ec69efaf0d", "lon": -77.03188316666666, "rental_uris": {"ios": "https://dc.lft.to/lastmile_qr_scan", "android": "https://dc.lft.to/lastmile_qr_scan"}}, {"name": "69f7f52e7b36ae08fab73fa30c64d846", "fusion_lat": 0.0, "type": "electric_scooter", "lat": 38.895864833333334, "is_reserved": 0, "is_disabled": 0, "fusion_lon": 0.0, "bike_id": "69f7f52e7b36ae08fab73fa30c64d846", "lon": -76.99364333333334, "rental_uris": {"ios": "https://dc.lft.to/lastmile_qr_scan", "android": "https://dc.lft.to/lastmile_qr_scan"}}, {"name": "3ecb11e19ef198aa196eccff99be1809", "fusion_lat": 0.0, "type": "electric_scooter", "lat": 38.892183, "is_reserved": 0, "is_disabled": 0, "fusion_lon": 0.0, "bike_id": "3ecb11e19ef198aa196eccff99be1809", "lon": -77.02229416666667, "rental_uris": {"ios": "https://dc.lft.to/lastmile_qr_scan", "android": "https://dc.lft.to/lastmile_qr_scan"}}, {"name": "629fb35b3466d83cad91eb959ddeb3cf", "fusion_lat": 0.0, "type": "electric_scooter", "lat": 38.92710183333333, "is_reserved": 0, "is_disabled": 0, "fusion_lon": 0.0, "bike_id": "629fb35b3466d83cad91eb959ddeb3cf", "lon": -77.03731516666667, "rental_uris": {"ios": "https://dc.lft.to/lastmile_qr_scan", "android": "https://dc.lft.to/lastmile_qr_scan"}}, {"name": "9e36e93fc8f3f41f1e0f3d47115097bd", "fusion_lat": 0.0, "type": "electric_scooter", "lat": 38.8991935, "is_reserved": 0, "is_disabled": 0, "fusion_lon": 0.0, "bike_id": "9e36e93fc8f3f41f1e0f3d47115097bd", "lon": -77.0151385, "rental_uris": {"ios": "https://dc.lft.to/lastmile_qr_scan", "android": "https://dc.lft.to/lastmile_qr_scan"}}, {"name": "595ffdd2bc0f19bb9466be0200691586", "fusion_lat": 0.0, "type": "electric_scooter", "lat": 38.90236016666667, "is_reserved": 0, "is_disabled": 0, "fusion_lon": 0.0, "bike_id": "595ffdd2bc0f19bb9466be0200691586", "lon": -77.0534535, "rental_uris": {"ios": "https://dc.lft.to/lastmile_qr_scan", "android": "https://dc.lft.to/lastmile_qr_scan"}}, {"name": "1cdd2c1e80323a0ac7687747e60e538b", "fusion_lat": 0.0, "type": "electric_scooter", "lat": 38.86212033333334, "is_reserved": 0, "is_disabled": 0, "fusion_lon": 0.0, "bike_id": "1cdd2c1e80323a0ac7687747e60e538b", "lon": -76.994696, "rental_uris": {"ios": "https://dc.lft.to/lastmile_qr_scan", "android": "https://dc.lft.to/lastmile_qr_scan"}}, {"name": "aaf39272b536d81a62536245b79586c3", "fusion_lat": 0.0, "type": "electric_bike", "lat": 38.815130833333335, "is_reserved": 0, "is_disabled": 0, "fusion_lon": 0.0, "bike_id": "aaf39272b536d81a62536245b79586c3", "lon": -77.12656583333333, "rental_uris": {"ios": "https://dc.lft.to/lastmile_qr_scan", "android": "https://dc.lft.to/lastmile_qr_scan"}},