{"data": {"bikes": [{"rental_uris": {"ios": "https://dc.lft.to/lastmile_qr_scan", "android": "https://dc.lft.to/lastmile_qr_scan"}, "type": "electric_scooter", "name": "ffd52dfe90cc2438a5454586a3a96f4a", "is_reserved": 0, "lon": -77.03864383333334, "is_disabled": 0, "fusion_lat": 0.0, "lat": 38.9111765, "bike_id": "ffd52dfe90cc2438a5454586a3a96f4a", "fusion_lon": 0.0}, {"rental_uris": {"ios": "https://dc.lft.to/lastmile_qr_scan", "android": "https://dc.lft.to/lastmile_qr_scan"}, "type": "electric_scooter", "name": "61cbb311ede96e00a45a248d050df366", "is_reserved": 0, "lon": -77.02780933333334, "is_disabled": 0, "fusion_lat": 0.0, "lat": 38.927685333333336, "bike_id": "61cbb311ede96e00a45a248d050df366", "fusion_lon": 0.0}, {"rental_uris": {"ios": "https://dc.lft.to/lastmile_qr_scan", "android": "https://dc.lft.to/lastmile_qr_scan"}, "type": "electric_scooter", "name": "de1fd34b103615350f7615293780f727", "is_reserved": 0, "lon": -77.0313725, "is_disabled": 0, "fusion_lat": 0.0, "lat": 38.91825033333333, "bike_id": "de1fd34b103615350f7615293780f727", "fusion_lon": 0.0}, {"rental_uris": {"ios": "https://dc.lft.to/lastmile_qr_scan", "android": "https://dc.lft.to/lastmile_qr_scan"}, "type": "electric_scooter", "name": "0b7686ac489db035a4c183389f9ab93e", "is_reserved": 0, "lon": -77.04367783333333, "is_disabled": 0, "fusion_lat": 0.0, "lat": 38.911221, "bike_id": "0b7686ac489db035a4c183389f9ab93e", "fusion_lon": 0.0}, {"rental_uris": {"ios": "https://dc.lft.to/lastmile_qr_scan", "android": "https://dc.lft.to/lastmile_qr_scan"}, "type": "electric_scooter", "name": "6fb581b26c098057c0f6c6dff6b7d4b4", "is_reserved": 0, "lon": -77.03218516666666, "is_disabled": 0, "fusion_lat": 0.0, "lat": 38.91542916666667, "bike_id": "6fb581b26c098057c0f6c6dff6b7d4b4", "fusion_lon": 0.0}, {"rental_uris": {"ios": "https://dc.lft.to/lastmile_qr_scan", "android": "https://dc.lft.to/lastmile_qr_scan"}, "type": "electric_scooter", "name": "43d07bc28d65c34be09dbbdb109d78c8", "is_reserved": 0, "lon": -77.03954383333334, "is_disabled": 0, "fusion_lat": 0.0, "lat": 38.892517833333336, "bike_id": "43d07bc28d65c34be09dbbdb109d78c8", "fusion_lon": 0.0}, {"rental_uris": {"ios": "https://dc.lft.to/lastmile_qr_scan", "android": "https://dc.lft.to/lastmile_qr_scan"}, "type": "electric_bike", "name": "d899648d90729b2ef24bfe001df8b3e0", "is_reserved": 0, "lon": -76.95741833333334, "is_disabled": 0, "fusion_lat": 0.0, "lat": 38.888651333333335, "bike_id": "d899648d90729b2ef24bfe001df8b3e0", "fusion_lon": 0.0}, {"rental_uris": {"ios": "https://dc.lft.to/lastmile_qr_scan", "android": "https://dc.lft.to/lastmile_qr_scan"}, "type": "electric_scooter", "name": "b2f628237b00ac2e0ac316cf6f618b96", "is_reserved": 0, "lon": -77.06776383333333, "is_disabled": 0, "fusion_lat": 0.0, "lat": 38.908826833333336, "bike_id": "b2f628237b00ac2e0ac316cf6f618b96", "fusion_lon": 0.0}, {"rental_uris": {"ios": "https://dc.lft.to/lastmile_qr_scan", "android": "https://dc.lft.to/lastmile_qr_scan"}, "type": "electric_scooter", "name": "4c09288dd16b5c27b7d3b4dc5682a602", "is_reserved": 0, "lon": -77.02988083333334, "is_disabled": 0, "fusion_lat": 0.0, "lat": 38.9237895, "bike_id": "4c09288dd16b5c27b7d3b4dc5682a602", "fusion_lon": 0.0}, {"rental_uris": {"ios": "https://dc.lft.to/lastmile_qr_scan", "android": "https://dc.lft.to/lastmile_qr_scan"}, "type": "electric_scooter", "name": "faabf2a469f3118393abe8b68c44b7ff", "is_reserved": 0, "lon": -77.0375235, "is_disabled": 0, "fusion_lat": 0.0, "lat": 38.9321195, "bike_id": "faabf2a469f3118393abe8b68c44b7ff", "fusion_lon": 0.0}, {"rental_uris": {"ios": "https://dc.lft.to/lastmile_qr_scan", "android": "https://dc.lft.to/lastmile_qr_scan"}, "type": "electric_scooter", "name": "f6d21a530a26619e45334ebf06c8af2b", "is_reserved": 0, "lon": -76.94719466666666, "is_disabled": 0, "fusion_lat": 0.0, "lat": 38.89084416666667, "bike_id": "f6d21a530a26619e45334ebf06c8af2b", "fusion_lon": 0.0}, {"rental_uris": {"ios": "https://dc.lft.to/lastmile_qr_scan", "android": "https://dc.lft.to/lastmile_qr_scan"}, "type": "electric_scooter", "name": "bcba8ae78be5bec14691719412d7be18", "is_reserved": 0, "lon": -77.04571566666667, "is_disabled": 0, "fusion_lat": 0.0, "lat": 38.917858833333334, "bike_id": "bcba8ae78be5bec14691719412d7be18", "fusion_lon": 0.0}, {"rental_uris": {"ios": "https://dc.lft.to/lastmile_qr_scan", "android": "https://dc.lft.to/lastmile_qr_scan"}, "type": "electric_scooter", "name": "ee9ec0219787fc1a001938b18f6504f8", "is_reserved": 0, "lon": -77.02027066666666, "is_disabled": 0, "fusion_lat": 0.0, "lat": 38.936511833333334, "bike_id": "ee9ec0219787fc1a001938b18f6504f8", "fusion_lon": 0.0}, {"rental_uris": {"ios": "https://dc.lft.to/lastmile_qr_scan", "android": "https://dc.lft.to/lastmile_qr_scan"}, "type": "electric_scooter", "name": "deeb589326af945329fe93d6cbbe68c3", "is_reserved": 0, "lon": -76.9650975, "is_disabled": 0, "fusion_lat": 0.0, "lat": 38.876491666666666, "bike_id": "deeb589326af945329fe93d6cbbe68c3", "fusion_lon": 0.0}, {"rental_uris": {"ios": "https://dc.lft.to/lastmile_qr_scan", "android": "https://dc.lft.to/lastmile_qr_scan"}, "type": "electric_bike", "name": "4639877f071186e279f55addf0cf7cb0", "is_reserved": 0, "lon": -77.0664, "is_disabled": 0, "fusion_lat": 0.0, "lat": 38.949817333333336, "bike_id": "4639877f071186e279f55addf0cf7cb0", "fusion_lon": 0.0}, {"rental_uris": {"ios": "https://dc.lft.to/lastmile_qr_scan", "android": "https://dc.lft.to/lastmile_qr_scan"}, "type": "electric_scooter", "name": "f249459fc71d7272c661de9fd66f9e66", "is_reserved": 0, "lon": -77.04946316666667, "is_disabled": 0, "fusion_lat": 0.0, "lat": 38.90541, "bike_id": "f249459fc71d7272c661de9fd66f9e66", "fusion_lon": 0.0}, {"rental_uris": {"ios": "https://dc.lft.to/lastmile_qr_scan", "android": "https://dc.lft.to/lastmile_qr_scan"}, "type": "electric_scooter", "name": "0a714e5e23909e1af9b313e37d9d268a", "is_reserved": 0, "lon": -77.0321235, "is_disabled": 0, "fusion_lat": 0.0, "lat": 38.90900083333333, "bike_id": "0a714e5e23909e1af9b313e37d9d268a", "fusion_lon": 0.0}, {"rental_uris": {"ios": "https://dc.lft.to/lastmile_qr_scan", "android": "https://dc.lft.to/lastmile_qr_scan"}, "type": "electric_scooter", "name": "400a87a349889186c21bd87ee9767601", "is_reserved": 0, "lon": -77.0376575, "is_disabled": 0, "fusion_lat": 0.0, "lat": 38.92557, "bike_id": "400a87a349889186c21bd87ee9767601", "fusion_lon": 0.0}, {"rental_uris": {"ios": "https://dc.lft.to/lastmile_qr_scan", "android": "https://dc.lft.to/lastmile_qr_scan"}, "type": "electric_scooter", "name": "1abcd6aaf8a4869b1566fed035e072bb", "is_reserved": 0, "lon": -77.04679266666666, "is_disabled": 0, "fusion_lat": 0.0, "lat": 38.8923735, "bike_id": "1abcd6aaf8a4869b1566fed035e072bb", "fusion_lon": 0.0}, {"rental_uris": {"ios": "https://dc.lft.to/lastmile_qr_scan", "android": "https://dc.lft.to/lastmile_qr_scan"}, "type": "electric_scooter", "name": "402f5b73919021c744b7a2e8605228e1", "is_reserved": 0, "lon": -77.02232166666667, "is_disabled": 0, "fusion_lat": 0.0, "lat": 38.892270833333335, "bike_id": "402f5b73919021c744b7a2e8605228e1", "fusion_lon": 0.0}, {"rental_uris": {"ios": "https://dc.lft.to/lastmile_qr_scan", "android": "https://dc.lft.to/lastmile_qr_scan"}, "type": "electric_scooter", "name": "865d66c921f2f530afee8cf31a7216ef", "is_reserved": 0, "lon": -77.02829666666666, "is_disabled": 0, "fusion_lat": 0.0, "lat": 38.906292666666666, "bike_id": "865d66c921f2f530afee8cf31a7216ef", "fusion_lon": 0.0}, {"rental_uris": {"ios": "https://dc.lft.to/lastmile_qr_scan", "android": "https://dc.lft.to/lastmile_qr_scan"}, "type": "electric_scooter", "name": "27e126dcdfa2175c2705d52d8d1e3d67", "is_reserved": 0, "lon": -77.027618, "is_disabled": 0, "fusion_lat": 0.0, "lat": 38.91208433333333, "bike_id": "27e126dcdfa2175c2705d52d8d1e3d67", "fusion_lon": 0.0}, {"rental_uris": {"ios": "https://dc.lft.to/lastmile_qr_scan", "android": "https://dc.lft.to/lastmile_qr_scan"}, "type": "electric_scooter", "name": "1a87222f346f7ec6a49cb6cc07ca402e", "is_reserved": 0, "lon": -77.045954, "is_disabled": 0, "fusion_lat": 0.0, "lat": 38.91423316666667, "bike_id": "1a87222f346f7ec6a49cb6cc07ca402e", "fusion_lon": 0.0}, {"rental_uris": {"ios": "https://dc.lft.to/lastmile_qr_scan", "android": "https://dc.lft.to/lastmile_qr_scan"}, "type": "electric_scooter", "name": "4c30a486998958ce756e0f0c379f26d6", "is_reserved": 0, "lon": -77.02006816666666, "is_disabled": 0, "fusion_lat": 0.0, "lat": 38.89858733333333, "bike_id": "4c30a486998958ce756e0f0c379f26d6", "fusion_lon": 0.0}, {"rental_uris": {"ios": "https://dc.lft.to/lastmile_qr_scan", "android": "https://dc.lft.to/lastmile_qr_scan"}, "type": "electric_scooter", "name": "236701a49b8f1a34875fbda6c11eb80c", "is_reserved": 0, "lon": -77.03541033333333, "is_disabled": 0, "fusion_lat": 0.0, "lat": 38.90464566666667, "bike_id": "236701a49b8f1a34875fbda6c11eb80c", "fusion_lon": 0.0}, {"rental_uris": {"ios": "https://dc.lft.to/lastmile_qr_scan", "android": "https://dc.lft.to/lastmile_qr_scan"}, "type": "electric_scooter", "name": "f7b6e500bef5be713d5c82e38c7e7d73", "is_reserved": 0, "lon": -77.01081366666666, "is_disabled": 0, "fusion_lat": 0.0, "lat": 38.903384833333334, "bike_id": "f7b6e500bef5be713d5c82e38c7e7d73", "fusion_lon": 0.0}, {"rental_uris": {"ios": "https://dc.lft.to/lastmile_qr_scan", "android": "https://dc.lft.to/lastmile_qr_scan"}, "type": "electric_scooter", "name": "57a033b7c8547fdbff21da9a4b934cc5", "is_reserved": 0, "lon": -77.05604333333333, "is_disabled": 0, "fusion_lat": 0.0, "lat": 38.937000166666664, "bike_id": "57a033b7c8547fdbff21da9a4b934cc5", "fusion_lon": 0.0}, {"rental_uris": {"ios": "https://dc.lft.to/lastmile_qr_scan", "android": "https://dc.lft.to/lastmile_qr_scan"}, "type": "electric_scooter", "name": "048eee00c51a5dcb52cc215ca6c2ec70", "is_reserved": 0, "lon": -77.00759566666666, "is_disabled": 0, "fusion_lat": 0.0, "lat": 38.92678983333333, "bike_id": "048eee00c51a5dcb52cc215ca6c2ec70", "fusion_lon": 0.0}, {"rental_uris": {"ios": "https://dc.lft.to/lastmile_qr_scan", "android": "https://dc.lft.to/lastmile_qr_scan"}, "type": "electric_scooter", "name": "565fdceb34d901e6db1b9756dbfefc86", "is_reserved": 0, "lon": -77.036648, "is_disabled": 0, "fusion_lat": 0.0, "lat": 38.9176645, "bike_id": "565fdceb34d901e6db1b9756dbfefc86", "fusion_lon": 0.0}, {"rental_uris": {"ios": "https://dc.lft.to/lastmile_qr_scan", "android": "https://dc.lft.to/lastmile_qr_scan"}, "type": "electric_scooter", "name": "40832797f1ea3d34603fc44fec2e5e95", "is_reserved": 0, "lon": -76.99413033333333, "is_disabled": 0, "fusion_lat": 0.0, "lat": 38.920964, "bike_id": "40832797f1ea3d34603fc44fec2e5e95", "fusion_lon": 0.0}, {"rental_uris": {"ios": "https://dc.lft.to/lastmile_qr_scan", "android": "https://dc.lft.to/lastmile_qr_scan"}, "type": "electric_bike", "name": "c0e2965ced60080fb017bffe848ca049", "is_reserved": 0, "lon": -77.065209, "is_disabled": 0, "fusion_lat": 0.0, "lat": 38.90540983333333, "bike_id": "c0e2965ced60080fb017bffe848ca049", "fusion_lon": 0.0}, {"rental_uris": {"ios": "https://dc.lft.to/lastmile_qr_scan", "android": "https://dc.lft.to/lastmile_qr_scan"}, "type": "electric_scooter", "name": "197cc7709090f722cba38092ce4b36da", "is_reserved": 0, "lon": -77.00728833333334, "is_disabled": 0, "fusion_lat": 0.0, "lat": 38.87645233333333, "bike_id": "197cc7709090f722cba38092ce4b36da", "fusion_lon": 0.0}, {"rental_uris": {"ios": "https://dc.lft.to/lastmile_qr_scan", "android": "https://dc.lft.to/lastmile_qr_scan"}, "type": "electric_scooter", "name": "831cc9d8633b82c39b32dbac7281a7e8", "is_reserved": 0, "lon": -77.038218, "is_disabled": 0, "fusion_lat": 0.0, "lat": 38.91083066666667, "bike_id": "831cc9d8633b82c39b32dbac7281a7e8", "fusion_lon": 0.0}, {"rental_uris": {"ios": "https://dc.lft.to/lastmile_qr_scan", "android": "https://dc.lft.to/lastmile_qr_scan"}, "type": "electric_scooter", "name": "cf1c77dffc184c9f67d5d6a5f9e6264c", "is_reserved": 0, "lon": -77.03339066666666, "is_disabled": 0, "fusion_lat": 0.0, "lat": 38.928817333333335, "bike_id": "cf1c77dffc184c9f67d5d6a5f9e6264c", "fusion_lon": 0.0}, {"rental_uris": {"ios": "https://dc.lft.to/lastmile_qr_scan", "android": "https://dc.lft.to/lastmile_qr_scan"}, "type": "electric_scooter", "name": "6082a6dc4700ae433dc3ee9744b86498", "is_reserved": 0, "lon": -77.0502815, "is_disabled": 0, "fusion_lat": 0.0, "lat": 38.923604, "bike_id": "6082a6dc4700ae433dc3ee9744b86498", "fusion_lon": 0.0}, {"rental_uris": {"ios": "https://dc.lft.to/lastmile_qr_scan", "android": "https://dc.lft.to/lastmile_qr_scan"}, "type": "electric_scooter", "name": "47eadd430dab3d8e62368492ccb3f08d", "is_reserved": 0, "lon": -77.017669, "is_disabled": 0, "fusion_lat": 0.0, "lat": 38.883201166666666, "bike_id": "47eadd430dab3d8e62368492ccb3f08d", "fusion_lon": 0.0}, {"rental_uris": {"ios": "https://dc.lft.to/lastmile_qr_scan", "android": "https://dc.lft.to/lastmile_qr_scan"}, "type": "electric_scooter", "name": "054ea7d14dfded650ecee18a1241a4f4", "is_reserved": 0, "lon": -77.024119, "is_disabled": 0, "fusion_lat": 0.0, "lat": 38.90972683333333, "bike_id": "054ea7d14dfded650ecee18a1241a4f4", "fusion_lon": 0.0}, {"rental_uris": {"ios": "https://dc.lft.to/lastmile_qr_scan", "android": "https://dc.lft.to/lastmile_qr_scan"}, "type": "electric_scooter", "name": "bde79dc18f46ae7b48a49c3f78fb636e", "is_reserved": 0, "lon": -77.04485833333334, "is_disabled": 0, "fusion_lat": 0.0, "lat": 38.89339616666667, "bike_id": "bde79dc18f46ae7b48a49c3f78fb636e", "fusion_lon": 0.0}, {"rental_uris": {"ios": "https://dc.lft.to/lastmile_qr_scan", "android": "https://dc.lft.to/lastmile_qr_scan"}, "type": "electric_scooter", "name": "345902124b7a428406d1a62a36b2a78c", "is_reserved": 0, "lon": -77.02475083333333, "is_disabled": 0, "fusion_lat": 0.0, "lat": 38.918171, "bike_id": "345902124b7a428406d1a62a36b2a78c", "fusion_lon": 0.0}, {"rental_uris": {"ios": "https://dc.lft.to/lastmile_qr_scan", "android": "https://dc.lft.to/lastmile_qr_scan"}, "type": "electric_scooter", "name": "5f958a076fac894e932dc47a5e1f6cdd", "is_reserved": 0, "lon": -77.04408183333334, "is_disabled": 0, "fusion_lat": 0.0, "lat": 38.90123533333333, "bike_id": "5f958a076fac894e932dc47a5e1f6cdd", "fusion_lon": 0.0}, {"rental_uris": {"ios": "https://dc.lft.to/lastmile_qr_scan", "android": "https://dc.lft.to/lastmile_qr_scan"}, "type": "electric_scooter", "name": "0f12161688176cb291453ec2ae44a8c0", "is_reserved": 0, "lon": -77.02636016666666, "is_disabled": 0, "fusion_lat": 0.0, "lat": 38.89635333333333, "bike_id": "0f12161688176cb291453ec2ae44a8c0", "fusion_lon": 0.0}, {"rental_uris": {"ios": "https://dc.lft.to/lastmile_qr_scan", "android": "https://dc.lft.to/lastmile_qr_scan"}, "type": "electric_scooter", "name": "303681c30b92ee3b7ae8963beb4b11bb", "is_reserved": 0, "lon": -77.01368183333334, "is_disabled": 0, "fusion_lat": 0.0, "lat": 38.91940133333333, "bike_id": "303681c30b92ee3b7ae8963beb4b11bb", "fusion_lon": 0.0}, {"rental_uris": {"ios": "https://dc.lft.to/lastmile_qr_scan", "android": "https://dc.lft.to/lastmile_qr_scan"}, "type": "electric_scooter", "name": "0d6f69b22fcd5799925d6d66e439ed4e", "is_reserved": 0, "lon": -77.03247883333333, "is_disabled": 0, "fusion_lat": 0.0, "lat": 38.898127, "bike_id": "0d6f69b22fcd5799925d6d66e439ed4e", "fusion_lon": 0.0}, {"rental_uris": {"ios": "https://dc.lft.to/lastmile_qr_scan", "android": "https://dc.lft.to/lastmile_qr_scan"}, "type": "electric_scooter", "name": "6d7d49a7082b26ca1a7fe536cf9640ec", "is_reserved": 0, "lon": -77.03217866666667, "is_disabled": 0, "fusion_lat": 0.0, "lat": 38.90114833333333, "bike_id": "6d7d49a7082b26ca1a7fe536cf9640ec", "fusion_lon": 0.0}, {"rental_uris": {"ios": "https://dc.lft.to/lastmile_qr_scan", "android": "https://dc.lft.to/lastmile_qr_scan"}, "type": "electric_scooter", "name": "67482996ed2701760d4bcdb0d0b648b1", "is_reserved": 0, "lon": -77.06752133333333, "is_disabled": 0, "fusion_lat": 0.0, "lat": 38.9052075, "bike_id": "67482996ed2701760d4bcdb0d0b648b1", "fusion_lon": 0.0}, {"rental_uris": {"ios": "https://dc.lft.to/lastmile_qr_scan", "android": "https://dc.lft.to/lastmile_qr_scan"}, "type": "electric_scooter", "name": "ef227c8289670abfefcebdaff562c007", "is_reserved": 0, "lon": -77.04597183333334, "is_disabled": 0, "fusion_lat": 0.0, "lat": 38.918681166666666, "bike_id": "ef227c8289670abfefcebdaff562c007", "fusion_lon": 0.0}, {"rental_uris": {"ios": "https://dc.lft.to/lastmile_qr_scan", "android": "https://dc.lft.to/lastmile_qr_scan"}, "type": "electric_scooter", "name": "77e98609279546db0345d62072e65961", "is_reserved": 0, "lon": -77.05234066666667, "is_disabled": 0, "fusion_lat": 0.0, "lat": 38.8985745, "bike_id": "77e98609279546db0345d62072e65961", "fusion_lon": 0.0}, {"rental_uris": {"ios": "https://dc.lft.to/lastmile_qr_scan", "android": "https://dc.lft.to/lastmile_qr_scan"}, "type": "electric_scooter", "name": "7f32978c9922e5bdd8b2a5ed779f907a", "is_reserved": 0, "lon": -77.03830783333333, "is_disabled": 0, "fusion_lat": 0.0, "lat": 38.91117583333333, "bike_id": "7f32978c9922e5bdd8b2a5ed779f907a", "fusion_lon": 0.0}, {"rental_uris": {"ios": "https://dc.lft.to/lastmile_qr_scan", "android": "https://dc.lft.to/lastmile_qr_scan"}, "type": "electric_scooter", "name": "4ce93fb69fb289f7d7021094702c64d0", "is_reserved": 0, "lon": -77.0369965, "is_disabled": 0, "fusion_lat": 0.0, "lat": 38.932843166666665, "bike_id": "4ce93fb69fb289f7d7021094702c64d0", "fusion_lon": 0.0}, {"rental_uris": {"ios": "https://dc.lft.to/lastmile_qr_scan", "android": "https://dc.lft.to/lastmile_qr_scan"}, "type": "electric_scooter", "name": "9a021c486200cc57db9522ccc4417ff1", "is_reserved": 0, "lon": -77.053319, "is_disabled": 0, "fusion_lat": 0.0, "lat": 38.904507, "bike_id": "9a021c486200cc57db9522ccc4417ff1", "fusion_lon": 0.0}, {"rental_uris": {"ios": "https://dc.lft.to/lastmile_qr_scan", "android": "https://dc.lft.to/lastmile_qr_scan"}, "type": "electric_scooter", "name": "1253a3bc3464bc14dae44a928f95e736", "is_reserved": 0, "lon": -77.03243216666667, "is_disabled": 0, "fusion_lat": 0.0, "lat": 38.898987, "bike_id": "1253a3bc3464bc14dae44a928f95e736", "fusion_lon": 0.0}, {"rental_uris": {"ios": "https://dc.lft.to/lastmile_qr_scan", "android": "https://dc.lft.to/lastmile_qr_scan"}, "type": "electric_scooter", "name": "6877b66f236d97a120322439b117f447", "is_reserved": 0, "lon": -77.0307, "is_disabled": 0, "fusion_lat": 0.0, "lat": 38.90263133333333, "bike_id": "6877b66f236d97a120322439b117f447", "fusion_lon": 0.0}, {"rental_uris": {"ios": "https://dc.lft.to/lastmile_qr_scan", "android": "https://dc.lft.to/lastmile_qr_scan"}, "type": "electric_scooter", "name": "979fca616d42d63ab9926eedc978d0ed", "is_reserved": 0, "lon": -77.00128483333333, "is_disabled": 0, "fusion_lat": 0.0, "lat": 38.873837, "bike_id": "979fca616d42d63ab9926eedc978d0ed", "fusion_lon": 0.0}, {"rental_uris": {"ios": "https://dc.lft.to/lastmile_qr_scan", "android": "https://dc.lft.to/lastmile_qr_scan"}, "type": "electric_scooter", "name": "ffcb40bc01da08c4449654828396fd7e", "is_reserved": 0, "lon": -77.02589316666666, "is_disabled": 0, "fusion_lat": 0.0, "lat": 38.92042416666666, "bike_id": "ffcb40bc01da08c4449654828396fd7e", "fusion_lon": 0.0}, {"rental_uris": {"ios": "https://dc.lft.to/lastmile_qr_scan", "android": "https://dc.lft.to/lastmile_qr_scan"}, "type": "electric_scooter", "name": "3a0896aaf4eaafed488a5dfe6328a5f7", "is_reserved": 0, "lon": -77.0276715, "is_disabled": 0, "fusion_lat": 0.0, "lat": 38.92391883333333, "bike_id": "3a0896aaf4eaafed488a5dfe6328a5f7", "fusion_lon": 0.0}, {"rental_uris": {"ios": "https://dc.lft.to/lastmile_qr_scan", "android": "https://dc.lft.to/lastmile_qr_scan"}, "type": "electric_scooter", "name": "c1adeb182707fb99f91ba5b2e63f62ce", "is_reserved": 0, "lon": -76.97802616666667, "is_disabled": 0, "fusion_lat": 0.0, "lat": 38.903144, "bike_id": "c1adeb182707fb99f91ba5b2e63f62ce", "fusion_lon": 0.0}, {"rental_uris": {"ios": "https://dc.lft.to/lastmile_qr_scan", "android": "https://dc.lft.to/lastmile_qr_scan"}, "type": "electric_scooter", "name": "9df552ce1fdbb16d2628fa0660fd2e8f", "is_reserved": 0, "lon": -77.033341, "is_disabled": 0, "fusion_lat": 0.0, "lat": 38.896395, "bike_id": "9df552ce1fdbb16d2628fa0660fd2e8f", "fusion_lon": 0.0}, {"rental_uris": {"ios": "https://dc.lft.to/lastmile_qr_scan", "android": "https://dc.lft.to/lastmile_qr_scan"}, "type": "electric_scooter", "name": "320d190d3c685a850c0c5afe9eb77ca6", "is_reserved": 0, "lon": -77.04674666666666, "is_disabled": 0, "fusion_lat": 0.0, "lat": 38.89234366666667, "bike_id": "320d190d3c685a850c0c5afe9eb77ca6", "fusion_lon": 0.0}, {"rental_uris": {"ios": "https://dc.lft.to/lastmile_qr_scan", "android": "https://dc.lft.to/lastmile_qr_scan"}, "type": "electric_scooter", "name": "22bd3f8347815984d44f4cd97ce69f87", "is_reserved": 0, "lon": -77.0223345, "is_disabled": 0, "fusion_lat": 0.0, "lat": 38.8922605, "bike_id": "22bd3f8347815984d44f4cd97ce69f87", "fusion_lon": 0.0}, {"rental_uris": {"ios": "https://dc.lft.to/lastmile_qr_scan", "android": "https://dc.lft.to/lastmile_qr_scan"}, "type": "electric_scooter", "name": "25b75e72626a4e1b4fb242fc78d88d60", "is_reserved": 0, "lon": -76.96156366666666, "is_disabled": 0, "fusion_lat": 0.0, "lat": 38.88366666666667, "bike_id": "25b75e72626a4e1b4fb242fc78d88d60", "fusion_lon": 0.0}, {"rental_uris": {"ios": "https://dc.lft.to/lastmile_qr_scan", "android": "https://dc.lft.to/lastmile_qr_scan"}, "type": "electric_scooter", "name": "7aa51656a9d366af15c4d7ee73b6ed52", "is_reserved": 0, "lon": -77.02988633333334, "is_disabled": 0, "fusion_lat": 0.0, "lat": 38.92376133333333, "bike_id": "7aa51656a9d366af15c4d7ee73b6ed52", "fusion_lon": 0.0}, {"rental_uris": {"ios": "https://dc.lft.to/lastmile_qr_scan", "android": "https://dc.lft.to/lastmile_qr_scan"}, "type": "electric_scooter", "name": "af58bc020f078cffaf905abd93039075", "is_reserved": 0, "lon": -76.9698045, "is_disabled": 0, "fusion_lat": 0.0, "lat": 38.874097, "bike_id": "af58bc020f078cffaf905abd93039075", "fusion_lon": 0.0}, {"rental_uris": {"ios": "https://dc.lft.to/lastmile_qr_scan", "android": "https://dc.lft.to/lastmile_qr_scan"}, "type": "electric_scooter", "name": "9ca810f897f73b57d5372ad7039868f0", "is_reserved": 0, "lon": -77.03872183333333, "is_disabled": 0, "fusion_lat": 0.0, "lat": 38.9125805, "bike_id": "9ca810f897f73b57d5372ad7039868f0", "fusion_lon": 0.0}, {"rental_uris": {"ios": "https://dc.lft.to/lastmile_qr_scan", "android": "https://dc.lft.to/lastmile_qr_scan"}, "type": "electric_scooter", "name": "81710200df634c34a80cb2e03d8cff17", "is_reserved": 0, "lon": -77.03631816666666, "is_disabled": 0, "fusion_lat": 0.0, "lat": 38.93510116666667, "bike_id": "81710200df634c34a80cb2e03d8cff17", "fusion_lon": 0.0}, {"rental_uris": {"ios": "https://dc.lft.to/lastmile_qr_scan", "android": "https://dc.lft.to/lastmile_qr_scan"}, "type": "electric_scooter", "name": "fd21c084b6f2f59064dae66e09249fd6", "is_reserved": 0, "lon": -77.034748, "is_disabled": 0, "fusion_lat": 0.0, "lat": 38.917143, "bike_id": "fd21c084b6f2f59064dae66e09249fd6", "fusion_lon": 0.0}, {"rental_uris": {"ios": "https://dc.lft.to/lastmile_qr_scan", "android": "https://dc.lft.to/lastmile_qr_scan"}, "type": "electric_scooter", "name": "8bc68ff5b0b8ae570000cc84882b3316", "is_reserved": 0, "lon": -77.01238566666666, "is_disabled": 0, "fusion_lat": 0.0, "lat": 38.91689366666667, "bike_id": "8bc68ff5b0b8ae570000cc84882b3316", "fusion_lon": 0.0}, {"rental_uris": {"ios": "https://dc.lft.to/lastmile_qr_scan", "android": "https://dc.lft.to/lastmile_qr_scan"}, "type": "electric_scooter", "name": "e73cd50dbfb893c7d6cee70906786e16", "is_reserved": 0, "lon": -77.0332205, "is_disabled": 0, "fusion_lat": 0.0, "lat": 38.89900316666667, "bike_id": "e73cd50dbfb893c7d6cee70906786e16", "fusion_lon": 0.0}, {"rental_uris": {"ios": "https://dc.lft.to/lastmile_qr_scan", "android": "https://dc.lft.to/lastmile_qr_scan"}, "type": "electric_scooter", "name": "b33e4335ff4c749342fe9c853621d95f", "is_reserved": 0, "lon": -77.03853983333333, "is_disabled": 0, "fusion_lat": 0.0, "lat": 38.932492333333336, "bike_id": "b33e4335ff4c749342fe9c853621d95f", "fusion_lon": 0.0}, {"rental_uris": {"ios": "https://dc.lft.to/lastmile_qr_scan", "android": "https://dc.lft.to/lastmile_qr_scan"}, "type": "electric_scooter", "name": "1543f050bab1d4ae6a007dda474d1f48", "is_reserved": 0, "lon": -77.045006, "is_disabled": 0, "fusion_lat": 0.0, "lat": 38.9051485, "bike_id": "1543f050bab1d4ae6a007dda474d1f48", "fusion_lon": 0.0}, {"rental_uris": {"ios": "https://dc.lft.to/lastmile_qr_scan", "android": "https://dc.lft.to/lastmile_qr_scan"}, "type": "electric_scooter", "name": "c693a53904fa607204f77771f9ed066c", "is_reserved": 0, "lon": -77.09038633333333, "is_disabled": 0, "fusion_lat": 0.0, "lat": 38.956090333333336, "bike_id": "c693a53904fa607204f77771f9ed066c", "fusion_lon": 0.0}, {"rental_uris": {"ios": "https://dc.lft.to/lastmile_qr_scan", "android": "https://dc.lft.to/lastmile_qr_scan"}, "type": "electric_scooter", "name": "9f2738871511b168bffec05f18a5bcc2", "is_reserved": 0, "lon": -76.96977816666667, "is_disabled": 0, "fusion_lat": 0.0, "lat": 38.8615335, "bike_id": "9f2738871511b168bffec05f18a5bcc2", "fusion_lon": 0.0}, {"rental_uris": {"ios": "https://dc.lft.to/lastmile_qr_scan", "android": "https://dc.lft.to/lastmile_qr_scan"}, "type": "electric_scooter", "name": "4c694c33167e9e4c1c744c6b75cc3c92", "is_reserved": 0, "lon": -77.043685, "is_disabled": 0, "fusion_lat": 0.0, "lat": 38.89223616666666, "bike_id": "4c694c33167e9e4c1c744c6b75cc3c92", "fusion_lon": 0.0}, {"rental_uris": {"ios": "https://dc.lft.to/lastmile_qr_scan", "android": "https://dc.lft.to/lastmile_qr_scan"}, "type": "electric_scooter", "name": "4b51abdf9c20811e3e4b3b80512358c0", "is_reserved": 0, "lon": -77.01768916666667, "is_disabled": 0, "fusion_lat": 0.0, "lat": 38.90084983333333, "bike_id": "4b51abdf9c20811e3e4b3b80512358c0", "fusion_lon": 0.0}, {"rental_uris": {"ios": "https://dc.lft.to/lastmile_qr_scan", "android": "https://dc.lft.to/lastmile_qr_scan"}, "type": "electric_bike", "name": "d082e096fbeab094fd7e6dc9472a1eb2", "is_reserved": 0, "lon": -77.08528733333333, "is_disabled": 0, "fusion_lat": 0.0, "lat": 38.856519166666665, "bike_id": "d082e096fbeab094fd7e6dc9472a1eb2", "fusion_lon": 0.0}, {"rental_uris": {"ios": "https://dc.lft.to/lastmile_qr_scan", "android": "https://dc.lft.to/lastmile_qr_scan"}, "type": "electric_scooter", "name": "34e4ca31a6015011ad3a92aa35c50c2d", "is_reserved": 0, "lon": -77.03711866666667, "is_disabled": 0, "fusion_lat": 0.0, "lat": 38.926560333333335, "bike_id": "34e4ca31a6015011ad3a92aa35c50c2d", "fusion_lon": 0.0}, {"rental_uris": {"ios": "https://dc.lft.to/lastmile_qr_scan", "android": "https://dc.lft.to/lastmile_qr_scan"}, "type": "electric_scooter", "name": "5ee195bb1dc4c328eaca1362038fbb30", "is_reserved": 0, "lon": -77.01947183333333, "is_disabled": 0, "fusion_lat": 0.0, "lat": 38.924206833333336, "bike_id": "5ee195bb1dc4c328eaca1362038fbb30", "fusion_lon": 0.0}, {"rental_uris": {"ios": "https://dc.lft.to/lastmile_qr_scan", "android": "https://dc.lft.to/lastmile_qr_scan"}, "type": "electric_scooter", "name": "aa66fee388f1615d064f2aefb53031e3", "is_reserved": 0, "lon": -77.03416466666667, "is_disabled": 0, "fusion_lat": 0.0, "lat": 38.922126166666665, "bike_id": "aa66fee388f1615d064f2aefb53031e3", "fusion_lon": 0.0}, {"rental_uris": {"ios": "https://dc.lft.to/lastmile_qr_scan", "android": "https://dc.lft.to/lastmile_qr_scan"}, "type": "electric_scooter", "name": "c258d4d693a814f70779b3bf69630408", "is_reserved": 0, "lon": -76.99610833333334, "is_disabled": 0, "fusion_lat": 0.0, "lat": 38.909166, "bike_id": "c258d4d693a814f70779b3bf69630408", "fusion_lon": 0.0}, {"rental_uris": {"ios": "https://dc.lft.to/lastmile_qr_scan", "android": "https://dc.lft.to/lastmile_qr_scan"}, "type": "electric_scooter", "name": "57c639fd8eeb2161f2e12944bc938538", "is_reserved": 0, "lon": -76.97151883333333, "is_disabled": 0, "fusion_lat": 0.0, "lat": 38.916240333333334, "bike_id": "57c639fd8eeb2161f2e12944bc938538", "fusion_lon": 0.0}, {"rental_uris": {"ios": "https://dc.lft.to/lastmile_qr_scan", "android": "https://dc.lft.to/lastmile_qr_scan"}, "type": "electric_scooter", "name": "a4020b8936949bf92dde8d933daab9eb", "is_reserved": 0, "lon": -77.01448033333334, "is_disabled": 0, "fusion_lat": 0.0, "lat": 38.909681666666664, "bike_id": "a4020b8936949bf92dde8d933daab9eb", "fusion_lon": 0.0}, {"rental_uris": {"ios": "https://dc.lft.to/lastmile_qr_scan", "android": "https://dc.lft.to/lastmile_qr_scan"}, "type": "electric_scooter", "name": "a5fc2f8f576e69e56662a47b39f45f6e", "is_reserved": 0, "lon": -77.042045, "is_disabled": 0, "fusion_lat": 0.0, "lat": 38.907494666666665, "bike_id": "a5fc2f8f576e69e56662a47b39f45f6e", "fusion_lon": 0.0}, {"rental_uris": {"ios": "https://dc.lft.to/lastmile_qr_scan", "android": "https://dc.lft.to/lastmile_qr_scan"}, "type": "electric_scooter", "name": "96a5f1a3acbac88f1de1336335a5059a", "is_reserved": 0, "lon": -77.01106833333333, "is_disabled": 0, "fusion_lat": 0.0, "lat": 38.895447833333336, "bike_id": "96a5f1a3acbac88f1de1336335a5059a", "fusion_lon": 0.0}, {"rental_uris": {"ios": "https://dc.lft.to/lastmile_qr_scan", "android": "https://dc.lft.to/lastmile_qr_scan"}, "type": "electric_scooter", "name": "c5b55712c87344f67a6378de3d035b1d", "is_reserved": 0, "lon": -77.01265366666667, "is_disabled": 0, "fusion_lat": 0.0, "lat": 38.89725083333333, "bike_id": "c5b55712c87344f67a6378de3d035b1d", "fusion_lon": 0.0}, {"rental_uris": {"ios": "https://dc.lft.to/lastmile_qr_scan", "android": "https://dc.lft.to/lastmile_qr_scan"}, "type": "electric_scooter", "name": "607b2aed8674e3f50b59bf5385b7e582", "is_reserved": 0, "lon": -77.03672566666667, "is_disabled": 0, "fusion_lat": 0.0, "lat": 38.913251833333334, "bike_id": "607b2aed8674e3f50b59bf5385b7e582", "fusion_lon": 0.0}, {"rental_uris": {"ios": "https://dc.lft.to/lastmile_qr_scan", "android": "https://dc.lft.to/lastmile_qr_scan"}, "type": "electric_scooter", "name": "05c76690e6d407af18f8e877e76dea19", "is_reserved": 0, "lon": -77.037639, "is_disabled": 0, "fusion_lat": 0.0, "lat": 38.923320333333336, "bike_id": "05c76690e6d407af18f8e877e76dea19", "fusion_lon": 0.0}, {"rental_uris": {"ios": "https://dc.lft.to/lastmile_qr_scan", "android": "https://dc.lft.to/lastmile_qr_scan"}, "type": "electric_scooter", "name": "404d654a165d37ec534f51a280114648", "is_reserved": 0, "lon": -77.02979683333334, "is_disabled": 0, "fusion_lat": 0.0, "lat": 38.922490333333336, "bike_id": "404d654a165d37ec534f51a280114648", "fusion_lon": 0.0}, {"rental_uris": {"ios": "https://dc.lft.to/lastmile_qr_scan", "android": "https://dc.lft.to/lastmile_qr_scan"}, "type": "electric_scooter", "name": "8d1653a4a632f90069dc22096c3a96bf", "is_reserved": 0, "lon": -77.05371483333333, "is_disabled": 0, "fusion_lat": 0.0, "lat": 38.923331, "bike_id": "8d1653a4a632f90069dc22096c3a96bf", "fusion_lon": 0.0}, {"rental_uris": {"ios": "https://dc.lft.to/lastmile_qr_scan", "android": "https://dc.lft.to/lastmile_qr_scan"}, "type": "electric_scooter", "name": "3b2a1aff56e8e3915d1d4a12cb6576fa", "is_reserved": 0, "lon": -77.00592583333334, "is_disabled": 0, "fusion_lat": 0.0, "lat": 38.905651666666664, "bike_id": "3b2a1aff56e8e3915d1d4a12cb6576fa", "fusion_lon": 0.0}, {"rental_uris": {"ios": "https://dc.lft.to/lastmile_qr_scan", "android": "https://dc.lft.to/lastmile_qr_scan"}, "type": "electric_scooter", "name": "37990b0c3d45828c88396b7935041c0b", "is_reserved": 0, "lon": -77.03388483333333, "is_disabled": 0, "fusion_lat": 0.0, "lat": 38.90271766666667, "bike_id": "37990b0c3d45828c88396b7935041c0b", "fusion_lon": 0.0}, {"rental_uris": {"ios": "https://dc.lft.to/lastmile_qr_scan", "android": "https://dc.lft.to/lastmile_qr_scan"}, "type": "electric_scooter", "name": "68b87cd91d90122277e91052b6bcb207", "is_reserved": 0, "lon": -77.0248015, "is_disabled": 0, "fusion_lat": 0.0, "lat": 38.90256983333333, "bike_id": "68b87cd91d90122277e91052b6bcb207", "fusion_lon": 0.0}, {"rental_uris": {"ios": "https://dc.lft.to/lastmile_qr_scan", "android": "https://dc.lft.to/lastmile_qr_scan"}, "type": "electric_scooter", "name": "32829bfcd01957e0a5f954e979e70347", "is_reserved": 0, "lon": -77.03863166666666, "is_disabled": 0, "fusion_lat": 0.0, "lat": 38.9038105, "bike_id": "32829bfcd01957e0a5f954e979e70347", "fusion_lon": 0.0}, {"rental_uris": {"ios": "https://dc.lft.to/lastmile_qr_scan", "android": "https://dc.lft.to/lastmile_qr_scan"}, "type": "electric_scooter", "name": "72ce9e4cc87496038b486511d34e8c85", "is_reserved": 0, "lon": -77.05320766666667, "is_disabled": 0, "fusion_lat": 0.0, "lat": 38.906445, "bike_id": "72ce9e4cc87496038b486511d34e8c85", "fusion_lon": 0.0}, {"rental_uris": {"ios": "https://dc.lft.to/lastmile_qr_scan", "android": "https://dc.lft.to/lastmile_qr_scan"}, "type": "electric_scooter", "name": "9e038a4640116b5056e4164c3265f4e5", "is_reserved": 0, "lon": -77.02335483333333, "is_disabled": 0, "fusion_lat": 0.0, "lat": 38.92231233333333, "bike_id": "9e038a4640116b5056e4164c3265f4e5", "fusion_lon": 0.0}, {"rental_uris": {"ios": "https://dc.lft.to/lastmile_qr_scan", "android": "https://dc.lft.to/lastmile_qr_scan"}, "type": "electric_scooter", "name": "7c04e6a81c95c0123ba49ed730fa200d", "is_reserved": 0, "lon": -77.041798, "is_disabled": 0, "fusion_lat": 0.0, "lat": 38.91728533333333, "bike_id": "7c04e6a81c95c0123ba49ed730fa200d", "fusion_lon": 0.0}, {"rental_uris": {"ios": "https://dc.lft.to/lastmile_qr_scan", "android": "https://dc.lft.to/lastmile_qr_scan"}, "type": "electric_scooter", "name": "5f96d069daec113fe1fb573234740464", "is_reserved": 0, "lon": -77.04648633333333, "is_disabled": 0, "fusion_lat": 0.0, "lat": 38.8973535, "bike_id": "5f96d069daec113fe1fb573234740464", "fusion_lon": 0.0}, {"rental_uris": {"ios": "https://dc.lft.to/lastmile_qr_scan", "android": "https://dc.lft.to/lastmile_qr_scan"}, "type": "electric_scooter", "name": "1c124b2f0a904d292e71a0cc5207ea1b", "is_reserved": 0, "lon": -77.01773333333334, "is_disabled": 0, "fusion_lat": 0.0, "lat": 38.90084916666667, "bike_id": "1c124b2f0a904d292e71a0cc5207ea1b", "fusion_lon": 0.0}, {"rental_uris": {"ios": "https://dc.lft.to/lastmile_qr_scan", "android": "https://dc.lft.to/lastmile_qr_scan"}, "type": "electric_scooter", "name": "d40978e7df4e348248e35cc23cc729cc", "is_reserved": 0, "lon": -77.02808966666667, "is_disabled": 0, "fusion_lat": 0.0, "lat": 38.907465333333334, "bike_id": "d40978e7df4e348248e35cc23cc729cc", "fusion_lon": 0.0}, {"rental_uris": {"ios": "https://dc.lft.to/lastmile_qr_scan", "android": "https://dc.lft.to/lastmile_qr_scan"}, "type": "electric_scooter", "name": "97c5787d47d976350e2c5301543f40fc", "is_reserved": 0, "lon": -77.000617, "is_disabled": 0, "fusion_lat": 0.0, "lat": 38.961377, "bike_id": "97c5787d47d976350e2c5301543f40fc", "fusion_lon": 0.0}, {"rental_uris": {"ios": "https://dc.lft.to/lastmile_qr_scan", "android": "https://dc.lft.to/lastmile_qr_scan"}, "type": "electric_scooter", "name": "194e44046a3dae7eef354ab6b8a58271", "is_reserved": 0, "lon": -77.052473, "is_disabled": 0, "fusion_lat": 0.0, "lat": 38.92383933333333, "bike_id": "194e44046a3dae7eef354ab6b8a58271", "fusion_lon": 0.0}, {"rental_uris": {"ios": "https://dc.lft.to/lastmile_qr_scan", "android": "https://dc.lft.to/lastmile_qr_scan"}, "type": "electric_scooter", "name": "33655e0541245f481fac36ba8f7bb660", "is_reserved": 0, "lon": -77.0298385, "is_disabled": 0, "fusion_lat": 0.0, "lat": 38.93253683333333, "bike_id": "33655e0541245f481fac36ba8f7bb660", "fusion_lon": 0.0}, {"rental_uris": {"ios": "https://dc.lft.to/lastmile_qr_scan", "android": "https://dc.lft.to/lastmile_qr_scan"}, "type": "electric_scooter", "name": "d96eeb81fb6bad1a7cd73089cca25fd3", "is_reserved": 0, "lon": -76.976312, "is_disabled": 0, "fusion_lat": 0.0, "lat": 38.90576933333333, "bike_id": "d96eeb81fb6bad1a7cd73089cca25fd3", "fusion_lon": 0.0}, {"rental_uris": {"ios": "https://dc.lft.to/lastmile_qr_scan", "android": "https://dc.lft.to/lastmile_qr_scan"}, "type": "electric_scooter", "name": "a2e5a500e1865911c0cfb61e0478e41e", "is_reserved": 0, "lon": -77.0231625, "is_disabled": 0, "fusion_lat": 0.0, "lat": 38.9167505, "bike_id": "a2e5a500e1865911c0cfb61e0478e41e", "fusion_lon": 0.0}, {"rental_uris": {"ios": "https://dc.lft.to/lastmile_qr_scan", "android": "https://dc.lft.to/lastmile_qr_scan"}, "type": "electric_scooter", "name": "4635ba7bd8db2feadf09477e333cc79b", "is_reserved": 0, "lon": -77.0486005, "is_disabled": 0, "fusion_lat": 0.0, "lat": 38.904790166666665, "bike_id": "4635ba7bd8db2feadf09477e333cc79b", "fusion_lon": 0.0}, {"rental_uris": {"ios": "https://dc.lft.to/lastmile_qr_scan", "android": "https://dc.lft.to/lastmile_qr_scan"}, "type": "electric_scooter", "name": "66dbd694daf7d2db134de6b59f84931f", "is_reserved": 0, "lon": -77.04944833333333, "is_disabled": 0, "fusion_lat": 0.0, "lat": 38.9202235, "bike_id": "66dbd694daf7d2db134de6b59f84931f", "fusion_lon": 0.0}, {"rental_uris": {"ios": "https://dc.lft.to/lastmile_qr_scan", "android": "https://dc.lft.to/lastmile_qr_scan"}, "type": "electric_bike", "name": "6f62133ad2f885543382cc1216b85d59", "is_reserved": 0, "lon": -77.2341315, "is_disabled": 0, "fusion_lat": 0.0, "lat": 38.87580966666667, "bike_id": "6f62133ad2f885543382cc1216b85d59", "fusion_lon": 0.0}, {"rental_uris": {"ios": "https://dc.lft.to/lastmile_qr_scan", "android": "https://dc.lft.to/lastmile_qr_scan"}, "type": "electric_scooter", "name": "553d62e4e4ea4cab2446bd84c76be4d8", "is_reserved": 0, "lon": -77.03492033333333, "is_disabled": 0, "fusion_lat": 0.0, "lat": 38.9327915, "bike_id": "553d62e4e4ea4cab2446bd84c76be4d8", "fusion_lon": 0.0}, {"rental_uris": {"ios": "https://dc.lft.to/lastmile_qr_scan", "android": "https://dc.lft.to/lastmile_qr_scan"}, "type": "electric_scooter", "name": "10905c228d927ed40417ec853b1982ab", "is_reserved": 0, "lon": -77.02222316666666, "is_disabled": 0, "fusion_lat": 0.0, "lat": 38.92476966666667, "bike_id": "10905c228d927ed40417ec853b1982ab", "fusion_lon": 0.0}, {"rental_uris": {"ios": "https://dc.lft.to/lastmile_qr_scan", "android": "https://dc.lft.to/lastmile_qr_scan"}, "type": "electric_bike", "name": "0bab0a385c4fa9fd504ba59f473591bd", "is_reserved": 0, "lon": -77.00135383333334, "is_disabled": 0, "fusion_lat": 0.0, "lat": 38.9950325, "bike_id": "0bab0a385c4fa9fd504ba59f473591bd", "fusion_lon": 0.0}, {"rental_uris": {"ios": "https://dc.lft.to/lastmile_qr_scan", "android": "https://dc.lft.to/lastmile_qr_scan"}, "type": "electric_bike", "name": "0bb620fbd6f1f2dae2a4ce07c2109acb", "is_reserved": 0, "lon": -76.957964, "is_disabled": 0, "fusion_lat": 0.0, "lat": 38.98049183333333, "bike_id": "0bb620fbd6f1f2dae2a4ce07c2109acb", "fusion_lon": 0.0}, {"rental_uris": {"ios": "https://dc.lft.to/lastmile_qr_scan", "android": "https://dc.lft.to/lastmile_qr_scan"}, "type": "electric_scooter", "name": "2501472efb2d8a8f1e4a7b0995f0af6b", "is_reserved": 0, "lon": -77.04184633333334, "is_disabled": 0, "fusion_lat": 0.0, "lat": 38.92053166666667, "bike_id": "2501472efb2d8a8f1e4a7b0995f0af6b", "fusion_lon": 0.0}, {"rental_uris": {"ios": "https://dc.lft.to/lastmile_qr_scan", "android": "https://dc.lft.to/lastmile_qr_scan"}, "type": "electric_scooter", "name": "63fc83fa4e5abca753d40e23b5e1bc3c", "is_reserved": 0, "lon": -76.975667, "is_disabled": 0, "fusion_lat": 0.0, "lat": 38.94422133333333, "bike_id": "63fc83fa4e5abca753d40e23b5e1bc3c", "fusion_lon": 0.0}, {"rental_uris": {"ios": "https://dc.lft.to/lastmile_qr_scan", "android": "https://dc.lft.to/lastmile_qr_scan"}, "type": "electric_scooter", "name": "8ba4ffcb507297338f40b25c5c7f7d46", "is_reserved": 0, "lon": -77.02919466666667, "is_disabled": 0, "fusion_lat": 0.0, "lat": 38.909125333333336, "bike_id": "8ba4ffcb507297338f40b25c5c7f7d46", "fusion_lon": 0.0}, {"rental_uris": {"ios": "https://dc.lft.to/lastmile_qr_scan", "android": "https://dc.lft.to/lastmile_qr_scan"}, "type": "electric_scooter", "name": "bd03887fad5047b48914818e8e26bfb8", "is_reserved": 0, "lon": -77.02613766666667, "is_disabled": 0, "fusion_lat": 0.0, "lat": 38.902976833333334, "bike_id": "bd03887fad5047b48914818e8e26bfb8", "fusion_lon": 0.0}, {"rental_uris": {"ios": "https://dc.lft.to/lastmile_qr_scan", "android": "https://dc.lft.to/lastmile_qr_scan"}, "type": "electric_scooter", "name": "da564bc3200622ba7bc31e00d0fbac8e", "is_reserved": 0, "lon": -77.03218316666667, "is_disabled": 0, "fusion_lat": 0.0, "lat": 38.908723, "bike_id": "da564bc3200622ba7bc31e00d0fbac8e", "fusion_lon": 0.0}, {"rental_uris": {"ios": "https://dc.lft.to/lastmile_qr_scan", "android": "https://dc.lft.to/lastmile_qr_scan"}, "type": "electric_scooter", "name": "488865da6f5464eaeaf8f9cdce666276", "is_reserved": 0, "lon": -76.99792216666667, "is_disabled": 0, "fusion_lat": 0.0, "lat": 38.87633666666667, "bike_id": "488865da6f5464eaeaf8f9cdce666276", "fusion_lon": 0.0}, {"rental_uris": {"ios": "https://dc.lft.to/lastmile_qr_scan", "android": "https://dc.lft.to/lastmile_qr_scan"}, "type": "electric_scooter", "name": "bad5c5571812409d61171e64dd56efa0", "is_reserved": 0, "lon": -77.07763983333334, "is_disabled": 0, "fusion_lat": 0.0, "lat": 38.925587666666665, "bike_id": "bad5c5571812409d61171e64dd56efa0", "fusion_lon": 0.0}, {"rental_uris": {"ios": "https://dc.lft.to/lastmile_qr_scan", "android": "https://dc.lft.to/lastmile_qr_scan"}, "type": "electric_scooter", "name": "2cac01d4480a1dfe4f30d341beaafa47", "is_reserved": 0, "lon": -77.0318475, "is_disabled": 0, "fusion_lat": 0.0, "lat": 38.91929916666667, "bike_id": "2cac01d4480a1dfe4f30d341beaafa47", "fusion_lon": 0.0}, {"rental_uris": {"ios": "https://dc.lft.to/lastmile_qr_scan", "android": "https://dc.lft.to/lastmile_qr_scan"}, "type": "electric_scooter", "name": "b33f09da666c794e6a4da28b24975aa6", "is_reserved": 0, "lon": -76.995937, "is_disabled": 0, "fusion_lat": 0.0, "lat": 38.90028683333333, "bike_id": "b33f09da666c794e6a4da28b24975aa6", "fusion_lon": 0.0}, {"rental_uris": {"ios": "https://dc.lft.to/lastmile_qr_scan", "android": "https://dc.lft.to/lastmile_qr_scan"}, "type": "electric_scooter", "name": "e29dc50a57935079e2d97d251d5a228a", "is_reserved": 0, "lon": -77.04541, "is_disabled": 0, "fusion_lat": 0.0, "lat": 38.90735683333333, "bike_id": "e29dc50a57935079e2d97d251d5a228a", "fusion_lon": 0.0}, {"rental_uris": {"ios": "https://dc.lft.to/lastmile_qr_scan", "android": "https://dc.lft.to/lastmile_qr_scan"}, "type": "electric_scooter", "name": "e8ca24ff8d3e3c7ac60ec15ff9580721", "is_reserved": 0, "lon": -77.03029116666667, "is_disabled": 0, "fusion_lat": 0.0, "lat": 38.9224795, "bike_id": "e8ca24ff8d3e3c7ac60ec15ff9580721", "fusion_lon": 0.0}, {"rental_uris": {"ios": "https://dc.lft.to/lastmile_qr_scan", "android": "https://dc.lft.to/lastmile_qr_scan"}, "type": "electric_scooter", "name": "6d43331fd77c65577541a6026c5a6840", "is_reserved": 0, "lon": -77.03180183333333, "is_disabled": 0, "fusion_lat": 0.0, "lat": 38.89222683333333, "bike_id": "6d43331fd77c65577541a6026c5a6840", "fusion_lon": 0.0}, {"rental_uris": {"ios": "https://dc.lft.to/lastmile_qr_scan", "android": "https://dc.lft.to/lastmile_qr_scan"}, "type": "electric_scooter", "name": "891a3f58b97a3e0318fc600a60ed90de", "is_reserved": 0, "lon": -77.0268175, "is_disabled": 0, "fusion_lat": 0.0, "lat": 38.984371333333335, "bike_id": "891a3f58b97a3e0318fc600a60ed90de", "fusion_lon": 0.0}, {"rental_uris": {"ios": "https://dc.lft.to/lastmile_qr_scan", "android": "https://dc.lft.to/lastmile_qr_scan"}, "type": "electric_scooter", "name": "22fa03e40ed1779197883cecded5392c", "is_reserved": 0, "lon": -76.98367916666666, "is_disabled": 0, "fusion_lat": 0.0, "lat": 38.86668683333333, "bike_id": "22fa03e40ed1779197883cecded5392c", "fusion_lon": 0.0}, {"rental_uris": {"ios": "https://dc.lft.to/lastmile_qr_scan", "android": "https://dc.lft.to/lastmile_qr_scan"}, "type": "electric_scooter", "name": "466901c9efb38326f0fd249879d60ca6", "is_reserved": 0, "lon": -77.02846416666667, "is_disabled": 0, "fusion_lat": 0.0, "lat": 38.89228333333333, "bike_id": "466901c9efb38326f0fd249879d60ca6", "fusion_lon": 0.0}, {"rental_uris": {"ios": "https://dc.lft.to/lastmile_qr_scan", "android": "https://dc.lft.to/lastmile_qr_scan"}, "type": "electric_scooter", "name": "5e17229a43612bb00a3865f628df470d", "is_reserved": 0, "lon": -76.99971033333334, "is_disabled": 0, "fusion_lat": 0.0, "lat": 38.886629, "bike_id": "5e17229a43612bb00a3865f628df470d", "fusion_lon": 0.0}, {"rental_uris": {"ios": "https://dc.lft.to/lastmile_qr_scan", "android": "https://dc.lft.to/lastmile_qr_scan"}, "type": "electric_scooter", "name": "0b288272d4050c93fa1c842a3ff37c1d", "is_reserved": 0, "lon": -77.040438, "is_disabled": 0, "fusion_lat": 0.0, "lat": 38.92324716666667, "bike_id": "0b288272d4050c93fa1c842a3ff37c1d", "fusion_lon": 0.0}, {"rental_uris": {"ios": "https://dc.lft.to/lastmile_qr_scan", "android": "https://dc.lft.to/lastmile_qr_scan"}, "type": "electric_scooter", "name": "619675f79bf83bd0976db0e8aefa7a0a", "is_reserved": 0, "lon": -77.0395215, "is_disabled": 0, "fusion_lat": 0.0, "lat": 38.924725333333335, "bike_id": "619675f79bf83bd0976db0e8aefa7a0a", "fusion_lon": 0.0}, {"rental_uris": {"ios": "https://dc.lft.to/lastmile_qr_scan", "android": "https://dc.lft.to/lastmile_qr_scan"}, "type": "electric_scooter", "name": "eafd33d2168cd118c274b7e38d955019", "is_reserved": 0, "lon": -77.05596983333334, "is_disabled": 0, "fusion_lat": 0.0, "lat": 38.93700483333333, "bike_id": "eafd33d2168cd118c274b7e38d955019", "fusion_lon": 0.0}, {"rental_uris": {"ios": "https://dc.lft.to/lastmile_qr_scan", "android": "https://dc.lft.to/lastmile_qr_scan"}, "type": "electric_scooter", "name": "74bc15b2bd9f430b19ae4a1a09075325", "is_reserved": 0, "lon": -77.02158, "is_disabled": 0, "fusion_lat": 0.0, "lat": 38.9260925, "bike_id": "74bc15b2bd9f430b19ae4a1a09075325", "fusion_lon": 0.0}, {"rental_uris": {"ios": "https://dc.lft.to/lastmile_qr_scan", "android": "https://dc.lft.to/lastmile_qr_scan"}, "type": "electric_scooter", "name": "94db50010267774f22b3c9cdc997046e", "is_reserved": 0, "lon": -77.02991116666666, "is_disabled": 0, "fusion_lat": 0.0, "lat": 38.91701916666667, "bike_id": "94db50010267774f22b3c9cdc997046e", "fusion_lon": 0.0}, {"rental_uris": {"ios": "https://dc.lft.to/lastmile_qr_scan", "android": "https://dc.lft.to/lastmile_qr_scan"}, "type": "electric_scooter", "name": "60c77c039a80db10e9740d14bad274f8", "is_reserved": 0, "lon": -77.00178166666667, "is_disabled": 0, "fusion_lat": 0.0, "lat": 38.875055, "bike_id": "60c77c039a80db10e9740d14bad274f8", "fusion_lon": 0.0}, {"rental_uris": {"ios": "https://dc.lft.to/lastmile_qr_scan", "android": "https://dc.lft.to/lastmile_qr_scan"}, "type": "electric_scooter", "name": "2545b44886916d8d4cd57a88f34c8c7b", "is_reserved": 0, "lon": -77.0384435, "is_disabled": 0, "fusion_lat": 0.0, "lat": 38.915536333333336, "bike_id": "2545b44886916d8d4cd57a88f34c8c7b", "fusion_lon": 0.0}, {"rental_uris": {"ios": "https://dc.lft.to/lastmile_qr_scan", "android": "https://dc.lft.to/lastmile_qr_scan"}, "type": "electric_scooter", "name": "19ebf6cc716165ae2060a6fc2c792758", "is_reserved": 0, "lon": -77.022055, "is_disabled": 0, "fusion_lat": 0.0, "lat": 38.951535166666666, "bike_id": "19ebf6cc716165ae2060a6fc2c792758", "fusion_lon": 0.0}, {"rental_uris": {"ios": "https://dc.lft.to/lastmile_qr_scan", "android": "https://dc.lft.to/lastmile_qr_scan"}, "type": "electric_scooter", "name": "21a483c241409a8bf975a8c3f6f4c04d", "is_reserved": 0, "lon": -77.02567516666667, "is_disabled": 0, "fusion_lat": 0.0, "lat": 38.92387083333333, "bike_id": "21a483c241409a8bf975a8c3f6f4c04d", "fusion_lon": 0.0}, {"rental_uris": {"ios": "https://dc.lft.to/lastmile_qr_scan", "android": "https://dc.lft.to/lastmile_qr_scan"}, "type": "electric_scooter", "name": "d6f8bf00fe0960626d7980ade6a5e651", "is_reserved": 0, "lon": -77.0315125, "is_disabled": 0, "fusion_lat": 0.0, "lat": 38.911270333333334, "bike_id": "d6f8bf00fe0960626d7980ade6a5e651", "fusion_lon": 0.0}, {"rental_uris": {"ios": "https://dc.lft.to/lastmile_qr_scan", "android": "https://dc.lft.to/lastmile_qr_scan"}, "type": "electric_scooter", "name": "dddd03625162f5d95371c3a19476cbbd", "is_reserved": 0, "lon": -77.0415475, "is_disabled": 0, "fusion_lat": 0.0, "lat": 38.915617, "bike_id": "dddd03625162f5d95371c3a19476cbbd", "fusion_lon": 0.0}, {"rental_uris": {"ios": "https://dc.lft.to/lastmile_qr_scan", "android": "https://dc.lft.to/lastmile_qr_scan"}, "type": "electric_scooter", "name": "ad9f2fe87ff9ce02494f9083792b5a0c", "is_reserved": 0, "lon": -77.03370133333334, "is_disabled": 0, "fusion_lat": 0.0, "lat": 38.90124383333333, "bike_id": "ad9f2fe87ff9ce02494f9083792b5a0c", "fusion_lon": 0.0}, {"rental_uris": {"ios": "https://dc.lft.to/lastmile_qr_scan", "android": "https://dc.lft.to/lastmile_qr_scan"}, "type": "electric_bike", "name": "fbebc66a67cee21e1f66c5a65349b5b2", "is_reserved": 0, "lon": -77.09454416666667, "is_disabled": 0, "fusion_lat": 0.0, "lat": 38.80758633333333, "bike_id": "fbebc66a67cee21e1f66c5a65349b5b2", "fusion_lon": 0.0}, {"rental_uris": {"ios": "https://dc.lft.to/lastmile_qr_scan", "android": "https://dc.lft.to/lastmile_qr_scan"}, "type": "electric_scooter", "name": "0ffc470b1d340eb13877e20616bd00d7", "is_reserved": 0, "lon": -77.07881783333333, "is_disabled": 0, "fusion_lat": 0.0, "lat": 38.946174166666665, "bike_id": "0ffc470b1d340eb13877e20616bd00d7", "fusion_lon": 0.0}, {"rental_uris": {"ios": "https://dc.lft.to/lastmile_qr_scan", "android": "https://dc.lft.to/lastmile_qr_scan"}, "type": "electric_scooter", "name": "3c04c3e5a9bd34e9741c13364c5c1615", "is_reserved": 0, "lon": -77.04503466666667, "is_disabled": 0, "fusion_lat": 0.0, "lat": 38.89224216666667, "bike_id": "3c04c3e5a9bd34e9741c13364c5c1615", "fusion_lon": 0.0}, {"rental_uris": {"ios": "https://dc.lft.to/lastmile_qr_scan", "android": "https://dc.lft.to/lastmile_qr_scan"}, "type": "electric_scooter", "name": "d7067825663dfa3881e3cf9e8db338c4", "is_reserved": 0, "lon": -77.0441965, "is_disabled": 0, "fusion_lat": 0.0, "lat": 38.89749283333333, "bike_id": "d7067825663dfa3881e3cf9e8db338c4", "fusion_lon": 0.0}, {"rental_uris": {"ios": "https://dc.lft.to/lastmile_qr_scan", "android": "https://dc.lft.to/lastmile_qr_scan"}, "type": "electric_scooter", "name": "8bdb609aca41bcb1550627a13ea94ec7", "is_reserved": 0, "lon": -77.04050683333334, "is_disabled": 0, "fusion_lat": 0.0, "lat": 38.93018283333333, "bike_id": "8bdb609aca41bcb1550627a13ea94ec7", "fusion_lon": 0.0}, {"rental_uris": {"ios": "https://dc.lft.to/lastmile_qr_scan", "android": "https://dc.lft.to/lastmile_qr_scan"}, "type": "electric_scooter", "name": "dff4154e2bedf919af06047774cd2c2d", "is_reserved": 0, "lon": -77.05743616666666, "is_disabled": 0, "fusion_lat": 0.0, "lat": 38.933447, "bike_id": "dff4154e2bedf919af06047774cd2c2d", "fusion_lon": 0.0}, {"rental_uris": {"ios": "https://dc.lft.to/lastmile_qr_scan", "android": "https://dc.lft.to/lastmile_qr_scan"}, "type": "electric_scooter", "name": "1817c486e742d3efec9bba88c23e6d62", "is_reserved": 0, "lon": -77.03189266666666, "is_disabled": 0, "fusion_lat": 0.0, "lat": 38.930739333333335, "bike_id": "1817c486e742d3efec9bba88c23e6d62", "fusion_lon": 0.0}, {"rental_uris": {"ios": "https://dc.lft.to/lastmile_qr_scan", "android": "https://dc.lft.to/lastmile_qr_scan"}, "type": "electric_scooter", "name": "83e4c836a7dec1ec0f45fd701f60dafe", "is_reserved": 0, "lon": -77.0042955, "is_disabled": 0, "fusion_lat": 0.0, "lat": 38.88513233333333, "bike_id": "83e4c836a7dec1ec0f45fd701f60dafe", "fusion_lon": 0.0}, {"rental_uris": {"ios": "https://dc.lft.to/lastmile_qr_scan", "android": "https://dc.lft.to/lastmile_qr_scan"}, "type": "electric_scooter", "name": "3432920dbdef3056ce4a006e30bc9bfa", "is_reserved": 0, "lon": -76.96555133333334, "is_disabled": 0, "fusion_lat": 0.0, "lat": 38.91862166666667, "bike_id": "3432920dbdef3056ce4a006e30bc9bfa", "fusion_lon": 0.0}, {"rental_uris": {"ios": "https://dc.lft.to/lastmile_qr_scan", "android": "https://dc.lft.to/lastmile_qr_scan"}, "type": "electric_scooter", "name": "30698207e063732fb52fcf8e99e88fb0", "is_reserved": 0, "lon": -77.03784316666666, "is_disabled": 0, "fusion_lat": 0.0, "lat": 38.9157995, "bike_id": "30698207e063732fb52fcf8e99e88fb0", "fusion_lon": 0.0}, {"rental_uris": {"ios": "https://dc.lft.to/lastmile_qr_scan", "android": "https://dc.lft.to/lastmile_qr_scan"}, "type": "electric_scooter", "name": "38b02caf3ab8dd52312babecc524ffe5", "is_reserved": 0, "lon": -76.930446, "is_disabled": 0, "fusion_lat": 0.0, "lat": 38.883886, "bike_id": "38b02caf3ab8dd52312babecc524ffe5", "fusion_lon": 0.0}, {"rental_uris": {"ios": "https://dc.lft.to/lastmile_qr_scan", "android": "https://dc.lft.to/lastmile_qr_scan"}, "type": "electric_scooter", "name": "fd16253f158732b3f995690b62349942", "is_reserved": 0, "lon": -77.04945766666667, "is_disabled": 0, "fusion_lat": 0.0, "lat": 38.9202105, "bike_id": "fd16253f158732b3f995690b62349942", "fusion_lon": 0.0}, {"rental_uris": {"ios": "https://dc.lft.to/lastmile_qr_scan", "android": "https://dc.lft.to/lastmile_qr_scan"}, "type": "electric_scooter", "name": "ba87222e15cfecefe9bf3c45b4974c4a", "is_reserved": 0, "lon": -76.94830066666667, "is_disabled": 0, "fusion_lat": 0.0, "lat": 38.8852405, "bike_id": "ba87222e15cfecefe9bf3c45b4974c4a", "fusion_lon": 0.0}, {"rental_uris": {"ios": "https://dc.lft.to/lastmile_qr_scan", "android": "https://dc.lft.to/lastmile_qr_scan"}, "type": "electric_scooter", "name": "b78f261915aa195ecbb8a71fe7706509", "is_reserved": 0, "lon": -77.04430916666666, "is_disabled": 0, "fusion_lat": 0.0, "lat": 38.901397833333334, "bike_id": "b78f261915aa195ecbb8a71fe7706509", "fusion_lon": 0.0}, {"rental_uris": {"ios": "https://dc.lft.to/lastmile_qr_scan", "android": "https://dc.lft.to/lastmile_qr_scan"}, "type": "electric_bike", "name": "fa9d1807a102e7abbdbcf1e630113ac2", "is_reserved": 0, "lon": -76.95158733333334, "is_disabled": 0, "fusion_lat": 0.0, "lat": 39.084444166666664, "bike_id": "fa9d1807a102e7abbdbcf1e630113ac2", "fusion_lon": 0.0}, {"rental_uris": {"ios": "https://dc.lft.to/lastmile_qr_scan", "android": "https://dc.lft.to/lastmile_qr_scan"}, "type": "electric_bike", "name": "d09ae685c3246f29ddd1dd7c718af685", "is_reserved": 0, "lon": -76.97556883333333, "is_disabled": 0, "fusion_lat": 0.0, "lat": 38.904485333333334, "bike_id": "d09ae685c3246f29ddd1dd7c718af685", "fusion_lon": 0.0}, {"rental_uris": {"ios": "https://dc.lft.to/lastmile_qr_scan", "android": "https://dc.lft.to/lastmile_qr_scan"}, "type": "electric_scooter", "name": "285b0edd44f18da506ad83fe4cee7fbd", "is_reserved": 0, "lon": -77.04372933333333, "is_disabled": 0, "fusion_lat": 0.0, "lat": 38.89233316666667, "bike_id": "285b0edd44f18da506ad83fe4cee7fbd", "fusion_lon": 0.0}, {"rental_uris": {"ios": "https://dc.lft.to/lastmile_qr_scan", "android": "https://dc.lft.to/lastmile_qr_scan"}, "type": "electric_scooter", "name": "10a468af184dbb41bc60ae7b4bfbc5fb", "is_reserved": 0, "lon": -77.01812433333333, "is_disabled": 0, "fusion_lat": 0.0, "lat": 38.90108983333333, "bike_id": "10a468af184dbb41bc60ae7b4bfbc5fb", "fusion_lon": 0.0}, {"rental_uris": {"ios": "https://dc.lft.to/lastmile_qr_scan", "android": "https://dc.lft.to/lastmile_qr_scan"}, "type": "electric_scooter", "name": "7d723e6fd7b1819b8597550e695895ef", "is_reserved": 0, "lon": -77.01932066666667, "is_disabled": 0, "fusion_lat": 0.0, "lat": 38.947004666666665, "bike_id": "7d723e6fd7b1819b8597550e695895ef", "fusion_lon": 0.0}, {"rental_uris": {"ios": "https://dc.lft.to/lastmile_qr_scan", "android": "https://dc.lft.to/lastmile_qr_scan"}, "type": "electric_scooter", "name": "06170e8774f4453616f24c57f78b4403", "is_reserved": 0, "lon": -77.030841, "is_disabled": 0, "fusion_lat": 0.0, "lat": 38.93308583333334, "bike_id": "06170e8774f4453616f24c57f78b4403", "fusion_lon": 0.0}, {"rental_uris": {"ios": "https://dc.lft.to/lastmile_qr_scan", "android": "https://dc.lft.to/lastmile_qr_scan"}, "type": "electric_scooter", "name": "e23c8d134ef8c8b5ad00f304c91e1222", "is_reserved": 0, "lon": -77.034499, "is_disabled": 0, "fusion_lat": 0.0, "lat": 38.90110416666667, "bike_id": "e23c8d134ef8c8b5ad00f304c91e1222", "fusion_lon": 0.0}, {"rental_uris": {"ios": "https://dc.lft.to/lastmile_qr_scan", "android": "https://dc.lft.to/lastmile_qr_scan"}, "type": "electric_scooter", "name": "1ae569c883eebba4105b2a0674eac154", "is_reserved": 0, "lon": -77.00157816666666, "is_disabled": 0, "fusion_lat": 0.0, "lat": 38.82136283333333, "bike_id": "1ae569c883eebba4105b2a0674eac154", "fusion_lon": 0.0}, {"rental_uris": {"ios": "https://dc.lft.to/lastmile_qr_scan", "android": "https://dc.lft.to/lastmile_qr_scan"}, "type": "electric_scooter", "name": "6a25261751e0a9d97bc5398cbf4d7fed", "is_reserved": 0, "lon": -77.02792683333334, "is_disabled": 0, "fusion_lat": 0.0, "lat": 38.89229066666667, "bike_id": "6a25261751e0a9d97bc5398cbf4d7fed", "fusion_lon": 0.0}, {"rental_uris": {"ios": "https://dc.lft.to/lastmile_qr_scan", "android": "https://dc.lft.to/lastmile_qr_scan"}, "type": "electric_scooter", "name": "0e52f90f7a33c4d705ddaa0832809b24", "is_reserved": 0, "lon": -77.04337183333334, "is_disabled": 0, "fusion_lat": 0.0, "lat": 38.892268333333334, "bike_id": "0e52f90f7a33c4d705ddaa0832809b24", "fusion_lon": 0.0}, {"rental_uris": {"ios": "https://dc.lft.to/lastmile_qr_scan", "android": "https://dc.lft.to/lastmile_qr_scan"}, "type": "electric_scooter", "name": "2c21e93d05e08e07da22041c6fa727cc", "is_reserved": 0, "lon": -77.007736, "is_disabled": 0, "fusion_lat": 0.0, "lat": 38.952500666666666, "bike_id": "2c21e93d05e08e07da22041c6fa727cc", "fusion_lon": 0.0}, {"rental_uris": {"ios": "https://dc.lft.to/lastmile_qr_scan", "android": "https://dc.lft.to/lastmile_qr_scan"}, "type": "electric_bike", "name": "cf968852dbaec4d899f64c615bde599c", "is_reserved": 0, "lon": -77.22825983333334, "is_disabled": 0, "fusion_lat": 0.0, "lat": 38.88273483333333, "bike_id": "cf968852dbaec4d899f64c615bde599c", "fusion_lon": 0.0}, {"rental_uris": {"ios": "https://dc.lft.to/lastmile_qr_scan", "android": "https://dc.lft.to/lastmile_qr_scan"}, "type": "electric_bike", "name": "9412bfbb662ba6d41564bd061dd1251f", "is_reserved": 0, "lon": -77.01432283333334, "is_disabled": 0, "fusion_lat": 0.0, "lat": 38.8767685, "bike_id": "9412bfbb662ba6d41564bd061dd1251f", "fusion_lon": 0.0}, {"rental_uris": {"ios": "https://dc.lft.to/lastmile_qr_scan", "android": "https://dc.lft.to/lastmile_qr_scan"}, "type": "electric_scooter", "name": "ff5f1db20459c0117bc23e7a4cb66974", "is_reserved": 0, "lon": -77.01820333333333, "is_disabled": 0, "fusion_lat": 0.0, "lat": 38.9007735, "bike_id": "ff5f1db20459c0117bc23e7a4cb66974", "fusion_lon": 0.0}, {"rental_uris": {"ios": "https://dc.lft.to/lastmile_qr_scan", "android": "https://dc.lft.to/lastmile_qr_scan"}, "type": "electric_scooter", "name": "ea6e0ba382ea5031e4c4bb1d4843d7ff", "is_reserved": 0, "lon": -77.028387, "is_disabled": 0, "fusion_lat": 0.0, "lat": 38.91411883333333, "bike_id": "ea6e0ba382ea5031e4c4bb1d4843d7ff", "fusion_lon": 0.0}, {"rental_uris": {"ios": "https://dc.lft.to/lastmile_qr_scan", "android": "https://dc.lft.to/lastmile_qr_scan"}, "type": "electric_scooter", "name": "a52ac23671e42510c76aa4950429a7a5", "is_reserved": 0, "lon": -77.0212165, "is_disabled": 0, "fusion_lat": 0.0, "lat": 38.924125333333336, "bike_id": "a52ac23671e42510c76aa4950429a7a5", "fusion_lon": 0.0}, {"rental_uris": {"ios": "https://dc.lft.to/lastmile_qr_scan", "android": "https://dc.lft.to/lastmile_qr_scan"}, "type": "electric_scooter", "name": "38533bce50e669621c70c29958b28a6d", "is_reserved": 0, "lon": -77.0150685, "is_disabled": 0, "fusion_lat": 0.0, "lat": 38.92665683333333, "bike_id": "38533bce50e669621c70c29958b28a6d", "fusion_lon": 0.0}, {"rental_uris": {"ios": "https://dc.lft.to/lastmile_qr_scan", "android": "https://dc.lft.to/lastmile_qr_scan"}, "type": "electric_bike", "name": "b83d6c05448ba745d0705b6e1347564d", "is_reserved": 0, "lon": -77.074077, "is_disabled": 0, "fusion_lat": 0.0, "lat": 38.914418, "bike_id": "b83d6c05448ba745d0705b6e1347564d", "fusion_lon": 0.0}, {"rental_uris": {"ios": "https://dc.lft.to/lastmile_qr_scan", "android": "https://dc.lft.to/lastmile_qr_scan"}, "type": "electric_scooter", "name": "d21c5732743709b49c970beb96ea5a03", "is_reserved": 0, "lon": -76.98654383333333, "is_disabled": 0, "fusion_lat": 0.0, "lat": 38.905407, "bike_id": "d21c5732743709b49c970beb96ea5a03", "fusion_lon": 0.0}, {"rental_uris": {"ios": "https://dc.lft.to/lastmile_qr_scan", "android": "https://dc.lft.to/lastmile_qr_scan"}, "type": "electric_scooter", "name": "52257b147a04e891c5b29edff0135e8f", "is_reserved": 0, "lon": -77.00410216666667, "is_disabled": 0, "fusion_lat": 0.0, "lat": 38.879373333333334, "bike_id": "52257b147a04e891c5b29edff0135e8f", "fusion_lon": 0.0}, {"rental_uris": {"ios": "https://dc.lft.to/lastmile_qr_scan", "android": "https://dc.lft.to/lastmile_qr_scan"}, "type": "electric_scooter", "name": "cae0d07dc10514500d23c4098909d194", "is_reserved": 0, "lon": -77.0474635, "is_disabled": 0, "fusion_lat": 0.0, "lat": 38.90084133333333, "bike_id": "cae0d07dc10514500d23c4098909d194", "fusion_lon": 0.0}, {"rental_uris": {"ios": "https://dc.lft.to/lastmile_qr_scan", "android": "https://dc.lft.to/lastmile_qr_scan"}, "type": "electric_scooter", "name": "27d37fd5d37672f375c3896cf392918b", "is_reserved": 0, "lon": -77.02634616666667, "is_disabled": 0, "fusion_lat": 0.0, "lat": 38.89682216666667, "bike_id": "27d37fd5d37672f375c3896cf392918b", "fusion_lon": 0.0}, {"rental_uris": {"ios": "https://dc.lft.to/lastmile_qr_scan", "android": "https://dc.lft.to/lastmile_qr_scan"}, "type": "electric_scooter", "name": "147d9181fce27701caca42afad2b6a81", "is_reserved": 0, "lon": -77.0219675, "is_disabled": 0, "fusion_lat": 0.0, "lat": 38.9113945, "bike_id": "147d9181fce27701caca42afad2b6a81", "fusion_lon": 0.0}, {"rental_uris": {"ios": "https://dc.lft.to/lastmile_qr_scan", "android": "https://dc.lft.to/lastmile_qr_scan"}, "type": "electric_scooter", "name": "12b697746f627fa93d59f05522fd94d1", "is_reserved": 0, "lon": -77.03835616666667, "is_disabled": 0, "fusion_lat": 0.0, "lat": 38.91040733333333, "bike_id": "12b697746f627fa93d59f05522fd94d1", "fusion_lon": 0.0}, {"rental_uris": {"ios": "https://dc.lft.to/lastmile_qr_scan", "android": "https://dc.lft.to/lastmile_qr_scan"}, "type": "electric_bike", "name": "ddeaf6dcdb1af70f5d5fdf3461328d7b", "is_reserved": 0, "lon": -77.10623633333333, "is_disabled": 0, "fusion_lat": 0.0, "lat": 38.87327116666667, "bike_id": "ddeaf6dcdb1af70f5d5fdf3461328d7b", "fusion_lon": 0.0}, {"rental_uris": {"ios": "https://dc.lft.to/lastmile_qr_scan", "android": "https://dc.lft.to/lastmile_qr_scan"}, "type": "electric_scooter", "name": "4f5fca7516162765aad2adaad17f29a5", "is_reserved": 0, "lon": -76.92301383333333, "is_disabled": 0, "fusion_lat": 0.0, "lat": 38.893896833333336, "bike_id": "4f5fca7516162765aad2adaad17f29a5", "fusion_lon": 0.0}, {"rental_uris": {"ios": "https://dc.lft.to/lastmile_qr_scan", "android": "https://dc.lft.to/lastmile_qr_scan"}, "type": "electric_scooter", "name": "ddba08ac17d89fd9a15ea677ba9e3f5e", "is_reserved": 0, "lon": -77.02718833333333, "is_disabled": 0, "fusion_lat": 0.0, "lat": 38.9053455, "bike_id": "ddba08ac17d89fd9a15ea677ba9e3f5e", "fusion_lon": 0.0}, {"rental_uris": {"ios": "https://dc.lft.to/lastmile_qr_scan", "android": "https://dc.lft.to/lastmile_qr_scan"}, "type": "electric_scooter", "name": "1a6b2ad0224d3b6cc1b7726d5ef0fa00", "is_reserved": 0, "lon": -77.02442633333334, "is_disabled": 0, "fusion_lat": 0.0, "lat": 38.94984816666667, "bike_id": "1a6b2ad0224d3b6cc1b7726d5ef0fa00", "fusion_lon": 0.0}, {"rental_uris": {"ios": "https://dc.lft.to/lastmile_qr_scan", "android": "https://dc.lft.to/lastmile_qr_scan"}, "type": "electric_scooter", "name": "3d55523df189477a0519946592adb9d9", "is_reserved": 0, "lon": -77.03211783333333, "is_disabled": 0, "fusion_lat": 0.0, "lat": 38.892399833333336, "bike_id": "3d55523df189477a0519946592adb9d9", "fusion_lon": 0.0}, {"rental_uris": {"ios": "https://dc.lft.to/lastmile_qr_scan", "android": "https://dc.lft.to/lastmile_qr_scan"}, "type": "electric_scooter", "name": "c66efdb3d85e461619c75af1aabe7834", "is_reserved": 0, "lon": -77.07405166666666, "is_disabled": 0, "fusion_lat": 0.0, "lat": 38.897324833333336, "bike_id": "c66efdb3d85e461619c75af1aabe7834", "fusion_lon": 0.0}, {"rental_uris": {"ios": "https://dc.lft.to/lastmile_qr_scan", "android": "https://dc.lft.to/lastmile_qr_scan"}, "type": "electric_scooter", "name": "91faa153fea690e17809a9c73f6cb1b9", "is_reserved": 0, "lon": -77.03495716666667, "is_disabled": 0, "fusion_lat": 0.0, "lat": 38.932791, "bike_id": "91faa153fea690e17809a9c73f6cb1b9", "fusion_lon": 0.0}, {"rental_uris": {"ios": "https://dc.lft.to/lastmile_qr_scan", "android": "https://dc.lft.to/lastmile_qr_scan"}, "type": "electric_scooter", "name": "c3104b013dbf77aadc0d6e90ef7710fd", "is_reserved": 0, "lon": -76.98865116666667, "is_disabled": 0, "fusion_lat": 0.0, "lat": 38.90033733333333, "bike_id": "c3104b013dbf77aadc0d6e90ef7710fd", "fusion_lon": 0.0}, {"rental_uris": {"ios": "https://dc.lft.to/lastmile_qr_scan", "android": "https://dc.lft.to/lastmile_qr_scan"}, "type": "electric_scooter", "name": "975a1d85afe3d8401ad5f344a9df21a3", "is_reserved": 0, "lon": -77.04500983333334, "is_disabled": 0, "fusion_lat": 0.0, "lat": 38.914199333333336, "bike_id": "975a1d85afe3d8401ad5f344a9df21a3", "fusion_lon": 0.0}, {"rental_uris": {"ios": "https://dc.lft.to/lastmile_qr_scan", "android": "https://dc.lft.to/lastmile_qr_scan"}, "type": "electric_scooter", "name": "e074ce16702aafc989450e101d70fe31", "is_reserved": 0, "lon": -77.05341816666666, "is_disabled": 0, "fusion_lat": 0.0, "lat": 38.90459766666667, "bike_id": "e074ce16702aafc989450e101d70fe31", "fusion_lon": 0.0}, {"rental_uris": {"ios": "https://dc.lft.to/lastmile_qr_scan", "android": "https://dc.lft.to/lastmile_qr_scan"}, "type": "electric_scooter", "name": "16cd30912933aeb0c80e620a242b1e9a", "is_reserved": 0, "lon": -77.03663166666666, "is_disabled": 0, "fusion_lat": 0.0, "lat": 38.922935833333334, "bike_id": "16cd30912933aeb0c80e620a242b1e9a", "fusion_lon": 0.0}, {"rental_uris": {"ios": "https://dc.lft.to/lastmile_qr_scan", "android": "https://dc.lft.to/lastmile_qr_scan"}, "type": "electric_scooter", "name": "394dcf946794137872eb262ce5e396bd", "is_reserved": 0, "lon": -77.04054116666667, "is_disabled": 0, "fusion_lat": 0.0, "lat": 38.93017866666667, "bike_id": "394dcf946794137872eb262ce5e396bd", "fusion_lon": 0.0}, {"rental_uris": {"ios": "https://dc.lft.to/lastmile_qr_scan", "android": "https://dc.lft.to/lastmile_qr_scan"}, "type": "electric_scooter", "name": "ddfdca7774ea2c1378926d81fbadf022", "is_reserved": 0, "lon": -77.048731, "is_disabled": 0, "fusion_lat": 0.0, "lat": 38.91025783333333, "bike_id": "ddfdca7774ea2c1378926d81fbadf022", "fusion_lon": 0.0}, {"rental_uris": {"ios": "https://dc.lft.to/lastmile_qr_scan", "android": "https://dc.lft.to/lastmile_qr_scan"}, "type": "electric_scooter", "name": "af5d961675adacb2a091fef04321eacd", "is_reserved": 0, "lon": -77.02292466666667, "is_disabled": 0, "fusion_lat": 0.0, "lat": 38.916888, "bike_id": "af5d961675adacb2a091fef04321eacd", "fusion_lon": 0.0}, {"rental_uris": {"ios": "https://dc.lft.to/lastmile_qr_scan", "android": "https://dc.lft.to/lastmile_qr_scan"}, "type": "electric_scooter", "name": "4c95b27acb447cae4e69c050ecba4391", "is_reserved": 0, "lon": -77.03473433333333, "is_disabled": 0, "fusion_lat": 0.0, "lat": 38.907314, "bike_id": "4c95b27acb447cae4e69c050ecba4391", "fusion_lon": 0.0}, {"rental_uris": {"ios": "https://dc.lft.to/lastmile_qr_scan", "android": "https://dc.lft.to/lastmile_qr_scan"}, "type": "electric_scooter", "name": "5360737d3a432073e117f8a893475ddc", "is_reserved": 0, "lon": -77.02547033333333, "is_disabled": 0, "fusion_lat": 0.0, "lat": 38.951778166666664, "bike_id": "5360737d3a432073e117f8a893475ddc", "fusion_lon": 0.0}, {"rental_uris": {"ios": "https://dc.lft.to/lastmile_qr_scan", "android": "https://dc.lft.to/lastmile_qr_scan"}, "type": "electric_scooter", "name": "fa20d30c581bc3d418d6d47725f367dd", "is_reserved": 0, "lon": -77.02216483333333, "is_disabled": 0, "fusion_lat": 0.0, "lat": 38.9248475, "bike_id": "fa20d30c581bc3d418d6d47725f367dd", "fusion_lon": 0.0}, {"rental_uris": {"ios": "https://dc.lft.to/lastmile_qr_scan", "android": "https://dc.lft.to/lastmile_qr_scan"}, "type": "electric_scooter", "name": "9d00c8ff01faea4fa55ec98631de08ee", "is_reserved": 0, "lon": -77.04148666666667, "is_disabled": 0, "fusion_lat": 0.0, "lat": 38.90578083333333, "bike_id": "9d00c8ff01faea4fa55ec98631de08ee", "fusion_lon": 0.0}, {"rental_uris": {"ios": "https://dc.lft.to/lastmile_qr_scan", "android": "https://dc.lft.to/lastmile_qr_scan"}, "type": "electric_scooter", "name": "26fbb8cd89fb32f504db9be9d66c204a", "is_reserved": 0, "lon": -76.99509283333333, "is_disabled": 0, "fusion_lat": 0.0, "lat": 38.90333866666667, "bike_id": "26fbb8cd89fb32f504db9be9d66c204a", "fusion_lon": 0.0}, {"rental_uris": {"ios": "https://dc.lft.to/lastmile_qr_scan", "android": "https://dc.lft.to/lastmile_qr_scan"}, "type": "electric_scooter", "name": "12bb6aeeb4a87a22f40f26b04f8dede1", "is_reserved": 0, "lon": -77.06848983333333, "is_disabled": 0, "fusion_lat": 0.0, "lat": 38.90394416666667, "bike_id": "12bb6aeeb4a87a22f40f26b04f8dede1", "fusion_lon": 0.0}, {"rental_uris": {"ios": "https://dc.lft.to/lastmile_qr_scan", "android": "https://dc.lft.to/lastmile_qr_scan"}, "type": "electric_scooter", "name": "a7aac462f65c4b5bc529b80eabff6334", "is_reserved": 0, "lon": -77.04402433333334, "is_disabled": 0, "fusion_lat": 0.0, "lat": 38.929535333333334, "bike_id": "a7aac462f65c4b5bc529b80eabff6334", "fusion_lon": 0.0}, {"rental_uris": {"ios": "https://dc.lft.to/lastmile_qr_scan", "android": "https://dc.lft.to/lastmile_qr_scan"}, "type": "electric_scooter", "name": "9ad49af702f3e5f6d8c2a62342dacfe3", "is_reserved": 0, "lon": -77.05320366666666, "is_disabled": 0, "fusion_lat": 0.0, "lat": 38.902705, "bike_id": "9ad49af702f3e5f6d8c2a62342dacfe3", "fusion_lon": 0.0}, {"rental_uris": {"ios": "https://dc.lft.to/lastmile_qr_scan", "android": "https://dc.lft.to/lastmile_qr_scan"}, "type": "electric_scooter", "name": "a8eeb6f3c8ebf22e3848aac74c6d6806", "is_reserved": 0, "lon": -76.96564733333334, "is_disabled": 0, "fusion_lat": 0.0, "lat": 38.876089666666665, "bike_id": "a8eeb6f3c8ebf22e3848aac74c6d6806", "fusion_lon": 0.0}, {"rental_uris": {"ios": "https://dc.lft.to/lastmile_qr_scan", "android": "https://dc.lft.to/lastmile_qr_scan"}, "type": "electric_bike", "name": "655e2fb3e80d7e4518869a1c9ffced85", "is_reserved": 0, "lon": -77.07020333333334, "is_disabled": 0, "fusion_lat": 0.0, "lat": 38.841122166666665, "bike_id": "655e2fb3e80d7e4518869a1c9ffced85", "fusion_lon": 0.0}, {"rental_uris": {"ios": "https://dc.lft.to/lastmile_qr_scan", "android": "https://dc.lft.to/lastmile_qr_scan"}, "type": "electric_scooter", "name": "5023a0a9254ab1e12a0fb7d3be071259", "is_reserved": 0, "lon": -77.0240575, "is_disabled": 0, "fusion_lat": 0.0, "lat": 38.90963633333333, "bike_id": "5023a0a9254ab1e12a0fb7d3be071259", "fusion_lon": 0.0}, {"rental_uris": {"ios": "https://dc.lft.to/lastmile_qr_scan", "android": "https://dc.lft.to/lastmile_qr_scan"}, "type": "electric_scooter", "name": "d78700ad9ebbeb065c19e7ed141af283", "is_reserved": 0, "lon": -77.06605833333333, "is_disabled": 0, "fusion_lat": 0.0, "lat": 38.90527516666667, "bike_id": "d78700ad9ebbeb065c19e7ed141af283", "fusion_lon": 0.0}, {"rental_uris": {"ios": "https://dc.lft.to/lastmile_qr_scan", "android": "https://dc.lft.to/lastmile_qr_scan"}, "type": "electric_scooter", "name": "9afa4b00cce88e089eb904805549fb58", "is_reserved": 0, "lon": -76.94390916666667, "is_disabled": 0, "fusion_lat": 0.0, "lat": 38.89123266666667, "bike_id": "9afa4b00cce88e089eb904805549fb58", "fusion_lon": 0.0}, {"rental_uris": {"ios": "https://dc.lft.to/lastmile_qr_scan", "android": "https://dc.lft.to/lastmile_qr_scan"}, "type": "electric_scooter", "name": "c8c133f4e81258fa6a9410431b08f4d9", "is_reserved": 0, "lon": -77.04603166666666, "is_disabled": 0, "fusion_lat": 0.0, "lat": 38.914962833333334, "bike_id": "c8c133f4e81258fa6a9410431b08f4d9", "fusion_lon": 0.0}, {"rental_uris": {"ios": "https://dc.lft.to/lastmile_qr_scan", "android": "https://dc.lft.to/lastmile_qr_scan"}, "type": "electric_scooter", "name": "81ea4b55a78d7c57bdc864f002028ca6", "is_reserved": 0, "lon": -77.0194545, "is_disabled": 0, "fusion_lat": 0.0, "lat": 38.9231575, "bike_id": "81ea4b55a78d7c57bdc864f002028ca6", "fusion_lon": 0.0}, {"rental_uris": {"ios": "https://dc.lft.to/lastmile_qr_scan", "android": "https://dc.lft.to/lastmile_qr_scan"}, "type": "electric_scooter", "name": "8c919eb62f063f912e0d99b5a9dc5eea", "is_reserved": 0, "lon": -77.0019505, "is_disabled": 0, "fusion_lat": 0.0, "lat": 38.900534, "bike_id": "8c919eb62f063f912e0d99b5a9dc5eea", "fusion_lon": 0.0}, {"rental_uris": {"ios": "https://dc.lft.to/lastmile_qr_scan", "android": "https://dc.lft.to/lastmile_qr_scan"}, "type": "electric_scooter", "name": "a095e0e21f1b783f7200a93774c09750", "is_reserved": 0, "lon": -77.02003, "is_disabled": 0, "fusion_lat": 0.0, "lat": 38.900492166666666, "bike_id": "a095e0e21f1b783f7200a93774c09750", "fusion_lon": 0.0}, {"rental_uris": {"ios": "https://dc.lft.to/lastmile_qr_scan", "android": "https://dc.lft.to/lastmile_qr_scan"}, "type": "electric_scooter", "name": "540af8dfda54ba01c6ba8b4a7c4692a8", "is_reserved": 0, "lon": -77.027085, "is_disabled": 0, "fusion_lat": 0.0, "lat": 38.8972715, "bike_id": "540af8dfda54ba01c6ba8b4a7c4692a8", "fusion_lon": 0.0}, {"rental_uris": {"ios": "https://dc.lft.to/lastmile_qr_scan", "android": "https://dc.lft.to/lastmile_qr_scan"}, "type": "electric_scooter", "name": "6580da818ddd74ac8e7bf85b5f4d232d", "is_reserved": 0, "lon": -77.04957816666666, "is_disabled": 0, "fusion_lat": 0.0, "lat": 38.913403333333335, "bike_id": "6580da818ddd74ac8e7bf85b5f4d232d", "fusion_lon": 0.0}, {"rental_uris": {"ios": "https://dc.lft.to/lastmile_qr_scan", "android": "https://dc.lft.to/lastmile_qr_scan"}, "type": "electric_scooter", "name": "f89dfe0087dbcfcac4cf9ccd2dd6d214", "is_reserved": 0, "lon": -77.0411305, "is_disabled": 0, "fusion_lat": 0.0, "lat": 38.93469416666667, "bike_id": "f89dfe0087dbcfcac4cf9ccd2dd6d214", "fusion_lon": 0.0}, {"rental_uris": {"ios": "https://dc.lft.to/lastmile_qr_scan", "android": "https://dc.lft.to/lastmile_qr_scan"}, "type": "electric_bike", "name": "587a50633af8cd59cbeb5dadfa4e3bf3", "is_reserved": 0, "lon": -76.941635, "is_disabled": 0, "fusion_lat": 0.0, "lat": 38.865573499999996, "bike_id": "587a50633af8cd59cbeb5dadfa4e3bf3", "fusion_lon": 0.0}, {"rental_uris": {"ios": "https://dc.lft.to/lastmile_qr_scan", "android": "https://dc.lft.to/lastmile_qr_scan"}, "type": "electric_scooter", "name": "3d7f01c361db1f36f47b81657436cd06", "is_reserved": 0, "lon": -77.01611333333334, "is_disabled": 0, "fusion_lat": 0.0, "lat": 38.89966716666667, "bike_id": "3d7f01c361db1f36f47b81657436cd06", "fusion_lon": 0.0}, {"rental_uris": {"ios": "https://dc.lft.to/lastmile_qr_scan", "android": "https://dc.lft.to/lastmile_qr_scan"}, "type": "electric_scooter", "name": "906c9d81a343b6b18a025295f63fe475", "is_reserved": 0, "lon": -76.98034566666666, "is_disabled": 0, "fusion_lat": 0.0, "lat": 38.9168015, "bike_id": "906c9d81a343b6b18a025295f63fe475", "fusion_lon": 0.0}, {"rental_uris": {"ios": "https://dc.lft.to/lastmile_qr_scan", "android": "https://dc.lft.to/lastmile_qr_scan"}, "type": "electric_scooter", "name": "db1b6913669b764be5af8e516ca93ef1", "is_reserved": 0, "lon": -77.0344155, "is_disabled": 0, "fusion_lat": 0.0, "lat": 38.90737933333333, "bike_id": "db1b6913669b764be5af8e516ca93ef1", "fusion_lon": 0.0}, {"rental_uris": {"ios": "https://dc.lft.to/lastmile_qr_scan", "android": "https://dc.lft.to/lastmile_qr_scan"}, "type": "electric_scooter", "name": "77a212df74bef4559c99cf82cbcadc16", "is_reserved": 0, "lon": -77.03956083333334, "is_disabled": 0, "fusion_lat": 0.0, "lat": 38.892475, "bike_id": "77a212df74bef4559c99cf82cbcadc16", "fusion_lon": 0.0}, {"rental_uris": {"ios": "https://dc.lft.to/lastmile_qr_scan", "android": "https://dc.lft.to/lastmile_qr_scan"}, "type": "electric_scooter", "name": "38dfddc19e410e107d34e3e4a08a4ec7", "is_reserved": 0, "lon": -77.03861266666667, "is_disabled": 0, "fusion_lat": 0.0, "lat": 38.91263283333333, "bike_id": "38dfddc19e410e107d34e3e4a08a4ec7", "fusion_lon": 0.0}, {"rental_uris": {"ios": "https://dc.lft.to/lastmile_qr_scan", "android": "https://dc.lft.to/lastmile_qr_scan"}, "type": "electric_scooter", "name": "28653591cb5f014c8589d1bd65fe2d00", "is_reserved": 0, "lon": -77.004213, "is_disabled": 0, "fusion_lat": 0.0, "lat": 38.87699766666667, "bike_id": "28653591cb5f014c8589d1bd65fe2d00", "fusion_lon": 0.0}, {"rental_uris": {"ios": "https://dc.lft.to/lastmile_qr_scan", "android": "https://dc.lft.to/lastmile_qr_scan"}, "type": "electric_scooter", "name": "e965227d5e955d03df58a44753fb956b", "is_reserved": 0, "lon": -77.0239445, "is_disabled": 0, "fusion_lat": 0.0, "lat": 38.906619666666664, "bike_id": "e965227d5e955d03df58a44753fb956b", "fusion_lon": 0.0}, {"rental_uris": {"ios": "https://dc.lft.to/lastmile_qr_scan", "android": "https://dc.lft.to/lastmile_qr_scan"}, "type": "electric_bike", "name": "e001c04892be7f13767d20bb451d2910", "is_reserved": 0, "lon": -77.0259235, "is_disabled": 0, "fusion_lat": 0.0, "lat": 38.978766666666665, "bike_id": "e001c04892be7f13767d20bb451d2910", "fusion_lon": 0.0}, {"rental_uris": {"ios": "https://dc.lft.to/lastmile_qr_scan", "android": "https://dc.lft.to/lastmile_qr_scan"}, "type": "electric_scooter", "name": "20a64c82cc94321bcce7b4e11836832f", "is_reserved": 0, "lon": -77.01614366666666, "is_disabled": 0, "fusion_lat": 0.0, "lat": 38.90146516666667, "bike_id": "20a64c82cc94321bcce7b4e11836832f", "fusion_lon": 0.0}, {"rental_uris": {"ios": "https://dc.lft.to/lastmile_qr_scan", "android": "https://dc.lft.to/lastmile_qr_scan"}, "type": "electric_scooter", "name": "e4b7f396f5280299ce421213f59cca3a", "is_reserved": 0, "lon": -77.01593666666666, "is_disabled": 0, "fusion_lat": 0.0, "lat": 38.9165515, "bike_id": "e4b7f396f5280299ce421213f59cca3a", "fusion_lon": 0.0}, {"rental_uris": {"ios": "https://dc.lft.to/lastmile_qr_scan", "android": "https://dc.lft.to/lastmile_qr_scan"}, "type": "electric_scooter", "name": "359a91ff944a2fd67838dd67f7157cb8", "is_reserved": 0, "lon": -77.034459, "is_disabled": 0, "fusion_lat": 0.0, "lat": 38.907366333333336, "bike_id": "359a91ff944a2fd67838dd67f7157cb8", "fusion_lon": 0.0}, {"rental_uris": {"ios": "https://dc.lft.to/lastmile_qr_scan", "android": "https://dc.lft.to/lastmile_qr_scan"}, "type": "electric_bike", "name": "8a261c002b57d4aea401000fb3f82b68", "is_reserved": 0, "lon": -76.999126, "is_disabled": 0, "fusion_lat": 0.0, "lat": 38.864521833333335, "bike_id": "8a261c002b57d4aea401000fb3f82b68", "fusion_lon": 0.0}, {"rental_uris": {"ios": "https://dc.lft.to/lastmile_qr_scan", "android": "https://dc.lft.to/lastmile_qr_scan"}, "type": "electric_scooter", "name": "c233c53b4389028cb5c17f4bbaaab4ee", "is_reserved": 0, "lon": -77.04327933333333, "is_disabled": 0, "fusion_lat": 0.0, "lat": 38.907334166666665, "bike_id": "c233c53b4389028cb5c17f4bbaaab4ee", "fusion_lon": 0.0}, {"rental_uris": {"ios": "https://dc.lft.to/lastmile_qr_scan", "android": "https://dc.lft.to/lastmile_qr_scan"}, "type": "electric_scooter", "name": "4c100d32cea6a1bd65379a15e7937da2", "is_reserved": 0, "lon": -77.03955883333333, "is_disabled": 0, "fusion_lat": 0.0, "lat": 38.892541333333334, "bike_id": "4c100d32cea6a1bd65379a15e7937da2", "fusion_lon": 0.0}, {"rental_uris": {"ios": "https://dc.lft.to/lastmile_qr_scan", "android": "https://dc.lft.to/lastmile_qr_scan"}, "type": "electric_scooter", "name": "984f8786a48fc59cd33c658eb6739705", "is_reserved": 0, "lon": -77.04951983333333, "is_disabled": 0, "fusion_lat": 0.0, "lat": 38.90088383333333, "bike_id": "984f8786a48fc59cd33c658eb6739705", "fusion_lon": 0.0}, {"rental_uris": {"ios": "https://dc.lft.to/lastmile_qr_scan", "android": "https://dc.lft.to/lastmile_qr_scan"}, "type": "electric_scooter", "name": "38ef0e0f725ced4981575785936f8f6b", "is_reserved": 0, "lon": -77.01064433333333, "is_disabled": 0, "fusion_lat": 0.0, "lat": 38.898125, "bike_id": "38ef0e0f725ced4981575785936f8f6b", "fusion_lon": 0.0}, {"rental_uris": {"ios": "https://dc.lft.to/lastmile_qr_scan", "android": "https://dc.lft.to/lastmile_qr_scan"}, "type": "electric_scooter", "name": "d09a847c114f00da29a11de5cfdc9258", "is_reserved": 0, "lon": -77.00610616666667, "is_disabled": 0, "fusion_lat": 0.0, "lat": 38.87184383333334, "bike_id": "d09a847c114f00da29a11de5cfdc9258", "fusion_lon": 0.0}, {"rental_uris": {"ios": "https://dc.lft.to/lastmile_qr_scan", "android": "https://dc.lft.to/lastmile_qr_scan"}, "type": "electric_scooter", "name": "31b1df4299725141422c65cbff11afba", "is_reserved": 0, "lon": -77.04082016666666, "is_disabled": 0, "fusion_lat": 0.0, "lat": 38.9477225, "bike_id": "31b1df4299725141422c65cbff11afba", "fusion_lon": 0.0}, {"rental_uris": {"ios": "https://dc.lft.to/lastmile_qr_scan", "android": "https://dc.lft.to/lastmile_qr_scan"}, "type": "electric_scooter", "name": "492424e2bb975b0553f3b47ca2e2bd14", "is_reserved": 0, "lon": -77.03660683333334, "is_disabled": 0, "fusion_lat": 0.0, "lat": 38.9182955, "bike_id": "492424e2bb975b0553f3b47ca2e2bd14", "fusion_lon": 0.0}, {"rental_uris": {"ios": "https://dc.lft.to/lastmile_qr_scan", "android": "https://dc.lft.to/lastmile_qr_scan"}, "type": "electric_scooter", "name": "b03f3e613968f1d722b1cd5e23b6f84c", "is_reserved": 0, "lon": -76.9950115, "is_disabled": 0, "fusion_lat": 0.0, "lat": 38.86250666666667, "bike_id": "b03f3e613968f1d722b1cd5e23b6f84c", "fusion_lon": 0.0}, {"rental_uris": {"ios": "https://dc.lft.to/lastmile_qr_scan", "android": "https://dc.lft.to/lastmile_qr_scan"}, "type": "electric_scooter", "name": "f57d9e5f8f74ad49d59257d9b50b57dd", "is_reserved": 0, "lon": -77.034506, "is_disabled": 0, "fusion_lat": 0.0, "lat": 38.901042333333336, "bike_id": "f57d9e5f8f74ad49d59257d9b50b57dd", "fusion_lon": 0.0}, {"rental_uris": {"ios": "https://dc.lft.to/lastmile_qr_scan", "android": "https://dc.lft.to/lastmile_qr_scan"}, "type": "electric_scooter", "name": "73b84a6407a58f4238e8c33a710bba6e", "is_reserved": 0, "lon": -77.03450016666666, "is_disabled": 0, "fusion_lat": 0.0, "lat": 38.90585816666667, "bike_id": "73b84a6407a58f4238e8c33a710bba6e", "fusion_lon": 0.0}, {"rental_uris": {"ios": "https://dc.lft.to/lastmile_qr_scan", "android": "https://dc.lft.to/lastmile_qr_scan"}, "type": "electric_scooter", "name": "d2c61ea2c4088fd5710ec33f5c748bb3", "is_reserved": 0, "lon": -77.00764733333334, "is_disabled": 0, "fusion_lat": 0.0, "lat": 38.90595033333334, "bike_id": "d2c61ea2c4088fd5710ec33f5c748bb3", "fusion_lon": 0.0}, {"rental_uris": {"ios": "https://dc.lft.to/lastmile_qr_scan", "android": "https://dc.lft.to/lastmile_qr_scan"}, "type": "electric_scooter", "name": "1ace87deeef8272c92648dbc3886ebfc", "is_reserved": 0, "lon": -77.0632335, "is_disabled": 0, "fusion_lat": 0.0, "lat": 38.913427, "bike_id": "1ace87deeef8272c92648dbc3886ebfc", "fusion_lon": 0.0}, {"rental_uris": {"ios": "https://dc.lft.to/lastmile_qr_scan", "android": "https://dc.lft.to/lastmile_qr_scan"}, "type": "electric_bike", "name": "8bce85d7f68e3c916e8a70657a4cc910", "is_reserved": 0, "lon": -77.03258216666667, "is_disabled": 0, "fusion_lat": 0.0, "lat": 38.933835333333334, "bike_id": "8bce85d7f68e3c916e8a70657a4cc910", "fusion_lon": 0.0}, {"rental_uris": {"ios": "https://dc.lft.to/lastmile_qr_scan", "android": "https://dc.lft.to/lastmile_qr_scan"}, "type": "electric_bike", "name": "8b727aaa9623340c59a27e7be70f5284", "is_reserved": 0, "lon": -77.11283633333333, "is_disabled": 0, "fusion_lat": 0.0, "lat": 38.831073333333336, "bike_id": "8b727aaa9623340c59a27e7be70f5284", "fusion_lon": 0.0}, {"rental_uris": {"ios": "https://dc.lft.to/lastmile_qr_scan", "android": "https://dc.lft.to/lastmile_qr_scan"}, "type": "electric_scooter", "name": "b48e704f3b4c0d8d9559a80244675936", "is_reserved": 0, "lon": -76.99748516666666, "is_disabled": 0, "fusion_lat": 0.0, "lat": 38.900410666666666, "bike_id": "b48e704f3b4c0d8d9559a80244675936", "fusion_lon": 0.0}, {"rental_uris": {"ios": "https://dc.lft.to/lastmile_qr_scan", "android": "https://dc.lft.to/lastmile_qr_scan"}, "type": "electric_scooter", "name": "804f23d9ba0a1861ecaa198adc31ba3e", "is_reserved": 0, "lon": -77.03253933333333, "is_disabled": 0, "fusion_lat": 0.0, "lat": 38.917206166666666, "bike_id": "804f23d9ba0a1861ecaa198adc31ba3e", "fusion_lon": 0.0}, {"rental_uris": {"ios": "https://dc.lft.to/lastmile_qr_scan", "android": "https://dc.lft.to/lastmile_qr_scan"}, "type": "electric_scooter", "name": "0fbf8af9430fec5207fc26a5899bef4d", "is_reserved": 0, "lon": -77.0211405, "is_disabled": 0, "fusion_lat": 0.0, "lat": 38.917410333333336, "bike_id": "0fbf8af9430fec5207fc26a5899bef4d", "fusion_lon": 0.0}, {"rental_uris": {"ios": "https://dc.lft.to/lastmile_qr_scan", "android": "https://dc.lft.to/lastmile_qr_scan"}, "type": "electric_scooter", "name": "9fdc8fef645ae2c8fe80e68212683741", "is_reserved": 0, "lon": -77.0878085, "is_disabled": 0, "fusion_lat": 0.0, "lat": 38.935605833333334, "bike_id": "9fdc8fef645ae2c8fe80e68212683741", "fusion_lon": 0.0}, {"rental_uris": {"ios": "https://dc.lft.to/lastmile_qr_scan", "android": "https://dc.lft.to/lastmile_qr_scan"}, "type": "electric_scooter", "name": "04aa53a279faeb8956927f14015ad1a4", "is_reserved": 0, "lon": -77.0344165, "is_disabled": 0, "fusion_lat": 0.0, "lat": 38.9099535, "bike_id": "04aa53a279faeb8956927f14015ad1a4", "fusion_lon": 0.0}, {"rental_uris": {"ios": "https://dc.lft.to/lastmile_qr_scan", "android": "https://dc.lft.to/lastmile_qr_scan"}, "type": "electric_bike", "name": "79238c1fc26530116aa2fd507279d57b", "is_reserved": 0, "lon": -76.97081850000001, "is_disabled": 0, "fusion_lat": 0.0, "lat": 38.89222916666667, "bike_id": "79238c1fc26530116aa2fd507279d57b", "fusion_lon": 0.0}, {"rental_uris": {"ios": "https://dc.lft.to/lastmile_qr_scan", "android": "https://dc.lft.to/lastmile_qr_scan"}, "type": "electric_scooter", "name": "17ab0677c67fc18dc473876fe6f463ad", "is_reserved": 0, "lon": -77.03973633333334, "is_disabled": 0, "fusion_lat": 0.0, "lat": 38.901307333333335, "bike_id": "17ab0677c67fc18dc473876fe6f463ad", "fusion_lon": 0.0}, {"rental_uris": {"ios": "https://dc.lft.to/lastmile_qr_scan", "android": "https://dc.lft.to/lastmile_qr_scan"}, "type": "electric_bike", "name": "6eda6f75e968b60617839389ef774951", "is_reserved": 0, "lon": -76.98061466666667, "is_disabled": 0, "fusion_lat": 0.0, "lat": 38.9725635, "bike_id": "6eda6f75e968b60617839389ef774951", "fusion_lon": 0.0}, {"rental_uris": {"ios": "https://dc.lft.to/lastmile_qr_scan", "android": "https://dc.lft.to/lastmile_qr_scan"}, "type": "electric_scooter", "name": "9d46e4873b297e0a0ae6297172356e1d", "is_reserved": 0, "lon": -77.02412966666667, "is_disabled": 0, "fusion_lat": 0.0, "lat": 38.945117833333335, "bike_id": "9d46e4873b297e0a0ae6297172356e1d", "fusion_lon": 0.0}, {"rental_uris": {"ios": "https://dc.lft.to/lastmile_qr_scan", "android": "https://dc.lft.to/lastmile_qr_scan"}, "type": "electric_scooter", "name": "fec68e85c8cfba77a62509854b457c3e", "is_reserved": 0, "lon": -77.01773816666666, "is_disabled": 0, "fusion_lat": 0.0, "lat": 38.88030283333333, "bike_id": "fec68e85c8cfba77a62509854b457c3e", "fusion_lon": 0.0}, {"rental_uris": {"ios": "https://dc.lft.to/lastmile_qr_scan", "android": "https://dc.lft.to/lastmile_qr_scan"}, "type": "electric_scooter", "name": "aa0ae8f0d643b1bfed87bafa00abd588", "is_reserved": 0, "lon": -77.0338165, "is_disabled": 0, "fusion_lat": 0.0, "lat": 38.909788, "bike_id": "aa0ae8f0d643b1bfed87bafa00abd588", "fusion_lon": 0.0}, {"rental_uris": {"ios": "https://dc.lft.to/lastmile_qr_scan", "android": "https://dc.lft.to/lastmile_qr_scan"}, "type": "electric_scooter", "name": "d2a5ea046abcf0af327e84f0d9bcf059", "is_reserved": 0, "lon": -77.028477, "is_disabled": 0, "fusion_lat": 0.0, "lat": 38.892251333333334, "bike_id": "d2a5ea046abcf0af327e84f0d9bcf059", "fusion_lon": 0.0}, {"rental_uris": {"ios": "https://dc.lft.to/lastmile_qr_scan", "android": "https://dc.lft.to/lastmile_qr_scan"}, "type": "electric_scooter", "name": "8eca8306a153aef2c92cba709f5c1f88", "is_reserved": 0, "lon": -77.02695833333334, "is_disabled": 0, "fusion_lat": 0.0, "lat": 38.9240035, "bike_id": "8eca8306a153aef2c92cba709f5c1f88", "fusion_lon": 0.0}, {"rental_uris": {"ios": "https://dc.lft.to/lastmile_qr_scan", "android": "https://dc.lft.to/lastmile_qr_scan"}, "type": "electric_scooter", "name": "013fe97261512f49336d95118dcb058f", "is_reserved": 0, "lon": -77.0018585, "is_disabled": 0, "fusion_lat": 0.0, "lat": 38.90034, "bike_id": "013fe97261512f49336d95118dcb058f", "fusion_lon": 0.0}, {"rental_uris": {"ios": "https://dc.lft.to/lastmile_qr_scan", "android": "https://dc.lft.to/lastmile_qr_scan"}, "type": "electric_scooter", "name": "e65b89da70d7128ee366ed77fc56468c", "is_reserved": 0, "lon": -77.03621166666667, "is_disabled": 0, "fusion_lat": 0.0, "lat": 38.92851733333333, "bike_id": "e65b89da70d7128ee366ed77fc56468c", "fusion_lon": 0.0}, {"rental_uris": {"ios": "https://dc.lft.to/lastmile_qr_scan", "android": "https://dc.lft.to/lastmile_qr_scan"}, "type": "electric_scooter", "name": "44273694aa7ee3753c56835ca7f21a6b", "is_reserved": 0, "lon": -77.00687916666666, "is_disabled": 0, "fusion_lat": 0.0, "lat": 38.884289333333335, "bike_id": "44273694aa7ee3753c56835ca7f21a6b", "fusion_lon": 0.0}, {"rental_uris": {"ios": "https://dc.lft.to/lastmile_qr_scan", "android": "https://dc.lft.to/lastmile_qr_scan"}, "type": "electric_scooter", "name": "d5943a9a8ae62cc6f5e7ad36c0190a5a", "is_reserved": 0, "lon": -77.02796933333333, "is_disabled": 0, "fusion_lat": 0.0, "lat": 38.923200333333334, "bike_id": "d5943a9a8ae62cc6f5e7ad36c0190a5a", "fusion_lon": 0.0}, {"rental_uris": {"ios": "https://dc.lft.to/lastmile_qr_scan", "android": "https://dc.lft.to/lastmile_qr_scan"}, "type": "electric_scooter", "name": "4de47fc4f22b1f5900bf933b7ee5ab2f", "is_reserved": 0, "lon": -77.04531566666667, "is_disabled": 0, "fusion_lat": 0.0, "lat": 38.8996395, "bike_id": "4de47fc4f22b1f5900bf933b7ee5ab2f", "fusion_lon": 0.0}, {"rental_uris": {"ios": "https://dc.lft.to/lastmile_qr_scan", "android": "https://dc.lft.to/lastmile_qr_scan"}, "type": "electric_scooter", "name": "66802b5afd16bb23ae28b5e57aeb56e0", "is_reserved": 0, "lon": -76.99529716666666, "is_disabled": 0, "fusion_lat": 0.0, "lat": 38.862696666666665, "bike_id": "66802b5afd16bb23ae28b5e57aeb56e0", "fusion_lon": 0.0}, {"rental_uris": {"ios": "https://dc.lft.to/lastmile_qr_scan", "android": "https://dc.lft.to/lastmile_qr_scan"}, "type": "electric_scooter", "name": "2ed41a1dbf961a5f55913bb3ff009d4b", "is_reserved": 0, "lon": -77.04222016666667, "is_disabled": 0, "fusion_lat": 0.0, "lat": 38.9112375, "bike_id": "2ed41a1dbf961a5f55913bb3ff009d4b", "fusion_lon": 0.0}, {"rental_uris": {"ios": "https://dc.lft.to/lastmile_qr_scan", "android": "https://dc.lft.to/lastmile_qr_scan"}, "type": "electric_scooter", "name": "e94d026ecc812e0e4751720db33c47fd", "is_reserved": 0, "lon": -77.02745216666666, "is_disabled": 0, "fusion_lat": 0.0, "lat": 38.966111, "bike_id": "e94d026ecc812e0e4751720db33c47fd", "fusion_lon": 0.0}, {"rental_uris": {"ios": "https://dc.lft.to/lastmile_qr_scan", "android": "https://dc.lft.to/lastmile_qr_scan"}, "type": "electric_scooter", "name": "ebf08aad752ce28c6261f74b1b0c3be8", "is_reserved": 0, "lon": -77.03478383333334, "is_disabled": 0, "fusion_lat": 0.0, "lat": 38.90728166666667, "bike_id": "ebf08aad752ce28c6261f74b1b0c3be8", "fusion_lon": 0.0}, {"rental_uris": {"ios": "https://dc.lft.to/lastmile_qr_scan", "android": "https://dc.lft.to/lastmile_qr_scan"}, "type": "electric_scooter", "name": "9b479e78393cbd26dd5db9f532bf978b", "is_reserved": 0, "lon": -77.0752145, "is_disabled": 0, "fusion_lat": 0.0, "lat": 38.939526, "bike_id": "9b479e78393cbd26dd5db9f532bf978b", "fusion_lon": 0.0}, {"rental_uris": {"ios": "https://dc.lft.to/lastmile_qr_scan", "android": "https://dc.lft.to/lastmile_qr_scan"}, "type": "electric_scooter", "name": "a0b75ad2a0fa05d0cdfa202ceb4e8645", "is_reserved": 0, "lon": -77.0366195, "is_disabled": 0, "fusion_lat": 0.0, "lat": 38.922932333333335, "bike_id": "a0b75ad2a0fa05d0cdfa202ceb4e8645", "fusion_lon": 0.0}, {"rental_uris": {"ios": "https://dc.lft.to/lastmile_qr_scan", "android": "https://dc.lft.to/lastmile_qr_scan"}, "type": "electric_scooter", "name": "4158b9b9205075b268af47b6915474b4", "is_reserved": 0, "lon": -77.03784533333334, "is_disabled": 0, "fusion_lat": 0.0, "lat": 38.91278766666667, "bike_id": "4158b9b9205075b268af47b6915474b4", "fusion_lon": 0.0}, {"rental_uris": {"ios": "https://dc.lft.to/lastmile_qr_scan", "android": "https://dc.lft.to/lastmile_qr_scan"}, "type": "electric_scooter", "name": "541dfd50ec05931035145949565f0a96", "is_reserved": 0, "lon": -77.0399525, "is_disabled": 0, "fusion_lat": 0.0, "lat": 38.94185483333333, "bike_id": "541dfd50ec05931035145949565f0a96", "fusion_lon": 0.0}, {"rental_uris": {"ios": "https://dc.lft.to/lastmile_qr_scan", "android": "https://dc.lft.to/lastmile_qr_scan"}, "type": "electric_bike", "name": "d7fa626490e49b57b4dbfc7a0de6e9bf", "is_reserved": 0, "lon": -77.0814095, "is_disabled": 0, "fusion_lat": 0.0, "lat": 38.82301066666667, "bike_id": "d7fa626490e49b57b4dbfc7a0de6e9bf", "fusion_lon": 0.0}, {"rental_uris": {"ios": "https://dc.lft.to/lastmile_qr_scan", "android": "https://dc.lft.to/lastmile_qr_scan"}, "type": "electric_bike", "name": "d8af8a5e9b1bb0094b0982a4998c68ef", "is_reserved": 0, "lon": -76.9632265, "is_disabled": 0, "fusion_lat": 0.0, "lat": 38.938993833333335, "bike_id": "d8af8a5e9b1bb0094b0982a4998c68ef", "fusion_lon": 0.0}, {"rental_uris": {"ios": "https://dc.lft.to/lastmile_qr_scan", "android": "https://dc.lft.to/lastmile_qr_scan"}, "type": "electric_bike", "name": "ca01985fee384d35ddfc7759ed9fa1e2", "is_reserved": 0, "lon": -77.02428833333333, "is_disabled": 0, "fusion_lat": 0.0, "lat": 38.925548166666665, "bike_id": "ca01985fee384d35ddfc7759ed9fa1e2", "fusion_lon": 0.0}, {"rental_uris": {"ios": "https://dc.lft.to/lastmile_qr_scan", "android": "https://dc.lft.to/lastmile_qr_scan"}, "type": "electric_scooter", "name": "318f94274b4033dd96f765a9063878b3", "is_reserved": 0, "lon": -77.03452416666667, "is_disabled": 0, "fusion_lat": 0.0, "lat": 38.90585033333333, "bike_id": "318f94274b4033dd96f765a9063878b3", "fusion_lon": 0.0}, {"rental_uris": {"ios": "https://dc.lft.to/lastmile_qr_scan", "android": "https://dc.lft.to/lastmile_qr_scan"}, "type": "electric_scooter", "name": "987d99252f556702604fd5d5b3c427cf", "is_reserved": 0, "lon": -77.051315, "is_disabled": 0, "fusion_lat": 0.0, "lat": 38.90208783333333, "bike_id": "987d99252f556702604fd5d5b3c427cf", "fusion_lon": 0.0}, {"rental_uris": {"ios": "https://dc.lft.to/lastmile_qr_scan", "android": "https://dc.lft.to/lastmile_qr_scan"}, "type": "electric_scooter", "name": "f03e7b41c8c6d9948260929f5923222c", "is_reserved": 0, "lon": -77.0785565, "is_disabled": 0, "fusion_lat": 0.0, "lat": 38.93142483333333, "bike_id": "f03e7b41c8c6d9948260929f5923222c", "fusion_lon": 0.0}, {"rental_uris": {"ios": "https://dc.lft.to/lastmile_qr_scan", "android": "https://dc.lft.to/lastmile_qr_scan"}, "type": "electric_scooter", "name": "1929b839d71875742b88a286353708ec", "is_reserved": 0, "lon": -77.03277783333333, "is_disabled": 0, "fusion_lat": 0.0, "lat": 38.92882633333333, "bike_id": "1929b839d71875742b88a286353708ec", "fusion_lon": 0.0}, {"rental_uris": {"ios": "https://dc.lft.to/lastmile_qr_scan", "android": "https://dc.lft.to/lastmile_qr_scan"}, "type": "electric_scooter", "name": "918c4be1529b9eb4d26e3cd6c2b2e8e0", "is_reserved": 0, "lon": -77.02733016666667, "is_disabled": 0, "fusion_lat": 0.0, "lat": 38.9340385, "bike_id": "918c4be1529b9eb4d26e3cd6c2b2e8e0", "fusion_lon": 0.0}, {"rental_uris": {"ios": "https://dc.lft.to/lastmile_qr_scan", "android": "https://dc.lft.to/lastmile_qr_scan"}, "type": "electric_scooter", "name": "086bc304508dbec5726c13e15851b4b2", "is_reserved": 0, "lon": -77.0006865, "is_disabled": 0, "fusion_lat": 0.0, "lat": 38.91919583333333, "bike_id": "086bc304508dbec5726c13e15851b4b2", "fusion_lon": 0.0}, {"rental_uris": {"ios": "https://dc.lft.to/lastmile_qr_scan", "android": "https://dc.lft.to/lastmile_qr_scan"}, "type": "electric_scooter", "name": "c49404f4465af25c42a8c937fd5bda6c", "is_reserved": 0, "lon": -77.02962216666667, "is_disabled": 0, "fusion_lat": 0.0, "lat": 38.907191833333336, "bike_id": "c49404f4465af25c42a8c937fd5bda6c", "fusion_lon": 0.0}, {"rental_uris": {"ios": "https://dc.lft.to/lastmile_qr_scan", "android": "https://dc.lft.to/lastmile_qr_scan"}, "type": "electric_scooter", "name": "97115016c36c34da5bd288d3d6fab570", "is_reserved": 0, "lon": -77.02100433333334, "is_disabled": 0, "fusion_lat": 0.0, "lat": 38.92322566666667, "bike_id": "97115016c36c34da5bd288d3d6fab570", "fusion_lon": 0.0}, {"rental_uris": {"ios": "https://dc.lft.to/lastmile_qr_scan", "android": "https://dc.lft.to/lastmile_qr_scan"}, "type": "electric_scooter", "name": "52abe52af49dd94584ce3a1ca9b7b02c", "is_reserved": 0, "lon": -77.04563666666667, "is_disabled": 0, "fusion_lat": 0.0, "lat": 38.914093333333334, "bike_id": "52abe52af49dd94584ce3a1ca9b7b02c", "fusion_lon": 0.0}, {"rental_uris": {"ios": "https://dc.lft.to/lastmile_qr_scan", "android": "https://dc.lft.to/lastmile_qr_scan"}, "type": "electric_scooter", "name": "cabee7ff7ee2485a6152256e16cdfdb0", "is_reserved": 0, "lon": -77.00710083333334, "is_disabled": 0, "fusion_lat": 0.0, "lat": 38.884924833333336, "bike_id": "cabee7ff7ee2485a6152256e16cdfdb0", "fusion_lon": 0.0}, {"rental_uris": {"ios": "https://dc.lft.to/lastmile_qr_scan", "android": "https://dc.lft.to/lastmile_qr_scan"}, "type": "electric_bike", "name": "59c3036207d7455e8bcf4bc3df5cf157", "is_reserved": 0, "lon": -77.00677616666667, "is_disabled": 0, "fusion_lat": 0.0, "lat": 38.94516183333333, "bike_id": "59c3036207d7455e8bcf4bc3df5cf157", "fusion_lon": 0.0}, {"rental_uris": {"ios": "https://dc.lft.to/lastmile_qr_scan", "android": "https://dc.lft.to/lastmile_qr_scan"}, "type": "electric_scooter", "name": "cd065cf54c45dab14e2096b9ec14bf69", "is_reserved": 0, "lon": -77.03226783333334, "is_disabled": 0, "fusion_lat": 0.0, "lat": 38.9079055, "bike_id": "cd065cf54c45dab14e2096b9ec14bf69", "fusion_lon": 0.0}, {"rental_uris": {"ios": "https://dc.lft.to/lastmile_qr_scan", "android": "https://dc.lft.to/lastmile_qr_scan"}, "type": "electric_scooter", "name": "0cf4eeb2bdeaa7f13a9c3fae103f6671", "is_reserved": 0, "lon": -77.03855566666667, "is_disabled": 0, "fusion_lat": 0.0, "lat": 38.9117845, "bike_id": "0cf4eeb2bdeaa7f13a9c3fae103f6671", "fusion_lon": 0.0}, {"rental_uris": {"ios": "https://dc.lft.to/lastmile_qr_scan", "android": "https://dc.lft.to/lastmile_qr_scan"}, "type": "electric_scooter", "name": "222063840146f0d4ebfc532352d56c67", "is_reserved": 0, "lon": -77.007073, "is_disabled": 0, "fusion_lat": 0.0, "lat": 38.905912666666666, "bike_id": "222063840146f0d4ebfc532352d56c67", "fusion_lon": 0.0}, {"rental_uris": {"ios": "https://dc.lft.to/lastmile_qr_scan", "android": "https://dc.lft.to/lastmile_qr_scan"}, "type": "electric_scooter", "name": "f81dd58de92407bc19f17dfe791c8d20", "is_reserved": 0, "lon": -77.03294683333333, "is_disabled": 0, "fusion_lat": 0.0, "lat": 38.8991175, "bike_id": "f81dd58de92407bc19f17dfe791c8d20", "fusion_lon": 0.0}, {"rental_uris": {"ios": "https://dc.lft.to/lastmile_qr_scan", "android": "https://dc.lft.to/lastmile_qr_scan"}, "type": "electric_scooter", "name": "5d7ba6d29f8cc909447c5bce70895f22", "is_reserved": 0, "lon": -77.01221333333334, "is_disabled": 0, "fusion_lat": 0.0, "lat": 38.87675016666667, "bike_id": "5d7ba6d29f8cc909447c5bce70895f22", "fusion_lon": 0.0}, {"rental_uris": {"ios": "https://dc.lft.to/lastmile_qr_scan", "android": "https://dc.lft.to/lastmile_qr_scan"}, "type": "electric_scooter", "name": "1d88ac027aef4d3df6870c608aa599f5", "is_reserved": 0, "lon": -77.042564, "is_disabled": 0, "fusion_lat": 0.0, "lat": 38.90431733333333, "bike_id": "1d88ac027aef4d3df6870c608aa599f5", "fusion_lon": 0.0},