{"data": {"bikes": [{"name": "cd28416755a5c4c259961b20af72657a", "lon": -77.02708566666666, "lat": 38.91669316666667, "type": "electric_scooter", "fusion_lon": 0.0, "is_reserved": 0, "bike_id": "cd28416755a5c4c259961b20af72657a", "fusion_lat": 0.0, "is_disabled": 0, "rental_uris": {"ios": "https://dc.lft.to/lastmile_qr_scan", "android": "https://dc.lft.to/lastmile_qr_scan"}}, {"name": "8b43ee0ed076f3b10684071e3aa4dd1c", "lon": -77.0028385, "lat": 38.911682, "type": "electric_bike", "fusion_lon": 0.0, "is_reserved": 0, "bike_id": "8b43ee0ed076f3b10684071e3aa4dd1c", "fusion_lat": 0.0, "is_disabled": 0, "rental_uris": {"ios": "https://dc.lft.to/lastmile_qr_scan", "android": "https://dc.lft.to/lastmile_qr_scan"}}, {"name": "f183dd86c09c505f7b01d78cbad41b8b", "lon": -77.029787, "lat": 38.92197816666667, "type": "electric_scooter", "fusion_lon": 0.0, "is_reserved": 0, "bike_id": "f183dd86c09c505f7b01d78cbad41b8b", "fusion_lat": 0.0, "is_disabled": 0, "rental_uris": {"ios": "https://dc.lft.to/lastmile_qr_scan", "android": "https://dc.lft.to/lastmile_qr_scan"}}, {"name": "4729f41b90b904d65080af3a57d60089", "lon": -76.99365816666666, "lat": 38.92838866666666, "type": "electric_scooter", "fusion_lon": 0.0, "is_reserved": 0, "bike_id": "4729f41b90b904d65080af3a57d60089", "fusion_lat": 0.0, "is_disabled": 0, "rental_uris": {"ios": "https://dc.lft.to/lastmile_qr_scan", "android": "https://dc.lft.to/lastmile_qr_scan"}}, {"name": "7553d0f452e7b64f66f8e62e1845e17b", "lon": -77.03534366666666, "lat": 38.91821233333334, "type": "electric_scooter", "fusion_lon": 0.0, "is_reserved": 0, "bike_id": "7553d0f452e7b64f66f8e62e1845e17b", "fusion_lat": 0.0, "is_disabled": 0, "rental_uris": {"ios": "https://dc.lft.to/lastmile_qr_scan", "android": "https://dc.lft.to/lastmile_qr_scan"}}, {"name": "6e276d4aabede5c8e7503ba4c63d2545", "lon": -77.0384, "lat": 38.90727616666667, "type": "electric_scooter", "fusion_lon": 0.0, "is_reserved": 0, "bike_id": "6e276d4aabede5c8e7503ba4c63d2545", "fusion_lat": 0.0, "is_disabled": 0, "rental_uris": {"ios": "https://dc.lft.to/lastmile_qr_scan", "android": "https://dc.lft.to/lastmile_qr_scan"}}, {"name": "3a53a5700263cdd1ddad543bd8a7a634", "lon": -77.0432845, "lat": 38.892231833333334, "type": "electric_scooter", "fusion_lon": 0.0, "is_reserved": 0, "bike_id": "3a53a5700263cdd1ddad543bd8a7a634", "fusion_lat": 0.0, "is_disabled": 0, "rental_uris": {"ios": "https://dc.lft.to/lastmile_qr_scan", "android": "https://dc.lft.to/lastmile_qr_scan"}}, {"name": "88ce5fca7d65b8f4da5891ed8ca28106", "lon": -77.029791, "lat": 38.936997, "type": "electric_bike", "fusion_lon": 0.0, "is_reserved": 0, "bike_id": "88ce5fca7d65b8f4da5891ed8ca28106", "fusion_lat": 0.0, "is_disabled": 0, "rental_uris": {"ios": "https://dc.lft.to/lastmile_qr_scan", "android": "https://dc.lft.to/lastmile_qr_scan"}}, {"name": "648edd4fecc058c00688f19fa002c462", "lon": -77.034533, "lat": 38.92152766666667, "type": "electric_scooter", "fusion_lon": 0.0, "is_reserved": 0, "bike_id": "648edd4fecc058c00688f19fa002c462", "fusion_lat": 0.0, "is_disabled": 0, "rental_uris": {"ios": "https://dc.lft.to/lastmile_qr_scan", "android": "https://dc.lft.to/lastmile_qr_scan"}}, {"name": "a39626bba1cce57c2a68317346407db9", "lon": -77.03326216666666, "lat": 38.921667, "type": "electric_scooter", "fusion_lon": 0.0, "is_reserved": 0, "bike_id": "a39626bba1cce57c2a68317346407db9", "fusion_lat": 0.0, "is_disabled": 0, "rental_uris": {"ios": "https://dc.lft.to/lastmile_qr_scan", "android": "https://dc.lft.to/lastmile_qr_scan"}}, {"name": "d2cf8594367611fa3f827807def10727", "lon": -77.03456133333333, "lat": 38.90820466666667, "type": "electric_scooter", "fusion_lon": 0.0, "is_reserved": 0, "bike_id": "d2cf8594367611fa3f827807def10727", "fusion_lat": 0.0, "is_disabled": 0, "rental_uris": {"ios": "https://dc.lft.to/lastmile_qr_scan", "android": "https://dc.lft.to/lastmile_qr_scan"}}, {"name": "1749a947a69cfb35ce2ce6fa9aeaa099", "lon": -77.022764, "lat": 38.9095855, "type": "electric_scooter", "fusion_lon": 0.0, "is_reserved": 0, "bike_id": "1749a947a69cfb35ce2ce6fa9aeaa099", "fusion_lat": 0.0, "is_disabled": 0, "rental_uris": {"ios": "https://dc.lft.to/lastmile_qr_scan", "android": "https://dc.lft.to/lastmile_qr_scan"}}, {"name": "9a1ca47e291692b83be65575746236a2", "lon": -76.986923, "lat": 38.86255466666667, "type": "electric_scooter", "fusion_lon": 0.0, "is_reserved": 0, "bike_id": "9a1ca47e291692b83be65575746236a2", "fusion_lat": 0.0, "is_disabled": 0, "rental_uris": {"ios": "https://dc.lft.to/lastmile_qr_scan", "android": "https://dc.lft.to/lastmile_qr_scan"}}, {"name": "129bf1aecad59d26e2e846cb4623e9e2", "lon": -77.00209433333333, "lat": 38.895452, "type": "electric_scooter", "fusion_lon": 0.0, "is_reserved": 0, "bike_id": "129bf1aecad59d26e2e846cb4623e9e2", "fusion_lat": 0.0, "is_disabled": 0, "rental_uris": {"ios": "https://dc.lft.to/lastmile_qr_scan", "android": "https://dc.lft.to/lastmile_qr_scan"}}, {"name": "513e0caeea2e14f6d1b08e0887f41808", "lon": -77.0585965, "lat": 38.936076, "type": "electric_scooter", "fusion_lon": 0.0, "is_reserved": 0, "bike_id": "513e0caeea2e14f6d1b08e0887f41808", "fusion_lat": 0.0, "is_disabled": 0, "rental_uris": {"ios": "https://dc.lft.to/lastmile_qr_scan", "android": "https://dc.lft.to/lastmile_qr_scan"}}, {"name": "33cf97e791ed77f0829a440c89162f2e", "lon": -77.032912, "lat": 38.9563485, "type": "electric_scooter", "fusion_lon": 0.0, "is_reserved": 0, "bike_id": "33cf97e791ed77f0829a440c89162f2e", "fusion_lat": 0.0, "is_disabled": 0, "rental_uris": {"ios": "https://dc.lft.to/lastmile_qr_scan", "android": "https://dc.lft.to/lastmile_qr_scan"}}, {"name": "9dddadfec035d2498777b4766b836277", "lon": -77.03057816666667, "lat": 38.898557833333335, "type": "electric_scooter", "fusion_lon": 0.0, "is_reserved": 0, "bike_id": "9dddadfec035d2498777b4766b836277", "fusion_lat": 0.0, "is_disabled": 0, "rental_uris": {"ios": "https://dc.lft.to/lastmile_qr_scan", "android": "https://dc.lft.to/lastmile_qr_scan"}}, {"name": "d59883d6ed240efceedf88532333dc1d", "lon": -77.02932566666667, "lat": 38.8962765, "type": "electric_scooter", "fusion_lon": 0.0, "is_reserved": 0, "bike_id": "d59883d6ed240efceedf88532333dc1d", "fusion_lat": 0.0, "is_disabled": 0, "rental_uris": {"ios": "https://dc.lft.to/lastmile_qr_scan", "android": "https://dc.lft.to/lastmile_qr_scan"}}, {"name": "1665bde8fbe3c0fcc2957c5c2617d565", "lon": -77.03418783333333, "lat": 38.919222833333336, "type": "electric_scooter", "fusion_lon": 0.0, "is_reserved": 0, "bike_id": "1665bde8fbe3c0fcc2957c5c2617d565", "fusion_lat": 0.0, "is_disabled": 0, "rental_uris": {"ios": "https://dc.lft.to/lastmile_qr_scan", "android": "https://dc.lft.to/lastmile_qr_scan"}}, {"name": "92d6144ab79bd864ad73178c12be97dc", "lon": -77.014233, "lat": 38.905750166666664, "type": "electric_bike", "fusion_lon": 0.0, "is_reserved": 0, "bike_id": "92d6144ab79bd864ad73178c12be97dc", "fusion_lat": 0.0, "is_disabled": 0, "rental_uris": {"ios": "https://dc.lft.to/lastmile_qr_scan", "android": "https://dc.lft.to/lastmile_qr_scan"}}, {"name": "aac76bccd0af53d482046baee97541b6", "lon": -77.0432665, "lat": 38.892268333333334, "type": "electric_scooter", "fusion_lon": 0.0, "is_reserved": 0, "bike_id": "aac76bccd0af53d482046baee97541b6", "fusion_lat": 0.0, "is_disabled": 0, "rental_uris": {"ios": "https://dc.lft.to/lastmile_qr_scan", "android": "https://dc.lft.to/lastmile_qr_scan"}}, {"name": "6cf25716e8bde812375ff8f699289507", "lon": -76.946209, "lat": 38.83233533333333, "type": "electric_bike", "fusion_lon": 0.0, "is_reserved": 0, "bike_id": "6cf25716e8bde812375ff8f699289507", "fusion_lat": 0.0, "is_disabled": 0, "rental_uris": {"ios": "https://dc.lft.to/lastmile_qr_scan", "android": "https://dc.lft.to/lastmile_qr_scan"}}, {"name": "3f8cd6bcfabb28820b8e7d434bc0afb3", "lon": -77.0092455, "lat": 38.91343283333333, "type": "electric_scooter", "fusion_lon": 0.0, "is_reserved": 0, "bike_id": "3f8cd6bcfabb28820b8e7d434bc0afb3", "fusion_lat": 0.0, "is_disabled": 0, "rental_uris": {"ios": "https://dc.lft.to/lastmile_qr_scan", "android": "https://dc.lft.to/lastmile_qr_scan"}}, {"name": "e81c6780af0f5df36968f5c1dfb13c8a", "lon": -76.94245033333334, "lat": 38.89671633333333, "type": "electric_scooter", "fusion_lon": 0.0, "is_reserved": 0, "bike_id": "e81c6780af0f5df36968f5c1dfb13c8a", "fusion_lat": 0.0, "is_disabled": 0, "rental_uris": {"ios": "https://dc.lft.to/lastmile_qr_scan", "android": "https://dc.lft.to/lastmile_qr_scan"}}, {"name": "75e7ae9f756dfb5c47d6cc10ec633bae", "lon": -77.049788, "lat": 39.06294283333333, "type": "electric_bike", "fusion_lon": 0.0, "is_reserved": 0, "bike_id": "75e7ae9f756dfb5c47d6cc10ec633bae", "fusion_lat": 0.0, "is_disabled": 0, "rental_uris": {"ios": "https://dc.lft.to/lastmile_qr_scan", "android": "https://dc.lft.to/lastmile_qr_scan"}}, {"name": "66d959e5e31af850a018f98a581f522c", "lon": -77.008893, "lat": 38.92487716666667, "type": "electric_scooter", "fusion_lon": 0.0, "is_reserved": 0, "bike_id": "66d959e5e31af850a018f98a581f522c", "fusion_lat": 0.0, "is_disabled": 0, "rental_uris": {"ios": "https://dc.lft.to/lastmile_qr_scan", "android": "https://dc.lft.to/lastmile_qr_scan"}}, {"name": "8fde02dbcfece462022670ca61562b69", "lon": -77.057504, "lat": 38.924982666666665, "type": "electric_scooter", "fusion_lon": 0.0, "is_reserved": 0, "bike_id": "8fde02dbcfece462022670ca61562b69", "fusion_lat": 0.0, "is_disabled": 0, "rental_uris": {"ios": "https://dc.lft.to/lastmile_qr_scan", "android": "https://dc.lft.to/lastmile_qr_scan"}}, {"name": "4b922d9a20da22a9bdd8e1b57c9eba69", "lon": -77.03537933333334, "lat": 38.92538416666667, "type": "electric_scooter", "fusion_lon": 0.0, "is_reserved": 0, "bike_id": "4b922d9a20da22a9bdd8e1b57c9eba69", "fusion_lat": 0.0, "is_disabled": 0, "rental_uris": {"ios": "https://dc.lft.to/lastmile_qr_scan", "android": "https://dc.lft.to/lastmile_qr_scan"}}, {"name": "62800e3221821cef1a31866a60a6b6b8", "lon": -76.96624866666667, "lat": 38.87102266666667, "type": "electric_scooter", "fusion_lon": 0.0, "is_reserved": 0, "bike_id": "62800e3221821cef1a31866a60a6b6b8", "fusion_lat": 0.0, "is_disabled": 0, "rental_uris": {"ios": "https://dc.lft.to/lastmile_qr_scan", "android": "https://dc.lft.to/lastmile_qr_scan"}}, {"name": "b44a34a80691696a89ffd5bb493105ae", "lon": -77.001201, "lat": 38.905075333333336, "type": "electric_scooter", "fusion_lon": 0.0, "is_reserved": 0, "bike_id": "b44a34a80691696a89ffd5bb493105ae", "fusion_lat": 0.0, "is_disabled": 0, "rental_uris": {"ios": "https://dc.lft.to/lastmile_qr_scan", "android": "https://dc.lft.to/lastmile_qr_scan"}}, {"name": "1a6f6849766fa6b06e3024eaeed1084b", "lon": -76.9375375, "lat": 38.8904905, "type": "electric_scooter", "fusion_lon": 0.0, "is_reserved": 0, "bike_id": "1a6f6849766fa6b06e3024eaeed1084b", "fusion_lat": 0.0, "is_disabled": 0, "rental_uris": {"ios": "https://dc.lft.to/lastmile_qr_scan", "android": "https://dc.lft.to/lastmile_qr_scan"}}, {"name": "1d46e03dd55d985fbec8438fa7b71296", "lon": -77.02703883333334, "lat": 38.906692166666666, "type": "electric_scooter", "fusion_lon": 0.0, "is_reserved": 0, "bike_id": "1d46e03dd55d985fbec8438fa7b71296", "fusion_lat": 0.0, "is_disabled": 0, "rental_uris": {"ios": "https://dc.lft.to/lastmile_qr_scan", "android": "https://dc.lft.to/lastmile_qr_scan"}}, {"name": "d6937eebc26361168f63b231d78fd77c", "lon": -77.0284665, "lat": 38.934252666666666, "type": "electric_scooter", "fusion_lon": 0.0, "is_reserved": 0, "bike_id": "d6937eebc26361168f63b231d78fd77c", "fusion_lat": 0.0, "is_disabled": 0, "rental_uris": {"ios": "https://dc.lft.to/lastmile_qr_scan", "android": "https://dc.lft.to/lastmile_qr_scan"}}, {"name": "520c57b60c8a36e3b1656ccbd43adbca", "lon": -77.0603265, "lat": 38.9044675, "type": "electric_scooter", "fusion_lon": 0.0, "is_reserved": 0, "bike_id": "520c57b60c8a36e3b1656ccbd43adbca", "fusion_lat": 0.0, "is_disabled": 0, "rental_uris": {"ios": "https://dc.lft.to/lastmile_qr_scan", "android": "https://dc.lft.to/lastmile_qr_scan"}}, {"name": "ef1a7011d0707aa6ad616103e143f57e", "lon": -77.0529305, "lat": 38.92793233333333, "type": "electric_scooter", "fusion_lon": 0.0, "is_reserved": 0, "bike_id": "ef1a7011d0707aa6ad616103e143f57e", "fusion_lat": 0.0, "is_disabled": 0, "rental_uris": {"ios": "https://dc.lft.to/lastmile_qr_scan", "android": "https://dc.lft.to/lastmile_qr_scan"}}, {"name": "ada6511c097b6d1be89229b528b93057", "lon": -76.98051516666666, "lat": 38.9016055, "type": "electric_scooter", "fusion_lon": 0.0, "is_reserved": 0, "bike_id": "ada6511c097b6d1be89229b528b93057", "fusion_lat": 0.0, "is_disabled": 0, "rental_uris": {"ios": "https://dc.lft.to/lastmile_qr_scan", "android": "https://dc.lft.to/lastmile_qr_scan"}}, {"name": "82541ab136cf95ce1ea5ee7cd079df15", "lon": -77.00977883333333, "lat": 38.914170166666665, "type": "electric_scooter", "fusion_lon": 0.0, "is_reserved": 0, "bike_id": "82541ab136cf95ce1ea5ee7cd079df15", "fusion_lat": 0.0, "is_disabled": 0, "rental_uris": {"ios": "https://dc.lft.to/lastmile_qr_scan", "android": "https://dc.lft.to/lastmile_qr_scan"}}, {"name": "45a94345df7be5d8c72808b958f2ac72", "lon": -77.0346605, "lat": 38.922648, "type": "electric_scooter", "fusion_lon": 0.0, "is_reserved": 0, "bike_id": "45a94345df7be5d8c72808b958f2ac72", "fusion_lat": 0.0, "is_disabled": 0, "rental_uris": {"ios": "https://dc.lft.to/lastmile_qr_scan", "android": "https://dc.lft.to/lastmile_qr_scan"}}, {"name": "3824dde64b3c09c624a6b0fbfa747e31", "lon": -77.0259345, "lat": 38.896611166666666, "type": "electric_scooter", "fusion_lon": 0.0, "is_reserved": 0, "bike_id": "3824dde64b3c09c624a6b0fbfa747e31", "fusion_lat": 0.0, "is_disabled": 0, "rental_uris": {"ios": "https://dc.lft.to/lastmile_qr_scan", "android": "https://dc.lft.to/lastmile_qr_scan"}}, {"name": "c6a879ec2055c7f0147a3852f7cba4c1", "lon": -77.00202516666667, "lat": 38.90251166666667, "type": "electric_scooter", "fusion_lon": 0.0, "is_reserved": 0, "bike_id": "c6a879ec2055c7f0147a3852f7cba4c1", "fusion_lat": 0.0, "is_disabled": 0, "rental_uris": {"ios": "https://dc.lft.to/lastmile_qr_scan", "android": "https://dc.lft.to/lastmile_qr_scan"}}, {"name": "518004b4e9e0bb892f1f86cc46a1bb52", "lon": -77.02319916666667, "lat": 38.907331, "type": "electric_scooter", "fusion_lon": 0.0, "is_reserved": 0, "bike_id": "518004b4e9e0bb892f1f86cc46a1bb52", "fusion_lat": 0.0, "is_disabled": 0, "rental_uris": {"ios": "https://dc.lft.to/lastmile_qr_scan", "android": "https://dc.lft.to/lastmile_qr_scan"}}, {"name": "e4aad526301bb33a98c5e401ce57b3a7", "lon": -77.03867016666666, "lat": 38.91553733333333, "type": "electric_scooter", "fusion_lon": 0.0, "is_reserved": 0, "bike_id": "e4aad526301bb33a98c5e401ce57b3a7", "fusion_lat": 0.0, "is_disabled": 0, "rental_uris": {"ios": "https://dc.lft.to/lastmile_qr_scan", "android": "https://dc.lft.to/lastmile_qr_scan"}}, {"name": "b73618424887b0a9c33b993327957470", "lon": -77.0431275, "lat": 38.907880666666664, "type": "electric_scooter", "fusion_lon": 0.0, "is_reserved": 0, "bike_id": "b73618424887b0a9c33b993327957470", "fusion_lat": 0.0, "is_disabled": 0, "rental_uris": {"ios": "https://dc.lft.to/lastmile_qr_scan", "android": "https://dc.lft.to/lastmile_qr_scan"}}, {"name": "af45f64f58bd59957d9e79018e23fa5a", "lon": -76.995403, "lat": 38.926694, "type": "electric_scooter", "fusion_lon": 0.0, "is_reserved": 0, "bike_id": "af45f64f58bd59957d9e79018e23fa5a", "fusion_lat": 0.0, "is_disabled": 0, "rental_uris": {"ios": "https://dc.lft.to/lastmile_qr_scan", "android": "https://dc.lft.to/lastmile_qr_scan"}}, {"name": "5e14327489e2f7e49e0c77d78aafd067", "lon": -77.03247833333333, "lat": 38.91561183333334, "type": "electric_scooter", "fusion_lon": 0.0, "is_reserved": 0, "bike_id": "5e14327489e2f7e49e0c77d78aafd067", "fusion_lat": 0.0, "is_disabled": 0, "rental_uris": {"ios": "https://dc.lft.to/lastmile_qr_scan", "android": "https://dc.lft.to/lastmile_qr_scan"}}, {"name": "d7b6e7a09232e5c5a9c8026f91d39a02", "lon": -77.0220015, "lat": 38.91132966666667, "type": "electric_scooter", "fusion_lon": 0.0, "is_reserved": 0, "bike_id": "d7b6e7a09232e5c5a9c8026f91d39a02", "fusion_lat": 0.0, "is_disabled": 0, "rental_uris": {"ios": "https://dc.lft.to/lastmile_qr_scan", "android": "https://dc.lft.to/lastmile_qr_scan"}}, {"name": "72e14509b12a28d746771d3167ddf90b", "lon": -77.09800166666666, "lat": 38.850327, "type": "electric_bike", "fusion_lon": 0.0, "is_reserved": 0, "bike_id": "72e14509b12a28d746771d3167ddf90b", "fusion_lat": 0.0, "is_disabled": 0, "rental_uris": {"ios": "https://dc.lft.to/lastmile_qr_scan", "android": "https://dc.lft.to/lastmile_qr_scan"}}, {"name": "ed981fddd463fbbc475016749cd8364e", "lon": -77.03512766666667, "lat": 38.906535166666664, "type": "electric_scooter", "fusion_lon": 0.0, "is_reserved": 0, "bike_id": "ed981fddd463fbbc475016749cd8364e", "fusion_lat": 0.0, "is_disabled": 0, "rental_uris": {"ios": "https://dc.lft.to/lastmile_qr_scan", "android": "https://dc.lft.to/lastmile_qr_scan"}}, {"name": "dae642aabb3e618184901352b782e94d", "lon": -77.03490233333333, "lat": 38.932817, "type": "electric_scooter", "fusion_lon": 0.0, "is_reserved": 0, "bike_id": "dae642aabb3e618184901352b782e94d", "fusion_lat": 0.0, "is_disabled": 0, "rental_uris": {"ios": "https://dc.lft.to/lastmile_qr_scan", "android": "https://dc.lft.to/lastmile_qr_scan"}}, {"name": "7f217553caf605828c8ff6743693cb8f", "lon": -77.0779555, "lat": 38.84904, "type": "electric_bike", "fusion_lon": 0.0, "is_reserved": 0, "bike_id": "7f217553caf605828c8ff6743693cb8f", "fusion_lat": 0.0, "is_disabled": 0, "rental_uris": {"ios": "https://dc.lft.to/lastmile_qr_scan", "android": "https://dc.lft.to/lastmile_qr_scan"}}, {"name": "048bc8104f322b252f263f28020e08d1", "lon": -77.028069, "lat": 38.91625483333333, "type": "electric_scooter", "fusion_lon": 0.0, "is_reserved": 0, "bike_id": "048bc8104f322b252f263f28020e08d1", "fusion_lat": 0.0, "is_disabled": 0, "rental_uris": {"ios": "https://dc.lft.to/lastmile_qr_scan", "android": "https://dc.lft.to/lastmile_qr_scan"}}, {"name": "459d0b92119a4c7d90729a43f0f9cc3c", "lon": -77.02477716666667, "lat": 38.909738833333336, "type": "electric_scooter", "fusion_lon": 0.0, "is_reserved": 0, "bike_id": "459d0b92119a4c7d90729a43f0f9cc3c", "fusion_lat": 0.0, "is_disabled": 0, "rental_uris": {"ios": "https://dc.lft.to/lastmile_qr_scan", "android": "https://dc.lft.to/lastmile_qr_scan"}}, {"name": "017d298f709df6d5bc09a5745f868367", "lon": -77.0255225, "lat": 38.94227333333333, "type": "electric_scooter", "fusion_lon": 0.0, "is_reserved": 0, "bike_id": "017d298f709df6d5bc09a5745f868367", "fusion_lat": 0.0, "is_disabled": 0, "rental_uris": {"ios": "https://dc.lft.to/lastmile_qr_scan", "android": "https://dc.lft.to/lastmile_qr_scan"}}, {"name": "ff598c21714192388296dfd81bf61729", "lon": -76.98097866666667, "lat": 38.953590166666665, "type": "electric_bike", "fusion_lon": 0.0, "is_reserved": 0, "bike_id": "ff598c21714192388296dfd81bf61729", "fusion_lat": 0.0, "is_disabled": 0, "rental_uris": {"ios": "https://dc.lft.to/lastmile_qr_scan", "android": "https://dc.lft.to/lastmile_qr_scan"}}, {"name": "6f2db464c2b48169eaaf098914c1b920", "lon": -77.03088633333333, "lat": 38.911249833333336, "type": "electric_scooter", "fusion_lon": 0.0, "is_reserved": 0, "bike_id": "6f2db464c2b48169eaaf098914c1b920", "fusion_lat": 0.0, "is_disabled": 0, "rental_uris": {"ios": "https://dc.lft.to/lastmile_qr_scan", "android": "https://dc.lft.to/lastmile_qr_scan"}}, {"name": "66b5fc8ccc17620448fc51d189ba141b", "lon": -77.055789, "lat": 38.936188333333334, "type": "electric_scooter", "fusion_lon": 0.0, "is_reserved": 0, "bike_id": "66b5fc8ccc17620448fc51d189ba141b", "fusion_lat": 0.0, "is_disabled": 0, "rental_uris": {"ios": "https://dc.lft.to/lastmile_qr_scan", "android": "https://dc.lft.to/lastmile_qr_scan"}}, {"name": "2bb2e1873497de4041a5c485b3636469", "lon": -77.04480083333333, "lat": 38.9240885, "type": "electric_scooter", "fusion_lon": 0.0, "is_reserved": 0, "bike_id": "2bb2e1873497de4041a5c485b3636469", "fusion_lat": 0.0, "is_disabled": 0, "rental_uris": {"ios": "https://dc.lft.to/lastmile_qr_scan", "android": "https://dc.lft.to/lastmile_qr_scan"}}, {"name": "3a3ae8ba8462ed9d6d98a033c582cdcb", "lon": -77.05218766666667, "lat": 38.9248865, "type": "electric_scooter", "fusion_lon": 0.0, "is_reserved": 0, "bike_id": "3a3ae8ba8462ed9d6d98a033c582cdcb", "fusion_lat": 0.0, "is_disabled": 0, "rental_uris": {"ios": "https://dc.lft.to/lastmile_qr_scan", "android": "https://dc.lft.to/lastmile_qr_scan"}}, {"name": "aad519b42b2a7335903e8009a7537b45", "lon": -77.00921933333333, "lat": 38.82788716666666, "type": "electric_scooter", "fusion_lon": 0.0, "is_reserved": 0, "bike_id": "aad519b42b2a7335903e8009a7537b45", "fusion_lat": 0.0, "is_disabled": 0, "rental_uris": {"ios": "https://dc.lft.to/lastmile_qr_scan", "android": "https://dc.lft.to/lastmile_qr_scan"}}, {"name": "48562ef9f1e07b2a10413313cdeda703", "lon": -77.00596083333333, "lat": 38.90651, "type": "electric_scooter", "fusion_lon": 0.0, "is_reserved": 0, "bike_id": "48562ef9f1e07b2a10413313cdeda703", "fusion_lat": 0.0, "is_disabled": 0, "rental_uris": {"ios": "https://dc.lft.to/lastmile_qr_scan", "android": "https://dc.lft.to/lastmile_qr_scan"}}, {"name": "30cde80ab27e4ce7c07b84b8a57ee64a", "lon": -76.99380866666667, "lat": 38.87758316666667, "type": "electric_scooter", "fusion_lon": 0.0, "is_reserved": 0, "bike_id": "30cde80ab27e4ce7c07b84b8a57ee64a", "fusion_lat": 0.0, "is_disabled": 0, "rental_uris": {"ios": "https://dc.lft.to/lastmile_qr_scan", "android": "https://dc.lft.to/lastmile_qr_scan"}}, {"name": "11454b5214d03952dfde3b0b162a703a", "lon": -77.03734283333333, "lat": 38.92708583333334, "type": "electric_bike", "fusion_lon": 0.0, "is_reserved": 0, "bike_id": "11454b5214d03952dfde3b0b162a703a", "fusion_lat": 0.0, "is_disabled": 0, "rental_uris": {"ios": "https://dc.lft.to/lastmile_qr_scan", "android": "https://dc.lft.to/lastmile_qr_scan"}}, {"name": "3bd169f1db3662aaea5a108ad172acb6", "lon": -77.0446685, "lat": 38.903877333333334, "type": "electric_scooter", "fusion_lon": 0.0, "is_reserved": 0, "bike_id": "3bd169f1db3662aaea5a108ad172acb6", "fusion_lat": 0.0, "is_disabled": 0, "rental_uris": {"ios": "https://dc.lft.to/lastmile_qr_scan", "android": "https://dc.lft.to/lastmile_qr_scan"}}, {"name": "6763d75cc73f2d24bc159bd7108c1b98", "lon": -77.00203116666667, "lat": 38.902517, "type": "electric_scooter", "fusion_lon": 0.0, "is_reserved": 0, "bike_id": "6763d75cc73f2d24bc159bd7108c1b98", "fusion_lat": 0.0, "is_disabled": 0, "rental_uris": {"ios": "https://dc.lft.to/lastmile_qr_scan", "android": "https://dc.lft.to/lastmile_qr_scan"}}, {"name": "f36cb2e66bd1f6cba60afd110a99ed98", "lon": -77.04821, "lat": 38.90064316666667, "type": "electric_scooter", "fusion_lon": 0.0, "is_reserved": 0, "bike_id": "f36cb2e66bd1f6cba60afd110a99ed98", "fusion_lat": 0.0, "is_disabled": 0, "rental_uris": {"ios": "https://dc.lft.to/lastmile_qr_scan", "android": "https://dc.lft.to/lastmile_qr_scan"}}, {"name": "8ec16d7a0e02fadb3ef5b6f5111c0bf0", "lon": -77.04367316666666, "lat": 38.89227416666667, "type": "electric_scooter", "fusion_lon": 0.0, "is_reserved": 0, "bike_id": "8ec16d7a0e02fadb3ef5b6f5111c0bf0", "fusion_lat": 0.0, "is_disabled": 0, "rental_uris": {"ios": "https://dc.lft.to/lastmile_qr_scan", "android": "https://dc.lft.to/lastmile_qr_scan"}}, {"name": "de763ba28a7b835babdc2514b30649f2", "lon": -77.03495383333333, "lat": 38.917071666666665, "type": "electric_scooter", "fusion_lon": 0.0, "is_reserved": 0, "bike_id": "de763ba28a7b835babdc2514b30649f2", "fusion_lat": 0.0, "is_disabled": 0, "rental_uris": {"ios": "https://dc.lft.to/lastmile_qr_scan", "android": "https://dc.lft.to/lastmile_qr_scan"}}, {"name": "885e565f2e49e7d3a3ec6b9f5d1e50bd", "lon": -77.02413033333333, "lat": 38.9209055, "type": "electric_scooter", "fusion_lon": 0.0, "is_reserved": 0, "bike_id": "885e565f2e49e7d3a3ec6b9f5d1e50bd", "fusion_lat": 0.0, "is_disabled": 0, "rental_uris": {"ios": "https://dc.lft.to/lastmile_qr_scan", "android": "https://dc.lft.to/lastmile_qr_scan"}}, {"name": "6daeb72d8abab6232c8e8d450fc25883", "lon": -77.0383045, "lat": 38.924776666666666, "type": "electric_scooter", "fusion_lon": 0.0, "is_reserved": 0, "bike_id": "6daeb72d8abab6232c8e8d450fc25883", "fusion_lat": 0.0, "is_disabled": 0, "rental_uris": {"ios": "https://dc.lft.to/lastmile_qr_scan", "android": "https://dc.lft.to/lastmile_qr_scan"}}, {"name": "a373f04b9f9aa90328972f36d7699ccc", "lon": -77.03490666666667, "lat": 38.92486316666667, "type": "electric_scooter", "fusion_lon": 0.0, "is_reserved": 0, "bike_id": "a373f04b9f9aa90328972f36d7699ccc", "fusion_lat": 0.0, "is_disabled": 0, "rental_uris": {"ios": "https://dc.lft.to/lastmile_qr_scan", "android": "https://dc.lft.to/lastmile_qr_scan"}}, {"name": "ba4ae8bb15d3df982940a23fa5abc574", "lon": -77.0018955, "lat": 38.90037616666667, "type": "electric_scooter", "fusion_lon": 0.0, "is_reserved": 0, "bike_id": "ba4ae8bb15d3df982940a23fa5abc574", "fusion_lat": 0.0, "is_disabled": 0, "rental_uris": {"ios": "https://dc.lft.to/lastmile_qr_scan", "android": "https://dc.lft.to/lastmile_qr_scan"}}, {"name": "35b745726e7763d9bc0201db2ca87273", "lon": -77.00800866666667, "lat": 38.949242, "type": "electric_bike", "fusion_lon": 0.0, "is_reserved": 0, "bike_id": "35b745726e7763d9bc0201db2ca87273", "fusion_lat": 0.0, "is_disabled": 0, "rental_uris": {"ios": "https://dc.lft.to/lastmile_qr_scan", "android": "https://dc.lft.to/lastmile_qr_scan"}}, {"name": "5e1a08250816078e31bc89403cde799e", "lon": -76.97462483333334, "lat": 38.865497833333336, "type": "electric_scooter", "fusion_lon": 0.0, "is_reserved": 0, "bike_id": "5e1a08250816078e31bc89403cde799e", "fusion_lat": 0.0, "is_disabled": 0, "rental_uris": {"ios": "https://dc.lft.to/lastmile_qr_scan", "android": "https://dc.lft.to/lastmile_qr_scan"}}, {"name": "7f858c27e49dd70403ddee56fa4bc4bd", "lon": -77.02958016666666, "lat": 38.92775983333333, "type": "electric_bike", "fusion_lon": 0.0, "is_reserved": 0, "bike_id": "7f858c27e49dd70403ddee56fa4bc4bd", "fusion_lat": 0.0, "is_disabled": 0, "rental_uris": {"ios": "https://dc.lft.to/lastmile_qr_scan", "android": "https://dc.lft.to/lastmile_qr_scan"}}, {"name": "ecf638881cb3825d43b09886a2573c4d", "lon": -77.03371466666667, "lat": 38.93597, "type": "electric_scooter", "fusion_lon": 0.0, "is_reserved": 0, "bike_id": "ecf638881cb3825d43b09886a2573c4d", "fusion_lat": 0.0, "is_disabled": 0, "rental_uris": {"ios": "https://dc.lft.to/lastmile_qr_scan", "android": "https://dc.lft.to/lastmile_qr_scan"}}, {"name": "cd366c51587f1b473c0f6ec05664a864", "lon": -77.0326565, "lat": 38.919886166666664, "type": "electric_scooter", "fusion_lon": 0.0, "is_reserved": 0, "bike_id": "cd366c51587f1b473c0f6ec05664a864", "fusion_lat": 0.0, "is_disabled": 0, "rental_uris": {"ios": "https://dc.lft.to/lastmile_qr_scan", "android": "https://dc.lft.to/lastmile_qr_scan"}}, {"name": "da32dece0039d4743ce9807bb5a286e0", "lon": -77.02965266666666, "lat": 38.92321416666667, "type": "electric_scooter", "fusion_lon": 0.0, "is_reserved": 0, "bike_id": "da32dece0039d4743ce9807bb5a286e0", "fusion_lat": 0.0, "is_disabled": 0, "rental_uris": {"ios": "https://dc.lft.to/lastmile_qr_scan", "android": "https://dc.lft.to/lastmile_qr_scan"}}, {"name": "8a132e9b72d6c825e9a42d5a3c0341e6", "lon": -77.046918, "lat": 39.02397883333333, "type": "electric_bike", "fusion_lon": 0.0, "is_reserved": 0, "bike_id": "8a132e9b72d6c825e9a42d5a3c0341e6", "fusion_lat": 0.0, "is_disabled": 0, "rental_uris": {"ios": "https://dc.lft.to/lastmile_qr_scan", "android": "https://dc.lft.to/lastmile_qr_scan"}}, {"name": "1b42cd8c87cf366ba2b5dd241f1f97ff", "lon": -77.0325535, "lat": 38.91189466666667, "type": "electric_scooter", "fusion_lon": 0.0, "is_reserved": 0, "bike_id": "1b42cd8c87cf366ba2b5dd241f1f97ff", "fusion_lat": 0.0, "is_disabled": 0, "rental_uris": {"ios": "https://dc.lft.to/lastmile_qr_scan", "android": "https://dc.lft.to/lastmile_qr_scan"}}, {"name": "b12e9173a091e28f599dbadf0c00afed", "lon": -77.02396216666666, "lat": 38.91961716666667, "type": "electric_scooter", "fusion_lon": 0.0, "is_reserved": 0, "bike_id": "b12e9173a091e28f599dbadf0c00afed", "fusion_lat": 0.0, "is_disabled": 0, "rental_uris": {"ios": "https://dc.lft.to/lastmile_qr_scan", "android": "https://dc.lft.to/lastmile_qr_scan"}}, {"name": "c7c0668e0f8532a0e9741947894778f8", "lon": -77.00758616666667, "lat": 38.91031066666667, "type": "electric_scooter", "fusion_lon": 0.0, "is_reserved": 0, "bike_id": "c7c0668e0f8532a0e9741947894778f8", "fusion_lat": 0.0, "is_disabled": 0, "rental_uris": {"ios": "https://dc.lft.to/lastmile_qr_scan", "android": "https://dc.lft.to/lastmile_qr_scan"}}, {"name": "569361d67961c067777f7dfb62ac4e8d", "lon": -77.01598466666667, "lat": 38.89958433333334, "type": "electric_scooter", "fusion_lon": 0.0, "is_reserved": 0, "bike_id": "569361d67961c067777f7dfb62ac4e8d", "fusion_lat": 0.0, "is_disabled": 0, "rental_uris": {"ios": "https://dc.lft.to/lastmile_qr_scan", "android": "https://dc.lft.to/lastmile_qr_scan"}}, {"name": "660e3357365ae614c5435ddbe29e7764", "lon": -77.03661116666666, "lat": 38.917269166666664, "type": "electric_scooter", "fusion_lon": 0.0, "is_reserved": 0, "bike_id": "660e3357365ae614c5435ddbe29e7764", "fusion_lat": 0.0, "is_disabled": 0, "rental_uris": {"ios": "https://dc.lft.to/lastmile_qr_scan", "android": "https://dc.lft.to/lastmile_qr_scan"}}, {"name": "b2b1c33242aa38877d847a485dcd9734", "lon": -77.0628925, "lat": 38.965065, "type": "electric_scooter", "fusion_lon": 0.0, "is_reserved": 0, "bike_id": "b2b1c33242aa38877d847a485dcd9734", "fusion_lat": 0.0, "is_disabled": 0, "rental_uris": {"ios": "https://dc.lft.to/lastmile_qr_scan", "android": "https://dc.lft.to/lastmile_qr_scan"}}, {"name": "1c377691a1e4c56abf95fc97be8dcf1c", "lon": -77.03696, "lat": 38.93558383333333, "type": "electric_bike", "fusion_lon": 0.0, "is_reserved": 0, "bike_id": "1c377691a1e4c56abf95fc97be8dcf1c", "fusion_lat": 0.0, "is_disabled": 0, "rental_uris": {"ios": "https://dc.lft.to/lastmile_qr_scan", "android": "https://dc.lft.to/lastmile_qr_scan"}}, {"name": "f271adb98e49e6e4fd5b4f4833d02f61", "lon": -77.03468983333333, "lat": 38.90567433333333, "type": "electric_scooter", "fusion_lon": 0.0, "is_reserved": 0, "bike_id": "f271adb98e49e6e4fd5b4f4833d02f61", "fusion_lat": 0.0, "is_disabled": 0, "rental_uris": {"ios": "https://dc.lft.to/lastmile_qr_scan", "android": "https://dc.lft.to/lastmile_qr_scan"}}, {"name": "c67f5adab701bcb2e57a1323dea8f15b", "lon": -77.02960066666667, "lat": 38.905320833333334, "type": "electric_scooter", "fusion_lon": 0.0, "is_reserved": 0, "bike_id": "c67f5adab701bcb2e57a1323dea8f15b", "fusion_lat": 0.0, "is_disabled": 0, "rental_uris": {"ios": "https://dc.lft.to/lastmile_qr_scan", "android": "https://dc.lft.to/lastmile_qr_scan"}}, {"name": "ae3fe3e8a2f1a8b6f50c52d82cafc40d", "lon": -77.0499295, "lat": 38.90624, "type": "electric_scooter", "fusion_lon": 0.0, "is_reserved": 0, "bike_id": "ae3fe3e8a2f1a8b6f50c52d82cafc40d", "fusion_lat": 0.0, "is_disabled": 0, "rental_uris": {"ios": "https://dc.lft.to/lastmile_qr_scan", "android": "https://dc.lft.to/lastmile_qr_scan"}}, {"name": "7703bbebae35ec24a64292dedac47596", "lon": -77.036363, "lat": 38.92346833333333, "type": "electric_scooter", "fusion_lon": 0.0, "is_reserved": 0, "bike_id": "7703bbebae35ec24a64292dedac47596", "fusion_lat": 0.0, "is_disabled": 0, "rental_uris": {"ios": "https://dc.lft.to/lastmile_qr_scan", "android": "https://dc.lft.to/lastmile_qr_scan"}}, {"name": "49c0d078b2cfc5d27c376f5e802d6c0c", "lon": -77.187416, "lat": 38.893559333333336, "type": "electric_bike", "fusion_lon": 0.0, "is_reserved": 0, "bike_id": "49c0d078b2cfc5d27c376f5e802d6c0c", "fusion_lat": 0.0, "is_disabled": 0, "rental_uris": {"ios": "https://dc.lft.to/lastmile_qr_scan", "android": "https://dc.lft.to/lastmile_qr_scan"}}, {"name": "fbaeb7d2a2dc00a974ef74de7e9a10fa", "lon": -77.01199516666667, "lat": 38.8709555, "type": "electric_scooter", "fusion_lon": 0.0, "is_reserved": 0, "bike_id": "fbaeb7d2a2dc00a974ef74de7e9a10fa", "fusion_lat": 0.0, "is_disabled": 0, "rental_uris": {"ios": "https://dc.lft.to/lastmile_qr_scan", "android": "https://dc.lft.to/lastmile_qr_scan"}}, {"name": "df33aea217e8a411ea82e4894dbf990b", "lon": -77.03871333333333, "lat": 38.92152866666667, "type": "electric_scooter", "fusion_lon": 0.0, "is_reserved": 0, "bike_id": "df33aea217e8a411ea82e4894dbf990b", "fusion_lat": 0.0, "is_disabled": 0, "rental_uris": {"ios": "https://dc.lft.to/lastmile_qr_scan", "android": "https://dc.lft.to/lastmile_qr_scan"}}, {"name": "d82a4fff220aa87c90c7e23787d04e82", "lon": -77.02164333333333, "lat": 38.908225333333334, "type": "electric_scooter", "fusion_lon": 0.0, "is_reserved": 0, "bike_id": "d82a4fff220aa87c90c7e23787d04e82", "fusion_lat": 0.0, "is_disabled": 0, "rental_uris": {"ios": "https://dc.lft.to/lastmile_qr_scan", "android": "https://dc.lft.to/lastmile_qr_scan"}}, {"name": "49c7367bd972d5be8b4f8d909a126714", "lon": -77.06712733333333, "lat": 38.950623666666665, "type": "electric_scooter", "fusion_lon": 0.0, "is_reserved": 0, "bike_id": "49c7367bd972d5be8b4f8d909a126714", "fusion_lat": 0.0, "is_disabled": 0, "rental_uris": {"ios": "https://dc.lft.to/lastmile_qr_scan", "android": "https://dc.lft.to/lastmile_qr_scan"}}, {"name": "d2622d41fdfce651feb1d37fc019bb08", "lon": -77.0521335, "lat": 38.924857333333335, "type": "electric_scooter", "fusion_lon": 0.0, "is_reserved": 0, "bike_id": "d2622d41fdfce651feb1d37fc019bb08", "fusion_lat": 0.0, "is_disabled": 0, "rental_uris": {"ios": "https://dc.lft.to/lastmile_qr_scan", "android": "https://dc.lft.to/lastmile_qr_scan"}}, {"name": "e672956fe1cccad78fb53e2a59299b16", "lon": -76.9937115, "lat": 38.971847, "type": "electric_bike", "fusion_lon": 0.0, "is_reserved": 0, "bike_id": "e672956fe1cccad78fb53e2a59299b16", "fusion_lat": 0.0, "is_disabled": 0, "rental_uris": {"ios": "https://dc.lft.to/lastmile_qr_scan", "android": "https://dc.lft.to/lastmile_qr_scan"}}, {"name": "95d61f6106e862478b8862dc86963cdf", "lon": -77.0236965, "lat": 38.945053333333334, "type": "electric_bike", "fusion_lon": 0.0, "is_reserved": 0, "bike_id": "95d61f6106e862478b8862dc86963cdf", "fusion_lat": 0.0, "is_disabled": 0, "rental_uris": {"ios": "https://dc.lft.to/lastmile_qr_scan", "android": "https://dc.lft.to/lastmile_qr_scan"}}, {"name": "080c23cf5b2dd9a7722a4f131df4c392", "lon": -76.971551, "lat": 38.85472983333333, "type": "electric_scooter", "fusion_lon": 0.0, "is_reserved": 0, "bike_id": "080c23cf5b2dd9a7722a4f131df4c392", "fusion_lat": 0.0, "is_disabled": 0, "rental_uris": {"ios": "https://dc.lft.to/lastmile_qr_scan", "android": "https://dc.lft.to/lastmile_qr_scan"}}, {"name": "f8339ed73b4e9ed682ef12d5c9ab160d", "lon": -77.07333583333333, "lat": 38.926130666666666, "type": "electric_scooter", "fusion_lon": 0.0, "is_reserved": 0, "bike_id": "f8339ed73b4e9ed682ef12d5c9ab160d", "fusion_lat": 0.0, "is_disabled": 0, "rental_uris": {"ios": "https://dc.lft.to/lastmile_qr_scan", "android": "https://dc.lft.to/lastmile_qr_scan"}}, {"name": "ea7337037b0c334e4b39c6ed3e93c5ad", "lon": -77.01862783333333, "lat": 38.973683333333334, "type": "electric_scooter", "fusion_lon": 0.0, "is_reserved": 0, "bike_id": "ea7337037b0c334e4b39c6ed3e93c5ad", "fusion_lat": 0.0, "is_disabled": 0, "rental_uris": {"ios": "https://dc.lft.to/lastmile_qr_scan", "android": "https://dc.lft.to/lastmile_qr_scan"}}, {"name": "35fea08192c30985ffd0c9e261cfe92a", "lon": -77.02489083333333, "lat": 38.9375885, "type": "electric_scooter", "fusion_lon": 0.0, "is_reserved": 0, "bike_id": "35fea08192c30985ffd0c9e261cfe92a", "fusion_lat": 0.0, "is_disabled": 0, "rental_uris": {"ios": "https://dc.lft.to/lastmile_qr_scan", "android": "https://dc.lft.to/lastmile_qr_scan"}}, {"name": "cd5bb4fdd459c3cda9e83989c211071c", "lon": -77.02189483333333, "lat": 38.914995166666664, "type": "electric_scooter", "fusion_lon": 0.0, "is_reserved": 0, "bike_id": "cd5bb4fdd459c3cda9e83989c211071c", "fusion_lat": 0.0, "is_disabled": 0, "rental_uris": {"ios": "https://dc.lft.to/lastmile_qr_scan", "android": "https://dc.lft.to/lastmile_qr_scan"}}, {"name": "f9ef5da1cc411b13f63729ceb7b4a508", "lon": -77.05118066666667, "lat": 38.905828, "type": "electric_scooter", "fusion_lon": 0.0, "is_reserved": 0, "bike_id": "f9ef5da1cc411b13f63729ceb7b4a508", "fusion_lat": 0.0, "is_disabled": 0, "rental_uris": {"ios": "https://dc.lft.to/lastmile_qr_scan", "android": "https://dc.lft.to/lastmile_qr_scan"}}, {"name": "3e7c671dfdbe2006d3884d9eedf2b623", "lon": -77.03254183333334, "lat": 38.942714, "type": "electric_scooter", "fusion_lon": 0.0, "is_reserved": 0, "bike_id": "3e7c671dfdbe2006d3884d9eedf2b623", "fusion_lat": 0.0, "is_disabled": 0, "rental_uris": {"ios": "https://dc.lft.to/lastmile_qr_scan", "android": "https://dc.lft.to/lastmile_qr_scan"}}, {"name": "7da19d6662961adcbcb7cf299f80f95b", "lon": -77.01401583333333, "lat": 38.881160333333334, "type": "electric_scooter", "fusion_lon": 0.0, "is_reserved": 0, "bike_id": "7da19d6662961adcbcb7cf299f80f95b", "fusion_lat": 0.0, "is_disabled": 0, "rental_uris": {"ios": "https://dc.lft.to/lastmile_qr_scan", "android": "https://dc.lft.to/lastmile_qr_scan"}}, {"name": "f80c4d03d852344ae8400c61cd57a98f", "lon": -77.0384025, "lat": 38.911203666666665, "type": "electric_scooter", "fusion_lon": 0.0, "is_reserved": 0, "bike_id": "f80c4d03d852344ae8400c61cd57a98f", "fusion_lat": 0.0, "is_disabled": 0, "rental_uris": {"ios": "https://dc.lft.to/lastmile_qr_scan", "android": "https://dc.lft.to/lastmile_qr_scan"}}, {"name": "028ee4330f3f5aa472aef60fa9b5517e", "lon": -77.00381083333333, "lat": 38.83610383333333, "type": "electric_bike", "fusion_lon": 0.0, "is_reserved": 0, "bike_id": "028ee4330f3f5aa472aef60fa9b5517e", "fusion_lat": 0.0, "is_disabled": 0, "rental_uris": {"ios": "https://dc.lft.to/lastmile_qr_scan", "android": "https://dc.lft.to/lastmile_qr_scan"}}, {"name": "6db1e5e6737ac412f3218405fd45a31d", "lon": -77.01442416666667, "lat": 38.9196525, "type": "electric_scooter", "fusion_lon": 0.0, "is_reserved": 0, "bike_id": "6db1e5e6737ac412f3218405fd45a31d", "fusion_lat": 0.0, "is_disabled": 0, "rental_uris": {"ios": "https://dc.lft.to/lastmile_qr_scan", "android": "https://dc.lft.to/lastmile_qr_scan"}}, {"name": "0d79eefe8e6e4f3a833ae1db10f7a1f4", "lon": -77.0413805, "lat": 38.930701, "type": "electric_scooter", "fusion_lon": 0.0, "is_reserved": 0, "bike_id": "0d79eefe8e6e4f3a833ae1db10f7a1f4", "fusion_lat": 0.0, "is_disabled": 0, "rental_uris": {"ios": "https://dc.lft.to/lastmile_qr_scan", "android": "https://dc.lft.to/lastmile_qr_scan"}}, {"name": "49f0e53d73f2bec068bd7db72017ce3a", "lon": -77.04626766666667, "lat": 38.91932283333333, "type": "electric_scooter", "fusion_lon": 0.0, "is_reserved": 0, "bike_id": "49f0e53d73f2bec068bd7db72017ce3a", "fusion_lat": 0.0, "is_disabled": 0, "rental_uris": {"ios": "https://dc.lft.to/lastmile_qr_scan", "android": "https://dc.lft.to/lastmile_qr_scan"}}, {"name": "a4bd7847d729158fdf33aa755095d124", "lon": -76.98198833333333, "lat": 38.90199966666667, "type": "electric_scooter", "fusion_lon": 0.0, "is_reserved": 0, "bike_id": "a4bd7847d729158fdf33aa755095d124", "fusion_lat": 0.0, "is_disabled": 0, "rental_uris": {"ios": "https://dc.lft.to/lastmile_qr_scan", "android": "https://dc.lft.to/lastmile_qr_scan"}}, {"name": "a58372787d572a4ec021badab1c571ff", "lon": -76.99606333333334, "lat": 38.8862505, "type": "electric_scooter", "fusion_lon": 0.0, "is_reserved": 0, "bike_id": "a58372787d572a4ec021badab1c571ff", "fusion_lat": 0.0, "is_disabled": 0, "rental_uris": {"ios": "https://dc.lft.to/lastmile_qr_scan", "android": "https://dc.lft.to/lastmile_qr_scan"}}, {"name": "0d70e71459060ce0659f42f349075657", "lon": -77.02325233333333, "lat": 38.90731866666667, "type": "electric_scooter", "fusion_lon": 0.0, "is_reserved": 0, "bike_id": "0d70e71459060ce0659f42f349075657", "fusion_lat": 0.0, "is_disabled": 0, "rental_uris": {"ios": "https://dc.lft.to/lastmile_qr_scan", "android": "https://dc.lft.to/lastmile_qr_scan"}}, {"name": "d950429abd1dc8a7edaa7e9e413349ee", "lon": -77.02568216666667, "lat": 38.924755833333336, "type": "electric_scooter", "fusion_lon": 0.0, "is_reserved": 0, "bike_id": "d950429abd1dc8a7edaa7e9e413349ee", "fusion_lat": 0.0, "is_disabled": 0, "rental_uris": {"ios": "https://dc.lft.to/lastmile_qr_scan", "android": "https://dc.lft.to/lastmile_qr_scan"}}, {"name": "5125f6765a6bd77981609f4c1b9f259d", "lon": -77.02516583333333, "lat": 38.930978, "type": "electric_scooter", "fusion_lon": 0.0, "is_reserved": 0, "bike_id": "5125f6765a6bd77981609f4c1b9f259d", "fusion_lat": 0.0, "is_disabled": 0, "rental_uris": {"ios": "https://dc.lft.to/lastmile_qr_scan", "android": "https://dc.lft.to/lastmile_qr_scan"}}, {"name": "bfa540dcc7619ed935d538d4e7451bad", "lon": -77.03214033333333, "lat": 38.89229666666667, "type": "electric_scooter", "fusion_lon": 0.0, "is_reserved": 0, "bike_id": "bfa540dcc7619ed935d538d4e7451bad", "fusion_lat": 0.0, "is_disabled": 0, "rental_uris": {"ios": "https://dc.lft.to/lastmile_qr_scan", "android": "https://dc.lft.to/lastmile_qr_scan"}}, {"name": "0d420755f65abf7cf7d1d562dead3fa1", "lon": -77.025554, "lat": 38.92481383333333, "type": "electric_scooter", "fusion_lon": 0.0, "is_reserved": 0, "bike_id": "0d420755f65abf7cf7d1d562dead3fa1", "fusion_lat": 0.0, "is_disabled": 0, "rental_uris": {"ios": "https://dc.lft.to/lastmile_qr_scan", "android": "https://dc.lft.to/lastmile_qr_scan"}}, {"name": "3a663a0f34f776850a73fc111d875c2c", "lon": -76.98303516666667, "lat": 38.905278833333334, "type": "electric_scooter", "fusion_lon": 0.0, "is_reserved": 0, "bike_id": "3a663a0f34f776850a73fc111d875c2c", "fusion_lat": 0.0, "is_disabled": 0, "rental_uris": {"ios": "https://dc.lft.to/lastmile_qr_scan", "android": "https://dc.lft.to/lastmile_qr_scan"}}, {"name": "e321411cdfcee2ab318c15358e8c22e1", "lon": -77.02570416666667, "lat": 38.92037033333333, "type": "electric_scooter", "fusion_lon": 0.0, "is_reserved": 0, "bike_id": "e321411cdfcee2ab318c15358e8c22e1", "fusion_lat": 0.0, "is_disabled": 0, "rental_uris": {"ios": "https://dc.lft.to/lastmile_qr_scan", "android": "https://dc.lft.to/lastmile_qr_scan"}}, {"name": "e79ccbe74a102b3fb9bfcf822a12f7c4", "lon": -77.03645833333333, "lat": 38.93640766666667, "type": "electric_scooter", "fusion_lon": 0.0, "is_reserved": 0, "bike_id": "e79ccbe74a102b3fb9bfcf822a12f7c4", "fusion_lat": 0.0, "is_disabled": 0, "rental_uris": {"ios": "https://dc.lft.to/lastmile_qr_scan", "android": "https://dc.lft.to/lastmile_qr_scan"}}, {"name": "a01dbc46a1d83be96c77506bf44efe31", "lon": -77.02488783333334, "lat": 38.94185316666667, "type": "electric_scooter", "fusion_lon": 0.0, "is_reserved": 0, "bike_id": "a01dbc46a1d83be96c77506bf44efe31", "fusion_lat": 0.0, "is_disabled": 0, "rental_uris": {"ios": "https://dc.lft.to/lastmile_qr_scan", "android": "https://dc.lft.to/lastmile_qr_scan"}}, {"name": "883e14597f0abce060a30bab57cb61d7", "lon": -77.00194333333333, "lat": 38.9003505, "type": "electric_scooter", "fusion_lon": 0.0, "is_reserved": 0, "bike_id": "883e14597f0abce060a30bab57cb61d7", "fusion_lat": 0.0, "is_disabled": 0, "rental_uris": {"ios": "https://dc.lft.to/lastmile_qr_scan", "android": "https://dc.lft.to/lastmile_qr_scan"}}, {"name": "6907d4d63359ccb9984e6fddd98ccf4f", "lon": -77.017447, "lat": 38.8873705, "type": "electric_scooter", "fusion_lon": 0.0, "is_reserved": 0, "bike_id": "6907d4d63359ccb9984e6fddd98ccf4f", "fusion_lat": 0.0, "is_disabled": 0, "rental_uris": {"ios": "https://dc.lft.to/lastmile_qr_scan", "android": "https://dc.lft.to/lastmile_qr_scan"}}, {"name": "e25bd4342e5be48094335cdd3dfef1a9", "lon": -77.04460583333334, "lat": 38.905887, "type": "electric_scooter", "fusion_lon": 0.0, "is_reserved": 0, "bike_id": "e25bd4342e5be48094335cdd3dfef1a9", "fusion_lat": 0.0, "is_disabled": 0, "rental_uris": {"ios": "https://dc.lft.to/lastmile_qr_scan", "android": "https://dc.lft.to/lastmile_qr_scan"}}, {"name": "d033d114f98b8f0636bd06b0db27d2a0", "lon": -77.04938183333333, "lat": 38.900930333333335, "type": "electric_scooter", "fusion_lon": 0.0, "is_reserved": 0, "bike_id": "d033d114f98b8f0636bd06b0db27d2a0", "fusion_lat": 0.0, "is_disabled": 0, "rental_uris": {"ios": "https://dc.lft.to/lastmile_qr_scan", "android": "https://dc.lft.to/lastmile_qr_scan"}}, {"name": "b4cfd1dde14bb767e8ca1b5697a4d026", "lon": -77.02951116666667, "lat": 38.90750383333334, "type": "electric_scooter", "fusion_lon": 0.0, "is_reserved": 0, "bike_id": "b4cfd1dde14bb767e8ca1b5697a4d026", "fusion_lat": 0.0, "is_disabled": 0, "rental_uris": {"ios": "https://dc.lft.to/lastmile_qr_scan", "android": "https://dc.lft.to/lastmile_qr_scan"}}, {"name": "0378d247dfe28c4ba2b1ce3fcc2f37c7", "lon": -77.04330233333333, "lat": 38.89225283333333, "type": "electric_scooter", "fusion_lon": 0.0, "is_reserved": 0, "bike_id": "0378d247dfe28c4ba2b1ce3fcc2f37c7", "fusion_lat": 0.0, "is_disabled": 0, "rental_uris": {"ios": "https://dc.lft.to/lastmile_qr_scan", "android": "https://dc.lft.to/lastmile_qr_scan"}}, {"name": "59f37eb776c1fb383b109d118b1dd975", "lon": -76.9853625, "lat": 38.86656716666667, "type": "electric_scooter", "fusion_lon": 0.0, "is_reserved": 0, "bike_id": "59f37eb776c1fb383b109d118b1dd975", "fusion_lat": 0.0, "is_disabled": 0, "rental_uris": {"ios": "https://dc.lft.to/lastmile_qr_scan", "android": "https://dc.lft.to/lastmile_qr_scan"}}, {"name": "55856af09ba1f0d96d286c6f2c5471a0", "lon": -77.04884083333333, "lat": 38.906422166666665, "type": "electric_scooter", "fusion_lon": 0.0, "is_reserved": 0, "bike_id": "55856af09ba1f0d96d286c6f2c5471a0", "fusion_lat": 0.0, "is_disabled": 0, "rental_uris": {"ios": "https://dc.lft.to/lastmile_qr_scan", "android": "https://dc.lft.to/lastmile_qr_scan"}}, {"name": "aa771aae583f1698671400cf586e9799", "lon": -77.00866983333333, "lat": 38.88193233333333, "type": "electric_scooter", "fusion_lon": 0.0, "is_reserved": 0, "bike_id": "aa771aae583f1698671400cf586e9799", "fusion_lat": 0.0, "is_disabled": 0, "rental_uris": {"ios": "https://dc.lft.to/lastmile_qr_scan", "android": "https://dc.lft.to/lastmile_qr_scan"}}, {"name": "988087ec993dd9791a3f91f0c2dfa216", "lon": -77.02714133333333, "lat": 38.9007355, "type": "electric_scooter", "fusion_lon": 0.0, "is_reserved": 0, "bike_id": "988087ec993dd9791a3f91f0c2dfa216", "fusion_lat": 0.0, "is_disabled": 0, "rental_uris": {"ios": "https://dc.lft.to/lastmile_qr_scan", "android": "https://dc.lft.to/lastmile_qr_scan"}}, {"name": "0fdaa8e370c57ba6ea08c3a6d93c14f0", "lon": -77.036567, "lat": 38.93629, "type": "electric_scooter", "fusion_lon": 0.0, "is_reserved": 0, "bike_id": "0fdaa8e370c57ba6ea08c3a6d93c14f0", "fusion_lat": 0.0, "is_disabled": 0, "rental_uris": {"ios": "https://dc.lft.to/lastmile_qr_scan", "android": "https://dc.lft.to/lastmile_qr_scan"}}, {"name": "e9fd870aee533e9fb726d2ce2eb146c5", "lon": -77.04249233333333, "lat": 38.90831, "type": "electric_scooter", "fusion_lon": 0.0, "is_reserved": 0, "bike_id": "e9fd870aee533e9fb726d2ce2eb146c5", "fusion_lat": 0.0, "is_disabled": 0, "rental_uris": {"ios": "https://dc.lft.to/lastmile_qr_scan", "android": "https://dc.lft.to/lastmile_qr_scan"}}, {"name": "2a0d63bc4fe2c7d1ba2bb46b9a046c26", "lon": -77.03192316666667, "lat": 38.91774383333333, "type": "electric_scooter", "fusion_lon": 0.0, "is_reserved": 0, "bike_id": "2a0d63bc4fe2c7d1ba2bb46b9a046c26", "fusion_lat": 0.0, "is_disabled": 0, "rental_uris": {"ios": "https://dc.lft.to/lastmile_qr_scan", "android": "https://dc.lft.to/lastmile_qr_scan"}}, {"name": "60148a742f01d245d9e4e1d705262d94", "lon": -77.07907883333333, "lat": 38.94805083333333, "type": "electric_scooter", "fusion_lon": 0.0, "is_reserved": 0, "bike_id": "60148a742f01d245d9e4e1d705262d94", "fusion_lat": 0.0, "is_disabled": 0, "rental_uris": {"ios": "https://dc.lft.to/lastmile_qr_scan", "android": "https://dc.lft.to/lastmile_qr_scan"}}, {"name": "757124f34153d3b004ca5de69cea305d", "lon": -77.036669, "lat": 38.927245666666664, "type": "electric_scooter", "fusion_lon": 0.0, "is_reserved": 0, "bike_id": "757124f34153d3b004ca5de69cea305d", "fusion_lat": 0.0, "is_disabled": 0, "rental_uris": {"ios": "https://dc.lft.to/lastmile_qr_scan", "android": "https://dc.lft.to/lastmile_qr_scan"}}, {"name": "af5d526059ff94ed2722cd8e4fa1ea3c", "lon": -76.9870775, "lat": 38.900644, "type": "electric_scooter", "fusion_lon": 0.0, "is_reserved": 0, "bike_id": "af5d526059ff94ed2722cd8e4fa1ea3c", "fusion_lat": 0.0, "is_disabled": 0, "rental_uris": {"ios": "https://dc.lft.to/lastmile_qr_scan", "android": "https://dc.lft.to/lastmile_qr_scan"}}, {"name": "a9f9e9074bff82ac9b7ac3f27e5225bd", "lon": -77.04017283333333, "lat": 38.918417833333336, "type": "electric_scooter", "fusion_lon": 0.0, "is_reserved": 0, "bike_id": "a9f9e9074bff82ac9b7ac3f27e5225bd", "fusion_lat": 0.0, "is_disabled": 0, "rental_uris": {"ios": "https://dc.lft.to/lastmile_qr_scan", "android": "https://dc.lft.to/lastmile_qr_scan"}}, {"name": "59d3844b8c1d696c1ba5e830ed1540f4", "lon": -77.01384, "lat": 38.9286665, "type": "electric_scooter", "fusion_lon": 0.0, "is_reserved": 0, "bike_id": "59d3844b8c1d696c1ba5e830ed1540f4", "fusion_lat": 0.0, "is_disabled": 0, "rental_uris": {"ios": "https://dc.lft.to/lastmile_qr_scan", "android": "https://dc.lft.to/lastmile_qr_scan"}}, {"name": "7af801b515164b29260276af29eb77e1", "lon": -77.02711816666667, "lat": 38.924591, "type": "electric_scooter", "fusion_lon": 0.0, "is_reserved": 0, "bike_id": "7af801b515164b29260276af29eb77e1", "fusion_lat": 0.0, "is_disabled": 0, "rental_uris": {"ios": "https://dc.lft.to/lastmile_qr_scan", "android": "https://dc.lft.to/lastmile_qr_scan"}}, {"name": "8b6848b0ea5d501e73186e039682b12e", "lon": -77.03094683333333, "lat": 38.904513333333334, "type": "electric_scooter", "fusion_lon": 0.0, "is_reserved": 0, "bike_id": "8b6848b0ea5d501e73186e039682b12e", "fusion_lat": 0.0, "is_disabled": 0, "rental_uris": {"ios": "https://dc.lft.to/lastmile_qr_scan", "android": "https://dc.lft.to/lastmile_qr_scan"}}, {"name": "9c195b9dedb1ded9181e47090bb2cbf0", "lon": -76.99903116666667, "lat": 38.948255, "type": "electric_scooter", "fusion_lon": 0.0, "is_reserved": 0, "bike_id": "9c195b9dedb1ded9181e47090bb2cbf0", "fusion_lat": 0.0, "is_disabled": 0, "rental_uris": {"ios": "https://dc.lft.to/lastmile_qr_scan", "android": "https://dc.lft.to/lastmile_qr_scan"}}, {"name": "8ed35d8641c49727a8030b2f51364669", "lon": -77.02718383333334, "lat": 38.90688816666667, "type": "electric_scooter", "fusion_lon": 0.0, "is_reserved": 0, "bike_id": "8ed35d8641c49727a8030b2f51364669", "fusion_lat": 0.0, "is_disabled": 0, "rental_uris": {"ios": "https://dc.lft.to/lastmile_qr_scan", "android": "https://dc.lft.to/lastmile_qr_scan"}}, {"name": "495abd8cff1abd42d184fa2eb7ec8cf1", "lon": -77.00236766666667, "lat": 38.95719533333333, "type": "electric_scooter", "fusion_lon": 0.0, "is_reserved": 0, "bike_id": "495abd8cff1abd42d184fa2eb7ec8cf1", "fusion_lat": 0.0, "is_disabled": 0, "rental_uris": {"ios": "https://dc.lft.to/lastmile_qr_scan", "android": "https://dc.lft.to/lastmile_qr_scan"}}, {"name": "478501e80992b2c2991826d43c0222fb", "lon": -76.98688566666667, "lat": 38.944764, "type": "electric_bike", "fusion_lon": 0.0, "is_reserved": 0, "bike_id": "478501e80992b2c2991826d43c0222fb", "fusion_lat": 0.0, "is_disabled": 0, "rental_uris": {"ios": "https://dc.lft.to/lastmile_qr_scan", "android": "https://dc.lft.to/lastmile_qr_scan"}}, {"name": "a1e491213909595434837f9d29e94e6f", "lon": -77.06020316666667, "lat": 38.9018775, "type": "electric_scooter", "fusion_lon": 0.0, "is_reserved": 0, "bike_id": "a1e491213909595434837f9d29e94e6f", "fusion_lat": 0.0, "is_disabled": 0, "rental_uris": {"ios": "https://dc.lft.to/lastmile_qr_scan", "android": "https://dc.lft.to/lastmile_qr_scan"}}, {"name": "b6e8f9bf604231a8f2614bfd8560f93c", "lon": -76.99677983333333, "lat": 38.924871833333334, "type": "electric_bike", "fusion_lon": 0.0, "is_reserved": 0, "bike_id": "b6e8f9bf604231a8f2614bfd8560f93c", "fusion_lat": 0.0, "is_disabled": 0, "rental_uris": {"ios": "https://dc.lft.to/lastmile_qr_scan", "android": "https://dc.lft.to/lastmile_qr_scan"}}, {"name": "fb99f02d77f01e42ff10182315e490e0", "lon": -77.07348516666667, "lat": 38.93048, "type": "electric_bike", "fusion_lon": 0.0, "is_reserved": 0, "bike_id": "fb99f02d77f01e42ff10182315e490e0", "fusion_lat": 0.0, "is_disabled": 0, "rental_uris": {"ios": "https://dc.lft.to/lastmile_qr_scan", "android": "https://dc.lft.to/lastmile_qr_scan"}}, {"name": "b689aaf89461027d69c564e8700ac5eb", "lon": -77.0317975, "lat": 38.913545, "type": "electric_scooter", "fusion_lon": 0.0, "is_reserved": 0, "bike_id": "b689aaf89461027d69c564e8700ac5eb", "fusion_lat": 0.0, "is_disabled": 0, "rental_uris": {"ios": "https://dc.lft.to/lastmile_qr_scan", "android": "https://dc.lft.to/lastmile_qr_scan"}}, {"name": "408201eeec9ea4bb8555932b54f81af2", "lon": -77.02500616666667, "lat": 38.90637, "type": "electric_scooter", "fusion_lon": 0.0, "is_reserved": 0, "bike_id": "408201eeec9ea4bb8555932b54f81af2", "fusion_lat": 0.0, "is_disabled": 0, "rental_uris": {"ios": "https://dc.lft.to/lastmile_qr_scan", "android": "https://dc.lft.to/lastmile_qr_scan"}}, {"name": "b7726dac0d87d618ae069b7da503dd97", "lon": -77.11598566666666, "lat": 39.074949333333336, "type": "electric_bike", "fusion_lon": 0.0, "is_reserved": 0, "bike_id": "b7726dac0d87d618ae069b7da503dd97", "fusion_lat": 0.0, "is_disabled": 0, "rental_uris": {"ios": "https://dc.lft.to/lastmile_qr_scan", "android": "https://dc.lft.to/lastmile_qr_scan"}}, {"name": "8c5cc1bbe0fb4f599396e5364c78a451", "lon": -76.99776133333333, "lat": 38.909054, "type": "electric_scooter", "fusion_lon": 0.0, "is_reserved": 0, "bike_id": "8c5cc1bbe0fb4f599396e5364c78a451", "fusion_lat": 0.0, "is_disabled": 0, "rental_uris": {"ios": "https://dc.lft.to/lastmile_qr_scan", "android": "https://dc.lft.to/lastmile_qr_scan"}}, {"name": "94c4b013ef666b09111911c3cbc08b53", "lon": -77.01505433333334, "lat": 38.8863235, "type": "electric_scooter", "fusion_lon": 0.0, "is_reserved": 0, "bike_id": "94c4b013ef666b09111911c3cbc08b53", "fusion_lat": 0.0, "is_disabled": 0, "rental_uris": {"ios": "https://dc.lft.to/lastmile_qr_scan", "android": "https://dc.lft.to/lastmile_qr_scan"}}, {"name": "ca91656ac3b9d7b265272d5b517bd201", "lon": -77.02182166666667, "lat": 38.93477433333334, "type": "electric_scooter", "fusion_lon": 0.0, "is_reserved": 0, "bike_id": "ca91656ac3b9d7b265272d5b517bd201", "fusion_lat": 0.0, "is_disabled": 0, "rental_uris": {"ios": "https://dc.lft.to/lastmile_qr_scan", "android": "https://dc.lft.to/lastmile_qr_scan"}}, {"name": "029da85d6890edb4a5b0e39e831884f4", "lon": -77.0164235, "lat": 38.8810995, "type": "electric_scooter", "fusion_lon": 0.0, "is_reserved": 0, "bike_id": "029da85d6890edb4a5b0e39e831884f4", "fusion_lat": 0.0, "is_disabled": 0, "rental_uris": {"ios": "https://dc.lft.to/lastmile_qr_scan", "android": "https://dc.lft.to/lastmile_qr_scan"}}, {"name": "01b3d6c9c2faeab8a3e30cdd28af6a0a", "lon": -77.02830333333333, "lat": 38.950912333333335, "type": "electric_scooter", "fusion_lon": 0.0, "is_reserved": 0, "bike_id": "01b3d6c9c2faeab8a3e30cdd28af6a0a", "fusion_lat": 0.0, "is_disabled": 0, "rental_uris": {"ios": "https://dc.lft.to/lastmile_qr_scan", "android": "https://dc.lft.to/lastmile_qr_scan"}}, {"name": "d49412e33a85a11cd9a3d8f83aee3db9", "lon": -77.0383135, "lat": 38.90781416666667, "type": "electric_scooter", "fusion_lon": 0.0, "is_reserved": 0, "bike_id": "d49412e33a85a11cd9a3d8f83aee3db9", "fusion_lat": 0.0, "is_disabled": 0, "rental_uris": {"ios": "https://dc.lft.to/lastmile_qr_scan", "android": "https://dc.lft.to/lastmile_qr_scan"}}, {"name": "fb36f74ebf3ecfd172b7d979095a2786", "lon": -77.04751816666666, "lat": 38.905405333333334, "type": "electric_scooter", "fusion_lon": 0.0, "is_reserved": 0, "bike_id": "fb36f74ebf3ecfd172b7d979095a2786", "fusion_lat": 0.0, "is_disabled": 0, "rental_uris": {"ios": "https://dc.lft.to/lastmile_qr_scan", "android": "https://dc.lft.to/lastmile_qr_scan"}}, {"name": "33e670e5aa3e95b3087206631599d18d", "lon": -77.050888, "lat": 38.81340266666667, "type": "electric_bike", "fusion_lon": 0.0, "is_reserved": 0, "bike_id": "33e670e5aa3e95b3087206631599d18d", "fusion_lat": 0.0, "is_disabled": 0, "rental_uris": {"ios": "https://dc.lft.to/lastmile_qr_scan", "android": "https://dc.lft.to/lastmile_qr_scan"}}, {"name": "c31742e2f5b04b531354449d58885dd4", "lon": -77.02966916666666, "lat": 38.916874666666665, "type": "electric_scooter", "fusion_lon": 0.0, "is_reserved": 0, "bike_id": "c31742e2f5b04b531354449d58885dd4", "fusion_lat": 0.0, "is_disabled": 0, "rental_uris": {"ios": "https://dc.lft.to/lastmile_qr_scan", "android": "https://dc.lft.to/lastmile_qr_scan"}}, {"name": "324317bf209efc078c0bbc6b77ba8bd4", "lon": -77.02190283333333, "lat": 38.910139666666666, "type": "electric_scooter", "fusion_lon": 0.0, "is_reserved": 0, "bike_id": "324317bf209efc078c0bbc6b77ba8bd4", "fusion_lat": 0.0, "is_disabled": 0, "rental_uris": {"ios": "https://dc.lft.to/lastmile_qr_scan", "android": "https://dc.lft.to/lastmile_qr_scan"}}, {"name": "4169d90ce6f1d94199ed222c06629697", "lon": -77.03181483333333, "lat": 38.917775166666665, "type": "electric_scooter", "fusion_lon": 0.0, "is_reserved": 0, "bike_id": "4169d90ce6f1d94199ed222c06629697", "fusion_lat": 0.0, "is_disabled": 0, "rental_uris": {"ios": "https://dc.lft.to/lastmile_qr_scan", "android": "https://dc.lft.to/lastmile_qr_scan"}}, {"name": "9b4d60be9ce975cd23ac620e17890c19", "lon": -77.0319, "lat": 38.9162415, "type": "electric_scooter", "fusion_lon": 0.0, "is_reserved": 0, "bike_id": "9b4d60be9ce975cd23ac620e17890c19", "fusion_lat": 0.0, "is_disabled": 0, "rental_uris": {"ios": "https://dc.lft.to/lastmile_qr_scan", "android": "https://dc.lft.to/lastmile_qr_scan"}}, {"name": "c6ddb600388843aad9be409d4355a981", "lon": -77.03009383333334, "lat": 38.99140716666667, "type": "electric_bike", "fusion_lon": 0.0, "is_reserved": 0, "bike_id": "c6ddb600388843aad9be409d4355a981", "fusion_lat": 0.0, "is_disabled": 0, "rental_uris": {"ios": "https://dc.lft.to/lastmile_qr_scan", "android": "https://dc.lft.to/lastmile_qr_scan"}}, {"name": "7f5a7e6caac9b1b5cf5c40ca6a2ee573", "lon": -77.033749, "lat": 38.92057166666667, "type": "electric_scooter", "fusion_lon": 0.0, "is_reserved": 0, "bike_id": "7f5a7e6caac9b1b5cf5c40ca6a2ee573", "fusion_lat": 0.0, "is_disabled": 0, "rental_uris": {"ios": "https://dc.lft.to/lastmile_qr_scan", "android": "https://dc.lft.to/lastmile_qr_scan"}}, {"name": "c7ae31c8217ce348c9fe99ea81dc757d", "lon": -77.00116033333333, "lat": 38.877973, "type": "electric_scooter", "fusion_lon": 0.0, "is_reserved": 0, "bike_id": "c7ae31c8217ce348c9fe99ea81dc757d", "fusion_lat": 0.0, "is_disabled": 0, "rental_uris": {"ios": "https://dc.lft.to/lastmile_qr_scan", "android": "https://dc.lft.to/lastmile_qr_scan"}}, {"name": "d6627e6ed044001c789b8371691557f0", "lon": -77.02712833333334, "lat": 38.9067235, "type": "electric_scooter", "fusion_lon": 0.0, "is_reserved": 0, "bike_id": "d6627e6ed044001c789b8371691557f0", "fusion_lat": 0.0, "is_disabled": 0, "rental_uris": {"ios": "https://dc.lft.to/lastmile_qr_scan", "android": "https://dc.lft.to/lastmile_qr_scan"}}, {"name": "ab7a06bfcdbde7caf0d169c019511d7f", "lon": -77.040009, "lat": 38.888695166666665, "type": "electric_scooter", "fusion_lon": 0.0, "is_reserved": 0, "bike_id": "ab7a06bfcdbde7caf0d169c019511d7f", "fusion_lat": 0.0, "is_disabled": 0, "rental_uris": {"ios": "https://dc.lft.to/lastmile_qr_scan", "android": "https://dc.lft.to/lastmile_qr_scan"}}, {"name": "688bec79f88a4bcf044ed0b1569cb8f3", "lon": -76.99352816666666, "lat": 38.8450725, "type": "electric_bike", "fusion_lon": 0.0, "is_reserved": 0, "bike_id": "688bec79f88a4bcf044ed0b1569cb8f3", "fusion_lat": 0.0, "is_disabled": 0, "rental_uris": {"ios": "https://dc.lft.to/lastmile_qr_scan", "android": "https://dc.lft.to/lastmile_qr_scan"}}, {"name": "3c9f9cd3ae4df6eee414b156a59b7038", "lon": -77.03440933333333, "lat": 38.918086833333334, "type": "electric_scooter", "fusion_lon": 0.0, "is_reserved": 0, "bike_id": "3c9f9cd3ae4df6eee414b156a59b7038", "fusion_lat": 0.0, "is_disabled": 0, "rental_uris": {"ios": "https://dc.lft.to/lastmile_qr_scan", "android": "https://dc.lft.to/lastmile_qr_scan"}}, {"name": "913e2abd0d237ed7a783e5f23a46f0db", "lon": -77.03471866666666, "lat": 38.90570183333333, "type": "electric_scooter", "fusion_lon": 0.0, "is_reserved": 0, "bike_id": "913e2abd0d237ed7a783e5f23a46f0db", "fusion_lat": 0.0, "is_disabled": 0, "rental_uris": {"ios": "https://dc.lft.to/lastmile_qr_scan", "android": "https://dc.lft.to/lastmile_qr_scan"}}, {"name": "63539dac5d2ebb750bb4e537440d42e3", "lon": -76.99834783333333, "lat": 38.883217, "type": "electric_scooter", "fusion_lon": 0.0, "is_reserved": 0, "bike_id": "63539dac5d2ebb750bb4e537440d42e3", "fusion_lat": 0.0, "is_disabled": 0, "rental_uris": {"ios": "https://dc.lft.to/lastmile_qr_scan", "android": "https://dc.lft.to/lastmile_qr_scan"}}, {"name": "750cf5ec3025b5ce5322368ca1a422f6", "lon": -77.03069916666666, "lat": 38.92731833333333, "type": "electric_scooter", "fusion_lon": 0.0, "is_reserved": 0, "bike_id": "750cf5ec3025b5ce5322368ca1a422f6", "fusion_lat": 0.0, "is_disabled": 0, "rental_uris": {"ios": "https://dc.lft.to/lastmile_qr_scan", "android": "https://dc.lft.to/lastmile_qr_scan"}}, {"name": "0cf7a32a419f3fe7ac6b1474ec20816b", "lon": -77.01748916666666, "lat": 38.92037783333333, "type": "electric_scooter", "fusion_lon": 0.0, "is_reserved": 0, "bike_id": "0cf7a32a419f3fe7ac6b1474ec20816b", "fusion_lat": 0.0, "is_disabled": 0, "rental_uris": {"ios": "https://dc.lft.to/lastmile_qr_scan", "android": "https://dc.lft.to/lastmile_qr_scan"}}, {"name": "c90700ab9b26b9f1c8a2b28155045f9d", "lon": -77.03860933333333, "lat": 38.916903, "type": "electric_scooter", "fusion_lon": 0.0, "is_reserved": 0, "bike_id": "c90700ab9b26b9f1c8a2b28155045f9d", "fusion_lat": 0.0, "is_disabled": 0, "rental_uris": {"ios": "https://dc.lft.to/lastmile_qr_scan", "android": "https://dc.lft.to/lastmile_qr_scan"}}, {"name": "05381a6d5b2c88d832f92357a8d7b12b", "lon": -77.06412883333333, "lat": 38.913008166666664, "type": "electric_scooter", "fusion_lon": 0.0, "is_reserved": 0, "bike_id": "05381a6d5b2c88d832f92357a8d7b12b", "fusion_lat": 0.0, "is_disabled": 0, "rental_uris": {"ios": "https://dc.lft.to/lastmile_qr_scan", "android": "https://dc.lft.to/lastmile_qr_scan"}}, {"name": "fd20c2cef8449df22ea7d4b1cda09537", "lon": -77.038131, "lat": 38.906818666666666, "type": "electric_scooter", "fusion_lon": 0.0, "is_reserved": 0, "bike_id": "fd20c2cef8449df22ea7d4b1cda09537", "fusion_lat": 0.0, "is_disabled": 0, "rental_uris": {"ios": "https://dc.lft.to/lastmile_qr_scan", "android": "https://dc.lft.to/lastmile_qr_scan"}}, {"name": "f4186b8efb5d5f2256cc22f4a9c9cc35", "lon": -76.945838, "lat": 38.937456833333336, "type": "electric_bike", "fusion_lon": 0.0, "is_reserved": 0, "bike_id": "f4186b8efb5d5f2256cc22f4a9c9cc35", "fusion_lat": 0.0, "is_disabled": 0, "rental_uris": {"ios": "https://dc.lft.to/lastmile_qr_scan", "android": "https://dc.lft.to/lastmile_qr_scan"}}, {"name": "53fea7cc535f874e54c686638c0c479c", "lon": -77.0240705, "lat": 38.916782833333336, "type": "electric_scooter", "fusion_lon": 0.0, "is_reserved": 0, "bike_id": "53fea7cc535f874e54c686638c0c479c", "fusion_lat": 0.0, "is_disabled": 0, "rental_uris": {"ios": "https://dc.lft.to/lastmile_qr_scan", "android": "https://dc.lft.to/lastmile_qr_scan"}}, {"name": "d3ea350dc43b1ccd392293ee32f7ef2a", "lon": -77.02545583333334, "lat": 38.907287, "type": "electric_scooter", "fusion_lon": 0.0, "is_reserved": 0, "bike_id": "d3ea350dc43b1ccd392293ee32f7ef2a", "fusion_lat": 0.0, "is_disabled": 0, "rental_uris": {"ios": "https://dc.lft.to/lastmile_qr_scan", "android": "https://dc.lft.to/lastmile_qr_scan"}}, {"name": "ce1b91c8a2763816e6228965d6ae5dce", "lon": -77.04406333333333, "lat": 38.921186666666664, "type": "electric_scooter", "fusion_lon": 0.0, "is_reserved": 0, "bike_id": "ce1b91c8a2763816e6228965d6ae5dce", "fusion_lat": 0.0, "is_disabled": 0, "rental_uris": {"ios": "https://dc.lft.to/lastmile_qr_scan", "android": "https://dc.lft.to/lastmile_qr_scan"}}, {"name": "e9e924fb8c2bda0ccbee948544c08dc6", "lon": -77.02379416666666, "lat": 38.8867715, "type": "electric_scooter", "fusion_lon": 0.0, "is_reserved": 0, "bike_id": "e9e924fb8c2bda0ccbee948544c08dc6", "fusion_lat": 0.0, "is_disabled": 0, "rental_uris": {"ios": "https://dc.lft.to/lastmile_qr_scan", "android": "https://dc.lft.to/lastmile_qr_scan"}}, {"name": "01f06c9a4381a34cf0e92878a03ccaee", "lon": -77.0349445, "lat": 38.92477783333333, "type": "electric_scooter", "fusion_lon": 0.0, "is_reserved": 0, "bike_id": "01f06c9a4381a34cf0e92878a03ccaee", "fusion_lat": 0.0, "is_disabled": 0, "rental_uris": {"ios": "https://dc.lft.to/lastmile_qr_scan", "android": "https://dc.lft.to/lastmile_qr_scan"}}, {"name": "8256d0c5e7601ea50e16d820dc1a8ea5", "lon": -77.03616616666666, "lat": 38.932572666666665, "type": "electric_scooter", "fusion_lon": 0.0, "is_reserved": 0, "bike_id": "8256d0c5e7601ea50e16d820dc1a8ea5", "fusion_lat": 0.0, "is_disabled": 0, "rental_uris": {"ios": "https://dc.lft.to/lastmile_qr_scan", "android": "https://dc.lft.to/lastmile_qr_scan"}}, {"name": "06f7da24f68a0dd60c72be5c5a5496f5", "lon": -76.9191405, "lat": 38.8857945, "type": "electric_scooter", "fusion_lon": 0.0, "is_reserved": 0, "bike_id": "06f7da24f68a0dd60c72be5c5a5496f5", "fusion_lat": 0.0, "is_disabled": 0, "rental_uris": {"ios": "https://dc.lft.to/lastmile_qr_scan", "android": "https://dc.lft.to/lastmile_qr_scan"}}, {"name": "9b06e76f02616d35366bec24c0d26987", "lon": -77.048496, "lat": 38.916266666666665, "type": "electric_scooter", "fusion_lon": 0.0, "is_reserved": 0, "bike_id": "9b06e76f02616d35366bec24c0d26987", "fusion_lat": 0.0, "is_disabled": 0, "rental_uris": {"ios": "https://dc.lft.to/lastmile_qr_scan", "android": "https://dc.lft.to/lastmile_qr_scan"}}, {"name": "f1cd4b93c86d05e827ddb619741cc4bb", "lon": -76.97535833333333, "lat": 38.90328016666667, "type": "electric_bike", "fusion_lon": 0.0, "is_reserved": 0, "bike_id": "f1cd4b93c86d05e827ddb619741cc4bb", "fusion_lat": 0.0, "is_disabled": 0, "rental_uris": {"ios": "https://dc.lft.to/lastmile_qr_scan", "android": "https://dc.lft.to/lastmile_qr_scan"}}, {"name": "9b4e5fbeb8c2145562ac3e7817d376a5", "lon": -77.00363583333333, "lat": 38.91552266666667, "type": "electric_scooter", "fusion_lon": 0.0, "is_reserved": 0, "bike_id": "9b4e5fbeb8c2145562ac3e7817d376a5", "fusion_lat": 0.0, "is_disabled": 0, "rental_uris": {"ios": "https://dc.lft.to/lastmile_qr_scan", "android": "https://dc.lft.to/lastmile_qr_scan"}}, {"name": "4337406058583199ba0d5f5525437a5a", "lon": -77.057179, "lat": 38.906262, "type": "electric_scooter", "fusion_lon": 0.0, "is_reserved": 0, "bike_id": "4337406058583199ba0d5f5525437a5a", "fusion_lat": 0.0, "is_disabled": 0, "rental_uris": {"ios": "https://dc.lft.to/lastmile_qr_scan", "android": "https://dc.lft.to/lastmile_qr_scan"}}, {"name": "69d7ea898b48a0e860f57b43e318df67", "lon": -77.066943, "lat": 38.831781, "type": "electric_bike", "fusion_lon": 0.0, "is_reserved": 0, "bike_id": "69d7ea898b48a0e860f57b43e318df67", "fusion_lat": 0.0, "is_disabled": 0, "rental_uris": {"ios": "https://dc.lft.to/lastmile_qr_scan", "android": "https://dc.lft.to/lastmile_qr_scan"}}, {"name": "b8394f7f68f81fd0b070a54b318f8237", "lon": -76.98006016666666, "lat": 38.8532085, "type": "electric_scooter", "fusion_lon": 0.0, "is_reserved": 0, "bike_id": "b8394f7f68f81fd0b070a54b318f8237", "fusion_lat": 0.0, "is_disabled": 0, "rental_uris": {"ios": "https://dc.lft.to/lastmile_qr_scan", "android": "https://dc.lft.to/lastmile_qr_scan"}}, {"name": "484e7a9ddb8a8800e97e0abf4ea917e9", "lon": -77.02327266666667, "lat": 38.927134833333334, "type": "electric_scooter", "fusion_lon": 0.0, "is_reserved": 0, "bike_id": "484e7a9ddb8a8800e97e0abf4ea917e9", "fusion_lat": 0.0, "is_disabled": 0, "rental_uris": {"ios": "https://dc.lft.to/lastmile_qr_scan", "android": "https://dc.lft.to/lastmile_qr_scan"}}, {"name": "9e9713d68353ddffb64a95c9c280497a", "lon": -77.02821716666666, "lat": 38.9140495, "type": "electric_scooter", "fusion_lon": 0.0, "is_reserved": 0, "bike_id": "9e9713d68353ddffb64a95c9c280497a", "fusion_lat": 0.0, "is_disabled": 0, "rental_uris": {"ios": "https://dc.lft.to/lastmile_qr_scan", "android": "https://dc.lft.to/lastmile_qr_scan"}}, {"name": "e539585cd0d243f743ccf056e3602425", "lon": -77.02987166666666, "lat": 38.9057345, "type": "electric_scooter", "fusion_lon": 0.0, "is_reserved": 0, "bike_id": "e539585cd0d243f743ccf056e3602425", "fusion_lat": 0.0, "is_disabled": 0, "rental_uris": {"ios": "https://dc.lft.to/lastmile_qr_scan", "android": "https://dc.lft.to/lastmile_qr_scan"}}, {"name": "51554599b4d17d770be3030e570c1bf1", "lon": -77.00913416666667, "lat": 38.90987533333333, "type": "electric_scooter", "fusion_lon": 0.0, "is_reserved": 0, "bike_id": "51554599b4d17d770be3030e570c1bf1", "fusion_lat": 0.0, "is_disabled": 0, "rental_uris": {"ios": "https://dc.lft.to/lastmile_qr_scan", "android": "https://dc.lft.to/lastmile_qr_scan"}}, {"name": "89a32f2c4662fc9126da5f2822f03757", "lon": -77.03266066666667, "lat": 38.90272816666667, "type": "electric_scooter", "fusion_lon": 0.0, "is_reserved": 0, "bike_id": "89a32f2c4662fc9126da5f2822f03757", "fusion_lat": 0.0, "is_disabled": 0, "rental_uris": {"ios": "https://dc.lft.to/lastmile_qr_scan", "android": "https://dc.lft.to/lastmile_qr_scan"}}, {"name": "caf886bf97b788cda02c5de4db57d875", "lon": -77.04469833333333, "lat": 38.918686666666666, "type": "electric_scooter", "fusion_lon": 0.0, "is_reserved": 0, "bike_id": "caf886bf97b788cda02c5de4db57d875", "fusion_lat": 0.0, "is_disabled": 0, "rental_uris": {"ios": "https://dc.lft.to/lastmile_qr_scan", "android": "https://dc.lft.to/lastmile_qr_scan"}}, {"name": "4c03c3c44fddfe9d9871d437f0446005", "lon": -77.04480616666666, "lat": 38.900222, "type": "electric_scooter", "fusion_lon": 0.0, "is_reserved": 0, "bike_id": "4c03c3c44fddfe9d9871d437f0446005", "fusion_lat": 0.0, "is_disabled": 0, "rental_uris": {"ios": "https://dc.lft.to/lastmile_qr_scan", "android": "https://dc.lft.to/lastmile_qr_scan"}}, {"name": "d75696368c402be62ae069f8007986c9", "lon": -77.043715, "lat": 38.9256705, "type": "electric_scooter", "fusion_lon": 0.0, "is_reserved": 0, "bike_id": "d75696368c402be62ae069f8007986c9", "fusion_lat": 0.0, "is_disabled": 0, "rental_uris": {"ios": "https://dc.lft.to/lastmile_qr_scan", "android": "https://dc.lft.to/lastmile_qr_scan"}}, {"name": "57fdbf0bc3e7a2c497b9d6471105978e", "lon": -76.99718433333334, "lat": 38.927493166666665, "type": "electric_bike", "fusion_lon": 0.0, "is_reserved": 0, "bike_id": "57fdbf0bc3e7a2c497b9d6471105978e", "fusion_lat": 0.0, "is_disabled": 0, "rental_uris": {"ios": "https://dc.lft.to/lastmile_qr_scan", "android": "https://dc.lft.to/lastmile_qr_scan"}}, {"name": "b02d71691d669663c160aac4c79f635b", "lon": -77.04764116666666, "lat": 38.91243683333333, "type": "electric_scooter", "fusion_lon": 0.0, "is_reserved": 0, "bike_id": "b02d71691d669663c160aac4c79f635b", "fusion_lat": 0.0, "is_disabled": 0, "rental_uris": {"ios": "https://dc.lft.to/lastmile_qr_scan", "android": "https://dc.lft.to/lastmile_qr_scan"}}, {"name": "801be09b8317e1b081dc86b4e6630f3f", "lon": -76.93547916666667, "lat": 38.955562, "type": "electric_bike", "fusion_lon": 0.0, "is_reserved": 0, "bike_id": "801be09b8317e1b081dc86b4e6630f3f", "fusion_lat": 0.0, "is_disabled": 0, "rental_uris": {"ios": "https://dc.lft.to/lastmile_qr_scan", "android": "https://dc.lft.to/lastmile_qr_scan"}}, {"name": "321a8125f7a016166f929f6f272cb193", "lon": -76.93197683333334, "lat": 38.898821, "type": "electric_scooter", "fusion_lon": 0.0, "is_reserved": 0, "bike_id": "321a8125f7a016166f929f6f272cb193", "fusion_lat": 0.0, "is_disabled": 0, "rental_uris": {"ios": "https://dc.lft.to/lastmile_qr_scan", "android": "https://dc.lft.to/lastmile_qr_scan"}}, {"name": "48fda502377c7cf4be2a92f637a8d06a", "lon": -77.051408, "lat": 38.90528166666667, "type": "electric_scooter", "fusion_lon": 0.0, "is_reserved": 0, "bike_id": "48fda502377c7cf4be2a92f637a8d06a", "fusion_lat": 0.0, "is_disabled": 0, "rental_uris": {"ios": "https://dc.lft.to/lastmile_qr_scan", "android": "https://dc.lft.to/lastmile_qr_scan"}}, {"name": "81c1ce0bfd0009986f2e06ef12295483", "lon": -76.99475933333333, "lat": 38.902962333333335, "type": "electric_scooter", "fusion_lon": 0.0, "is_reserved": 0, "bike_id": "81c1ce0bfd0009986f2e06ef12295483", "fusion_lat": 0.0, "is_disabled": 0, "rental_uris": {"ios": "https://dc.lft.to/lastmile_qr_scan", "android": "https://dc.lft.to/lastmile_qr_scan"}}, {"name": "64cd118024db05a82047f9da043845f5", "lon": -76.98505933333334, "lat": 38.8666225, "type": "electric_scooter", "fusion_lon": 0.0, "is_reserved": 0, "bike_id": "64cd118024db05a82047f9da043845f5", "fusion_lat": 0.0, "is_disabled": 0, "rental_uris": {"ios": "https://dc.lft.to/lastmile_qr_scan", "android": "https://dc.lft.to/lastmile_qr_scan"}}, {"name": "fa8d626c1abb72635123e7b97cfcd6ab", "lon": -77.03339216666667, "lat": 38.89225733333333, "type": "electric_scooter", "fusion_lon": 0.0, "is_reserved": 0, "bike_id": "fa8d626c1abb72635123e7b97cfcd6ab", "fusion_lat": 0.0, "is_disabled": 0, "rental_uris": {"ios": "https://dc.lft.to/lastmile_qr_scan", "android": "https://dc.lft.to/lastmile_qr_scan"}}, {"name": "30173f632762707ad72f849955d09c59", "lon": -77.04475666666667, "lat": 38.92240983333333, "type": "electric_scooter", "fusion_lon": 0.0, "is_reserved": 0, "bike_id": "30173f632762707ad72f849955d09c59", "fusion_lat": 0.0, "is_disabled": 0, "rental_uris": {"ios": "https://dc.lft.to/lastmile_qr_scan", "android": "https://dc.lft.to/lastmile_qr_scan"}}, {"name": "a294ba1ed6fc4b451af6acf225aa6645", "lon": -77.046204, "lat": 38.90964266666667, "type": "electric_scooter", "fusion_lon": 0.0, "is_reserved": 0, "bike_id": "a294ba1ed6fc4b451af6acf225aa6645", "fusion_lat": 0.0, "is_disabled": 0, "rental_uris": {"ios": "https://dc.lft.to/lastmile_qr_scan", "android": "https://dc.lft.to/lastmile_qr_scan"}}, {"name": "518242c67f1228aca87bcef7ae620f3b", "lon": -77.01485183333334, "lat": 38.8813605, "type": "electric_scooter", "fusion_lon": 0.0, "is_reserved": 0, "bike_id": "518242c67f1228aca87bcef7ae620f3b", "fusion_lat": 0.0, "is_disabled": 0, "rental_uris": {"ios": "https://dc.lft.to/lastmile_qr_scan", "android": "https://dc.lft.to/lastmile_qr_scan"}}, {"name": "b1767faf55f9c9be476032b07f135a1a", "lon": -77.0427545, "lat": 38.9134455, "type": "electric_scooter", "fusion_lon": 0.0, "is_reserved": 0, "bike_id": "b1767faf55f9c9be476032b07f135a1a", "fusion_lat": 0.0, "is_disabled": 0, "rental_uris": {"ios": "https://dc.lft.to/lastmile_qr_scan", "android": "https://dc.lft.to/lastmile_qr_scan"}}, {"name": "46199653c7d95a7351294d94b06905b3", "lon": -76.978341, "lat": 38.8720475, "type": "electric_scooter", "fusion_lon": 0.0, "is_reserved": 0, "bike_id": "46199653c7d95a7351294d94b06905b3", "fusion_lat": 0.0, "is_disabled": 0, "rental_uris": {"ios": "https://dc.lft.to/lastmile_qr_scan", "android": "https://dc.lft.to/lastmile_qr_scan"}}, {"name": "c7499e22f6dff96c3aeb00266ee498d1", "lon": -76.98888683333334, "lat": 38.86657916666667, "type": "electric_scooter", "fusion_lon": 0.0, "is_reserved": 0, "bike_id": "c7499e22f6dff96c3aeb00266ee498d1", "fusion_lat": 0.0, "is_disabled": 0, "rental_uris": {"ios": "https://dc.lft.to/lastmile_qr_scan", "android": "https://dc.lft.to/lastmile_qr_scan"}}, {"name": "63173c0b82a5974342230805139dfb92", "lon": -77.03780233333333, "lat": 38.916911666666664, "type": "electric_scooter", "fusion_lon": 0.0, "is_reserved": 0, "bike_id": "63173c0b82a5974342230805139dfb92", "fusion_lat": 0.0, "is_disabled": 0, "rental_uris": {"ios": "https://dc.lft.to/lastmile_qr_scan", "android": "https://dc.lft.to/lastmile_qr_scan"}}, {"name": "e7ff440446a3a7f7a08e1c0b1ae5238b", "lon": -77.04170383333333, "lat": 38.919749333333336, "type": "electric_scooter", "fusion_lon": 0.0, "is_reserved": 0, "bike_id": "e7ff440446a3a7f7a08e1c0b1ae5238b", "fusion_lat": 0.0, "is_disabled": 0, "rental_uris": {"ios": "https://dc.lft.to/lastmile_qr_scan", "android": "https://dc.lft.to/lastmile_qr_scan"}}, {"name": "152194af684b09f661c3b6703b0eac12", "lon": -77.02977216666666, "lat": 38.90735016666667, "type": "electric_scooter", "fusion_lon": 0.0, "is_reserved": 0, "bike_id": "152194af684b09f661c3b6703b0eac12", "fusion_lat": 0.0, "is_disabled": 0, "rental_uris": {"ios": "https://dc.lft.to/lastmile_qr_scan", "android": "https://dc.lft.to/lastmile_qr_scan"}}, {"name": "40603b333ab4c971fc6ddf15b0d5bd52", "lon": -77.02503116666666, "lat": 38.93906616666666, "type": "electric_scooter", "fusion_lon": 0.0, "is_reserved": 0, "bike_id": "40603b333ab4c971fc6ddf15b0d5bd52", "fusion_lat": 0.0, "is_disabled": 0, "rental_uris": {"ios": "https://dc.lft.to/lastmile_qr_scan", "android": "https://dc.lft.to/lastmile_qr_scan"}}, {"name": "0ead141a593b1b93e4f549de6f72f6c0", "lon": -77.04157016666667, "lat": 38.91593616666667, "type": "electric_scooter", "fusion_lon": 0.0, "is_reserved": 0, "bike_id": "0ead141a593b1b93e4f549de6f72f6c0", "fusion_lat": 0.0, "is_disabled": 0, "rental_uris": {"ios": "https://dc.lft.to/lastmile_qr_scan", "android": "https://dc.lft.to/lastmile_qr_scan"}}, {"name": "06e4fbc4f9b8ac13f6c74c6cb85e75d9", "lon": -77.05583066666667, "lat": 38.893274, "type": "electric_scooter", "fusion_lon": 0.0, "is_reserved": 0, "bike_id": "06e4fbc4f9b8ac13f6c74c6cb85e75d9", "fusion_lat": 0.0, "is_disabled": 0, "rental_uris": {"ios": "https://dc.lft.to/lastmile_qr_scan", "android": "https://dc.lft.to/lastmile_qr_scan"}}, {"name": "2d4ff700f5d957c957ce37bc6431d90e", "lon": -77.011698, "lat": 38.87240083333333, "type": "electric_bike", "fusion_lon": 0.0, "is_reserved": 0, "bike_id": "2d4ff700f5d957c957ce37bc6431d90e", "fusion_lat": 0.0, "is_disabled": 0, "rental_uris": {"ios": "https://dc.lft.to/lastmile_qr_scan", "android": "https://dc.lft.to/lastmile_qr_scan"}}, {"name": "b1df2516636d58c58e8f2bf56e7b1539", "lon": -77.01058066666667, "lat": 38.86661483333334, "type": "electric_scooter", "fusion_lon": 0.0, "is_reserved": 0, "bike_id": "b1df2516636d58c58e8f2bf56e7b1539", "fusion_lat": 0.0, "is_disabled": 0, "rental_uris": {"ios": "https://dc.lft.to/lastmile_qr_scan", "android": "https://dc.lft.to/lastmile_qr_scan"}}, {"name": "b99be959f635cddda29d5379cbeb46d2", "lon": -76.98551866666666, "lat": 38.9042675, "type": "electric_scooter", "fusion_lon": 0.0, "is_reserved": 0, "bike_id": "b99be959f635cddda29d5379cbeb46d2", "fusion_lat": 0.0, "is_disabled": 0, "rental_uris": {"ios": "https://dc.lft.to/lastmile_qr_scan", "android": "https://dc.lft.to/lastmile_qr_scan"}}, {"name": "29df81a2d5be1d9db57a892d5cbd78a2", "lon": -77.0072135, "lat": 38.898421666666664, "type": "electric_scooter", "fusion_lon": 0.0, "is_reserved": 0, "bike_id": "29df81a2d5be1d9db57a892d5cbd78a2", "fusion_lat": 0.0, "is_disabled": 0, "rental_uris": {"ios": "https://dc.lft.to/lastmile_qr_scan", "android": "https://dc.lft.to/lastmile_qr_scan"}}, {"name": "aa3f532af346e1744373850a8e0e87c5", "lon": -77.04999916666667, "lat": 38.904363833333335, "type": "electric_scooter", "fusion_lon": 0.0, "is_reserved": 0, "bike_id": "aa3f532af346e1744373850a8e0e87c5", "fusion_lat": 0.0, "is_disabled": 0, "rental_uris": {"ios": "https://dc.lft.to/lastmile_qr_scan", "android": "https://dc.lft.to/lastmile_qr_scan"}}, {"name": "388dd6bc7b68cfbe6578d1d3f895cc41", "lon": -77.02529916666667, "lat": 38.94260716666667, "type": "electric_scooter", "fusion_lon": 0.0, "is_reserved": 0, "bike_id": "388dd6bc7b68cfbe6578d1d3f895cc41", "fusion_lat": 0.0, "is_disabled": 0, "rental_uris": {"ios": "https://dc.lft.to/lastmile_qr_scan", "android": "https://dc.lft.to/lastmile_qr_scan"}}, {"name": "c20a86e78f3c981fa5a4ce9150c6b6c2", "lon": -77.03477466666666, "lat": 38.92544433333333, "type": "electric_scooter", "fusion_lon": 0.0, "is_reserved": 0, "bike_id": "c20a86e78f3c981fa5a4ce9150c6b6c2", "fusion_lat": 0.0, "is_disabled": 0, "rental_uris": {"ios": "https://dc.lft.to/lastmile_qr_scan", "android": "https://dc.lft.to/lastmile_qr_scan"}}, {"name": "85e40d6a4154606dbcaffdd7f1cc8215", "lon": -77.03698716666666, "lat": 38.9204265, "type": "electric_bike", "fusion_lon": 0.0, "is_reserved": 0, "bike_id": "85e40d6a4154606dbcaffdd7f1cc8215", "fusion_lat": 0.0, "is_disabled": 0, "rental_uris": {"ios": "https://dc.lft.to/lastmile_qr_scan", "android": "https://dc.lft.to/lastmile_qr_scan"}}, {"name": "75f5f8dabbac5d812bd08cfac9f111c9", "lon": -76.98478116666666, "lat": 38.91515583333333, "type": "electric_scooter", "fusion_lon": 0.0, "is_reserved": 0, "bike_id": "75f5f8dabbac5d812bd08cfac9f111c9", "fusion_lat": 0.0, "is_disabled": 0, "rental_uris": {"ios": "https://dc.lft.to/lastmile_qr_scan", "android": "https://dc.lft.to/lastmile_qr_scan"}}, {"name": "26720e0b780805a53f4e76e163b97903", "lon": -76.97238583333333, "lat": 38.94905883333333, "type": "electric_bike", "fusion_lon": 0.0, "is_reserved": 0, "bike_id": "26720e0b780805a53f4e76e163b97903", "fusion_lat": 0.0, "is_disabled": 0, "rental_uris": {"ios": "https://dc.lft.to/lastmile_qr_scan", "android": "https://dc.lft.to/lastmile_qr_scan"}}, {"name": "024e3c4495af1bfc45139098a9c63a61", "lon": -77.03892716666667, "lat": 38.922505666666666, "type": "electric_scooter", "fusion_lon": 0.0, "is_reserved": 0, "bike_id": "024e3c4495af1bfc45139098a9c63a61", "fusion_lat": 0.0, "is_disabled": 0, "rental_uris": {"ios": "https://dc.lft.to/lastmile_qr_scan", "android": "https://dc.lft.to/lastmile_qr_scan"}}, {"name": "2b01d6e46449c8859f893e4ca08bf0ef", "lon": -76.99334666666667, "lat": 38.924443, "type": "electric_scooter", "fusion_lon": 0.0, "is_reserved": 0, "bike_id": "2b01d6e46449c8859f893e4ca08bf0ef", "fusion_lat": 0.0, "is_disabled": 0, "rental_uris": {"ios": "https://dc.lft.to/lastmile_qr_scan", "android": "https://dc.lft.to/lastmile_qr_scan"}}, {"name": "2453755119d0a4679a9a8008819a20dd", "lon": -77.08586766666667, "lat": 38.84439616666667, "type": "electric_bike", "fusion_lon": 0.0, "is_reserved": 0, "bike_id": "2453755119d0a4679a9a8008819a20dd", "fusion_lat": 0.0, "is_disabled": 0, "rental_uris": {"ios": "https://dc.lft.to/lastmile_qr_scan", "android": "https://dc.lft.to/lastmile_qr_scan"}}, {"name": "e8e94ca87f2ab5501920604a1a214f9a", "lon": -77.022082, "lat": 38.88643233333333, "type": "electric_scooter", "fusion_lon": 0.0, "is_reserved": 0, "bike_id": "e8e94ca87f2ab5501920604a1a214f9a", "fusion_lat": 0.0, "is_disabled": 0, "rental_uris": {"ios": "https://dc.lft.to/lastmile_qr_scan", "android": "https://dc.lft.to/lastmile_qr_scan"}}, {"name": "255abd6bd05aa9f2bca754175c80c92a", "lon": -77.03652733333334, "lat": 38.91799566666667, "type": "electric_scooter", "fusion_lon": 0.0, "is_reserved": 0, "bike_id": "255abd6bd05aa9f2bca754175c80c92a", "fusion_lat": 0.0, "is_disabled": 0, "rental_uris": {"ios": "https://dc.lft.to/lastmile_qr_scan", "android": "https://dc.lft.to/lastmile_qr_scan"}}, {"name": "ac2eee9d6ebb26388acc7e25c3d5b15d", "lon": -77.03822283333334, "lat": 38.906598333333335, "type": "electric_scooter", "fusion_lon": 0.0, "is_reserved": 0, "bike_id": "ac2eee9d6ebb26388acc7e25c3d5b15d", "fusion_lat": 0.0, "is_disabled": 0, "rental_uris": {"ios": "https://dc.lft.to/lastmile_qr_scan", "android": "https://dc.lft.to/lastmile_qr_scan"}}, {"name": "2fb5ed0747c1672d387879f197aa0c0c", "lon": -77.02371016666666, "lat": 38.8792725, "type": "electric_scooter", "fusion_lon": 0.0, "is_reserved": 0, "bike_id": "2fb5ed0747c1672d387879f197aa0c0c", "fusion_lat": 0.0, "is_disabled": 0, "rental_uris": {"ios": "https://dc.lft.to/lastmile_qr_scan", "android": "https://dc.lft.to/lastmile_qr_scan"}}, {"name": "0f61bd5e52a955ee520f5e5d3fea65d7", "lon": -77.022171, "lat": 38.905796, "type": "electric_scooter", "fusion_lon": 0.0, "is_reserved": 0, "bike_id": "0f61bd5e52a955ee520f5e5d3fea65d7", "fusion_lat": 0.0, "is_disabled": 0, "rental_uris": {"ios": "https://dc.lft.to/lastmile_qr_scan", "android": "https://dc.lft.to/lastmile_qr_scan"}}, {"name": "d490f1e13cd8b0c67bcf3e5ef17e7fae", "lon": -77.02530766666666, "lat": 38.94260033333333, "type": "electric_scooter", "fusion_lon": 0.0, "is_reserved": 0, "bike_id": "d490f1e13cd8b0c67bcf3e5ef17e7fae", "fusion_lat": 0.0, "is_disabled": 0, "rental_uris": {"ios": "https://dc.lft.to/lastmile_qr_scan", "android": "https://dc.lft.to/lastmile_qr_scan"}}, {"name": "40171cde0eeda13943db60eeda24f948", "lon": -77.036432, "lat": 38.903893833333335, "type": "electric_scooter", "fusion_lon": 0.0, "is_reserved": 0, "bike_id": "40171cde0eeda13943db60eeda24f948", "fusion_lat": 0.0, "is_disabled": 0, "rental_uris": {"ios": "https://dc.lft.to/lastmile_qr_scan", "android": "https://dc.lft.to/lastmile_qr_scan"}}, {"name": "b474a5b5966e7d4dcf7108aa694e28cd", "lon": -77.02889016666667, "lat": 38.913332, "type": "electric_scooter", "fusion_lon": 0.0, "is_reserved": 0, "bike_id": "b474a5b5966e7d4dcf7108aa694e28cd", "fusion_lat": 0.0, "is_disabled": 0, "rental_uris": {"ios": "https://dc.lft.to/lastmile_qr_scan", "android": "https://dc.lft.to/lastmile_qr_scan"}}, {"name": "9f6525f37ed1c334efd808d2d2179487", "lon": -77.08595883333334, "lat": 38.90863933333333, "type": "electric_scooter", "fusion_lon": 0.0, "is_reserved": 0, "bike_id": "9f6525f37ed1c334efd808d2d2179487", "fusion_lat": 0.0, "is_disabled": 0, "rental_uris": {"ios": "https://dc.lft.to/lastmile_qr_scan", "android": "https://dc.lft.to/lastmile_qr_scan"}}, {"name": "6843bfc7e6c2b08b1cb6236670c4288d", "lon": -77.033859, "lat": 38.9104595, "type": "electric_scooter", "fusion_lon": 0.0, "is_reserved": 0, "bike_id": "6843bfc7e6c2b08b1cb6236670c4288d", "fusion_lat": 0.0, "is_disabled": 0, "rental_uris": {"ios": "https://dc.lft.to/lastmile_qr_scan", "android": "https://dc.lft.to/lastmile_qr_scan"}}, {"name": "7c1c56840e64ac7bf1171dea89f8269f", "lon": -76.9994775, "lat": 38.84299033333333, "type": "electric_scooter", "fusion_lon": 0.0, "is_reserved": 0, "bike_id": "7c1c56840e64ac7bf1171dea89f8269f", "fusion_lat": 0.0, "is_disabled": 0, "rental_uris": {"ios": "https://dc.lft.to/lastmile_qr_scan", "android": "https://dc.lft.to/lastmile_qr_scan"}}, {"name": "e2899ab7af1800439d775d4d61171d5f", "lon": -77.04330083333333, "lat": 38.89521116666667, "type": "electric_scooter", "fusion_lon": 0.0, "is_reserved": 0, "bike_id": "e2899ab7af1800439d775d4d61171d5f", "fusion_lat": 0.0, "is_disabled": 0, "rental_uris": {"ios": "https://dc.lft.to/lastmile_qr_scan", "android": "https://dc.lft.to/lastmile_qr_scan"}}, {"name": "1e371c9f5c479ffd0bac8acd5da10a1a", "lon": -76.9501365, "lat": 38.89388266666667, "type": "electric_scooter", "fusion_lon": 0.0, "is_reserved": 0, "bike_id": "1e371c9f5c479ffd0bac8acd5da10a1a", "fusion_lat": 0.0, "is_disabled": 0, "rental_uris": {"ios": "https://dc.lft.to/lastmile_qr_scan", "android": "https://dc.lft.to/lastmile_qr_scan"}}, {"name": "0d58f75d8579557caab58ee6a8661bf4", "lon": -76.98539416666667, "lat": 38.9095955, "type": "electric_scooter", "fusion_lon": 0.0, "is_reserved": 0, "bike_id": "0d58f75d8579557caab58ee6a8661bf4", "fusion_lat": 0.0, "is_disabled": 0, "rental_uris": {"ios": "https://dc.lft.to/lastmile_qr_scan", "android": "https://dc.lft.to/lastmile_qr_scan"}}, {"name": "df8059f2335b1cbd3284a0eb91602ca7", "lon": -77.0335715, "lat": 38.886278833333336, "type": "electric_scooter", "fusion_lon": 0.0, "is_reserved": 0, "bike_id": "df8059f2335b1cbd3284a0eb91602ca7", "fusion_lat": 0.0, "is_disabled": 0, "rental_uris": {"ios": "https://dc.lft.to/lastmile_qr_scan", "android": "https://dc.lft.to/lastmile_qr_scan"}}, {"name": "3450571053a0114a92fdba637f7d68c6", "lon": -77.02730366666667, "lat": 38.927679499999996, "type": "electric_scooter", "fusion_lon": 0.0, "is_reserved": 0, "bike_id": "3450571053a0114a92fdba637f7d68c6", "fusion_lat": 0.0, "is_disabled": 0, "rental_uris": {"ios": "https://dc.lft.to/lastmile_qr_scan", "android": "https://dc.lft.to/lastmile_qr_scan"}}, {"name": "4a476184614e7b29c64cbb032f8b2f6f", "lon": -77.02500116666667, "lat": 38.91980616666667, "type": "electric_scooter", "fusion_lon": 0.0, "is_reserved": 0, "bike_id": "4a476184614e7b29c64cbb032f8b2f6f", "fusion_lat": 0.0, "is_disabled": 0, "rental_uris": {"ios": "https://dc.lft.to/lastmile_qr_scan", "android": "https://dc.lft.to/lastmile_qr_scan"}}, {"name": "b6e0786135c6a6d54a4b934e1d16bc4d", "lon": -77.02433216666667, "lat": 38.956395666666666, "type": "electric_scooter", "fusion_lon": 0.0, "is_reserved": 0, "bike_id": "b6e0786135c6a6d54a4b934e1d16bc4d", "fusion_lat": 0.0, "is_disabled": 0, "rental_uris": {"ios": "https://dc.lft.to/lastmile_qr_scan", "android": "https://dc.lft.to/lastmile_qr_scan"}}, {"name": "43d956e3c02885280b70b0b8c489915d", "lon": -76.9646745, "lat": 38.934493333333336, "type": "electric_scooter", "fusion_lon": 0.0, "is_reserved": 0, "bike_id": "43d956e3c02885280b70b0b8c489915d", "fusion_lat": 0.0, "is_disabled": 0, "rental_uris": {"ios": "https://dc.lft.to/lastmile_qr_scan", "android": "https://dc.lft.to/lastmile_qr_scan"}}, {"name": "e705a8dcc5aaa892a9be2fdabb82bf2c", "lon": -77.043534, "lat": 38.91039416666667, "type": "electric_scooter", "fusion_lon": 0.0, "is_reserved": 0, "bike_id": "e705a8dcc5aaa892a9be2fdabb82bf2c", "fusion_lat": 0.0, "is_disabled": 0, "rental_uris": {"ios": "https://dc.lft.to/lastmile_qr_scan", "android": "https://dc.lft.to/lastmile_qr_scan"}}, {"name": "9979edf5e74284d268d06f166db7df6a", "lon": -77.02404416666667, "lat": 38.90967783333333, "type": "electric_scooter", "fusion_lon": 0.0, "is_reserved": 0, "bike_id": "9979edf5e74284d268d06f166db7df6a", "fusion_lat": 0.0, "is_disabled": 0, "rental_uris": {"ios": "https://dc.lft.to/lastmile_qr_scan", "android": "https://dc.lft.to/lastmile_qr_scan"}}, {"name": "96656fa731137e69a6621f7a9ec0f114", "lon": -77.0305235, "lat": 38.923783666666665, "type": "electric_scooter", "fusion_lon": 0.0, "is_reserved": 0, "bike_id": "96656fa731137e69a6621f7a9ec0f114", "fusion_lat": 0.0, "is_disabled": 0, "rental_uris": {"ios": "https://dc.lft.to/lastmile_qr_scan", "android": "https://dc.lft.to/lastmile_qr_scan"}}, {"name": "ae93d6e6d7035fb451ca8a8dbb96ccf5", "lon": -77.04598583333333, "lat": 38.91929916666667, "type": "electric_scooter", "fusion_lon": 0.0, "is_reserved": 0, "bike_id": "ae93d6e6d7035fb451ca8a8dbb96ccf5", "fusion_lat": 0.0, "is_disabled": 0, "rental_uris": {"ios": "https://dc.lft.to/lastmile_qr_scan", "android": "https://dc.lft.to/lastmile_qr_scan"}}, {"name": "c0871c00e5d1dbeb15cba03447cd4f54", "lon": -77.04250883333333, "lat": 38.9206675, "type": "electric_scooter", "fusion_lon": 0.0, "is_reserved": 0, "bike_id": "c0871c00e5d1dbeb15cba03447cd4f54", "fusion_lat": 0.0, "is_disabled": 0, "rental_uris": {"ios": "https://dc.lft.to/lastmile_qr_scan", "android": "https://dc.lft.to/lastmile_qr_scan"}}, {"name": "9d83dfe82dd3bddb3dab0a8e5cc333cb", "lon": -77.012772, "lat": 38.90057266666667, "type": "electric_scooter", "fusion_lon": 0.0, "is_reserved": 0, "bike_id": "9d83dfe82dd3bddb3dab0a8e5cc333cb", "fusion_lat": 0.0, "is_disabled": 0, "rental_uris": {"ios": "https://dc.lft.to/lastmile_qr_scan", "android": "https://dc.lft.to/lastmile_qr_scan"}}, {"name": "4e0c060df32b110e1528a992f66e48c3", "lon": -77.029481, "lat": 38.91567216666667, "type": "electric_scooter", "fusion_lon": 0.0, "is_reserved": 0, "bike_id": "4e0c060df32b110e1528a992f66e48c3", "fusion_lat": 0.0, "is_disabled": 0, "rental_uris": {"ios": "https://dc.lft.to/lastmile_qr_scan", "android": "https://dc.lft.to/lastmile_qr_scan"}}, {"name": "3ec709aff7f5eb159ce8872fb6581348", "lon": -77.03270583333334, "lat": 38.9325205, "type": "electric_scooter", "fusion_lon": 0.0, "is_reserved": 0, "bike_id": "3ec709aff7f5eb159ce8872fb6581348", "fusion_lat": 0.0, "is_disabled": 0, "rental_uris": {"ios": "https://dc.lft.to/lastmile_qr_scan", "android": "https://dc.lft.to/lastmile_qr_scan"}}, {"name": "50ca83d28359c8553afce46139c48363", "lon": -77.0827615, "lat": 38.930142333333336, "type": "electric_scooter", "fusion_lon": 0.0, "is_reserved": 0, "bike_id": "50ca83d28359c8553afce46139c48363", "fusion_lat": 0.0, "is_disabled": 0, "rental_uris": {"ios": "https://dc.lft.to/lastmile_qr_scan", "android": "https://dc.lft.to/lastmile_qr_scan"}}, {"name": "94362fb0bb0853fc462a02f2c6b2ea1b", "lon": -77.04343566666667, "lat": 38.90627583333333, "type": "electric_scooter", "fusion_lon": 0.0, "is_reserved": 0, "bike_id": "94362fb0bb0853fc462a02f2c6b2ea1b", "fusion_lat": 0.0, "is_disabled": 0, "rental_uris": {"ios": "https://dc.lft.to/lastmile_qr_scan", "android": "https://dc.lft.to/lastmile_qr_scan"}}, {"name": "3a1cba3855bc678b805bc469e9252a27", "lon": -77.01218566666667, "lat": 38.9214195, "type": "electric_scooter", "fusion_lon": 0.0, "is_reserved": 0, "bike_id": "3a1cba3855bc678b805bc469e9252a27", "fusion_lat": 0.0, "is_disabled": 0, "rental_uris": {"ios": "https://dc.lft.to/lastmile_qr_scan", "android": "https://dc.lft.to/lastmile_qr_scan"}}, {"name": "845e3bd6ed08c8d50c56fcc85b451b13", "lon": -77.03863633333333, "lat": 38.915495666666665, "type": "electric_scooter", "fusion_lon": 0.0, "is_reserved": 0, "bike_id": "845e3bd6ed08c8d50c56fcc85b451b13", "fusion_lat": 0.0, "is_disabled": 0, "rental_uris": {"ios": "https://dc.lft.to/lastmile_qr_scan", "android": "https://dc.lft.to/lastmile_qr_scan"}}, {"name": "9793cc5f4b7aa216a6c25e4805b06998", "lon": -77.0268445, "lat": 38.896164, "type": "electric_scooter", "fusion_lon": 0.0, "is_reserved": 0, "bike_id": "9793cc5f4b7aa216a6c25e4805b06998", "fusion_lat": 0.0, "is_disabled": 0, "rental_uris": {"ios": "https://dc.lft.to/lastmile_qr_scan", "android": "https://dc.lft.to/lastmile_qr_scan"}}, {"name": "84ce57fe9713198ed5faa01956cdf34f", "lon": -77.02525983333334, "lat": 38.91487766666667, "type": "electric_scooter", "fusion_lon": 0.0, "is_reserved": 0, "bike_id": "84ce57fe9713198ed5faa01956cdf34f", "fusion_lat": 0.0, "is_disabled": 0, "rental_uris": {"ios": "https://dc.lft.to/lastmile_qr_scan", "android": "https://dc.lft.to/lastmile_qr_scan"}}, {"name": "98f65fafdd580ee41fc27e2a5e5e883e", "lon": -76.99031533333333, "lat": 38.90290866666667, "type": "electric_scooter", "fusion_lon": 0.0, "is_reserved": 0, "bike_id": "98f65fafdd580ee41fc27e2a5e5e883e", "fusion_lat": 0.0, "is_disabled": 0, "rental_uris": {"ios": "https://dc.lft.to/lastmile_qr_scan", "android": "https://dc.lft.to/lastmile_qr_scan"}}, {"name": "4ef0b7aae6e670210519101bfe944509", "lon": -77.02824916666667, "lat": 38.886231333333335, "type": "electric_scooter", "fusion_lon": 0.0, "is_reserved": 0, "bike_id": "4ef0b7aae6e670210519101bfe944509", "fusion_lat": 0.0, "is_disabled": 0, "rental_uris": {"ios": "https://dc.lft.to/lastmile_qr_scan", "android": "https://dc.lft.to/lastmile_qr_scan"}}, {"name": "bff63a156021efcd63ac2f55e7abfae5", "lon": -77.1207485, "lat": 38.85423983333333, "type": "electric_bike", "fusion_lon": 0.0, "is_reserved": 0, "bike_id": "bff63a156021efcd63ac2f55e7abfae5", "fusion_lat": 0.0, "is_disabled": 0, "rental_uris": {"ios": "https://dc.lft.to/lastmile_qr_scan", "android": "https://dc.lft.to/lastmile_qr_scan"}}, {"name": "92ae2ba6dc0748ddbe34df7d02745c76", "lon": -76.9825645, "lat": 38.90457133333334, "type": "electric_scooter", "fusion_lon": 0.0, "is_reserved": 0, "bike_id": "92ae2ba6dc0748ddbe34df7d02745c76", "fusion_lat": 0.0, "is_disabled": 0, "rental_uris": {"ios": "https://dc.lft.to/lastmile_qr_scan", "android": "https://dc.lft.to/lastmile_qr_scan"}}, {"name": "21336932658b5260da5c849441831b9e", "lon": -77.07259866666666, "lat": 38.935281833333335, "type": "electric_scooter", "fusion_lon": 0.0, "is_reserved": 0, "bike_id": "21336932658b5260da5c849441831b9e", "fusion_lat": 0.0, "is_disabled": 0, "rental_uris": {"ios": "https://dc.lft.to/lastmile_qr_scan", "android": "https://dc.lft.to/lastmile_qr_scan"}}, {"name": "19f82be40c0915dc1fbe8439a1bc144c", "lon": -77.06328633333334, "lat": 38.94419116666667, "type": "electric_scooter", "fusion_lon": 0.0, "is_reserved": 0, "bike_id": "19f82be40c0915dc1fbe8439a1bc144c", "fusion_lat": 0.0, "is_disabled": 0, "rental_uris": {"ios": "https://dc.lft.to/lastmile_qr_scan", "android": "https://dc.lft.to/lastmile_qr_scan"}}, {"name": "d39e12e5e0d03487ab956dded7a4843c", "lon": -77.01819166666667, "lat": 38.922210166666666, "type": "electric_scooter", "fusion_lon": 0.0, "is_reserved": 0, "bike_id": "d39e12e5e0d03487ab956dded7a4843c", "fusion_lat": 0.0, "is_disabled": 0, "rental_uris": {"ios": "https://dc.lft.to/lastmile_qr_scan", "android": "https://dc.lft.to/lastmile_qr_scan"}}, {"name": "dd7d7dc1c778749a4313c59dae655cf2", "lon": -77.02170033333333, "lat": 38.91300433333333, "type": "electric_scooter", "fusion_lon": 0.0, "is_reserved": 0, "bike_id": "dd7d7dc1c778749a4313c59dae655cf2", "fusion_lat": 0.0, "is_disabled": 0, "rental_uris": {"ios": "https://dc.lft.to/lastmile_qr_scan", "android": "https://dc.lft.to/lastmile_qr_scan"}}, {"name": "17020a1305b2ded372f4216224197105", "lon": -77.06103666666667, "lat": 38.9399255, "type": "electric_scooter", "fusion_lon": 0.0, "is_reserved": 0, "bike_id": "17020a1305b2ded372f4216224197105", "fusion_lat": 0.0, "is_disabled": 0, "rental_uris": {"ios": "https://dc.lft.to/lastmile_qr_scan", "android": "https://dc.lft.to/lastmile_qr_scan"}}, {"name": "348c4d29d0e145e489d980b119012f00", "lon": -77.02583366666667, "lat": 38.92095833333333, "type": "electric_scooter", "fusion_lon": 0.0, "is_reserved": 0, "bike_id": "348c4d29d0e145e489d980b119012f00", "fusion_lat": 0.0, "is_disabled": 0, "rental_uris": {"ios": "https://dc.lft.to/lastmile_qr_scan", "android": "https://dc.lft.to/lastmile_qr_scan"}}, {"name": "c4dcfe4d5127011e3ce887c03d434183", "lon": -77.02975616666667, "lat": 38.91681283333333, "type": "electric_scooter", "fusion_lon": 0.0, "is_reserved": 0, "bike_id": "c4dcfe4d5127011e3ce887c03d434183", "fusion_lat": 0.0, "is_disabled": 0, "rental_uris": {"ios": "https://dc.lft.to/lastmile_qr_scan", "android": "https://dc.lft.to/lastmile_qr_scan"}}, {"name": "2ecd465e4d06b0dd5fd8c5bbfcd22ce7", "lon": -77.0326685, "lat": 38.92753, "type": "electric_scooter", "fusion_lon": 0.0, "is_reserved": 0, "bike_id": "2ecd465e4d06b0dd5fd8c5bbfcd22ce7", "fusion_lat": 0.0, "is_disabled": 0, "rental_uris": {"ios": "https://dc.lft.to/lastmile_qr_scan", "android": "https://dc.lft.to/lastmile_qr_scan"}}, {"name": "1425ce6a82475c02b74f766a7974a539", "lon": -77.015146, "lat": 38.8866775, "type": "electric_scooter", "fusion_lon": 0.0, "is_reserved": 0, "bike_id": "1425ce6a82475c02b74f766a7974a539", "fusion_lat": 0.0, "is_disabled": 0, "rental_uris": {"ios": "https://dc.lft.to/lastmile_qr_scan", "android": "https://dc.lft.to/lastmile_qr_scan"}}, {"name": "39d4c78dedb7df26d0221c8524ca77c4", "lon": -77.025309, "lat": 38.9426185, "type": "electric_scooter", "fusion_lon": 0.0, "is_reserved": 0, "bike_id": "39d4c78dedb7df26d0221c8524ca77c4", "fusion_lat": 0.0, "is_disabled": 0, "rental_uris": {"ios": "https://dc.lft.to/lastmile_qr_scan", "android": "https://dc.lft.to/lastmile_qr_scan"}}, {"name": "cbbdd5870af252ec4b724792fb31f719", "lon": -77.03206, "lat": 38.9158, "type": "electric_scooter", "fusion_lon": 0.0, "is_reserved": 0, "bike_id": "cbbdd5870af252ec4b724792fb31f719", "fusion_lat": 0.0, "is_disabled": 0, "rental_uris": {"ios": "https://dc.lft.to/lastmile_qr_scan", "android": "https://dc.lft.to/lastmile_qr_scan"}}, {"name": "f7a00d00b007a3f616d9e83b5fb9cccc", "lon": -77.034185, "lat": 38.919253499999996, "type": "electric_scooter", "fusion_lon": 0.0, "is_reserved": 0, "bike_id": "f7a00d00b007a3f616d9e83b5fb9cccc", "fusion_lat": 0.0, "is_disabled": 0, "rental_uris": {"ios": "https://dc.lft.to/lastmile_qr_scan", "android": "https://dc.lft.to/lastmile_qr_scan"}}, {"name": "afb532623853319d74577e018a51b402", "lon": -77.04394666666667, "lat": 38.91416616666667, "type": "electric_scooter", "fusion_lon": 0.0, "is_reserved": 0, "bike_id": "afb532623853319d74577e018a51b402", "fusion_lat": 0.0, "is_disabled": 0, "rental_uris": {"ios": "https://dc.lft.to/lastmile_qr_scan", "android": "https://dc.lft.to/lastmile_qr_scan"}},