{"data": {"bikes": [{"is_reserved": 0, "is_disabled": 0, "fusion_lon": 0.0, "lat": 38.9244795, "name": "4ca2b50bad3d3286d7124bd4f0d48ab9", "bike_id": "4ca2b50bad3d3286d7124bd4f0d48ab9", "lon": -76.968277, "fusion_lat": 0.0, "rental_uris": {"android": "https://dc.lft.to/lastmile_qr_scan", "ios": "https://dc.lft.to/lastmile_qr_scan"}, "type": "electric_scooter"}, {"is_reserved": 0, "is_disabled": 0, "fusion_lon": 0.0, "lat": 38.916267833333336, "name": "bb30e574d8c6808f5acb0aafabb0bbd8", "bike_id": "bb30e574d8c6808f5acb0aafabb0bbd8", "lon": -77.04825966666667, "fusion_lat": 0.0, "rental_uris": {"android": "https://dc.lft.to/lastmile_qr_scan", "ios": "https://dc.lft.to/lastmile_qr_scan"}, "type": "electric_scooter"}, {"is_reserved": 0, "is_disabled": 0, "fusion_lon": 0.0, "lat": 38.884403666666664, "name": "4d7273cabbf1a19d1cc0ec1f601fe7dc", "bike_id": "4d7273cabbf1a19d1cc0ec1f601fe7dc", "lon": -76.95770316666666, "fusion_lat": 0.0, "rental_uris": {"android": "https://dc.lft.to/lastmile_qr_scan", "ios": "https://dc.lft.to/lastmile_qr_scan"}, "type": "electric_scooter"}, {"is_reserved": 0, "is_disabled": 0, "fusion_lon": 0.0, "lat": 38.8843785, "name": "38f42420abf422794e6a7825d1b937e9", "bike_id": "38f42420abf422794e6a7825d1b937e9", "lon": -76.99733133333334, "fusion_lat": 0.0, "rental_uris": {"android": "https://dc.lft.to/lastmile_qr_scan", "ios": "https://dc.lft.to/lastmile_qr_scan"}, "type": "electric_scooter"}, {"is_reserved": 0, "is_disabled": 0, "fusion_lon": 0.0, "lat": 38.916138833333335, "name": "ab62ce63c85c5152a7cb41a50ad11199", "bike_id": "ab62ce63c85c5152a7cb41a50ad11199", "lon": -77.0227995, "fusion_lat": 0.0, "rental_uris": {"android": "https://dc.lft.to/lastmile_qr_scan", "ios": "https://dc.lft.to/lastmile_qr_scan"}, "type": "electric_scooter"}, {"is_reserved": 0, "is_disabled": 0, "fusion_lon": 0.0, "lat": 38.92335583333333, "name": "37329f9c8ef1a61ffbe2599ff44083aa", "bike_id": "37329f9c8ef1a61ffbe2599ff44083aa", "lon": -77.0414155, "fusion_lat": 0.0, "rental_uris": {"android": "https://dc.lft.to/lastmile_qr_scan", "ios": "https://dc.lft.to/lastmile_qr_scan"}, "type": "electric_scooter"}, {"is_reserved": 0, "is_disabled": 0, "fusion_lon": 0.0, "lat": 38.903115166666666, "name": "e58cec9ce4ffa1af93a28897d9efea07", "bike_id": "e58cec9ce4ffa1af93a28897d9efea07", "lon": -76.97498966666667, "fusion_lat": 0.0, "rental_uris": {"android": "https://dc.lft.to/lastmile_qr_scan", "ios": "https://dc.lft.to/lastmile_qr_scan"}, "type": "electric_scooter"}, {"is_reserved": 0, "is_disabled": 0, "fusion_lon": 0.0, "lat": 38.883923333333335, "name": "c270ba9c5cb005fc1ce857340fdc1d4f", "bike_id": "c270ba9c5cb005fc1ce857340fdc1d4f", "lon": -76.9951415, "fusion_lat": 0.0, "rental_uris": {"android": "https://dc.lft.to/lastmile_qr_scan", "ios": "https://dc.lft.to/lastmile_qr_scan"}, "type": "electric_scooter"}, {"is_reserved": 0, "is_disabled": 0, "fusion_lon": 0.0, "lat": 38.8929315, "name": "0f81b27583941ed2b26a11d926d928b4", "bike_id": "0f81b27583941ed2b26a11d926d928b4", "lon": -76.99842366666667, "fusion_lat": 0.0, "rental_uris": {"android": "https://dc.lft.to/lastmile_qr_scan", "ios": "https://dc.lft.to/lastmile_qr_scan"}, "type": "electric_scooter"}, {"is_reserved": 0, "is_disabled": 0, "fusion_lon": 0.0, "lat": 38.90674533333333, "name": "63a4a8d70177c085c8d7509a30d98a34", "bike_id": "63a4a8d70177c085c8d7509a30d98a34", "lon": -77.07079333333333, "fusion_lat": 0.0, "rental_uris": {"android": "https://dc.lft.to/lastmile_qr_scan", "ios": "https://dc.lft.to/lastmile_qr_scan"}, "type": "electric_scooter"}, {"is_reserved": 0, "is_disabled": 0, "fusion_lon": 0.0, "lat": 38.93982716666667, "name": "f07f20acb1badd86f12c39341f6a9067", "bike_id": "f07f20acb1badd86f12c39341f6a9067", "lon": -77.03025766666667, "fusion_lat": 0.0, "rental_uris": {"android": "https://dc.lft.to/lastmile_qr_scan", "ios": "https://dc.lft.to/lastmile_qr_scan"}, "type": "electric_scooter"}, {"is_reserved": 0, "is_disabled": 0, "fusion_lon": 0.0, "lat": 38.9196265, "name": "6ab28c0b435349934203e59af7a38709", "bike_id": "6ab28c0b435349934203e59af7a38709", "lon": -77.04185983333333, "fusion_lat": 0.0, "rental_uris": {"android": "https://dc.lft.to/lastmile_qr_scan", "ios": "https://dc.lft.to/lastmile_qr_scan"}, "type": "electric_scooter"}, {"is_reserved": 0, "is_disabled": 0, "fusion_lon": 0.0, "lat": 38.934663666666665, "name": "81060fbbfa5092060bd6e61b5abf823d", "bike_id": "81060fbbfa5092060bd6e61b5abf823d", "lon": -77.05804933333333, "fusion_lat": 0.0, "rental_uris": {"android": "https://dc.lft.to/lastmile_qr_scan", "ios": "https://dc.lft.to/lastmile_qr_scan"}, "type": "electric_scooter"}, {"is_reserved": 0, "is_disabled": 0, "fusion_lon": 0.0, "lat": 38.923474, "name": "50f96ba551391ce73487645ca9c2353c", "bike_id": "50f96ba551391ce73487645ca9c2353c", "lon": -77.04339483333334, "fusion_lat": 0.0, "rental_uris": {"android": "https://dc.lft.to/lastmile_qr_scan", "ios": "https://dc.lft.to/lastmile_qr_scan"}, "type": "electric_scooter"}, {"is_reserved": 0, "is_disabled": 0, "fusion_lon": 0.0, "lat": 38.951142, "name": "6cd457c632bd8d3205df5c371143b067", "bike_id": "6cd457c632bd8d3205df5c371143b067", "lon": -77.0887305, "fusion_lat": 0.0, "rental_uris": {"android": "https://dc.lft.to/lastmile_qr_scan", "ios": "https://dc.lft.to/lastmile_qr_scan"}, "type": "electric_bike"}, {"is_reserved": 0, "is_disabled": 0, "fusion_lon": 0.0, "lat": 38.93697183333333, "name": "fc63752e191a24a14cdf6838d1e03a0e", "bike_id": "fc63752e191a24a14cdf6838d1e03a0e", "lon": -77.05614183333333, "fusion_lat": 0.0, "rental_uris": {"android": "https://dc.lft.to/lastmile_qr_scan", "ios": "https://dc.lft.to/lastmile_qr_scan"}, "type": "electric_scooter"}, {"is_reserved": 0, "is_disabled": 0, "fusion_lon": 0.0, "lat": 38.89491016666667, "name": "fa2a685ecc2feeefc4ee5add7c226ce1", "bike_id": "fa2a685ecc2feeefc4ee5add7c226ce1", "lon": -76.94891833333334, "fusion_lat": 0.0, "rental_uris": {"android": "https://dc.lft.to/lastmile_qr_scan", "ios": "https://dc.lft.to/lastmile_qr_scan"}, "type": "electric_scooter"}, {"is_reserved": 0, "is_disabled": 0, "fusion_lon": 0.0, "lat": 38.93640283333333, "name": "f07a1bac07b298e15b890ba082d14e3b", "bike_id": "f07a1bac07b298e15b890ba082d14e3b", "lon": -76.9546945, "fusion_lat": 0.0, "rental_uris": {"android": "https://dc.lft.to/lastmile_qr_scan", "ios": "https://dc.lft.to/lastmile_qr_scan"}, "type": "electric_bike"}, {"is_reserved": 0, "is_disabled": 0, "fusion_lon": 0.0, "lat": 38.908326333333335, "name": "0951b9946eb5c141b00f6078fadb30d4", "bike_id": "0951b9946eb5c141b00f6078fadb30d4", "lon": -77.02186283333333, "fusion_lat": 0.0, "rental_uris": {"android": "https://dc.lft.to/lastmile_qr_scan", "ios": "https://dc.lft.to/lastmile_qr_scan"}, "type": "electric_scooter"}, {"is_reserved": 0, "is_disabled": 0, "fusion_lon": 0.0, "lat": 38.957329666666666, "name": "a62e58a2a9844acb5c8fef127422fc24", "bike_id": "a62e58a2a9844acb5c8fef127422fc24", "lon": -77.02403216666667, "fusion_lat": 0.0, "rental_uris": {"android": "https://dc.lft.to/lastmile_qr_scan", "ios": "https://dc.lft.to/lastmile_qr_scan"}, "type": "electric_scooter"}, {"is_reserved": 0, "is_disabled": 0, "fusion_lon": 0.0, "lat": 38.924752, "name": "16f8781729ceb992f97af1eb8db69e5e", "bike_id": "16f8781729ceb992f97af1eb8db69e5e", "lon": -77.03004216666666, "fusion_lat": 0.0, "rental_uris": {"android": "https://dc.lft.to/lastmile_qr_scan", "ios": "https://dc.lft.to/lastmile_qr_scan"}, "type": "electric_scooter"}, {"is_reserved": 0, "is_disabled": 0, "fusion_lon": 0.0, "lat": 38.923109333333336, "name": "49d9c7771f42886c1cb23ad80b67ae25", "bike_id": "49d9c7771f42886c1cb23ad80b67ae25", "lon": -77.02900533333333, "fusion_lat": 0.0, "rental_uris": {"android": "https://dc.lft.to/lastmile_qr_scan", "ios": "https://dc.lft.to/lastmile_qr_scan"}, "type": "electric_scooter"}, {"is_reserved": 0, "is_disabled": 0, "fusion_lon": 0.0, "lat": 38.89886, "name": "889ffd0f53d561fd8783bd5ea03e053c", "bike_id": "889ffd0f53d561fd8783bd5ea03e053c", "lon": -76.93178816666666, "fusion_lat": 0.0, "rental_uris": {"android": "https://dc.lft.to/lastmile_qr_scan", "ios": "https://dc.lft.to/lastmile_qr_scan"}, "type": "electric_scooter"}, {"is_reserved": 0, "is_disabled": 0, "fusion_lon": 0.0, "lat": 38.90940833333333, "name": "9e615ee6ce03ce851b2217d9c8611274", "bike_id": "9e615ee6ce03ce851b2217d9c8611274", "lon": -77.04875233333334, "fusion_lat": 0.0, "rental_uris": {"android": "https://dc.lft.to/lastmile_qr_scan", "ios": "https://dc.lft.to/lastmile_qr_scan"}, "type": "electric_scooter"}, {"is_reserved": 0, "is_disabled": 0, "fusion_lon": 0.0, "lat": 38.9237665, "name": "c1641e7212e64a4ebcb82f17de2191db", "bike_id": "c1641e7212e64a4ebcb82f17de2191db", "lon": -77.03131216666667, "fusion_lat": 0.0, "rental_uris": {"android": "https://dc.lft.to/lastmile_qr_scan", "ios": "https://dc.lft.to/lastmile_qr_scan"}, "type": "electric_scooter"}, {"is_reserved": 0, "is_disabled": 0, "fusion_lon": 0.0, "lat": 38.917749, "name": "983f9cf470ca0a753a5f7415e6a5911a", "bike_id": "983f9cf470ca0a753a5f7415e6a5911a", "lon": -77.01496883333333, "fusion_lat": 0.0, "rental_uris": {"android": "https://dc.lft.to/lastmile_qr_scan", "ios": "https://dc.lft.to/lastmile_qr_scan"}, "type": "electric_scooter"}, {"is_reserved": 0, "is_disabled": 0, "fusion_lon": 0.0, "lat": 38.918731, "name": "78676426a8a9ba361082fb60bed94266", "bike_id": "78676426a8a9ba361082fb60bed94266", "lon": -77.04487066666667, "fusion_lat": 0.0, "rental_uris": {"android": "https://dc.lft.to/lastmile_qr_scan", "ios": "https://dc.lft.to/lastmile_qr_scan"}, "type": "electric_scooter"}, {"is_reserved": 0, "is_disabled": 0, "fusion_lon": 0.0, "lat": 38.924709, "name": "0f78d4845a53897406aa6cc7813b08b8", "bike_id": "0f78d4845a53897406aa6cc7813b08b8", "lon": -77.03937283333333, "fusion_lat": 0.0, "rental_uris": {"android": "https://dc.lft.to/lastmile_qr_scan", "ios": "https://dc.lft.to/lastmile_qr_scan"}, "type": "electric_scooter"}, {"is_reserved": 0, "is_disabled": 0, "fusion_lon": 0.0, "lat": 38.960474166666664, "name": "ce18cf3641d364f8d854c7d33459bea6", "bike_id": "ce18cf3641d364f8d854c7d33459bea6", "lon": -77.00512, "fusion_lat": 0.0, "rental_uris": {"android": "https://dc.lft.to/lastmile_qr_scan", "ios": "https://dc.lft.to/lastmile_qr_scan"}, "type": "electric_scooter"}, {"is_reserved": 0, "is_disabled": 0, "fusion_lon": 0.0, "lat": 38.9011885, "name": "26b4e3470df9dd33019ceb06c0cbe670", "bike_id": "26b4e3470df9dd33019ceb06c0cbe670", "lon": -77.017471, "fusion_lat": 0.0, "rental_uris": {"android": "https://dc.lft.to/lastmile_qr_scan", "ios": "https://dc.lft.to/lastmile_qr_scan"}, "type": "electric_scooter"}, {"is_reserved": 0, "is_disabled": 0, "fusion_lon": 0.0, "lat": 38.930598833333335, "name": "f75e880ffdd73a09ee31ce15cbd1d79b", "bike_id": "f75e880ffdd73a09ee31ce15cbd1d79b", "lon": -77.0433005, "fusion_lat": 0.0, "rental_uris": {"android": "https://dc.lft.to/lastmile_qr_scan", "ios": "https://dc.lft.to/lastmile_qr_scan"}, "type": "electric_scooter"}, {"is_reserved": 0, "is_disabled": 0, "fusion_lon": 0.0, "lat": 38.9228915, "name": "3449579455218d33dd543cf6c2a42431", "bike_id": "3449579455218d33dd543cf6c2a42431", "lon": -77.04223916666666, "fusion_lat": 0.0, "rental_uris": {"android": "https://dc.lft.to/lastmile_qr_scan", "ios": "https://dc.lft.to/lastmile_qr_scan"}, "type": "electric_scooter"}, {"is_reserved": 0, "is_disabled": 0, "fusion_lon": 0.0, "lat": 38.89225233333333, "name": "a96d0598637e583954d7fb2800948829", "bike_id": "a96d0598637e583954d7fb2800948829", "lon": -77.04371916666666, "fusion_lat": 0.0, "rental_uris": {"android": "https://dc.lft.to/lastmile_qr_scan", "ios": "https://dc.lft.to/lastmile_qr_scan"}, "type": "electric_scooter"}, {"is_reserved": 0, "is_disabled": 0, "fusion_lon": 0.0, "lat": 38.87974233333333, "name": "e185c2931db29c93730b95d543e154f4", "bike_id": "e185c2931db29c93730b95d543e154f4", "lon": -77.02436883333333, "fusion_lat": 0.0, "rental_uris": {"android": "https://dc.lft.to/lastmile_qr_scan", "ios": "https://dc.lft.to/lastmile_qr_scan"}, "type": "electric_scooter"}, {"is_reserved": 0, "is_disabled": 0, "fusion_lon": 0.0, "lat": 38.927621, "name": "c056a65b3b14f214cb7686fd7fc7e03b", "bike_id": "c056a65b3b14f214cb7686fd7fc7e03b", "lon": -77.03209366666667, "fusion_lat": 0.0, "rental_uris": {"android": "https://dc.lft.to/lastmile_qr_scan", "ios": "https://dc.lft.to/lastmile_qr_scan"}, "type": "electric_scooter"}, {"is_reserved": 0, "is_disabled": 0, "fusion_lon": 0.0, "lat": 38.92382683333334, "name": "f8e8b80f38c42a5fee9cad8d7b350349", "bike_id": "f8e8b80f38c42a5fee9cad8d7b350349", "lon": -77.02934366666666, "fusion_lat": 0.0, "rental_uris": {"android": "https://dc.lft.to/lastmile_qr_scan", "ios": "https://dc.lft.to/lastmile_qr_scan"}, "type": "electric_scooter"}, {"is_reserved": 0, "is_disabled": 0, "fusion_lon": 0.0, "lat": 38.9015655, "name": "9813b347a0f99d8eba17f83cb8daf696", "bike_id": "9813b347a0f99d8eba17f83cb8daf696", "lon": -77.05327716666666, "fusion_lat": 0.0, "rental_uris": {"android": "https://dc.lft.to/lastmile_qr_scan", "ios": "https://dc.lft.to/lastmile_qr_scan"}, "type": "electric_scooter"}, {"is_reserved": 0, "is_disabled": 0, "fusion_lon": 0.0, "lat": 38.9073785, "name": "4c9df13e43fdca69c43ae8bd8b04f479", "bike_id": "4c9df13e43fdca69c43ae8bd8b04f479", "lon": -77.03447166666666, "fusion_lat": 0.0, "rental_uris": {"android": "https://dc.lft.to/lastmile_qr_scan", "ios": "https://dc.lft.to/lastmile_qr_scan"}, "type": "electric_scooter"}, {"is_reserved": 0, "is_disabled": 0, "fusion_lon": 0.0, "lat": 38.900352833333336, "name": "335eef8e5ddd98f451864ca3cd9d35b3", "bike_id": "335eef8e5ddd98f451864ca3cd9d35b3", "lon": -77.0435705, "fusion_lat": 0.0, "rental_uris": {"android": "https://dc.lft.to/lastmile_qr_scan", "ios": "https://dc.lft.to/lastmile_qr_scan"}, "type": "electric_scooter"}, {"is_reserved": 0, "is_disabled": 0, "fusion_lon": 0.0, "lat": 38.90517233333333, "name": "acc6399ca3f72d7d7212519acfc065fc", "bike_id": "acc6399ca3f72d7d7212519acfc065fc", "lon": -77.06450283333334, "fusion_lat": 0.0, "rental_uris": {"android": "https://dc.lft.to/lastmile_qr_scan", "ios": "https://dc.lft.to/lastmile_qr_scan"}, "type": "electric_scooter"}, {"is_reserved": 0, "is_disabled": 0, "fusion_lon": 0.0, "lat": 38.91639833333333, "name": "ad4eaf884a927f73fc902d4239cb103b", "bike_id": "ad4eaf884a927f73fc902d4239cb103b", "lon": -77.04836366666666, "fusion_lat": 0.0, "rental_uris": {"android": "https://dc.lft.to/lastmile_qr_scan", "ios": "https://dc.lft.to/lastmile_qr_scan"}, "type": "electric_scooter"}, {"is_reserved": 0, "is_disabled": 0, "fusion_lon": 0.0, "lat": 38.903472666666666, "name": "c22fa768df28ac8b14f3af4feef61769", "bike_id": "c22fa768df28ac8b14f3af4feef61769", "lon": -76.98276516666667, "fusion_lat": 0.0, "rental_uris": {"android": "https://dc.lft.to/lastmile_qr_scan", "ios": "https://dc.lft.to/lastmile_qr_scan"}, "type": "electric_scooter"}, {"is_reserved": 0, "is_disabled": 0, "fusion_lon": 0.0, "lat": 38.90980233333333, "name": "43e363b05797adc47c17a2874e499cc7", "bike_id": "43e363b05797adc47c17a2874e499cc7", "lon": -77.03840066666666, "fusion_lat": 0.0, "rental_uris": {"android": "https://dc.lft.to/lastmile_qr_scan", "ios": "https://dc.lft.to/lastmile_qr_scan"}, "type": "electric_scooter"}, {"is_reserved": 0, "is_disabled": 0, "fusion_lon": 0.0, "lat": 38.879686, "name": "6dfa8fde2814d29509257fbeb96de9e6", "bike_id": "6dfa8fde2814d29509257fbeb96de9e6", "lon": -77.024351, "fusion_lat": 0.0, "rental_uris": {"android": "https://dc.lft.to/lastmile_qr_scan", "ios": "https://dc.lft.to/lastmile_qr_scan"}, "type": "electric_scooter"}, {"is_reserved": 0, "is_disabled": 0, "fusion_lon": 0.0, "lat": 38.9002075, "name": "9963290c0ef40a5d641bd88cccdb82d3", "bike_id": "9963290c0ef40a5d641bd88cccdb82d3", "lon": -76.99854883333333, "fusion_lat": 0.0, "rental_uris": {"android": "https://dc.lft.to/lastmile_qr_scan", "ios": "https://dc.lft.to/lastmile_qr_scan"}, "type": "electric_scooter"}, {"is_reserved": 0, "is_disabled": 0, "fusion_lon": 0.0, "lat": 38.90246833333333, "name": "f6149480d20bec1cce368862bdbabbaf", "bike_id": "f6149480d20bec1cce368862bdbabbaf", "lon": -77.06254666666666, "fusion_lat": 0.0, "rental_uris": {"android": "https://dc.lft.to/lastmile_qr_scan", "ios": "https://dc.lft.to/lastmile_qr_scan"}, "type": "electric_scooter"}, {"is_reserved": 0, "is_disabled": 0, "fusion_lon": 0.0, "lat": 38.892234333333334, "name": "8abed1b9ad29c517c5fedc2da556d5b9", "bike_id": "8abed1b9ad29c517c5fedc2da556d5b9", "lon": -77.03140133333333, "fusion_lat": 0.0, "rental_uris": {"android": "https://dc.lft.to/lastmile_qr_scan", "ios": "https://dc.lft.to/lastmile_qr_scan"}, "type": "electric_scooter"}, {"is_reserved": 0, "is_disabled": 0, "fusion_lon": 0.0, "lat": 38.93123816666667, "name": "69539b95aef4ffdcbd9885bf1ba6dcd7", "bike_id": "69539b95aef4ffdcbd9885bf1ba6dcd7", "lon": -77.02274316666667, "fusion_lat": 0.0, "rental_uris": {"android": "https://dc.lft.to/lastmile_qr_scan", "ios": "https://dc.lft.to/lastmile_qr_scan"}, "type": "electric_scooter"}, {"is_reserved": 0, "is_disabled": 0, "fusion_lon": 0.0, "lat": 38.84759366666667, "name": "8771b38102c1d3f772dec36d8eb47365", "bike_id": "8771b38102c1d3f772dec36d8eb47365", "lon": -77.05374183333333, "fusion_lat": 0.0, "rental_uris": {"android": "https://dc.lft.to/lastmile_qr_scan", "ios": "https://dc.lft.to/lastmile_qr_scan"}, "type": "electric_bike"}, {"is_reserved": 0, "is_disabled": 0, "fusion_lon": 0.0, "lat": 38.897118, "name": "972ea905421b4f3621f62dbe59e9788a", "bike_id": "972ea905421b4f3621f62dbe59e9788a", "lon": -77.01315816666667, "fusion_lat": 0.0, "rental_uris": {"android": "https://dc.lft.to/lastmile_qr_scan", "ios": "https://dc.lft.to/lastmile_qr_scan"}, "type": "electric_scooter"}, {"is_reserved": 0, "is_disabled": 0, "fusion_lon": 0.0, "lat": 38.89320033333333, "name": "43222cec1ccc671deaaa1b2c47023a8b", "bike_id": "43222cec1ccc671deaaa1b2c47023a8b", "lon": -76.9397795, "fusion_lat": 0.0, "rental_uris": {"android": "https://dc.lft.to/lastmile_qr_scan", "ios": "https://dc.lft.to/lastmile_qr_scan"}, "type": "electric_scooter"}, {"is_reserved": 0, "is_disabled": 0, "fusion_lon": 0.0, "lat": 38.89492216666667, "name": "dd1bc7e272b438f9530288a9259a79c8", "bike_id": "dd1bc7e272b438f9530288a9259a79c8", "lon": -76.9489495, "fusion_lat": 0.0, "rental_uris": {"android": "https://dc.lft.to/lastmile_qr_scan", "ios": "https://dc.lft.to/lastmile_qr_scan"}, "type": "electric_scooter"}, {"is_reserved": 0, "is_disabled": 0, "fusion_lon": 0.0, "lat": 38.90713133333333, "name": "0c2405d0b450338e1508b4e3a06c728e", "bike_id": "0c2405d0b450338e1508b4e3a06c728e", "lon": -77.00322066666666, "fusion_lat": 0.0, "rental_uris": {"android": "https://dc.lft.to/lastmile_qr_scan", "ios": "https://dc.lft.to/lastmile_qr_scan"}, "type": "electric_scooter"}, {"is_reserved": 0, "is_disabled": 0, "fusion_lon": 0.0, "lat": 38.902511833333335, "name": "79caa2c97c409e191beb3f46bd9d4d97", "bike_id": "79caa2c97c409e191beb3f46bd9d4d97", "lon": -77.029319, "fusion_lat": 0.0, "rental_uris": {"android": "https://dc.lft.to/lastmile_qr_scan", "ios": "https://dc.lft.to/lastmile_qr_scan"}, "type": "electric_scooter"}, {"is_reserved": 0, "is_disabled": 0, "fusion_lon": 0.0, "lat": 38.9235415, "name": "fb3625c3927f3c92084bb7bd00fda3e3", "bike_id": "fb3625c3927f3c92084bb7bd00fda3e3", "lon": -77.03531483333333, "fusion_lat": 0.0, "rental_uris": {"android": "https://dc.lft.to/lastmile_qr_scan", "ios": "https://dc.lft.to/lastmile_qr_scan"}, "type": "electric_scooter"}, {"is_reserved": 0, "is_disabled": 0, "fusion_lon": 0.0, "lat": 38.92071766666667, "name": "76757c657c8604682b6cb532cdc977f0", "bike_id": "76757c657c8604682b6cb532cdc977f0", "lon": -77.0398795, "fusion_lat": 0.0, "rental_uris": {"android": "https://dc.lft.to/lastmile_qr_scan", "ios": "https://dc.lft.to/lastmile_qr_scan"}, "type": "electric_scooter"}, {"is_reserved": 0, "is_disabled": 0, "fusion_lon": 0.0, "lat": 38.93536683333333, "name": "c0f894ecaf6c56ab19997dbb2a4cd3c7", "bike_id": "c0f894ecaf6c56ab19997dbb2a4cd3c7", "lon": -77.0581775, "fusion_lat": 0.0, "rental_uris": {"android": "https://dc.lft.to/lastmile_qr_scan", "ios": "https://dc.lft.to/lastmile_qr_scan"}, "type": "electric_scooter"}, {"is_reserved": 0, "is_disabled": 0, "fusion_lon": 0.0, "lat": 38.93860816666667, "name": "f89b6f1df173581049b008ac06626d05", "bike_id": "f89b6f1df173581049b008ac06626d05", "lon": -77.02517533333334, "fusion_lat": 0.0, "rental_uris": {"android": "https://dc.lft.to/lastmile_qr_scan", "ios": "https://dc.lft.to/lastmile_qr_scan"}, "type": "electric_scooter"}, {"is_reserved": 0, "is_disabled": 0, "fusion_lon": 0.0, "lat": 38.892200833333334, "name": "b357623b546bf2df01d081f75618d96d", "bike_id": "b357623b546bf2df01d081f75618d96d", "lon": -77.02167716666666, "fusion_lat": 0.0, "rental_uris": {"android": "https://dc.lft.to/lastmile_qr_scan", "ios": "https://dc.lft.to/lastmile_qr_scan"}, "type": "electric_scooter"}, {"is_reserved": 0, "is_disabled": 0, "fusion_lon": 0.0, "lat": 38.898309, "name": "5b11945b57b457ead950bad238cc6665", "bike_id": "5b11945b57b457ead950bad238cc6665", "lon": -77.04700516666666, "fusion_lat": 0.0, "rental_uris": {"android": "https://dc.lft.to/lastmile_qr_scan", "ios": "https://dc.lft.to/lastmile_qr_scan"}, "type": "electric_scooter"}, {"is_reserved": 0, "is_disabled": 0, "fusion_lon": 0.0, "lat": 38.900362, "name": "f20cced4dc1ed519c61db1d4c85c2a0e", "bike_id": "f20cced4dc1ed519c61db1d4c85c2a0e", "lon": -76.98830216666667, "fusion_lat": 0.0, "rental_uris": {"android": "https://dc.lft.to/lastmile_qr_scan", "ios": "https://dc.lft.to/lastmile_qr_scan"}, "type": "electric_scooter"}, {"is_reserved": 0, "is_disabled": 0, "fusion_lon": 0.0, "lat": 38.90357216666666, "name": "a82811af7e759a627a44c9345c6b9e3c", "bike_id": "a82811af7e759a627a44c9345c6b9e3c", "lon": -77.05155566666667, "fusion_lat": 0.0, "rental_uris": {"android": "https://dc.lft.to/lastmile_qr_scan", "ios": "https://dc.lft.to/lastmile_qr_scan"}, "type": "electric_scooter"}, {"is_reserved": 0, "is_disabled": 0, "fusion_lon": 0.0, "lat": 38.883677666666664, "name": "66256b78ed9ea2fbed8747c9ae669daf", "bike_id": "66256b78ed9ea2fbed8747c9ae669daf", "lon": -77.02627016666666, "fusion_lat": 0.0, "rental_uris": {"android": "https://dc.lft.to/lastmile_qr_scan", "ios": "https://dc.lft.to/lastmile_qr_scan"}, "type": "electric_scooter"}, {"is_reserved": 0, "is_disabled": 0, "fusion_lon": 0.0, "lat": 38.89289216666667, "name": "fd4e99d84346309b14950b69371abfe8", "bike_id": "fd4e99d84346309b14950b69371abfe8", "lon": -76.97618016666667, "fusion_lat": 0.0, "rental_uris": {"android": "https://dc.lft.to/lastmile_qr_scan", "ios": "https://dc.lft.to/lastmile_qr_scan"}, "type": "electric_bike"}, {"is_reserved": 0, "is_disabled": 0, "fusion_lon": 0.0, "lat": 38.92340633333333, "name": "3a95ef05834ec4b89987cc058556dd33", "bike_id": "3a95ef05834ec4b89987cc058556dd33", "lon": -77.0525345, "fusion_lat": 0.0, "rental_uris": {"android": "https://dc.lft.to/lastmile_qr_scan", "ios": "https://dc.lft.to/lastmile_qr_scan"}, "type": "electric_scooter"}, {"is_reserved": 0, "is_disabled": 0, "fusion_lon": 0.0, "lat": 38.9247505, "name": "0d132d5e3fb59f5d0d2b2dc1ea72d391", "bike_id": "0d132d5e3fb59f5d0d2b2dc1ea72d391", "lon": -77.02192583333333, "fusion_lat": 0.0, "rental_uris": {"android": "https://dc.lft.to/lastmile_qr_scan", "ios": "https://dc.lft.to/lastmile_qr_scan"}, "type": "electric_scooter"}, {"is_reserved": 0, "is_disabled": 0, "fusion_lon": 0.0, "lat": 38.917457166666665, "name": "ab64b29cdbaa004d57386e2e5d11a54c", "bike_id": "ab64b29cdbaa004d57386e2e5d11a54c", "lon": -77.0415805, "fusion_lat": 0.0, "rental_uris": {"android": "https://dc.lft.to/lastmile_qr_scan", "ios": "https://dc.lft.to/lastmile_qr_scan"}, "type": "electric_scooter"}, {"is_reserved": 0, "is_disabled": 0, "fusion_lon": 0.0, "lat": 38.92238316666667, "name": "5ba4dfe0dddb17eeef95c8e471187dd1", "bike_id": "5ba4dfe0dddb17eeef95c8e471187dd1", "lon": -77.0346275, "fusion_lat": 0.0, "rental_uris": {"android": "https://dc.lft.to/lastmile_qr_scan", "ios": "https://dc.lft.to/lastmile_qr_scan"}, "type": "electric_scooter"}, {"is_reserved": 0, "is_disabled": 0, "fusion_lon": 0.0, "lat": 38.921733833333334, "name": "3a00ed5f4181fe2239491945f24cac3b", "bike_id": "3a00ed5f4181fe2239491945f24cac3b", "lon": -77.01881083333333, "fusion_lat": 0.0, "rental_uris": {"android": "https://dc.lft.to/lastmile_qr_scan", "ios": "https://dc.lft.to/lastmile_qr_scan"}, "type": "electric_scooter"}, {"is_reserved": 0, "is_disabled": 0, "fusion_lon": 0.0, "lat": 38.905716, "name": "87b1abade54c2b9b4d01affdfd9ba445", "bike_id": "87b1abade54c2b9b4d01affdfd9ba445", "lon": -77.02207416666667, "fusion_lat": 0.0, "rental_uris": {"android": "https://dc.lft.to/lastmile_qr_scan", "ios": "https://dc.lft.to/lastmile_qr_scan"}, "type": "electric_scooter"}, {"is_reserved": 0, "is_disabled": 0, "fusion_lon": 0.0, "lat": 38.91360816666667, "name": "70d2a9b3d8f246deca419bf3cf18fad7", "bike_id": "70d2a9b3d8f246deca419bf3cf18fad7", "lon": -77.04558183333333, "fusion_lat": 0.0, "rental_uris": {"android": "https://dc.lft.to/lastmile_qr_scan", "ios": "https://dc.lft.to/lastmile_qr_scan"}, "type": "electric_scooter"}, {"is_reserved": 0, "is_disabled": 0, "fusion_lon": 0.0, "lat": 38.940377, "name": "93e60777aa053e8304a34712f929ceea", "bike_id": "93e60777aa053e8304a34712f929ceea", "lon": -77.02913583333333, "fusion_lat": 0.0, "rental_uris": {"android": "https://dc.lft.to/lastmile_qr_scan", "ios": "https://dc.lft.to/lastmile_qr_scan"}, "type": "electric_scooter"}, {"is_reserved": 0, "is_disabled": 0, "fusion_lon": 0.0, "lat": 38.92471666666667, "name": "fe15aa3f0095049368c641af0c3927ad", "bike_id": "fe15aa3f0095049368c641af0c3927ad", "lon": -77.03933483333333, "fusion_lat": 0.0, "rental_uris": {"android": "https://dc.lft.to/lastmile_qr_scan", "ios": "https://dc.lft.to/lastmile_qr_scan"}, "type": "electric_scooter"}, {"is_reserved": 0, "is_disabled": 0, "fusion_lon": 0.0, "lat": 38.90680166666667, "name": "e1195835bee9ab886adadb5b7e14be61", "bike_id": "e1195835bee9ab886adadb5b7e14be61", "lon": -77.0718605, "fusion_lat": 0.0, "rental_uris": {"android": "https://dc.lft.to/lastmile_qr_scan", "ios": "https://dc.lft.to/lastmile_qr_scan"}, "type": "electric_scooter"}, {"is_reserved": 0, "is_disabled": 0, "fusion_lon": 0.0, "lat": 38.902201, "name": "d7a638aeb9ad3bcdcb6e714f0eecacb5", "bike_id": "d7a638aeb9ad3bcdcb6e714f0eecacb5", "lon": -77.04794933333334, "fusion_lat": 0.0, "rental_uris": {"android": "https://dc.lft.to/lastmile_qr_scan", "ios": "https://dc.lft.to/lastmile_qr_scan"}, "type": "electric_scooter"}, {"is_reserved": 0, "is_disabled": 0, "fusion_lon": 0.0, "lat": 38.921301, "name": "364fb69419904c6f8d25e8418fb6cccb", "bike_id": "364fb69419904c6f8d25e8418fb6cccb", "lon": -77.010414, "fusion_lat": 0.0, "rental_uris": {"android": "https://dc.lft.to/lastmile_qr_scan", "ios": "https://dc.lft.to/lastmile_qr_scan"}, "type": "electric_bike"}, {"is_reserved": 0, "is_disabled": 0, "fusion_lon": 0.0, "lat": 38.941364, "name": "c6b5ba311d05f9044a5a066a01bb8324", "bike_id": "c6b5ba311d05f9044a5a066a01bb8324", "lon": -77.023238, "fusion_lat": 0.0, "rental_uris": {"android": "https://dc.lft.to/lastmile_qr_scan", "ios": "https://dc.lft.to/lastmile_qr_scan"}, "type": "electric_scooter"}, {"is_reserved": 0, "is_disabled": 0, "fusion_lon": 0.0, "lat": 38.911002333333336, "name": "f7a0d21550177c7248b2d93b924b216a", "bike_id": "f7a0d21550177c7248b2d93b924b216a", "lon": -77.02550083333334, "fusion_lat": 0.0, "rental_uris": {"android": "https://dc.lft.to/lastmile_qr_scan", "ios": "https://dc.lft.to/lastmile_qr_scan"}, "type": "electric_scooter"}, {"is_reserved": 0, "is_disabled": 0, "fusion_lon": 0.0, "lat": 38.94033816666666, "name": "b8f6852a5d6fc082a6274cf7a5c5cd9b", "bike_id": "b8f6852a5d6fc082a6274cf7a5c5cd9b", "lon": -77.0776825, "fusion_lat": 0.0, "rental_uris": {"android": "https://dc.lft.to/lastmile_qr_scan", "ios": "https://dc.lft.to/lastmile_qr_scan"}, "type": "electric_scooter"}, {"is_reserved": 0, "is_disabled": 0, "fusion_lon": 0.0, "lat": 38.911204833333336, "name": "afea543e5d7aa050e8fcb484cb4b69c6", "bike_id": "afea543e5d7aa050e8fcb484cb4b69c6", "lon": -77.03612916666667, "fusion_lat": 0.0, "rental_uris": {"android": "https://dc.lft.to/lastmile_qr_scan", "ios": "https://dc.lft.to/lastmile_qr_scan"}, "type": "electric_scooter"}, {"is_reserved": 0, "is_disabled": 0, "fusion_lon": 0.0, "lat": 38.923769666666665, "name": "94b12850c8080f59a2d9f9e93b2a5f40", "bike_id": "94b12850c8080f59a2d9f9e93b2a5f40", "lon": -77.04098833333333, "fusion_lat": 0.0, "rental_uris": {"android": "https://dc.lft.to/lastmile_qr_scan", "ios": "https://dc.lft.to/lastmile_qr_scan"}, "type": "electric_scooter"}, {"is_reserved": 0, "is_disabled": 0, "fusion_lon": 0.0, "lat": 38.902784, "name": "a9b9ea3041d26ddbef8bdf56887ce957", "bike_id": "a9b9ea3041d26ddbef8bdf56887ce957", "lon": -77.03922916666667, "fusion_lat": 0.0, "rental_uris": {"android": "https://dc.lft.to/lastmile_qr_scan", "ios": "https://dc.lft.to/lastmile_qr_scan"}, "type": "electric_scooter"}, {"is_reserved": 0, "is_disabled": 0, "fusion_lon": 0.0, "lat": 38.91030416666667, "name": "1cb86fd45d5c9e86049d9505457f13ad", "bike_id": "1cb86fd45d5c9e86049d9505457f13ad", "lon": -77.03358183333333, "fusion_lat": 0.0, "rental_uris": {"android": "https://dc.lft.to/lastmile_qr_scan", "ios": "https://dc.lft.to/lastmile_qr_scan"}, "type": "electric_scooter"}, {"is_reserved": 0, "is_disabled": 0, "fusion_lon": 0.0, "lat": 38.89359916666667, "name": "55c575a9825b28873f1dbb682c666395", "bike_id": "55c575a9825b28873f1dbb682c666395", "lon": -77.04622833333333, "fusion_lat": 0.0, "rental_uris": {"android": "https://dc.lft.to/lastmile_qr_scan", "ios": "https://dc.lft.to/lastmile_qr_scan"}, "type": "electric_scooter"}, {"is_reserved": 0, "is_disabled": 0, "fusion_lon": 0.0, "lat": 38.8970305, "name": "d67b0984839306c7d4c87efceaa39bc4", "bike_id": "d67b0984839306c7d4c87efceaa39bc4", "lon": -76.93922216666667, "fusion_lat": 0.0, "rental_uris": {"android": "https://dc.lft.to/lastmile_qr_scan", "ios": "https://dc.lft.to/lastmile_qr_scan"}, "type": "electric_scooter"}, {"is_reserved": 0, "is_disabled": 0, "fusion_lon": 0.0, "lat": 38.912199666666666, "name": "cc1a969f3ef0f24636e9df6c8f80d552", "bike_id": "cc1a969f3ef0f24636e9df6c8f80d552", "lon": -77.032016, "fusion_lat": 0.0, "rental_uris": {"android": "https://dc.lft.to/lastmile_qr_scan", "ios": "https://dc.lft.to/lastmile_qr_scan"}, "type": "electric_scooter"}, {"is_reserved": 0, "is_disabled": 0, "fusion_lon": 0.0, "lat": 38.89222566666667, "name": "94243aeba31f47663d6a1fd7f33a34cd", "bike_id": "94243aeba31f47663d6a1fd7f33a34cd", "lon": -77.031409, "fusion_lat": 0.0, "rental_uris": {"android": "https://dc.lft.to/lastmile_qr_scan", "ios": "https://dc.lft.to/lastmile_qr_scan"}, "type": "electric_scooter"}, {"is_reserved": 0, "is_disabled": 0, "fusion_lon": 0.0, "lat": 38.930123, "name": "b26472d0ea521438756301d877042a2c", "bike_id": "b26472d0ea521438756301d877042a2c", "lon": -77.06190766666667, "fusion_lat": 0.0, "rental_uris": {"android": "https://dc.lft.to/lastmile_qr_scan", "ios": "https://dc.lft.to/lastmile_qr_scan"}, "type": "electric_scooter"}, {"is_reserved": 0, "is_disabled": 0, "fusion_lon": 0.0, "lat": 38.94970133333333, "name": "2be6ff4034a6b18c375e2d0d55ed6afa", "bike_id": "2be6ff4034a6b18c375e2d0d55ed6afa", "lon": -76.96099416666667, "fusion_lat": 0.0, "rental_uris": {"android": "https://dc.lft.to/lastmile_qr_scan", "ios": "https://dc.lft.to/lastmile_qr_scan"}, "type": "electric_bike"}, {"is_reserved": 0, "is_disabled": 0, "fusion_lon": 0.0, "lat": 38.876610666666664, "name": "14b90baf57e0f69c67f4bba01c212e05", "bike_id": "14b90baf57e0f69c67f4bba01c212e05", "lon": -77.011728, "fusion_lat": 0.0, "rental_uris": {"android": "https://dc.lft.to/lastmile_qr_scan", "ios": "https://dc.lft.to/lastmile_qr_scan"}, "type": "electric_scooter"}, {"is_reserved": 0, "is_disabled": 0, "fusion_lon": 0.0, "lat": 38.924345833333334, "name": "30451d99b485c3a431eaa321bb918301", "bike_id": "30451d99b485c3a431eaa321bb918301", "lon": -77.0032955, "fusion_lat": 0.0, "rental_uris": {"android": "https://dc.lft.to/lastmile_qr_scan", "ios": "https://dc.lft.to/lastmile_qr_scan"}, "type": "electric_scooter"}, {"is_reserved": 0, "is_disabled": 0, "fusion_lon": 0.0, "lat": 38.895097, "name": "e45474792ed1f83d33b9569b131d6ec3", "bike_id": "e45474792ed1f83d33b9569b131d6ec3", "lon": -76.94887733333333, "fusion_lat": 0.0, "rental_uris": {"android": "https://dc.lft.to/lastmile_qr_scan", "ios": "https://dc.lft.to/lastmile_qr_scan"}, "type": "electric_scooter"}, {"is_reserved": 0, "is_disabled": 0, "fusion_lon": 0.0, "lat": 38.9166865, "name": "204aa7bb9c0844bff12bf458df4ea2d3", "bike_id": "204aa7bb9c0844bff12bf458df4ea2d3", "lon": -77.02310316666667, "fusion_lat": 0.0, "rental_uris": {"android": "https://dc.lft.to/lastmile_qr_scan", "ios": "https://dc.lft.to/lastmile_qr_scan"}, "type": "electric_scooter"}, {"is_reserved": 0, "is_disabled": 0, "fusion_lon": 0.0, "lat": 38.91348716666667, "name": "1b1438e9551bc2be7715fc734d0c43d6", "bike_id": "1b1438e9551bc2be7715fc734d0c43d6", "lon": -77.03186966666667, "fusion_lat": 0.0, "rental_uris": {"android": "https://dc.lft.to/lastmile_qr_scan", "ios": "https://dc.lft.to/lastmile_qr_scan"}, "type": "electric_scooter"}, {"is_reserved": 0, "is_disabled": 0, "fusion_lon": 0.0, "lat": 38.908641, "name": "831b1870d81b1c9a5a1e32fbf5aae1a0", "bike_id": "831b1870d81b1c9a5a1e32fbf5aae1a0", "lon": -77.0376095, "fusion_lat": 0.0, "rental_uris": {"android": "https://dc.lft.to/lastmile_qr_scan", "ios": "https://dc.lft.to/lastmile_qr_scan"}, "type": "electric_scooter"}, {"is_reserved": 0, "is_disabled": 0, "fusion_lon": 0.0, "lat": 38.87372766666667, "name": "3e015eab0d2bd84d3eb46479e7dbf1b2", "bike_id": "3e015eab0d2bd84d3eb46479e7dbf1b2", "lon": -77.000884, "fusion_lat": 0.0, "rental_uris": {"android": "https://dc.lft.to/lastmile_qr_scan", "ios": "https://dc.lft.to/lastmile_qr_scan"}, "type": "electric_scooter"}, {"is_reserved": 0, "is_disabled": 0, "fusion_lon": 0.0, "lat": 38.92259383333333, "name": "17e5aa6d29066027af5eacc57557167b", "bike_id": "17e5aa6d29066027af5eacc57557167b", "lon": -77.019429, "fusion_lat": 0.0, "rental_uris": {"android": "https://dc.lft.to/lastmile_qr_scan", "ios": "https://dc.lft.to/lastmile_qr_scan"}, "type": "electric_scooter"}, {"is_reserved": 0, "is_disabled": 0, "fusion_lon": 0.0, "lat": 38.8864195, "name": "0cdd149bb5c4330b4228cb1ee178b049", "bike_id": "0cdd149bb5c4330b4228cb1ee178b049", "lon": -77.002144, "fusion_lat": 0.0, "rental_uris": {"android": "https://dc.lft.to/lastmile_qr_scan", "ios": "https://dc.lft.to/lastmile_qr_scan"}, "type": "electric_scooter"}, {"is_reserved": 0, "is_disabled": 0, "fusion_lon": 0.0, "lat": 38.92096883333333, "name": "4d5b613f232371fc89726d7c4679b944", "bike_id": "4d5b613f232371fc89726d7c4679b944", "lon": -77.03164783333334, "fusion_lat": 0.0, "rental_uris": {"android": "https://dc.lft.to/lastmile_qr_scan", "ios": "https://dc.lft.to/lastmile_qr_scan"}, "type": "electric_scooter"}, {"is_reserved": 0, "is_disabled": 0, "fusion_lon": 0.0, "lat": 38.9319155, "name": "1d576e9fe41b528ae4eca950e04a9c01", "bike_id": "1d576e9fe41b528ae4eca950e04a9c01", "lon": -77.02026266666667, "fusion_lat": 0.0, "rental_uris": {"android": "https://dc.lft.to/lastmile_qr_scan", "ios": "https://dc.lft.to/lastmile_qr_scan"}, "type": "electric_scooter"}, {"is_reserved": 0, "is_disabled": 0, "fusion_lon": 0.0, "lat": 38.89241466666667, "name": "1f3d625f45f0fa3735ae7d54645939da", "bike_id": "1f3d625f45f0fa3735ae7d54645939da", "lon": -77.039554, "fusion_lat": 0.0, "rental_uris": {"android": "https://dc.lft.to/lastmile_qr_scan", "ios": "https://dc.lft.to/lastmile_qr_scan"}, "type": "electric_scooter"}, {"is_reserved": 0, "is_disabled": 0, "fusion_lon": 0.0, "lat": 38.93659866666667, "name": "a6aa857a3be5e5f9d1a7a8c6fcb07bbf", "bike_id": "a6aa857a3be5e5f9d1a7a8c6fcb07bbf", "lon": -77.06611733333334, "fusion_lat": 0.0, "rental_uris": {"android": "https://dc.lft.to/lastmile_qr_scan", "ios": "https://dc.lft.to/lastmile_qr_scan"}, "type": "electric_scooter"}, {"is_reserved": 0, "is_disabled": 0, "fusion_lon": 0.0, "lat": 38.90145916666667, "name": "66a7c97ac0fd7106aec3397c56386f05", "bike_id": "66a7c97ac0fd7106aec3397c56386f05", "lon": -77.02923933333334, "fusion_lat": 0.0, "rental_uris": {"android": "https://dc.lft.to/lastmile_qr_scan", "ios": "https://dc.lft.to/lastmile_qr_scan"}, "type": "electric_scooter"}, {"is_reserved": 0, "is_disabled": 0, "fusion_lon": 0.0, "lat": 38.912414166666665, "name": "a0ba142d74791863ca3ba919d75d6eb7", "bike_id": "a0ba142d74791863ca3ba919d75d6eb7", "lon": -76.9867745, "fusion_lat": 0.0, "rental_uris": {"android": "https://dc.lft.to/lastmile_qr_scan", "ios": "https://dc.lft.to/lastmile_qr_scan"}, "type": "electric_scooter"}, {"is_reserved": 0, "is_disabled": 0, "fusion_lon": 0.0, "lat": 38.88717316666666, "name": "f990c48af90c1d4510d1612e2af14d14", "bike_id": "f990c48af90c1d4510d1612e2af14d14", "lon": -77.02826733333333, "fusion_lat": 0.0, "rental_uris": {"android": "https://dc.lft.to/lastmile_qr_scan", "ios": "https://dc.lft.to/lastmile_qr_scan"}, "type": "electric_scooter"}, {"is_reserved": 0, "is_disabled": 0, "fusion_lon": 0.0, "lat": 38.900562, "name": "44be8d4d5313f5a940afd521d2e68d48", "bike_id": "44be8d4d5313f5a940afd521d2e68d48", "lon": -77.048544, "fusion_lat": 0.0, "rental_uris": {"android": "https://dc.lft.to/lastmile_qr_scan", "ios": "https://dc.lft.to/lastmile_qr_scan"}, "type": "electric_scooter"}, {"is_reserved": 0, "is_disabled": 0, "fusion_lon": 0.0, "lat": 38.926290333333334, "name": "36383a800d4b0b9201a10f9812568946", "bike_id": "36383a800d4b0b9201a10f9812568946", "lon": -77.07324366666667, "fusion_lat": 0.0, "rental_uris": {"android": "https://dc.lft.to/lastmile_qr_scan", "ios": "https://dc.lft.to/lastmile_qr_scan"}, "type": "electric_scooter"}, {"is_reserved": 0, "is_disabled": 0, "fusion_lon": 0.0, "lat": 38.926153, "name": "569549ca60f8eb730d01f84b096da37c", "bike_id": "569549ca60f8eb730d01f84b096da37c", "lon": -77.02165916666667, "fusion_lat": 0.0, "rental_uris": {"android": "https://dc.lft.to/lastmile_qr_scan", "ios": "https://dc.lft.to/lastmile_qr_scan"}, "type": "electric_scooter"}, {"is_reserved": 0, "is_disabled": 0, "fusion_lon": 0.0, "lat": 38.91033566666667, "name": "f07ef3b9aea727afae2e6b8cbc884d0c", "bike_id": "f07ef3b9aea727afae2e6b8cbc884d0c", "lon": -77.03435433333334, "fusion_lat": 0.0, "rental_uris": {"android": "https://dc.lft.to/lastmile_qr_scan", "ios": "https://dc.lft.to/lastmile_qr_scan"}, "type": "electric_scooter"}, {"is_reserved": 0, "is_disabled": 0, "fusion_lon": 0.0, "lat": 38.907334, "name": "4c506e1c0e9e8911716fd5c72c861d39", "bike_id": "4c506e1c0e9e8911716fd5c72c861d39", "lon": -77.019719, "fusion_lat": 0.0, "rental_uris": {"android": "https://dc.lft.to/lastmile_qr_scan", "ios": "https://dc.lft.to/lastmile_qr_scan"}, "type": "electric_scooter"}, {"is_reserved": 0, "is_disabled": 0, "fusion_lon": 0.0, "lat": 38.887117833333335, "name": "0a8c6f8865b90a9dbbe05624a4a17e83", "bike_id": "0a8c6f8865b90a9dbbe05624a4a17e83", "lon": -76.9834345, "fusion_lat": 0.0, "rental_uris": {"android": "https://dc.lft.to/lastmile_qr_scan", "ios": "https://dc.lft.to/lastmile_qr_scan"}, "type": "electric_scooter"}, {"is_reserved": 0, "is_disabled": 0, "fusion_lon": 0.0, "lat": 38.928922, "name": "bad4f12cd2d6ea164a6993895f713786", "bike_id": "bad4f12cd2d6ea164a6993895f713786", "lon": -77.0325105, "fusion_lat": 0.0, "rental_uris": {"android": "https://dc.lft.to/lastmile_qr_scan", "ios": "https://dc.lft.to/lastmile_qr_scan"}, "type": "electric_scooter"}, {"is_reserved": 0, "is_disabled": 0, "fusion_lon": 0.0, "lat": 38.92730916666667, "name": "0f41578b704cc8818a1a06879573f608", "bike_id": "0f41578b704cc8818a1a06879573f608", "lon": -77.0536405, "fusion_lat": 0.0, "rental_uris": {"android": "https://dc.lft.to/lastmile_qr_scan", "ios": "https://dc.lft.to/lastmile_qr_scan"}, "type": "electric_scooter"}, {"is_reserved": 0, "is_disabled": 0, "fusion_lon": 0.0, "lat": 38.94269516666667, "name": "52af7eb237f6380aca980b0630460b50", "bike_id": "52af7eb237f6380aca980b0630460b50", "lon": -77.02592283333334, "fusion_lat": 0.0, "rental_uris": {"android": "https://dc.lft.to/lastmile_qr_scan", "ios": "https://dc.lft.to/lastmile_qr_scan"}, "type": "electric_scooter"}, {"is_reserved": 0, "is_disabled": 0, "fusion_lon": 0.0, "lat": 38.90789066666667, "name": "b3296e20645d37406ffe211f98583749", "bike_id": "b3296e20645d37406ffe211f98583749", "lon": -77.03192183333333, "fusion_lat": 0.0, "rental_uris": {"android": "https://dc.lft.to/lastmile_qr_scan", "ios": "https://dc.lft.to/lastmile_qr_scan"}, "type": "electric_scooter"}, {"is_reserved": 0, "is_disabled": 0, "fusion_lon": 0.0, "lat": 38.892296, "name": "8d86d6e6230d6f62b84e28e9200d37f8", "bike_id": "8d86d6e6230d6f62b84e28e9200d37f8", "lon": -77.02748866666667, "fusion_lat": 0.0, "rental_uris": {"android": "https://dc.lft.to/lastmile_qr_scan", "ios": "https://dc.lft.to/lastmile_qr_scan"}, "type": "electric_scooter"}, {"is_reserved": 0, "is_disabled": 0, "fusion_lon": 0.0, "lat": 38.89987333333333, "name": "f7063528f3011bb2b78d22c5e8cb7fb6", "bike_id": "f7063528f3011bb2b78d22c5e8cb7fb6", "lon": -77.04840683333333, "fusion_lat": 0.0, "rental_uris": {"android": "https://dc.lft.to/lastmile_qr_scan", "ios": "https://dc.lft.to/lastmile_qr_scan"}, "type": "electric_scooter"}, {"is_reserved": 0, "is_disabled": 0, "fusion_lon": 0.0, "lat": 38.9229865, "name": "ea53551a5669ff690f294ac60bcdca19", "bike_id": "ea53551a5669ff690f294ac60bcdca19", "lon": -77.0195935, "fusion_lat": 0.0, "rental_uris": {"android": "https://dc.lft.to/lastmile_qr_scan", "ios": "https://dc.lft.to/lastmile_qr_scan"}, "type": "electric_scooter"}, {"is_reserved": 0, "is_disabled": 0, "fusion_lon": 0.0, "lat": 38.9136555, "name": "95ee16fbe1b9fe3d9ed6941bff8921e8", "bike_id": "95ee16fbe1b9fe3d9ed6941bff8921e8", "lon": -77.04487366666666, "fusion_lat": 0.0, "rental_uris": {"android": "https://dc.lft.to/lastmile_qr_scan", "ios": "https://dc.lft.to/lastmile_qr_scan"}, "type": "electric_scooter"}, {"is_reserved": 0, "is_disabled": 0, "fusion_lon": 0.0, "lat": 38.924669333333334, "name": "8c9cba46b2e2c383eec6f54a03264b2c", "bike_id": "8c9cba46b2e2c383eec6f54a03264b2c", "lon": -77.022428, "fusion_lat": 0.0, "rental_uris": {"android": "https://dc.lft.to/lastmile_qr_scan", "ios": "https://dc.lft.to/lastmile_qr_scan"}, "type": "electric_scooter"}, {"is_reserved": 0, "is_disabled": 0, "fusion_lon": 0.0, "lat": 38.953097, "name": "6198f5b8134e415489fb94ffb4af9db4", "bike_id": "6198f5b8134e415489fb94ffb4af9db4", "lon": -76.981826, "fusion_lat": 0.0, "rental_uris": {"android": "https://dc.lft.to/lastmile_qr_scan", "ios": "https://dc.lft.to/lastmile_qr_scan"}, "type": "electric_bike"}, {"is_reserved": 0, "is_disabled": 0, "fusion_lon": 0.0, "lat": 38.809796666666664, "name": "c2d5a41691d138c6c75f1ce179bed446", "bike_id": "c2d5a41691d138c6c75f1ce179bed446", "lon": -77.07663716666667, "fusion_lat": 0.0, "rental_uris": {"android": "https://dc.lft.to/lastmile_qr_scan", "ios": "https://dc.lft.to/lastmile_qr_scan"}, "type": "electric_bike"}, {"is_reserved": 0, "is_disabled": 0, "fusion_lon": 0.0, "lat": 38.90872483333333, "name": "9673297fea993e4f961287a72c73e98a", "bike_id": "9673297fea993e4f961287a72c73e98a", "lon": -77.02603316666666, "fusion_lat": 0.0, "rental_uris": {"android": "https://dc.lft.to/lastmile_qr_scan", "ios": "https://dc.lft.to/lastmile_qr_scan"}, "type": "electric_scooter"}, {"is_reserved": 0, "is_disabled": 0, "fusion_lon": 0.0, "lat": 38.8989915, "name": "a32815bf8f2952a5dc56818290a08b81", "bike_id": "a32815bf8f2952a5dc56818290a08b81", "lon": -77.02447, "fusion_lat": 0.0, "rental_uris": {"android": "https://dc.lft.to/lastmile_qr_scan", "ios": "https://dc.lft.to/lastmile_qr_scan"}, "type": "electric_scooter"}, {"is_reserved": 0, "is_disabled": 0, "fusion_lon": 0.0, "lat": 38.91558166666667, "name": "c96718a58b173f4375dfa0197d8e483e", "bike_id": "c96718a58b173f4375dfa0197d8e483e", "lon": -77.02048183333333, "fusion_lat": 0.0, "rental_uris": {"android": "https://dc.lft.to/lastmile_qr_scan", "ios": "https://dc.lft.to/lastmile_qr_scan"}, "type": "electric_scooter"}, {"is_reserved": 0, "is_disabled": 0, "fusion_lon": 0.0, "lat": 38.8844045, "name": "5c31e9d43bedde24589428adf65a51d3", "bike_id": "5c31e9d43bedde24589428adf65a51d3", "lon": -76.95769416666667, "fusion_lat": 0.0, "rental_uris": {"android": "https://dc.lft.to/lastmile_qr_scan", "ios": "https://dc.lft.to/lastmile_qr_scan"}, "type": "electric_scooter"}, {"is_reserved": 0, "is_disabled": 0, "fusion_lon": 0.0, "lat": 38.85848216666667, "name": "5a9a9242cbe429f1d1c522343efa39bf", "bike_id": "5a9a9242cbe429f1d1c522343efa39bf", "lon": -76.99049283333333, "fusion_lat": 0.0, "rental_uris": {"android": "https://dc.lft.to/lastmile_qr_scan", "ios": "https://dc.lft.to/lastmile_qr_scan"}, "type": "electric_scooter"}, {"is_reserved": 0, "is_disabled": 0, "fusion_lon": 0.0, "lat": 38.914094, "name": "3e540a0b85558d6ae4aeec0dca34bcba", "bike_id": "3e540a0b85558d6ae4aeec0dca34bcba", "lon": -77.03910883333333, "fusion_lat": 0.0, "rental_uris": {"android": "https://dc.lft.to/lastmile_qr_scan", "ios": "https://dc.lft.to/lastmile_qr_scan"}, "type": "electric_scooter"}, {"is_reserved": 0, "is_disabled": 0, "fusion_lon": 0.0, "lat": 38.89224633333333, "name": "917f261fe5fb58bb88d3a99ee6ade014", "bike_id": "917f261fe5fb58bb88d3a99ee6ade014", "lon": -77.04506483333333, "fusion_lat": 0.0, "rental_uris": {"android": "https://dc.lft.to/lastmile_qr_scan", "ios": "https://dc.lft.to/lastmile_qr_scan"}, "type": "electric_scooter"}, {"is_reserved": 0, "is_disabled": 0, "fusion_lon": 0.0, "lat": 38.876856333333336, "name": "7a1a9a162ed77243a31bcbd07c2c4e31", "bike_id": "7a1a9a162ed77243a31bcbd07c2c4e31", "lon": -77.000751, "fusion_lat": 0.0, "rental_uris": {"android": "https://dc.lft.to/lastmile_qr_scan", "ios": "https://dc.lft.to/lastmile_qr_scan"}, "type": "electric_scooter"}, {"is_reserved": 0, "is_disabled": 0, "fusion_lon": 0.0, "lat": 38.88534516666667, "name": "9066c68f746132393870ab50f137df7f", "bike_id": "9066c68f746132393870ab50f137df7f", "lon": -76.998306, "fusion_lat": 0.0, "rental_uris": {"android": "https://dc.lft.to/lastmile_qr_scan", "ios": "https://dc.lft.to/lastmile_qr_scan"}, "type": "electric_scooter"}, {"is_reserved": 0, "is_disabled": 0, "fusion_lon": 0.0, "lat": 38.894786333333336, "name": "c787e3298654494fd685898caccae975", "bike_id": "c787e3298654494fd685898caccae975", "lon": -76.99518033333334, "fusion_lat": 0.0, "rental_uris": {"android": "https://dc.lft.to/lastmile_qr_scan", "ios": "https://dc.lft.to/lastmile_qr_scan"}, "type": "electric_scooter"}, {"is_reserved": 0, "is_disabled": 0, "fusion_lon": 0.0, "lat": 38.956868166666666, "name": "145f114597cae6ac14033cf33bc4a440", "bike_id": "145f114597cae6ac14033cf33bc4a440", "lon": -77.02239566666667, "fusion_lat": 0.0, "rental_uris": {"android": "https://dc.lft.to/lastmile_qr_scan", "ios": "https://dc.lft.to/lastmile_qr_scan"}, "type": "electric_scooter"}, {"is_reserved": 0, "is_disabled": 0, "fusion_lon": 0.0, "lat": 38.900564833333334, "name": "05aca941bacb50931dafd5230bab2d84", "bike_id": "05aca941bacb50931dafd5230bab2d84", "lon": -77.01518783333333, "fusion_lat": 0.0, "rental_uris": {"android": "https://dc.lft.to/lastmile_qr_scan", "ios": "https://dc.lft.to/lastmile_qr_scan"}, "type": "electric_scooter"}, {"is_reserved": 0, "is_disabled": 0, "fusion_lon": 0.0, "lat": 38.9276215, "name": "dcd901a082401487a58d666465d44f21", "bike_id": "dcd901a082401487a58d666465d44f21", "lon": -77.03216633333334, "fusion_lat": 0.0, "rental_uris": {"android": "https://dc.lft.to/lastmile_qr_scan", "ios": "https://dc.lft.to/lastmile_qr_scan"}, "type": "electric_scooter"}, {"is_reserved": 0, "is_disabled": 0, "fusion_lon": 0.0, "lat": 38.91266683333333, "name": "3f82136d6867e746e116315197b7207a", "bike_id": "3f82136d6867e746e116315197b7207a", "lon": -77.03831266666667, "fusion_lat": 0.0, "rental_uris": {"android": "https://dc.lft.to/lastmile_qr_scan", "ios": "https://dc.lft.to/lastmile_qr_scan"}, "type": "electric_scooter"}, {"is_reserved": 0, "is_disabled": 0, "fusion_lon": 0.0, "lat": 38.884768333333334, "name": "f6a231a53d93f039dd6c934921947595", "bike_id": "f6a231a53d93f039dd6c934921947595", "lon": -77.01992216666666, "fusion_lat": 0.0, "rental_uris": {"android": "https://dc.lft.to/lastmile_qr_scan", "ios": "https://dc.lft.to/lastmile_qr_scan"}, "type": "electric_scooter"}, {"is_reserved": 0, "is_disabled": 0, "fusion_lon": 0.0, "lat": 38.96392266666667, "name": "6050dc54e901d7cb8b4db543c248588e", "bike_id": "6050dc54e901d7cb8b4db543c248588e", "lon": -77.07515633333334, "fusion_lat": 0.0, "rental_uris": {"android": "https://dc.lft.to/lastmile_qr_scan", "ios": "https://dc.lft.to/lastmile_qr_scan"}, "type": "electric_scooter"}, {"is_reserved": 0, "is_disabled": 0, "fusion_lon": 0.0, "lat": 38.900146, "name": "ecd23f1a6075535c2420a69c2b598db6", "bike_id": "ecd23f1a6075535c2420a69c2b598db6", "lon": -76.98602083333333, "fusion_lat": 0.0, "rental_uris": {"android": "https://dc.lft.to/lastmile_qr_scan", "ios": "https://dc.lft.to/lastmile_qr_scan"}, "type": "electric_scooter"}, {"is_reserved": 0, "is_disabled": 0, "fusion_lon": 0.0, "lat": 38.9489255, "name": "3b3971d4b7c09eada96b0cf87bd3b195", "bike_id": "3b3971d4b7c09eada96b0cf87bd3b195", "lon": -77.01854316666666, "fusion_lat": 0.0, "rental_uris": {"android": "https://dc.lft.to/lastmile_qr_scan", "ios": "https://dc.lft.to/lastmile_qr_scan"}, "type": "electric_scooter"}, {"is_reserved": 0, "is_disabled": 0, "fusion_lon": 0.0, "lat": 38.92066583333333, "name": "c16e4837be0273f8b87b5149c6662327", "bike_id": "c16e4837be0273f8b87b5149c6662327", "lon": -77.02850033333333, "fusion_lat": 0.0, "rental_uris": {"android": "https://dc.lft.to/lastmile_qr_scan", "ios": "https://dc.lft.to/lastmile_qr_scan"}, "type": "electric_scooter"}, {"is_reserved": 0, "is_disabled": 0, "fusion_lon": 0.0, "lat": 38.901757, "name": "db380eda6e831f8589a26ed413fa85dd", "bike_id": "db380eda6e831f8589a26ed413fa85dd", "lon": -77.05914, "fusion_lat": 0.0, "rental_uris": {"android": "https://dc.lft.to/lastmile_qr_scan", "ios": "https://dc.lft.to/lastmile_qr_scan"}, "type": "electric_scooter"}, {"is_reserved": 0, "is_disabled": 0, "fusion_lon": 0.0, "lat": 38.9224, "name": "0f30e4ddbc840eb622b0810f59a5bf05", "bike_id": "0f30e4ddbc840eb622b0810f59a5bf05", "lon": -77.02264516666666, "fusion_lat": 0.0, "rental_uris": {"android": "https://dc.lft.to/lastmile_qr_scan", "ios": "https://dc.lft.to/lastmile_qr_scan"}, "type": "electric_scooter"}, {"is_reserved": 0, "is_disabled": 0, "fusion_lon": 0.0, "lat": 38.9173995, "name": "fb1010d61f403383483acd8043c8807d", "bike_id": "fb1010d61f403383483acd8043c8807d", "lon": -77.02490083333333, "fusion_lat": 0.0, "rental_uris": {"android": "https://dc.lft.to/lastmile_qr_scan", "ios": "https://dc.lft.to/lastmile_qr_scan"}, "type": "electric_scooter"}, {"is_reserved": 0, "is_disabled": 0, "fusion_lon": 0.0, "lat": 38.8948925, "name": "a9b9489f77bfa315d9c1467a222198f0", "bike_id": "a9b9489f77bfa315d9c1467a222198f0", "lon": -77.02012616666667, "fusion_lat": 0.0, "rental_uris": {"android": "https://dc.lft.to/lastmile_qr_scan", "ios": "https://dc.lft.to/lastmile_qr_scan"}, "type": "electric_scooter"}, {"is_reserved": 0, "is_disabled": 0, "fusion_lon": 0.0, "lat": 38.9029195, "name": "f918d63e63b187a1e038d6d55807f4d7", "bike_id": "f918d63e63b187a1e038d6d55807f4d7", "lon": -77.04893066666666, "fusion_lat": 0.0, "rental_uris": {"android": "https://dc.lft.to/lastmile_qr_scan", "ios": "https://dc.lft.to/lastmile_qr_scan"}, "type": "electric_scooter"}, {"is_reserved": 0, "is_disabled": 0, "fusion_lon": 0.0, "lat": 38.90386866666667, "name": "10ae7473323c409cc14336598e262ec0", "bike_id": "10ae7473323c409cc14336598e262ec0", "lon": -77.012733, "fusion_lat": 0.0, "rental_uris": {"android": "https://dc.lft.to/lastmile_qr_scan", "ios": "https://dc.lft.to/lastmile_qr_scan"}, "type": "electric_scooter"}, {"is_reserved": 0, "is_disabled": 0, "fusion_lon": 0.0, "lat": 38.91690633333333, "name": "e0852cfb5e29904de08e55ae0fa6fbae", "bike_id": "e0852cfb5e29904de08e55ae0fa6fbae", "lon": -77.037786, "fusion_lat": 0.0, "rental_uris": {"android": "https://dc.lft.to/lastmile_qr_scan", "ios": "https://dc.lft.to/lastmile_qr_scan"}, "type": "electric_scooter"}, {"is_reserved": 0, "is_disabled": 0, "fusion_lon": 0.0, "lat": 38.902191, "name": "d004965f908bcdf6ee12322d4b00b96d", "bike_id": "d004965f908bcdf6ee12322d4b00b96d", "lon": -76.93175233333334, "fusion_lat": 0.0, "rental_uris": {"android": "https://dc.lft.to/lastmile_qr_scan", "ios": "https://dc.lft.to/lastmile_qr_scan"}, "type": "electric_bike"}, {"is_reserved": 0, "is_disabled": 0, "fusion_lon": 0.0, "lat": 38.924458333333334, "name": "e1e13dc1d59fa064fa9e29e145fbe72b", "bike_id": "e1e13dc1d59fa064fa9e29e145fbe72b", "lon": -77.02154533333334, "fusion_lat": 0.0, "rental_uris": {"android": "https://dc.lft.to/lastmile_qr_scan", "ios": "https://dc.lft.to/lastmile_qr_scan"}, "type": "electric_scooter"}, {"is_reserved": 0, "is_disabled": 0, "fusion_lon": 0.0, "lat": 38.81937383333333, "name": "0ee345a4afa0d676b196dc8f468eb80a", "bike_id": "0ee345a4afa0d676b196dc8f468eb80a", "lon": -77.00202533333334, "fusion_lat": 0.0, "rental_uris": {"android": "https://dc.lft.to/lastmile_qr_scan", "ios": "https://dc.lft.to/lastmile_qr_scan"}, "type": "electric_bike"}, {"is_reserved": 0, "is_disabled": 0, "fusion_lon": 0.0, "lat": 38.905167166666665, "name": "0c0797741f3b1affe5bba898bd42bd0d", "bike_id": "0c0797741f3b1affe5bba898bd42bd0d", "lon": -77.06045233333333, "fusion_lat": 0.0, "rental_uris": {"android": "https://dc.lft.to/lastmile_qr_scan", "ios": "https://dc.lft.to/lastmile_qr_scan"}, "type": "electric_scooter"}, {"is_reserved": 0, "is_disabled": 0, "fusion_lon": 0.0, "lat": 38.93383683333333, "name": "9562ae57c18d10bae310508850b6a43c", "bike_id": "9562ae57c18d10bae310508850b6a43c", "lon": -77.03217266666667, "fusion_lat": 0.0, "rental_uris": {"android": "https://dc.lft.to/lastmile_qr_scan", "ios": "https://dc.lft.to/lastmile_qr_scan"}, "type": "electric_scooter"}, {"is_reserved": 0, "is_disabled": 0, "fusion_lon": 0.0, "lat": 38.969981833333335, "name": "faf97ddc23fc333ce66af0035ec621c5", "bike_id": "faf97ddc23fc333ce66af0035ec621c5", "lon": -77.03109883333333, "fusion_lat": 0.0, "rental_uris": {"android": "https://dc.lft.to/lastmile_qr_scan", "ios": "https://dc.lft.to/lastmile_qr_scan"}, "type": "electric_scooter"}, {"is_reserved": 0, "is_disabled": 0, "fusion_lon": 0.0, "lat": 38.91494, "name": "cfe91210272eaad5d265cb53455cadc2", "bike_id": "cfe91210272eaad5d265cb53455cadc2", "lon": -77.03237216666666, "fusion_lat": 0.0, "rental_uris": {"android": "https://dc.lft.to/lastmile_qr_scan", "ios": "https://dc.lft.to/lastmile_qr_scan"}, "type": "electric_scooter"}, {"is_reserved": 0, "is_disabled": 0, "fusion_lon": 0.0, "lat": 38.8358095, "name": "43669f4b799ec77ecf2a4c1e85ecf80a", "bike_id": "43669f4b799ec77ecf2a4c1e85ecf80a", "lon": -76.9902885, "fusion_lat": 0.0, "rental_uris": {"android": "https://dc.lft.to/lastmile_qr_scan", "ios": "https://dc.lft.to/lastmile_qr_scan"}, "type": "electric_bike"}, {"is_reserved": 0, "is_disabled": 0, "fusion_lon": 0.0, "lat": 38.90331666666667, "name": "9e31f2d30ab7b5a928638323fd5c5674", "bike_id": "9e31f2d30ab7b5a928638323fd5c5674", "lon": -76.97593066666667, "fusion_lat": 0.0, "rental_uris": {"android": "https://dc.lft.to/lastmile_qr_scan", "ios": "https://dc.lft.to/lastmile_qr_scan"}, "type": "electric_scooter"}, {"is_reserved": 0, "is_disabled": 0, "fusion_lon": 0.0, "lat": 38.963939333333336, "name": "00202b9e179502315dfaf5e01dbc60d2", "bike_id": "00202b9e179502315dfaf5e01dbc60d2", "lon": -77.02590666666667, "fusion_lat": 0.0, "rental_uris": {"android": "https://dc.lft.to/lastmile_qr_scan", "ios": "https://dc.lft.to/lastmile_qr_scan"}, "type": "electric_scooter"}, {"is_reserved": 0, "is_disabled": 0, "fusion_lon": 0.0, "lat": 38.91993316666667, "name": "a82af09aedb04c5ba14e27dbf921c3b2", "bike_id": "a82af09aedb04c5ba14e27dbf921c3b2", "lon": -77.02522416666666, "fusion_lat": 0.0, "rental_uris": {"android": "https://dc.lft.to/lastmile_qr_scan", "ios": "https://dc.lft.to/lastmile_qr_scan"}, "type": "electric_scooter"}, {"is_reserved": 0, "is_disabled": 0, "fusion_lon": 0.0, "lat": 38.9246355, "name": "a7e1300c3c1c0e51153f5e781f9b7515", "bike_id": "a7e1300c3c1c0e51153f5e781f9b7515", "lon": -77.02265266666667, "fusion_lat": 0.0, "rental_uris": {"android": "https://dc.lft.to/lastmile_qr_scan", "ios": "https://dc.lft.to/lastmile_qr_scan"}, "type": "electric_scooter"}, {"is_reserved": 0, "is_disabled": 0, "fusion_lon": 0.0, "lat": 38.9132625, "name": "16e4d991f2c2d1375c1804e569cf23bd", "bike_id": "16e4d991f2c2d1375c1804e569cf23bd", "lon": -77.0455555, "fusion_lat": 0.0, "rental_uris": {"android": "https://dc.lft.to/lastmile_qr_scan", "ios": "https://dc.lft.to/lastmile_qr_scan"}, "type": "electric_scooter"}, {"is_reserved": 0, "is_disabled": 0, "fusion_lon": 0.0, "lat": 38.91895733333333, "name": "d828c5da239197d70accedfe58fb3cb7", "bike_id": "d828c5da239197d70accedfe58fb3cb7", "lon": -77.10178433333333, "fusion_lat": 0.0, "rental_uris": {"android": "https://dc.lft.to/lastmile_qr_scan", "ios": "https://dc.lft.to/lastmile_qr_scan"}, "type": "electric_bike"}, {"is_reserved": 0, "is_disabled": 0, "fusion_lon": 0.0, "lat": 38.900270666666664, "name": "e003d2fcb467b60f67f6c28787a2f51b", "bike_id": "e003d2fcb467b60f67f6c28787a2f51b", "lon": -76.99584816666666, "fusion_lat": 0.0, "rental_uris": {"android": "https://dc.lft.to/lastmile_qr_scan", "ios": "https://dc.lft.to/lastmile_qr_scan"}, "type": "electric_scooter"}, {"is_reserved": 0, "is_disabled": 0, "fusion_lon": 0.0, "lat": 38.90511516666667, "name": "0949627f9a72ce37f481d334c9621732", "bike_id": "0949627f9a72ce37f481d334c9621732", "lon": -77.070147, "fusion_lat": 0.0, "rental_uris": {"android": "https://dc.lft.to/lastmile_qr_scan", "ios": "https://dc.lft.to/lastmile_qr_scan"}, "type": "electric_scooter"}, {"is_reserved": 0, "is_disabled": 0, "fusion_lon": 0.0, "lat": 38.9337055, "name": "b8e997d5679f90d35108219a47376b10", "bike_id": "b8e997d5679f90d35108219a47376b10", "lon": -77.02378466666667, "fusion_lat": 0.0, "rental_uris": {"android": "https://dc.lft.to/lastmile_qr_scan", "ios": "https://dc.lft.to/lastmile_qr_scan"}, "type": "electric_scooter"}, {"is_reserved": 0, "is_disabled": 0, "fusion_lon": 0.0, "lat": 38.8935665, "name": "8000b168a38a7d77a0f1aacc2af9fdc4", "bike_id": "8000b168a38a7d77a0f1aacc2af9fdc4", "lon": -77.00342866666666, "fusion_lat": 0.0, "rental_uris": {"android": "https://dc.lft.to/lastmile_qr_scan", "ios": "https://dc.lft.to/lastmile_qr_scan"}, "type": "electric_scooter"}, {"is_reserved": 0, "is_disabled": 0, "fusion_lon": 0.0, "lat": 38.88374116666667, "name": "9877557ddb2d4da98f3304394983a613", "bike_id": "9877557ddb2d4da98f3304394983a613", "lon": -76.99521883333334, "fusion_lat": 0.0, "rental_uris": {"android": "https://dc.lft.to/lastmile_qr_scan", "ios": "https://dc.lft.to/lastmile_qr_scan"}, "type": "electric_scooter"}, {"is_reserved": 0, "is_disabled": 0, "fusion_lon": 0.0, "lat": 38.91707483333333, "name": "fc82f8a793399187f0b2b7fe755fbf35", "bike_id": "fc82f8a793399187f0b2b7fe755fbf35", "lon": -77.0386475, "fusion_lat": 0.0, "rental_uris": {"android": "https://dc.lft.to/lastmile_qr_scan", "ios": "https://dc.lft.to/lastmile_qr_scan"}, "type": "electric_scooter"}, {"is_reserved": 0, "is_disabled": 0, "fusion_lon": 0.0, "lat": 38.905709333333334, "name": "36e3acc8b7fae4216da7907f1e52720d", "bike_id": "36e3acc8b7fae4216da7907f1e52720d", "lon": -77.03439683333333, "fusion_lat": 0.0, "rental_uris": {"android": "https://dc.lft.to/lastmile_qr_scan", "ios": "https://dc.lft.to/lastmile_qr_scan"}, "type": "electric_scooter"}, {"is_reserved": 0, "is_disabled": 0, "fusion_lon": 0.0, "lat": 38.92395366666667, "name": "f2cbc96deaacd00baac50f04c9136cc0", "bike_id": "f2cbc96deaacd00baac50f04c9136cc0", "lon": -77.026957, "fusion_lat": 0.0, "rental_uris": {"android": "https://dc.lft.to/lastmile_qr_scan", "ios": "https://dc.lft.to/lastmile_qr_scan"}, "type": "electric_scooter"}, {"is_reserved": 0, "is_disabled": 0, "fusion_lon": 0.0, "lat": 38.906432333333335, "name": "32deafa23c01c15f326e030b3744b29b", "bike_id": "32deafa23c01c15f326e030b3744b29b", "lon": -77.00190333333333, "fusion_lat": 0.0, "rental_uris": {"android": "https://dc.lft.to/lastmile_qr_scan", "ios": "https://dc.lft.to/lastmile_qr_scan"}, "type": "electric_scooter"}, {"is_reserved": 0, "is_disabled": 0, "fusion_lon": 0.0, "lat": 38.92925133333333, "name": "669da289bb785b2fd41fd4fba12b0088", "bike_id": "669da289bb785b2fd41fd4fba12b0088", "lon": -77.00674166666667, "fusion_lat": 0.0, "rental_uris": {"android": "https://dc.lft.to/lastmile_qr_scan", "ios": "https://dc.lft.to/lastmile_qr_scan"}, "type": "electric_scooter"}, {"is_reserved": 0, "is_disabled": 0, "fusion_lon": 0.0, "lat": 38.926623166666666, "name": "bb132e36859231ba56c783721df851b1", "bike_id": "bb132e36859231ba56c783721df851b1", "lon": -77.02765833333333, "fusion_lat": 0.0, "rental_uris": {"android": "https://dc.lft.to/lastmile_qr_scan", "ios": "https://dc.lft.to/lastmile_qr_scan"}, "type": "electric_scooter"}, {"is_reserved": 0, "is_disabled": 0, "fusion_lon": 0.0, "lat": 38.898867, "name": "8afe433bcb6dfe7db21dd5e41568704b", "bike_id": "8afe433bcb6dfe7db21dd5e41568704b", "lon": -77.02024516666667, "fusion_lat": 0.0, "rental_uris": {"android": "https://dc.lft.to/lastmile_qr_scan", "ios": "https://dc.lft.to/lastmile_qr_scan"}, "type": "electric_scooter"}, {"is_reserved": 0, "is_disabled": 0, "fusion_lon": 0.0, "lat": 38.90369833333333, "name": "43ff6ed87d8f569022fc3619068851b9", "bike_id": "43ff6ed87d8f569022fc3619068851b9", "lon": -77.0398285, "fusion_lat": 0.0, "rental_uris": {"android": "https://dc.lft.to/lastmile_qr_scan", "ios": "https://dc.lft.to/lastmile_qr_scan"}, "type": "electric_scooter"}, {"is_reserved": 0, "is_disabled": 0, "fusion_lon": 0.0, "lat": 38.9328415, "name": "af2abd17898b69aac844e3b824dec4d0", "bike_id": "af2abd17898b69aac844e3b824dec4d0", "lon": -77.02549933333333, "fusion_lat": 0.0, "rental_uris": {"android": "https://dc.lft.to/lastmile_qr_scan", "ios": "https://dc.lft.to/lastmile_qr_scan"}, "type": "electric_scooter"}, {"is_reserved": 0, "is_disabled": 0, "fusion_lon": 0.0, "lat": 38.892235166666666, "name": "ba35d9ad214f9e575ce39dc7da27aef5", "bike_id": "ba35d9ad214f9e575ce39dc7da27aef5", "lon": -77.04503466666667, "fusion_lat": 0.0, "rental_uris": {"android": "https://dc.lft.to/lastmile_qr_scan", "ios": "https://dc.lft.to/lastmile_qr_scan"}, "type": "electric_scooter"}, {"is_reserved": 0, "is_disabled": 0, "fusion_lon": 0.0, "lat": 38.9346285, "name": "953acd764bf0fd0d56b0f5b82d766dc5", "bike_id": "953acd764bf0fd0d56b0f5b82d766dc5", "lon": -77.05811433333334, "fusion_lat": 0.0, "rental_uris": {"android": "https://dc.lft.to/lastmile_qr_scan", "ios": "https://dc.lft.to/lastmile_qr_scan"}, "type": "electric_scooter"}, {"is_reserved": 0, "is_disabled": 0, "fusion_lon": 0.0, "lat": 38.9578335, "name": "c8adb68f00ea6c707f148d4993cf438e", "bike_id": "c8adb68f00ea6c707f148d4993cf438e", "lon": -77.02841783333334, "fusion_lat": 0.0, "rental_uris": {"android": "https://dc.lft.to/lastmile_qr_scan", "ios": "https://dc.lft.to/lastmile_qr_scan"}, "type": "electric_scooter"}, {"is_reserved": 0, "is_disabled": 0, "fusion_lon": 0.0, "lat": 38.9171085, "name": "f41615cd2e3a7d83fd29495e9a7bb410", "bike_id": "f41615cd2e3a7d83fd29495e9a7bb410", "lon": -77.03476166666667, "fusion_lat": 0.0, "rental_uris": {"android": "https://dc.lft.to/lastmile_qr_scan", "ios": "https://dc.lft.to/lastmile_qr_scan"}, "type": "electric_scooter"}, {"is_reserved": 0, "is_disabled": 0, "fusion_lon": 0.0, "lat": 38.879671333333334, "name": "0c8a72b612dcef06b3879efac71f9217", "bike_id": "0c8a72b612dcef06b3879efac71f9217", "lon": -77.02431, "fusion_lat": 0.0, "rental_uris": {"android": "https://dc.lft.to/lastmile_qr_scan", "ios": "https://dc.lft.to/lastmile_qr_scan"}, "type": "electric_scooter"}, {"is_reserved": 0, "is_disabled": 0, "fusion_lon": 0.0, "lat": 38.8975755, "name": "6caa427c94322a5237c57009571177d4", "bike_id": "6caa427c94322a5237c57009571177d4", "lon": -77.02078066666667, "fusion_lat": 0.0, "rental_uris": {"android": "https://dc.lft.to/lastmile_qr_scan", "ios": "https://dc.lft.to/lastmile_qr_scan"}, "type": "electric_scooter"}, {"is_reserved": 0, "is_disabled": 0, "fusion_lon": 0.0, "lat": 38.9168675, "name": "aafe87d618ba07f91639a3381388c13f", "bike_id": "aafe87d618ba07f91639a3381388c13f", "lon": -77.02404866666667, "fusion_lat": 0.0, "rental_uris": {"android": "https://dc.lft.to/lastmile_qr_scan", "ios": "https://dc.lft.to/lastmile_qr_scan"}, "type": "electric_scooter"}, {"is_reserved": 0, "is_disabled": 0, "fusion_lon": 0.0, "lat": 38.914051, "name": "566b1acee4a0558d6ca388d31dd6ad3e", "bike_id": "566b1acee4a0558d6ca388d31dd6ad3e", "lon": -77.0238325, "fusion_lat": 0.0, "rental_uris": {"android": "https://dc.lft.to/lastmile_qr_scan", "ios": "https://dc.lft.to/lastmile_qr_scan"}, "type": "electric_scooter"}, {"is_reserved": 0, "is_disabled": 0, "fusion_lon": 0.0, "lat": 38.921358833333336, "name": "5e65637dab88e583c02a1675e7e0049c", "bike_id": "5e65637dab88e583c02a1675e7e0049c", "lon": -77.05157033333333, "fusion_lat": 0.0, "rental_uris": {"android": "https://dc.lft.to/lastmile_qr_scan", "ios": "https://dc.lft.to/lastmile_qr_scan"}, "type": "electric_scooter"}, {"is_reserved": 0, "is_disabled": 0, "fusion_lon": 0.0, "lat": 38.91775033333333, "name": "4763ee676ee6deb3b0d40d659d19d0ed", "bike_id": "4763ee676ee6deb3b0d40d659d19d0ed", "lon": -77.04098433333333, "fusion_lat": 0.0, "rental_uris": {"android": "https://dc.lft.to/lastmile_qr_scan", "ios": "https://dc.lft.to/lastmile_qr_scan"}, "type": "electric_scooter"}, {"is_reserved": 0, "is_disabled": 0, "fusion_lon": 0.0, "lat": 38.8717335, "name": "3b0a1d8d48db75c2075e2ed5a5f4497a", "bike_id": "3b0a1d8d48db75c2075e2ed5a5f4497a", "lon": -77.00661116666667, "fusion_lat": 0.0, "rental_uris": {"android": "https://dc.lft.to/lastmile_qr_scan", "ios": "https://dc.lft.to/lastmile_qr_scan"}, "type": "electric_scooter"}, {"is_reserved": 0, "is_disabled": 0, "fusion_lon": 0.0, "lat": 38.931877666666665, "name": "900c4c83db0624e547e4b718c505c83d", "bike_id": "900c4c83db0624e547e4b718c505c83d", "lon": -77.038837, "fusion_lat": 0.0, "rental_uris": {"android": "https://dc.lft.to/lastmile_qr_scan", "ios": "https://dc.lft.to/lastmile_qr_scan"}, "type": "electric_scooter"}, {"is_reserved": 0, "is_disabled": 0, "fusion_lon": 0.0, "lat": 38.909774166666665, "name": "5afdb68337d57f6bac14ff654a2e1fde", "bike_id": "5afdb68337d57f6bac14ff654a2e1fde", "lon": -77.0336725, "fusion_lat": 0.0, "rental_uris": {"android": "https://dc.lft.to/lastmile_qr_scan", "ios": "https://dc.lft.to/lastmile_qr_scan"}, "type": "electric_scooter"}, {"is_reserved": 0, "is_disabled": 0, "fusion_lon": 0.0, "lat": 38.907497, "name": "404425ea8cb2eb1069584d58d03f0464", "bike_id": "404425ea8cb2eb1069584d58d03f0464", "lon": -77.045226, "fusion_lat": 0.0, "rental_uris": {"android": "https://dc.lft.to/lastmile_qr_scan", "ios": "https://dc.lft.to/lastmile_qr_scan"}, "type": "electric_scooter"}, {"is_reserved": 0, "is_disabled": 0, "fusion_lon": 0.0, "lat": 38.877045, "name": "48584d680b7debfb5efc5c51a2acc7d6", "bike_id": "48584d680b7debfb5efc5c51a2acc7d6", "lon": -76.99320416666667, "fusion_lat": 0.0, "rental_uris": {"android": "https://dc.lft.to/lastmile_qr_scan", "ios": "https://dc.lft.to/lastmile_qr_scan"}, "type": "electric_scooter"}, {"is_reserved": 0, "is_disabled": 0, "fusion_lon": 0.0, "lat": 38.915295, "name": "604fe8ffe4bde429a73e4e452042363b", "bike_id": "604fe8ffe4bde429a73e4e452042363b", "lon": -77.07530733333333, "fusion_lat": 0.0, "rental_uris": {"android": "https://dc.lft.to/lastmile_qr_scan", "ios": "https://dc.lft.to/lastmile_qr_scan"}, "type": "electric_bike"}, {"is_reserved": 0, "is_disabled": 0, "fusion_lon": 0.0, "lat": 38.920619, "name": "a7677e3313d41f09794b270d376906e1", "bike_id": "a7677e3313d41f09794b270d376906e1", "lon": -77.02304316666667, "fusion_lat": 0.0, "rental_uris": {"android": "https://dc.lft.to/lastmile_qr_scan", "ios": "https://dc.lft.to/lastmile_qr_scan"}, "type": "electric_scooter"}, {"is_reserved": 0, "is_disabled": 0, "fusion_lon": 0.0, "lat": 38.85573016666667, "name": "5725bfa1032d027ba0094b270575e7e6", "bike_id": "5725bfa1032d027ba0094b270575e7e6", "lon": -77.053342, "fusion_lat": 0.0, "rental_uris": {"android": "https://dc.lft.to/lastmile_qr_scan", "ios": "https://dc.lft.to/lastmile_qr_scan"}, "type": "electric_bike"}, {"is_reserved": 0, "is_disabled": 0, "fusion_lon": 0.0, "lat": 38.972637166666665, "name": "27e4939ccb47189ccbe09a84550a008c", "bike_id": "27e4939ccb47189ccbe09a84550a008c", "lon": -76.992822, "fusion_lat": 0.0, "rental_uris": {"android": "https://dc.lft.to/lastmile_qr_scan", "ios": "https://dc.lft.to/lastmile_qr_scan"}, "type": "electric_bike"}, {"is_reserved": 0, "is_disabled": 0, "fusion_lon": 0.0, "lat": 38.908608666666666, "name": "b43f58a68ba7dd4676d53fbc263b2de0", "bike_id": "b43f58a68ba7dd4676d53fbc263b2de0", "lon": -77.08082383333333, "fusion_lat": 0.0, "rental_uris": {"android": "https://dc.lft.to/lastmile_qr_scan", "ios": "https://dc.lft.to/lastmile_qr_scan"}, "type": "electric_bike"}, {"is_reserved": 0, "is_disabled": 0, "fusion_lon": 0.0, "lat": 38.92355466666667, "name": "d685ad0b3297b680116d194a921134e1", "bike_id": "d685ad0b3297b680116d194a921134e1", "lon": -77.02122966666667, "fusion_lat": 0.0, "rental_uris": {"android": "https://dc.lft.to/lastmile_qr_scan", "ios": "https://dc.lft.to/lastmile_qr_scan"}, "type": "electric_scooter"}, {"is_reserved": 0, "is_disabled": 0, "fusion_lon": 0.0, "lat": 38.9080595, "name": "8f29cf749a2bd5cf447711ad5245d1e3", "bike_id": "8f29cf749a2bd5cf447711ad5245d1e3", "lon": -77.08402883333333, "fusion_lat": 0.0, "rental_uris": {"android": "https://dc.lft.to/lastmile_qr_scan", "ios": "https://dc.lft.to/lastmile_qr_scan"}, "type": "electric_scooter"}, {"is_reserved": 0, "is_disabled": 0, "fusion_lon": 0.0, "lat": 38.93426066666667, "name": "eb65962000671a652ac4d2e30be600ed", "bike_id": "eb65962000671a652ac4d2e30be600ed", "lon": -77.0585485, "fusion_lat": 0.0, "rental_uris": {"android": "https://dc.lft.to/lastmile_qr_scan", "ios": "https://dc.lft.to/lastmile_qr_scan"}, "type": "electric_scooter"}, {"is_reserved": 0, "is_disabled": 0, "fusion_lon": 0.0, "lat": 38.97550116666667, "name": "303a82a710bd7adaddf4622428a6c22f", "bike_id": "303a82a710bd7adaddf4622428a6c22f", "lon": -77.0264955, "fusion_lat": 0.0, "rental_uris": {"android": "https://dc.lft.to/lastmile_qr_scan", "ios": "https://dc.lft.to/lastmile_qr_scan"}, "type": "electric_scooter"}, {"is_reserved": 0, "is_disabled": 0, "fusion_lon": 0.0, "lat": 38.87117166666667, "name": "37ed46cab6054803aa827fdf5ef3e244", "bike_id": "37ed46cab6054803aa827fdf5ef3e244", "lon": -77.00909716666666, "fusion_lat": 0.0, "rental_uris": {"android": "https://dc.lft.to/lastmile_qr_scan", "ios": "https://dc.lft.to/lastmile_qr_scan"}, "type": "electric_scooter"}, {"is_reserved": 0, "is_disabled": 0, "fusion_lon": 0.0, "lat": 38.904276333333335, "name": "67f7268577aad839426292793c64651f", "bike_id": "67f7268577aad839426292793c64651f", "lon": -77.033033, "fusion_lat": 0.0, "rental_uris": {"android": "https://dc.lft.to/lastmile_qr_scan", "ios": "https://dc.lft.to/lastmile_qr_scan"}, "type": "electric_scooter"}, {"is_reserved": 0, "is_disabled": 0, "fusion_lon": 0.0, "lat": 38.92451166666667, "name": "08eaa8d99840c24091416a0c9ee64a80", "bike_id": "08eaa8d99840c24091416a0c9ee64a80", "lon": -77.02150716666667, "fusion_lat": 0.0, "rental_uris": {"android": "https://dc.lft.to/lastmile_qr_scan", "ios": "https://dc.lft.to/lastmile_qr_scan"}, "type": "electric_scooter"}, {"is_reserved": 0, "is_disabled": 0, "fusion_lon": 0.0, "lat": 38.92131416666667, "name": "cb281912493e2d66cf5c3ca7fb9a485b", "bike_id": "cb281912493e2d66cf5c3ca7fb9a485b", "lon": -77.04578833333333, "fusion_lat": 0.0, "rental_uris": {"android": "https://dc.lft.to/lastmile_qr_scan", "ios": "https://dc.lft.to/lastmile_qr_scan"}, "type": "electric_scooter"}, {"is_reserved": 0, "is_disabled": 0, "fusion_lon": 0.0, "lat": 38.90955683333333, "name": "bf2c40d0ea4798c07ad9982b11c5d3d0", "bike_id": "bf2c40d0ea4798c07ad9982b11c5d3d0", "lon": -77.0486245, "fusion_lat": 0.0, "rental_uris": {"android": "https://dc.lft.to/lastmile_qr_scan", "ios": "https://dc.lft.to/lastmile_qr_scan"}, "type": "electric_scooter"}, {"is_reserved": 0, "is_disabled": 0, "fusion_lon": 0.0, "lat": 38.925006, "name": "65bb1a65019be7af110b633bac2ae731", "bike_id": "65bb1a65019be7af110b633bac2ae731", "lon": -77.02161266666667, "fusion_lat": 0.0, "rental_uris": {"android": "https://dc.lft.to/lastmile_qr_scan", "ios": "https://dc.lft.to/lastmile_qr_scan"}, "type": "electric_scooter"}, {"is_reserved": 0, "is_disabled": 0, "fusion_lon": 0.0, "lat": 38.898779166666664, "name": "59ec65dd74f56f7da99943eb77bde847", "bike_id": "59ec65dd74f56f7da99943eb77bde847", "lon": -76.9799675, "fusion_lat": 0.0, "rental_uris": {"android": "https://dc.lft.to/lastmile_qr_scan", "ios": "https://dc.lft.to/lastmile_qr_scan"}, "type": "electric_scooter"}, {"is_reserved": 0, "is_disabled": 0, "fusion_lon": 0.0, "lat": 38.9199615, "name": "20a67fbde5c1d8f007033a8e90e07a9b", "bike_id": "20a67fbde5c1d8f007033a8e90e07a9b", "lon": -77.03218933333333, "fusion_lat": 0.0, "rental_uris": {"android": "https://dc.lft.to/lastmile_qr_scan", "ios": "https://dc.lft.to/lastmile_qr_scan"}, "type": "electric_bike"}, {"is_reserved": 0, "is_disabled": 0, "fusion_lon": 0.0, "lat": 38.90852233333333, "name": "e6f6e2b6e5360b689d90f3fcf7041c47", "bike_id": "e6f6e2b6e5360b689d90f3fcf7041c47", "lon": -77.0241525, "fusion_lat": 0.0, "rental_uris": {"android": "https://dc.lft.to/lastmile_qr_scan", "ios": "https://dc.lft.to/lastmile_qr_scan"}, "type": "electric_scooter"}, {"is_reserved": 0, "is_disabled": 0, "fusion_lon": 0.0, "lat": 38.92458116666667, "name": "55cebc269a908e0fde50b7e934dd5312", "bike_id": "55cebc269a908e0fde50b7e934dd5312", "lon": -76.97230066666667, "fusion_lat": 0.0, "rental_uris": {"android": "https://dc.lft.to/lastmile_qr_scan", "ios": "https://dc.lft.to/lastmile_qr_scan"}, "type": "electric_scooter"}, {"is_reserved": 0, "is_disabled": 0, "fusion_lon": 0.0, "lat": 38.91911233333333, "name": "464d6e84e33814a7562a22d29812dbcc", "bike_id": "464d6e84e33814a7562a22d29812dbcc", "lon": -77.032112, "fusion_lat": 0.0, "rental_uris": {"android": "https://dc.lft.to/lastmile_qr_scan", "ios": "https://dc.lft.to/lastmile_qr_scan"}, "type": "electric_scooter"}, {"is_reserved": 0, "is_disabled": 0, "fusion_lon": 0.0, "lat": 38.881435333333336, "name": "4b11090e16489ec41b35638a9b2bf612", "bike_id": "4b11090e16489ec41b35638a9b2bf612", "lon": -77.02712266666667, "fusion_lat": 0.0, "rental_uris": {"android": "https://dc.lft.to/lastmile_qr_scan", "ios": "https://dc.lft.to/lastmile_qr_scan"}, "type": "electric_scooter"}, {"is_reserved": 0, "is_disabled": 0, "fusion_lon": 0.0, "lat": 38.92672316666667, "name": "598649839d4ee455f339192d0d4fda0d", "bike_id": "598649839d4ee455f339192d0d4fda0d", "lon": -77.05447516666666, "fusion_lat": 0.0, "rental_uris": {"android": "https://dc.lft.to/lastmile_qr_scan", "ios": "https://dc.lft.to/lastmile_qr_scan"}, "type": "electric_scooter"}, {"is_reserved": 0, "is_disabled": 0, "fusion_lon": 0.0, "lat": 38.86486633333333, "name": "eec5c27ecf83ba1e13501abc32e13db3", "bike_id": "eec5c27ecf83ba1e13501abc32e13db3", "lon": -76.9774145, "fusion_lat": 0.0, "rental_uris": {"android": "https://dc.lft.to/lastmile_qr_scan", "ios": "https://dc.lft.to/lastmile_qr_scan"}, "type": "electric_bike"}, {"is_reserved": 0, "is_disabled": 0, "fusion_lon": 0.0, "lat": 38.907025, "name": "a4090f5255af87cf57043f9dc3c00bcb", "bike_id": "a4090f5255af87cf57043f9dc3c00bcb", "lon": -76.98698316666666, "fusion_lat": 0.0, "rental_uris": {"android": "https://dc.lft.to/lastmile_qr_scan", "ios": "https://dc.lft.to/lastmile_qr_scan"}, "type": "electric_scooter"}, {"is_reserved": 0, "is_disabled": 0, "fusion_lon": 0.0, "lat": 38.88720283333333, "name": "a80b3bfaa81ef5519cad26419ddbc962", "bike_id": "a80b3bfaa81ef5519cad26419ddbc962", "lon": -76.9965095, "fusion_lat": 0.0, "rental_uris": {"android": "https://dc.lft.to/lastmile_qr_scan", "ios": "https://dc.lft.to/lastmile_qr_scan"}, "type": "electric_scooter"}, {"is_reserved": 0, "is_disabled": 0, "fusion_lon": 0.0, "lat": 38.92689133333333, "name": "78af61d5156b2eb538ae8c16b3a69aa2", "bike_id": "78af61d5156b2eb538ae8c16b3a69aa2", "lon": -77.02967216666667, "fusion_lat": 0.0, "rental_uris": {"android": "https://dc.lft.to/lastmile_qr_scan", "ios": "https://dc.lft.to/lastmile_qr_scan"}, "type": "electric_scooter"}, {"is_reserved": 0, "is_disabled": 0, "fusion_lon": 0.0, "lat": 38.91821983333333, "name": "aa1cc9ac085533517cb8572a10dd4b82", "bike_id": "aa1cc9ac085533517cb8572a10dd4b82", "lon": -77.031286, "fusion_lat": 0.0, "rental_uris": {"android": "https://dc.lft.to/lastmile_qr_scan", "ios": "https://dc.lft.to/lastmile_qr_scan"}, "type": "electric_scooter"}, {"is_reserved": 0, "is_disabled": 0, "fusion_lon": 0.0, "lat": 38.96407166666667, "name": "9b0db2dfb4128864193e86c61c41b78a", "bike_id": "9b0db2dfb4128864193e86c61c41b78a", "lon": -77.0328535, "fusion_lat": 0.0, "rental_uris": {"android": "https://dc.lft.to/lastmile_qr_scan", "ios": "https://dc.lft.to/lastmile_qr_scan"}, "type": "electric_scooter"}, {"is_reserved": 0, "is_disabled": 0, "fusion_lon": 0.0, "lat": 38.8706975, "name": "81d4eae2085f7c5294a3b19ec0ce1c3d", "bike_id": "81d4eae2085f7c5294a3b19ec0ce1c3d", "lon": -77.1104125, "fusion_lat": 0.0, "rental_uris": {"android": "https://dc.lft.to/lastmile_qr_scan", "ios": "https://dc.lft.to/lastmile_qr_scan"}, "type": "electric_bike"}, {"is_reserved": 0, "is_disabled": 0, "fusion_lon": 0.0, "lat": 38.897280333333335, "name": "a43675b9c3f1c40a8eb3be120948a24d", "bike_id": "a43675b9c3f1c40a8eb3be120948a24d", "lon": -77.0552845, "fusion_lat": 0.0, "rental_uris": {"android": "https://dc.lft.to/lastmile_qr_scan", "ios": "https://dc.lft.to/lastmile_qr_scan"}, "type": "electric_scooter"}, {"is_reserved": 0, "is_disabled": 0, "fusion_lon": 0.0, "lat": 38.917259666666666, "name": "438b1db3e7529acfa883a2a106903aff", "bike_id": "438b1db3e7529acfa883a2a106903aff", "lon": -77.03360216666667, "fusion_lat": 0.0, "rental_uris": {"android": "https://dc.lft.to/lastmile_qr_scan", "ios": "https://dc.lft.to/lastmile_qr_scan"}, "type": "electric_scooter"}, {"is_reserved": 0, "is_disabled": 0, "fusion_lon": 0.0, "lat": 38.915573333333334, "name": "0e233244cdd45888d406f79011e287c3", "bike_id": "0e233244cdd45888d406f79011e287c3", "lon": -77.03221233333333, "fusion_lat": 0.0, "rental_uris": {"android": "https://dc.lft.to/lastmile_qr_scan", "ios": "https://dc.lft.to/lastmile_qr_scan"}, "type": "electric_scooter"}, {"is_reserved": 0, "is_disabled": 0, "fusion_lon": 0.0, "lat": 38.920420666666665, "name": "7dc2307f6c388a81fbce8c02c826f1a6", "bike_id": "7dc2307f6c388a81fbce8c02c826f1a6", "lon": -77.01684466666667, "fusion_lat": 0.0, "rental_uris": {"android": "https://dc.lft.to/lastmile_qr_scan", "ios": "https://dc.lft.to/lastmile_qr_scan"}, "type": "electric_scooter"}, {"is_reserved": 0, "is_disabled": 0, "fusion_lon": 0.0, "lat": 38.8717825, "name": "9c97f1821f5498d4920ff6f4c96c43ea", "bike_id": "9c97f1821f5498d4920ff6f4c96c43ea", "lon": -77.00664666666667, "fusion_lat": 0.0, "rental_uris": {"android": "https://dc.lft.to/lastmile_qr_scan", "ios": "https://dc.lft.to/lastmile_qr_scan"}, "type": "electric_scooter"}, {"is_reserved": 0, "is_disabled": 0, "fusion_lon": 0.0, "lat": 38.926662666666665, "name": "6215cd715b0f7fd5dc621d633f3a866d", "bike_id": "6215cd715b0f7fd5dc621d633f3a866d", "lon": -77.01469733333333, "fusion_lat": 0.0, "rental_uris": {"android": "https://dc.lft.to/lastmile_qr_scan", "ios": "https://dc.lft.to/lastmile_qr_scan"}, "type": "electric_scooter"}, {"is_reserved": 0, "is_disabled": 0, "fusion_lon": 0.0, "lat": 38.874683833333336, "name": "e1ea776872047736aef0c350a68e7785", "bike_id": "e1ea776872047736aef0c350a68e7785", "lon": -77.00509416666667, "fusion_lat": 0.0, "rental_uris": {"android": "https://dc.lft.to/lastmile_qr_scan", "ios": "https://dc.lft.to/lastmile_qr_scan"}, "type": "electric_scooter"}, {"is_reserved": 0, "is_disabled": 0, "fusion_lon": 0.0, "lat": 38.918821333333334, "name": "bb1e6f9d680743f802f4adcfe4843584", "bike_id": "bb1e6f9d680743f802f4adcfe4843584", "lon": -77.0431855, "fusion_lat": 0.0, "rental_uris": {"android": "https://dc.lft.to/lastmile_qr_scan", "ios": "https://dc.lft.to/lastmile_qr_scan"}, "type": "electric_scooter"}, {"is_reserved": 0, "is_disabled": 0, "fusion_lon": 0.0, "lat": 38.900334666666666, "name": "12af43ba8492b9a090a539994298c88c", "bike_id": "12af43ba8492b9a090a539994298c88c", "lon": -76.9986475, "fusion_lat": 0.0, "rental_uris": {"android": "https://dc.lft.to/lastmile_qr_scan", "ios": "https://dc.lft.to/lastmile_qr_scan"}, "type": "electric_scooter"}, {"is_reserved": 0, "is_disabled": 0, "fusion_lon": 0.0, "lat": 38.9170835, "name": "d850a94e0bc575c9067f1dfaeafebd17", "bike_id": "d850a94e0bc575c9067f1dfaeafebd17", "lon": -77.03864066666667, "fusion_lat": 0.0, "rental_uris": {"android": "https://dc.lft.to/lastmile_qr_scan", "ios": "https://dc.lft.to/lastmile_qr_scan"}, "type": "electric_scooter"}, {"is_reserved": 0, "is_disabled": 0, "fusion_lon": 0.0, "lat": 38.90033366666667, "name": "1de9b495cbde94d9c8f804fbe94cd05e", "bike_id": "1de9b495cbde94d9c8f804fbe94cd05e", "lon": -76.98838816666667, "fusion_lat": 0.0, "rental_uris": {"android": "https://dc.lft.to/lastmile_qr_scan", "ios": "https://dc.lft.to/lastmile_qr_scan"}, "type": "electric_scooter"}, {"is_reserved": 0, "is_disabled": 0, "fusion_lon": 0.0, "lat": 38.913228, "name": "b12ee998313024fea63951f1093e932a", "bike_id": "b12ee998313024fea63951f1093e932a", "lon": -77.04536066666667, "fusion_lat": 0.0, "rental_uris": {"android": "https://dc.lft.to/lastmile_qr_scan", "ios": "https://dc.lft.to/lastmile_qr_scan"}, "type": "electric_scooter"}, {"is_reserved": 0, "is_disabled": 0, "fusion_lon": 0.0, "lat": 39.074709666666664, "name": "03544d04e11a4a8c36d576f0f96e295c", "bike_id": "03544d04e11a4a8c36d576f0f96e295c", "lon": -77.1152675, "fusion_lat": 0.0, "rental_uris": {"android": "https://dc.lft.to/lastmile_qr_scan", "ios": "https://dc.lft.to/lastmile_qr_scan"}, "type": "electric_bike"}, {"is_reserved": 0, "is_disabled": 0, "fusion_lon": 0.0, "lat": 38.91581433333333, "name": "71ce477dc808a1b6386b6004f5374876", "bike_id": "71ce477dc808a1b6386b6004f5374876", "lon": -77.03191483333333, "fusion_lat": 0.0, "rental_uris": {"android": "https://dc.lft.to/lastmile_qr_scan", "ios": "https://dc.lft.to/lastmile_qr_scan"}, "type": "electric_scooter"}, {"is_reserved": 0, "is_disabled": 0, "fusion_lon": 0.0, "lat": 38.898393666666664, "name": "675045059727e0548d56a9612ff4d3a5", "bike_id": "675045059727e0548d56a9612ff4d3a5", "lon": -77.0395225, "fusion_lat": 0.0, "rental_uris": {"android": "https://dc.lft.to/lastmile_qr_scan", "ios": "https://dc.lft.to/lastmile_qr_scan"}, "type": "electric_scooter"}, {"is_reserved": 0, "is_disabled": 0, "fusion_lon": 0.0, "lat": 38.9167625, "name": "f10ab83753b92f2b8d90941b98a843d0", "bike_id": "f10ab83753b92f2b8d90941b98a843d0", "lon": -77.0460555, "fusion_lat": 0.0, "rental_uris": {"android": "https://dc.lft.to/lastmile_qr_scan", "ios": "https://dc.lft.to/lastmile_qr_scan"}, "type": "electric_scooter"}, {"is_reserved": 0, "is_disabled": 0, "fusion_lon": 0.0, "lat": 38.8777485, "name": "1b652d295f80958012b043a8a507854d", "bike_id": "1b652d295f80958012b043a8a507854d", "lon": -77.00206683333333, "fusion_lat": 0.0, "rental_uris": {"android": "https://dc.lft.to/lastmile_qr_scan", "ios": "https://dc.lft.to/lastmile_qr_scan"}, "type": "electric_scooter"}, {"is_reserved": 0, "is_disabled": 0, "fusion_lon": 0.0, "lat": 38.90261516666666, "name": "c6486f0b292212c137a5abe2a913a4b0", "bike_id": "c6486f0b292212c137a5abe2a913a4b0", "lon": -77.044485, "fusion_lat": 0.0, "rental_uris": {"android": "https://dc.lft.to/lastmile_qr_scan", "ios": "https://dc.lft.to/lastmile_qr_scan"}, "type": "electric_scooter"}, {"is_reserved": 0, "is_disabled": 0, "fusion_lon": 0.0, "lat": 38.89755983333333, "name": "ea17ba955166af5aa27335cbf8bec642", "bike_id": "ea17ba955166af5aa27335cbf8bec642", "lon": -77.00952366666667, "fusion_lat": 0.0, "rental_uris": {"android": "https://dc.lft.to/lastmile_qr_scan", "ios": "https://dc.lft.to/lastmile_qr_scan"}, "type": "electric_scooter"}, {"is_reserved": 0, "is_disabled": 0, "fusion_lon": 0.0, "lat": 38.93263283333334, "name": "e6fc47c77da8498c60a16f62041d0d0e", "bike_id": "e6fc47c77da8498c60a16f62041d0d0e", "lon": -77.02053333333333, "fusion_lat": 0.0, "rental_uris": {"android": "https://dc.lft.to/lastmile_qr_scan", "ios": "https://dc.lft.to/lastmile_qr_scan"}, "type": "electric_scooter"}, {"is_reserved": 0, "is_disabled": 0, "fusion_lon": 0.0, "lat": 38.90142866666667, "name": "c877921f4fe7b26536b47568735e7ed9", "bike_id": "c877921f4fe7b26536b47568735e7ed9", "lon": -77.04015833333334, "fusion_lat": 0.0, "rental_uris": {"android": "https://dc.lft.to/lastmile_qr_scan", "ios": "https://dc.lft.to/lastmile_qr_scan"}, "type": "electric_scooter"}, {"is_reserved": 0, "is_disabled": 0, "fusion_lon": 0.0, "lat": 38.9086185, "name": "41a6d30b32a6c859c7ad1279ff78a16c", "bike_id": "41a6d30b32a6c859c7ad1279ff78a16c", "lon": -77.08081283333334, "fusion_lat": 0.0, "rental_uris": {"android": "https://dc.lft.to/lastmile_qr_scan", "ios": "https://dc.lft.to/lastmile_qr_scan"}, "type": "electric_bike"}, {"is_reserved": 0, "is_disabled": 0, "fusion_lon": 0.0, "lat": 38.91269666666667, "name": "1b4fc372cfc5a127e802652be891a3c8", "bike_id": "1b4fc372cfc5a127e802652be891a3c8", "lon": -77.0221625, "fusion_lat": 0.0, "rental_uris": {"android": "https://dc.lft.to/lastmile_qr_scan", "ios": "https://dc.lft.to/lastmile_qr_scan"}, "type": "electric_scooter"}, {"is_reserved": 0, "is_disabled": 0, "fusion_lon": 0.0, "lat": 38.91690166666667, "name": "2ba13d3590b953dcde213f3b3c292aa7", "bike_id": "2ba13d3590b953dcde213f3b3c292aa7", "lon": -77.03775533333334, "fusion_lat": 0.0, "rental_uris": {"android": "https://dc.lft.to/lastmile_qr_scan", "ios": "https://dc.lft.to/lastmile_qr_scan"}, "type": "electric_scooter"}, {"is_reserved": 0, "is_disabled": 0, "fusion_lon": 0.0, "lat": 38.93404116666667, "name": "55d8567e30f9c8e7a11f2cdbc66c98bd", "bike_id": "55d8567e30f9c8e7a11f2cdbc66c98bd", "lon": -77.04137683333333, "fusion_lat": 0.0, "rental_uris": {"android": "https://dc.lft.to/lastmile_qr_scan", "ios": "https://dc.lft.to/lastmile_qr_scan"}, "type": "electric_scooter"}, {"is_reserved": 0, "is_disabled": 0, "fusion_lon": 0.0, "lat": 38.885186, "name": "2fc43c4084b6cd800e3079318f462e2c", "bike_id": "2fc43c4084b6cd800e3079318f462e2c", "lon": -77.01478366666667, "fusion_lat": 0.0, "rental_uris": {"android": "https://dc.lft.to/lastmile_qr_scan", "ios": "https://dc.lft.to/lastmile_qr_scan"}, "type": "electric_scooter"}, {"is_reserved": 0, "is_disabled": 0, "fusion_lon": 0.0, "lat": 38.9201375, "name": "4ffe672635b32f52599bbf14e9c920ea", "bike_id": "4ffe672635b32f52599bbf14e9c920ea", "lon": -77.03172883333333, "fusion_lat": 0.0, "rental_uris": {"android": "https://dc.lft.to/lastmile_qr_scan", "ios": "https://dc.lft.to/lastmile_qr_scan"}, "type": "electric_scooter"}, {"is_reserved": 0, "is_disabled": 0, "fusion_lon": 0.0, "lat": 38.83861983333333, "name": "4454e4ee38d02c823a565ccda7adbf4b", "bike_id": "4454e4ee38d02c823a565ccda7adbf4b", "lon": -76.99487966666666, "fusion_lat": 0.0, "rental_uris": {"android": "https://dc.lft.to/lastmile_qr_scan", "ios": "https://dc.lft.to/lastmile_qr_scan"}, "type": "electric_bike"}, {"is_reserved": 0, "is_disabled": 0, "fusion_lon": 0.0, "lat": 38.9213055, "name": "b8b76ed4198b5e4b604d2c1a015c8600", "bike_id": "b8b76ed4198b5e4b604d2c1a015c8600", "lon": -77.01796466666667, "fusion_lat": 0.0, "rental_uris": {"android": "https://dc.lft.to/lastmile_qr_scan", "ios": "https://dc.lft.to/lastmile_qr_scan"}, "type": "electric_scooter"}, {"is_reserved": 0, "is_disabled": 0, "fusion_lon": 0.0, "lat": 38.929735, "name": "9c8b6e4f0dc4060604baac45398253ad", "bike_id": "9c8b6e4f0dc4060604baac45398253ad", "lon": -77.02805833333333, "fusion_lat": 0.0, "rental_uris": {"android": "https://dc.lft.to/lastmile_qr_scan", "ios": "https://dc.lft.to/lastmile_qr_scan"}, "type": "electric_scooter"}, {"is_reserved": 0, "is_disabled": 0, "fusion_lon": 0.0, "lat": 38.915442166666665, "name": "6fa2b617786e332e513a464d688678f3", "bike_id": "6fa2b617786e332e513a464d688678f3", "lon": -77.03182516666666, "fusion_lat": 0.0, "rental_uris": {"android": "https://dc.lft.to/lastmile_qr_scan", "ios": "https://dc.lft.to/lastmile_qr_scan"}, "type": "electric_scooter"}, {"is_reserved": 0, "is_disabled": 0, "fusion_lon": 0.0, "lat": 38.91836166666667, "name": "267b7ac953f55e09b8233d5944b7d47c", "bike_id": "267b7ac953f55e09b8233d5944b7d47c", "lon": -77.05320616666667, "fusion_lat": 0.0, "rental_uris": {"android": "https://dc.lft.to/lastmile_qr_scan", "ios": "https://dc.lft.to/lastmile_qr_scan"}, "type": "electric_scooter"}, {"is_reserved": 0, "is_disabled": 0, "fusion_lon": 0.0, "lat": 38.897095666666665, "name": "d2a58077b43303a471cba2325013b153", "bike_id": "d2a58077b43303a471cba2325013b153", "lon": -77.00844483333333, "fusion_lat": 0.0, "rental_uris": {"android": "https://dc.lft.to/lastmile_qr_scan", "ios": "https://dc.lft.to/lastmile_qr_scan"}, "type": "electric_scooter"}, {"is_reserved": 0, "is_disabled": 0, "fusion_lon": 0.0, "lat": 38.90862966666667, "name": "27ae0bca47a22291c7993a0e5d8f538b", "bike_id": "27ae0bca47a22291c7993a0e5d8f538b", "lon": -77.032167, "fusion_lat": 0.0, "rental_uris": {"android": "https://dc.lft.to/lastmile_qr_scan", "ios": "https://dc.lft.to/lastmile_qr_scan"}, "type": "electric_scooter"}, {"is_reserved": 0, "is_disabled": 0, "fusion_lon": 0.0, "lat": 38.93719333333333, "name": "cea694551862124605982f5e78262a75", "bike_id": "cea694551862124605982f5e78262a75", "lon": -77.02426683333333, "fusion_lat": 0.0, "rental_uris": {"android": "https://dc.lft.to/lastmile_qr_scan", "ios": "https://dc.lft.to/lastmile_qr_scan"}, "type": "electric_scooter"}, {"is_reserved": 0, "is_disabled": 0, "fusion_lon": 0.0, "lat": 38.872865833333336, "name": "4461c21f26886e2d25a165d70b900f01", "bike_id": "4461c21f26886e2d25a165d70b900f01", "lon": -77.00984733333334, "fusion_lat": 0.0, "rental_uris": {"android": "https://dc.lft.to/lastmile_qr_scan", "ios": "https://dc.lft.to/lastmile_qr_scan"}, "type": "electric_scooter"}, {"is_reserved": 0, "is_disabled": 0, "fusion_lon": 0.0, "lat": 38.914958, "name": "496479fa8536a4eeaa5f900a164661f3", "bike_id": "496479fa8536a4eeaa5f900a164661f3", "lon": -77.03212966666666, "fusion_lat": 0.0, "rental_uris": {"android": "https://dc.lft.to/lastmile_qr_scan", "ios": "https://dc.lft.to/lastmile_qr_scan"}, "type": "electric_scooter"}, {"is_reserved": 0, "is_disabled": 0, "fusion_lon": 0.0, "lat": 38.89856266666666, "name": "fb8fb945d3385d376277b24953749465", "bike_id": "fb8fb945d3385d376277b24953749465", "lon": -77.049001, "fusion_lat": 0.0, "rental_uris": {"android": "https://dc.lft.to/lastmile_qr_scan", "ios": "https://dc.lft.to/lastmile_qr_scan"}, "type": "electric_scooter"}, {"is_reserved": 0, "is_disabled": 0, "fusion_lon": 0.0, "lat": 38.923236333333335, "name": "0c2ae991a9c895830862fa14d377a667", "bike_id": "0c2ae991a9c895830862fa14d377a667", "lon": -77.04466416666666, "fusion_lat": 0.0, "rental_uris": {"android": "https://dc.lft.to/lastmile_qr_scan", "ios": "https://dc.lft.to/lastmile_qr_scan"}, "type": "electric_scooter"}, {"is_reserved": 0, "is_disabled": 0, "fusion_lon": 0.0, "lat": 38.89221583333333, "name": "39a676a2d55d4e95b91cd21df950364e", "bike_id": "39a676a2d55d4e95b91cd21df950364e", "lon": -77.02365283333333, "fusion_lat": 0.0, "rental_uris": {"android": "https://dc.lft.to/lastmile_qr_scan", "ios": "https://dc.lft.to/lastmile_qr_scan"}, "type": "electric_scooter"}, {"is_reserved": 0, "is_disabled": 0, "fusion_lon": 0.0, "lat": 38.87524033333333, "name": "7031d2b39ccd40ea1ff440fad8f8fd7b", "bike_id": "7031d2b39ccd40ea1ff440fad8f8fd7b", "lon": -77.01231916666667, "fusion_lat": 0.0, "rental_uris": {"android": "https://dc.lft.to/lastmile_qr_scan", "ios": "https://dc.lft.to/lastmile_qr_scan"}, "type": "electric_scooter"}, {"is_reserved": 0, "is_disabled": 0, "fusion_lon": 0.0, "lat": 38.923797, "name": "d4a697b616a9cec972462bdce5f5f435", "bike_id": "d4a697b616a9cec972462bdce5f5f435", "lon": -77.0225965, "fusion_lat": 0.0, "rental_uris": {"android": "https://dc.lft.to/lastmile_qr_scan", "ios": "https://dc.lft.to/lastmile_qr_scan"}, "type": "electric_scooter"}, {"is_reserved": 0, "is_disabled": 0, "fusion_lon": 0.0, "lat": 38.89548083333333, "name": "68225377f923db19c307713e3fa64957", "bike_id": "68225377f923db19c307713e3fa64957", "lon": -76.92658316666666, "fusion_lat": 0.0, "rental_uris": {"android": "https://dc.lft.to/lastmile_qr_scan", "ios": "https://dc.lft.to/lastmile_qr_scan"}, "type": "electric_scooter"}, {"is_reserved": 0, "is_disabled": 0, "fusion_lon": 0.0, "lat": 38.92462966666667, "name": "2621c1c27051049920cff506e75d5535", "bike_id": "2621c1c27051049920cff506e75d5535", "lon": -77.03803533333334, "fusion_lat": 0.0, "rental_uris": {"android": "https://dc.lft.to/lastmile_qr_scan", "ios": "https://dc.lft.to/lastmile_qr_scan"}, "type": "electric_scooter"}, {"is_reserved": 0, "is_disabled": 0, "fusion_lon": 0.0, "lat": 38.9226285, "name": "ff04b2972dac3effe9120f738e3580ab", "bike_id": "ff04b2972dac3effe9120f738e3580ab", "lon": -77.01949383333333, "fusion_lat": 0.0, "rental_uris": {"android": "https://dc.lft.to/lastmile_qr_scan", "ios": "https://dc.lft.to/lastmile_qr_scan"}, "type": "electric_scooter"}, {"is_reserved": 0, "is_disabled": 0, "fusion_lon": 0.0, "lat": 38.89221033333333, "name": "88ff762151e5c4848ed08e5f8f4e945b", "bike_id": "88ff762151e5c4848ed08e5f8f4e945b", "lon": -77.03979966666667, "fusion_lat": 0.0, "rental_uris": {"android": "https://dc.lft.to/lastmile_qr_scan", "ios": "https://dc.lft.to/lastmile_qr_scan"}, "type": "electric_scooter"}, {"is_reserved": 0, "is_disabled": 0, "fusion_lon": 0.0, "lat": 38.920952, "name": "e87bf695874087b7296261d7c5de7d23", "bike_id": "e87bf695874087b7296261d7c5de7d23", "lon": -77.02765533333333, "fusion_lat": 0.0, "rental_uris": {"android": "https://dc.lft.to/lastmile_qr_scan", "ios": "https://dc.lft.to/lastmile_qr_scan"}, "type": "electric_bike"}, {"is_reserved": 0, "is_disabled": 0, "fusion_lon": 0.0, "lat": 38.92574366666667, "name": "aa8089eb2be96f8fb8a060c6900a6c87", "bike_id": "aa8089eb2be96f8fb8a060c6900a6c87", "lon": -77.0256715, "fusion_lat": 0.0, "rental_uris": {"android": "https://dc.lft.to/lastmile_qr_scan", "ios": "https://dc.lft.to/lastmile_qr_scan"}, "type": "electric_scooter"}, {"is_reserved": 0, "is_disabled": 0, "fusion_lon": 0.0, "lat": 38.919637333333334, "name": "923db180f3c2f2b0a386e215e83cdcf8", "bike_id": "923db180f3c2f2b0a386e215e83cdcf8", "lon": -77.03193566666667, "fusion_lat": 0.0, "rental_uris": {"android": "https://dc.lft.to/lastmile_qr_scan", "ios": "https://dc.lft.to/lastmile_qr_scan"}, "type": "electric_scooter"}, {"is_reserved": 0, "is_disabled": 0, "fusion_lon": 0.0, "lat": 38.957629, "name": "74f1de4db213d3485969579557f5836d", "bike_id": "74f1de4db213d3485969579557f5836d", "lon": -77.009137, "fusion_lat": 0.0, "rental_uris": {"android": "https://dc.lft.to/lastmile_qr_scan", "ios": "https://dc.lft.to/lastmile_qr_scan"}, "type": "electric_scooter"}, {"is_reserved": 0, "is_disabled": 0, "fusion_lon": 0.0, "lat": 38.923154333333336, "name": "e22b8ce52300019fc8bdf1a9f7e8af4f", "bike_id": "e22b8ce52300019fc8bdf1a9f7e8af4f", "lon": -77.0271825, "fusion_lat": 0.0, "rental_uris": {"android": "https://dc.lft.to/lastmile_qr_scan", "ios": "https://dc.lft.to/lastmile_qr_scan"}, "type": "electric_scooter"}, {"is_reserved": 0, "is_disabled": 0, "fusion_lon": 0.0, "lat": 38.92408483333333, "name": "5177aa8cca9f327564fcba7e3bfd89e8", "bike_id": "5177aa8cca9f327564fcba7e3bfd89e8", "lon": -77.01945966666666, "fusion_lat": 0.0, "rental_uris": {"android": "https://dc.lft.to/lastmile_qr_scan", "ios": "https://dc.lft.to/lastmile_qr_scan"}, "type": "electric_scooter"}, {"is_reserved": 0, "is_disabled": 0, "fusion_lon": 0.0, "lat": 38.911819666666666, "name": "3bf54780f7b102ceed05058bb1e49ac3", "bike_id": "3bf54780f7b102ceed05058bb1e49ac3", "lon": -77.03145083333334, "fusion_lat": 0.0, "rental_uris": {"android": "https://dc.lft.to/lastmile_qr_scan", "ios": "https://dc.lft.to/lastmile_qr_scan"}, "type": "electric_scooter"}, {"is_reserved": 0, "is_disabled": 0, "fusion_lon": 0.0, "lat": 38.895004666666665, "name": "8a33177df1e6f770097fcacd58c53d98", "bike_id": "8a33177df1e6f770097fcacd58c53d98", "lon": -77.04636466666666, "fusion_lat": 0.0, "rental_uris": {"android": "https://dc.lft.to/lastmile_qr_scan", "ios": "https://dc.lft.to/lastmile_qr_scan"}, "type": "electric_scooter"}, {"is_reserved": 0, "is_disabled": 0, "fusion_lon": 0.0, "lat": 38.911828, "name": "2555e2fa7b17b474748319445d320ce6", "bike_id": "2555e2fa7b17b474748319445d320ce6", "lon": -77.042786, "fusion_lat": 0.0, "rental_uris": {"android": "https://dc.lft.to/lastmile_qr_scan", "ios": "https://dc.lft.to/lastmile_qr_scan"}, "type": "electric_scooter"}, {"is_reserved": 0, "is_disabled": 0, "fusion_lon": 0.0, "lat": 38.91807566666667, "name": "c50de44c886c6d85d8222a5c67bba197", "bike_id": "c50de44c886c6d85d8222a5c67bba197", "lon": -77.01417983333333, "fusion_lat": 0.0, "rental_uris": {"android": "https://dc.lft.to/lastmile_qr_scan", "ios": "https://dc.lft.to/lastmile_qr_scan"}, "type": "electric_scooter"}, {"is_reserved": 0, "is_disabled": 0, "fusion_lon": 0.0, "lat": 38.931885666666666, "name": "776267ee56b28ca4fbebf29a4a53eceb", "bike_id": "776267ee56b28ca4fbebf29a4a53eceb", "lon": -77.01868833333333, "fusion_lat": 0.0, "rental_uris": {"android": "https://dc.lft.to/lastmile_qr_scan", "ios": "https://dc.lft.to/lastmile_qr_scan"}, "type": "electric_scooter"}, {"is_reserved": 0, "is_disabled": 0, "fusion_lon": 0.0, "lat": 38.88704966666667, "name": "37f108fcef6ac79c8e19050b8776e679", "bike_id": "37f108fcef6ac79c8e19050b8776e679", "lon": -77.02175133333333, "fusion_lat": 0.0, "rental_uris": {"android": "https://dc.lft.to/lastmile_qr_scan", "ios": "https://dc.lft.to/lastmile_qr_scan"}, "type": "electric_scooter"}, {"is_reserved": 0, "is_disabled": 0, "fusion_lon": 0.0, "lat": 38.90735516666667, "name": "c86b7460b7b9b5d1956d724801e43b0a", "bike_id": "c86b7460b7b9b5d1956d724801e43b0a", "lon": -77.040493, "fusion_lat": 0.0, "rental_uris": {"android": "https://dc.lft.to/lastmile_qr_scan", "ios": "https://dc.lft.to/lastmile_qr_scan"}, "type": "electric_scooter"}, {"is_reserved": 0, "is_disabled": 0, "fusion_lon": 0.0, "lat": 38.87680366666667, "name": "c5e53834706648208c2540af216c51a3", "bike_id": "c5e53834706648208c2540af216c51a3", "lon": -77.01975116666667, "fusion_lat": 0.0, "rental_uris": {"android": "https://dc.lft.to/lastmile_qr_scan", "ios": "https://dc.lft.to/lastmile_qr_scan"}, "type": "electric_scooter"}, {"is_reserved": 0, "is_disabled": 0, "fusion_lon": 0.0, "lat": 38.928019666666664, "name": "d8099a04d073c03e520b6cdd94465b98", "bike_id": "d8099a04d073c03e520b6cdd94465b98", "lon": -77.02984383333333, "fusion_lat": 0.0, "rental_uris": {"android": "https://dc.lft.to/lastmile_qr_scan", "ios": "https://dc.lft.to/lastmile_qr_scan"}, "type": "electric_scooter"}, {"is_reserved": 0, "is_disabled": 0, "fusion_lon": 0.0, "lat": 38.91105566666667, "name": "e61a3516ca5cb5580024507ce7fc2182", "bike_id": "e61a3516ca5cb5580024507ce7fc2182", "lon": -77.03792316666667, "fusion_lat": 0.0, "rental_uris": {"android": "https://dc.lft.to/lastmile_qr_scan", "ios": "https://dc.lft.to/lastmile_qr_scan"}, "type": "electric_scooter"},