{"data": {"bikes": [{"fusion_lon": 0.0, "bike_id": "275c5179530e204edf33299ea7e1f748", "name": "275c5179530e204edf33299ea7e1f748", "type": "electric_bike", "lon": -76.98191249999999, "rental_uris": {"android": "https://dc.lft.to/lastmile_qr_scan", "ios": "https://dc.lft.to/lastmile_qr_scan"}, "lat": 38.9849595, "is_reserved": 0, "is_disabled": 0, "fusion_lat": 0.0}, {"fusion_lon": 0.0, "bike_id": "206031abaf0fcfa8deadb9045110a2e6", "name": "206031abaf0fcfa8deadb9045110a2e6", "type": "electric_scooter", "lon": -77.007301, "rental_uris": {"android": "https://dc.lft.to/lastmile_qr_scan", "ios": "https://dc.lft.to/lastmile_qr_scan"}, "lat": 38.89845, "is_reserved": 0, "is_disabled": 0, "fusion_lat": 0.0}, {"fusion_lon": 0.0, "bike_id": "5cd8d19b5b9ad65572cad270828bc3c3", "name": "5cd8d19b5b9ad65572cad270828bc3c3", "type": "electric_scooter", "lon": -77.03157033333333, "rental_uris": {"android": "https://dc.lft.to/lastmile_qr_scan", "ios": "https://dc.lft.to/lastmile_qr_scan"}, "lat": 38.92725266666667, "is_reserved": 0, "is_disabled": 0, "fusion_lat": 0.0}, {"fusion_lon": 0.0, "bike_id": "e44732c4e2e33ea32f462e3287f89b7f", "name": "e44732c4e2e33ea32f462e3287f89b7f", "type": "electric_scooter", "lon": -77.03859033333333, "rental_uris": {"android": "https://dc.lft.to/lastmile_qr_scan", "ios": "https://dc.lft.to/lastmile_qr_scan"}, "lat": 38.9180355, "is_reserved": 0, "is_disabled": 0, "fusion_lat": 0.0}, {"fusion_lon": 0.0, "bike_id": "94b4226fa35700e22e0eb22ac101ee05", "name": "94b4226fa35700e22e0eb22ac101ee05", "type": "electric_scooter", "lon": -76.99791083333334, "rental_uris": {"android": "https://dc.lft.to/lastmile_qr_scan", "ios": "https://dc.lft.to/lastmile_qr_scan"}, "lat": 38.95325533333333, "is_reserved": 0, "is_disabled": 0, "fusion_lat": 0.0}, {"fusion_lon": 0.0, "bike_id": "ff0bf9527836d9320579d916f2663db4", "name": "ff0bf9527836d9320579d916f2663db4", "type": "electric_scooter", "lon": -77.0077785, "rental_uris": {"android": "https://dc.lft.to/lastmile_qr_scan", "ios": "https://dc.lft.to/lastmile_qr_scan"}, "lat": 38.87660983333333, "is_reserved": 0, "is_disabled": 0, "fusion_lat": 0.0}, {"fusion_lon": 0.0, "bike_id": "5de03e86c9eae150f145bf352feaeca2", "name": "5de03e86c9eae150f145bf352feaeca2", "type": "electric_scooter", "lon": -77.03271266666667, "rental_uris": {"android": "https://dc.lft.to/lastmile_qr_scan", "ios": "https://dc.lft.to/lastmile_qr_scan"}, "lat": 38.932082666666666, "is_reserved": 0, "is_disabled": 0, "fusion_lat": 0.0}, {"fusion_lon": 0.0, "bike_id": "b86dd30964055caa31f601d9dd24f9a1", "name": "b86dd30964055caa31f601d9dd24f9a1", "type": "electric_scooter", "lon": -77.02575683333333, "rental_uris": {"android": "https://dc.lft.to/lastmile_qr_scan", "ios": "https://dc.lft.to/lastmile_qr_scan"}, "lat": 38.9250415, "is_reserved": 0, "is_disabled": 0, "fusion_lat": 0.0}, {"fusion_lon": 0.0, "bike_id": "e2963ba1173ea5ec30e32a7c474933ec", "name": "e2963ba1173ea5ec30e32a7c474933ec", "type": "electric_scooter", "lon": -77.0542745, "rental_uris": {"android": "https://dc.lft.to/lastmile_qr_scan", "ios": "https://dc.lft.to/lastmile_qr_scan"}, "lat": 38.9279725, "is_reserved": 0, "is_disabled": 0, "fusion_lat": 0.0}, {"fusion_lon": 0.0, "bike_id": "71e6f33b0c102ce5fdf637afbe2d07ca", "name": "71e6f33b0c102ce5fdf637afbe2d07ca", "type": "electric_scooter", "lon": -76.93745916666667, "rental_uris": {"android": "https://dc.lft.to/lastmile_qr_scan", "ios": "https://dc.lft.to/lastmile_qr_scan"}, "lat": 38.89007566666667, "is_reserved": 0, "is_disabled": 0, "fusion_lat": 0.0}, {"fusion_lon": 0.0, "bike_id": "9881f214f2a5a9a23d00667eccf63ade", "name": "9881f214f2a5a9a23d00667eccf63ade", "type": "electric_scooter", "lon": -76.985604, "rental_uris": {"android": "https://dc.lft.to/lastmile_qr_scan", "ios": "https://dc.lft.to/lastmile_qr_scan"}, "lat": 38.9200235, "is_reserved": 0, "is_disabled": 0, "fusion_lat": 0.0}, {"fusion_lon": 0.0, "bike_id": "c4caf7b4dc3bd405a33d03b12b3015a4", "name": "c4caf7b4dc3bd405a33d03b12b3015a4", "type": "electric_scooter", "lon": -76.9974, "rental_uris": {"android": "https://dc.lft.to/lastmile_qr_scan", "ios": "https://dc.lft.to/lastmile_qr_scan"}, "lat": 38.932587166666664, "is_reserved": 0, "is_disabled": 0, "fusion_lat": 0.0}, {"fusion_lon": 0.0, "bike_id": "46b087df3c86c2fac4499ecd9aaea66e", "name": "46b087df3c86c2fac4499ecd9aaea66e", "type": "electric_scooter", "lon": -77.03949716666666, "rental_uris": {"android": "https://dc.lft.to/lastmile_qr_scan", "ios": "https://dc.lft.to/lastmile_qr_scan"}, "lat": 38.903622, "is_reserved": 0, "is_disabled": 0, "fusion_lat": 0.0}, {"fusion_lon": 0.0, "bike_id": "bef4768089317978395a43a6d3d41db4", "name": "bef4768089317978395a43a6d3d41db4", "type": "electric_bike", "lon": -76.911227, "rental_uris": {"android": "https://dc.lft.to/lastmile_qr_scan", "ios": "https://dc.lft.to/lastmile_qr_scan"}, "lat": 39.010349833333336, "is_reserved": 0, "is_disabled": 0, "fusion_lat": 0.0}, {"fusion_lon": 0.0, "bike_id": "d9fc542d6a0e26886f2491f2a68d21d9", "name": "d9fc542d6a0e26886f2491f2a68d21d9", "type": "electric_scooter", "lon": -77.01041583333334, "rental_uris": {"android": "https://dc.lft.to/lastmile_qr_scan", "ios": "https://dc.lft.to/lastmile_qr_scan"}, "lat": 38.8844535, "is_reserved": 0, "is_disabled": 0, "fusion_lat": 0.0}, {"fusion_lon": 0.0, "bike_id": "6b23bf1193a51e8b64c18306d240786b", "name": "6b23bf1193a51e8b64c18306d240786b", "type": "electric_scooter", "lon": -77.052681, "rental_uris": {"android": "https://dc.lft.to/lastmile_qr_scan", "ios": "https://dc.lft.to/lastmile_qr_scan"}, "lat": 38.92756133333334, "is_reserved": 0, "is_disabled": 0, "fusion_lat": 0.0}, {"fusion_lon": 0.0, "bike_id": "974189108e90544d6367a01f1b547cc0", "name": "974189108e90544d6367a01f1b547cc0", "type": "electric_scooter", "lon": -76.98588166666667, "rental_uris": {"android": "https://dc.lft.to/lastmile_qr_scan", "ios": "https://dc.lft.to/lastmile_qr_scan"}, "lat": 38.88969383333333, "is_reserved": 0, "is_disabled": 0, "fusion_lat": 0.0}, {"fusion_lon": 0.0, "bike_id": "2d01bf15915b85ec6850f8b2ec93ef4d", "name": "2d01bf15915b85ec6850f8b2ec93ef4d", "type": "electric_scooter", "lon": -77.04798666666667, "rental_uris": {"android": "https://dc.lft.to/lastmile_qr_scan", "ios": "https://dc.lft.to/lastmile_qr_scan"}, "lat": 38.893715666666665, "is_reserved": 0, "is_disabled": 0, "fusion_lat": 0.0}, {"fusion_lon": 0.0, "bike_id": "256ef14cdb4bcd3b1d2554578d7ac509", "name": "256ef14cdb4bcd3b1d2554578d7ac509", "type": "electric_scooter", "lon": -77.01358783333333, "rental_uris": {"android": "https://dc.lft.to/lastmile_qr_scan", "ios": "https://dc.lft.to/lastmile_qr_scan"}, "lat": 38.90386983333333, "is_reserved": 0, "is_disabled": 0, "fusion_lat": 0.0}, {"fusion_lon": 0.0, "bike_id": "33a66fc671470f62312ee43875dc2e04", "name": "33a66fc671470f62312ee43875dc2e04", "type": "electric_scooter", "lon": -77.0320565, "rental_uris": {"android": "https://dc.lft.to/lastmile_qr_scan", "ios": "https://dc.lft.to/lastmile_qr_scan"}, "lat": 38.90775383333333, "is_reserved": 0, "is_disabled": 0, "fusion_lat": 0.0}, {"fusion_lon": 0.0, "bike_id": "a0feee0e150569c1cef6db21f35ebe31", "name": "a0feee0e150569c1cef6db21f35ebe31", "type": "electric_bike", "lon": -77.040415, "rental_uris": {"android": "https://dc.lft.to/lastmile_qr_scan", "ios": "https://dc.lft.to/lastmile_qr_scan"}, "lat": 38.90863, "is_reserved": 0, "is_disabled": 0, "fusion_lat": 0.0}, {"fusion_lon": 0.0, "bike_id": "9602a27f97a9a28aa0d57991c1eb1b1d", "name": "9602a27f97a9a28aa0d57991c1eb1b1d", "type": "electric_scooter", "lon": -77.032802, "rental_uris": {"android": "https://dc.lft.to/lastmile_qr_scan", "ios": "https://dc.lft.to/lastmile_qr_scan"}, "lat": 38.928553666666666, "is_reserved": 0, "is_disabled": 0, "fusion_lat": 0.0}, {"fusion_lon": 0.0, "bike_id": "eeaa3fb2645246251325751f9d2c94d4", "name": "eeaa3fb2645246251325751f9d2c94d4", "type": "electric_bike", "lon": -77.0916445, "rental_uris": {"android": "https://dc.lft.to/lastmile_qr_scan", "ios": "https://dc.lft.to/lastmile_qr_scan"}, "lat": 38.9675765, "is_reserved": 0, "is_disabled": 0, "fusion_lat": 0.0}, {"fusion_lon": 0.0, "bike_id": "476202bc071b9cbf218bd52f2a8eab86", "name": "476202bc071b9cbf218bd52f2a8eab86", "type": "electric_scooter", "lon": -77.046538, "rental_uris": {"android": "https://dc.lft.to/lastmile_qr_scan", "ios": "https://dc.lft.to/lastmile_qr_scan"}, "lat": 38.8929205, "is_reserved": 0, "is_disabled": 0, "fusion_lat": 0.0}, {"fusion_lon": 0.0, "bike_id": "0b3975442eeb6e2f7fc4ee7669fc94d8", "name": "0b3975442eeb6e2f7fc4ee7669fc94d8", "type": "electric_scooter", "lon": -77.043759, "rental_uris": {"android": "https://dc.lft.to/lastmile_qr_scan", "ios": "https://dc.lft.to/lastmile_qr_scan"}, "lat": 38.87425966666667, "is_reserved": 0, "is_disabled": 0, "fusion_lat": 0.0}, {"fusion_lon": 0.0, "bike_id": "8ea82c1aaee3dd5b822da6fa20f9344b", "name": "8ea82c1aaee3dd5b822da6fa20f9344b", "type": "electric_scooter", "lon": -76.99703783333334, "rental_uris": {"android": "https://dc.lft.to/lastmile_qr_scan", "ios": "https://dc.lft.to/lastmile_qr_scan"}, "lat": 38.83871533333333, "is_reserved": 0, "is_disabled": 0, "fusion_lat": 0.0}, {"fusion_lon": 0.0, "bike_id": "227cb5fc48898c831cae948e4f3018cb", "name": "227cb5fc48898c831cae948e4f3018cb", "type": "electric_scooter", "lon": -77.00513, "rental_uris": {"android": "https://dc.lft.to/lastmile_qr_scan", "ios": "https://dc.lft.to/lastmile_qr_scan"}, "lat": 38.87467266666667, "is_reserved": 0, "is_disabled": 0, "fusion_lat": 0.0}, {"fusion_lon": 0.0, "bike_id": "fe67e7bbf712b755c5455a89e6545837", "name": "fe67e7bbf712b755c5455a89e6545837", "type": "electric_scooter", "lon": -76.97223166666667, "rental_uris": {"android": "https://dc.lft.to/lastmile_qr_scan", "ios": "https://dc.lft.to/lastmile_qr_scan"}, "lat": 38.85445416666666, "is_reserved": 0, "is_disabled": 0, "fusion_lat": 0.0}, {"fusion_lon": 0.0, "bike_id": "cbdbaa7692a9032661f3a8c3177c53a8", "name": "cbdbaa7692a9032661f3a8c3177c53a8", "type": "electric_scooter", "lon": -77.03689666666666, "rental_uris": {"android": "https://dc.lft.to/lastmile_qr_scan", "ios": "https://dc.lft.to/lastmile_qr_scan"}, "lat": 38.92262083333333, "is_reserved": 0, "is_disabled": 0, "fusion_lat": 0.0}, {"fusion_lon": 0.0, "bike_id": "0d3eac8c337e614d5a5bc484412af5fc", "name": "0d3eac8c337e614d5a5bc484412af5fc", "type": "electric_bike", "lon": -77.0437755, "rental_uris": {"android": "https://dc.lft.to/lastmile_qr_scan", "ios": "https://dc.lft.to/lastmile_qr_scan"}, "lat": 38.90407666666667, "is_reserved": 0, "is_disabled": 0, "fusion_lat": 0.0}, {"fusion_lon": 0.0, "bike_id": "683f01c394dad0edad5195d45e6d2979", "name": "683f01c394dad0edad5195d45e6d2979", "type": "electric_scooter", "lon": -77.03724566666666, "rental_uris": {"android": "https://dc.lft.to/lastmile_qr_scan", "ios": "https://dc.lft.to/lastmile_qr_scan"}, "lat": 38.91820716666667, "is_reserved": 0, "is_disabled": 0, "fusion_lat": 0.0}, {"fusion_lon": 0.0, "bike_id": "0f23460c6eb3a4f8750386316565107a", "name": "0f23460c6eb3a4f8750386316565107a", "type": "electric_scooter", "lon": -77.033251, "rental_uris": {"android": "https://dc.lft.to/lastmile_qr_scan", "ios": "https://dc.lft.to/lastmile_qr_scan"}, "lat": 38.8998765, "is_reserved": 0, "is_disabled": 0, "fusion_lat": 0.0}, {"fusion_lon": 0.0, "bike_id": "777b4ded164fe041176f0b366174593f", "name": "777b4ded164fe041176f0b366174593f", "type": "electric_scooter", "lon": -76.99960483333334, "rental_uris": {"android": "https://dc.lft.to/lastmile_qr_scan", "ios": "https://dc.lft.to/lastmile_qr_scan"}, "lat": 38.893178166666665, "is_reserved": 0, "is_disabled": 0, "fusion_lat": 0.0}, {"fusion_lon": 0.0, "bike_id": "9d217ecc36a730ed2d7d6a72d1f93d7e", "name": "9d217ecc36a730ed2d7d6a72d1f93d7e", "type": "electric_scooter", "lon": -77.030501, "rental_uris": {"android": "https://dc.lft.to/lastmile_qr_scan", "ios": "https://dc.lft.to/lastmile_qr_scan"}, "lat": 38.939790333333335, "is_reserved": 0, "is_disabled": 0, "fusion_lat": 0.0}, {"fusion_lon": 0.0, "bike_id": "636a3596a92fa870715a4279363b352f", "name": "636a3596a92fa870715a4279363b352f", "type": "electric_scooter", "lon": -76.985869, "rental_uris": {"android": "https://dc.lft.to/lastmile_qr_scan", "ios": "https://dc.lft.to/lastmile_qr_scan"}, "lat": 38.8839745, "is_reserved": 0, "is_disabled": 0, "fusion_lat": 0.0}, {"fusion_lon": 0.0, "bike_id": "eaa3caa1051ce1a21506bc9651001e1c", "name": "eaa3caa1051ce1a21506bc9651001e1c", "type": "electric_bike", "lon": -77.36090883333334, "rental_uris": {"android": "https://dc.lft.to/lastmile_qr_scan", "ios": "https://dc.lft.to/lastmile_qr_scan"}, "lat": 38.93967516666667, "is_reserved": 0, "is_disabled": 0, "fusion_lat": 0.0}, {"fusion_lon": 0.0, "bike_id": "99a41ca8e9e26565bf36ef62e18148eb", "name": "99a41ca8e9e26565bf36ef62e18148eb", "type": "electric_scooter", "lon": -77.02603583333334, "rental_uris": {"android": "https://dc.lft.to/lastmile_qr_scan", "ios": "https://dc.lft.to/lastmile_qr_scan"}, "lat": 38.8836495, "is_reserved": 0, "is_disabled": 0, "fusion_lat": 0.0}, {"fusion_lon": 0.0, "bike_id": "236b8001fb56d67bd35611f0dfa8dc5c", "name": "236b8001fb56d67bd35611f0dfa8dc5c", "type": "electric_scooter", "lon": -77.0320105, "rental_uris": {"android": "https://dc.lft.to/lastmile_qr_scan", "ios": "https://dc.lft.to/lastmile_qr_scan"}, "lat": 38.89971516666667, "is_reserved": 0, "is_disabled": 0, "fusion_lat": 0.0}, {"fusion_lon": 0.0, "bike_id": "87b076674e5af53d2b715763e787ea2f", "name": "87b076674e5af53d2b715763e787ea2f", "type": "electric_scooter", "lon": -77.02171533333333, "rental_uris": {"android": "https://dc.lft.to/lastmile_qr_scan", "ios": "https://dc.lft.to/lastmile_qr_scan"}, "lat": 38.942883333333334, "is_reserved": 0, "is_disabled": 0, "fusion_lat": 0.0}, {"fusion_lon": 0.0, "bike_id": "08f3ea0d394838334de9ccf91ce98cd7", "name": "08f3ea0d394838334de9ccf91ce98cd7", "type": "electric_scooter", "lon": -77.04765133333333, "rental_uris": {"android": "https://dc.lft.to/lastmile_qr_scan", "ios": "https://dc.lft.to/lastmile_qr_scan"}, "lat": 38.909610666666666, "is_reserved": 0, "is_disabled": 0, "fusion_lat": 0.0}, {"fusion_lon": 0.0, "bike_id": "269478e405c717adefc0fcfa623ac55d", "name": "269478e405c717adefc0fcfa623ac55d", "type": "electric_scooter", "lon": -77.014026, "rental_uris": {"android": "https://dc.lft.to/lastmile_qr_scan", "ios": "https://dc.lft.to/lastmile_qr_scan"}, "lat": 38.879053, "is_reserved": 0, "is_disabled": 0, "fusion_lat": 0.0}, {"fusion_lon": 0.0, "bike_id": "98100edac7aed82be0412d9532b0ecfe", "name": "98100edac7aed82be0412d9532b0ecfe", "type": "electric_scooter", "lon": -77.021171, "rental_uris": {"android": "https://dc.lft.to/lastmile_qr_scan", "ios": "https://dc.lft.to/lastmile_qr_scan"}, "lat": 38.91733266666667, "is_reserved": 0, "is_disabled": 0, "fusion_lat": 0.0}, {"fusion_lon": 0.0, "bike_id": "431deb3803dc957f3b9a8495e32d5e85", "name": "431deb3803dc957f3b9a8495e32d5e85", "type": "electric_scooter", "lon": -77.03792666666666, "rental_uris": {"android": "https://dc.lft.to/lastmile_qr_scan", "ios": "https://dc.lft.to/lastmile_qr_scan"}, "lat": 38.926362, "is_reserved": 0, "is_disabled": 0, "fusion_lat": 0.0}, {"fusion_lon": 0.0, "bike_id": "becf04e541795f876302458756089d7e", "name": "becf04e541795f876302458756089d7e", "type": "electric_scooter", "lon": -77.04343816666666, "rental_uris": {"android": "https://dc.lft.to/lastmile_qr_scan", "ios": "https://dc.lft.to/lastmile_qr_scan"}, "lat": 38.9105115, "is_reserved": 0, "is_disabled": 0, "fusion_lat": 0.0}, {"fusion_lon": 0.0, "bike_id": "55ede8eb209ca8e355b2bffac111c17e", "name": "55ede8eb209ca8e355b2bffac111c17e", "type": "electric_scooter", "lon": -76.946337, "rental_uris": {"android": "https://dc.lft.to/lastmile_qr_scan", "ios": "https://dc.lft.to/lastmile_qr_scan"}, "lat": 38.89842433333333, "is_reserved": 0, "is_disabled": 0, "fusion_lat": 0.0}, {"fusion_lon": 0.0, "bike_id": "a180ca70034c25fa05d4b052aecc9cea", "name": "a180ca70034c25fa05d4b052aecc9cea", "type": "electric_scooter", "lon": -76.98992183333333, "rental_uris": {"android": "https://dc.lft.to/lastmile_qr_scan", "ios": "https://dc.lft.to/lastmile_qr_scan"}, "lat": 38.864428333333336, "is_reserved": 0, "is_disabled": 0, "fusion_lat": 0.0}, {"fusion_lon": 0.0, "bike_id": "d817d5c83a158bad71199a206ca281d4", "name": "d817d5c83a158bad71199a206ca281d4", "type": "electric_scooter", "lon": -77.03290083333333, "rental_uris": {"android": "https://dc.lft.to/lastmile_qr_scan", "ios": "https://dc.lft.to/lastmile_qr_scan"}, "lat": 38.956495, "is_reserved": 0, "is_disabled": 0, "fusion_lat": 0.0}, {"fusion_lon": 0.0, "bike_id": "7b93a7739e61575dc80fa96bb8859dde", "name": "7b93a7739e61575dc80fa96bb8859dde", "type": "electric_bike", "lon": -76.95165916666667, "rental_uris": {"android": "https://dc.lft.to/lastmile_qr_scan", "ios": "https://dc.lft.to/lastmile_qr_scan"}, "lat": 38.88509483333333, "is_reserved": 0, "is_disabled": 0, "fusion_lat": 0.0}, {"fusion_lon": 0.0, "bike_id": "7493abb0eed63d6af8cff0e3396a25f8", "name": "7493abb0eed63d6af8cff0e3396a25f8", "type": "electric_scooter", "lon": -77.04174533333334, "rental_uris": {"android": "https://dc.lft.to/lastmile_qr_scan", "ios": "https://dc.lft.to/lastmile_qr_scan"}, "lat": 38.91095, "is_reserved": 0, "is_disabled": 0, "fusion_lat": 0.0}, {"fusion_lon": 0.0, "bike_id": "daf695ff35e0ca7d0d973b974d9215d0", "name": "daf695ff35e0ca7d0d973b974d9215d0", "type": "electric_scooter", "lon": -77.049851, "rental_uris": {"android": "https://dc.lft.to/lastmile_qr_scan", "ios": "https://dc.lft.to/lastmile_qr_scan"}, "lat": 38.8967255, "is_reserved": 0, "is_disabled": 0, "fusion_lat": 0.0}, {"fusion_lon": 0.0, "bike_id": "f7c5768fc09941be26071ab0dfd15433", "name": "f7c5768fc09941be26071ab0dfd15433", "type": "electric_scooter", "lon": -77.045352, "rental_uris": {"android": "https://dc.lft.to/lastmile_qr_scan", "ios": "https://dc.lft.to/lastmile_qr_scan"}, "lat": 38.903877333333334, "is_reserved": 0, "is_disabled": 0, "fusion_lat": 0.0}, {"fusion_lon": 0.0, "bike_id": "44a2579581b82ed4ed001df3eeaa7f8d", "name": "44a2579581b82ed4ed001df3eeaa7f8d", "type": "electric_scooter", "lon": -77.01606816666667, "rental_uris": {"android": "https://dc.lft.to/lastmile_qr_scan", "ios": "https://dc.lft.to/lastmile_qr_scan"}, "lat": 38.87686933333333, "is_reserved": 0, "is_disabled": 0, "fusion_lat": 0.0}, {"fusion_lon": 0.0, "bike_id": "983ac5e80c61fa8d0a21d948952d93c6", "name": "983ac5e80c61fa8d0a21d948952d93c6", "type": "electric_scooter", "lon": -77.02964766666666, "rental_uris": {"android": "https://dc.lft.to/lastmile_qr_scan", "ios": "https://dc.lft.to/lastmile_qr_scan"}, "lat": 38.920716666666664, "is_reserved": 0, "is_disabled": 0, "fusion_lat": 0.0}, {"fusion_lon": 0.0, "bike_id": "e40b36001daa25b29b266d0846b3222a", "name": "e40b36001daa25b29b266d0846b3222a", "type": "electric_scooter", "lon": -77.04164066666667, "rental_uris": {"android": "https://dc.lft.to/lastmile_qr_scan", "ios": "https://dc.lft.to/lastmile_qr_scan"}, "lat": 38.917544, "is_reserved": 0, "is_disabled": 0, "fusion_lat": 0.0}, {"fusion_lon": 0.0, "bike_id": "8b54283fb174058742a326240f565eb6", "name": "8b54283fb174058742a326240f565eb6", "type": "electric_scooter", "lon": -77.02511416666667, "rental_uris": {"android": "https://dc.lft.to/lastmile_qr_scan", "ios": "https://dc.lft.to/lastmile_qr_scan"}, "lat": 38.9015805, "is_reserved": 0, "is_disabled": 0, "fusion_lat": 0.0}, {"fusion_lon": 0.0, "bike_id": "7fd060b0cb967ec2250fda80d1c4516e", "name": "7fd060b0cb967ec2250fda80d1c4516e", "type": "electric_scooter", "lon": -76.99368833333334, "rental_uris": {"android": "https://dc.lft.to/lastmile_qr_scan", "ios": "https://dc.lft.to/lastmile_qr_scan"}, "lat": 38.92401516666666, "is_reserved": 0, "is_disabled": 0, "fusion_lat": 0.0}, {"fusion_lon": 0.0, "bike_id": "cbeb777784484a84a581fd9b26b428cc", "name": "cbeb777784484a84a581fd9b26b428cc", "type": "electric_scooter", "lon": -77.03217733333334, "rental_uris": {"android": "https://dc.lft.to/lastmile_qr_scan", "ios": "https://dc.lft.to/lastmile_qr_scan"}, "lat": 38.892209, "is_reserved": 0, "is_disabled": 0, "fusion_lat": 0.0}, {"fusion_lon": 0.0, "bike_id": "2dfff34cbcdfd8286da0009627cc9799", "name": "2dfff34cbcdfd8286da0009627cc9799", "type": "electric_scooter", "lon": -77.0237385, "rental_uris": {"android": "https://dc.lft.to/lastmile_qr_scan", "ios": "https://dc.lft.to/lastmile_qr_scan"}, "lat": 38.907237, "is_reserved": 0, "is_disabled": 0, "fusion_lat": 0.0}, {"fusion_lon": 0.0, "bike_id": "3c7c1a768ddbd43961bb0e6c832759b7", "name": "3c7c1a768ddbd43961bb0e6c832759b7", "type": "electric_scooter", "lon": -77.03768566666666, "rental_uris": {"android": "https://dc.lft.to/lastmile_qr_scan", "ios": "https://dc.lft.to/lastmile_qr_scan"}, "lat": 38.91692716666667, "is_reserved": 0, "is_disabled": 0, "fusion_lat": 0.0}, {"fusion_lon": 0.0, "bike_id": "2e5d7b81fa34525ae53e0a043b41b91e", "name": "2e5d7b81fa34525ae53e0a043b41b91e", "type": "electric_scooter", "lon": -77.00598766666667, "rental_uris": {"android": "https://dc.lft.to/lastmile_qr_scan", "ios": "https://dc.lft.to/lastmile_qr_scan"}, "lat": 38.87641833333333, "is_reserved": 0, "is_disabled": 0, "fusion_lat": 0.0}, {"fusion_lon": 0.0, "bike_id": "fc3b0119573138d9c3327b94df5668ac", "name": "fc3b0119573138d9c3327b94df5668ac", "type": "electric_scooter", "lon": -77.03843916666666, "rental_uris": {"android": "https://dc.lft.to/lastmile_qr_scan", "ios": "https://dc.lft.to/lastmile_qr_scan"}, "lat": 38.916167, "is_reserved": 0, "is_disabled": 0, "fusion_lat": 0.0}, {"fusion_lon": 0.0, "bike_id": "d36c3161beef6c38e962e742efe1677c", "name": "d36c3161beef6c38e962e742efe1677c", "type": "electric_scooter", "lon": -77.04509483333334, "rental_uris": {"android": "https://dc.lft.to/lastmile_qr_scan", "ios": "https://dc.lft.to/lastmile_qr_scan"}, "lat": 38.912771666666664, "is_reserved": 0, "is_disabled": 0, "fusion_lat": 0.0}, {"fusion_lon": 0.0, "bike_id": "ad8122f6c6a4306ec791ae22607a717c", "name": "ad8122f6c6a4306ec791ae22607a717c", "type": "electric_scooter", "lon": -77.01099516666666, "rental_uris": {"android": "https://dc.lft.to/lastmile_qr_scan", "ios": "https://dc.lft.to/lastmile_qr_scan"}, "lat": 38.90554016666667, "is_reserved": 0, "is_disabled": 0, "fusion_lat": 0.0}, {"fusion_lon": 0.0, "bike_id": "ef0840ab298beac20233e95645b20f5e", "name": "ef0840ab298beac20233e95645b20f5e", "type": "electric_scooter", "lon": -76.99411183333333, "rental_uris": {"android": "https://dc.lft.to/lastmile_qr_scan", "ios": "https://dc.lft.to/lastmile_qr_scan"}, "lat": 38.877833333333335, "is_reserved": 0, "is_disabled": 0, "fusion_lat": 0.0}, {"fusion_lon": 0.0, "bike_id": "8a0b6acbc2a1eb1ddc2a5df59779892b", "name": "8a0b6acbc2a1eb1ddc2a5df59779892b", "type": "electric_scooter", "lon": -76.99163916666667, "rental_uris": {"android": "https://dc.lft.to/lastmile_qr_scan", "ios": "https://dc.lft.to/lastmile_qr_scan"}, "lat": 38.879104, "is_reserved": 0, "is_disabled": 0, "fusion_lat": 0.0}, {"fusion_lon": 0.0, "bike_id": "9ade0388e50776de673ac1ed7137b199", "name": "9ade0388e50776de673ac1ed7137b199", "type": "electric_scooter", "lon": -77.034674, "rental_uris": {"android": "https://dc.lft.to/lastmile_qr_scan", "ios": "https://dc.lft.to/lastmile_qr_scan"}, "lat": 38.905742333333336, "is_reserved": 0, "is_disabled": 0, "fusion_lat": 0.0}, {"fusion_lon": 0.0, "bike_id": "a380c0363decc85e65b57ebdf2d5f521", "name": "a380c0363decc85e65b57ebdf2d5f521", "type": "electric_scooter", "lon": -77.0476015, "rental_uris": {"android": "https://dc.lft.to/lastmile_qr_scan", "ios": "https://dc.lft.to/lastmile_qr_scan"}, "lat": 38.902472333333336, "is_reserved": 0, "is_disabled": 0, "fusion_lat": 0.0}, {"fusion_lon": 0.0, "bike_id": "96173d7144f1681c5a894e907ddfa2de", "name": "96173d7144f1681c5a894e907ddfa2de", "type": "electric_bike", "lon": -76.93545916666666, "rental_uris": {"android": "https://dc.lft.to/lastmile_qr_scan", "ios": "https://dc.lft.to/lastmile_qr_scan"}, "lat": 38.955583833333336, "is_reserved": 0, "is_disabled": 0, "fusion_lat": 0.0}, {"fusion_lon": 0.0, "bike_id": "a9f0e51133799f0874cee3b3ec4acb3d", "name": "a9f0e51133799f0874cee3b3ec4acb3d", "type": "electric_scooter", "lon": -77.03855183333333, "rental_uris": {"android": "https://dc.lft.to/lastmile_qr_scan", "ios": "https://dc.lft.to/lastmile_qr_scan"}, "lat": 38.932153, "is_reserved": 0, "is_disabled": 0, "fusion_lat": 0.0}, {"fusion_lon": 0.0, "bike_id": "228b1d1101b2578d3c14265c02711fc5", "name": "228b1d1101b2578d3c14265c02711fc5", "type": "electric_scooter", "lon": -77.07864416666666, "rental_uris": {"android": "https://dc.lft.to/lastmile_qr_scan", "ios": "https://dc.lft.to/lastmile_qr_scan"}, "lat": 38.92460533333333, "is_reserved": 0, "is_disabled": 0, "fusion_lat": 0.0}, {"fusion_lon": 0.0, "bike_id": "c87e9934130bf4dc6beb616a9ecd6915", "name": "c87e9934130bf4dc6beb616a9ecd6915", "type": "electric_scooter", "lon": -77.0285285, "rental_uris": {"android": "https://dc.lft.to/lastmile_qr_scan", "ios": "https://dc.lft.to/lastmile_qr_scan"}, "lat": 38.90036833333333, "is_reserved": 0, "is_disabled": 0, "fusion_lat": 0.0}, {"fusion_lon": 0.0, "bike_id": "40556ec37b7f9c63a7aaa7d75a8c3942", "name": "40556ec37b7f9c63a7aaa7d75a8c3942", "type": "electric_bike", "lon": -77.12256166666667, "rental_uris": {"android": "https://dc.lft.to/lastmile_qr_scan", "ios": "https://dc.lft.to/lastmile_qr_scan"}, "lat": 38.887660333333336, "is_reserved": 0, "is_disabled": 0, "fusion_lat": 0.0}, {"fusion_lon": 0.0, "bike_id": "766a18b995d69af30d182ed6485a0bd6", "name": "766a18b995d69af30d182ed6485a0bd6", "type": "electric_scooter", "lon": -77.0478585, "rental_uris": {"android": "https://dc.lft.to/lastmile_qr_scan", "ios": "https://dc.lft.to/lastmile_qr_scan"}, "lat": 38.902338666666665, "is_reserved": 0, "is_disabled": 0, "fusion_lat": 0.0}, {"fusion_lon": 0.0, "bike_id": "d45cb7e0bc59d35d39b87957f39b3d41", "name": "d45cb7e0bc59d35d39b87957f39b3d41", "type": "electric_scooter", "lon": -77.03185266666667, "rental_uris": {"android": "https://dc.lft.to/lastmile_qr_scan", "ios": "https://dc.lft.to/lastmile_qr_scan"}, "lat": 38.89999816666667, "is_reserved": 0, "is_disabled": 0, "fusion_lat": 0.0}, {"fusion_lon": 0.0, "bike_id": "7dab358b7dc2e0a17aeac0a4f70caf1f", "name": "7dab358b7dc2e0a17aeac0a4f70caf1f", "type": "electric_scooter", "lon": -77.03019666666667, "rental_uris": {"android": "https://dc.lft.to/lastmile_qr_scan", "ios": "https://dc.lft.to/lastmile_qr_scan"}, "lat": 38.92663233333333, "is_reserved": 0, "is_disabled": 0, "fusion_lat": 0.0}, {"fusion_lon": 0.0, "bike_id": "72550de4dee09f2c1a3542a764d365bf", "name": "72550de4dee09f2c1a3542a764d365bf", "type": "electric_scooter", "lon": -77.00978233333333, "rental_uris": {"android": "https://dc.lft.to/lastmile_qr_scan", "ios": "https://dc.lft.to/lastmile_qr_scan"}, "lat": 38.919633833333336, "is_reserved": 0, "is_disabled": 0, "fusion_lat": 0.0}, {"fusion_lon": 0.0, "bike_id": "2a1762eddc43002c2b85d0ca802f9f60", "name": "2a1762eddc43002c2b85d0ca802f9f60", "type": "electric_scooter", "lon": -77.04586583333334, "rental_uris": {"android": "https://dc.lft.to/lastmile_qr_scan", "ios": "https://dc.lft.to/lastmile_qr_scan"}, "lat": 38.902643, "is_reserved": 0, "is_disabled": 0, "fusion_lat": 0.0}, {"fusion_lon": 0.0, "bike_id": "085f69174f616dda42e00ae1b9022a3f", "name": "085f69174f616dda42e00ae1b9022a3f", "type": "electric_scooter", "lon": -77.00897066666667, "rental_uris": {"android": "https://dc.lft.to/lastmile_qr_scan", "ios": "https://dc.lft.to/lastmile_qr_scan"}, "lat": 38.9022225, "is_reserved": 0, "is_disabled": 0, "fusion_lat": 0.0}, {"fusion_lon": 0.0, "bike_id": "a12b6cc137859a4774c78b5b6e967751", "name": "a12b6cc137859a4774c78b5b6e967751", "type": "electric_bike", "lon": -77.1121945, "rental_uris": {"android": "https://dc.lft.to/lastmile_qr_scan", "ios": "https://dc.lft.to/lastmile_qr_scan"}, "lat": 38.82873566666667, "is_reserved": 0, "is_disabled": 0, "fusion_lat": 0.0}, {"fusion_lon": 0.0, "bike_id": "3bda491f9ef6821c24d898c84c44294c", "name": "3bda491f9ef6821c24d898c84c44294c", "type": "electric_scooter", "lon": -76.99818, "rental_uris": {"android": "https://dc.lft.to/lastmile_qr_scan", "ios": "https://dc.lft.to/lastmile_qr_scan"}, "lat": 38.9072125, "is_reserved": 0, "is_disabled": 0, "fusion_lat": 0.0}, {"fusion_lon": 0.0, "bike_id": "4197fb42d96a98d3f8668ff6955a45d8", "name": "4197fb42d96a98d3f8668ff6955a45d8", "type": "electric_bike", "lon": -77.07685333333333, "rental_uris": {"android": "https://dc.lft.to/lastmile_qr_scan", "ios": "https://dc.lft.to/lastmile_qr_scan"}, "lat": 38.831926, "is_reserved": 0, "is_disabled": 0, "fusion_lat": 0.0}, {"fusion_lon": 0.0, "bike_id": "2d3accaf114db16abdf3ec6c7702531f", "name": "2d3accaf114db16abdf3ec6c7702531f", "type": "electric_bike", "lon": -76.961772, "rental_uris": {"android": "https://dc.lft.to/lastmile_qr_scan", "ios": "https://dc.lft.to/lastmile_qr_scan"}, "lat": 38.9186325, "is_reserved": 0, "is_disabled": 0, "fusion_lat": 0.0}, {"fusion_lon": 0.0, "bike_id": "261ff76ba082a94f2a54d0ad1a8f1002", "name": "261ff76ba082a94f2a54d0ad1a8f1002", "type": "electric_scooter", "lon": -77.0467205, "rental_uris": {"android": "https://dc.lft.to/lastmile_qr_scan", "ios": "https://dc.lft.to/lastmile_qr_scan"}, "lat": 38.90519116666667, "is_reserved": 0, "is_disabled": 0, "fusion_lat": 0.0}, {"fusion_lon": 0.0, "bike_id": "d7cab271a1b91b3d81d6ce5bf2ce987c", "name": "d7cab271a1b91b3d81d6ce5bf2ce987c", "type": "electric_scooter", "lon": -77.0175105, "rental_uris": {"android": "https://dc.lft.to/lastmile_qr_scan", "ios": "https://dc.lft.to/lastmile_qr_scan"}, "lat": 38.88624, "is_reserved": 0, "is_disabled": 0, "fusion_lat": 0.0}, {"fusion_lon": 0.0, "bike_id": "2e954b12b436dc62b253e88a88a58afb", "name": "2e954b12b436dc62b253e88a88a58afb", "type": "electric_scooter", "lon": -77.0465445, "rental_uris": {"android": "https://dc.lft.to/lastmile_qr_scan", "ios": "https://dc.lft.to/lastmile_qr_scan"}, "lat": 38.892341, "is_reserved": 0, "is_disabled": 0, "fusion_lat": 0.0}, {"fusion_lon": 0.0, "bike_id": "9228bca879ba4a35f5a87213c1f914f6", "name": "9228bca879ba4a35f5a87213c1f914f6", "type": "electric_scooter", "lon": -77.0174385, "rental_uris": {"android": "https://dc.lft.to/lastmile_qr_scan", "ios": "https://dc.lft.to/lastmile_qr_scan"}, "lat": 38.8728025, "is_reserved": 0, "is_disabled": 0, "fusion_lat": 0.0}, {"fusion_lon": 0.0, "bike_id": "b2dd1a4b5ddd61a2f311c67554415e46", "name": "b2dd1a4b5ddd61a2f311c67554415e46", "type": "electric_bike", "lon": -77.08169116666667, "rental_uris": {"android": "https://dc.lft.to/lastmile_qr_scan", "ios": "https://dc.lft.to/lastmile_qr_scan"}, "lat": 38.88884733333333, "is_reserved": 0, "is_disabled": 0, "fusion_lat": 0.0}, {"fusion_lon": 0.0, "bike_id": "4d8e4d790ba98e312a4da49281c29841", "name": "4d8e4d790ba98e312a4da49281c29841", "type": "electric_scooter", "lon": -76.933816, "rental_uris": {"android": "https://dc.lft.to/lastmile_qr_scan", "ios": "https://dc.lft.to/lastmile_qr_scan"}, "lat": 38.899073, "is_reserved": 0, "is_disabled": 0, "fusion_lat": 0.0}, {"fusion_lon": 0.0, "bike_id": "9c1774291e94191e7625d32222003096", "name": "9c1774291e94191e7625d32222003096", "type": "electric_scooter", "lon": -77.0386315, "rental_uris": {"android": "https://dc.lft.to/lastmile_qr_scan", "ios": "https://dc.lft.to/lastmile_qr_scan"}, "lat": 38.903066, "is_reserved": 0, "is_disabled": 0, "fusion_lat": 0.0}, {"fusion_lon": 0.0, "bike_id": "53b300ea788355a410a34b241bea92de", "name": "53b300ea788355a410a34b241bea92de", "type": "electric_scooter", "lon": -77.03894966666667, "rental_uris": {"android": "https://dc.lft.to/lastmile_qr_scan", "ios": "https://dc.lft.to/lastmile_qr_scan"}, "lat": 38.922312, "is_reserved": 0, "is_disabled": 0, "fusion_lat": 0.0}, {"fusion_lon": 0.0, "bike_id": "b58aa77e54249cb3acc1f9d33791b7f9", "name": "b58aa77e54249cb3acc1f9d33791b7f9", "type": "electric_scooter", "lon": -77.032508, "rental_uris": {"android": "https://dc.lft.to/lastmile_qr_scan", "ios": "https://dc.lft.to/lastmile_qr_scan"}, "lat": 38.929104333333335, "is_reserved": 0, "is_disabled": 0, "fusion_lat": 0.0}, {"fusion_lon": 0.0, "bike_id": "a0f654a8d17f2746f4c1a54bba3d34d3", "name": "a0f654a8d17f2746f4c1a54bba3d34d3", "type": "electric_scooter", "lon": -77.03362283333334, "rental_uris": {"android": "https://dc.lft.to/lastmile_qr_scan", "ios": "https://dc.lft.to/lastmile_qr_scan"}, "lat": 38.92445683333333, "is_reserved": 0, "is_disabled": 0, "fusion_lat": 0.0}, {"fusion_lon": 0.0, "bike_id": "0d9922b7e3b5d8d2876371dd64df6362", "name": "0d9922b7e3b5d8d2876371dd64df6362", "type": "electric_scooter", "lon": -77.02595333333333, "rental_uris": {"android": "https://dc.lft.to/lastmile_qr_scan", "ios": "https://dc.lft.to/lastmile_qr_scan"}, "lat": 38.975811, "is_reserved": 0, "is_disabled": 0, "fusion_lat": 0.0}, {"fusion_lon": 0.0, "bike_id": "07a6b8ad3faadbb0631abb6f84f7f335", "name": "07a6b8ad3faadbb0631abb6f84f7f335", "type": "electric_scooter", "lon": -77.02271766666667, "rental_uris": {"android": "https://dc.lft.to/lastmile_qr_scan", "ios": "https://dc.lft.to/lastmile_qr_scan"}, "lat": 38.887353, "is_reserved": 0, "is_disabled": 0, "fusion_lat": 0.0}, {"fusion_lon": 0.0, "bike_id": "a0b4fc89a6a7c7e938ce5f4172e66195", "name": "a0b4fc89a6a7c7e938ce5f4172e66195", "type": "electric_scooter", "lon": -77.02485466666667, "rental_uris": {"android": "https://dc.lft.to/lastmile_qr_scan", "ios": "https://dc.lft.to/lastmile_qr_scan"}, "lat": 38.927426, "is_reserved": 0, "is_disabled": 0, "fusion_lat": 0.0}, {"fusion_lon": 0.0, "bike_id": "30078164ba9cf5ad37750a4a775d50f6", "name": "30078164ba9cf5ad37750a4a775d50f6", "type": "electric_scooter", "lon": -77.04555683333334, "rental_uris": {"android": "https://dc.lft.to/lastmile_qr_scan", "ios": "https://dc.lft.to/lastmile_qr_scan"}, "lat": 38.90737716666667, "is_reserved": 0, "is_disabled": 0, "fusion_lat": 0.0}, {"fusion_lon": 0.0, "bike_id": "5c2b093b9a3d32387664e1370eedec01", "name": "5c2b093b9a3d32387664e1370eedec01", "type": "electric_scooter", "lon": -77.01579966666667, "rental_uris": {"android": "https://dc.lft.to/lastmile_qr_scan", "ios": "https://dc.lft.to/lastmile_qr_scan"}, "lat": 38.87646316666667, "is_reserved": 0, "is_disabled": 0, "fusion_lat": 0.0}, {"fusion_lon": 0.0, "bike_id": "a91a101f521d0f3ce8982708776d2d7c", "name": "a91a101f521d0f3ce8982708776d2d7c", "type": "electric_scooter", "lon": -77.02533666666666, "rental_uris": {"android": "https://dc.lft.to/lastmile_qr_scan", "ios": "https://dc.lft.to/lastmile_qr_scan"}, "lat": 38.92087633333333, "is_reserved": 0, "is_disabled": 0, "fusion_lat": 0.0}, {"fusion_lon": 0.0, "bike_id": "329ad7f64a7f33ae9f35ebb9a49af2ce", "name": "329ad7f64a7f33ae9f35ebb9a49af2ce", "type": "electric_scooter", "lon": -77.03397333333334, "rental_uris": {"android": "https://dc.lft.to/lastmile_qr_scan", "ios": "https://dc.lft.to/lastmile_qr_scan"}, "lat": 38.938455, "is_reserved": 0, "is_disabled": 0, "fusion_lat": 0.0}, {"fusion_lon": 0.0, "bike_id": "9f86284b0f8df2e262f878347fc79f31", "name": "9f86284b0f8df2e262f878347fc79f31", "type": "electric_scooter", "lon": -77.03163816666667, "rental_uris": {"android": "https://dc.lft.to/lastmile_qr_scan", "ios": "https://dc.lft.to/lastmile_qr_scan"}, "lat": 38.901192333333334, "is_reserved": 0, "is_disabled": 0, "fusion_lat": 0.0}, {"fusion_lon": 0.0, "bike_id": "bac66bb7506d1e1cac9fd60ae16221dc", "name": "bac66bb7506d1e1cac9fd60ae16221dc", "type": "electric_scooter", "lon": -77.0412775, "rental_uris": {"android": "https://dc.lft.to/lastmile_qr_scan", "ios": "https://dc.lft.to/lastmile_qr_scan"}, "lat": 38.906025666666665, "is_reserved": 0, "is_disabled": 0, "fusion_lat": 0.0}, {"fusion_lon": 0.0, "bike_id": "2f8fc1e8ee997cb51c8580cdd32fa19b", "name": "2f8fc1e8ee997cb51c8580cdd32fa19b", "type": "electric_scooter", "lon": -77.06347416666667, "rental_uris": {"android": "https://dc.lft.to/lastmile_qr_scan", "ios": "https://dc.lft.to/lastmile_qr_scan"}, "lat": 38.91333766666666, "is_reserved": 0, "is_disabled": 0, "fusion_lat": 0.0}, {"fusion_lon": 0.0, "bike_id": "a2bf2874f93e0dd0b021de57089ec80b", "name": "a2bf2874f93e0dd0b021de57089ec80b", "type": "electric_scooter", "lon": -76.94653516666666, "rental_uris": {"android": "https://dc.lft.to/lastmile_qr_scan", "ios": "https://dc.lft.to/lastmile_qr_scan"}, "lat": 38.89827283333333, "is_reserved": 0, "is_disabled": 0, "fusion_lat": 0.0}, {"fusion_lon": 0.0, "bike_id": "553bc93475ddbc4b5d7c3708f46ade1d", "name": "553bc93475ddbc4b5d7c3708f46ade1d", "type": "electric_scooter", "lon": -77.03189933333333, "rental_uris": {"android": "https://dc.lft.to/lastmile_qr_scan", "ios": "https://dc.lft.to/lastmile_qr_scan"}, "lat": 38.9192745, "is_reserved": 0, "is_disabled": 0, "fusion_lat": 0.0}, {"fusion_lon": 0.0, "bike_id": "4e97f98d875538cce4328a5808d50fcc", "name": "4e97f98d875538cce4328a5808d50fcc", "type": "electric_scooter", "lon": -77.0482935, "rental_uris": {"android": "https://dc.lft.to/lastmile_qr_scan", "ios": "https://dc.lft.to/lastmile_qr_scan"}, "lat": 38.8983855, "is_reserved": 0, "is_disabled": 0, "fusion_lat": 0.0}, {"fusion_lon": 0.0, "bike_id": "0df7d0179be664061fdbce7f3fc2e32f", "name": "0df7d0179be664061fdbce7f3fc2e32f", "type": "electric_bike", "lon": -77.353123, "rental_uris": {"android": "https://dc.lft.to/lastmile_qr_scan", "ios": "https://dc.lft.to/lastmile_qr_scan"}, "lat": 38.949984, "is_reserved": 0, "is_disabled": 0, "fusion_lat": 0.0}, {"fusion_lon": 0.0, "bike_id": "933c5f982a774d5e2477fc7409bf8c99", "name": "933c5f982a774d5e2477fc7409bf8c99", "type": "electric_scooter", "lon": -77.0399905, "rental_uris": {"android": "https://dc.lft.to/lastmile_qr_scan", "ios": "https://dc.lft.to/lastmile_qr_scan"}, "lat": 38.914107666666666, "is_reserved": 0, "is_disabled": 0, "fusion_lat": 0.0}, {"fusion_lon": 0.0, "bike_id": "005a1246fd51bdac2228c36660d0f195", "name": "005a1246fd51bdac2228c36660d0f195", "type": "electric_bike", "lon": -77.07042, "rental_uris": {"android": "https://dc.lft.to/lastmile_qr_scan", "ios": "https://dc.lft.to/lastmile_qr_scan"}, "lat": 38.824416, "is_reserved": 0, "is_disabled": 0, "fusion_lat": 0.0}, {"fusion_lon": 0.0, "bike_id": "864f94996c20e4de84f0da1c5aba7685", "name": "864f94996c20e4de84f0da1c5aba7685", "type": "electric_scooter", "lon": -77.023056, "rental_uris": {"android": "https://dc.lft.to/lastmile_qr_scan", "ios": "https://dc.lft.to/lastmile_qr_scan"}, "lat": 38.901533666666666, "is_reserved": 0, "is_disabled": 0, "fusion_lat": 0.0}, {"fusion_lon": 0.0, "bike_id": "c61c650df95b821bc2536d4b7749b686", "name": "c61c650df95b821bc2536d4b7749b686", "type": "electric_scooter", "lon": -77.063933, "rental_uris": {"android": "https://dc.lft.to/lastmile_qr_scan", "ios": "https://dc.lft.to/lastmile_qr_scan"}, "lat": 38.9290195, "is_reserved": 0, "is_disabled": 0, "fusion_lat": 0.0}, {"fusion_lon": 0.0, "bike_id": "08ac5e9337340523fcee8c071ca2ebfd", "name": "08ac5e9337340523fcee8c071ca2ebfd", "type": "electric_bike", "lon": -77.03653383333334, "rental_uris": {"android": "https://dc.lft.to/lastmile_qr_scan", "ios": "https://dc.lft.to/lastmile_qr_scan"}, "lat": 38.95019966666667, "is_reserved": 0, "is_disabled": 0, "fusion_lat": 0.0}, {"fusion_lon": 0.0, "bike_id": "69f18de3667a05da00186d03cb73564c", "name": "69f18de3667a05da00186d03cb73564c", "type": "electric_scooter", "lon": -76.98702533333334, "rental_uris": {"android": "https://dc.lft.to/lastmile_qr_scan", "ios": "https://dc.lft.to/lastmile_qr_scan"}, "lat": 38.86532583333333, "is_reserved": 0, "is_disabled": 0, "fusion_lat": 0.0}, {"fusion_lon": 0.0, "bike_id": "e614a9a51f723176482c2419ccc33228", "name": "e614a9a51f723176482c2419ccc33228", "type": "electric_scooter", "lon": -76.94650983333334, "rental_uris": {"android": "https://dc.lft.to/lastmile_qr_scan", "ios": "https://dc.lft.to/lastmile_qr_scan"}, "lat": 38.898226, "is_reserved": 0, "is_disabled": 0, "fusion_lat": 0.0}, {"fusion_lon": 0.0, "bike_id": "684eac4210115da65a78bef02cf818dc", "name": "684eac4210115da65a78bef02cf818dc", "type": "electric_scooter", "lon": -76.99445733333333, "rental_uris": {"android": "https://dc.lft.to/lastmile_qr_scan", "ios": "https://dc.lft.to/lastmile_qr_scan"}, "lat": 38.905032166666665, "is_reserved": 0, "is_disabled": 0, "fusion_lat": 0.0}, {"fusion_lon": 0.0, "bike_id": "1f09e3c46d708831534e491fdcb99fb2", "name": "1f09e3c46d708831534e491fdcb99fb2", "type": "electric_scooter", "lon": -77.04558166666666, "rental_uris": {"android": "https://dc.lft.to/lastmile_qr_scan", "ios": "https://dc.lft.to/lastmile_qr_scan"}, "lat": 38.913664833333335, "is_reserved": 0, "is_disabled": 0, "fusion_lat": 0.0}, {"fusion_lon": 0.0, "bike_id": "94ce0024c24e1a553f19387506c83258", "name": "94ce0024c24e1a553f19387506c83258", "type": "electric_bike", "lon": -76.9009285, "rental_uris": {"android": "https://dc.lft.to/lastmile_qr_scan", "ios": "https://dc.lft.to/lastmile_qr_scan"}, "lat": 38.887473666666665, "is_reserved": 0, "is_disabled": 0, "fusion_lat": 0.0}, {"fusion_lon": 0.0, "bike_id": "0b1873a72dad39a55dec62813478d926", "name": "0b1873a72dad39a55dec62813478d926", "type": "electric_bike", "lon": -77.12813083333333, "rental_uris": {"android": "https://dc.lft.to/lastmile_qr_scan", "ios": "https://dc.lft.to/lastmile_qr_scan"}, "lat": 38.86528216666667, "is_reserved": 0, "is_disabled": 0, "fusion_lat": 0.0}, {"fusion_lon": 0.0, "bike_id": "54188ea6c62602861dcb0441996f7382", "name": "54188ea6c62602861dcb0441996f7382", "type": "electric_scooter", "lon": -76.95461716666667, "rental_uris": {"android": "https://dc.lft.to/lastmile_qr_scan", "ios": "https://dc.lft.to/lastmile_qr_scan"}, "lat": 38.888088, "is_reserved": 0, "is_disabled": 0, "fusion_lat": 0.0}, {"fusion_lon": 0.0, "bike_id": "98405118fb83aa4495734f0b3fda9adf", "name": "98405118fb83aa4495734f0b3fda9adf", "type": "electric_bike", "lon": -77.12984566666667, "rental_uris": {"android": "https://dc.lft.to/lastmile_qr_scan", "ios": "https://dc.lft.to/lastmile_qr_scan"}, "lat": 38.79988933333333, "is_reserved": 0, "is_disabled": 0, "fusion_lat": 0.0}, {"fusion_lon": 0.0, "bike_id": "73008b798b5419800a807b0455fb96c6", "name": "73008b798b5419800a807b0455fb96c6", "type": "electric_scooter", "lon": -77.00134216666666, "rental_uris": {"android": "https://dc.lft.to/lastmile_qr_scan", "ios": "https://dc.lft.to/lastmile_qr_scan"}, "lat": 38.89487116666667, "is_reserved": 0, "is_disabled": 0, "fusion_lat": 0.0}, {"fusion_lon": 0.0, "bike_id": "aa0da6bf662d146d8a9204ddecd80d1a", "name": "aa0da6bf662d146d8a9204ddecd80d1a", "type": "electric_scooter", "lon": -77.04215783333333, "rental_uris": {"android": "https://dc.lft.to/lastmile_qr_scan", "ios": "https://dc.lft.to/lastmile_qr_scan"}, "lat": 38.92161, "is_reserved": 0, "is_disabled": 0, "fusion_lat": 0.0}, {"fusion_lon": 0.0, "bike_id": "212a9a9a6226ede681f051cedd7cc5f5", "name": "212a9a9a6226ede681f051cedd7cc5f5", "type": "electric_scooter", "lon": -77.0328245, "rental_uris": {"android": "https://dc.lft.to/lastmile_qr_scan", "ios": "https://dc.lft.to/lastmile_qr_scan"}, "lat": 38.946577, "is_reserved": 0, "is_disabled": 0, "fusion_lat": 0.0}, {"fusion_lon": 0.0, "bike_id": "97a1ff7240a82502b3d63d1bc9383f3b", "name": "97a1ff7240a82502b3d63d1bc9383f3b", "type": "electric_bike", "lon": -77.0291905, "rental_uris": {"android": "https://dc.lft.to/lastmile_qr_scan", "ios": "https://dc.lft.to/lastmile_qr_scan"}, "lat": 38.8961785, "is_reserved": 0, "is_disabled": 0, "fusion_lat": 0.0}, {"fusion_lon": 0.0, "bike_id": "c7f4e5f00ddebedf9045ee76c8679acd", "name": "c7f4e5f00ddebedf9045ee76c8679acd", "type": "electric_scooter", "lon": -77.04831183333333, "rental_uris": {"android": "https://dc.lft.to/lastmile_qr_scan", "ios": "https://dc.lft.to/lastmile_qr_scan"}, "lat": 38.902651166666665, "is_reserved": 0, "is_disabled": 0, "fusion_lat": 0.0}, {"fusion_lon": 0.0, "bike_id": "dda8457c99b3a700ec063e22186c1932", "name": "dda8457c99b3a700ec063e22186c1932", "type": "electric_scooter", "lon": -76.98728233333334, "rental_uris": {"android": "https://dc.lft.to/lastmile_qr_scan", "ios": "https://dc.lft.to/lastmile_qr_scan"}, "lat": 38.867088833333334, "is_reserved": 0, "is_disabled": 0, "fusion_lat": 0.0}, {"fusion_lon": 0.0, "bike_id": "79186d96cadf962b3ccd6e07599d689f", "name": "79186d96cadf962b3ccd6e07599d689f", "type": "electric_scooter", "lon": -76.99086366666667, "rental_uris": {"android": "https://dc.lft.to/lastmile_qr_scan", "ios": "https://dc.lft.to/lastmile_qr_scan"}, "lat": 38.862308666666664, "is_reserved": 0, "is_disabled": 0, "fusion_lat": 0.0}, {"fusion_lon": 0.0, "bike_id": "78e7a01170cefeb42a616fedea120993", "name": "78e7a01170cefeb42a616fedea120993", "type": "electric_scooter", "lon": -77.02983466666667, "rental_uris": {"android": "https://dc.lft.to/lastmile_qr_scan", "ios": "https://dc.lft.to/lastmile_qr_scan"}, "lat": 38.92538833333333, "is_reserved": 0, "is_disabled": 0, "fusion_lat": 0.0}, {"fusion_lon": 0.0, "bike_id": "c9bc1442dccd98ef66c758fa6a5768f8", "name": "c9bc1442dccd98ef66c758fa6a5768f8", "type": "electric_scooter", "lon": -77.02486133333333, "rental_uris": {"android": "https://dc.lft.to/lastmile_qr_scan", "ios": "https://dc.lft.to/lastmile_qr_scan"}, "lat": 38.932809, "is_reserved": 0, "is_disabled": 0, "fusion_lat": 0.0}, {"fusion_lon": 0.0, "bike_id": "d71274850a8d3f06a7b2871290e5f10c", "name": "d71274850a8d3f06a7b2871290e5f10c", "type": "electric_scooter", "lon": -77.0073535, "rental_uris": {"android": "https://dc.lft.to/lastmile_qr_scan", "ios": "https://dc.lft.to/lastmile_qr_scan"}, "lat": 38.898329833333335, "is_reserved": 0, "is_disabled": 0, "fusion_lat": 0.0}, {"fusion_lon": 0.0, "bike_id": "214e710426cbdb26306aac5bf599b41d", "name": "214e710426cbdb26306aac5bf599b41d", "type": "electric_scooter", "lon": -76.98094483333334, "rental_uris": {"android": "https://dc.lft.to/lastmile_qr_scan", "ios": "https://dc.lft.to/lastmile_qr_scan"}, "lat": 38.857146666666665, "is_reserved": 0, "is_disabled": 0, "fusion_lat": 0.0}, {"fusion_lon": 0.0, "bike_id": "4c6ab8b40e50d5d0b1a1ddd6ee5103db", "name": "4c6ab8b40e50d5d0b1a1ddd6ee5103db", "type": "electric_scooter", "lon": -77.02819366666667, "rental_uris": {"android": "https://dc.lft.to/lastmile_qr_scan", "ios": "https://dc.lft.to/lastmile_qr_scan"}, "lat": 38.91412483333333, "is_reserved": 0, "is_disabled": 0, "fusion_lat": 0.0}, {"fusion_lon": 0.0, "bike_id": "0d2fcefd2412a3feb0385acbc4bd9db0", "name": "0d2fcefd2412a3feb0385acbc4bd9db0", "type": "electric_scooter", "lon": -76.949819, "rental_uris": {"android": "https://dc.lft.to/lastmile_qr_scan", "ios": "https://dc.lft.to/lastmile_qr_scan"}, "lat": 38.89431783333333, "is_reserved": 0, "is_disabled": 0, "fusion_lat": 0.0}, {"fusion_lon": 0.0, "bike_id": "b7e05de61b98abec687752111bad45dd", "name": "b7e05de61b98abec687752111bad45dd", "type": "electric_scooter", "lon": -77.026811, "rental_uris": {"android": "https://dc.lft.to/lastmile_qr_scan", "ios": "https://dc.lft.to/lastmile_qr_scan"}, "lat": 38.912565, "is_reserved": 0, "is_disabled": 0, "fusion_lat": 0.0}, {"fusion_lon": 0.0, "bike_id": "6797eefee5a83d9ad6d5aec40c988549", "name": "6797eefee5a83d9ad6d5aec40c988549", "type": "electric_scooter", "lon": -77.04170366666666, "rental_uris": {"android": "https://dc.lft.to/lastmile_qr_scan", "ios": "https://dc.lft.to/lastmile_qr_scan"}, "lat": 38.909284166666666, "is_reserved": 0, "is_disabled": 0, "fusion_lat": 0.0}, {"fusion_lon": 0.0, "bike_id": "f6f7bcf3b1582777dc4778da078262e0", "name": "f6f7bcf3b1582777dc4778da078262e0", "type": "electric_scooter", "lon": -77.07246533333333, "rental_uris": {"android": "https://dc.lft.to/lastmile_qr_scan", "ios": "https://dc.lft.to/lastmile_qr_scan"}, "lat": 38.93951416666667, "is_reserved": 0, "is_disabled": 0, "fusion_lat": 0.0}, {"fusion_lon": 0.0, "bike_id": "d5f1235ef2931e55fa582b1407b2afa0", "name": "d5f1235ef2931e55fa582b1407b2afa0", "type": "electric_scooter", "lon": -77.014101, "rental_uris": {"android": "https://dc.lft.to/lastmile_qr_scan", "ios": "https://dc.lft.to/lastmile_qr_scan"}, "lat": 38.92826566666667, "is_reserved": 0, "is_disabled": 0, "fusion_lat": 0.0}, {"fusion_lon": 0.0, "bike_id": "ea34e46f5b5811943011c20a85b3a396", "name": "ea34e46f5b5811943011c20a85b3a396", "type": "electric_scooter", "lon": -76.93751733333333, "rental_uris": {"android": "https://dc.lft.to/lastmile_qr_scan", "ios": "https://dc.lft.to/lastmile_qr_scan"}, "lat": 38.89031416666667, "is_reserved": 0, "is_disabled": 0, "fusion_lat": 0.0}, {"fusion_lon": 0.0, "bike_id": "b0ed33fb5aef9baf7bab87ff44b1eb2a", "name": "b0ed33fb5aef9baf7bab87ff44b1eb2a", "type": "electric_scooter", "lon": -77.00342416666666, "rental_uris": {"android": "https://dc.lft.to/lastmile_qr_scan", "ios": "https://dc.lft.to/lastmile_qr_scan"}, "lat": 38.9226705, "is_reserved": 0, "is_disabled": 0, "fusion_lat": 0.0}, {"fusion_lon": 0.0, "bike_id": "c6e40651dea5e1b1d8d7f585b8381766", "name": "c6e40651dea5e1b1d8d7f585b8381766", "type": "electric_bike", "lon": -76.90972833333333, "rental_uris": {"android": "https://dc.lft.to/lastmile_qr_scan", "ios": "https://dc.lft.to/lastmile_qr_scan"}, "lat": 38.8542805, "is_reserved": 0, "is_disabled": 0, "fusion_lat": 0.0}, {"fusion_lon": 0.0, "bike_id": "991d19b98056e65bf922a993058c9036", "name": "991d19b98056e65bf922a993058c9036", "type": "electric_scooter", "lon": -77.03057216666667, "rental_uris": {"android": "https://dc.lft.to/lastmile_qr_scan", "ios": "https://dc.lft.to/lastmile_qr_scan"}, "lat": 38.901218666666665, "is_reserved": 0, "is_disabled": 0, "fusion_lat": 0.0}, {"fusion_lon": 0.0, "bike_id": "db1b0af7b9237a10358e2be04447603a", "name": "db1b0af7b9237a10358e2be04447603a", "type": "electric_bike", "lon": -77.03214666666666, "rental_uris": {"android": "https://dc.lft.to/lastmile_qr_scan", "ios": "https://dc.lft.to/lastmile_qr_scan"}, "lat": 38.9764955, "is_reserved": 0, "is_disabled": 0, "fusion_lat": 0.0}, {"fusion_lon": 0.0, "bike_id": "d5432c74ed9e53be71b6f2c646a5e6cd", "name": "d5432c74ed9e53be71b6f2c646a5e6cd", "type": "electric_scooter", "lon": -77.00927216666666, "rental_uris": {"android": "https://dc.lft.to/lastmile_qr_scan", "ios": "https://dc.lft.to/lastmile_qr_scan"}, "lat": 38.896473666666665, "is_reserved": 0, "is_disabled": 0, "fusion_lat": 0.0}, {"fusion_lon": 0.0, "bike_id": "f7c33906e8b74bd0fd954b94210f498b", "name": "f7c33906e8b74bd0fd954b94210f498b", "type": "electric_scooter", "lon": -77.03652866666667, "rental_uris": {"android": "https://dc.lft.to/lastmile_qr_scan", "ios": "https://dc.lft.to/lastmile_qr_scan"}, "lat": 38.936240166666664, "is_reserved": 0, "is_disabled": 0, "fusion_lat": 0.0}, {"fusion_lon": 0.0, "bike_id": "7a1a1241320ca175cb9b06f9acd4e762", "name": "7a1a1241320ca175cb9b06f9acd4e762", "type": "electric_scooter", "lon": -77.05048266666667, "rental_uris": {"android": "https://dc.lft.to/lastmile_qr_scan", "ios": "https://dc.lft.to/lastmile_qr_scan"}, "lat": 38.92359016666666, "is_reserved": 0, "is_disabled": 0, "fusion_lat": 0.0}, {"fusion_lon": 0.0, "bike_id": "68234d527a06281773466573d20040b9", "name": "68234d527a06281773466573d20040b9", "type": "electric_scooter", "lon": -77.046513, "rental_uris": {"android": "https://dc.lft.to/lastmile_qr_scan", "ios": "https://dc.lft.to/lastmile_qr_scan"}, "lat": 38.90961383333333, "is_reserved": 0, "is_disabled": 0, "fusion_lat": 0.0}, {"fusion_lon": 0.0, "bike_id": "f67c518c85892709ca1f591c6778ab1a", "name": "f67c518c85892709ca1f591c6778ab1a", "type": "electric_scooter", "lon": -77.04348033333333, "rental_uris": {"android": "https://dc.lft.to/lastmile_qr_scan", "ios": "https://dc.lft.to/lastmile_qr_scan"}, "lat": 38.90727616666667, "is_reserved": 0, "is_disabled": 0, "fusion_lat": 0.0}, {"fusion_lon": 0.0, "bike_id": "369233ae06f0f7b8e6169b00796d698a", "name": "369233ae06f0f7b8e6169b00796d698a", "type": "electric_scooter", "lon": -77.06262566666666, "rental_uris": {"android": "https://dc.lft.to/lastmile_qr_scan", "ios": "https://dc.lft.to/lastmile_qr_scan"}, "lat": 38.905251166666666, "is_reserved": 0, "is_disabled": 0, "fusion_lat": 0.0}, {"fusion_lon": 0.0, "bike_id": "4fb7bfa5a538e6e83280e7166a22b223", "name": "4fb7bfa5a538e6e83280e7166a22b223", "type": "electric_scooter", "lon": -77.03795633333333, "rental_uris": {"android": "https://dc.lft.to/lastmile_qr_scan", "ios": "https://dc.lft.to/lastmile_qr_scan"}, "lat": 38.93604916666666, "is_reserved": 0, "is_disabled": 0, "fusion_lat": 0.0}, {"fusion_lon": 0.0, "bike_id": "5829ecaea71dd1bc477ef0829017a7b4", "name": "5829ecaea71dd1bc477ef0829017a7b4", "type": "electric_scooter", "lon": -77.041684, "rental_uris": {"android": "https://dc.lft.to/lastmile_qr_scan", "ios": "https://dc.lft.to/lastmile_qr_scan"}, "lat": 38.9133375, "is_reserved": 0, "is_disabled": 0, "fusion_lat": 0.0}, {"fusion_lon": 0.0, "bike_id": "b9997d3d66195f4b9f661119c1d31326", "name": "b9997d3d66195f4b9f661119c1d31326", "type": "electric_scooter", "lon": -77.00962016666666, "rental_uris": {"android": "https://dc.lft.to/lastmile_qr_scan", "ios": "https://dc.lft.to/lastmile_qr_scan"}, "lat": 38.876626333333334, "is_reserved": 0, "is_disabled": 0, "fusion_lat": 0.0}, {"fusion_lon": 0.0, "bike_id": "2d2945275559561ccaea194dfbf24893", "name": "2d2945275559561ccaea194dfbf24893", "type": "electric_scooter", "lon": -77.03213683333334, "rental_uris": {"android": "https://dc.lft.to/lastmile_qr_scan", "ios": "https://dc.lft.to/lastmile_qr_scan"}, "lat": 38.887380666666665, "is_reserved": 0, "is_disabled": 0, "fusion_lat": 0.0}, {"fusion_lon": 0.0, "bike_id": "def054fb03989829da51f108aa18df8c", "name": "def054fb03989829da51f108aa18df8c", "type": "electric_scooter", "lon": -77.02709883333333, "rental_uris": {"android": "https://dc.lft.to/lastmile_qr_scan", "ios": "https://dc.lft.to/lastmile_qr_scan"}, "lat": 38.90067633333334, "is_reserved": 0, "is_disabled": 0, "fusion_lat": 0.0}, {"fusion_lon": 0.0, "bike_id": "da34a37b34c7f351e2ad5c6f9fe8a767", "name": "da34a37b34c7f351e2ad5c6f9fe8a767", "type": "electric_scooter", "lon": -76.98379383333334, "rental_uris": {"android": "https://dc.lft.to/lastmile_qr_scan", "ios": "https://dc.lft.to/lastmile_qr_scan"}, "lat": 38.89970866666667, "is_reserved": 0, "is_disabled": 0, "fusion_lat": 0.0}, {"fusion_lon": 0.0, "bike_id": "52e1ad124e39bbc282209ce18e73fcd8", "name": "52e1ad124e39bbc282209ce18e73fcd8", "type": "electric_scooter", "lon": -77.03839383333333, "rental_uris": {"android": "https://dc.lft.to/lastmile_qr_scan", "ios": "https://dc.lft.to/lastmile_qr_scan"}, "lat": 38.91730183333333, "is_reserved": 0, "is_disabled": 0, "fusion_lat": 0.0}, {"fusion_lon": 0.0, "bike_id": "3af5e21f892faac6b99fd3dc922d4ed0", "name": "3af5e21f892faac6b99fd3dc922d4ed0", "type": "electric_bike", "lon": -76.87494066666666, "rental_uris": {"android": "https://dc.lft.to/lastmile_qr_scan", "ios": "https://dc.lft.to/lastmile_qr_scan"}, "lat": 38.99088783333333, "is_reserved": 0, "is_disabled": 0, "fusion_lat": 0.0}, {"fusion_lon": 0.0, "bike_id": "1a09f22487b0d54c39f8985d9af97771", "name": "1a09f22487b0d54c39f8985d9af97771", "type": "electric_scooter", "lon": -76.9315985, "rental_uris": {"android": "https://dc.lft.to/lastmile_qr_scan", "ios": "https://dc.lft.to/lastmile_qr_scan"}, "lat": 38.89878616666667, "is_reserved": 0, "is_disabled": 0, "fusion_lat": 0.0}, {"fusion_lon": 0.0, "bike_id": "5bd9957ca913cc2912042f386fb3fcbe", "name": "5bd9957ca913cc2912042f386fb3fcbe", "type": "electric_scooter", "lon": -77.02541283333333, "rental_uris": {"android": "https://dc.lft.to/lastmile_qr_scan", "ios": "https://dc.lft.to/lastmile_qr_scan"}, "lat": 38.90568566666666, "is_reserved": 0, "is_disabled": 0, "fusion_lat": 0.0}, {"fusion_lon": 0.0, "bike_id": "ad5a067dcb8d555f2c856f7fd1472766", "name": "ad5a067dcb8d555f2c856f7fd1472766", "type": "electric_bike", "lon": -77.11220333333333, "rental_uris": {"android": "https://dc.lft.to/lastmile_qr_scan", "ios": "https://dc.lft.to/lastmile_qr_scan"}, "lat": 38.8287175, "is_reserved": 0, "is_disabled": 0, "fusion_lat": 0.0}, {"fusion_lon": 0.0, "bike_id": "fd121c8b8bb63483a4268add9c562108", "name": "fd121c8b8bb63483a4268add9c562108", "type": "electric_scooter", "lon": -77.038459, "rental_uris": {"android": "https://dc.lft.to/lastmile_qr_scan", "ios": "https://dc.lft.to/lastmile_qr_scan"}, "lat": 38.91203633333333, "is_reserved": 0, "is_disabled": 0, "fusion_lat": 0.0}, {"fusion_lon": 0.0, "bike_id": "f5e89ac02b9755ca52163de1b9408a3d", "name": "f5e89ac02b9755ca52163de1b9408a3d", "type": "electric_scooter", "lon": -77.01114316666667, "rental_uris": {"android": "https://dc.lft.to/lastmile_qr_scan", "ios": "https://dc.lft.to/lastmile_qr_scan"}, "lat": 38.90359383333333, "is_reserved": 0, "is_disabled": 0, "fusion_lat": 0.0}, {"fusion_lon": 0.0, "bike_id": "9716eef44502e4a189fad744f4b4c736", "name": "9716eef44502e4a189fad744f4b4c736", "type": "electric_scooter", "lon": -77.032439, "rental_uris": {"android": "https://dc.lft.to/lastmile_qr_scan", "ios": "https://dc.lft.to/lastmile_qr_scan"}, "lat": 38.9281535, "is_reserved": 0, "is_disabled": 0, "fusion_lat": 0.0}, {"fusion_lon": 0.0, "bike_id": "8cea661eb215e6b3d5c402ffa9df181e", "name": "8cea661eb215e6b3d5c402ffa9df181e", "type": "electric_scooter", "lon": -77.00209933333333, "rental_uris": {"android": "https://dc.lft.to/lastmile_qr_scan", "ios": "https://dc.lft.to/lastmile_qr_scan"}, "lat": 38.8934795, "is_reserved": 0, "is_disabled": 0, "fusion_lat": 0.0}, {"fusion_lon": 0.0, "bike_id": "b199d0d2b6deb1569fc3b1d3710ddd24", "name": "b199d0d2b6deb1569fc3b1d3710ddd24", "type": "electric_scooter", "lon": -77.01367866666666, "rental_uris": {"android": "https://dc.lft.to/lastmile_qr_scan", "ios": "https://dc.lft.to/lastmile_qr_scan"}, "lat": 38.88705933333333, "is_reserved": 0, "is_disabled": 0, "fusion_lat": 0.0}, {"fusion_lon": 0.0, "bike_id": "6a34f0593a355fb1e2bf69af3b3317a1", "name": "6a34f0593a355fb1e2bf69af3b3317a1", "type": "electric_bike", "lon": -76.94955966666667, "rental_uris": {"android": "https://dc.lft.to/lastmile_qr_scan", "ios": "https://dc.lft.to/lastmile_qr_scan"}, "lat": 38.935002, "is_reserved": 0, "is_disabled": 0, "fusion_lat": 0.0}, {"fusion_lon": 0.0, "bike_id": "e93866b29975fdb34de010a73114c0fe", "name": "e93866b29975fdb34de010a73114c0fe", "type": "electric_scooter", "lon": -77.051155, "rental_uris": {"android": "https://dc.lft.to/lastmile_qr_scan", "ios": "https://dc.lft.to/lastmile_qr_scan"}, "lat": 38.912156333333336, "is_reserved": 0, "is_disabled": 0, "fusion_lat": 0.0}, {"fusion_lon": 0.0, "bike_id": "ab280b6268f86c60324a3841931dc60e", "name": "ab280b6268f86c60324a3841931dc60e", "type": "electric_scooter", "lon": -77.00748466666667, "rental_uris": {"android": "https://dc.lft.to/lastmile_qr_scan", "ios": "https://dc.lft.to/lastmile_qr_scan"}, "lat": 38.87652516666667, "is_reserved": 0, "is_disabled": 0, "fusion_lat": 0.0}, {"fusion_lon": 0.0, "bike_id": "1f1455694aaacbe9d0936d052886d334", "name": "1f1455694aaacbe9d0936d052886d334", "type": "electric_scooter", "lon": -76.98815466666667, "rental_uris": {"android": "https://dc.lft.to/lastmile_qr_scan", "ios": "https://dc.lft.to/lastmile_qr_scan"}, "lat": 38.900361833333335, "is_reserved": 0, "is_disabled": 0, "fusion_lat": 0.0}, {"fusion_lon": 0.0, "bike_id": "b5551bb689eb6df50a018666230fc03e", "name": "b5551bb689eb6df50a018666230fc03e", "type": "electric_scooter", "lon": -77.02245966666666, "rental_uris": {"android": "https://dc.lft.to/lastmile_qr_scan", "ios": "https://dc.lft.to/lastmile_qr_scan"}, "lat": 38.87813383333334, "is_reserved": 0, "is_disabled": 0, "fusion_lat": 0.0}, {"fusion_lon": 0.0, "bike_id": "d21874b84752fa0d2cbd692e40614938", "name": "d21874b84752fa0d2cbd692e40614938", "type": "electric_scooter", "lon": -77.01731483333333, "rental_uris": {"android": "https://dc.lft.to/lastmile_qr_scan", "ios": "https://dc.lft.to/lastmile_qr_scan"}, "lat": 38.876974833333335, "is_reserved": 0, "is_disabled": 0, "fusion_lat": 0.0}, {"fusion_lon": 0.0, "bike_id": "1f832314121bd056771162dbe534f625", "name": "1f832314121bd056771162dbe534f625", "type": "electric_scooter", "lon": -77.032044, "rental_uris": {"android": "https://dc.lft.to/lastmile_qr_scan", "ios": "https://dc.lft.to/lastmile_qr_scan"}, "lat": 38.91221083333333, "is_reserved": 0, "is_disabled": 0, "fusion_lat": 0.0}, {"fusion_lon": 0.0, "bike_id": "1a4d46ddcda9df382cd44037b3673453", "name": "1a4d46ddcda9df382cd44037b3673453", "type": "electric_scooter", "lon": -77.0051435, "rental_uris": {"android": "https://dc.lft.to/lastmile_qr_scan", "ios": "https://dc.lft.to/lastmile_qr_scan"}, "lat": 38.87468066666667, "is_reserved": 0, "is_disabled": 0, "fusion_lat": 0.0}, {"fusion_lon": 0.0, "bike_id": "96117ea4bbd188fe5583767c9c273ce8", "name": "96117ea4bbd188fe5583767c9c273ce8", "type": "electric_scooter", "lon": -77.002822, "rental_uris": {"android": "https://dc.lft.to/lastmile_qr_scan", "ios": "https://dc.lft.to/lastmile_qr_scan"}, "lat": 38.939189166666665, "is_reserved": 0, "is_disabled": 0, "fusion_lat": 0.0}, {"fusion_lon": 0.0, "bike_id": "57f07686e416f1940b3e9f3605f8e1e6", "name": "57f07686e416f1940b3e9f3605f8e1e6", "type": "electric_scooter", "lon": -77.04779, "rental_uris": {"android": "https://dc.lft.to/lastmile_qr_scan", "ios": "https://dc.lft.to/lastmile_qr_scan"}, "lat": 38.91216, "is_reserved": 0, "is_disabled": 0, "fusion_lat": 0.0}, {"fusion_lon": 0.0, "bike_id": "313e53cbe16ce15b433d82a202222496", "name": "313e53cbe16ce15b433d82a202222496", "type": "electric_scooter", "lon": -77.00337433333333, "rental_uris": {"android": "https://dc.lft.to/lastmile_qr_scan", "ios": "https://dc.lft.to/lastmile_qr_scan"}, "lat": 38.893527, "is_reserved": 0, "is_disabled": 0, "fusion_lat": 0.0}, {"fusion_lon": 0.0, "bike_id": "d4880b9364fe3687188672dc73914532", "name": "d4880b9364fe3687188672dc73914532", "type": "electric_scooter", "lon": -76.93737933333334, "rental_uris": {"android": "https://dc.lft.to/lastmile_qr_scan", "ios": "https://dc.lft.to/lastmile_qr_scan"}, "lat": 38.8901295, "is_reserved": 0, "is_disabled": 0, "fusion_lat": 0.0}, {"fusion_lon": 0.0, "bike_id": "32bd422c409541ba18941d3bc88c7b66", "name": "32bd422c409541ba18941d3bc88c7b66", "type": "electric_scooter", "lon": -77.0281015, "rental_uris": {"android": "https://dc.lft.to/lastmile_qr_scan", "ios": "https://dc.lft.to/lastmile_qr_scan"}, "lat": 38.90272316666667, "is_reserved": 0, "is_disabled": 0, "fusion_lat": 0.0}, {"fusion_lon": 0.0, "bike_id": "db597ae152285d489bf769fdfb887098", "name": "db597ae152285d489bf769fdfb887098", "type": "electric_scooter", "lon": -76.9938455, "rental_uris": {"android": "https://dc.lft.to/lastmile_qr_scan", "ios": "https://dc.lft.to/lastmile_qr_scan"}, "lat": 38.920967166666664, "is_reserved": 0, "is_disabled": 0, "fusion_lat": 0.0}, {"fusion_lon": 0.0, "bike_id": "f6cdebfc619256423f4725e4e7638231", "name": "f6cdebfc619256423f4725e4e7638231", "type": "electric_scooter", "lon": -77.04247333333333, "rental_uris": {"android": "https://dc.lft.to/lastmile_qr_scan", "ios": "https://dc.lft.to/lastmile_qr_scan"}, "lat": 38.917800166666666, "is_reserved": 0, "is_disabled": 0, "fusion_lat": 0.0}, {"fusion_lon": 0.0, "bike_id": "5ba0f46417ca993534870440c6be5571", "name": "5ba0f46417ca993534870440c6be5571", "type": "electric_scooter", "lon": -77.04702516666667, "rental_uris": {"android": "https://dc.lft.to/lastmile_qr_scan", "ios": "https://dc.lft.to/lastmile_qr_scan"}, "lat": 38.912623833333335, "is_reserved": 0, "is_disabled": 0, "fusion_lat": 0.0}, {"fusion_lon": 0.0, "bike_id": "51c6f8740f78b4887c22a6d8a3b9a323", "name": "51c6f8740f78b4887c22a6d8a3b9a323", "type": "electric_scooter", "lon": -77.04237216666667, "rental_uris": {"android": "https://dc.lft.to/lastmile_qr_scan", "ios": "https://dc.lft.to/lastmile_qr_scan"}, "lat": 38.92171166666667, "is_reserved": 0, "is_disabled": 0, "fusion_lat": 0.0}, {"fusion_lon": 0.0, "bike_id": "39771b2293a64bb3c7c10b5a085c0994", "name": "39771b2293a64bb3c7c10b5a085c0994", "type": "electric_scooter", "lon": -77.04180816666667, "rental_uris": {"android": "https://dc.lft.to/lastmile_qr_scan", "ios": "https://dc.lft.to/lastmile_qr_scan"}, "lat": 38.9141265, "is_reserved": 0, "is_disabled": 0, "fusion_lat": 0.0}, {"fusion_lon": 0.0, "bike_id": "dc3990c4e16a0260d9c2c8e6fe5e5698", "name": "dc3990c4e16a0260d9c2c8e6fe5e5698", "type": "electric_scooter", "lon": -77.027195, "rental_uris": {"android": "https://dc.lft.to/lastmile_qr_scan", "ios": "https://dc.lft.to/lastmile_qr_scan"}, "lat": 38.927814833333336, "is_reserved": 0, "is_disabled": 0, "fusion_lat": 0.0}, {"fusion_lon": 0.0, "bike_id": "d7299fe559b65cad43c708bd0bb06775", "name": "d7299fe559b65cad43c708bd0bb06775", "type": "electric_scooter", "lon": -76.94885333333333, "rental_uris": {"android": "https://dc.lft.to/lastmile_qr_scan", "ios": "https://dc.lft.to/lastmile_qr_scan"}, "lat": 38.895096333333335, "is_reserved": 0, "is_disabled": 0, "fusion_lat": 0.0}, {"fusion_lon": 0.0, "bike_id": "6477d5b3c5c52c80e60637773e1d75d9", "name": "6477d5b3c5c52c80e60637773e1d75d9", "type": "electric_scooter", "lon": -77.03210833333333, "rental_uris": {"android": "https://dc.lft.to/lastmile_qr_scan", "ios": "https://dc.lft.to/lastmile_qr_scan"}, "lat": 38.9036535, "is_reserved": 0, "is_disabled": 0, "fusion_lat": 0.0}, {"fusion_lon": 0.0, "bike_id": "3024f12b6077dec85788d3b691848842", "name": "3024f12b6077dec85788d3b691848842", "type": "electric_scooter", "lon": -77.017911, "rental_uris": {"android": "https://dc.lft.to/lastmile_qr_scan", "ios": "https://dc.lft.to/lastmile_qr_scan"}, "lat": 38.90638883333333, "is_reserved": 0, "is_disabled": 0, "fusion_lat": 0.0}, {"fusion_lon": 0.0, "bike_id": "8aab319611b82b5253ad102609d27cdc", "name": "8aab319611b82b5253ad102609d27cdc", "type": "electric_scooter", "lon": -77.03847466666667, "rental_uris": {"android": "https://dc.lft.to/lastmile_qr_scan", "ios": "https://dc.lft.to/lastmile_qr_scan"}, "lat": 38.90410883333333, "is_reserved": 0, "is_disabled": 0, "fusion_lat": 0.0}, {"fusion_lon": 0.0, "bike_id": "5d368ca08e59468606d1b66f7f3c8ea4", "name": "5d368ca08e59468606d1b66f7f3c8ea4", "type": "electric_scooter", "lon": -77.04516933333333, "rental_uris": {"android": "https://dc.lft.to/lastmile_qr_scan", "ios": "https://dc.lft.to/lastmile_qr_scan"}, "lat": 38.90373433333333, "is_reserved": 0, "is_disabled": 0, "fusion_lat": 0.0}, {"fusion_lon": 0.0, "bike_id": "60c8f1b50fe6db52058a7726003a1181", "name": "60c8f1b50fe6db52058a7726003a1181", "type": "electric_scooter", "lon": -76.98830083333333, "rental_uris": {"android": "https://dc.lft.to/lastmile_qr_scan", "ios": "https://dc.lft.to/lastmile_qr_scan"}, "lat": 38.900331, "is_reserved": 0, "is_disabled": 0, "fusion_lat": 0.0}, {"fusion_lon": 0.0, "bike_id": "e11ec10a77149f7e601ff3aaff2b8aea", "name": "e11ec10a77149f7e601ff3aaff2b8aea", "type": "electric_scooter", "lon": -76.965297, "rental_uris": {"android": "https://dc.lft.to/lastmile_qr_scan", "ios": "https://dc.lft.to/lastmile_qr_scan"}, "lat": 38.874810333333336, "is_reserved": 0, "is_disabled": 0, "fusion_lat": 0.0}, {"fusion_lon": 0.0, "bike_id": "ab761c535a748eac468cc825c4d9df40", "name": "ab761c535a748eac468cc825c4d9df40", "type": "electric_scooter", "lon": -77.03831983333333, "rental_uris": {"android": "https://dc.lft.to/lastmile_qr_scan", "ios": "https://dc.lft.to/lastmile_qr_scan"}, "lat": 38.91117933333334, "is_reserved": 0, "is_disabled": 0, "fusion_lat": 0.0}, {"fusion_lon": 0.0, "bike_id": "d1ee8b9007bb90a4d506a2fce70f7555", "name": "d1ee8b9007bb90a4d506a2fce70f7555", "type": "electric_scooter", "lon": -77.0309805, "rental_uris": {"android": "https://dc.lft.to/lastmile_qr_scan", "ios": "https://dc.lft.to/lastmile_qr_scan"}, "lat": 38.919215333333334, "is_reserved": 0, "is_disabled": 0, "fusion_lat": 0.0}, {"fusion_lon": 0.0, "bike_id": "84b300d6896f8464e7b94f4174912b53", "name": "84b300d6896f8464e7b94f4174912b53", "type": "electric_scooter", "lon": -77.05792916666667, "rental_uris": {"android": "https://dc.lft.to/lastmile_qr_scan", "ios": "https://dc.lft.to/lastmile_qr_scan"}, "lat": 38.93480266666667, "is_reserved": 0, "is_disabled": 0, "fusion_lat": 0.0}, {"fusion_lon": 0.0, "bike_id": "3cbbae6ad4ccdedca338b52df8cbff39", "name": "3cbbae6ad4ccdedca338b52df8cbff39", "type": "electric_scooter", "lon": -77.04326, "rental_uris": {"android": "https://dc.lft.to/lastmile_qr_scan", "ios": "https://dc.lft.to/lastmile_qr_scan"}, "lat": 38.91108033333333, "is_reserved": 0, "is_disabled": 0, "fusion_lat": 0.0}, {"fusion_lon": 0.0, "bike_id": "20ef757b5f258d48fef034f09602a4ca", "name": "20ef757b5f258d48fef034f09602a4ca", "type": "electric_scooter", "lon": -76.99213066666667, "rental_uris": {"android": "https://dc.lft.to/lastmile_qr_scan", "ios": "https://dc.lft.to/lastmile_qr_scan"}, "lat": 38.8952055, "is_reserved": 0, "is_disabled": 0, "fusion_lat": 0.0}, {"fusion_lon": 0.0, "bike_id": "8600732aa7238d96b8c4eff9b29eb921", "name": "8600732aa7238d96b8c4eff9b29eb921", "type": "electric_scooter", "lon": -77.06606733333334, "rental_uris": {"android": "https://dc.lft.to/lastmile_qr_scan", "ios": "https://dc.lft.to/lastmile_qr_scan"}, "lat": 38.904518833333334, "is_reserved": 0, "is_disabled": 0, "fusion_lat": 0.0}, {"fusion_lon": 0.0, "bike_id": "495eaa8fd3144c553c0eba32df7be7c2", "name": "495eaa8fd3144c553c0eba32df7be7c2", "type": "electric_scooter", "lon": -77.03183733333333, "rental_uris": {"android": "https://dc.lft.to/lastmile_qr_scan", "ios": "https://dc.lft.to/lastmile_qr_scan"}, "lat": 38.88662383333333, "is_reserved": 0, "is_disabled": 0, "fusion_lat": 0.0}, {"fusion_lon": 0.0, "bike_id": "ec385352d48b4c5f490e24cab409a332", "name": "ec385352d48b4c5f490e24cab409a332", "type": "electric_scooter", "lon": -77.02156233333334, "rental_uris": {"android": "https://dc.lft.to/lastmile_qr_scan", "ios": "https://dc.lft.to/lastmile_qr_scan"}, "lat": 38.92601633333334, "is_reserved": 0, "is_disabled": 0, "fusion_lat": 0.0}, {"fusion_lon": 0.0, "bike_id": "0d77a7e4db59cdab0b5716d6e55bc8e6", "name": "0d77a7e4db59cdab0b5716d6e55bc8e6", "type": "electric_scooter", "lon": -77.04170983333333, "rental_uris": {"android": "https://dc.lft.to/lastmile_qr_scan", "ios": "https://dc.lft.to/lastmile_qr_scan"}, "lat": 38.9072375, "is_reserved": 0, "is_disabled": 0, "fusion_lat": 0.0}, {"fusion_lon": 0.0, "bike_id": "d652e548b3088ff3a43439940b069fcf", "name": "d652e548b3088ff3a43439940b069fcf", "type": "electric_scooter", "lon": -77.007393, "rental_uris": {"android": "https://dc.lft.to/lastmile_qr_scan", "ios": "https://dc.lft.to/lastmile_qr_scan"}, "lat": 38.900548, "is_reserved": 0, "is_disabled": 0, "fusion_lat": 0.0}, {"fusion_lon": 0.0, "bike_id": "d31b54aecfe04def9754671a4521c022", "name": "d31b54aecfe04def9754671a4521c022", "type": "electric_bike", "lon": -77.02668933333334, "rental_uris": {"android": "https://dc.lft.to/lastmile_qr_scan", "ios": "https://dc.lft.to/lastmile_qr_scan"}, "lat": 38.954838333333335, "is_reserved": 0, "is_disabled": 0, "fusion_lat": 0.0}, {"fusion_lon": 0.0, "bike_id": "18f61c61db82a8c55e2d7188111c0299", "name": "18f61c61db82a8c55e2d7188111c0299", "type": "electric_scooter", "lon": -77.03211033333334, "rental_uris": {"android": "https://dc.lft.to/lastmile_qr_scan", "ios": "https://dc.lft.to/lastmile_qr_scan"}, "lat": 38.91472566666667, "is_reserved": 0, "is_disabled": 0, "fusion_lat": 0.0}, {"fusion_lon": 0.0, "bike_id": "ed8c00ef6112419200018ee316cab68d", "name": "ed8c00ef6112419200018ee316cab68d", "type": "electric_scooter", "lon": -77.01557933333333, "rental_uris": {"android": "https://dc.lft.to/lastmile_qr_scan", "ios": "https://dc.lft.to/lastmile_qr_scan"}, "lat": 38.91368166666667, "is_reserved": 0, "is_disabled": 0, "fusion_lat": 0.0}, {"fusion_lon": 0.0, "bike_id": "b69b8b0b3b2780487efff04f2e0c2a6a", "name": "b69b8b0b3b2780487efff04f2e0c2a6a", "type": "electric_scooter", "lon": -77.0439065, "rental_uris": {"android": "https://dc.lft.to/lastmile_qr_scan", "ios": "https://dc.lft.to/lastmile_qr_scan"}, "lat": 38.9023105, "is_reserved": 0, "is_disabled": 0, "fusion_lat": 0.0}, {"fusion_lon": 0.0, "bike_id": "e02b4174071071c491bb91b81c6e2727", "name": "e02b4174071071c491bb91b81c6e2727", "type": "electric_bike", "lon": -77.05617516666666, "rental_uris": {"android": "https://dc.lft.to/lastmile_qr_scan", "ios": "https://dc.lft.to/lastmile_qr_scan"}, "lat": 38.857249833333334, "is_reserved": 0, "is_disabled": 0, "fusion_lat": 0.0}, {"fusion_lon": 0.0, "bike_id": "63d9c6063f856055484ebdce72742c8a", "name": "63d9c6063f856055484ebdce72742c8a", "type": "electric_bike", "lon": -77.10721016666666, "rental_uris": {"android": "https://dc.lft.to/lastmile_qr_scan", "ios": "https://dc.lft.to/lastmile_qr_scan"}, "lat": 38.855479, "is_reserved": 0, "is_disabled": 0, "fusion_lat": 0.0}, {"fusion_lon": 0.0, "bike_id": "9a0a0fc2a553620d79c4637b67bf3c37", "name": "9a0a0fc2a553620d79c4637b67bf3c37", "type": "electric_scooter", "lon": -77.03876716666667, "rental_uris": {"android": "https://dc.lft.to/lastmile_qr_scan", "ios": "https://dc.lft.to/lastmile_qr_scan"}, "lat": 38.934289666666665, "is_reserved": 0, "is_disabled": 0, "fusion_lat": 0.0}, {"fusion_lon": 0.0, "bike_id": "cbfa488c1f316ceeef449ca854904a45", "name": "cbfa488c1f316ceeef449ca854904a45", "type": "electric_scooter", "lon": -77.0636265, "rental_uris": {"android": "https://dc.lft.to/lastmile_qr_scan", "ios": "https://dc.lft.to/lastmile_qr_scan"}, "lat": 38.944133666666666, "is_reserved": 0, "is_disabled": 0, "fusion_lat": 0.0}, {"fusion_lon": 0.0, "bike_id": "05289a54800edaaf4557148be0502ea7", "name": "05289a54800edaaf4557148be0502ea7", "type": "electric_bike", "lon": -77.05103733333333, "rental_uris": {"android": "https://dc.lft.to/lastmile_qr_scan", "ios": "https://dc.lft.to/lastmile_qr_scan"}, "lat": 38.945443833333336, "is_reserved": 0, "is_disabled": 0, "fusion_lat": 0.0}, {"fusion_lon": 0.0, "bike_id": "df4e42c7fe536253f38955af4b987bee", "name": "df4e42c7fe536253f38955af4b987bee", "type": "electric_bike", "lon": -77.02497166666667, "rental_uris": {"android": "https://dc.lft.to/lastmile_qr_scan", "ios": "https://dc.lft.to/lastmile_qr_scan"}, "lat": 38.91955433333333, "is_reserved": 0, "is_disabled": 0, "fusion_lat": 0.0}, {"fusion_lon": 0.0, "bike_id": "0780b9083e72adb13329811e93428b92", "name": "0780b9083e72adb13329811e93428b92", "type": "electric_scooter", "lon": -77.03927433333334, "rental_uris": {"android": "https://dc.lft.to/lastmile_qr_scan", "ios": "https://dc.lft.to/lastmile_qr_scan"}, "lat": 38.924873833333336, "is_reserved": 0, "is_disabled": 0, "fusion_lat": 0.0}, {"fusion_lon": 0.0, "bike_id": "9efbfe6a226dc3294583eda34cf3696a", "name": "9efbfe6a226dc3294583eda34cf3696a", "type": "electric_scooter", "lon": -76.96436483333333, "rental_uris": {"android": "https://dc.lft.to/lastmile_qr_scan", "ios": "https://dc.lft.to/lastmile_qr_scan"}, "lat": 38.93464183333333, "is_reserved": 0, "is_disabled": 0, "fusion_lat": 0.0}, {"fusion_lon": 0.0, "bike_id": "c3294aff8c89cef71b0a7730d7507dcd", "name": "c3294aff8c89cef71b0a7730d7507dcd", "type": "electric_bike", "lon": -76.96387816666666, "rental_uris": {"android": "https://dc.lft.to/lastmile_qr_scan", "ios": "https://dc.lft.to/lastmile_qr_scan"}, "lat": 38.975765333333335, "is_reserved": 0, "is_disabled": 0, "fusion_lat": 0.0}, {"fusion_lon": 0.0, "bike_id": "82ba5da31904c27a83395b5ee0bdf4ca", "name": "82ba5da31904c27a83395b5ee0bdf4ca", "type": "electric_scooter", "lon": -77.0328565, "rental_uris": {"android": "https://dc.lft.to/lastmile_qr_scan", "ios": "https://dc.lft.to/lastmile_qr_scan"}, "lat": 38.89888933333334, "is_reserved": 0, "is_disabled": 0, "fusion_lat": 0.0}, {"fusion_lon": 0.0, "bike_id": "07b4405f0916b5e187121d0081c55674", "name": "07b4405f0916b5e187121d0081c55674", "type": "electric_scooter", "lon": -76.98753016666667, "rental_uris": {"android": "https://dc.lft.to/lastmile_qr_scan", "ios": "https://dc.lft.to/lastmile_qr_scan"}, "lat": 38.8446225, "is_reserved": 0, "is_disabled": 0, "fusion_lat": 0.0}, {"fusion_lon": 0.0, "bike_id": "8ba032cc24d28d84e72a2fc6a003167c", "name": "8ba032cc24d28d84e72a2fc6a003167c", "type": "electric_scooter", "lon": -77.0238865, "rental_uris": {"android": "https://dc.lft.to/lastmile_qr_scan", "ios": "https://dc.lft.to/lastmile_qr_scan"}, "lat": 38.90421, "is_reserved": 0, "is_disabled": 0, "fusion_lat": 0.0}, {"fusion_lon": 0.0, "bike_id": "0f0e8c6ac9df286fa1fa350985072433", "name": "0f0e8c6ac9df286fa1fa350985072433", "type": "electric_scooter", "lon": -77.041677, "rental_uris": {"android": "https://dc.lft.to/lastmile_qr_scan", "ios": "https://dc.lft.to/lastmile_qr_scan"}, "lat": 38.914552, "is_reserved": 0, "is_disabled": 0, "fusion_lat": 0.0}, {"fusion_lon": 0.0, "bike_id": "182f634e21d48d64d0f6fdac77daa909", "name": "182f634e21d48d64d0f6fdac77daa909", "type": "electric_bike", "lon": -76.948678, "rental_uris": {"android": "https://dc.lft.to/lastmile_qr_scan", "ios": "https://dc.lft.to/lastmile_qr_scan"}, "lat": 38.88966283333333, "is_reserved": 0, "is_disabled": 0, "fusion_lat": 0.0}, {"fusion_lon": 0.0, "bike_id": "fa1351c77fe11e66301f17cec9480002", "name": "fa1351c77fe11e66301f17cec9480002", "type": "electric_scooter", "lon": -77.0370315, "rental_uris": {"android": "https://dc.lft.to/lastmile_qr_scan", "ios": "https://dc.lft.to/lastmile_qr_scan"}, "lat": 38.9264665, "is_reserved": 0, "is_disabled": 0, "fusion_lat": 0.0}, {"fusion_lon": 0.0, "bike_id": "81455a86f20dac8242a58067c5af0a20", "name": "81455a86f20dac8242a58067c5af0a20", "type": "electric_bike", "lon": -76.98520833333333, "rental_uris": {"android": "https://dc.lft.to/lastmile_qr_scan", "ios": "https://dc.lft.to/lastmile_qr_scan"}, "lat": 38.91994283333333, "is_reserved": 0, "is_disabled": 0, "fusion_lat": 0.0}, {"fusion_lon": 0.0, "bike_id": "a47e6e6888576dcdcf8c58baaf87080d", "name": "a47e6e6888576dcdcf8c58baaf87080d", "type": "electric_bike", "lon": -77.107305, "rental_uris": {"android": "https://dc.lft.to/lastmile_qr_scan", "ios": "https://dc.lft.to/lastmile_qr_scan"}, "lat": 38.855377833333336, "is_reserved": 0, "is_disabled": 0, "fusion_lat": 0.0}, {"fusion_lon": 0.0, "bike_id": "f75dfc0b74cffbeb8ebfb5929bd59580", "name": "f75dfc0b74cffbeb8ebfb5929bd59580", "type": "electric_bike", "lon": -76.99257116666666, "rental_uris": {"android": "https://dc.lft.to/lastmile_qr_scan", "ios": "https://dc.lft.to/lastmile_qr_scan"}, "lat": 38.926517, "is_reserved": 0, "is_disabled": 0, "fusion_lat": 0.0}, {"fusion_lon": 0.0, "bike_id": "dca47586f2f03d61da92d23ccb454365", "name": "dca47586f2f03d61da92d23ccb454365", "type": "electric_scooter", "lon": -77.0239725, "rental_uris": {"android": "https://dc.lft.to/lastmile_qr_scan", "ios": "https://dc.lft.to/lastmile_qr_scan"}, "lat": 38.916711, "is_reserved": 0, "is_disabled": 0, "fusion_lat": 0.0}, {"fusion_lon": 0.0, "bike_id": "e7ac8e73f7f7155feba98280dea49605", "name": "e7ac8e73f7f7155feba98280dea49605", "type": "electric_bike", "lon": -76.877776, "rental_uris": {"android": "https://dc.lft.to/lastmile_qr_scan", "ios": "https://dc.lft.to/lastmile_qr_scan"}, "lat": 38.9923035, "is_reserved": 0, "is_disabled": 0, "fusion_lat": 0.0}, {"fusion_lon": 0.0, "bike_id": "24e53acb2b47290d8c9e024b4a058ecd", "name": "24e53acb2b47290d8c9e024b4a058ecd", "type": "electric_scooter", "lon": -77.04015533333333, "rental_uris": {"android": "https://dc.lft.to/lastmile_qr_scan", "ios": "https://dc.lft.to/lastmile_qr_scan"}, "lat": 38.91298883333333, "is_reserved": 0, "is_disabled": 0, "fusion_lat": 0.0}, {"fusion_lon": 0.0, "bike_id": "342c86d8d3de7f8f043e2662ab8de24d", "name": "342c86d8d3de7f8f043e2662ab8de24d", "type": "electric_scooter", "lon": -77.019054, "rental_uris": {"android": "https://dc.lft.to/lastmile_qr_scan", "ios": "https://dc.lft.to/lastmile_qr_scan"}, "lat": 38.9233885, "is_reserved": 0, "is_disabled": 0, "fusion_lat": 0.0}, {"fusion_lon": 0.0, "bike_id": "92a3f63a22bd43e4ec26e3de73ac6ffc", "name": "92a3f63a22bd43e4ec26e3de73ac6ffc", "type": "electric_scooter", "lon": -77.03525416666666, "rental_uris": {"android": "https://dc.lft.to/lastmile_qr_scan", "ios": "https://dc.lft.to/lastmile_qr_scan"}, "lat": 38.92501016666667, "is_reserved": 0, "is_disabled": 0, "fusion_lat": 0.0}, {"fusion_lon": 0.0, "bike_id": "92d7844fb168c77ff3d42d561bc377a1", "name": "92d7844fb168c77ff3d42d561bc377a1", "type": "electric_scooter", "lon": -77.00341066666667, "rental_uris": {"android": "https://dc.lft.to/lastmile_qr_scan", "ios": "https://dc.lft.to/lastmile_qr_scan"}, "lat": 38.9070495, "is_reserved": 0, "is_disabled": 0, "fusion_lat": 0.0}, {"fusion_lon": 0.0, "bike_id": "b70dda903c93c18378cb9d2312edb447", "name": "b70dda903c93c18378cb9d2312edb447", "type": "electric_scooter", "lon": -77.02282016666666, "rental_uris": {"android": "https://dc.lft.to/lastmile_qr_scan", "ios": "https://dc.lft.to/lastmile_qr_scan"}, "lat": 38.878393833333334, "is_reserved": 0, "is_disabled": 0, "fusion_lat": 0.0}, {"fusion_lon": 0.0, "bike_id": "e10d0db9564ed215e6123c82325496ca", "name": "e10d0db9564ed215e6123c82325496ca", "type": "electric_scooter", "lon": -77.02192616666666, "rental_uris": {"android": "https://dc.lft.to/lastmile_qr_scan", "ios": "https://dc.lft.to/lastmile_qr_scan"}, "lat": 38.9143325, "is_reserved": 0, "is_disabled": 0, "fusion_lat": 0.0}, {"fusion_lon": 0.0, "bike_id": "1bedeed3d4131b6e52622b3b416fd921", "name": "1bedeed3d4131b6e52622b3b416fd921", "type": "electric_scooter", "lon": -77.02796783333334, "rental_uris": {"android": "https://dc.lft.to/lastmile_qr_scan", "ios": "https://dc.lft.to/lastmile_qr_scan"}, "lat": 38.95098633333333, "is_reserved": 0, "is_disabled": 0, "fusion_lat": 0.0}, {"fusion_lon": 0.0, "bike_id": "d3e736e68c81b624bec4ef5ff9e202b5", "name": "d3e736e68c81b624bec4ef5ff9e202b5", "type": "electric_scooter", "lon": -77.01792633333334, "rental_uris": {"android": "https://dc.lft.to/lastmile_qr_scan", "ios": "https://dc.lft.to/lastmile_qr_scan"}, "lat": 38.94118683333333, "is_reserved": 0, "is_disabled": 0, "fusion_lat": 0.0}, {"fusion_lon": 0.0, "bike_id": "6ea6629b72713c0cd5a84e581412bb35", "name": "6ea6629b72713c0cd5a84e581412bb35", "type": "electric_scooter", "lon": -77.011755, "rental_uris": {"android": "https://dc.lft.to/lastmile_qr_scan", "ios": "https://dc.lft.to/lastmile_qr_scan"}, "lat": 38.897415333333335, "is_reserved": 0, "is_disabled": 0, "fusion_lat": 0.0}, {"fusion_lon": 0.0, "bike_id": "d421ee351ab229ee9e7c150f5b66a353", "name": "d421ee351ab229ee9e7c150f5b66a353", "type": "electric_bike", "lon": -77.04900816666667, "rental_uris": {"android": "https://dc.lft.to/lastmile_qr_scan", "ios": "https://dc.lft.to/lastmile_qr_scan"}, "lat": 38.87494216666666, "is_reserved": 0, "is_disabled": 0, "fusion_lat": 0.0}, {"fusion_lon": 0.0, "bike_id": "26ef6c68c4923ca870ba8d4e64fc2e9d", "name": "26ef6c68c4923ca870ba8d4e64fc2e9d", "type": "electric_scooter", "lon": -77.00929516666666, "rental_uris": {"android": "https://dc.lft.to/lastmile_qr_scan", "ios": "https://dc.lft.to/lastmile_qr_scan"}, "lat": 38.898810833333336, "is_reserved": 0, "is_disabled": 0, "fusion_lat": 0.0}, {"fusion_lon": 0.0, "bike_id": "89f09733d46eb7e2adc2b40431c0a216", "name": "89f09733d46eb7e2adc2b40431c0a216", "type": "electric_scooter", "lon": -77.0304615, "rental_uris": {"android": "https://dc.lft.to/lastmile_qr_scan", "ios": "https://dc.lft.to/lastmile_qr_scan"}, "lat": 38.88400016666667, "is_reserved": 0, "is_disabled": 0, "fusion_lat": 0.0}, {"fusion_lon": 0.0, "bike_id": "2ef8af3cea8152677a4f398550827572", "name": "2ef8af3cea8152677a4f398550827572", "type": "electric_bike", "lon": -77.10027066666666, "rental_uris": {"android": "https://dc.lft.to/lastmile_qr_scan", "ios": "https://dc.lft.to/lastmile_qr_scan"}, "lat": 38.99056783333333, "is_reserved": 0, "is_disabled": 0, "fusion_lat": 0.0}, {"fusion_lon": 0.0, "bike_id": "0b04b9313b0ad44a930c8fdfbc66edd7", "name": "0b04b9313b0ad44a930c8fdfbc66edd7", "type": "electric_scooter", "lon": -77.05920883333333, "rental_uris": {"android": "https://dc.lft.to/lastmile_qr_scan", "ios": "https://dc.lft.to/lastmile_qr_scan"}, "lat": 38.90998166666667, "is_reserved": 0, "is_disabled": 0, "fusion_lat": 0.0}, {"fusion_lon": 0.0, "bike_id": "8db14dc77b9e87bf706e6f4f4a5906f6", "name": "8db14dc77b9e87bf706e6f4f4a5906f6", "type": "electric_scooter", "lon": -77.0333495, "rental_uris": {"android": "https://dc.lft.to/lastmile_qr_scan", "ios": "https://dc.lft.to/lastmile_qr_scan"}, "lat": 38.91908516666667, "is_reserved": 0, "is_disabled": 0, "fusion_lat": 0.0}, {"fusion_lon": 0.0, "bike_id": "9ced5fb1ffb477446ac68b4ba2232fd5", "name": "9ced5fb1ffb477446ac68b4ba2232fd5", "type": "electric_scooter", "lon": -77.05095766666666, "rental_uris": {"android": "https://dc.lft.to/lastmile_qr_scan", "ios": "https://dc.lft.to/lastmile_qr_scan"}, "lat": 38.92340516666667, "is_reserved": 0, "is_disabled": 0, "fusion_lat": 0.0}, {"fusion_lon": 0.0, "bike_id": "967634cc25e955b02cb124c29e62941d", "name": "967634cc25e955b02cb124c29e62941d", "type": "electric_scooter", "lon": -77.02420666666667, "rental_uris": {"android": "https://dc.lft.to/lastmile_qr_scan", "ios": "https://dc.lft.to/lastmile_qr_scan"}, "lat": 38.92371, "is_reserved": 0, "is_disabled": 0, "fusion_lat": 0.0}, {"fusion_lon": 0.0, "bike_id": "a0de57f3c6c14fb2fab7e79a573b8a22", "name": "a0de57f3c6c14fb2fab7e79a573b8a22", "type": "electric_scooter", "lon": -77.04644966666666, "rental_uris": {"android": "https://dc.lft.to/lastmile_qr_scan", "ios": "https://dc.lft.to/lastmile_qr_scan"}, "lat": 38.903688, "is_reserved": 0, "is_disabled": 0, "fusion_lat": 0.0}, {"fusion_lon": 0.0, "bike_id": "7b8292da144dbf207394edb39594af9b", "name": "7b8292da144dbf207394edb39594af9b", "type": "electric_scooter", "lon": -77.00859716666666, "rental_uris": {"android": "https://dc.lft.to/lastmile_qr_scan", "ios": "https://dc.lft.to/lastmile_qr_scan"}, "lat": 38.90633, "is_reserved": 0, "is_disabled": 0, "fusion_lat": 0.0}, {"fusion_lon": 0.0, "bike_id": "07bf10da325c1372b917b8bef7560144", "name": "07bf10da325c1372b917b8bef7560144", "type": "electric_scooter", "lon": -77.04031333333333, "rental_uris": {"android": "https://dc.lft.to/lastmile_qr_scan", "ios": "https://dc.lft.to/lastmile_qr_scan"}, "lat": 38.90348683333333, "is_reserved": 0, "is_disabled": 0, "fusion_lat": 0.0}, {"fusion_lon": 0.0, "bike_id": "ae7296bf2dd790e419bf8c964e196d75", "name": "ae7296bf2dd790e419bf8c964e196d75", "type": "electric_bike", "lon": -77.01300733333333, "rental_uris": {"android": "https://dc.lft.to/lastmile_qr_scan", "ios": "https://dc.lft.to/lastmile_qr_scan"}, "lat": 38.881313166666665, "is_reserved": 0, "is_disabled": 0, "fusion_lat": 0.0}, {"fusion_lon": 0.0, "bike_id": "a38abeca8692d8227982ec2b01b6ca0f", "name": "a38abeca8692d8227982ec2b01b6ca0f", "type": "electric_bike", "lon": -76.973292, "rental_uris": {"android": "https://dc.lft.to/lastmile_qr_scan", "ios": "https://dc.lft.to/lastmile_qr_scan"}, "lat": 38.85063383333333, "is_reserved": 0, "is_disabled": 0, "fusion_lat": 0.0}, {"fusion_lon": 0.0, "bike_id": "6b9f510ec5aec86b72352939d7f82f14", "name": "6b9f510ec5aec86b72352939d7f82f14", "type": "electric_scooter", "lon": -77.0404205, "rental_uris": {"android": "https://dc.lft.to/lastmile_qr_scan", "ios": "https://dc.lft.to/lastmile_qr_scan"}, "lat": 38.89889766666667, "is_reserved": 0, "is_disabled": 0, "fusion_lat": 0.0}, {"fusion_lon": 0.0, "bike_id": "3ac99a727e97d877a1d2cbec96287da0", "name": "3ac99a727e97d877a1d2cbec96287da0", "type": "electric_scooter", "lon": -76.9948235, "rental_uris": {"android": "https://dc.lft.to/lastmile_qr_scan", "ios": "https://dc.lft.to/lastmile_qr_scan"}, "lat": 38.86215833333333, "is_reserved": 0, "is_disabled": 0, "fusion_lat": 0.0}, {"fusion_lon": 0.0, "bike_id": "055f8861bf2b895e72f481d23f14cd47", "name": "055f8861bf2b895e72f481d23f14cd47", "type": "electric_scooter", "lon": -77.02480866666667, "rental_uris": {"android": "https://dc.lft.to/lastmile_qr_scan", "ios": "https://dc.lft.to/lastmile_qr_scan"}, "lat": 38.91610266666667, "is_reserved": 0, "is_disabled": 0, "fusion_lat": 0.0}, {"fusion_lon": 0.0, "bike_id": "7d413622c244dccf7050b2afe2cc516c", "name": "7d413622c244dccf7050b2afe2cc516c", "type": "electric_scooter", "lon": -77.019661, "rental_uris": {"android": "https://dc.lft.to/lastmile_qr_scan", "ios": "https://dc.lft.to/lastmile_qr_scan"}, "lat": 38.935801166666664, "is_reserved": 0, "is_disabled": 0, "fusion_lat": 0.0}, {"fusion_lon": 0.0, "bike_id": "bf94e96f7e15de71183bcaafa53f0fd7", "name": "bf94e96f7e15de71183bcaafa53f0fd7", "type": "electric_scooter", "lon": -77.03335666666666, "rental_uris": {"android": "https://dc.lft.to/lastmile_qr_scan", "ios": "https://dc.lft.to/lastmile_qr_scan"}, "lat": 38.9190685, "is_reserved": 0, "is_disabled": 0, "fusion_lat": 0.0}, {"fusion_lon": 0.0, "bike_id": "295ee2fb08c6b1984f33970851dfe63c", "name": "295ee2fb08c6b1984f33970851dfe63c", "type": "electric_scooter", "lon": -77.07994733333334, "rental_uris": {"android": "https://dc.lft.to/lastmile_qr_scan", "ios": "https://dc.lft.to/lastmile_qr_scan"}, "lat": 38.92370566666666, "is_reserved": 0, "is_disabled": 0, "fusion_lat": 0.0}, {"fusion_lon": 0.0, "bike_id": "493487fcef52d35adb4de7f432bfd3f9", "name": "493487fcef52d35adb4de7f432bfd3f9", "type": "electric_scooter", "lon": -77.03963566666667, "rental_uris": {"android": "https://dc.lft.to/lastmile_qr_scan", "ios": "https://dc.lft.to/lastmile_qr_scan"}, "lat": 38.90615716666667, "is_reserved": 0, "is_disabled": 0, "fusion_lat": 0.0}, {"fusion_lon": 0.0, "bike_id": "4d0c03c756c70d1103e521fc60c8c10f", "name": "4d0c03c756c70d1103e521fc60c8c10f", "type": "electric_scooter", "lon": -77.04671666666667, "rental_uris": {"android": "https://dc.lft.to/lastmile_qr_scan", "ios": "https://dc.lft.to/lastmile_qr_scan"}, "lat": 38.9051995, "is_reserved": 0, "is_disabled": 0, "fusion_lat": 0.0}, {"fusion_lon": 0.0, "bike_id": "0f3550db57e0850686fd68fab2f7bd37", "name": "0f3550db57e0850686fd68fab2f7bd37", "type": "electric_bike", "lon": -77.182922, "rental_uris": {"android": "https://dc.lft.to/lastmile_qr_scan", "ios": "https://dc.lft.to/lastmile_qr_scan"}, "lat": 38.883435666666664, "is_reserved": 0, "is_disabled": 0, "fusion_lat": 0.0}, {"fusion_lon": 0.0, "bike_id": "0748d6836ce6b8cf9f76492b0631bece", "name": "0748d6836ce6b8cf9f76492b0631bece", "type": "electric_scooter", "lon": -76.93744666666667, "rental_uris": {"android": "https://dc.lft.to/lastmile_qr_scan", "ios": "https://dc.lft.to/lastmile_qr_scan"}, "lat": 38.890124666666665, "is_reserved": 0, "is_disabled": 0, "fusion_lat": 0.0}, {"fusion_lon": 0.0, "bike_id": "a4dd4f9fab0a904b598aa85baffab1b3", "name": "a4dd4f9fab0a904b598aa85baffab1b3", "type": "electric_scooter", "lon": -77.032829, "rental_uris": {"android": "https://dc.lft.to/lastmile_qr_scan", "ios": "https://dc.lft.to/lastmile_qr_scan"}, "lat": 38.93250416666667, "is_reserved": 0, "is_disabled": 0, "fusion_lat": 0.0}, {"fusion_lon": 0.0, "bike_id": "30252030d0f59cffbe385c9f15224f1c", "name": "30252030d0f59cffbe385c9f15224f1c", "type": "electric_scooter", "lon": -77.06104216666667, "rental_uris": {"android": "https://dc.lft.to/lastmile_qr_scan", "ios": "https://dc.lft.to/lastmile_qr_scan"}, "lat": 38.943189333333336, "is_reserved": 0, "is_disabled": 0, "fusion_lat": 0.0}, {"fusion_lon": 0.0, "bike_id": "0bf7884c6e8bf1620da105faa925c462", "name": "0bf7884c6e8bf1620da105faa925c462", "type": "electric_scooter", "lon": -77.04876766666666, "rental_uris": {"android": "https://dc.lft.to/lastmile_qr_scan", "ios": "https://dc.lft.to/lastmile_qr_scan"}, "lat": 38.892251, "is_reserved": 0, "is_disabled": 0, "fusion_lat": 0.0}, {"fusion_lon": 0.0, "bike_id": "297431fe40472a6d2eab2a1267e680b7", "name": "297431fe40472a6d2eab2a1267e680b7", "type": "electric_scooter", "lon": -76.9947975, "rental_uris": {"android": "https://dc.lft.to/lastmile_qr_scan", "ios": "https://dc.lft.to/lastmile_qr_scan"}, "lat": 38.86231633333333, "is_reserved": 0, "is_disabled": 0, "fusion_lat": 0.0}, {"fusion_lon": 0.0, "bike_id": "783c91b26335c3145d1b9b14a890c32d", "name": "783c91b26335c3145d1b9b14a890c32d", "type": "electric_scooter", "lon": -77.02466566666666, "rental_uris": {"android": "https://dc.lft.to/lastmile_qr_scan", "ios": "https://dc.lft.to/lastmile_qr_scan"}, "lat": 38.939012166666664, "is_reserved": 0, "is_disabled": 0, "fusion_lat": 0.0}, {"fusion_lon": 0.0, "bike_id": "b7820ba5c76464630c5665b75a5d6ff2", "name": "b7820ba5c76464630c5665b75a5d6ff2", "type": "electric_scooter", "lon": -77.03479833333333, "rental_uris": {"android": "https://dc.lft.to/lastmile_qr_scan", "ios": "https://dc.lft.to/lastmile_qr_scan"}, "lat": 38.935352333333334, "is_reserved": 0, "is_disabled": 0, "fusion_lat": 0.0}, {"fusion_lon": 0.0, "bike_id": "9a7465e5539aebd8f2ec66a1ef054ebf", "name": "9a7465e5539aebd8f2ec66a1ef054ebf", "type": "electric_scooter", "lon": -76.9901835, "rental_uris": {"android": "https://dc.lft.to/lastmile_qr_scan", "ios": "https://dc.lft.to/lastmile_qr_scan"}, "lat": 38.85866433333333, "is_reserved": 0, "is_disabled": 0, "fusion_lat": 0.0}, {"fusion_lon": 0.0, "bike_id": "e583f6cb9158edaab49b909cdeb38a8a", "name": "e583f6cb9158edaab49b909cdeb38a8a", "type": "electric_scooter", "lon": -77.061602, "rental_uris": {"android": "https://dc.lft.to/lastmile_qr_scan", "ios": "https://dc.lft.to/lastmile_qr_scan"}, "lat": 38.905223, "is_reserved": 0, "is_disabled": 0, "fusion_lat": 0.0}, {"fusion_lon": 0.0, "bike_id": "9100502688f9d5f1fb15087c49a5f966", "name": "9100502688f9d5f1fb15087c49a5f966", "type": "electric_scooter", "lon": -77.026023, "rental_uris": {"android": "https://dc.lft.to/lastmile_qr_scan", "ios": "https://dc.lft.to/lastmile_qr_scan"}, "lat": 38.883656, "is_reserved": 0, "is_disabled": 0, "fusion_lat": 0.0}, {"fusion_lon": 0.0, "bike_id": "57073c13ce9b5e2a72899bf0aee25753", "name": "57073c13ce9b5e2a72899bf0aee25753", "type": "electric_scooter", "lon": -77.02781116666667, "rental_uris": {"android": "https://dc.lft.to/lastmile_qr_scan", "ios": "https://dc.lft.to/lastmile_qr_scan"}, "lat": 38.8922155, "is_reserved": 0, "is_disabled": 0, "fusion_lat": 0.0}, {"fusion_lon": 0.0, "bike_id": "29050387ec64b087575489ed6c3e0699", "name": "29050387ec64b087575489ed6c3e0699", "type": "electric_scooter", "lon": -77.01700633333333, "rental_uris": {"android": "https://dc.lft.to/lastmile_qr_scan", "ios": "https://dc.lft.to/lastmile_qr_scan"}, "lat": 38.907250166666664, "is_reserved": 0, "is_disabled": 0, "fusion_lat": 0.0}, {"fusion_lon": 0.0, "bike_id": "0b86bec481e97cf555368575e48f9b60", "name": "0b86bec481e97cf555368575e48f9b60", "type": "electric_scooter", "lon": -77.03345983333334, "rental_uris": {"android": "https://dc.lft.to/lastmile_qr_scan", "ios": "https://dc.lft.to/lastmile_qr_scan"}, "lat": 38.900373, "is_reserved": 0, "is_disabled": 0, "fusion_lat": 0.0}, {"fusion_lon": 0.0, "bike_id": "64c5b67d77ae0c4eedad613671cebf5d", "name": "64c5b67d77ae0c4eedad613671cebf5d", "type": "electric_scooter", "lon": -77.04656683333333, "rental_uris": {"android": "https://dc.lft.to/lastmile_qr_scan", "ios": "https://dc.lft.to/lastmile_qr_scan"}, "lat": 38.90140916666667, "is_reserved": 0, "is_disabled": 0, "fusion_lat": 0.0}, {"fusion_lon": 0.0, "bike_id": "cd830fdfe560df9978e05d88bcad9aa6", "name": "cd830fdfe560df9978e05d88bcad9aa6", "type": "electric_scooter", "lon": -77.02297, "rental_uris": {"android": "https://dc.lft.to/lastmile_qr_scan", "ios": "https://dc.lft.to/lastmile_qr_scan"}, "lat": 38.91713133333333, "is_reserved": 0, "is_disabled": 0, "fusion_lat": 0.0}, {"fusion_lon": 0.0, "bike_id": "30ef4fc86246fc67b2307f12b0004db4", "name": "30ef4fc86246fc67b2307f12b0004db4", "type": "electric_bike", "lon": -76.96558933333333, "rental_uris": {"android": "https://dc.lft.to/lastmile_qr_scan", "ios": "https://dc.lft.to/lastmile_qr_scan"}, "lat": 38.950859666666666, "is_reserved": 0, "is_disabled": 0, "fusion_lat": 0.0}, {"fusion_lon": 0.0, "bike_id": "58221f8bd13b1afbf038d282c659898f", "name": "58221f8bd13b1afbf038d282c659898f", "type": "electric_scooter", "lon": -77.048981, "rental_uris": {"android": "https://dc.lft.to/lastmile_qr_scan", "ios": "https://dc.lft.to/lastmile_qr_scan"}, "lat": 38.89231233333334, "is_reserved": 0, "is_disabled": 0, "fusion_lat": 0.0}, {"fusion_lon": 0.0, "bike_id": "fbacf460f08e17af91aa9d66d2478be1", "name": "fbacf460f08e17af91aa9d66d2478be1", "type": "electric_scooter", "lon": -77.04108266666667, "rental_uris": {"android": "https://dc.lft.to/lastmile_qr_scan", "ios": "https://dc.lft.to/lastmile_qr_scan"}, "lat": 38.90785183333333, "is_reserved": 0, "is_disabled": 0, "fusion_lat": 0.0}, {"fusion_lon": 0.0, "bike_id": "a9c481af8cf887d15724fe36073fbea1", "name": "a9c481af8cf887d15724fe36073fbea1", "type": "electric_scooter", "lon": -77.05202433333334, "rental_uris": {"android": "https://dc.lft.to/lastmile_qr_scan", "ios": "https://dc.lft.to/lastmile_qr_scan"}, "lat": 38.924596333333334, "is_reserved": 0, "is_disabled": 0, "fusion_lat": 0.0}, {"fusion_lon": 0.0, "bike_id": "e80d547a804c0b382353aec55a0ea1a7", "name": "e80d547a804c0b382353aec55a0ea1a7", "type": "electric_scooter", "lon": -77.04602233333334, "rental_uris": {"android": "https://dc.lft.to/lastmile_qr_scan", "ios": "https://dc.lft.to/lastmile_qr_scan"}, "lat": 38.91696116666667, "is_reserved": 0, "is_disabled": 0, "fusion_lat": 0.0}, {"fusion_lon": 0.0, "bike_id": "c7ccc530559071e0cfab182582d3f1e4", "name": "c7ccc530559071e0cfab182582d3f1e4", "type": "electric_scooter", "lon": -77.0059135, "rental_uris": {"android": "https://dc.lft.to/lastmile_qr_scan", "ios": "https://dc.lft.to/lastmile_qr_scan"}, "lat": 38.905266833333336, "is_reserved": 0, "is_disabled": 0, "fusion_lat": 0.0}, {"fusion_lon": 0.0, "bike_id": "beb56510d45a84b5a53e92941657e0f5", "name": "beb56510d45a84b5a53e92941657e0f5", "type": "electric_scooter", "lon": -76.99060116666666, "rental_uris": {"android": "https://dc.lft.to/lastmile_qr_scan", "ios": "https://dc.lft.to/lastmile_qr_scan"}, "lat": 38.8636065, "is_reserved": 0, "is_disabled": 0, "fusion_lat": 0.0}, {"fusion_lon": 0.0, "bike_id": "7093d2f355052f24cbf619ee82bc067e", "name": "7093d2f355052f24cbf619ee82bc067e", "type": "electric_scooter", "lon": -77.01372833333333, "rental_uris": {"android": "https://dc.lft.to/lastmile_qr_scan", "ios": "https://dc.lft.to/lastmile_qr_scan"}, "lat": 38.9286865, "is_reserved": 0, "is_disabled": 0, "fusion_lat": 0.0}, {"fusion_lon": 0.0, "bike_id": "e3ff058d6deb4778878649cbc39989cd", "name": "e3ff058d6deb4778878649cbc39989cd", "type": "electric_scooter", "lon": -77.007517, "rental_uris": {"android": "https://dc.lft.to/lastmile_qr_scan", "ios": "https://dc.lft.to/lastmile_qr_scan"}, "lat": 38.87719216666667, "is_reserved": 0, "is_disabled": 0, "fusion_lat": 0.0}, {"fusion_lon": 0.0, "bike_id": "7cde3623a38ad94b20407013c660ce4c", "name": "7cde3623a38ad94b20407013c660ce4c", "type": "electric_scooter", "lon": -77.03195116666667, "rental_uris": {"android": "https://dc.lft.to/lastmile_qr_scan", "ios": "https://dc.lft.to/lastmile_qr_scan"}, "lat": 38.89734716666667, "is_reserved": 0, "is_disabled": 0, "fusion_lat": 0.0}, {"fusion_lon": 0.0, "bike_id": "a757cce2d3152c778a90e34c0c159345", "name": "a757cce2d3152c778a90e34c0c159345", "type": "electric_scooter", "lon": -77.04336583333334, "rental_uris": {"android": "https://dc.lft.to/lastmile_qr_scan", "ios": "https://dc.lft.to/lastmile_qr_scan"}, "lat": 38.90719766666667, "is_reserved": 0, "is_disabled": 0, "fusion_lat": 0.0}, {"fusion_lon": 0.0, "bike_id": "3d3e31c23f8f254316db6b4a2c91617b", "name": "3d3e31c23f8f254316db6b4a2c91617b", "type": "electric_scooter", "lon": -77.00347516666666, "rental_uris": {"android": "https://dc.lft.to/lastmile_qr_scan", "ios": "https://dc.lft.to/lastmile_qr_scan"}, "lat": 38.88917566666667, "is_reserved": 0, "is_disabled": 0, "fusion_lat": 0.0}, {"fusion_lon": 0.0, "bike_id": "96a518b841b6ce15cdeabf23f9266152", "name": "96a518b841b6ce15cdeabf23f9266152", "type": "electric_scooter", "lon": -77.045603, "rental_uris": {"android": "https://dc.lft.to/lastmile_qr_scan", "ios": "https://dc.lft.to/lastmile_qr_scan"}, "lat": 38.9073595, "is_reserved": 0, "is_disabled": 0, "fusion_lat": 0.0}, {"fusion_lon": 0.0, "bike_id": "d2fa5576be3e747c55554aec286fa998", "name": "d2fa5576be3e747c55554aec286fa998", "type": "electric_scooter", "lon": -77.027443, "rental_uris": {"android": "https://dc.lft.to/lastmile_qr_scan", "ios": "https://dc.lft.to/lastmile_qr_scan"},