{"data": {"bikes": [{"bike_id": "91f1719c75ecee16a39ac824e7e568ae", "fusion_lon": 0.0, "lon": -77.00924516666667, "name": "91f1719c75ecee16a39ac824e7e568ae", "is_disabled": 0, "rental_uris": {"android": "https://dc.lft.to/lastmile_qr_scan", "ios": "https://dc.lft.to/lastmile_qr_scan"}, "type": "electric_scooter", "lat": 38.91343783333333, "is_reserved": 0, "fusion_lat": 0.0}, {"bike_id": "00d06b6410c064eb1296bed23159ea98", "fusion_lon": 0.0, "lon": -76.94139983333334, "name": "00d06b6410c064eb1296bed23159ea98", "is_disabled": 0, "rental_uris": {"android": "https://dc.lft.to/lastmile_qr_scan", "ios": "https://dc.lft.to/lastmile_qr_scan"}, "type": "electric_scooter", "lat": 38.87869883333333, "is_reserved": 0, "fusion_lat": 0.0}, {"bike_id": "768bc69777c94d52d6ad033faa1bad77", "fusion_lon": 0.0, "lon": -76.96528866666667, "name": "768bc69777c94d52d6ad033faa1bad77", "is_disabled": 0, "rental_uris": {"android": "https://dc.lft.to/lastmile_qr_scan", "ios": "https://dc.lft.to/lastmile_qr_scan"}, "type": "electric_scooter", "lat": 38.87626866666667, "is_reserved": 0, "fusion_lat": 0.0}, {"bike_id": "ecaa72f514dac73c86d92f211da0e2c1", "fusion_lon": 0.0, "lon": -77.02389466666666, "name": "ecaa72f514dac73c86d92f211da0e2c1", "is_disabled": 0, "rental_uris": {"android": "https://dc.lft.to/lastmile_qr_scan", "ios": "https://dc.lft.to/lastmile_qr_scan"}, "type": "electric_bike", "lat": 38.927498166666666, "is_reserved": 0, "fusion_lat": 0.0}, {"bike_id": "1b21bc1a9f5db20e9b3795f95dae9d5c", "fusion_lon": 0.0, "lon": -76.9248995, "name": "1b21bc1a9f5db20e9b3795f95dae9d5c", "is_disabled": 0, "rental_uris": {"android": "https://dc.lft.to/lastmile_qr_scan", "ios": "https://dc.lft.to/lastmile_qr_scan"}, "type": "electric_bike", "lat": 38.9588095, "is_reserved": 0, "fusion_lat": 0.0}, {"bike_id": "12fb10ab850a886186cd0cce2cb71c0d", "fusion_lon": 0.0, "lon": -76.99639633333334, "name": "12fb10ab850a886186cd0cce2cb71c0d", "is_disabled": 0, "rental_uris": {"android": "https://dc.lft.to/lastmile_qr_scan", "ios": "https://dc.lft.to/lastmile_qr_scan"}, "type": "electric_bike", "lat": 38.98824183333333, "is_reserved": 0, "fusion_lat": 0.0}, {"bike_id": "47b9036bbd9d82cde7dbabc4019a043a", "fusion_lon": 0.0, "lon": -77.047131, "name": "47b9036bbd9d82cde7dbabc4019a043a", "is_disabled": 0, "rental_uris": {"android": "https://dc.lft.to/lastmile_qr_scan", "ios": "https://dc.lft.to/lastmile_qr_scan"}, "type": "electric_scooter", "lat": 38.9020535, "is_reserved": 0, "fusion_lat": 0.0}, {"bike_id": "bc57a43364cdbcb36b6ca6a334f76326", "fusion_lon": 0.0, "lon": -77.0020805, "name": "bc57a43364cdbcb36b6ca6a334f76326", "is_disabled": 0, "rental_uris": {"android": "https://dc.lft.to/lastmile_qr_scan", "ios": "https://dc.lft.to/lastmile_qr_scan"}, "type": "electric_scooter", "lat": 38.90073783333333, "is_reserved": 0, "fusion_lat": 0.0}, {"bike_id": "e3d25d3b15835acfaa8cf882d9590615", "fusion_lon": 0.0, "lon": -77.02631883333333, "name": "e3d25d3b15835acfaa8cf882d9590615", "is_disabled": 0, "rental_uris": {"android": "https://dc.lft.to/lastmile_qr_scan", "ios": "https://dc.lft.to/lastmile_qr_scan"}, "type": "electric_scooter", "lat": 38.925418666666666, "is_reserved": 0, "fusion_lat": 0.0}, {"bike_id": "866b2d2c4b14f5a8daa3d31ce6d3caee", "fusion_lon": 0.0, "lon": -77.04338016666667, "name": "866b2d2c4b14f5a8daa3d31ce6d3caee", "is_disabled": 0, "rental_uris": {"android": "https://dc.lft.to/lastmile_qr_scan", "ios": "https://dc.lft.to/lastmile_qr_scan"}, "type": "electric_scooter", "lat": 38.91786316666666, "is_reserved": 0, "fusion_lat": 0.0}, {"bike_id": "24a3e96f86bf9d5360afc28ee71f428c", "fusion_lon": 0.0, "lon": -76.99958, "name": "24a3e96f86bf9d5360afc28ee71f428c", "is_disabled": 0, "rental_uris": {"android": "https://dc.lft.to/lastmile_qr_scan", "ios": "https://dc.lft.to/lastmile_qr_scan"}, "type": "electric_scooter", "lat": 38.918992833333334, "is_reserved": 0, "fusion_lat": 0.0}, {"bike_id": "91c37641c07e2f95b13a473984f41ebe", "fusion_lon": 0.0, "lon": -77.05858816666667, "name": "91c37641c07e2f95b13a473984f41ebe", "is_disabled": 0, "rental_uris": {"android": "https://dc.lft.to/lastmile_qr_scan", "ios": "https://dc.lft.to/lastmile_qr_scan"}, "type": "electric_scooter", "lat": 38.93606033333333, "is_reserved": 0, "fusion_lat": 0.0}, {"bike_id": "0546c39def9e73af33f2c99461126e3c", "fusion_lon": 0.0, "lon": -77.04398683333334, "name": "0546c39def9e73af33f2c99461126e3c", "is_disabled": 0, "rental_uris": {"android": "https://dc.lft.to/lastmile_qr_scan", "ios": "https://dc.lft.to/lastmile_qr_scan"}, "type": "electric_scooter", "lat": 38.91085733333333, "is_reserved": 0, "fusion_lat": 0.0}, {"bike_id": "3a20c64ec3cb1f971de8af0741d84c7a", "fusion_lon": 0.0, "lon": -77.02821583333333, "name": "3a20c64ec3cb1f971de8af0741d84c7a", "is_disabled": 0, "rental_uris": {"android": "https://dc.lft.to/lastmile_qr_scan", "ios": "https://dc.lft.to/lastmile_qr_scan"}, "type": "electric_bike", "lat": 38.914912, "is_reserved": 0, "fusion_lat": 0.0}, {"bike_id": "34178d90ecc53b2898da7e4571336021", "fusion_lon": 0.0, "lon": -77.053168, "name": "34178d90ecc53b2898da7e4571336021", "is_disabled": 0, "rental_uris": {"android": "https://dc.lft.to/lastmile_qr_scan", "ios": "https://dc.lft.to/lastmile_qr_scan"}, "type": "electric_scooter", "lat": 38.90664666666667, "is_reserved": 0, "fusion_lat": 0.0}, {"bike_id": "7262b62f51b915d84c63076c3569fd8f", "fusion_lon": 0.0, "lon": -77.02620033333334, "name": "7262b62f51b915d84c63076c3569fd8f", "is_disabled": 0, "rental_uris": {"android": "https://dc.lft.to/lastmile_qr_scan", "ios": "https://dc.lft.to/lastmile_qr_scan"}, "type": "electric_bike", "lat": 38.9693045, "is_reserved": 0, "fusion_lat": 0.0}, {"bike_id": "248255cc0d5ae55dda9d8201eadcc60a", "fusion_lon": 0.0, "lon": -77.022021, "name": "248255cc0d5ae55dda9d8201eadcc60a", "is_disabled": 0, "rental_uris": {"android": "https://dc.lft.to/lastmile_qr_scan", "ios": "https://dc.lft.to/lastmile_qr_scan"}, "type": "electric_scooter", "lat": 38.9054895, "is_reserved": 0, "fusion_lat": 0.0}, {"bike_id": "a9fd5e05c3830f74d03c3dd40dad165d", "fusion_lon": 0.0, "lon": -76.96527883333333, "name": "a9fd5e05c3830f74d03c3dd40dad165d", "is_disabled": 0, "rental_uris": {"android": "https://dc.lft.to/lastmile_qr_scan", "ios": "https://dc.lft.to/lastmile_qr_scan"}, "type": "electric_scooter", "lat": 38.87625166666667, "is_reserved": 0, "fusion_lat": 0.0}, {"bike_id": "57b7efb750389e2f8d33ee2b60f4812d", "fusion_lon": 0.0, "lon": -77.034255, "name": "57b7efb750389e2f8d33ee2b60f4812d", "is_disabled": 0, "rental_uris": {"android": "https://dc.lft.to/lastmile_qr_scan", "ios": "https://dc.lft.to/lastmile_qr_scan"}, "type": "electric_bike", "lat": 38.96618183333333, "is_reserved": 0, "fusion_lat": 0.0}, {"bike_id": "411084eca6e4cd1c5150a9125f53fe31", "fusion_lon": 0.0, "lon": -77.04484733333334, "name": "411084eca6e4cd1c5150a9125f53fe31", "is_disabled": 0, "rental_uris": {"android": "https://dc.lft.to/lastmile_qr_scan", "ios": "https://dc.lft.to/lastmile_qr_scan"}, "type": "electric_scooter", "lat": 38.911012166666666, "is_reserved": 0, "fusion_lat": 0.0}, {"bike_id": "60d77c7e3f8b4ce0fbd6c8040ac167ad", "fusion_lon": 0.0, "lon": -76.94207216666666, "name": "60d77c7e3f8b4ce0fbd6c8040ac167ad", "is_disabled": 0, "rental_uris": {"android": "https://dc.lft.to/lastmile_qr_scan", "ios": "https://dc.lft.to/lastmile_qr_scan"}, "type": "electric_scooter", "lat": 38.884150166666664, "is_reserved": 0, "fusion_lat": 0.0}, {"bike_id": "ea044ddc547a38efac518fe14a753a7a", "fusion_lon": 0.0, "lon": -77.04131966666667, "name": "ea044ddc547a38efac518fe14a753a7a", "is_disabled": 0, "rental_uris": {"android": "https://dc.lft.to/lastmile_qr_scan", "ios": "https://dc.lft.to/lastmile_qr_scan"}, "type": "electric_scooter", "lat": 38.921287166666666, "is_reserved": 0, "fusion_lat": 0.0}, {"bike_id": "ad31843eb894f4d3bb405d1c425903f8", "fusion_lon": 0.0, "lon": -77.04196183333333, "name": "ad31843eb894f4d3bb405d1c425903f8", "is_disabled": 0, "rental_uris": {"android": "https://dc.lft.to/lastmile_qr_scan", "ios": "https://dc.lft.to/lastmile_qr_scan"}, "type": "electric_bike", "lat": 38.905796, "is_reserved": 0, "fusion_lat": 0.0}, {"bike_id": "308b93cc6ee5f590640f938fcd127c63", "fusion_lon": 0.0, "lon": -77.0384375, "name": "308b93cc6ee5f590640f938fcd127c63", "is_disabled": 0, "rental_uris": {"android": "https://dc.lft.to/lastmile_qr_scan", "ios": "https://dc.lft.to/lastmile_qr_scan"}, "type": "electric_scooter", "lat": 38.90804083333333, "is_reserved": 0, "fusion_lat": 0.0}, {"bike_id": "ff4ee87f5579930c307b4c698615a7bb", "fusion_lon": 0.0, "lon": -76.9766855, "name": "ff4ee87f5579930c307b4c698615a7bb", "is_disabled": 0, "rental_uris": {"android": "https://dc.lft.to/lastmile_qr_scan", "ios": "https://dc.lft.to/lastmile_qr_scan"}, "type": "electric_scooter", "lat": 38.898581666666665, "is_reserved": 0, "fusion_lat": 0.0}, {"bike_id": "9a92ce0e2eef879211c0ec846428fc38", "fusion_lon": 0.0, "lon": -76.965279, "name": "9a92ce0e2eef879211c0ec846428fc38", "is_disabled": 0, "rental_uris": {"android": "https://dc.lft.to/lastmile_qr_scan", "ios": "https://dc.lft.to/lastmile_qr_scan"}, "type": "electric_scooter", "lat": 38.876273, "is_reserved": 0, "fusion_lat": 0.0}, {"bike_id": "8f1c59bf42f201e478cee85f9ff20d6e", "fusion_lon": 0.0, "lon": -77.1179995, "name": "8f1c59bf42f201e478cee85f9ff20d6e", "is_disabled": 0, "rental_uris": {"android": "https://dc.lft.to/lastmile_qr_scan", "ios": "https://dc.lft.to/lastmile_qr_scan"}, "type": "electric_bike", "lat": 38.87374833333333, "is_reserved": 0, "fusion_lat": 0.0}, {"bike_id": "0ed106b8770944580867bde3996e6f62", "fusion_lon": 0.0, "lon": -77.02530766666666, "name": "0ed106b8770944580867bde3996e6f62", "is_disabled": 0, "rental_uris": {"android": "https://dc.lft.to/lastmile_qr_scan", "ios": "https://dc.lft.to/lastmile_qr_scan"}, "type": "electric_scooter", "lat": 38.90568416666667, "is_reserved": 0, "fusion_lat": 0.0}, {"bike_id": "6b6c7d3997288fad6502b225859c67c6", "fusion_lon": 0.0, "lon": -77.0353055, "name": "6b6c7d3997288fad6502b225859c67c6", "is_disabled": 0, "rental_uris": {"android": "https://dc.lft.to/lastmile_qr_scan", "ios": "https://dc.lft.to/lastmile_qr_scan"}, "type": "electric_scooter", "lat": 38.916987166666665, "is_reserved": 0, "fusion_lat": 0.0}, {"bike_id": "510cee7a726e8e85fcdfa0ff1d628e8e", "fusion_lon": 0.0, "lon": -77.0414495, "name": "510cee7a726e8e85fcdfa0ff1d628e8e", "is_disabled": 0, "rental_uris": {"android": "https://dc.lft.to/lastmile_qr_scan", "ios": "https://dc.lft.to/lastmile_qr_scan"}, "type": "electric_scooter", "lat": 38.92300216666667, "is_reserved": 0, "fusion_lat": 0.0}, {"bike_id": "dcc5aafebabf825ab57a53460341c701", "fusion_lon": 0.0, "lon": -77.042401, "name": "dcc5aafebabf825ab57a53460341c701", "is_disabled": 0, "rental_uris": {"android": "https://dc.lft.to/lastmile_qr_scan", "ios": "https://dc.lft.to/lastmile_qr_scan"}, "type": "electric_scooter", "lat": 38.92223, "is_reserved": 0, "fusion_lat": 0.0}, {"bike_id": "f7332dc16311be21c89332d4154e0b79", "fusion_lon": 0.0, "lon": -77.018719, "name": "f7332dc16311be21c89332d4154e0b79", "is_disabled": 0, "rental_uris": {"android": "https://dc.lft.to/lastmile_qr_scan", "ios": "https://dc.lft.to/lastmile_qr_scan"}, "type": "electric_scooter", "lat": 38.93151366666667, "is_reserved": 0, "fusion_lat": 0.0}, {"bike_id": "d915f93a0c5375cbae4a68568c7a559a", "fusion_lon": 0.0, "lon": -77.03189333333333, "name": "d915f93a0c5375cbae4a68568c7a559a", "is_disabled": 0, "rental_uris": {"android": "https://dc.lft.to/lastmile_qr_scan", "ios": "https://dc.lft.to/lastmile_qr_scan"}, "type": "electric_scooter", "lat": 38.917451666666665, "is_reserved": 0, "fusion_lat": 0.0}, {"bike_id": "1831db6fc28ce1ed02e20a989c901372", "fusion_lon": 0.0, "lon": -77.01058866666666, "name": "1831db6fc28ce1ed02e20a989c901372", "is_disabled": 0, "rental_uris": {"android": "https://dc.lft.to/lastmile_qr_scan", "ios": "https://dc.lft.to/lastmile_qr_scan"}, "type": "electric_scooter", "lat": 38.86729, "is_reserved": 0, "fusion_lat": 0.0}, {"bike_id": "0c6e13a8d3eb6cd4773e9207465ee7b0", "fusion_lon": 0.0, "lon": -77.01854416666667, "name": "0c6e13a8d3eb6cd4773e9207465ee7b0", "is_disabled": 0, "rental_uris": {"android": "https://dc.lft.to/lastmile_qr_scan", "ios": "https://dc.lft.to/lastmile_qr_scan"}, "type": "electric_scooter", "lat": 38.973688833333334, "is_reserved": 0, "fusion_lat": 0.0}, {"bike_id": "8862197a08874e662b2e41d571dd6586", "fusion_lon": 0.0, "lon": -77.03226666666667, "name": "8862197a08874e662b2e41d571dd6586", "is_disabled": 0, "rental_uris": {"android": "https://dc.lft.to/lastmile_qr_scan", "ios": "https://dc.lft.to/lastmile_qr_scan"}, "type": "electric_scooter", "lat": 38.9086855, "is_reserved": 0, "fusion_lat": 0.0}, {"bike_id": "641cab36b1237e89f2bb2fefabe567a4", "fusion_lon": 0.0, "lon": -77.03693133333333, "name": "641cab36b1237e89f2bb2fefabe567a4", "is_disabled": 0, "rental_uris": {"android": "https://dc.lft.to/lastmile_qr_scan", "ios": "https://dc.lft.to/lastmile_qr_scan"}, "type": "electric_scooter", "lat": 38.916749833333334, "is_reserved": 0, "fusion_lat": 0.0}, {"bike_id": "e3ae4e3db8b1db3d15ecbc14313cb764", "fusion_lon": 0.0, "lon": -77.009347, "name": "e3ae4e3db8b1db3d15ecbc14313cb764", "is_disabled": 0, "rental_uris": {"android": "https://dc.lft.to/lastmile_qr_scan", "ios": "https://dc.lft.to/lastmile_qr_scan"}, "type": "electric_scooter", "lat": 38.89726233333333, "is_reserved": 0, "fusion_lat": 0.0}, {"bike_id": "21cc693187cb0ee3204a6d15e1d065df", "fusion_lon": 0.0, "lon": -77.04019433333333, "name": "21cc693187cb0ee3204a6d15e1d065df", "is_disabled": 0, "rental_uris": {"android": "https://dc.lft.to/lastmile_qr_scan", "ios": "https://dc.lft.to/lastmile_qr_scan"}, "type": "electric_bike", "lat": 38.7932595, "is_reserved": 0, "fusion_lat": 0.0}, {"bike_id": "3bb98a698f818b957b91bbc73c06d7c9", "fusion_lon": 0.0, "lon": -77.00935133333333, "name": "3bb98a698f818b957b91bbc73c06d7c9", "is_disabled": 0, "rental_uris": {"android": "https://dc.lft.to/lastmile_qr_scan", "ios": "https://dc.lft.to/lastmile_qr_scan"}, "type": "electric_scooter", "lat": 38.883349333333335, "is_reserved": 0, "fusion_lat": 0.0}, {"bike_id": "13dfbdb8775f642c87047700b14be1b7", "fusion_lon": 0.0, "lon": -77.032598, "name": "13dfbdb8775f642c87047700b14be1b7", "is_disabled": 0, "rental_uris": {"android": "https://dc.lft.to/lastmile_qr_scan", "ios": "https://dc.lft.to/lastmile_qr_scan"}, "type": "electric_scooter", "lat": 38.929961166666665, "is_reserved": 0, "fusion_lat": 0.0}, {"bike_id": "be78eed960bad6a4987301f5bd989c07", "fusion_lon": 0.0, "lon": -77.0319335, "name": "be78eed960bad6a4987301f5bd989c07", "is_disabled": 0, "rental_uris": {"android": "https://dc.lft.to/lastmile_qr_scan", "ios": "https://dc.lft.to/lastmile_qr_scan"}, "type": "electric_scooter", "lat": 38.913303166666665, "is_reserved": 0, "fusion_lat": 0.0}, {"bike_id": "8ffd0c6fcd10f5143a8e55a4110b9b39", "fusion_lon": 0.0, "lon": -76.9724095, "name": "8ffd0c6fcd10f5143a8e55a4110b9b39", "is_disabled": 0, "rental_uris": {"android": "https://dc.lft.to/lastmile_qr_scan", "ios": "https://dc.lft.to/lastmile_qr_scan"}, "type": "electric_bike", "lat": 38.949039, "is_reserved": 0, "fusion_lat": 0.0}, {"bike_id": "00e3fb8a7f77e7e4727349b41d5062d7", "fusion_lon": 0.0, "lon": -77.0328785, "name": "00e3fb8a7f77e7e4727349b41d5062d7", "is_disabled": 0, "rental_uris": {"android": "https://dc.lft.to/lastmile_qr_scan", "ios": "https://dc.lft.to/lastmile_qr_scan"}, "type": "electric_scooter", "lat": 38.89907, "is_reserved": 0, "fusion_lat": 0.0}, {"bike_id": "a68f92103dd2638da79cfdc3402a04cb", "fusion_lon": 0.0, "lon": -77.02220466666667, "name": "a68f92103dd2638da79cfdc3402a04cb", "is_disabled": 0, "rental_uris": {"android": "https://dc.lft.to/lastmile_qr_scan", "ios": "https://dc.lft.to/lastmile_qr_scan"}, "type": "electric_scooter", "lat": 38.89976566666667, "is_reserved": 0, "fusion_lat": 0.0}, {"bike_id": "fb8bd2900d2ab95aeced565092d96005", "fusion_lon": 0.0, "lon": -77.026953, "name": "fb8bd2900d2ab95aeced565092d96005", "is_disabled": 0, "rental_uris": {"android": "https://dc.lft.to/lastmile_qr_scan", "ios": "https://dc.lft.to/lastmile_qr_scan"}, "type": "electric_scooter", "lat": 38.9068415, "is_reserved": 0, "fusion_lat": 0.0}, {"bike_id": "4a7328fc6b6a1c5ef28e181e72f933e1", "fusion_lon": 0.0, "lon": -77.107078, "name": "4a7328fc6b6a1c5ef28e181e72f933e1", "is_disabled": 0, "rental_uris": {"android": "https://dc.lft.to/lastmile_qr_scan", "ios": "https://dc.lft.to/lastmile_qr_scan"}, "type": "electric_bike", "lat": 38.96487966666667, "is_reserved": 0, "fusion_lat": 0.0}, {"bike_id": "a4efe60a437029c7c73209392fee6aad", "fusion_lon": 0.0, "lon": -77.022388, "name": "a4efe60a437029c7c73209392fee6aad", "is_disabled": 0, "rental_uris": {"android": "https://dc.lft.to/lastmile_qr_scan", "ios": "https://dc.lft.to/lastmile_qr_scan"}, "type": "electric_scooter", "lat": 38.9164465, "is_reserved": 0, "fusion_lat": 0.0}, {"bike_id": "8c6b3020da32c867aa0bd8015db4d393", "fusion_lon": 0.0, "lon": -77.02160366666666, "name": "8c6b3020da32c867aa0bd8015db4d393", "is_disabled": 0, "rental_uris": {"android": "https://dc.lft.to/lastmile_qr_scan", "ios": "https://dc.lft.to/lastmile_qr_scan"}, "type": "electric_scooter", "lat": 38.90363933333333, "is_reserved": 0, "fusion_lat": 0.0}, {"bike_id": "7436538f32e2af1372ace34145e77fa0", "fusion_lon": 0.0, "lon": -77.03178033333333, "name": "7436538f32e2af1372ace34145e77fa0", "is_disabled": 0, "rental_uris": {"android": "https://dc.lft.to/lastmile_qr_scan", "ios": "https://dc.lft.to/lastmile_qr_scan"}, "type": "electric_scooter", "lat": 38.9141735, "is_reserved": 0, "fusion_lat": 0.0}, {"bike_id": "6c34536b7540e02942dad6f0c098753b", "fusion_lon": 0.0, "lon": -76.97331383333334, "name": "6c34536b7540e02942dad6f0c098753b", "is_disabled": 0, "rental_uris": {"android": "https://dc.lft.to/lastmile_qr_scan", "ios": "https://dc.lft.to/lastmile_qr_scan"}, "type": "electric_bike", "lat": 38.865162166666664, "is_reserved": 0, "fusion_lat": 0.0}, {"bike_id": "428cd0fbca065c5dcfadc1de5e9c4eb8", "fusion_lon": 0.0, "lon": -77.04124483333334, "name": "428cd0fbca065c5dcfadc1de5e9c4eb8", "is_disabled": 0, "rental_uris": {"android": "https://dc.lft.to/lastmile_qr_scan", "ios": "https://dc.lft.to/lastmile_qr_scan"}, "type": "electric_scooter", "lat": 38.9055045, "is_reserved": 0, "fusion_lat": 0.0}, {"bike_id": "2a19f94ea16e8e4c7edfe3de7b694fb7", "fusion_lon": 0.0, "lon": -77.03369883333333, "name": "2a19f94ea16e8e4c7edfe3de7b694fb7", "is_disabled": 0, "rental_uris": {"android": "https://dc.lft.to/lastmile_qr_scan", "ios": "https://dc.lft.to/lastmile_qr_scan"}, "type": "electric_scooter", "lat": 38.92866766666667, "is_reserved": 0, "fusion_lat": 0.0}, {"bike_id": "e65d7afaf42b17feabede7815d353e49", "fusion_lon": 0.0, "lon": -77.00839566666667, "name": "e65d7afaf42b17feabede7815d353e49", "is_disabled": 0, "rental_uris": {"android": "https://dc.lft.to/lastmile_qr_scan", "ios": "https://dc.lft.to/lastmile_qr_scan"}, "type": "electric_bike", "lat": 38.82909683333333, "is_reserved": 0, "fusion_lat": 0.0}, {"bike_id": "3ea8b79591b105db0f008a31e9379e4b", "fusion_lon": 0.0, "lon": -77.021974, "name": "3ea8b79591b105db0f008a31e9379e4b", "is_disabled": 0, "rental_uris": {"android": "https://dc.lft.to/lastmile_qr_scan", "ios": "https://dc.lft.to/lastmile_qr_scan"}, "type": "electric_scooter", "lat": 38.905511, "is_reserved": 0, "fusion_lat": 0.0}, {"bike_id": "2bc03347befb86a5be774c022f0fc285", "fusion_lon": 0.0, "lon": -77.002077, "name": "2bc03347befb86a5be774c022f0fc285", "is_disabled": 0, "rental_uris": {"android": "https://dc.lft.to/lastmile_qr_scan", "ios": "https://dc.lft.to/lastmile_qr_scan"}, "type": "electric_scooter", "lat": 38.90076916666666, "is_reserved": 0, "fusion_lat": 0.0}, {"bike_id": "58af8a5c299eb72fb9018e7084edad37", "fusion_lon": 0.0, "lon": -76.96667566666666, "name": "58af8a5c299eb72fb9018e7084edad37", "is_disabled": 0, "rental_uris": {"android": "https://dc.lft.to/lastmile_qr_scan", "ios": "https://dc.lft.to/lastmile_qr_scan"}, "type": "electric_scooter", "lat": 38.85078, "is_reserved": 0, "fusion_lat": 0.0}, {"bike_id": "2bc644d044b8ac463d0ec8db5b125ffd", "fusion_lon": 0.0, "lon": -77.0389845, "name": "2bc644d044b8ac463d0ec8db5b125ffd", "is_disabled": 0, "rental_uris": {"android": "https://dc.lft.to/lastmile_qr_scan", "ios": "https://dc.lft.to/lastmile_qr_scan"}, "type": "electric_scooter", "lat": 38.9220395, "is_reserved": 0, "fusion_lat": 0.0}, {"bike_id": "6ca62fd7bee4fe01ff32ba077ca048fa", "fusion_lon": 0.0, "lon": -77.02574616666666, "name": "6ca62fd7bee4fe01ff32ba077ca048fa", "is_disabled": 0, "rental_uris": {"android": "https://dc.lft.to/lastmile_qr_scan", "ios": "https://dc.lft.to/lastmile_qr_scan"}, "type": "electric_scooter", "lat": 38.88743683333333, "is_reserved": 0, "fusion_lat": 0.0}, {"bike_id": "19ce3e6bc241d08226f080ef65b42ccc", "fusion_lon": 0.0, "lon": -77.04332533333333, "name": "19ce3e6bc241d08226f080ef65b42ccc", "is_disabled": 0, "rental_uris": {"android": "https://dc.lft.to/lastmile_qr_scan", "ios": "https://dc.lft.to/lastmile_qr_scan"}, "type": "electric_scooter", "lat": 38.902614166666666, "is_reserved": 0, "fusion_lat": 0.0}, {"bike_id": "7e7e6668a356bce82778cb1b0a8383b4", "fusion_lon": 0.0, "lon": -77.04828283333333, "name": "7e7e6668a356bce82778cb1b0a8383b4", "is_disabled": 0, "rental_uris": {"android": "https://dc.lft.to/lastmile_qr_scan", "ios": "https://dc.lft.to/lastmile_qr_scan"}, "type": "electric_scooter", "lat": 38.90966133333333, "is_reserved": 0, "fusion_lat": 0.0}, {"bike_id": "e600814dd1a92c855eada6a2db445047", "fusion_lon": 0.0, "lon": -77.03208883333333, "name": "e600814dd1a92c855eada6a2db445047", "is_disabled": 0, "rental_uris": {"android": "https://dc.lft.to/lastmile_qr_scan", "ios": "https://dc.lft.to/lastmile_qr_scan"}, "type": "electric_scooter", "lat": 38.91621816666667, "is_reserved": 0, "fusion_lat": 0.0}, {"bike_id": "6bfce844984c0bd4098539d1ebff99d6", "fusion_lon": 0.0, "lon": -77.03262566666666, "name": "6bfce844984c0bd4098539d1ebff99d6", "is_disabled": 0, "rental_uris": {"android": "https://dc.lft.to/lastmile_qr_scan", "ios": "https://dc.lft.to/lastmile_qr_scan"}, "type": "electric_scooter", "lat": 38.933095333333334, "is_reserved": 0, "fusion_lat": 0.0}, {"bike_id": "176fce2056b865ce9b1ed928d67226e5", "fusion_lon": 0.0, "lon": -76.994863, "name": "176fce2056b865ce9b1ed928d67226e5", "is_disabled": 0, "rental_uris": {"android": "https://dc.lft.to/lastmile_qr_scan", "ios": "https://dc.lft.to/lastmile_qr_scan"}, "type": "electric_scooter", "lat": 38.90983666666666, "is_reserved": 0, "fusion_lat": 0.0}, {"bike_id": "7063215c96f6777961faf488902b0524", "fusion_lon": 0.0, "lon": -76.93761133333334, "name": "7063215c96f6777961faf488902b0524", "is_disabled": 0, "rental_uris": {"android": "https://dc.lft.to/lastmile_qr_scan", "ios": "https://dc.lft.to/lastmile_qr_scan"}, "type": "electric_scooter", "lat": 38.903906166666665, "is_reserved": 0, "fusion_lat": 0.0}, {"bike_id": "21038075af2f3856638e85782191e1c7", "fusion_lon": 0.0, "lon": -76.97725533333333, "name": "21038075af2f3856638e85782191e1c7", "is_disabled": 0, "rental_uris": {"android": "https://dc.lft.to/lastmile_qr_scan", "ios": "https://dc.lft.to/lastmile_qr_scan"}, "type": "electric_scooter", "lat": 38.872462166666665, "is_reserved": 0, "fusion_lat": 0.0}, {"bike_id": "18a6c0d376439b99cccd34e56c0110d2", "fusion_lon": 0.0, "lon": -77.02399866666667, "name": "18a6c0d376439b99cccd34e56c0110d2", "is_disabled": 0, "rental_uris": {"android": "https://dc.lft.to/lastmile_qr_scan", "ios": "https://dc.lft.to/lastmile_qr_scan"}, "type": "electric_scooter", "lat": 38.89736, "is_reserved": 0, "fusion_lat": 0.0}, {"bike_id": "6fc3154db5973a45d12062090e5178cd", "fusion_lon": 0.0, "lon": -77.03180916666666, "name": "6fc3154db5973a45d12062090e5178cd", "is_disabled": 0, "rental_uris": {"android": "https://dc.lft.to/lastmile_qr_scan", "ios": "https://dc.lft.to/lastmile_qr_scan"}, "type": "electric_scooter", "lat": 38.915473666666664, "is_reserved": 0, "fusion_lat": 0.0}, {"bike_id": "6707fcdd213ead1f35667f78c0e86906", "fusion_lon": 0.0, "lon": -76.97340333333334, "name": "6707fcdd213ead1f35667f78c0e86906", "is_disabled": 0, "rental_uris": {"android": "https://dc.lft.to/lastmile_qr_scan", "ios": "https://dc.lft.to/lastmile_qr_scan"}, "type": "electric_scooter", "lat": 38.919704, "is_reserved": 0, "fusion_lat": 0.0}, {"bike_id": "593e5c8969631f38015c0f9488a95de2", "fusion_lon": 0.0, "lon": -76.9994885, "name": "593e5c8969631f38015c0f9488a95de2", "is_disabled": 0, "rental_uris": {"android": "https://dc.lft.to/lastmile_qr_scan", "ios": "https://dc.lft.to/lastmile_qr_scan"}, "type": "electric_scooter", "lat": 38.8429505, "is_reserved": 0, "fusion_lat": 0.0}, {"bike_id": "ecc114b72ce5db7bc9b53526e1f4a360", "fusion_lon": 0.0, "lon": -77.00865033333334, "name": "ecc114b72ce5db7bc9b53526e1f4a360", "is_disabled": 0, "rental_uris": {"android": "https://dc.lft.to/lastmile_qr_scan", "ios": "https://dc.lft.to/lastmile_qr_scan"}, "type": "electric_scooter", "lat": 38.87932466666667, "is_reserved": 0, "fusion_lat": 0.0}, {"bike_id": "318aacc1795b333c89c8af0f2d42aa9a", "fusion_lon": 0.0, "lon": -77.041593, "name": "318aacc1795b333c89c8af0f2d42aa9a", "is_disabled": 0, "rental_uris": {"android": "https://dc.lft.to/lastmile_qr_scan", "ios": "https://dc.lft.to/lastmile_qr_scan"}, "type": "electric_scooter", "lat": 38.91649366666667, "is_reserved": 0, "fusion_lat": 0.0}, {"bike_id": "1067375a3fcfa3d49a7b7e2f5d297b4b", "fusion_lon": 0.0, "lon": -77.038147, "name": "1067375a3fcfa3d49a7b7e2f5d297b4b", "is_disabled": 0, "rental_uris": {"android": "https://dc.lft.to/lastmile_qr_scan", "ios": "https://dc.lft.to/lastmile_qr_scan"}, "type": "electric_scooter", "lat": 38.9256305, "is_reserved": 0, "fusion_lat": 0.0}, {"bike_id": "36ab9e6fa7668d4ecdea688b53f9fb12", "fusion_lon": 0.0, "lon": -77.0272375, "name": "36ab9e6fa7668d4ecdea688b53f9fb12", "is_disabled": 0, "rental_uris": {"android": "https://dc.lft.to/lastmile_qr_scan", "ios": "https://dc.lft.to/lastmile_qr_scan"}, "type": "electric_scooter", "lat": 38.9495765, "is_reserved": 0, "fusion_lat": 0.0}, {"bike_id": "dd55651117377e67acac305352f2679f", "fusion_lon": 0.0, "lon": -77.0347835, "name": "dd55651117377e67acac305352f2679f", "is_disabled": 0, "rental_uris": {"android": "https://dc.lft.to/lastmile_qr_scan", "ios": "https://dc.lft.to/lastmile_qr_scan"}, "type": "electric_scooter", "lat": 38.90557, "is_reserved": 0, "fusion_lat": 0.0}, {"bike_id": "e88965d6b532c5da8359576bb98805c0", "fusion_lon": 0.0, "lon": -77.04383966666667, "name": "e88965d6b532c5da8359576bb98805c0", "is_disabled": 0, "rental_uris": {"android": "https://dc.lft.to/lastmile_qr_scan", "ios": "https://dc.lft.to/lastmile_qr_scan"}, "type": "electric_scooter", "lat": 38.9166225, "is_reserved": 0, "fusion_lat": 0.0}, {"bike_id": "c03b64d58aa28da86644763bb24cc7b9", "fusion_lon": 0.0, "lon": -77.0307375, "name": "c03b64d58aa28da86644763bb24cc7b9", "is_disabled": 0, "rental_uris": {"android": "https://dc.lft.to/lastmile_qr_scan", "ios": "https://dc.lft.to/lastmile_qr_scan"}, "type": "electric_scooter", "lat": 38.917485, "is_reserved": 0, "fusion_lat": 0.0}, {"bike_id": "f35304037f5650d18de582f81dc819f9", "fusion_lon": 0.0, "lon": -77.02423683333333, "name": "f35304037f5650d18de582f81dc819f9", "is_disabled": 0, "rental_uris": {"android": "https://dc.lft.to/lastmile_qr_scan", "ios": "https://dc.lft.to/lastmile_qr_scan"}, "type": "electric_scooter", "lat": 38.92089283333333, "is_reserved": 0, "fusion_lat": 0.0}, {"bike_id": "29979ced8f6decc4ac3918d4a56732e7", "fusion_lon": 0.0, "lon": -77.03698816666666, "name": "29979ced8f6decc4ac3918d4a56732e7", "is_disabled": 0, "rental_uris": {"android": "https://dc.lft.to/lastmile_qr_scan", "ios": "https://dc.lft.to/lastmile_qr_scan"}, "type": "electric_bike", "lat": 38.93549983333333, "is_reserved": 0, "fusion_lat": 0.0}, {"bike_id": "49c9ad2b1cd48a640f4b6e3eb561b2b6", "fusion_lon": 0.0, "lon": -77.02794816666666, "name": "49c9ad2b1cd48a640f4b6e3eb561b2b6", "is_disabled": 0, "rental_uris": {"android": "https://dc.lft.to/lastmile_qr_scan", "ios": "https://dc.lft.to/lastmile_qr_scan"}, "type": "electric_scooter", "lat": 38.93082833333333, "is_reserved": 0, "fusion_lat": 0.0}, {"bike_id": "91024d6433038e17e39c443ad5554237", "fusion_lon": 0.0, "lon": -77.016162, "name": "91024d6433038e17e39c443ad5554237", "is_disabled": 0, "rental_uris": {"android": "https://dc.lft.to/lastmile_qr_scan", "ios": "https://dc.lft.to/lastmile_qr_scan"}, "type": "electric_scooter", "lat": 38.895058166666665, "is_reserved": 0, "fusion_lat": 0.0}, {"bike_id": "7f4a57d25e40660da8b9e2f935620a7e", "fusion_lon": 0.0, "lon": -77.06407366666667, "name": "7f4a57d25e40660da8b9e2f935620a7e", "is_disabled": 0, "rental_uris": {"android": "https://dc.lft.to/lastmile_qr_scan", "ios": "https://dc.lft.to/lastmile_qr_scan"}, "type": "electric_scooter", "lat": 38.91366883333333, "is_reserved": 0, "fusion_lat": 0.0}, {"bike_id": "185a33885c81c13a2a4a7e71c4d1f3df", "fusion_lon": 0.0, "lon": -77.04355183333334, "name": "185a33885c81c13a2a4a7e71c4d1f3df", "is_disabled": 0, "rental_uris": {"android": "https://dc.lft.to/lastmile_qr_scan", "ios": "https://dc.lft.to/lastmile_qr_scan"}, "type": "electric_scooter", "lat": 38.910507833333334, "is_reserved": 0, "fusion_lat": 0.0}, {"bike_id": "c27935df1dcf1a1c7b488f687b09adbe", "fusion_lon": 0.0, "lon": -77.0249215, "name": "c27935df1dcf1a1c7b488f687b09adbe", "is_disabled": 0, "rental_uris": {"android": "https://dc.lft.to/lastmile_qr_scan", "ios": "https://dc.lft.to/lastmile_qr_scan"}, "type": "electric_scooter", "lat": 38.94184116666667, "is_reserved": 0, "fusion_lat": 0.0}, {"bike_id": "6661b64dfd95b4d857e407649127b584", "fusion_lon": 0.0, "lon": -77.03467266666667, "name": "6661b64dfd95b4d857e407649127b584", "is_disabled": 0, "rental_uris": {"android": "https://dc.lft.to/lastmile_qr_scan", "ios": "https://dc.lft.to/lastmile_qr_scan"}, "type": "electric_scooter", "lat": 38.904460666666665, "is_reserved": 0, "fusion_lat": 0.0}, {"bike_id": "6f0c58dd2f8432df85dbbe1175133752", "fusion_lon": 0.0, "lon": -77.0487035, "name": "6f0c58dd2f8432df85dbbe1175133752", "is_disabled": 0, "rental_uris": {"android": "https://dc.lft.to/lastmile_qr_scan", "ios": "https://dc.lft.to/lastmile_qr_scan"}, "type": "electric_scooter", "lat": 38.904763333333335, "is_reserved": 0, "fusion_lat": 0.0}, {"bike_id": "cd34cae17c092f388ef7876482022e82", "fusion_lon": 0.0, "lon": -77.00582083333333, "name": "cd34cae17c092f388ef7876482022e82", "is_disabled": 0, "rental_uris": {"android": "https://dc.lft.to/lastmile_qr_scan", "ios": "https://dc.lft.to/lastmile_qr_scan"}, "type": "electric_scooter", "lat": 38.902671833333336, "is_reserved": 0, "fusion_lat": 0.0}, {"bike_id": "a292933d6f97ef645ff5b36978b0fb80", "fusion_lon": 0.0, "lon": -77.08277966666667, "name": "a292933d6f97ef645ff5b36978b0fb80", "is_disabled": 0, "rental_uris": {"android": "https://dc.lft.to/lastmile_qr_scan", "ios": "https://dc.lft.to/lastmile_qr_scan"}, "type": "electric_scooter", "lat": 38.93023516666667, "is_reserved": 0, "fusion_lat": 0.0}, {"bike_id": "97071fc2756bdcc1a25d03b72b361d5f", "fusion_lon": 0.0, "lon": -77.066983, "name": "97071fc2756bdcc1a25d03b72b361d5f", "is_disabled": 0, "rental_uris": {"android": "https://dc.lft.to/lastmile_qr_scan", "ios": "https://dc.lft.to/lastmile_qr_scan"}, "type": "electric_scooter", "lat": 38.9049715, "is_reserved": 0, "fusion_lat": 0.0}, {"bike_id": "9b73b424ada861be87c40853d1ea223d", "fusion_lon": 0.0, "lon": -77.03145933333333, "name": "9b73b424ada861be87c40853d1ea223d", "is_disabled": 0, "rental_uris": {"android": "https://dc.lft.to/lastmile_qr_scan", "ios": "https://dc.lft.to/lastmile_qr_scan"}, "type": "electric_scooter", "lat": 38.91563333333333, "is_reserved": 0, "fusion_lat": 0.0}, {"bike_id": "62c390467b260a52426eb28e3d82cd46", "fusion_lon": 0.0, "lon": -77.03440816666667, "name": "62c390467b260a52426eb28e3d82cd46", "is_disabled": 0, "rental_uris": {"android": "https://dc.lft.to/lastmile_qr_scan", "ios": "https://dc.lft.to/lastmile_qr_scan"}, "type": "electric_scooter", "lat": 38.918170333333336, "is_reserved": 0, "fusion_lat": 0.0}, {"bike_id": "0feaaa311b5052b6a354e535ce4d638a", "fusion_lon": 0.0, "lon": -76.99694133333334, "name": "0feaaa311b5052b6a354e535ce4d638a", "is_disabled": 0, "rental_uris": {"android": "https://dc.lft.to/lastmile_qr_scan", "ios": "https://dc.lft.to/lastmile_qr_scan"}, "type": "electric_scooter", "lat": 38.908348, "is_reserved": 0, "fusion_lat": 0.0}, {"bike_id": "985517ec475f2e6dbc8f6e08e9b83ffc", "fusion_lon": 0.0, "lon": -77.0215205, "name": "985517ec475f2e6dbc8f6e08e9b83ffc", "is_disabled": 0, "rental_uris": {"android": "https://dc.lft.to/lastmile_qr_scan", "ios": "https://dc.lft.to/lastmile_qr_scan"}, "type": "electric_scooter", "lat": 38.9307495, "is_reserved": 0, "fusion_lat": 0.0}, {"bike_id": "d121e91db9e028d255d1d1a198bfdbc2", "fusion_lon": 0.0, "lon": -77.02417183333333, "name": "d121e91db9e028d255d1d1a198bfdbc2", "is_disabled": 0, "rental_uris": {"android": "https://dc.lft.to/lastmile_qr_scan", "ios": "https://dc.lft.to/lastmile_qr_scan"}, "type": "electric_scooter", "lat": 38.91902533333333, "is_reserved": 0, "fusion_lat": 0.0}, {"bike_id": "0f0ef8fa9d4de908603ca7e865da985f", "fusion_lon": 0.0, "lon": -77.07272566666667, "name": "0f0ef8fa9d4de908603ca7e865da985f", "is_disabled": 0, "rental_uris": {"android": "https://dc.lft.to/lastmile_qr_scan", "ios": "https://dc.lft.to/lastmile_qr_scan"}, "type": "electric_scooter", "lat": 38.934922, "is_reserved": 0, "fusion_lat": 0.0}, {"bike_id": "997828255ff4f6f6bb3c48596e95c4e2", "fusion_lon": 0.0, "lon": -77.007162, "name": "997828255ff4f6f6bb3c48596e95c4e2", "is_disabled": 0, "rental_uris": {"android": "https://dc.lft.to/lastmile_qr_scan", "ios": "https://dc.lft.to/lastmile_qr_scan"}, "type": "electric_scooter", "lat": 38.87676733333333, "is_reserved": 0, "fusion_lat": 0.0}, {"bike_id": "84e8aac775a9cb8bd95ee0a46f31d22a", "fusion_lon": 0.0, "lon": -76.99520583333333, "name": "84e8aac775a9cb8bd95ee0a46f31d22a", "is_disabled": 0, "rental_uris": {"android": "https://dc.lft.to/lastmile_qr_scan", "ios": "https://dc.lft.to/lastmile_qr_scan"}, "type": "electric_scooter", "lat": 38.86253216666667, "is_reserved": 0, "fusion_lat": 0.0}, {"bike_id": "de1944c344f775b644c5aa616ae96b43", "fusion_lon": 0.0, "lon": -77.0021295, "name": "de1944c344f775b644c5aa616ae96b43", "is_disabled": 0, "rental_uris": {"android": "https://dc.lft.to/lastmile_qr_scan", "ios": "https://dc.lft.to/lastmile_qr_scan"}, "type": "electric_scooter", "lat": 38.92045666666667, "is_reserved": 0, "fusion_lat": 0.0}, {"bike_id": "dc1a0f7d54f128ea9012c4ca98044d96", "fusion_lon": 0.0, "lon": -77.05474566666666, "name": "dc1a0f7d54f128ea9012c4ca98044d96", "is_disabled": 0, "rental_uris": {"android": "https://dc.lft.to/lastmile_qr_scan", "ios": "https://dc.lft.to/lastmile_qr_scan"}, "type": "electric_scooter", "lat": 38.897319833333334, "is_reserved": 0, "fusion_lat": 0.0}, {"bike_id": "5aa4f4f65bf3be6659ba79440a00a123", "fusion_lon": 0.0, "lon": -77.02202116666666, "name": "5aa4f4f65bf3be6659ba79440a00a123", "is_disabled": 0, "rental_uris": {"android": "https://dc.lft.to/lastmile_qr_scan", "ios": "https://dc.lft.to/lastmile_qr_scan"}, "type": "electric_scooter", "lat": 38.8941365, "is_reserved": 0, "fusion_lat": 0.0}, {"bike_id": "5653215cd19a1275d3841545dce45c5f", "fusion_lon": 0.0, "lon": -77.03580983333333, "name": "5653215cd19a1275d3841545dce45c5f", "is_disabled": 0, "rental_uris": {"android": "https://dc.lft.to/lastmile_qr_scan", "ios": "https://dc.lft.to/lastmile_qr_scan"}, "type": "electric_scooter", "lat": 38.93476116666667, "is_reserved": 0, "fusion_lat": 0.0}, {"bike_id": "cc9b9cf8d6e27a74da1e5a3cf87192cc", "fusion_lon": 0.0, "lon": -77.03905816666666, "name": "cc9b9cf8d6e27a74da1e5a3cf87192cc", "is_disabled": 0, "rental_uris": {"android": "https://dc.lft.to/lastmile_qr_scan", "ios": "https://dc.lft.to/lastmile_qr_scan"}, "type": "electric_scooter", "lat": 38.918493, "is_reserved": 0, "fusion_lat": 0.0}, {"bike_id": "1c9ba301ceb39055af89907165f732b1", "fusion_lon": 0.0, "lon": -77.01080266666666, "name": "1c9ba301ceb39055af89907165f732b1", "is_disabled": 0, "rental_uris": {"android": "https://dc.lft.to/lastmile_qr_scan", "ios": "https://dc.lft.to/lastmile_qr_scan"}, "type": "electric_scooter", "lat": 38.8950105, "is_reserved": 0, "fusion_lat": 0.0}, {"bike_id": "d6bb7c1988ef0d55fc6d2e15987627d5", "fusion_lon": 0.0, "lon": -77.04975816666666, "name": "d6bb7c1988ef0d55fc6d2e15987627d5", "is_disabled": 0, "rental_uris": {"android": "https://dc.lft.to/lastmile_qr_scan", "ios": "https://dc.lft.to/lastmile_qr_scan"}, "type": "electric_bike", "lat": 38.832216, "is_reserved": 0, "fusion_lat": 0.0}, {"bike_id": "72142564372eacc6a8cda64563bf597a", "fusion_lon": 0.0, "lon": -77.03814183333333, "name": "72142564372eacc6a8cda64563bf597a", "is_disabled": 0, "rental_uris": {"android": "https://dc.lft.to/lastmile_qr_scan", "ios": "https://dc.lft.to/lastmile_qr_scan"}, "type": "electric_scooter", "lat": 38.93065, "is_reserved": 0, "fusion_lat": 0.0}, {"bike_id": "26ae4f2d37b7368438d10a89cbd89f78", "fusion_lon": 0.0, "lon": -77.05235066666667, "name": "26ae4f2d37b7368438d10a89cbd89f78", "is_disabled": 0, "rental_uris": {"android": "https://dc.lft.to/lastmile_qr_scan", "ios": "https://dc.lft.to/lastmile_qr_scan"}, "type": "electric_scooter", "lat": 38.924689666666666, "is_reserved": 0, "fusion_lat": 0.0}, {"bike_id": "d26ccfff6b54184419df3a0738e57a81", "fusion_lon": 0.0, "lon": -76.98985816666666, "name": "d26ccfff6b54184419df3a0738e57a81", "is_disabled": 0, "rental_uris": {"android": "https://dc.lft.to/lastmile_qr_scan", "ios": "https://dc.lft.to/lastmile_qr_scan"}, "type": "electric_scooter", "lat": 38.864944, "is_reserved": 0, "fusion_lat": 0.0}, {"bike_id": "18fc42f1b587a21f42961a7522c1a913", "fusion_lon": 0.0, "lon": -77.085187, "name": "18fc42f1b587a21f42961a7522c1a913", "is_disabled": 0, "rental_uris": {"android": "https://dc.lft.to/lastmile_qr_scan", "ios": "https://dc.lft.to/lastmile_qr_scan"}, "type": "electric_bike", "lat": 38.885722666666666, "is_reserved": 0, "fusion_lat": 0.0}, {"bike_id": "a79e399431530090aa0a88780fb9d7ae", "fusion_lon": 0.0, "lon": -77.03478616666666, "name": "a79e399431530090aa0a88780fb9d7ae", "is_disabled": 0, "rental_uris": {"android": "https://dc.lft.to/lastmile_qr_scan", "ios": "https://dc.lft.to/lastmile_qr_scan"}, "type": "electric_scooter", "lat": 38.909554166666666, "is_reserved": 0, "fusion_lat": 0.0}, {"bike_id": "f9908f9d34f61e8734676838d0895853", "fusion_lon": 0.0, "lon": -76.9248865, "name": "f9908f9d34f61e8734676838d0895853", "is_disabled": 0, "rental_uris": {"android": "https://dc.lft.to/lastmile_qr_scan", "ios": "https://dc.lft.to/lastmile_qr_scan"}, "type": "electric_bike", "lat": 38.9587825, "is_reserved": 0, "fusion_lat": 0.0}, {"bike_id": "befec2a3044e79fbf4b15c3aa48d5cec", "fusion_lon": 0.0, "lon": -77.03452083333333, "name": "befec2a3044e79fbf4b15c3aa48d5cec", "is_disabled": 0, "rental_uris": {"android": "https://dc.lft.to/lastmile_qr_scan", "ios": "https://dc.lft.to/lastmile_qr_scan"}, "type": "electric_scooter", "lat": 38.918264, "is_reserved": 0, "fusion_lat": 0.0}, {"bike_id": "69b6bda4865bd5a1ec69c454c2e08515", "fusion_lon": 0.0, "lon": -77.034159, "name": "69b6bda4865bd5a1ec69c454c2e08515", "is_disabled": 0, "rental_uris": {"android": "https://dc.lft.to/lastmile_qr_scan", "ios": "https://dc.lft.to/lastmile_qr_scan"}, "type": "electric_scooter", "lat": 38.91925583333333, "is_reserved": 0, "fusion_lat": 0.0}, {"bike_id": "7515312039e3fb270f3c01bce1cdddec", "fusion_lon": 0.0, "lon": -77.13470966666667, "name": "7515312039e3fb270f3c01bce1cdddec", "is_disabled": 0, "rental_uris": {"android": "https://dc.lft.to/lastmile_qr_scan", "ios": "https://dc.lft.to/lastmile_qr_scan"}, "type": "electric_bike", "lat": 38.85351, "is_reserved": 0, "fusion_lat": 0.0}, {"bike_id": "9d6d7a0fbb674526a15986f04bd517fb", "fusion_lon": 0.0, "lon": -77.02411966666666, "name": "9d6d7a0fbb674526a15986f04bd517fb", "is_disabled": 0, "rental_uris": {"android": "https://dc.lft.to/lastmile_qr_scan", "ios": "https://dc.lft.to/lastmile_qr_scan"}, "type": "electric_scooter", "lat": 38.917085166666666, "is_reserved": 0, "fusion_lat": 0.0}, {"bike_id": "a821e6c96196ea627bd82498a859f8f4", "fusion_lon": 0.0, "lon": -77.0340235, "name": "a821e6c96196ea627bd82498a859f8f4", "is_disabled": 0, "rental_uris": {"android": "https://dc.lft.to/lastmile_qr_scan", "ios": "https://dc.lft.to/lastmile_qr_scan"}, "type": "electric_scooter", "lat": 38.93125833333333, "is_reserved": 0, "fusion_lat": 0.0}, {"bike_id": "136e3bc1d154e05b1085d5a580ebabdf", "fusion_lon": 0.0, "lon": -77.00928583333334, "name": "136e3bc1d154e05b1085d5a580ebabdf", "is_disabled": 0, "rental_uris": {"android": "https://dc.lft.to/lastmile_qr_scan", "ios": "https://dc.lft.to/lastmile_qr_scan"}, "type": "electric_scooter", "lat": 38.908285666666664, "is_reserved": 0, "fusion_lat": 0.0}, {"bike_id": "07ffd22c04b511e234e70616e1b217d9", "fusion_lon": 0.0, "lon": -77.03175933333333, "name": "07ffd22c04b511e234e70616e1b217d9", "is_disabled": 0, "rental_uris": {"android": "https://dc.lft.to/lastmile_qr_scan", "ios": "https://dc.lft.to/lastmile_qr_scan"}, "type": "electric_scooter", "lat": 38.919248, "is_reserved": 0, "fusion_lat": 0.0}, {"bike_id": "b1c49238b440d3e49739c3324e0a9c1c", "fusion_lon": 0.0, "lon": -77.03080283333334, "name": "b1c49238b440d3e49739c3324e0a9c1c", "is_disabled": 0, "rental_uris": {"android": "https://dc.lft.to/lastmile_qr_scan", "ios": "https://dc.lft.to/lastmile_qr_scan"}, "type": "electric_scooter", "lat": 38.8975415, "is_reserved": 0, "fusion_lat": 0.0}, {"bike_id": "d509d0a8dfffae18305eb3c79332d63d", "fusion_lon": 0.0, "lon": -77.03360933333333, "name": "d509d0a8dfffae18305eb3c79332d63d", "is_disabled": 0, "rental_uris": {"android": "https://dc.lft.to/lastmile_qr_scan", "ios": "https://dc.lft.to/lastmile_qr_scan"}, "type": "electric_scooter", "lat": 38.887545333333335, "is_reserved": 0, "fusion_lat": 0.0}, {"bike_id": "0aa6dc3d280e210a7a0ab1aae4489cd7", "fusion_lon": 0.0, "lon": -77.01610816666667, "name": "0aa6dc3d280e210a7a0ab1aae4489cd7", "is_disabled": 0, "rental_uris": {"android": "https://dc.lft.to/lastmile_qr_scan", "ios": "https://dc.lft.to/lastmile_qr_scan"}, "type": "electric_scooter", "lat": 38.905909, "is_reserved": 0, "fusion_lat": 0.0}, {"bike_id": "d77bc25e107113d51e9ed677b13e3d45", "fusion_lon": 0.0, "lon": -77.0078465, "name": "d77bc25e107113d51e9ed677b13e3d45", "is_disabled": 0, "rental_uris": {"android": "https://dc.lft.to/lastmile_qr_scan", "ios": "https://dc.lft.to/lastmile_qr_scan"}, "type": "electric_scooter", "lat": 38.905743, "is_reserved": 0, "fusion_lat": 0.0}, {"bike_id": "a487be62e452972404d8ff58e2352649", "fusion_lon": 0.0, "lon": -77.04008966666666, "name": "a487be62e452972404d8ff58e2352649", "is_disabled": 0, "rental_uris": {"android": "https://dc.lft.to/lastmile_qr_scan", "ios": "https://dc.lft.to/lastmile_qr_scan"}, "type": "electric_scooter", "lat": 38.9140975, "is_reserved": 0, "fusion_lat": 0.0}, {"bike_id": "3a5d4888784c37607c40dddea7b15ea7", "fusion_lon": 0.0, "lon": -76.986172, "name": "3a5d4888784c37607c40dddea7b15ea7", "is_disabled": 0, "rental_uris": {"android": "https://dc.lft.to/lastmile_qr_scan", "ios": "https://dc.lft.to/lastmile_qr_scan"}, "type": "electric_scooter", "lat": 38.93827816666666, "is_reserved": 0, "fusion_lat": 0.0}, {"bike_id": "b56c3e409abdcc6c1a65266d43ee7e29", "fusion_lon": 0.0, "lon": -77.03646516666667, "name": "b56c3e409abdcc6c1a65266d43ee7e29", "is_disabled": 0, "rental_uris": {"android": "https://dc.lft.to/lastmile_qr_scan", "ios": "https://dc.lft.to/lastmile_qr_scan"}, "type": "electric_scooter", "lat": 38.91267216666667, "is_reserved": 0, "fusion_lat": 0.0}, {"bike_id": "54c19694ef4349638d6ebba704842fdc", "fusion_lon": 0.0, "lon": -77.04802833333333, "name": "54c19694ef4349638d6ebba704842fdc", "is_disabled": 0, "rental_uris": {"android": "https://dc.lft.to/lastmile_qr_scan", "ios": "https://dc.lft.to/lastmile_qr_scan"}, "type": "electric_scooter", "lat": 38.89220666666667, "is_reserved": 0, "fusion_lat": 0.0}, {"bike_id": "661a0ac3609bf3b2f3b10f7a673e424b", "fusion_lon": 0.0, "lon": -77.01854066666667, "name": "661a0ac3609bf3b2f3b10f7a673e424b", "is_disabled": 0, "rental_uris": {"android": "https://dc.lft.to/lastmile_qr_scan", "ios": "https://dc.lft.to/lastmile_qr_scan"}, "type": "electric_scooter", "lat": 38.915275, "is_reserved": 0, "fusion_lat": 0.0}, {"bike_id": "55e5d19306ca3706499b6ab517d918c0", "fusion_lon": 0.0, "lon": -77.0250845, "name": "55e5d19306ca3706499b6ab517d918c0", "is_disabled": 0, "rental_uris": {"android": "https://dc.lft.to/lastmile_qr_scan", "ios": "https://dc.lft.to/lastmile_qr_scan"}, "type": "electric_scooter", "lat": 38.915676166666664, "is_reserved": 0, "fusion_lat": 0.0}, {"bike_id": "99d08de328e89fb36e350c0cc0d0ec3f", "fusion_lon": 0.0, "lon": -77.02723733333333, "name": "99d08de328e89fb36e350c0cc0d0ec3f", "is_disabled": 0, "rental_uris": {"android": "https://dc.lft.to/lastmile_qr_scan", "ios": "https://dc.lft.to/lastmile_qr_scan"}, "type": "electric_scooter", "lat": 38.949590666666666, "is_reserved": 0, "fusion_lat": 0.0}, {"bike_id": "830896570d52f9c7017e3279d11b1227", "fusion_lon": 0.0, "lon": -76.997809, "name": "830896570d52f9c7017e3279d11b1227", "is_disabled": 0, "rental_uris": {"android": "https://dc.lft.to/lastmile_qr_scan", "ios": "https://dc.lft.to/lastmile_qr_scan"}, "type": "electric_scooter", "lat": 38.909077, "is_reserved": 0, "fusion_lat": 0.0}, {"bike_id": "78f15ac2973f4d4f7b3a9ea244fa011b", "fusion_lon": 0.0, "lon": -77.026749, "name": "78f15ac2973f4d4f7b3a9ea244fa011b", "is_disabled": 0, "rental_uris": {"android": "https://dc.lft.to/lastmile_qr_scan", "ios": "https://dc.lft.to/lastmile_qr_scan"}, "type": "electric_scooter", "lat": 38.916974833333335, "is_reserved": 0, "fusion_lat": 0.0}, {"bike_id": "33be7fb7ef2a09048da20292d3289c4c", "fusion_lon": 0.0, "lon": -77.02609383333333, "name": "33be7fb7ef2a09048da20292d3289c4c", "is_disabled": 0, "rental_uris": {"android": "https://dc.lft.to/lastmile_qr_scan", "ios": "https://dc.lft.to/lastmile_qr_scan"}, "type": "electric_scooter", "lat": 38.90510666666667, "is_reserved": 0, "fusion_lat": 0.0}, {"bike_id": "d990fff5ecf75c843e8624f5d75c5d5c", "fusion_lon": 0.0, "lon": -76.99613416666666, "name": "d990fff5ecf75c843e8624f5d75c5d5c", "is_disabled": 0, "rental_uris": {"android": "https://dc.lft.to/lastmile_qr_scan", "ios": "https://dc.lft.to/lastmile_qr_scan"}, "type": "electric_scooter", "lat": 38.90359683333333, "is_reserved": 0, "fusion_lat": 0.0}, {"bike_id": "f69d93efd00abf682d6dd6c7d092a22a", "fusion_lon": 0.0, "lon": -77.02709433333334, "name": "f69d93efd00abf682d6dd6c7d092a22a", "is_disabled": 0, "rental_uris": {"android": "https://dc.lft.to/lastmile_qr_scan", "ios": "https://dc.lft.to/lastmile_qr_scan"}, "type": "electric_scooter", "lat": 38.906736333333335, "is_reserved": 0, "fusion_lat": 0.0}, {"bike_id": "c241e9ca06fe1fe29b56c32c23ee8c3a", "fusion_lon": 0.0, "lon": -76.91907916666666, "name": "c241e9ca06fe1fe29b56c32c23ee8c3a", "is_disabled": 0, "rental_uris": {"android": "https://dc.lft.to/lastmile_qr_scan", "ios": "https://dc.lft.to/lastmile_qr_scan"}, "type": "electric_scooter", "lat": 38.885777166666664, "is_reserved": 0, "fusion_lat": 0.0}, {"bike_id": "36ca7cd5930d6bc44ebd49caf6d93869", "fusion_lon": 0.0, "lon": -77.0296665, "name": "36ca7cd5930d6bc44ebd49caf6d93869", "is_disabled": 0, "rental_uris": {"android": "https://dc.lft.to/lastmile_qr_scan", "ios": "https://dc.lft.to/lastmile_qr_scan"}, "type": "electric_scooter", "lat": 38.91680066666667, "is_reserved": 0, "fusion_lat": 0.0}, {"bike_id": "9e49f6908faf2c10f518f05c5e525724", "fusion_lon": 0.0, "lon": -77.0238415, "name": "9e49f6908faf2c10f518f05c5e525724", "is_disabled": 0, "rental_uris": {"android": "https://dc.lft.to/lastmile_qr_scan", "ios": "https://dc.lft.to/lastmile_qr_scan"}, "type": "electric_scooter", "lat": 38.91746233333333, "is_reserved": 0, "fusion_lat": 0.0}, {"bike_id": "7eb078e5913bd44ac206a093d6897537", "fusion_lon": 0.0, "lon": -77.048442, "name": "7eb078e5913bd44ac206a093d6897537", "is_disabled": 0, "rental_uris": {"android": "https://dc.lft.to/lastmile_qr_scan", "ios": "https://dc.lft.to/lastmile_qr_scan"}, "type": "electric_scooter", "lat": 38.911828666666665, "is_reserved": 0, "fusion_lat": 0.0}, {"bike_id": "6f2307363dda6ca5ab6c46b3ad37f82d", "fusion_lon": 0.0, "lon": -77.02303433333333, "name": "6f2307363dda6ca5ab6c46b3ad37f82d", "is_disabled": 0, "rental_uris": {"android": "https://dc.lft.to/lastmile_qr_scan", "ios": "https://dc.lft.to/lastmile_qr_scan"}, "type": "electric_scooter", "lat": 38.9154715, "is_reserved": 0, "fusion_lat": 0.0}, {"bike_id": "7c21d8a5f1bcd720c4d05c7b084f121a", "fusion_lon": 0.0, "lon": -77.03235533333333, "name": "7c21d8a5f1bcd720c4d05c7b084f121a", "is_disabled": 0, "rental_uris": {"android": "https://dc.lft.to/lastmile_qr_scan", "ios": "https://dc.lft.to/lastmile_qr_scan"}, "type": "electric_scooter", "lat": 38.92877433333334, "is_reserved": 0, "fusion_lat": 0.0}, {"bike_id": "b8fbd416867039748edc26c8ac300420", "fusion_lon": 0.0, "lon": -77.04364666666666, "name": "b8fbd416867039748edc26c8ac300420", "is_disabled": 0, "rental_uris": {"android": "https://dc.lft.to/lastmile_qr_scan", "ios": "https://dc.lft.to/lastmile_qr_scan"}, "type": "electric_scooter", "lat": 38.89219416666667, "is_reserved": 0, "fusion_lat": 0.0}, {"bike_id": "8163a37641b10774525ac17d8daa4ccb", "fusion_lon": 0.0, "lon": -77.04130683333334, "name": "8163a37641b10774525ac17d8daa4ccb", "is_disabled": 0, "rental_uris": {"android": "https://dc.lft.to/lastmile_qr_scan", "ios": "https://dc.lft.to/lastmile_qr_scan"}, "type": "electric_scooter", "lat": 38.921308833333335, "is_reserved": 0, "fusion_lat": 0.0}, {"bike_id": "8bdeac74e1b33f1aea5a38d6c594fe8b", "fusion_lon": 0.0, "lon": -77.01360983333333, "name": "8bdeac74e1b33f1aea5a38d6c594fe8b", "is_disabled": 0, "rental_uris": {"android": "https://dc.lft.to/lastmile_qr_scan", "ios": "https://dc.lft.to/lastmile_qr_scan"}, "type": "electric_scooter", "lat": 38.886770166666665, "is_reserved": 0, "fusion_lat": 0.0}, {"bike_id": "069b0764513dd309c9b862e49b1caab8", "fusion_lon": 0.0, "lon": -76.94876366666666, "name": "069b0764513dd309c9b862e49b1caab8", "is_disabled": 0, "rental_uris": {"android": "https://dc.lft.to/lastmile_qr_scan", "ios": "https://dc.lft.to/lastmile_qr_scan"}, "type": "electric_scooter", "lat": 38.89501116666667, "is_reserved": 0, "fusion_lat": 0.0}, {"bike_id": "fa28a62c402d28cc5e2d5da8a4c599fc", "fusion_lon": 0.0, "lon": -77.04034366666667, "name": "fa28a62c402d28cc5e2d5da8a4c599fc", "is_disabled": 0, "rental_uris": {"android": "https://dc.lft.to/lastmile_qr_scan", "ios": "https://dc.lft.to/lastmile_qr_scan"}, "type": "electric_scooter", "lat": 38.9224995, "is_reserved": 0, "fusion_lat": 0.0}, {"bike_id": "3568aed79aba9df4b4dda3c7bef03b26", "fusion_lon": 0.0, "lon": -77.00674033333334, "name": "3568aed79aba9df4b4dda3c7bef03b26", "is_disabled": 0, "rental_uris": {"android": "https://dc.lft.to/lastmile_qr_scan", "ios": "https://dc.lft.to/lastmile_qr_scan"}, "type": "electric_scooter", "lat": 38.911063666666664, "is_reserved": 0, "fusion_lat": 0.0}, {"bike_id": "214a6b20d7349b25f77b457fbcb1b06a", "fusion_lon": 0.0, "lon": -77.002063, "name": "214a6b20d7349b25f77b457fbcb1b06a", "is_disabled": 0, "rental_uris": {"android": "https://dc.lft.to/lastmile_qr_scan", "ios": "https://dc.lft.to/lastmile_qr_scan"}, "type": "electric_bike", "lat": 38.81940266666667, "is_reserved": 0, "fusion_lat": 0.0}, {"bike_id": "7d2268a3883868be8a7a02a77accd110", "fusion_lon": 0.0, "lon": -77.02810933333333, "name": "7d2268a3883868be8a7a02a77accd110", "is_disabled": 0, "rental_uris": {"android": "https://dc.lft.to/lastmile_qr_scan", "ios": "https://dc.lft.to/lastmile_qr_scan"}, "type": "electric_scooter", "lat": 38.911328, "is_reserved": 0, "fusion_lat": 0.0}, {"bike_id": "400a93028100179e05fa077784c501ec", "fusion_lon": 0.0, "lon": -77.03201316666667, "name": "400a93028100179e05fa077784c501ec", "is_disabled": 0, "rental_uris": {"android": "https://dc.lft.to/lastmile_qr_scan", "ios": "https://dc.lft.to/lastmile_qr_scan"}, "type": "electric_scooter", "lat": 38.91768233333333, "is_reserved": 0, "fusion_lat": 0.0}, {"bike_id": "f8d145e25b55306e51df4b10e459acee", "fusion_lon": 0.0, "lon": -77.0251295, "name": "f8d145e25b55306e51df4b10e459acee", "is_disabled": 0, "rental_uris": {"android": "https://dc.lft.to/lastmile_qr_scan", "ios": "https://dc.lft.to/lastmile_qr_scan"}, "type": "electric_scooter", "lat": 38.92641783333333, "is_reserved": 0, "fusion_lat": 0.0}, {"bike_id": "ba86325c07035accfbc4d270c3b2212d", "fusion_lon": 0.0, "lon": -77.04132333333334, "name": "ba86325c07035accfbc4d270c3b2212d", "is_disabled": 0, "rental_uris": {"android": "https://dc.lft.to/lastmile_qr_scan", "ios": "https://dc.lft.to/lastmile_qr_scan"}, "type": "electric_bike", "lat": 38.804948833333334, "is_reserved": 0, "fusion_lat": 0.0}, {"bike_id": "883f64daf4e3e6f93785f8c0b3bfa97b", "fusion_lon": 0.0, "lon": -77.00677116666667, "name": "883f64daf4e3e6f93785f8c0b3bfa97b", "is_disabled": 0, "rental_uris": {"android": "https://dc.lft.to/lastmile_qr_scan", "ios": "https://dc.lft.to/lastmile_qr_scan"}, "type": "electric_scooter", "lat": 38.89984583333333, "is_reserved": 0, "fusion_lat": 0.0}, {"bike_id": "b26ecc3d0b84368d259b8808ddd3cf6f", "fusion_lon": 0.0, "lon": -77.07019133333333, "name": "b26ecc3d0b84368d259b8808ddd3cf6f", "is_disabled": 0, "rental_uris": {"android": "https://dc.lft.to/lastmile_qr_scan", "ios": "https://dc.lft.to/lastmile_qr_scan"}, "type": "electric_scooter", "lat": 38.90445233333333, "is_reserved": 0, "fusion_lat": 0.0}, {"bike_id": "fdcf233a6491ae79a244f57b92fbae25", "fusion_lon": 0.0, "lon": -76.97579966666666, "name": "fdcf233a6491ae79a244f57b92fbae25", "is_disabled": 0, "rental_uris": {"android": "https://dc.lft.to/lastmile_qr_scan", "ios": "https://dc.lft.to/lastmile_qr_scan"}, "type": "electric_bike", "lat": 38.84031016666667, "is_reserved": 0, "fusion_lat": 0.0}, {"bike_id": "f313932571f6943504202fd358805795", "fusion_lon": 0.0, "lon": -77.01108266666667, "name": "f313932571f6943504202fd358805795", "is_disabled": 0, "rental_uris": {"android": "https://dc.lft.to/lastmile_qr_scan", "ios": "https://dc.lft.to/lastmile_qr_scan"}, "type": "electric_scooter", "lat": 38.9036095, "is_reserved": 0, "fusion_lat": 0.0}, {"bike_id": "3fc9a9ea3f06914821017e4184907e90", "fusion_lon": 0.0, "lon": -77.043003, "name": "3fc9a9ea3f06914821017e4184907e90", "is_disabled": 0, "rental_uris": {"android": "https://dc.lft.to/lastmile_qr_scan", "ios": "https://dc.lft.to/lastmile_qr_scan"}, "type": "electric_scooter", "lat": 38.9178455, "is_reserved": 0, "fusion_lat": 0.0}, {"bike_id": "8b64fb3e64fb4eb9978e906113e80842", "fusion_lon": 0.0, "lon": -77.01617166666666, "name": "8b64fb3e64fb4eb9978e906113e80842", "is_disabled": 0, "rental_uris": {"android": "https://dc.lft.to/lastmile_qr_scan", "ios": "https://dc.lft.to/lastmile_qr_scan"}, "type": "electric_scooter", "lat": 38.912704, "is_reserved": 0, "fusion_lat": 0.0}, {"bike_id": "14588ee1b4999e69ff3bf805d2bc6464", "fusion_lon": 0.0, "lon": -76.93042916666667, "name": "14588ee1b4999e69ff3bf805d2bc6464", "is_disabled": 0, "rental_uris": {"android": "https://dc.lft.to/lastmile_qr_scan", "ios": "https://dc.lft.to/lastmile_qr_scan"}, "type": "electric_scooter", "lat": 38.895158, "is_reserved": 0, "fusion_lat": 0.0}, {"bike_id": "0a3d26e676aa32851b4315db40dca88b", "fusion_lon": 0.0, "lon": -77.07293366666667, "name": "0a3d26e676aa32851b4315db40dca88b", "is_disabled": 0, "rental_uris": {"android": "https://dc.lft.to/lastmile_qr_scan", "ios": "https://dc.lft.to/lastmile_qr_scan"}, "type": "electric_scooter", "lat": 38.93528533333333, "is_reserved": 0, "fusion_lat": 0.0}, {"bike_id": "aaef9252be9e0f2b138ecc268664b9ef", "fusion_lon": 0.0, "lon": -77.02554216666667, "name": "aaef9252be9e0f2b138ecc268664b9ef", "is_disabled": 0, "rental_uris": {"android": "https://dc.lft.to/lastmile_qr_scan", "ios": "https://dc.lft.to/lastmile_qr_scan"}, "type": "electric_scooter", "lat": 38.924018833333335, "is_reserved": 0, "fusion_lat": 0.0}, {"bike_id": "b02b2dd87e3caec65e81ce0681d79b1b", "fusion_lon": 0.0, "lon": -76.990343, "name": "b02b2dd87e3caec65e81ce0681d79b1b", "is_disabled": 0, "rental_uris": {"android": "https://dc.lft.to/lastmile_qr_scan", "ios": "https://dc.lft.to/lastmile_qr_scan"}, "type": "electric_scooter", "lat": 38.8887295, "is_reserved": 0, "fusion_lat": 0.0}, {"bike_id": "4ccacb587a2ac0304f80372a763e3a78", "fusion_lon": 0.0, "lon": -77.06014933333333, "name": "4ccacb587a2ac0304f80372a763e3a78", "is_disabled": 0, "rental_uris": {"android": "https://dc.lft.to/lastmile_qr_scan", "ios": "https://dc.lft.to/lastmile_qr_scan"}, "type": "electric_scooter", "lat": 38.90521716666667, "is_reserved": 0, "fusion_lat": 0.0}, {"bike_id": "04e0d70af4b91c7b2dc01e847d1dc20d", "fusion_lon": 0.0, "lon": -76.98517316666667, "name": "04e0d70af4b91c7b2dc01e847d1dc20d", "is_disabled": 0, "rental_uris": {"android": "https://dc.lft.to/lastmile_qr_scan", "ios": "https://dc.lft.to/lastmile_qr_scan"}, "type": "electric_scooter", "lat": 38.866493, "is_reserved": 0, "fusion_lat": 0.0}, {"bike_id": "0f79c68b1d69d6773b4b298439b9d82e", "fusion_lon": 0.0, "lon": -77.021887, "name": "0f79c68b1d69d6773b4b298439b9d82e", "is_disabled": 0, "rental_uris": {"android": "https://dc.lft.to/lastmile_qr_scan", "ios": "https://dc.lft.to/lastmile_qr_scan"}, "type": "electric_scooter", "lat": 38.915061333333334, "is_reserved": 0, "fusion_lat": 0.0}, {"bike_id": "5676aa3f4b6404d11f4302846d7ecfce", "fusion_lon": 0.0, "lon": -77.04317333333333, "name": "5676aa3f4b6404d11f4302846d7ecfce", "is_disabled": 0, "rental_uris": {"android": "https://dc.lft.to/lastmile_qr_scan", "ios": "https://dc.lft.to/lastmile_qr_scan"}, "type": "electric_scooter", "lat": 38.9238465, "is_reserved": 0, "fusion_lat": 0.0}, {"bike_id": "d641ac277854510c8d0dfa807a8f020d", "fusion_lon": 0.0, "lon": -77.03030666666666, "name": "d641ac277854510c8d0dfa807a8f020d", "is_disabled": 0, "rental_uris": {"android": "https://dc.lft.to/lastmile_qr_scan", "ios": "https://dc.lft.to/lastmile_qr_scan"}, "type": "electric_scooter", "lat": 38.89609816666667, "is_reserved": 0, "fusion_lat": 0.0}, {"bike_id": "dafcedb8a0b493c594409bd7446f8569", "fusion_lon": 0.0, "lon": -76.931762, "name": "dafcedb8a0b493c594409bd7446f8569", "is_disabled": 0, "rental_uris": {"android": "https://dc.lft.to/lastmile_qr_scan", "ios": "https://dc.lft.to/lastmile_qr_scan"}, "type": "electric_scooter", "lat": 38.8988055, "is_reserved": 0, "fusion_lat": 0.0}, {"bike_id": "910990f511b6a71afdd7da36f462637b", "fusion_lon": 0.0, "lon": -77.03558366666667, "name": "910990f511b6a71afdd7da36f462637b", "is_disabled": 0, "rental_uris": {"android": "https://dc.lft.to/lastmile_qr_scan", "ios": "https://dc.lft.to/lastmile_qr_scan"}, "type": "electric_scooter", "lat": 38.918779, "is_reserved": 0, "fusion_lat": 0.0}, {"bike_id": "f6d3700010010faf01011ff8ef9735c6", "fusion_lon": 0.0, "lon": -77.05006266666666, "name": "f6d3700010010faf01011ff8ef9735c6", "is_disabled": 0, "rental_uris": {"android": "https://dc.lft.to/lastmile_qr_scan", "ios": "https://dc.lft.to/lastmile_qr_scan"}, "type": "electric_scooter", "lat": 38.892277666666665, "is_reserved": 0, "fusion_lat": 0.0}, {"bike_id": "e144ccf73e035bbbe950659e2ed5e81b", "fusion_lon": 0.0, "lon": -76.99777533333334, "name": "e144ccf73e035bbbe950659e2ed5e81b", "is_disabled": 0, "rental_uris": {"android": "https://dc.lft.to/lastmile_qr_scan", "ios": "https://dc.lft.to/lastmile_qr_scan"}, "type": "electric_bike", "lat": 38.862104, "is_reserved": 0, "fusion_lat": 0.0}, {"bike_id": "72179382adaa1e6f17e79f47f8b66cb4", "fusion_lon": 0.0, "lon": -76.99630516666667, "name": "72179382adaa1e6f17e79f47f8b66cb4", "is_disabled": 0, "rental_uris": {"android": "https://dc.lft.to/lastmile_qr_scan", "ios": "https://dc.lft.to/lastmile_qr_scan"}, "type": "electric_scooter", "lat": 38.908868166666664, "is_reserved": 0, "fusion_lat": 0.0}, {"bike_id": "9cdcf25749a05e30cbe8c29db875c51d", "fusion_lon": 0.0, "lon": -77.02534816666666, "name": "9cdcf25749a05e30cbe8c29db875c51d", "is_disabled": 0, "rental_uris": {"android": "https://dc.lft.to/lastmile_qr_scan", "ios": "https://dc.lft.to/lastmile_qr_scan"}, "type": "electric_scooter", "lat": 38.91921983333334, "is_reserved": 0, "fusion_lat": 0.0}, {"bike_id": "f534972d1bfb15451fc26dd13c7b3647", "fusion_lon": 0.0, "lon": -77.0217775, "name": "f534972d1bfb15451fc26dd13c7b3647", "is_disabled": 0, "rental_uris": {"android": "https://dc.lft.to/lastmile_qr_scan", "ios": "https://dc.lft.to/lastmile_qr_scan"}, "type": "electric_scooter", "lat": 38.9151365, "is_reserved": 0, "fusion_lat": 0.0}, {"bike_id": "fe6572229fbd23279992fbd70142d2d6", "fusion_lon": 0.0, "lon": -77.03218733333334, "name": "fe6572229fbd23279992fbd70142d2d6", "is_disabled": 0, "rental_uris": {"android": "https://dc.lft.to/lastmile_qr_scan", "ios": "https://dc.lft.to/lastmile_qr_scan"}, "type": "electric_scooter", "lat": 38.92920216666667, "is_reserved": 0, "fusion_lat": 0.0}, {"bike_id": "8466bd08c2256bfaf2719d892cf6a726", "fusion_lon": 0.0, "lon": -77.02438333333333, "name": "8466bd08c2256bfaf2719d892cf6a726", "is_disabled": 0, "rental_uris": {"android": "https://dc.lft.to/lastmile_qr_scan", "ios": "https://dc.lft.to/lastmile_qr_scan"}, "type": "electric_scooter", "lat": 38.918913333333336, "is_reserved": 0, "fusion_lat": 0.0}, {"bike_id": "b5c0358780fd1f07bbf2089aab050ae1", "fusion_lon": 0.0, "lon": -77.05584533333334, "name": "b5c0358780fd1f07bbf2089aab050ae1", "is_disabled": 0, "rental_uris": {"android": "https://dc.lft.to/lastmile_qr_scan", "ios": "https://dc.lft.to/lastmile_qr_scan"}, "type": "electric_scooter", "lat": 38.89325066666667, "is_reserved": 0, "fusion_lat": 0.0}, {"bike_id": "06569a737fe9baa9c00dd671307f2e2f", "fusion_lon": 0.0, "lon": -76.990917, "name": "06569a737fe9baa9c00dd671307f2e2f", "is_disabled": 0, "rental_uris": {"android": "https://dc.lft.to/lastmile_qr_scan", "ios": "https://dc.lft.to/lastmile_qr_scan"}, "type": "electric_scooter", "lat": 38.882330833333334, "is_reserved": 0, "fusion_lat": 0.0}, {"bike_id": "27d70dd61ceab691f2c96f8215c5393e", "fusion_lon": 0.0, "lon": -77.0280745, "name": "27d70dd61ceab691f2c96f8215c5393e", "is_disabled": 0, "rental_uris": {"android": "https://dc.lft.to/lastmile_qr_scan", "ios": "https://dc.lft.to/lastmile_qr_scan"}, "type": "electric_scooter", "lat": 38.93082716666667, "is_reserved": 0, "fusion_lat": 0.0}, {"bike_id": "d932876b2f5040972dd7a7b08b2233d5", "fusion_lon": 0.0, "lon": -77.041802, "name": "d932876b2f5040972dd7a7b08b2233d5", "is_disabled": 0, "rental_uris": {"android": "https://dc.lft.to/lastmile_qr_scan", "ios": "https://dc.lft.to/lastmile_qr_scan"}, "type": "electric_scooter", "lat": 38.9051435, "is_reserved": 0, "fusion_lat": 0.0}, {"bike_id": "01d7c1f1546e764c069a4bcd05fdb868", "fusion_lon": 0.0, "lon": -76.9802585, "name": "01d7c1f1546e764c069a4bcd05fdb868", "is_disabled": 0, "rental_uris": {"android": "https://dc.lft.to/lastmile_qr_scan", "ios": "https://dc.lft.to/lastmile_qr_scan"}, "type": "electric_scooter", "lat": 38.90379716666666, "is_reserved": 0, "fusion_lat": 0.0}, {"bike_id": "5d52cd393f79bdbc85c46c6117fad4eb", "fusion_lon": 0.0, "lon": -77.18743316666666, "name": "5d52cd393f79bdbc85c46c6117fad4eb", "is_disabled": 0, "rental_uris": {"android": "https://dc.lft.to/lastmile_qr_scan", "ios": "https://dc.lft.to/lastmile_qr_scan"}, "type": "electric_bike", "lat": 38.893527166666665, "is_reserved": 0, "fusion_lat": 0.0}, {"bike_id": "87c85e7c58bc51877bb9737b232c37cd", "fusion_lon": 0.0, "lon": -77.05859383333333, "name": "87c85e7c58bc51877bb9737b232c37cd", "is_disabled": 0, "rental_uris": {"android": "https://dc.lft.to/lastmile_qr_scan", "ios": "https://dc.lft.to/lastmile_qr_scan"}, "type": "electric_scooter", "lat": 38.936049833333335, "is_reserved": 0, "fusion_lat": 0.0}, {"bike_id": "1974aa41b80fac57a015d1b1b3f991b2", "fusion_lon": 0.0, "lon": -77.0130115, "name": "1974aa41b80fac57a015d1b1b3f991b2", "is_disabled": 0, "rental_uris": {"android": "https://dc.lft.to/lastmile_qr_scan", "ios": "https://dc.lft.to/lastmile_qr_scan"}, "type": "electric_scooter", "lat": 38.8814735, "is_reserved": 0, "fusion_lat": 0.0}, {"bike_id": "91ebb8553b9e110c3a5f1d28e8141322", "fusion_lon": 0.0, "lon": -77.020469, "name": "91ebb8553b9e110c3a5f1d28e8141322", "is_disabled": 0, "rental_uris": {"android": "https://dc.lft.to/lastmile_qr_scan", "ios": "https://dc.lft.to/lastmile_qr_scan"}, "type": "electric_scooter", "lat": 38.91557733333333, "is_reserved": 0, "fusion_lat": 0.0}, {"bike_id": "44b0d3f8722aad91a1587187fbb89324", "fusion_lon": 0.0, "lon": -77.036654, "name": "44b0d3f8722aad91a1587187fbb89324", "is_disabled": 0, "rental_uris": {"android": "https://dc.lft.to/lastmile_qr_scan", "ios": "https://dc.lft.to/lastmile_qr_scan"}, "type": "electric_scooter", "lat": 38.917252833333336, "is_reserved": 0, "fusion_lat": 0.0}, {"bike_id": "b270b8b7ebbf9f5be948b6bca08cbfd7", "fusion_lon": 0.0, "lon": -77.044802, "name": "b270b8b7ebbf9f5be948b6bca08cbfd7", "is_disabled": 0, "rental_uris": {"android": "https://dc.lft.to/lastmile_qr_scan", "ios": "https://dc.lft.to/lastmile_qr_scan"}, "type": "electric_scooter", "lat": 38.909595833333334, "is_reserved": 0, "fusion_lat": 0.0}, {"bike_id": "47728f4ab33be76d0c7f73083120d265", "fusion_lon": 0.0, "lon": -77.03866933333333, "name": "47728f4ab33be76d0c7f73083120d265", "is_disabled": 0, "rental_uris": {"android": "https://dc.lft.to/lastmile_qr_scan", "ios": "https://dc.lft.to/lastmile_qr_scan"}, "type": "electric_scooter", "lat": 38.915612333333335, "is_reserved": 0, "fusion_lat": 0.0}, {"bike_id": "7b4a52b39daaa5bba4035d3654cad1ad", "fusion_lon": 0.0, "lon": -77.04417533333333, "name": "7b4a52b39daaa5bba4035d3654cad1ad", "is_disabled": 0, "rental_uris": {"android": "https://dc.lft.to/lastmile_qr_scan", "ios": "https://dc.lft.to/lastmile_qr_scan"}, "type": "electric_bike", "lat": 39.01565816666667, "is_reserved": 0, "fusion_lat": 0.0}, {"bike_id": "bc09e59c1f2f71ffce303b164f020c8d", "fusion_lon": 0.0, "lon": -77.0436775, "name": "bc09e59c1f2f71ffce303b164f020c8d", "is_disabled": 0, "rental_uris": {"android": "https://dc.lft.to/lastmile_qr_scan", "ios": "https://dc.lft.to/lastmile_qr_scan"}, "type": "electric_scooter", "lat": 38.8922265, "is_reserved": 0, "fusion_lat": 0.0}, {"bike_id": "306614eda7f2f3242aa10e7c753bac8e", "fusion_lon": 0.0, "lon": -77.02338966666667, "name": "306614eda7f2f3242aa10e7c753bac8e", "is_disabled": 0, "rental_uris": {"android": "https://dc.lft.to/lastmile_qr_scan", "ios": "https://dc.lft.to/lastmile_qr_scan"}, "type": "electric_scooter", "lat": 38.91770066666667, "is_reserved": 0, "fusion_lat": 0.0}, {"bike_id": "72fc273effe7a0ac575a420ed95f2a85", "fusion_lon": 0.0, "lon": -77.0296395, "name": "72fc273effe7a0ac575a420ed95f2a85", "is_disabled": 0, "rental_uris": {"android": "https://dc.lft.to/lastmile_qr_scan", "ios": "https://dc.lft.to/lastmile_qr_scan"}, "type": "electric_scooter", "lat": 38.92368666666667, "is_reserved": 0, "fusion_lat": 0.0}, {"bike_id": "8bbe97fce7120f5ef98527c08759083d", "fusion_lon": 0.0, "lon": -77.057617, "name": "8bbe97fce7120f5ef98527c08759083d", "is_disabled": 0, "rental_uris": {"android": "https://dc.lft.to/lastmile_qr_scan", "ios": "https://dc.lft.to/lastmile_qr_scan"}, "type": "electric_bike", "lat": 38.925226333333335, "is_reserved": 0, "fusion_lat": 0.0}, {"bike_id": "fd6371f56175b229a6896e8502d6cc6d", "fusion_lon": 0.0, "lon": -77.03850066666666, "name": "fd6371f56175b229a6896e8502d6cc6d", "is_disabled": 0, "rental_uris": {"android": "https://dc.lft.to/lastmile_qr_scan", "ios": "https://dc.lft.to/lastmile_qr_scan"}, "type": "electric_scooter", "lat": 38.932454166666666, "is_reserved": 0, "fusion_lat": 0.0}, {"bike_id": "d646ffbd6eaa177ada04937b2b6a1eae", "fusion_lon": 0.0, "lon": -76.94635083333333, "name": "d646ffbd6eaa177ada04937b2b6a1eae", "is_disabled": 0, "rental_uris": {"android": "https://dc.lft.to/lastmile_qr_scan", "ios": "https://dc.lft.to/lastmile_qr_scan"}, "type": "electric_scooter", "lat": 38.898430833333336, "is_reserved": 0, "fusion_lat": 0.0}, {"bike_id": "41ee75193dcfbbe38c7156fdfd382719", "fusion_lon": 0.0, "lon": -77.03176783333333, "name": "41ee75193dcfbbe38c7156fdfd382719", "is_disabled": 0, "rental_uris": {"android": "https://dc.lft.to/lastmile_qr_scan", "ios": "https://dc.lft.to/lastmile_qr_scan"}, "type": "electric_scooter", "lat": 38.919273, "is_reserved": 0, "fusion_lat": 0.0}, {"bike_id": "23a01f94bc4216945e4334ae256f1fd1", "fusion_lon": 0.0, "lon": -77.04242183333334, "name": "23a01f94bc4216945e4334ae256f1fd1", "is_disabled": 0, "rental_uris": {"android": "https://dc.lft.to/lastmile_qr_scan", "ios": "https://dc.lft.to/lastmile_qr_scan"}, "type": "electric_scooter", "lat": 38.90786116666666, "is_reserved": 0, "fusion_lat": 0.0}, {"bike_id": "4da9a537fa026a77bdae738baad279cd", "fusion_lon": 0.0, "lon": -77.032563, "name": "4da9a537fa026a77bdae738baad279cd", "is_disabled": 0, "rental_uris": {"android": "https://dc.lft.to/lastmile_qr_scan", "ios": "https://dc.lft.to/lastmile_qr_scan"}, "type": "electric_scooter", "lat": 38.939712666666665, "is_reserved": 0, "fusion_lat": 0.0}, {"bike_id": "30af7021c53919b23c515f0d97aa1da9", "fusion_lon": 0.0, "lon": -76.971731, "name": "30af7021c53919b23c515f0d97aa1da9", "is_disabled": 0, "rental_uris": {"android": "https://dc.lft.to/lastmile_qr_scan", "ios": "https://dc.lft.to/lastmile_qr_scan"}, "type": "electric_scooter", "lat": 38.854355166666664, "is_reserved": 0, "fusion_lat": 0.0}, {"bike_id": "524ab54112405b279044bdc8727c75fe", "fusion_lon": 0.0, "lon": -77.0179505, "name": "524ab54112405b279044bdc8727c75fe", "is_disabled": 0, "rental_uris": {"android": "https://dc.lft.to/lastmile_qr_scan", "ios": "https://dc.lft.to/lastmile_qr_scan"}, "type": "electric_scooter", "lat": 38.90446516666667, "is_reserved": 0, "fusion_lat": 0.0}, {"bike_id": "05165c76ffe6259303d7fb39e1210332", "fusion_lon": 0.0, "lon": -76.995127, "name": "05165c76ffe6259303d7fb39e1210332", "is_disabled": 0, "rental_uris": {"android": "https://dc.lft.to/lastmile_qr_scan", "ios": "https://dc.lft.to/lastmile_qr_scan"}, "type": "electric_scooter", "lat": 38.8836745, "is_reserved": 0, "fusion_lat": 0.0}, {"bike_id": "ae128d8035ace40c40058b1e2a313ea3", "fusion_lon": 0.0, "lon": -77.021985, "name": "ae128d8035ace40c40058b1e2a313ea3", "is_disabled": 0, "rental_uris": {"android": "https://dc.lft.to/lastmile_qr_scan", "ios": "https://dc.lft.to/lastmile_qr_scan"}, "type": "electric_scooter", "lat": 38.91839683333333, "is_reserved": 0, "fusion_lat": 0.0}, {"bike_id": "b788769ddac58359a5286f549d0bb7ca", "fusion_lon": 0.0, "lon": -76.99343666666667, "name": "b788769ddac58359a5286f549d0bb7ca", "is_disabled": 0, "rental_uris": {"android": "https://dc.lft.to/lastmile_qr_scan", "ios": "https://dc.lft.to/lastmile_qr_scan"}, "type": "electric_bike", "lat": 38.97229883333333, "is_reserved": 0, "fusion_lat": 0.0}, {"bike_id": "22a8c2a7f35009120760c52c8e9baaa0", "fusion_lon": 0.0, "lon": -76.99697116666667, "name": "22a8c2a7f35009120760c52c8e9baaa0", "is_disabled": 0, "rental_uris": {"android": "https://dc.lft.to/lastmile_qr_scan", "ios": "https://dc.lft.to/lastmile_qr_scan"}, "type": "electric_scooter", "lat": 38.90837966666667, "is_reserved": 0, "fusion_lat": 0.0}, {"bike_id": "84ef8709c58fa93d0b68bb96ae0e7ca9", "fusion_lon": 0.0, "lon": -77.04350016666666, "name": "84ef8709c58fa93d0b68bb96ae0e7ca9", "is_disabled": 0, "rental_uris": {"android": "https://dc.lft.to/lastmile_qr_scan", "ios": "https://dc.lft.to/lastmile_qr_scan"}, "type": "electric_bike", "lat": 38.900844, "is_reserved": 0, "fusion_lat": 0.0}, {"bike_id": "b892051812e1a8806e4bb75a2a3b844f", "fusion_lon": 0.0, "lon": -77.01870166666667, "name": "b892051812e1a8806e4bb75a2a3b844f", "is_disabled": 0, "rental_uris": {"android": "https://dc.lft.to/lastmile_qr_scan", "ios": "https://dc.lft.to/lastmile_qr_scan"}, "type": "electric_scooter", "lat": 38.93153816666667, "is_reserved": 0, "fusion_lat": 0.0}, {"bike_id": "265c4bbe2c2368f155e34ecbaa958a47", "fusion_lon": 0.0, "lon": -77.03673533333334, "name": "265c4bbe2c2368f155e34ecbaa958a47", "is_disabled": 0, "rental_uris": {"android": "https://dc.lft.to/lastmile_qr_scan", "ios": "https://dc.lft.to/lastmile_qr_scan"}, "type": "electric_scooter", "lat": 38.91710533333333, "is_reserved": 0, "fusion_lat": 0.0}, {"bike_id": "a55a3cb42143758f33cd66f54fe2f139", "fusion_lon": 0.0, "lon": -77.057651, "name": "a55a3cb42143758f33cd66f54fe2f139", "is_disabled": 0, "rental_uris": {"android": "https://dc.lft.to/lastmile_qr_scan", "ios": "https://dc.lft.to/lastmile_qr_scan"}, "type": "electric_scooter", "lat": 38.93434516666667, "is_reserved": 0, "fusion_lat": 0.0}, {"bike_id": "7effe3f1537ea214ac9d18e5951364eb", "fusion_lon": 0.0, "lon": -77.04804333333334, "name": "7effe3f1537ea214ac9d18e5951364eb", "is_disabled": 0, "rental_uris": {"android": "https://dc.lft.to/lastmile_qr_scan", "ios": "https://dc.lft.to/lastmile_qr_scan"}, "type": "electric_scooter", "lat": 38.892214833333334, "is_reserved": 0, "fusion_lat": 0.0}, {"bike_id": "6db6469b31c122d0a8d89801c2958175", "fusion_lon": 0.0, "lon": -76.933023, "name": "6db6469b31c122d0a8d89801c2958175", "is_disabled": 0, "rental_uris": {"android": "https://dc.lft.to/lastmile_qr_scan", "ios": "https://dc.lft.to/lastmile_qr_scan"}, "type": "electric_scooter", "lat": 38.881339833333335, "is_reserved": 0, "fusion_lat": 0.0}, {"bike_id": "cb3e89cf552244c3b1868fb929925cb6", "fusion_lon": 0.0, "lon": -77.06133066666666, "name": "cb3e89cf552244c3b1868fb929925cb6", "is_disabled": 0, "rental_uris": {"android": "https://dc.lft.to/lastmile_qr_scan", "ios": "https://dc.lft.to/lastmile_qr_scan"}, "type": "electric_scooter", "lat": 38.9050975, "is_reserved": 0, "fusion_lat": 0.0}, {"bike_id": "463da393c501ff1ea25e0c6183f12864", "fusion_lon": 0.0, "lon": -77.02806916666667, "name": "463da393c501ff1ea25e0c6183f12864", "is_disabled": 0, "rental_uris": {"android": "https://dc.lft.to/lastmile_qr_scan", "ios": "https://dc.lft.to/lastmile_qr_scan"}, "type": "electric_scooter", "lat": 38.89654016666667, "is_reserved": 0, "fusion_lat": 0.0}, {"bike_id": "48d3318f30f05846af25fbfb1a6979b3", "fusion_lon": 0.0, "lon": -76.9913795, "name": "48d3318f30f05846af25fbfb1a6979b3", "is_disabled": 0, "rental_uris": {"android": "https://dc.lft.to/lastmile_qr_scan", "ios": "https://dc.lft.to/lastmile_qr_scan"}, "type": "electric_scooter", "lat": 38.879061666666665, "is_reserved": 0, "fusion_lat": 0.0}, {"bike_id": "91a33ebe3b3adb12d1f6627d90aceb58", "fusion_lon": 0.0, "lon": -77.03283, "name": "91a33ebe3b3adb12d1f6627d90aceb58", "is_disabled": 0, "rental_uris": {"android": "https://dc.lft.to/lastmile_qr_scan", "ios": "https://dc.lft.to/lastmile_qr_scan"}, "type": "electric_scooter", "lat": 38.9368915, "is_reserved": 0, "fusion_lat": 0.0}, {"bike_id": "f5c47566fb3ddd613730efc3d780da70", "fusion_lon": 0.0, "lon": -76.93023866666667, "name": "f5c47566fb3ddd613730efc3d780da70", "is_disabled": 0, "rental_uris": {"android": "https://dc.lft.to/lastmile_qr_scan", "ios": "https://dc.lft.to/lastmile_qr_scan"}, "type": "electric_scooter", "lat": 38.8982485, "is_reserved": 0, "fusion_lat": 0.0}, {"bike_id": "400fc22de65f83d44278cb9cfb35d208", "fusion_lon": 0.0, "lon": -77.04685333333333, "name": "400fc22de65f83d44278cb9cfb35d208", "is_disabled": 0, "rental_uris": {"android": "https://dc.lft.to/lastmile_qr_scan", "ios": "https://dc.lft.to/lastmile_qr_scan"}, "type": "electric_scooter", "lat": 38.897345666666666, "is_reserved": 0, "fusion_lat": 0.0}, {"bike_id": "0f849de9c6302d3c68a392903686f393", "fusion_lon": 0.0, "lon": -77.00070116666667, "name": "0f849de9c6302d3c68a392903686f393", "is_disabled": 0, "rental_uris": {"android": "https://dc.lft.to/lastmile_qr_scan", "ios": "https://dc.lft.to/lastmile_qr_scan"}, "type": "electric_scooter", "lat": 38.90021466666666, "is_reserved": 0, "fusion_lat": 0.0}, {"bike_id": "8516467e8b4c03a99fc3c71e6f82f72d", "fusion_lon": 0.0, "lon": -77.02850433333333, "name": "8516467e8b4c03a99fc3c71e6f82f72d", "is_disabled": 0, "rental_uris": {"android": "https://dc.lft.to/lastmile_qr_scan", "ios": "https://dc.lft.to/lastmile_qr_scan"}, "type": "electric_scooter", "lat": 38.92572366666667, "is_reserved": 0, "fusion_lat": 0.0}, {"bike_id": "a1ea5448f78c4123e37100a127d90078", "fusion_lon": 0.0, "lon": -77.013799, "name": "a1ea5448f78c4123e37100a127d90078", "is_disabled": 0, "rental_uris": {"android": "https://dc.lft.to/lastmile_qr_scan", "ios": "https://dc.lft.to/lastmile_qr_scan"}, "type": "electric_scooter", "lat": 38.8708755, "is_reserved": 0, "fusion_lat": 0.0}, {"bike_id": "3a251808ed960d14bde6faa90ae55b7d", "fusion_lon": 0.0, "lon": -77.03956, "name": "3a251808ed960d14bde6faa90ae55b7d", "is_disabled": 0, "rental_uris": {"android": "https://dc.lft.to/lastmile_qr_scan", "ios": "https://dc.lft.to/lastmile_qr_scan"}, "type": "electric_scooter", "lat": 38.89243066666667, "is_reserved": 0, "fusion_lat": 0.0}, {"bike_id": "bc84605e3a99b2430fc0a817545b4dac", "fusion_lon": 0.0, "lon": -77.04038066666666, "name": "bc84605e3a99b2430fc0a817545b4dac", "is_disabled": 0, "rental_uris": {"android": "https://dc.lft.to/lastmile_qr_scan", "ios": "https://dc.lft.to/lastmile_qr_scan"}, "type": "electric_scooter", "lat": 38.918611166666665, "is_reserved": 0, "fusion_lat": 0.0}, {"bike_id": "515a4ce4a4b0a9fb0596d9378b6d0bd3", "fusion_lon": 0.0, "lon": -77.0319525, "name": "515a4ce4a4b0a9fb0596d9378b6d0bd3", "is_disabled": 0, "rental_uris": {"android": "https://dc.lft.to/lastmile_qr_scan", "ios": "https://dc.lft.to/lastmile_qr_scan"}, "type": "electric_scooter", "lat": 38.91710466666667, "is_reserved": 0, "fusion_lat": 0.0}, {"bike_id": "86ee100e770dfd351105815631426069", "fusion_lon": 0.0, "lon": -76.92878833333333, "name": "86ee100e770dfd351105815631426069", "is_disabled": 0, "rental_uris": {"android": "https://dc.lft.to/lastmile_qr_scan", "ios": "https://dc.lft.to/lastmile_qr_scan"}, "type": "electric_scooter", "lat": 38.885221, "is_reserved": 0, "fusion_lat": 0.0}, {"bike_id": "9e0c3b27b4b783d5326930ad1767c4e9", "fusion_lon": 0.0, "lon": -77.02478066666667, "name": "9e0c3b27b4b783d5326930ad1767c4e9", "is_disabled": 0, "rental_uris": {"android": "https://dc.lft.to/lastmile_qr_scan", "ios": "https://dc.lft.to/lastmile_qr_scan"}, "type": "electric_scooter", "lat": 38.90966933333333, "is_reserved": 0, "fusion_lat": 0.0}, {"bike_id": "2d80f9ec33f76ec788659f3bc0200e3e", "fusion_lon": 0.0, "lon": -77.03520766666666, "name": "2d80f9ec33f76ec788659f3bc0200e3e", "is_disabled": 0, "rental_uris": {"android": "https://dc.lft.to/lastmile_qr_scan", "ios": "https://dc.lft.to/lastmile_qr_scan"}, "type": "electric_scooter", "lat": 38.92283583333333, "is_reserved": 0, "fusion_lat": 0.0}, {"bike_id": "909a38cb9b434cc5d354afb03338262b", "fusion_lon": 0.0, "lon": -77.0207085, "name": "909a38cb9b434cc5d354afb03338262b", "is_disabled": 0, "rental_uris": {"android": "https://dc.lft.to/lastmile_qr_scan", "ios": "https://dc.lft.to/lastmile_qr_scan"}, "type": "electric_bike", "lat": 38.96441266666667, "is_reserved": 0, "fusion_lat": 0.0}, {"bike_id": "7dc5cc7f520d88d6822657b45a84c883", "fusion_lon": 0.0, "lon": -77.0416675, "name": "7dc5cc7f520d88d6822657b45a84c883", "is_disabled": 0, "rental_uris": {"android": "https://dc.lft.to/lastmile_qr_scan", "ios": "https://dc.lft.to/lastmile_qr_scan"}, "type": "electric_scooter", "lat": 38.901348166666665, "is_reserved": 0, "fusion_lat": 0.0}, {"bike_id": "81a4b82d33b21a63ac94347ed0f29c0d", "fusion_lon": 0.0, "lon": -77.0351855, "name": "81a4b82d33b21a63ac94347ed0f29c0d", "is_disabled": 0, "rental_uris": {"android": "https://dc.lft.to/lastmile_qr_scan", "ios": "https://dc.lft.to/lastmile_qr_scan"}, "type": "electric_scooter", "lat": 38.935923833333334, "is_reserved": 0, "fusion_lat": 0.0}, {"bike_id": "64d3402cf77e2be10e939b7df2b6bbe5", "fusion_lon": 0.0, "lon": -77.029651, "name": "64d3402cf77e2be10e939b7df2b6bbe5", "is_disabled": 0, "rental_uris": {"android": "https://dc.lft.to/lastmile_qr_scan", "ios": "https://dc.lft.to/lastmile_qr_scan"}, "type": "electric_scooter", "lat": 38.9168255, "is_reserved": 0, "fusion_lat": 0.0}, {"bike_id": "02b2c4d6d3abdefc35292a686dffde8a", "fusion_lon": 0.0, "lon": -77.0221425, "name": "02b2c4d6d3abdefc35292a686dffde8a", "is_disabled": 0, "rental_uris": {"android": "https://dc.lft.to/lastmile_qr_scan", "ios": "https://dc.lft.to/lastmile_qr_scan"}, "type": "electric_scooter", "lat": 38.915637333333336, "is_reserved": 0, "fusion_lat": 0.0}, {"bike_id": "fdfc5b6ede8e5ccc68f5ee374cd27d00", "fusion_lon": 0.0, "lon": -77.02117816666667, "name": "fdfc5b6ede8e5ccc68f5ee374cd27d00", "is_disabled": 0, "rental_uris": {"android": "https://dc.lft.to/lastmile_qr_scan", "ios": "https://dc.lft.to/lastmile_qr_scan"}, "type": "electric_scooter", "lat": 38.930205666666666, "is_reserved": 0, "fusion_lat": 0.0}, {"bike_id": "58e9e36b96077de652eca269f786e618", "fusion_lon": 0.0, "lon": -76.99543066666666, "name": "58e9e36b96077de652eca269f786e618", "is_disabled": 0, "rental_uris": {"android": "https://dc.lft.to/lastmile_qr_scan", "ios": "https://dc.lft.to/lastmile_qr_scan"}, "type": "electric_scooter", "lat": 38.926712333333334, "is_reserved": 0, "fusion_lat": 0.0}, {"bike_id": "cae9145ada2abcfce8868d8a4f6835a8", "fusion_lon": 0.0, "lon": -77.09962683333333, "name": "cae9145ada2abcfce8868d8a4f6835a8", "is_disabled": 0, "rental_uris": {"android": "https://dc.lft.to/lastmile_qr_scan", "ios": "https://dc.lft.to/lastmile_qr_scan"}, "type": "electric_bike", "lat": 38.85790733333333, "is_reserved": 0, "fusion_lat": 0.0}, {"bike_id": "f4ba59503a50d6361d7629b626b1c0bd", "fusion_lon": 0.0, "lon": -76.97946216666666, "name": "f4ba59503a50d6361d7629b626b1c0bd", "is_disabled": 0, "rental_uris": {"android": "https://dc.lft.to/lastmile_qr_scan", "ios": "https://dc.lft.to/lastmile_qr_scan"}, "type": "electric_scooter", "lat": 38.945241833333334, "is_reserved": 0, "fusion_lat": 0.0}, {"bike_id": "18c41aa67dbd37fdab0dbdb2f2502450", "fusion_lon": 0.0, "lon": -77.09805166666666, "name": "18c41aa67dbd37fdab0dbdb2f2502450", "is_disabled": 0, "rental_uris": {"android": "https://dc.lft.to/lastmile_qr_scan", "ios": "https://dc.lft.to/lastmile_qr_scan"}, "type": "electric_bike", "lat": 38.85027183333333, "is_reserved": 0, "fusion_lat": 0.0}, {"bike_id": "459e694274c131aab48424517a02ef29", "fusion_lon": 0.0, "lon": -77.035392, "name": "459e694274c131aab48424517a02ef29", "is_disabled": 0, "rental_uris": {"android": "https://dc.lft.to/lastmile_qr_scan", "ios": "https://dc.lft.to/lastmile_qr_scan"}, "type": "electric_scooter", "lat": 38.92633433333334, "is_reserved": 0, "fusion_lat": 0.0}, {"bike_id": "19f6ca772efc2241ae3dbabf95373cd8", "fusion_lon": 0.0, "lon": -77.04663566666666, "name": "19f6ca772efc2241ae3dbabf95373cd8", "is_disabled": 0, "rental_uris": {"android": "https://dc.lft.to/lastmile_qr_scan", "ios": "https://dc.lft.to/lastmile_qr_scan"}, "type": "electric_scooter", "lat": 38.892415166666666, "is_reserved": 0, "fusion_lat": 0.0}, {"bike_id": "e50cd8c0d9cb43c1503bcecb1fd5dcd2", "fusion_lon": 0.0, "lon": -77.02288616666667, "name": "e50cd8c0d9cb43c1503bcecb1fd5dcd2", "is_disabled": 0, "rental_uris": {"android": "https://dc.lft.to/lastmile_qr_scan", "ios": "https://dc.lft.to/lastmile_qr_scan"}, "type": "electric_scooter", "lat": 38.91684733333334, "is_reserved": 0, "fusion_lat": 0.0}, {"bike_id": "5079827fce8fe01c558cb24bb810d0b9", "fusion_lon": 0.0, "lon": -77.0552865, "name": "5079827fce8fe01c558cb24bb810d0b9", "is_disabled": 0, "rental_uris": {"android": "https://dc.lft.to/lastmile_qr_scan", "ios": "https://dc.lft.to/lastmile_qr_scan"}, "type": "electric_scooter", "lat": 38.9301565, "is_reserved": 0, "fusion_lat": 0.0}, {"bike_id": "718e1536fa6360359d101e58ad113dd0", "fusion_lon": 0.0, "lon": -77.058583, "name": "718e1536fa6360359d101e58ad113dd0", "is_disabled": 0, "rental_uris": {"android": "https://dc.lft.to/lastmile_qr_scan", "ios": "https://dc.lft.to/lastmile_qr_scan"}, "type": "electric_scooter", "lat": 38.93606466666667, "is_reserved": 0, "fusion_lat": 0.0}, {"bike_id": "350633b915e8d753c72684243baf8a00", "fusion_lon": 0.0, "lon": -77.02714133333333, "name": "350633b915e8d753c72684243baf8a00", "is_disabled": 0, "rental_uris": {"android": "https://dc.lft.to/lastmile_qr_scan", "ios": "https://dc.lft.to/lastmile_qr_scan"}, "type": "electric_scooter", "lat": 38.91565533333333, "is_reserved": 0, "fusion_lat": 0.0}, {"bike_id": "4230d23e35d91ab1901737f7db6c0a8c", "fusion_lon": 0.0, "lon": -77.02723416666667, "name": "4230d23e35d91ab1901737f7db6c0a8c", "is_disabled": 0, "rental_uris": {"android": "https://dc.lft.to/lastmile_qr_scan", "ios": "https://dc.lft.to/lastmile_qr_scan"}, "type": "electric_scooter", "lat": 38.9496, "is_reserved": 0, "fusion_lat": 0.0}, {"bike_id": "04418c4e618f6641f33476a8da100419", "fusion_lon": 0.0, "lon": -77.02965616666667, "name": "04418c4e618f6641f33476a8da100419", "is_disabled": 0, "rental_uris": {"android": "https://dc.lft.to/lastmile_qr_scan", "ios": "https://dc.lft.to/lastmile_qr_scan"}, "type": "electric_scooter", "lat": 38.923669, "is_reserved": 0, "fusion_lat": 0.0}, {"bike_id": "9e291a94162d283f3e8a0ace71d2f03a", "fusion_lon": 0.0, "lon": -77.02723816666666, "name": "9e291a94162d283f3e8a0ace71d2f03a", "is_disabled": 0, "rental_uris": {"android": "https://dc.lft.to/lastmile_qr_scan", "ios": "https://dc.lft.to/lastmile_qr_scan"}, "type": "electric_scooter", "lat": 38.94959633333333, "is_reserved": 0, "fusion_lat": 0.0}, {"bike_id": "dd7d90ba9aeb7822ea128092b83a3843", "fusion_lon": 0.0, "lon": -77.04601316666667, "name": "dd7d90ba9aeb7822ea128092b83a3843", "is_disabled": 0, "rental_uris": {"android": "https://dc.lft.to/lastmile_qr_scan", "ios": "https://dc.lft.to/lastmile_qr_scan"}, "type": "electric_scooter", "lat": 38.91923216666667, "is_reserved": 0, "fusion_lat": 0.0}, {"bike_id": "54efc5d2ccb45a20d9d7052ced1fba3d", "fusion_lon": 0.0, "lon": -76.981083, "name": "54efc5d2ccb45a20d9d7052ced1fba3d", "is_disabled": 0, "rental_uris": {"android": "https://dc.lft.to/lastmile_qr_scan", "ios": "https://dc.lft.to/lastmile_qr_scan"}, "type": "electric_bike", "lat": 38.877314166666665, "is_reserved": 0, "fusion_lat": 0.0}, {"bike_id": "10079efe67e31e79b7e40234b14a8f6e", "fusion_lon": 0.0, "lon": -77.01800316666667, "name": "10079efe67e31e79b7e40234b14a8f6e", "is_disabled": 0, "rental_uris": {"android": "https://dc.lft.to/lastmile_qr_scan", "ios": "https://dc.lft.to/lastmile_qr_scan"}, "type": "electric_scooter", "lat": 38.91455933333334, "is_reserved": 0, "fusion_lat": 0.0}, {"bike_id": "d07aa91903127b800a3f9170007d7e78", "fusion_lon": 0.0, "lon": -76.99349716666667, "name": "d07aa91903127b800a3f9170007d7e78", "is_disabled": 0, "rental_uris": {"android": "https://dc.lft.to/lastmile_qr_scan", "ios": "https://dc.lft.to/lastmile_qr_scan"}, "type": "electric_scooter", "lat": 38.91481983333333, "is_reserved": 0, "fusion_lat": 0.0}, {"bike_id": "5b951fa96bc6c94c9b0dd2fe34e8408c", "fusion_lon": 0.0, "lon": -77.02738916666667, "name": "5b951fa96bc6c94c9b0dd2fe34e8408c", "is_disabled": 0, "rental_uris": {"android": "https://dc.lft.to/lastmile_qr_scan", "ios": "https://dc.lft.to/lastmile_qr_scan"}, "type": "electric_scooter", "lat": 38.93358533333333, "is_reserved": 0, "fusion_lat": 0.0}, {"bike_id": "b731988c4afa8df177e968fa2427be22", "fusion_lon": 0.0, "lon": -77.03476933333333, "name": "b731988c4afa8df177e968fa2427be22", "is_disabled": 0, "rental_uris": {"android": "https://dc.lft.to/lastmile_qr_scan", "ios": "https://dc.lft.to/lastmile_qr_scan"}, "type": "electric_scooter", "lat": 38.909674833333334, "is_reserved": 0, "fusion_lat": 0.0}, {"bike_id": "74f55b2f5d3871d767593f4b7b175fbd", "fusion_lon": 0.0, "lon": -77.0316355, "name": "74f55b2f5d3871d767593f4b7b175fbd", "is_disabled": 0, "rental_uris": {"android": "https://dc.lft.to/lastmile_qr_scan", "ios": "https://dc.lft.to/lastmile_qr_scan"}, "type": "electric_scooter", "lat": 38.892204166666666, "is_reserved": 0, "fusion_lat": 0.0}, {"bike_id": "9d884ce5b12f02ca2db042814b33e35d", "fusion_lon": 0.0, "lon": -77.02419983333333, "name": "9d884ce5b12f02ca2db042814b33e35d", "is_disabled": 0, "rental_uris": {"android": "https://dc.lft.to/lastmile_qr_scan", "ios": "https://dc.lft.to/lastmile_qr_scan"}, "type": "electric_scooter", "lat": 38.93711183333333, "is_reserved": 0, "fusion_lat": 0.0}, {"bike_id": "95ac6f17de0cd87ece7c91534f9d7bf8", "fusion_lon": 0.0, "lon": -77.02280066666667, "name": "95ac6f17de0cd87ece7c91534f9d7bf8", "is_disabled": 0, "rental_uris": {"android": "https://dc.lft.to/lastmile_qr_scan", "ios": "https://dc.lft.to/lastmile_qr_scan"}, "type": "electric_scooter", "lat": 38.915635333333334, "is_reserved": 0, "fusion_lat": 0.0}, {"bike_id": "2c3689d79b7c22c5f708e943ec6ce498", "fusion_lon": 0.0, "lon": -77.029846, "name": "2c3689d79b7c22c5f708e943ec6ce498", "is_disabled": 0, "rental_uris": {"android": "https://dc.lft.to/lastmile_qr_scan", "ios": "https://dc.lft.to/lastmile_qr_scan"}, "type": "electric_scooter", "lat": 38.93441816666667, "is_reserved": 0, "fusion_lat": 0.0}, {"bike_id": "5cd5a527ba8e48a22493061184629571", "fusion_lon": 0.0, "lon": -77.015077, "name": "5cd5a527ba8e48a22493061184629571", "is_disabled": 0, "rental_uris": {"android": "https://dc.lft.to/lastmile_qr_scan", "ios": "https://dc.lft.to/lastmile_qr_scan"}, "type": "electric_scooter", "lat": 38.8880665, "is_reserved": 0, "fusion_lat": 0.0}, {"bike_id": "9cc22c8c77f1679609a9a5862bce179f", "fusion_lon": 0.0, "lon": -77.031884, "name": "9cc22c8c77f1679609a9a5862bce179f", "is_disabled": 0, "rental_uris": {"android": "https://dc.lft.to/lastmile_qr_scan", "ios": "https://dc.lft.to/lastmile_qr_scan"}, "type": "electric_scooter", "lat": 38.91345866666666, "is_reserved": 0, "fusion_lat": 0.0}, {"bike_id": "369082c106138485146f8f3f4143aace", "fusion_lon": 0.0, "lon": -77.03657566666666, "name": "369082c106138485146f8f3f4143aace", "is_disabled": 0, "rental_uris": {"android": "https://dc.lft.to/lastmile_qr_scan", "ios": "https://dc.lft.to/lastmile_qr_scan"}, "type": "electric_scooter", "lat": 38.917237666666665, "is_reserved": 0, "fusion_lat": 0.0}, {"bike_id": "d07d6521d180dc93bf405f152e5c07d0", "fusion_lon": 0.0, "lon": -76.98713766666667, "name": "d07d6521d180dc93bf405f152e5c07d0", "is_disabled": 0, "rental_uris": {"android": "https://dc.lft.to/lastmile_qr_scan", "ios": "https://dc.lft.to/lastmile_qr_scan"}, "type": "electric_scooter", "lat": 38.86698416666667, "is_reserved": 0, "fusion_lat": 0.0}, {"bike_id": "1dcf0102e823078a62441d94102917de", "fusion_lon": 0.0, "lon": -77.0624215, "name": "1dcf0102e823078a62441d94102917de", "is_disabled": 0, "rental_uris": {"android": "https://dc.lft.to/lastmile_qr_scan", "ios": "https://dc.lft.to/lastmile_qr_scan"}, "type": "electric_scooter", "lat": 38.905269833333335, "is_reserved": 0, "fusion_lat": 0.0}, {"bike_id": "5645f72c8ef66a5537409eb8a5c4a4d5", "fusion_lon": 0.0, "lon": -77.02048466666666, "name": "5645f72c8ef66a5537409eb8a5c4a4d5", "is_disabled": 0, "rental_uris": {"android": "https://dc.lft.to/lastmile_qr_scan", "ios": "https://dc.lft.to/lastmile_qr_scan"}, "type": "electric_scooter", "lat": 38.9141445, "is_reserved": 0, "fusion_lat": 0.0}, {"bike_id": "c2c27c76d6fc01f63fa2dcd4d09debe1", "fusion_lon": 0.0, "lon": -77.04051866666667, "name": "c2c27c76d6fc01f63fa2dcd4d09debe1", "is_disabled": 0, "rental_uris": {"android": "https://dc.lft.to/lastmile_qr_scan", "ios": "https://dc.lft.to/lastmile_qr_scan"}, "type": "electric_scooter", "lat": 38.89882033333333, "is_reserved": 0, "fusion_lat": 0.0}, {"bike_id": "1e8e709f48279feb57c4fbbc167657d8", "fusion_lon": 0.0, "lon": -77.041659, "name": "1e8e709f48279feb57c4fbbc167657d8", "is_disabled": 0, "rental_uris": {"android": "https://dc.lft.to/lastmile_qr_scan", "ios": "https://dc.lft.to/lastmile_qr_scan"}, "type": "electric_scooter", "lat": 38.916411833333335, "is_reserved": 0, "fusion_lat": 0.0}, {"bike_id": "5dd472e44a27c79d170d9b9a93f2e02e", "fusion_lon": 0.0, "lon": -77.07939433333334, "name": "5dd472e44a27c79d170d9b9a93f2e02e", "is_disabled": 0, "rental_uris": {"android": "https://dc.lft.to/lastmile_qr_scan", "ios": "https://dc.lft.to/lastmile_qr_scan"}, "type": "electric_scooter", "lat": 38.947642333333334, "is_reserved": 0, "fusion_lat": 0.0}, {"bike_id": "b4e0c8da761d81c8a508209251ef6893", "fusion_lon": 0.0, "lon": -76.988417, "name": "b4e0c8da761d81c8a508209251ef6893", "is_disabled": 0, "rental_uris": {"android": "https://dc.lft.to/lastmile_qr_scan", "ios": "https://dc.lft.to/lastmile_qr_scan"}, "type": "electric_scooter", "lat": 38.892567666666665, "is_reserved": 0, "fusion_lat": 0.0}, {"bike_id": "26d5565cbbb96bc253d6c2f21cdbf069", "fusion_lon": 0.0, "lon": -77.02705933333333, "name": "26d5565cbbb96bc253d6c2f21cdbf069", "is_disabled": 0, "rental_uris": {"android": "https://dc.lft.to/lastmile_qr_scan", "ios": "https://dc.lft.to/lastmile_qr_scan"}, "type": "electric_scooter", "lat": 38.9067315, "is_reserved": 0, "fusion_lat": 0.0}, {"bike_id": "dfbd2b4d2a2dd7b394a25a48c972e7e1", "fusion_lon": 0.0, "lon": -77.04820433333333, "name": "dfbd2b4d2a2dd7b394a25a48c972e7e1", "is_disabled": 0, "rental_uris": {"android": "https://dc.lft.to/lastmile_qr_scan", "ios": "https://dc.lft.to/lastmile_qr_scan"}, "type": "electric_scooter", "lat": 38.907886833333336, "is_reserved": 0, "fusion_lat": 0.0}, {"bike_id": "b2cd08ae86c3c44f03674a9f5c4b2bba", "fusion_lon": 0.0, "lon": -77.02968, "name": "b2cd08ae86c3c44f03674a9f5c4b2bba", "is_disabled": 0, "rental_uris": {"android": "https://dc.lft.to/lastmile_qr_scan", "ios": "https://dc.lft.to/lastmile_qr_scan"}, "type": "electric_scooter", "lat": 38.9228675, "is_reserved": 0, "fusion_lat": 0.0}, {"bike_id": "6288d04eea3c8371399ad4aaf9d9994f", "fusion_lon": 0.0, "lon": -77.02732, "name": "6288d04eea3c8371399ad4aaf9d9994f", "is_disabled": 0, "rental_uris": {"android": "https://dc.lft.to/lastmile_qr_scan", "ios": "https://dc.lft.to/lastmile_qr_scan"}, "type": "electric_scooter", "lat": 38.927674833333334, "is_reserved": 0, "fusion_lat": 0.0}, {"bike_id": "c615360a5febd0a140248605997794a4", "fusion_lon": 0.0, "lon": -76.99404, "name": "c615360a5febd0a140248605997794a4", "is_disabled": 0, "rental_uris": {"android": "https://dc.lft.to/lastmile_qr_scan", "ios": "https://dc.lft.to/lastmile_qr_scan"}, "type": "electric_scooter", "lat": 38.92166266666667, "is_reserved": 0, "fusion_lat": 0.0}, {"bike_id": "4570b176bb2ea058799abce9089b6aa5", "fusion_lon": 0.0, "lon": -76.9839875, "name": "4570b176bb2ea058799abce9089b6aa5", "is_disabled": 0, "rental_uris": {"android": "https://dc.lft.to/lastmile_qr_scan", "ios": "https://dc.lft.to/lastmile_qr_scan"}, "type": "electric_scooter", "lat": 38.866985166666666, "is_reserved": 0, "fusion_lat": 0.0}, {"bike_id": "26556cddf8438d9993e3f126eb1dd5e5", "fusion_lon": 0.0, "lon": -77.02716383333333, "name": "26556cddf8438d9993e3f126eb1dd5e5", "is_disabled": 0, "rental_uris": {"android": "https://dc.lft.to/lastmile_qr_scan", "ios": "https://dc.lft.to/lastmile_qr_scan"}, "type": "electric_scooter", "lat": 38.90075516666667, "is_reserved": 0, "fusion_lat": 0.0}, {"bike_id": "d422b5c17c1c794b6b1e0dbc9d680005", "fusion_lon": 0.0, "lon": -77.038335, "name": "d422b5c17c1c794b6b1e0dbc9d680005", "is_disabled": 0, "rental_uris": {"android": "https://dc.lft.to/lastmile_qr_scan", "ios": "https://dc.lft.to/lastmile_qr_scan"}, "type": "electric_scooter", "lat": 38.908005333333335, "is_reserved": 0, "fusion_lat": 0.0}, {"bike_id": "0e9822b8aaef3bf52ff92a05de8d9912", "fusion_lon": 0.0, "lon": -77.034146, "name": "0e9822b8aaef3bf52ff92a05de8d9912", "is_disabled": 0, "rental_uris": {"android": "https://dc.lft.to/lastmile_qr_scan", "ios": "https://dc.lft.to/lastmile_qr_scan"}, "type": "electric_scooter", "lat": 38.9203735, "is_reserved": 0, "fusion_lat": 0.0}, {"bike_id": "a33d157f433a2f3c0089d11eb4472193", "fusion_lon": 0.0, "lon": -76.93345266666667, "name": "a33d157f433a2f3c0089d11eb4472193", "is_disabled": 0, "rental_uris": {"android": "https://dc.lft.to/lastmile_qr_scan", "ios": "https://dc.lft.to/lastmile_qr_scan"}, "type": "electric_scooter", "lat": 38.888145, "is_reserved": 0, "fusion_lat": 0.0}, {"bike_id": "8dea5531574248891ae72118d18603a8", "fusion_lon": 0.0, "lon": -76.989507, "name": "8dea5531574248891ae72118d18603a8", "is_disabled": 0, "rental_uris": {"android": "https://dc.lft.to/lastmile_qr_scan", "ios": "https://dc.lft.to/lastmile_qr_scan"}, "type": "electric_bike", "lat": 38.86729533333333, "is_reserved": 0, "fusion_lat": 0.0}, {"bike_id": "9e6232ed8e75ae78ace43eb3f6752d80", "fusion_lon": 0.0, "lon": -77.03150166666667, "name": "9e6232ed8e75ae78ace43eb3f6752d80", "is_disabled": 0, "rental_uris": {"android": "https://dc.lft.to/lastmile_qr_scan", "ios": "https://dc.lft.to/lastmile_qr_scan"}, "type": "electric_scooter", "lat": 38.892246166666666, "is_reserved": 0, "fusion_lat": 0.0}, {"bike_id": "9ae136ec8534033c050ed5d1f6d1abc9", "fusion_lon": 0.0, "lon": -77.07060966666667, "name": "9ae136ec8534033c050ed5d1f6d1abc9", "is_disabled": 0, "rental_uris": {"android": "https://dc.lft.to/lastmile_qr_scan", "ios": "https://dc.lft.to/lastmile_qr_scan"}, "type": "electric_scooter", "lat": 38.9317405, "is_reserved": 0, "fusion_lat": 0.0}, {"bike_id": "61e67485e554b8e94a811c825e84e578", "fusion_lon": 0.0, "lon": -77.02705983333334, "name": "61e67485e554b8e94a811c825e84e578", "is_disabled": 0, "rental_uris": {"android": "https://dc.lft.to/lastmile_qr_scan", "ios": "https://dc.lft.to/lastmile_qr_scan"}, "type": "electric_scooter", "lat": 38.89834, "is_reserved": 0, "fusion_lat": 0.0}, {"bike_id": "2bd365ae4ed79c5fc4c16c3474904fde", "fusion_lon": 0.0, "lon": -77.007821, "name": "2bd365ae4ed79c5fc4c16c3474904fde", "is_disabled": 0, "rental_uris": {"android": "https://dc.lft.to/lastmile_qr_scan", "ios": "https://dc.lft.to/lastmile_qr_scan"}, "type": "electric_bike", "lat": 38.8782195, "is_reserved": 0, "fusion_lat": 0.0}, {"bike_id": "fc7e53a30539dde17bac1eb0c2c75fff", "fusion_lon": 0.0, "lon": -77.022881, "name": "fc7e53a30539dde17bac1eb0c2c75fff", "is_disabled": 0, "rental_uris": {"android": "https://dc.lft.to/lastmile_qr_scan", "ios": "https://dc.lft.to/lastmile_qr_scan"}, "type": "electric_scooter", "lat": 38.9241795, "is_reserved": 0, "fusion_lat": 0.0}, {"bike_id": "19b4c363283f43917cb40f74aa9a3c46", "fusion_lon": 0.0, "lon": -77.021795, "name": "19b4c363283f43917cb40f74aa9a3c46", "is_disabled": 0, "rental_uris": {"android": "https://dc.lft.to/lastmile_qr_scan", "ios": "https://dc.lft.to/lastmile_qr_scan"}, "type": "electric_scooter", "lat": 38.912895, "is_reserved": 0, "fusion_lat": 0.0}, {"bike_id": "bfade41f9a112974e14f795f67557bad", "fusion_lon": 0.0, "lon": -76.994267, "name": "bfade41f9a112974e14f795f67557bad", "is_disabled": 0, "rental_uris": {"android": "https://dc.lft.to/lastmile_qr_scan", "ios": "https://dc.lft.to/lastmile_qr_scan"}, "type": "electric_scooter", "lat": 38.861847, "is_reserved": 0, "fusion_lat": 0.0}, {"bike_id": "f41713f4d4516b3c52c68cf5fdfc20ca", "fusion_lon": 0.0, "lon": -77.0249575, "name": "f41713f4d4516b3c52c68cf5fdfc20ca", "is_disabled": 0, "rental_uris": {"android": "https://dc.lft.to/lastmile_qr_scan", "ios": "https://dc.lft.to/lastmile_qr_scan"}, "type": "electric_scooter", "lat": 38.91926466666666, "is_reserved": 0, "fusion_lat": 0.0}, {"bike_id": "3fbb3dd35a7a21943c88d0646486473d", "fusion_lon": 0.0, "lon": -77.05756633333333, "name": "3fbb3dd35a7a21943c88d0646486473d", "is_disabled": 0, "rental_uris": {"android": "https://dc.lft.to/lastmile_qr_scan", "ios": "https://dc.lft.to/lastmile_qr_scan"}, "type": "electric_scooter", "lat": 38.924626, "is_reserved": 0, "fusion_lat": 0.0}, {"bike_id": "a5d7cb6b697e14716329b2c71855925c", "fusion_lon": 0.0, "lon": -77.028595, "name": "a5d7cb6b697e14716329b2c71855925c", "is_disabled": 0, "rental_uris": {"android": "https://dc.lft.to/lastmile_qr_scan", "ios": "https://dc.lft.to/lastmile_qr_scan"},