{"data": {"bikes": [{"fusion_lat": 0.0, "name": "b62aafe16942d27cb6aac15298a044f0", "is_disabled": 0, "rental_uris": {"android": "https://dc.lft.to/lastmile_qr_scan", "ios": "https://dc.lft.to/lastmile_qr_scan"}, "fusion_lon": 0.0, "lat": 38.893628, "bike_id": "b62aafe16942d27cb6aac15298a044f0", "type": "electric_scooter", "is_reserved": 0, "lon": -76.92591616666667}, {"fusion_lat": 0.0, "name": "ada90c0f19674b0fd7b2c499006aeafe", "is_disabled": 0, "rental_uris": {"android": "https://dc.lft.to/lastmile_qr_scan", "ios": "https://dc.lft.to/lastmile_qr_scan"}, "fusion_lon": 0.0, "lat": 38.913008, "bike_id": "ada90c0f19674b0fd7b2c499006aeafe", "type": "electric_scooter", "is_reserved": 0, "lon": -76.98463333333333}, {"fusion_lat": 0.0, "name": "bb9b8a8b3513db40c7e8c3c0358bdf5e", "is_disabled": 0, "rental_uris": {"android": "https://dc.lft.to/lastmile_qr_scan", "ios": "https://dc.lft.to/lastmile_qr_scan"}, "fusion_lon": 0.0, "lat": 38.96166616666667, "bike_id": "bb9b8a8b3513db40c7e8c3c0358bdf5e", "type": "electric_scooter", "is_reserved": 0, "lon": -77.07365966666667}, {"fusion_lat": 0.0, "name": "71a629984db3b900f6d71807bb037aa5", "is_disabled": 0, "rental_uris": {"android": "https://dc.lft.to/lastmile_qr_scan", "ios": "https://dc.lft.to/lastmile_qr_scan"}, "fusion_lon": 0.0, "lat": 38.912682833333335, "bike_id": "71a629984db3b900f6d71807bb037aa5", "type": "electric_scooter", "is_reserved": 0, "lon": -77.048397}, {"fusion_lat": 0.0, "name": "baec6c9eda56b1ade7bdd129b7232685", "is_disabled": 0, "rental_uris": {"android": "https://dc.lft.to/lastmile_qr_scan", "ios": "https://dc.lft.to/lastmile_qr_scan"}, "fusion_lon": 0.0, "lat": 38.90055266666667, "bike_id": "baec6c9eda56b1ade7bdd129b7232685", "type": "electric_scooter", "is_reserved": 0, "lon": -77.00719266666667}, {"fusion_lat": 0.0, "name": "827cb8716dd7d5ab762b7a7f5afd1c18", "is_disabled": 0, "rental_uris": {"android": "https://dc.lft.to/lastmile_qr_scan", "ios": "https://dc.lft.to/lastmile_qr_scan"}, "fusion_lon": 0.0, "lat": 38.90950816666667, "bike_id": "827cb8716dd7d5ab762b7a7f5afd1c18", "type": "electric_scooter", "is_reserved": 0, "lon": -76.98542666666667}, {"fusion_lat": 0.0, "name": "9c51c490668a986f80e146f6c1ca0032", "is_disabled": 0, "rental_uris": {"android": "https://dc.lft.to/lastmile_qr_scan", "ios": "https://dc.lft.to/lastmile_qr_scan"}, "fusion_lon": 0.0, "lat": 38.917075833333335, "bike_id": "9c51c490668a986f80e146f6c1ca0032", "type": "electric_scooter", "is_reserved": 0, "lon": -77.04213016666667}, {"fusion_lat": 0.0, "name": "fb8ec4c60977e5c70041389534b11bec", "is_disabled": 0, "rental_uris": {"android": "https://dc.lft.to/lastmile_qr_scan", "ios": "https://dc.lft.to/lastmile_qr_scan"}, "fusion_lon": 0.0, "lat": 38.907985, "bike_id": "fb8ec4c60977e5c70041389534b11bec", "type": "electric_bike", "is_reserved": 0, "lon": -76.99700333333334}, {"fusion_lat": 0.0, "name": "524f8b5fd18ad71e543e24f27172bc11", "is_disabled": 0, "rental_uris": {"android": "https://dc.lft.to/lastmile_qr_scan", "ios": "https://dc.lft.to/lastmile_qr_scan"}, "fusion_lon": 0.0, "lat": 38.90899483333333, "bike_id": "524f8b5fd18ad71e543e24f27172bc11", "type": "electric_scooter", "is_reserved": 0, "lon": -77.032099}, {"fusion_lat": 0.0, "name": "dc65b6c881ddc1513425c41b69a65fe1", "is_disabled": 0, "rental_uris": {"android": "https://dc.lft.to/lastmile_qr_scan", "ios": "https://dc.lft.to/lastmile_qr_scan"}, "fusion_lon": 0.0, "lat": 38.923630333333335, "bike_id": "dc65b6c881ddc1513425c41b69a65fe1", "type": "electric_scooter", "is_reserved": 0, "lon": -77.05051916666666}, {"fusion_lat": 0.0, "name": "40ddeeefac77fac3e5c7d8b560be4a23", "is_disabled": 0, "rental_uris": {"android": "https://dc.lft.to/lastmile_qr_scan", "ios": "https://dc.lft.to/lastmile_qr_scan"}, "fusion_lon": 0.0, "lat": 38.865169333333334, "bike_id": "40ddeeefac77fac3e5c7d8b560be4a23", "type": "electric_bike", "is_reserved": 0, "lon": -77.129352}, {"fusion_lat": 0.0, "name": "103ba0531127f75744b2e23501292867", "is_disabled": 0, "rental_uris": {"android": "https://dc.lft.to/lastmile_qr_scan", "ios": "https://dc.lft.to/lastmile_qr_scan"}, "fusion_lon": 0.0, "lat": 38.824605166666665, "bike_id": "103ba0531127f75744b2e23501292867", "type": "electric_bike", "is_reserved": 0, "lon": -77.0079795}, {"fusion_lat": 0.0, "name": "c398a093ecc9bc8256fae1fc6faf9d1b", "is_disabled": 0, "rental_uris": {"android": "https://dc.lft.to/lastmile_qr_scan", "ios": "https://dc.lft.to/lastmile_qr_scan"}, "fusion_lon": 0.0, "lat": 38.908697, "bike_id": "c398a093ecc9bc8256fae1fc6faf9d1b", "type": "electric_scooter", "is_reserved": 0, "lon": -77.08593366666666}, {"fusion_lat": 0.0, "name": "81a02243de6a1eff1503c2770f41fa1f", "is_disabled": 0, "rental_uris": {"android": "https://dc.lft.to/lastmile_qr_scan", "ios": "https://dc.lft.to/lastmile_qr_scan"}, "fusion_lon": 0.0, "lat": 38.91270333333333, "bike_id": "81a02243de6a1eff1503c2770f41fa1f", "type": "electric_scooter", "is_reserved": 0, "lon": -77.03168483333333}, {"fusion_lat": 0.0, "name": "7afd0decb50ede0181dc8acf4d439ae0", "is_disabled": 0, "rental_uris": {"android": "https://dc.lft.to/lastmile_qr_scan", "ios": "https://dc.lft.to/lastmile_qr_scan"}, "fusion_lon": 0.0, "lat": 38.87688083333333, "bike_id": "7afd0decb50ede0181dc8acf4d439ae0", "type": "electric_scooter", "is_reserved": 0, "lon": -77.00748633333333}, {"fusion_lat": 0.0, "name": "94677c3bc19d7adfe3951e2e2e7320ba", "is_disabled": 0, "rental_uris": {"android": "https://dc.lft.to/lastmile_qr_scan", "ios": "https://dc.lft.to/lastmile_qr_scan"}, "fusion_lon": 0.0, "lat": 38.923087, "bike_id": "94677c3bc19d7adfe3951e2e2e7320ba", "type": "electric_scooter", "is_reserved": 0, "lon": -77.0412035}, {"fusion_lat": 0.0, "name": "f7d7acc001246f755e65f7af2a5902bb", "is_disabled": 0, "rental_uris": {"android": "https://dc.lft.to/lastmile_qr_scan", "ios": "https://dc.lft.to/lastmile_qr_scan"}, "fusion_lon": 0.0, "lat": 38.918841666666665, "bike_id": "f7d7acc001246f755e65f7af2a5902bb", "type": "electric_scooter", "is_reserved": 0, "lon": -77.04313533333334}, {"fusion_lat": 0.0, "name": "905eb22f3394b034080cd1e5c12780e4", "is_disabled": 0, "rental_uris": {"android": "https://dc.lft.to/lastmile_qr_scan", "ios": "https://dc.lft.to/lastmile_qr_scan"}, "fusion_lon": 0.0, "lat": 38.887690166666665, "bike_id": "905eb22f3394b034080cd1e5c12780e4", "type": "electric_scooter", "is_reserved": 0, "lon": -76.97754016666667}, {"fusion_lat": 0.0, "name": "334b1e9c796b4351b8eebd504f11dd45", "is_disabled": 0, "rental_uris": {"android": "https://dc.lft.to/lastmile_qr_scan", "ios": "https://dc.lft.to/lastmile_qr_scan"}, "fusion_lon": 0.0, "lat": 38.90409783333333, "bike_id": "334b1e9c796b4351b8eebd504f11dd45", "type": "electric_scooter", "is_reserved": 0, "lon": -77.00139683333333}, {"fusion_lat": 0.0, "name": "cd9998ca8b6e654ddf8c6d75d9cab133", "is_disabled": 0, "rental_uris": {"android": "https://dc.lft.to/lastmile_qr_scan", "ios": "https://dc.lft.to/lastmile_qr_scan"}, "fusion_lon": 0.0, "lat": 38.90593583333333, "bike_id": "cd9998ca8b6e654ddf8c6d75d9cab133", "type": "electric_scooter", "is_reserved": 0, "lon": -77.021803}, {"fusion_lat": 0.0, "name": "a39e6212629aaabd64daa16459c53554", "is_disabled": 0, "rental_uris": {"android": "https://dc.lft.to/lastmile_qr_scan", "ios": "https://dc.lft.to/lastmile_qr_scan"}, "fusion_lon": 0.0, "lat": 38.9236595, "bike_id": "a39e6212629aaabd64daa16459c53554", "type": "electric_scooter", "is_reserved": 0, "lon": -77.019529}, {"fusion_lat": 0.0, "name": "3fbb08e9181c08931ae41631c51bfdec", "is_disabled": 0, "rental_uris": {"android": "https://dc.lft.to/lastmile_qr_scan", "ios": "https://dc.lft.to/lastmile_qr_scan"}, "fusion_lon": 0.0, "lat": 38.9287585, "bike_id": "3fbb08e9181c08931ae41631c51bfdec", "type": "electric_scooter", "is_reserved": 0, "lon": -77.05463033333334}, {"fusion_lat": 0.0, "name": "f006a93e2154776f60c222da1386c732", "is_disabled": 0, "rental_uris": {"android": "https://dc.lft.to/lastmile_qr_scan", "ios": "https://dc.lft.to/lastmile_qr_scan"}, "fusion_lon": 0.0, "lat": 38.88949216666666, "bike_id": "f006a93e2154776f60c222da1386c732", "type": "electric_scooter", "is_reserved": 0, "lon": -76.99162083333333}, {"fusion_lat": 0.0, "name": "d74b8ece958ad1a29b81b7c5a66c0015", "is_disabled": 0, "rental_uris": {"android": "https://dc.lft.to/lastmile_qr_scan", "ios": "https://dc.lft.to/lastmile_qr_scan"}, "fusion_lon": 0.0, "lat": 38.900133333333336, "bike_id": "d74b8ece958ad1a29b81b7c5a66c0015", "type": "electric_scooter", "is_reserved": 0, "lon": -77.04030383333334}, {"fusion_lat": 0.0, "name": "68a5bf36b03f7fff1c83ccb35e66b80d", "is_disabled": 0, "rental_uris": {"android": "https://dc.lft.to/lastmile_qr_scan", "ios": "https://dc.lft.to/lastmile_qr_scan"}, "fusion_lon": 0.0, "lat": 38.909879333333336, "bike_id": "68a5bf36b03f7fff1c83ccb35e66b80d", "type": "electric_scooter", "is_reserved": 0, "lon": -77.0441405}, {"fusion_lat": 0.0, "name": "3070cb0eb8301ac95d158974dfe06631", "is_disabled": 0, "rental_uris": {"android": "https://dc.lft.to/lastmile_qr_scan", "ios": "https://dc.lft.to/lastmile_qr_scan"}, "fusion_lon": 0.0, "lat": 38.936996, "bike_id": "3070cb0eb8301ac95d158974dfe06631", "type": "electric_scooter", "is_reserved": 0, "lon": -77.032858}, {"fusion_lat": 0.0, "name": "0391614c8f1e7525ab1e0ab739133d85", "is_disabled": 0, "rental_uris": {"android": "https://dc.lft.to/lastmile_qr_scan", "ios": "https://dc.lft.to/lastmile_qr_scan"}, "fusion_lon": 0.0, "lat": 38.8969975, "bike_id": "0391614c8f1e7525ab1e0ab739133d85", "type": "electric_scooter", "is_reserved": 0, "lon": -77.0075755}, {"fusion_lat": 0.0, "name": "b3fbf8ad419ad3323c97e4a218bb8cba", "is_disabled": 0, "rental_uris": {"android": "https://dc.lft.to/lastmile_qr_scan", "ios": "https://dc.lft.to/lastmile_qr_scan"}, "fusion_lon": 0.0, "lat": 38.919579166666665, "bike_id": "b3fbf8ad419ad3323c97e4a218bb8cba", "type": "electric_scooter", "is_reserved": 0, "lon": -77.01790266666667}, {"fusion_lat": 0.0, "name": "298a92c36a4490aef4e2f467407549ee", "is_disabled": 0, "rental_uris": {"android": "https://dc.lft.to/lastmile_qr_scan", "ios": "https://dc.lft.to/lastmile_qr_scan"}, "fusion_lon": 0.0, "lat": 38.92103566666667, "bike_id": "298a92c36a4490aef4e2f467407549ee", "type": "electric_scooter", "is_reserved": 0, "lon": -77.04181633333333}, {"fusion_lat": 0.0, "name": "b05ad6ea3888ee15d69d8282531306d6", "is_disabled": 0, "rental_uris": {"android": "https://dc.lft.to/lastmile_qr_scan", "ios": "https://dc.lft.to/lastmile_qr_scan"}, "fusion_lon": 0.0, "lat": 38.92332866666667, "bike_id": "b05ad6ea3888ee15d69d8282531306d6", "type": "electric_scooter", "is_reserved": 0, "lon": -77.02048083333334}, {"fusion_lat": 0.0, "name": "10d38d21a4d75278acf97bc775c3aa9b", "is_disabled": 0, "rental_uris": {"android": "https://dc.lft.to/lastmile_qr_scan", "ios": "https://dc.lft.to/lastmile_qr_scan"}, "fusion_lon": 0.0, "lat": 38.913538333333335, "bike_id": "10d38d21a4d75278acf97bc775c3aa9b", "type": "electric_scooter", "is_reserved": 0, "lon": -77.031856}, {"fusion_lat": 0.0, "name": "485bb4194f9da426ee1e5d7c2c40f4e9", "is_disabled": 0, "rental_uris": {"android": "https://dc.lft.to/lastmile_qr_scan", "ios": "https://dc.lft.to/lastmile_qr_scan"}, "fusion_lon": 0.0, "lat": 38.87691, "bike_id": "485bb4194f9da426ee1e5d7c2c40f4e9", "type": "electric_scooter", "is_reserved": 0, "lon": -77.01755166666666}, {"fusion_lat": 0.0, "name": "96bf904c4f43c2abc6686c5e6ea40c6d", "is_disabled": 0, "rental_uris": {"android": "https://dc.lft.to/lastmile_qr_scan", "ios": "https://dc.lft.to/lastmile_qr_scan"}, "fusion_lon": 0.0, "lat": 38.88628666666666, "bike_id": "96bf904c4f43c2abc6686c5e6ea40c6d", "type": "electric_scooter", "is_reserved": 0, "lon": -77.01519533333334}, {"fusion_lat": 0.0, "name": "147b9b464afa6bb6a13382195236ac07", "is_disabled": 0, "rental_uris": {"android": "https://dc.lft.to/lastmile_qr_scan", "ios": "https://dc.lft.to/lastmile_qr_scan"}, "fusion_lon": 0.0, "lat": 38.91591916666667, "bike_id": "147b9b464afa6bb6a13382195236ac07", "type": "electric_scooter", "is_reserved": 0, "lon": -77.038571}, {"fusion_lat": 0.0, "name": "53f925079e9d4e4d7cfb40301c3f00d4", "is_disabled": 0, "rental_uris": {"android": "https://dc.lft.to/lastmile_qr_scan", "ios": "https://dc.lft.to/lastmile_qr_scan"}, "fusion_lon": 0.0, "lat": 38.921942, "bike_id": "53f925079e9d4e4d7cfb40301c3f00d4", "type": "electric_scooter", "is_reserved": 0, "lon": -77.029656}, {"fusion_lat": 0.0, "name": "dd87c2e78063b419e96b2902eedd4860", "is_disabled": 0, "rental_uris": {"android": "https://dc.lft.to/lastmile_qr_scan", "ios": "https://dc.lft.to/lastmile_qr_scan"}, "fusion_lon": 0.0, "lat": 38.83547733333333, "bike_id": "dd87c2e78063b419e96b2902eedd4860", "type": "electric_bike", "is_reserved": 0, "lon": -76.9872685}, {"fusion_lat": 0.0, "name": "e645bff6f0e53266eb58d023ece42f54", "is_disabled": 0, "rental_uris": {"android": "https://dc.lft.to/lastmile_qr_scan", "ios": "https://dc.lft.to/lastmile_qr_scan"}, "fusion_lon": 0.0, "lat": 38.84396866666667, "bike_id": "e645bff6f0e53266eb58d023ece42f54", "type": "electric_scooter", "is_reserved": 0, "lon": -76.98956416666667}, {"fusion_lat": 0.0, "name": "59267cc8f4d7726d79c66a16a21bb2cb", "is_disabled": 0, "rental_uris": {"android": "https://dc.lft.to/lastmile_qr_scan", "ios": "https://dc.lft.to/lastmile_qr_scan"}, "fusion_lon": 0.0, "lat": 38.89229916666667, "bike_id": "59267cc8f4d7726d79c66a16a21bb2cb", "type": "electric_scooter", "is_reserved": 0, "lon": -77.031013}, {"fusion_lat": 0.0, "name": "ce0812ec79897a45e240dbfbfa61b17f", "is_disabled": 0, "rental_uris": {"android": "https://dc.lft.to/lastmile_qr_scan", "ios": "https://dc.lft.to/lastmile_qr_scan"}, "fusion_lon": 0.0, "lat": 38.93433266666667, "bike_id": "ce0812ec79897a45e240dbfbfa61b17f", "type": "electric_scooter", "is_reserved": 0, "lon": -77.03989683333333}, {"fusion_lat": 0.0, "name": "cb5b118cb487c2c9c0925baea4199d69", "is_disabled": 0, "rental_uris": {"android": "https://dc.lft.to/lastmile_qr_scan", "ios": "https://dc.lft.to/lastmile_qr_scan"}, "fusion_lon": 0.0, "lat": 38.99364683333334, "bike_id": "cb5b118cb487c2c9c0925baea4199d69", "type": "electric_bike", "is_reserved": 0, "lon": -77.03166966666667}, {"fusion_lat": 0.0, "name": "71856bf7893b156352a1912ee758bab6", "is_disabled": 0, "rental_uris": {"android": "https://dc.lft.to/lastmile_qr_scan", "ios": "https://dc.lft.to/lastmile_qr_scan"}, "fusion_lon": 0.0, "lat": 38.900642, "bike_id": "71856bf7893b156352a1912ee758bab6", "type": "electric_scooter", "is_reserved": 0, "lon": -76.93386983333333}, {"fusion_lat": 0.0, "name": "28187d13d666dbd44c2a32bae298ceef", "is_disabled": 0, "rental_uris": {"android": "https://dc.lft.to/lastmile_qr_scan", "ios": "https://dc.lft.to/lastmile_qr_scan"}, "fusion_lon": 0.0, "lat": 38.93206466666667, "bike_id": "28187d13d666dbd44c2a32bae298ceef", "type": "electric_scooter", "is_reserved": 0, "lon": -77.03279133333334}, {"fusion_lat": 0.0, "name": "67f7e69b5e9a7d014915ef4bbe8bf52d", "is_disabled": 0, "rental_uris": {"android": "https://dc.lft.to/lastmile_qr_scan", "ios": "https://dc.lft.to/lastmile_qr_scan"}, "fusion_lon": 0.0, "lat": 38.9540445, "bike_id": "67f7e69b5e9a7d014915ef4bbe8bf52d", "type": "electric_scooter", "is_reserved": 0, "lon": -77.02748266666667}, {"fusion_lat": 0.0, "name": "3cccd0fbd3b921e22f776ab2b49eb08a", "is_disabled": 0, "rental_uris": {"android": "https://dc.lft.to/lastmile_qr_scan", "ios": "https://dc.lft.to/lastmile_qr_scan"}, "fusion_lon": 0.0, "lat": 38.8994615, "bike_id": "3cccd0fbd3b921e22f776ab2b49eb08a", "type": "electric_scooter", "is_reserved": 0, "lon": -77.04180333333333}, {"fusion_lat": 0.0, "name": "2164c9266d22f23b154dfe1704338de7", "is_disabled": 0, "rental_uris": {"android": "https://dc.lft.to/lastmile_qr_scan", "ios": "https://dc.lft.to/lastmile_qr_scan"}, "fusion_lon": 0.0, "lat": 38.945981, "bike_id": "2164c9266d22f23b154dfe1704338de7", "type": "electric_scooter", "is_reserved": 0, "lon": -77.02979883333333}, {"fusion_lat": 0.0, "name": "20f4bdb1d00043cfd394541e24215fa1", "is_disabled": 0, "rental_uris": {"android": "https://dc.lft.to/lastmile_qr_scan", "ios": "https://dc.lft.to/lastmile_qr_scan"}, "fusion_lon": 0.0, "lat": 38.857798833333334, "bike_id": "20f4bdb1d00043cfd394541e24215fa1", "type": "electric_scooter", "is_reserved": 0, "lon": -76.97298116666667}, {"fusion_lat": 0.0, "name": "d5a750701ef7e55c3046a0c39a18c973", "is_disabled": 0, "rental_uris": {"android": "https://dc.lft.to/lastmile_qr_scan", "ios": "https://dc.lft.to/lastmile_qr_scan"}, "fusion_lon": 0.0, "lat": 38.900335166666665, "bike_id": "d5a750701ef7e55c3046a0c39a18c973", "type": "electric_scooter", "is_reserved": 0, "lon": -77.03841483333333}, {"fusion_lat": 0.0, "name": "052ce533664d16e216c4782cafcd1e06", "is_disabled": 0, "rental_uris": {"android": "https://dc.lft.to/lastmile_qr_scan", "ios": "https://dc.lft.to/lastmile_qr_scan"}, "fusion_lon": 0.0, "lat": 38.845074833333335, "bike_id": "052ce533664d16e216c4782cafcd1e06", "type": "electric_bike", "is_reserved": 0, "lon": -76.99353316666667}, {"fusion_lat": 0.0, "name": "34e9b925f0e5afb7865d4be8677f7e37", "is_disabled": 0, "rental_uris": {"android": "https://dc.lft.to/lastmile_qr_scan", "ios": "https://dc.lft.to/lastmile_qr_scan"}, "fusion_lon": 0.0, "lat": 38.886784, "bike_id": "34e9b925f0e5afb7865d4be8677f7e37", "type": "electric_bike", "is_reserved": 0, "lon": -77.16242566666666}, {"fusion_lat": 0.0, "name": "99968a0331372048e7b2e88869fba16d", "is_disabled": 0, "rental_uris": {"android": "https://dc.lft.to/lastmile_qr_scan", "ios": "https://dc.lft.to/lastmile_qr_scan"}, "fusion_lon": 0.0, "lat": 38.903933, "bike_id": "99968a0331372048e7b2e88869fba16d", "type": "electric_scooter", "is_reserved": 0, "lon": -77.061444}, {"fusion_lat": 0.0, "name": "b35e3e02be79282c6f64c418b25b0243", "is_disabled": 0, "rental_uris": {"android": "https://dc.lft.to/lastmile_qr_scan", "ios": "https://dc.lft.to/lastmile_qr_scan"}, "fusion_lon": 0.0, "lat": 38.903962666666665, "bike_id": "b35e3e02be79282c6f64c418b25b0243", "type": "electric_scooter", "is_reserved": 0, "lon": -76.98470283333333}, {"fusion_lat": 0.0, "name": "26338a4674883c0283a2e1bd7926b1d0", "is_disabled": 0, "rental_uris": {"android": "https://dc.lft.to/lastmile_qr_scan", "ios": "https://dc.lft.to/lastmile_qr_scan"}, "fusion_lon": 0.0, "lat": 38.9253255, "bike_id": "26338a4674883c0283a2e1bd7926b1d0", "type": "electric_scooter", "is_reserved": 0, "lon": -77.05560333333334}, {"fusion_lat": 0.0, "name": "7b96f9723558f2f8ee3a7bea3ce003a2", "is_disabled": 0, "rental_uris": {"android": "https://dc.lft.to/lastmile_qr_scan", "ios": "https://dc.lft.to/lastmile_qr_scan"}, "fusion_lon": 0.0, "lat": 38.884593, "bike_id": "7b96f9723558f2f8ee3a7bea3ce003a2", "type": "electric_scooter", "is_reserved": 0, "lon": -76.92621966666667}, {"fusion_lat": 0.0, "name": "8e0b762cad62fdada700c076088dc5d8", "is_disabled": 0, "rental_uris": {"android": "https://dc.lft.to/lastmile_qr_scan", "ios": "https://dc.lft.to/lastmile_qr_scan"}, "fusion_lon": 0.0, "lat": 38.92081833333334, "bike_id": "8e0b762cad62fdada700c076088dc5d8", "type": "electric_scooter", "is_reserved": 0, "lon": -77.02509083333334}, {"fusion_lat": 0.0, "name": "05dab5a6a7b94aab0e442fc3edd61d40", "is_disabled": 0, "rental_uris": {"android": "https://dc.lft.to/lastmile_qr_scan", "ios": "https://dc.lft.to/lastmile_qr_scan"}, "fusion_lon": 0.0, "lat": 38.91188066666667, "bike_id": "05dab5a6a7b94aab0e442fc3edd61d40", "type": "electric_scooter", "is_reserved": 0, "lon": -77.03957766666667}, {"fusion_lat": 0.0, "name": "25d7c64628edccc93855608b24ef3b0f", "is_disabled": 0, "rental_uris": {"android": "https://dc.lft.to/lastmile_qr_scan", "ios": "https://dc.lft.to/lastmile_qr_scan"}, "fusion_lon": 0.0, "lat": 38.95795966666667, "bike_id": "25d7c64628edccc93855608b24ef3b0f", "type": "electric_bike", "is_reserved": 0, "lon": -76.99968133333333}, {"fusion_lat": 0.0, "name": "c759f6419c243de236c0746ff511b7b8", "is_disabled": 0, "rental_uris": {"android": "https://dc.lft.to/lastmile_qr_scan", "ios": "https://dc.lft.to/lastmile_qr_scan"}, "fusion_lon": 0.0, "lat": 38.912920166666666, "bike_id": "c759f6419c243de236c0746ff511b7b8", "type": "electric_scooter", "is_reserved": 0, "lon": -77.04756083333334}, {"fusion_lat": 0.0, "name": "41dd76332ad84b7c1c566c654482ba14", "is_disabled": 0, "rental_uris": {"android": "https://dc.lft.to/lastmile_qr_scan", "ios": "https://dc.lft.to/lastmile_qr_scan"}, "fusion_lon": 0.0, "lat": 38.896124, "bike_id": "41dd76332ad84b7c1c566c654482ba14", "type": "electric_scooter", "is_reserved": 0, "lon": -77.04484166666667}, {"fusion_lat": 0.0, "name": "c4258b750c5f3f79653236839f611a7a", "is_disabled": 0, "rental_uris": {"android": "https://dc.lft.to/lastmile_qr_scan", "ios": "https://dc.lft.to/lastmile_qr_scan"}, "fusion_lon": 0.0, "lat": 38.92973933333333, "bike_id": "c4258b750c5f3f79653236839f611a7a", "type": "electric_scooter", "is_reserved": 0, "lon": -77.028225}, {"fusion_lat": 0.0, "name": "1381fc1c6a256a1129b303d0bcae3ca8", "is_disabled": 0, "rental_uris": {"android": "https://dc.lft.to/lastmile_qr_scan", "ios": "https://dc.lft.to/lastmile_qr_scan"}, "fusion_lon": 0.0, "lat": 38.993907166666666, "bike_id": "1381fc1c6a256a1129b303d0bcae3ca8", "type": "electric_bike", "is_reserved": 0, "lon": -77.03108366666666}, {"fusion_lat": 0.0, "name": "311ddf2daa7c993da9893d298ecff09d", "is_disabled": 0, "rental_uris": {"android": "https://dc.lft.to/lastmile_qr_scan", "ios": "https://dc.lft.to/lastmile_qr_scan"}, "fusion_lon": 0.0, "lat": 38.9289, "bike_id": "311ddf2daa7c993da9893d298ecff09d", "type": "electric_scooter", "is_reserved": 0, "lon": -77.0329875}, {"fusion_lat": 0.0, "name": "68f708fef3487a5cfcdcf61503a8f64f", "is_disabled": 0, "rental_uris": {"android": "https://dc.lft.to/lastmile_qr_scan", "ios": "https://dc.lft.to/lastmile_qr_scan"}, "fusion_lon": 0.0, "lat": 38.88745333333333, "bike_id": "68f708fef3487a5cfcdcf61503a8f64f", "type": "electric_scooter", "is_reserved": 0, "lon": -76.983603}, {"fusion_lat": 0.0, "name": "fb1eadb5f007a68a59eb665c8f676855", "is_disabled": 0, "rental_uris": {"android": "https://dc.lft.to/lastmile_qr_scan", "ios": "https://dc.lft.to/lastmile_qr_scan"}, "fusion_lon": 0.0, "lat": 38.92221766666667, "bike_id": "fb1eadb5f007a68a59eb665c8f676855", "type": "electric_bike", "is_reserved": 0, "lon": -77.2013625}, {"fusion_lat": 0.0, "name": "dd3675e98e9f3844ab266c0381a286f9", "is_disabled": 0, "rental_uris": {"android": "https://dc.lft.to/lastmile_qr_scan", "ios": "https://dc.lft.to/lastmile_qr_scan"}, "fusion_lon": 0.0, "lat": 38.9612985, "bike_id": "dd3675e98e9f3844ab266c0381a286f9", "type": "electric_scooter", "is_reserved": 0, "lon": -77.08526333333333}, {"fusion_lat": 0.0, "name": "1e25964346b8eb8a4e0653ee2a355eed", "is_disabled": 0, "rental_uris": {"android": "https://dc.lft.to/lastmile_qr_scan", "ios": "https://dc.lft.to/lastmile_qr_scan"}, "fusion_lon": 0.0, "lat": 38.9284755, "bike_id": "1e25964346b8eb8a4e0653ee2a355eed", "type": "electric_scooter", "is_reserved": 0, "lon": -77.01403183333333}, {"fusion_lat": 0.0, "name": "37a4859d2d609576a84fcf0a796bf2bf", "is_disabled": 0, "rental_uris": {"android": "https://dc.lft.to/lastmile_qr_scan", "ios": "https://dc.lft.to/lastmile_qr_scan"}, "fusion_lon": 0.0, "lat": 38.884572666666664, "bike_id": "37a4859d2d609576a84fcf0a796bf2bf", "type": "electric_scooter", "is_reserved": 0, "lon": -77.0248705}, {"fusion_lat": 0.0, "name": "5859a653e07d180e104aad6937103221", "is_disabled": 0, "rental_uris": {"android": "https://dc.lft.to/lastmile_qr_scan", "ios": "https://dc.lft.to/lastmile_qr_scan"}, "fusion_lon": 0.0, "lat": 38.8939925, "bike_id": "5859a653e07d180e104aad6937103221", "type": "electric_scooter", "is_reserved": 0, "lon": -76.99487983333333}, {"fusion_lat": 0.0, "name": "e73da3dbf9c2e7cd1cc2f30b22511c21", "is_disabled": 0, "rental_uris": {"android": "https://dc.lft.to/lastmile_qr_scan", "ios": "https://dc.lft.to/lastmile_qr_scan"}, "fusion_lon": 0.0, "lat": 38.899631166666666, "bike_id": "e73da3dbf9c2e7cd1cc2f30b22511c21", "type": "electric_scooter", "is_reserved": 0, "lon": -77.04860966666666}, {"fusion_lat": 0.0, "name": "e3a10930b7ccbfdb755ca85227a5fa3c", "is_disabled": 0, "rental_uris": {"android": "https://dc.lft.to/lastmile_qr_scan", "ios": "https://dc.lft.to/lastmile_qr_scan"}, "fusion_lon": 0.0, "lat": 38.92429333333333, "bike_id": "e3a10930b7ccbfdb755ca85227a5fa3c", "type": "electric_scooter", "is_reserved": 0, "lon": -77.01957716666666}, {"fusion_lat": 0.0, "name": "e4082b725018ec31ea2b8b5171577b2c", "is_disabled": 0, "rental_uris": {"android": "https://dc.lft.to/lastmile_qr_scan", "ios": "https://dc.lft.to/lastmile_qr_scan"}, "fusion_lon": 0.0, "lat": 38.928268, "bike_id": "e4082b725018ec31ea2b8b5171577b2c", "type": "electric_scooter", "is_reserved": 0, "lon": -77.05438133333334}, {"fusion_lat": 0.0, "name": "dfa412244607b028878b64128bb50030", "is_disabled": 0, "rental_uris": {"android": "https://dc.lft.to/lastmile_qr_scan", "ios": "https://dc.lft.to/lastmile_qr_scan"}, "fusion_lon": 0.0, "lat": 38.923038166666664, "bike_id": "dfa412244607b028878b64128bb50030", "type": "electric_scooter", "is_reserved": 0, "lon": -77.0417535}, {"fusion_lat": 0.0, "name": "b6525a1536baca241c7d8cd58ae90a04", "is_disabled": 0, "rental_uris": {"android": "https://dc.lft.to/lastmile_qr_scan", "ios": "https://dc.lft.to/lastmile_qr_scan"}, "fusion_lon": 0.0, "lat": 38.916963833333334, "bike_id": "b6525a1536baca241c7d8cd58ae90a04", "type": "electric_scooter", "is_reserved": 0, "lon": -77.00742166666667}, {"fusion_lat": 0.0, "name": "b545182ab8f8f7f533d9d3aa9ce95d83", "is_disabled": 0, "rental_uris": {"android": "https://dc.lft.to/lastmile_qr_scan", "ios": "https://dc.lft.to/lastmile_qr_scan"}, "fusion_lon": 0.0, "lat": 38.9209085, "bike_id": "b545182ab8f8f7f533d9d3aa9ce95d83", "type": "electric_scooter", "is_reserved": 0, "lon": -77.073695}, {"fusion_lat": 0.0, "name": "a3d5a0632b88487353b903d796eecbb0", "is_disabled": 0, "rental_uris": {"android": "https://dc.lft.to/lastmile_qr_scan", "ios": "https://dc.lft.to/lastmile_qr_scan"}, "fusion_lon": 0.0, "lat": 38.956382166666664, "bike_id": "a3d5a0632b88487353b903d796eecbb0", "type": "electric_scooter", "is_reserved": 0, "lon": -77.03303183333334}, {"fusion_lat": 0.0, "name": "9600c5aebd87b567c69b483b89207034", "is_disabled": 0, "rental_uris": {"android": "https://dc.lft.to/lastmile_qr_scan", "ios": "https://dc.lft.to/lastmile_qr_scan"}, "fusion_lon": 0.0, "lat": 38.95879466666667, "bike_id": "9600c5aebd87b567c69b483b89207034", "type": "electric_bike", "is_reserved": 0, "lon": -76.97050166666666}, {"fusion_lat": 0.0, "name": "5100600711ce17df8a43ab1dcedfdf3b", "is_disabled": 0, "rental_uris": {"android": "https://dc.lft.to/lastmile_qr_scan", "ios": "https://dc.lft.to/lastmile_qr_scan"}, "fusion_lon": 0.0, "lat": 38.91655333333333, "bike_id": "5100600711ce17df8a43ab1dcedfdf3b", "type": "electric_scooter", "is_reserved": 0, "lon": -77.038584}, {"fusion_lat": 0.0, "name": "ac9ceee31ebff48f321c5831346df36e", "is_disabled": 0, "rental_uris": {"android": "https://dc.lft.to/lastmile_qr_scan", "ios": "https://dc.lft.to/lastmile_qr_scan"}, "fusion_lon": 0.0, "lat": 38.95742516666667, "bike_id": "ac9ceee31ebff48f321c5831346df36e", "type": "electric_bike", "is_reserved": 0, "lon": -77.0216975}, {"fusion_lat": 0.0, "name": "4f0d1438ee68abe9fb8d2ca19b0c35aa", "is_disabled": 0, "rental_uris": {"android": "https://dc.lft.to/lastmile_qr_scan", "ios": "https://dc.lft.to/lastmile_qr_scan"}, "fusion_lon": 0.0, "lat": 38.92661616666667, "bike_id": "4f0d1438ee68abe9fb8d2ca19b0c35aa", "type": "electric_bike", "is_reserved": 0, "lon": -77.098515}, {"fusion_lat": 0.0, "name": "81d3b6d69f5c52b6d082ce1f801a49f4", "is_disabled": 0, "rental_uris": {"android": "https://dc.lft.to/lastmile_qr_scan", "ios": "https://dc.lft.to/lastmile_qr_scan"}, "fusion_lon": 0.0, "lat": 38.89439683333333, "bike_id": "81d3b6d69f5c52b6d082ce1f801a49f4", "type": "electric_scooter", "is_reserved": 0, "lon": -77.02632966666667}, {"fusion_lat": 0.0, "name": "c54b746eb4edb8377fbde4d9b98057b3", "is_disabled": 0, "rental_uris": {"android": "https://dc.lft.to/lastmile_qr_scan", "ios": "https://dc.lft.to/lastmile_qr_scan"}, "fusion_lon": 0.0, "lat": 38.8831005, "bike_id": "c54b746eb4edb8377fbde4d9b98057b3", "type": "electric_scooter", "is_reserved": 0, "lon": -76.99165283333333}, {"fusion_lat": 0.0, "name": "1bac21dfdbd5644bd0ccf604cd0eb705", "is_disabled": 0, "rental_uris": {"android": "https://dc.lft.to/lastmile_qr_scan", "ios": "https://dc.lft.to/lastmile_qr_scan"}, "fusion_lon": 0.0, "lat": 38.912825166666664, "bike_id": "1bac21dfdbd5644bd0ccf604cd0eb705", "type": "electric_scooter", "is_reserved": 0, "lon": -77.038464}, {"fusion_lat": 0.0, "name": "615a973ed6a5cbf88686c8cfdbbc66d1", "is_disabled": 0, "rental_uris": {"android": "https://dc.lft.to/lastmile_qr_scan", "ios": "https://dc.lft.to/lastmile_qr_scan"}, "fusion_lon": 0.0, "lat": 38.957470666666666, "bike_id": "615a973ed6a5cbf88686c8cfdbbc66d1", "type": "electric_bike", "is_reserved": 0, "lon": -76.97257216666667}, {"fusion_lat": 0.0, "name": "fd6caf7362e13cc5086de230ab1ae095", "is_disabled": 0, "rental_uris": {"android": "https://dc.lft.to/lastmile_qr_scan", "ios": "https://dc.lft.to/lastmile_qr_scan"}, "fusion_lon": 0.0, "lat": 38.90007416666667, "bike_id": "fd6caf7362e13cc5086de230ab1ae095", "type": "electric_scooter", "is_reserved": 0, "lon": -77.022773}, {"fusion_lat": 0.0, "name": "45d6e1982104ba3423c0c5cc8a7efd3d", "is_disabled": 0, "rental_uris": {"android": "https://dc.lft.to/lastmile_qr_scan", "ios": "https://dc.lft.to/lastmile_qr_scan"}, "fusion_lon": 0.0, "lat": 38.89727666666667, "bike_id": "45d6e1982104ba3423c0c5cc8a7efd3d", "type": "electric_scooter", "is_reserved": 0, "lon": -77.020081}, {"fusion_lat": 0.0, "name": "75dccdb35210b64a99ff80573e7ae786", "is_disabled": 0, "rental_uris": {"android": "https://dc.lft.to/lastmile_qr_scan", "ios": "https://dc.lft.to/lastmile_qr_scan"}, "fusion_lon": 0.0, "lat": 38.922245, "bike_id": "75dccdb35210b64a99ff80573e7ae786", "type": "electric_scooter", "is_reserved": 0, "lon": -76.99356016666667}, {"fusion_lat": 0.0, "name": "53aca7aa0e460636866876c83602b8e7", "is_disabled": 0, "rental_uris": {"android": "https://dc.lft.to/lastmile_qr_scan", "ios": "https://dc.lft.to/lastmile_qr_scan"}, "fusion_lon": 0.0, "lat": 38.91326516666667, "bike_id": "53aca7aa0e460636866876c83602b8e7", "type": "electric_scooter", "is_reserved": 0, "lon": -77.02960466666667}, {"fusion_lat": 0.0, "name": "74cd78e8f91bc851eaa336936b396551", "is_disabled": 0, "rental_uris": {"android": "https://dc.lft.to/lastmile_qr_scan", "ios": "https://dc.lft.to/lastmile_qr_scan"}, "fusion_lon": 0.0, "lat": 38.9506925, "bike_id": "74cd78e8f91bc851eaa336936b396551", "type": "electric_bike", "is_reserved": 0, "lon": -77.0722685}, {"fusion_lat": 0.0, "name": "7d648a212719684c3e6a3bf808f3af6f", "is_disabled": 0, "rental_uris": {"android": "https://dc.lft.to/lastmile_qr_scan", "ios": "https://dc.lft.to/lastmile_qr_scan"}, "fusion_lon": 0.0, "lat": 38.840546333333336, "bike_id": "7d648a212719684c3e6a3bf808f3af6f", "type": "electric_scooter", "is_reserved": 0, "lon": -76.97666383333333}, {"fusion_lat": 0.0, "name": "9e131d1af8c83b0a36e876aef245cbe4", "is_disabled": 0, "rental_uris": {"android": "https://dc.lft.to/lastmile_qr_scan", "ios": "https://dc.lft.to/lastmile_qr_scan"}, "fusion_lon": 0.0, "lat": 38.89909983333333, "bike_id": "9e131d1af8c83b0a36e876aef245cbe4", "type": "electric_scooter", "is_reserved": 0, "lon": -77.00358483333333}, {"fusion_lat": 0.0, "name": "7aea2fbe878fe9e757954a2bac27ebbe", "is_disabled": 0, "rental_uris": {"android": "https://dc.lft.to/lastmile_qr_scan", "ios": "https://dc.lft.to/lastmile_qr_scan"}, "fusion_lon": 0.0, "lat": 38.94991733333333, "bike_id": "7aea2fbe878fe9e757954a2bac27ebbe", "type": "electric_scooter", "is_reserved": 0, "lon": -77.02704533333333}, {"fusion_lat": 0.0, "name": "a08f852d4c2150b80127f8316c2f6cb3", "is_disabled": 0, "rental_uris": {"android": "https://dc.lft.to/lastmile_qr_scan", "ios": "https://dc.lft.to/lastmile_qr_scan"}, "fusion_lon": 0.0, "lat": 38.914018166666665, "bike_id": "a08f852d4c2150b80127f8316c2f6cb3", "type": "electric_scooter", "is_reserved": 0, "lon": -77.02663133333333}, {"fusion_lat": 0.0, "name": "1f6a65d6685bc11fd3ed59c8a9454e48", "is_disabled": 0, "rental_uris": {"android": "https://dc.lft.to/lastmile_qr_scan", "ios": "https://dc.lft.to/lastmile_qr_scan"}, "fusion_lon": 0.0, "lat": 38.897689666666665, "bike_id": "1f6a65d6685bc11fd3ed59c8a9454e48", "type": "electric_scooter", "is_reserved": 0, "lon": -76.98554083333333}, {"fusion_lat": 0.0, "name": "725b25a649a156b1d301105e08497c17", "is_disabled": 0, "rental_uris": {"android": "https://dc.lft.to/lastmile_qr_scan", "ios": "https://dc.lft.to/lastmile_qr_scan"}, "fusion_lon": 0.0, "lat": 38.898339666666665, "bike_id": "725b25a649a156b1d301105e08497c17", "type": "electric_scooter", "is_reserved": 0, "lon": -76.93172916666667}, {"fusion_lat": 0.0, "name": "335d10ea8c9c63bafac488808cb9ac06", "is_disabled": 0, "rental_uris": {"android": "https://dc.lft.to/lastmile_qr_scan", "ios": "https://dc.lft.to/lastmile_qr_scan"}, "fusion_lon": 0.0, "lat": 38.94654716666667, "bike_id": "335d10ea8c9c63bafac488808cb9ac06", "type": "electric_scooter", "is_reserved": 0, "lon": -77.064742}, {"fusion_lat": 0.0, "name": "73ca046a392f94f018143340630543e9", "is_disabled": 0, "rental_uris": {"android": "https://dc.lft.to/lastmile_qr_scan", "ios": "https://dc.lft.to/lastmile_qr_scan"}, "fusion_lon": 0.0, "lat": 38.91550383333333, "bike_id": "73ca046a392f94f018143340630543e9", "type": "electric_scooter", "is_reserved": 0, "lon": -77.03172916666666}, {"fusion_lat": 0.0, "name": "4d29c894777b9f568f6930505a9b4532", "is_disabled": 0, "rental_uris": {"android": "https://dc.lft.to/lastmile_qr_scan", "ios": "https://dc.lft.to/lastmile_qr_scan"}, "fusion_lon": 0.0, "lat": 38.884852333333335, "bike_id": "4d29c894777b9f568f6930505a9b4532", "type": "electric_scooter", "is_reserved": 0, "lon": -76.949882}, {"fusion_lat": 0.0, "name": "8f896ac3bf027752e4956c7483f2091f", "is_disabled": 0, "rental_uris": {"android": "https://dc.lft.to/lastmile_qr_scan", "ios": "https://dc.lft.to/lastmile_qr_scan"}, "fusion_lon": 0.0, "lat": 38.907832166666665, "bike_id": "8f896ac3bf027752e4956c7483f2091f", "type": "electric_scooter", "is_reserved": 0, "lon": -77.04000566666667}, {"fusion_lat": 0.0, "name": "b27d838074764bb7f8c79fc13f4d14ea", "is_disabled": 0, "rental_uris": {"android": "https://dc.lft.to/lastmile_qr_scan", "ios": "https://dc.lft.to/lastmile_qr_scan"}, "fusion_lon": 0.0, "lat": 38.90895183333333, "bike_id": "b27d838074764bb7f8c79fc13f4d14ea", "type": "electric_scooter", "is_reserved": 0, "lon": -77.0432125}, {"fusion_lat": 0.0, "name": "a0199484a20a1f808a94bc2a5d477167", "is_disabled": 0, "rental_uris": {"android": "https://dc.lft.to/lastmile_qr_scan", "ios": "https://dc.lft.to/lastmile_qr_scan"}, "fusion_lon": 0.0, "lat": 38.96128, "bike_id": "a0199484a20a1f808a94bc2a5d477167", "type": "electric_bike", "is_reserved": 0, "lon": -77.0327935}, {"fusion_lat": 0.0, "name": "88f8472d0588f3a67c0f0e0a267483f2", "is_disabled": 0, "rental_uris": {"android": "https://dc.lft.to/lastmile_qr_scan", "ios": "https://dc.lft.to/lastmile_qr_scan"}, "fusion_lon": 0.0, "lat": 38.917092833333335, "bike_id": "88f8472d0588f3a67c0f0e0a267483f2", "type": "electric_scooter", "is_reserved": 0, "lon": -77.03478016666666}, {"fusion_lat": 0.0, "name": "78bea0697513840f6b7fcd4f2f5e2a5a", "is_disabled": 0, "rental_uris": {"android": "https://dc.lft.to/lastmile_qr_scan", "ios": "https://dc.lft.to/lastmile_qr_scan"}, "fusion_lon": 0.0, "lat": 38.8832385, "bike_id": "78bea0697513840f6b7fcd4f2f5e2a5a", "type": "electric_scooter", "is_reserved": 0, "lon": -77.017687}, {"fusion_lat": 0.0, "name": "966bb572b1b79554a2b387c74a25771d", "is_disabled": 0, "rental_uris": {"android": "https://dc.lft.to/lastmile_qr_scan", "ios": "https://dc.lft.to/lastmile_qr_scan"}, "fusion_lon": 0.0, "lat": 38.916396166666665, "bike_id": "966bb572b1b79554a2b387c74a25771d", "type": "electric_scooter", "is_reserved": 0, "lon": -77.047742}, {"fusion_lat": 0.0, "name": "840f4c70febd2c485be2694b92a60040", "is_disabled": 0, "rental_uris": {"android": "https://dc.lft.to/lastmile_qr_scan", "ios": "https://dc.lft.to/lastmile_qr_scan"}, "fusion_lon": 0.0, "lat": 38.899021166666664, "bike_id": "840f4c70febd2c485be2694b92a60040", "type": "electric_scooter", "is_reserved": 0, "lon": -77.032923}, {"fusion_lat": 0.0, "name": "6a0c05f2b3dee12bd1bd46995b10d6a3", "is_disabled": 0, "rental_uris": {"android": "https://dc.lft.to/lastmile_qr_scan", "ios": "https://dc.lft.to/lastmile_qr_scan"}, "fusion_lon": 0.0, "lat": 38.939750333333336, "bike_id": "6a0c05f2b3dee12bd1bd46995b10d6a3", "type": "electric_scooter", "is_reserved": 0, "lon": -77.03566333333333}, {"fusion_lat": 0.0, "name": "c29b4546951905816e2b4402b82f22e2", "is_disabled": 0, "rental_uris": {"android": "https://dc.lft.to/lastmile_qr_scan", "ios": "https://dc.lft.to/lastmile_qr_scan"}, "fusion_lon": 0.0, "lat": 38.92864683333333, "bike_id": "c29b4546951905816e2b4402b82f22e2", "type": "electric_scooter", "is_reserved": 0, "lon": -77.03224516666667}, {"fusion_lat": 0.0, "name": "0eebbb6f3896b656b077ba82f0b490bd", "is_disabled": 0, "rental_uris": {"android": "https://dc.lft.to/lastmile_qr_scan", "ios": "https://dc.lft.to/lastmile_qr_scan"}, "fusion_lon": 0.0, "lat": 38.91603516666667, "bike_id": "0eebbb6f3896b656b077ba82f0b490bd", "type": "electric_scooter", "is_reserved": 0, "lon": -77.02396216666666}, {"fusion_lat": 0.0, "name": "bc7b223d3ddc33da0a5820224e7fe4b9", "is_disabled": 0, "rental_uris": {"android": "https://dc.lft.to/lastmile_qr_scan", "ios": "https://dc.lft.to/lastmile_qr_scan"}, "fusion_lon": 0.0, "lat": 38.896507166666666, "bike_id": "bc7b223d3ddc33da0a5820224e7fe4b9", "type": "electric_scooter", "is_reserved": 0, "lon": -77.02656916666666}, {"fusion_lat": 0.0, "name": "46bc0e49a76f0ddfb4d1013217354e78", "is_disabled": 0, "rental_uris": {"android": "https://dc.lft.to/lastmile_qr_scan", "ios": "https://dc.lft.to/lastmile_qr_scan"}, "fusion_lon": 0.0, "lat": 38.89849316666667, "bike_id": "46bc0e49a76f0ddfb4d1013217354e78", "type": "electric_scooter", "is_reserved": 0, "lon": -77.007445}, {"fusion_lat": 0.0, "name": "a518b6a45f4fbe8ce4bc5c0484c70d0e", "is_disabled": 0, "rental_uris": {"android": "https://dc.lft.to/lastmile_qr_scan", "ios": "https://dc.lft.to/lastmile_qr_scan"}, "fusion_lon": 0.0, "lat": 38.91948766666667, "bike_id": "a518b6a45f4fbe8ce4bc5c0484c70d0e", "type": "electric_scooter", "is_reserved": 0, "lon": -77.02508483333334}, {"fusion_lat": 0.0, "name": "148427ae8fd51779f79e0d3d1c81fee6", "is_disabled": 0, "rental_uris": {"android": "https://dc.lft.to/lastmile_qr_scan", "ios": "https://dc.lft.to/lastmile_qr_scan"}, "fusion_lon": 0.0, "lat": 38.8831775, "bike_id": "148427ae8fd51779f79e0d3d1c81fee6", "type": "electric_scooter", "is_reserved": 0, "lon": -77.01750366666667}, {"fusion_lat": 0.0, "name": "683f57e0e618b218cbb64060adbda52e", "is_disabled": 0, "rental_uris": {"android": "https://dc.lft.to/lastmile_qr_scan", "ios": "https://dc.lft.to/lastmile_qr_scan"}, "fusion_lon": 0.0, "lat": 38.885023833333335, "bike_id": "683f57e0e618b218cbb64060adbda52e", "type": "electric_scooter", "is_reserved": 0, "lon": -77.0056735}, {"fusion_lat": 0.0, "name": "14f4719d18d7cdc5b39282f91b3302e0", "is_disabled": 0, "rental_uris": {"android": "https://dc.lft.to/lastmile_qr_scan", "ios": "https://dc.lft.to/lastmile_qr_scan"}, "fusion_lon": 0.0, "lat": 38.919164333333335, "bike_id": "14f4719d18d7cdc5b39282f91b3302e0", "type": "electric_scooter", "is_reserved": 0, "lon": -77.02622866666667}, {"fusion_lat": 0.0, "name": "c555ffbcd3f4b20b2309dc5d0c99252b", "is_disabled": 0, "rental_uris": {"android": "https://dc.lft.to/lastmile_qr_scan", "ios": "https://dc.lft.to/lastmile_qr_scan"}, "fusion_lon": 0.0, "lat": 38.967296, "bike_id": "c555ffbcd3f4b20b2309dc5d0c99252b", "type": "electric_scooter", "is_reserved": 0, "lon": -77.00918383333334}, {"fusion_lat": 0.0, "name": "e5705cdaccbfc52517d687a58fb34bc3", "is_disabled": 0, "rental_uris": {"android": "https://dc.lft.to/lastmile_qr_scan", "ios": "https://dc.lft.to/lastmile_qr_scan"}, "fusion_lon": 0.0, "lat": 38.8926, "bike_id": "e5705cdaccbfc52517d687a58fb34bc3", "type": "electric_bike", "is_reserved": 0, "lon": -76.9511835}, {"fusion_lat": 0.0, "name": "3e90fe9b4b4b406545084c5236defaee", "is_disabled": 0, "rental_uris": {"android": "https://dc.lft.to/lastmile_qr_scan", "ios": "https://dc.lft.to/lastmile_qr_scan"}, "fusion_lon": 0.0, "lat": 38.90519966666667, "bike_id": "3e90fe9b4b4b406545084c5236defaee", "type": "electric_scooter", "is_reserved": 0, "lon": -77.06381716666667}, {"fusion_lat": 0.0, "name": "322675293c2221692f91bfc669fbdaa5", "is_disabled": 0, "rental_uris": {"android": "https://dc.lft.to/lastmile_qr_scan", "ios": "https://dc.lft.to/lastmile_qr_scan"}, "fusion_lon": 0.0, "lat": 38.9524775, "bike_id": "322675293c2221692f91bfc669fbdaa5", "type": "electric_scooter", "is_reserved": 0, "lon": -77.0238065}, {"fusion_lat": 0.0, "name": "f3a48cf37cae6b5c4690891c10c72d04", "is_disabled": 0, "rental_uris": {"android": "https://dc.lft.to/lastmile_qr_scan", "ios": "https://dc.lft.to/lastmile_qr_scan"}, "fusion_lon": 0.0, "lat": 38.9116975, "bike_id": "f3a48cf37cae6b5c4690891c10c72d04", "type": "electric_bike", "is_reserved": 0, "lon": -77.00290233333334}, {"fusion_lat": 0.0, "name": "8a3b8ba119cdfe32892f4e09801aee38", "is_disabled": 0, "rental_uris": {"android": "https://dc.lft.to/lastmile_qr_scan", "ios": "https://dc.lft.to/lastmile_qr_scan"}, "fusion_lon": 0.0, "lat": 38.93427833333333, "bike_id": "8a3b8ba119cdfe32892f4e09801aee38", "type": "electric_scooter", "is_reserved": 0, "lon": -77.04424533333334}, {"fusion_lat": 0.0, "name": "f09160cd7f29f38a688ea992d18353bd", "is_disabled": 0, "rental_uris": {"android": "https://dc.lft.to/lastmile_qr_scan", "ios": "https://dc.lft.to/lastmile_qr_scan"}, "fusion_lon": 0.0, "lat": 38.93189666666667, "bike_id": "f09160cd7f29f38a688ea992d18353bd", "type": "electric_scooter", "is_reserved": 0, "lon": -77.04304083333334}, {"fusion_lat": 0.0, "name": "06f5360d15576ae9ef89dbc797f381a3", "is_disabled": 0, "rental_uris": {"android": "https://dc.lft.to/lastmile_qr_scan", "ios": "https://dc.lft.to/lastmile_qr_scan"}, "fusion_lon": 0.0, "lat": 38.892268333333334, "bike_id": "06f5360d15576ae9ef89dbc797f381a3", "type": "electric_scooter", "is_reserved": 0, "lon": -77.04326483333334}, {"fusion_lat": 0.0, "name": "f4bf9af8d6be6935f9533498d8f21f67", "is_disabled": 0, "rental_uris": {"android": "https://dc.lft.to/lastmile_qr_scan", "ios": "https://dc.lft.to/lastmile_qr_scan"}, "fusion_lon": 0.0, "lat": 38.90559833333333, "bike_id": "f4bf9af8d6be6935f9533498d8f21f67", "type": "electric_scooter", "is_reserved": 0, "lon": -77.01313666666667}, {"fusion_lat": 0.0, "name": "a50a5af8ee401e28f3817a8213845adc", "is_disabled": 0, "rental_uris": {"android": "https://dc.lft.to/lastmile_qr_scan", "ios": "https://dc.lft.to/lastmile_qr_scan"}, "fusion_lon": 0.0, "lat": 38.89647683333333, "bike_id": "a50a5af8ee401e28f3817a8213845adc", "type": "electric_scooter", "is_reserved": 0, "lon": -77.04632316666667}, {"fusion_lat": 0.0, "name": "51a07cf9f69b00750264527e85f31df9", "is_disabled": 0, "rental_uris": {"android": "https://dc.lft.to/lastmile_qr_scan", "ios": "https://dc.lft.to/lastmile_qr_scan"}, "fusion_lon": 0.0, "lat": 38.90311583333333, "bike_id": "51a07cf9f69b00750264527e85f31df9", "type": "electric_scooter", "is_reserved": 0, "lon": -77.06518316666667}, {"fusion_lat": 0.0, "name": "91f2e13480de2bc65c1021d2b63ece38", "is_disabled": 0, "rental_uris": {"android": "https://dc.lft.to/lastmile_qr_scan", "ios": "https://dc.lft.to/lastmile_qr_scan"}, "fusion_lon": 0.0, "lat": 38.91801616666667, "bike_id": "91f2e13480de2bc65c1021d2b63ece38", "type": "electric_scooter", "is_reserved": 0, "lon": -77.03434283333333}, {"fusion_lat": 0.0, "name": "4bc7d2a7c639bee008d3c76b7afa5f53", "is_disabled": 0, "rental_uris": {"android": "https://dc.lft.to/lastmile_qr_scan", "ios": "https://dc.lft.to/lastmile_qr_scan"}, "fusion_lon": 0.0, "lat": 38.93063733333334, "bike_id": "4bc7d2a7c639bee008d3c76b7afa5f53", "type": "electric_scooter", "is_reserved": 0, "lon": -77.0297535}, {"fusion_lat": 0.0, "name": "c94905525ee90ecb72b59598d0ea38c9", "is_disabled": 0, "rental_uris": {"android": "https://dc.lft.to/lastmile_qr_scan", "ios": "https://dc.lft.to/lastmile_qr_scan"}, "fusion_lon": 0.0, "lat": 38.892247166666664, "bike_id": "c94905525ee90ecb72b59598d0ea38c9", "type": "electric_scooter", "is_reserved": 0, "lon": -77.04308083333333}, {"fusion_lat": 0.0, "name": "a5a3508f96ce28fe34453341caf6b3f0", "is_disabled": 0, "rental_uris": {"android": "https://dc.lft.to/lastmile_qr_scan", "ios": "https://dc.lft.to/lastmile_qr_scan"}, "fusion_lon": 0.0, "lat": 38.9575735, "bike_id": "a5a3508f96ce28fe34453341caf6b3f0", "type": "electric_bike", "is_reserved": 0, "lon": -76.9808735}, {"fusion_lat": 0.0, "name": "7b66a38d33e1d2018081e25a92c3cab0", "is_disabled": 0, "rental_uris": {"android": "https://dc.lft.to/lastmile_qr_scan", "ios": "https://dc.lft.to/lastmile_qr_scan"}, "fusion_lon": 0.0, "lat": 38.94438866666667, "bike_id": "7b66a38d33e1d2018081e25a92c3cab0", "type": "electric_scooter", "is_reserved": 0, "lon": -77.06351616666667}, {"fusion_lat": 0.0, "name": "71d1385e34464d0d624846f52cd1e3ce", "is_disabled": 0, "rental_uris": {"android": "https://dc.lft.to/lastmile_qr_scan", "ios": "https://dc.lft.to/lastmile_qr_scan"}, "fusion_lon": 0.0, "lat": 38.900153833333334, "bike_id": "71d1385e34464d0d624846f52cd1e3ce", "type": "electric_scooter", "is_reserved": 0, "lon": -77.04393783333333}, {"fusion_lat": 0.0, "name": "8a88e0cc3c477478ad398b47b8d783e1", "is_disabled": 0, "rental_uris": {"android": "https://dc.lft.to/lastmile_qr_scan", "ios": "https://dc.lft.to/lastmile_qr_scan"}, "fusion_lon": 0.0, "lat": 38.920491, "bike_id": "8a88e0cc3c477478ad398b47b8d783e1", "type": "electric_scooter", "is_reserved": 0, "lon": -77.04812516666667}, {"fusion_lat": 0.0, "name": "71ef2b3bb74f1c75f6e3f3aec857151f", "is_disabled": 0, "rental_uris": {"android": "https://dc.lft.to/lastmile_qr_scan", "ios": "https://dc.lft.to/lastmile_qr_scan"}, "fusion_lon": 0.0, "lat": 38.9014675, "bike_id": "71ef2b3bb74f1c75f6e3f3aec857151f", "type": "electric_scooter", "is_reserved": 0, "lon": -77.04469366666666}, {"fusion_lat": 0.0, "name": "5cc391f8034671f0894aa3bd8e07616c", "is_disabled": 0, "rental_uris": {"android": "https://dc.lft.to/lastmile_qr_scan", "ios": "https://dc.lft.to/lastmile_qr_scan"}, "fusion_lon": 0.0, "lat": 38.95968083333333, "bike_id": "5cc391f8034671f0894aa3bd8e07616c", "type": "electric_bike", "is_reserved": 0, "lon": -76.98158833333333}, {"fusion_lat": 0.0, "name": "64c5a5ba2db72e6df0fb7ab70f9619c5", "is_disabled": 0, "rental_uris": {"android": "https://dc.lft.to/lastmile_qr_scan", "ios": "https://dc.lft.to/lastmile_qr_scan"}, "fusion_lon": 0.0, "lat": 38.931999833333336, "bike_id": "64c5a5ba2db72e6df0fb7ab70f9619c5", "type": "electric_scooter", "is_reserved": 0, "lon": -76.98283033333334}, {"fusion_lat": 0.0, "name": "ce31fec6f600fcc445aaae92174f9a68", "is_disabled": 0, "rental_uris": {"android": "https://dc.lft.to/lastmile_qr_scan", "ios": "https://dc.lft.to/lastmile_qr_scan"}, "fusion_lon": 0.0, "lat": 38.9242185, "bike_id": "ce31fec6f600fcc445aaae92174f9a68", "type": "electric_scooter", "is_reserved": 0, "lon": -77.019451}, {"fusion_lat": 0.0, "name": "a4cd388b96d3ba2b16ab83bedfe65983", "is_disabled": 0, "rental_uris": {"android": "https://dc.lft.to/lastmile_qr_scan", "ios": "https://dc.lft.to/lastmile_qr_scan"}, "fusion_lon": 0.0, "lat": 38.90216216666666, "bike_id": "a4cd388b96d3ba2b16ab83bedfe65983", "type": "electric_scooter", "is_reserved": 0, "lon": -77.01891033333334}, {"fusion_lat": 0.0, "name": "4749e2c5ac44a19690c7a5e4234f51dc", "is_disabled": 0, "rental_uris": {"android": "https://dc.lft.to/lastmile_qr_scan", "ios": "https://dc.lft.to/lastmile_qr_scan"}, "fusion_lon": 0.0, "lat": 38.89899066666667, "bike_id": "4749e2c5ac44a19690c7a5e4234f51dc", "type": "electric_scooter", "is_reserved": 0, "lon": -77.03284583333334}, {"fusion_lat": 0.0, "name": "ffb07fba533449a37fc996111e488301", "is_disabled": 0, "rental_uris": {"android": "https://dc.lft.to/lastmile_qr_scan", "ios": "https://dc.lft.to/lastmile_qr_scan"}, "fusion_lon": 0.0, "lat": 38.920864, "bike_id": "ffb07fba533449a37fc996111e488301", "type": "electric_scooter", "is_reserved": 0, "lon": -77.027269}, {"fusion_lat": 0.0, "name": "bbdfa2a5787a113f77a6b78fea24d882", "is_disabled": 0, "rental_uris": {"android": "https://dc.lft.to/lastmile_qr_scan", "ios": "https://dc.lft.to/lastmile_qr_scan"}, "fusion_lon": 0.0, "lat": 38.898475166666664, "bike_id": "bbdfa2a5787a113f77a6b78fea24d882", "type": "electric_scooter", "is_reserved": 0, "lon": -77.03274516666667}, {"fusion_lat": 0.0, "name": "308cc1e152d1b6b456fa71ab1899c5c1", "is_disabled": 0, "rental_uris": {"android": "https://dc.lft.to/lastmile_qr_scan", "ios": "https://dc.lft.to/lastmile_qr_scan"}, "fusion_lon": 0.0, "lat": 38.92316133333333, "bike_id": "308cc1e152d1b6b456fa71ab1899c5c1", "type": "electric_scooter", "is_reserved": 0, "lon": -77.04396083333333}, {"fusion_lat": 0.0, "name": "5cdbf64d279748bf086ac56c0af301d3", "is_disabled": 0, "rental_uris": {"android": "https://dc.lft.to/lastmile_qr_scan", "ios": "https://dc.lft.to/lastmile_qr_scan"}, "fusion_lon": 0.0, "lat": 38.91420883333333, "bike_id": "5cdbf64d279748bf086ac56c0af301d3", "type": "electric_scooter", "is_reserved": 0, "lon": -77.03169583333333}, {"fusion_lat": 0.0, "name": "68b4296736063c5a4b2c4cf3fcb923ed", "is_disabled": 0, "rental_uris": {"android": "https://dc.lft.to/lastmile_qr_scan", "ios": "https://dc.lft.to/lastmile_qr_scan"}, "fusion_lon": 0.0, "lat": 38.94896133333334, "bike_id": "68b4296736063c5a4b2c4cf3fcb923ed", "type": "electric_bike", "is_reserved": 0, "lon": -76.96373533333333}, {"fusion_lat": 0.0, "name": "32574f7dd767608d76d2484655f12ea6", "is_disabled": 0, "rental_uris": {"android": "https://dc.lft.to/lastmile_qr_scan", "ios": "https://dc.lft.to/lastmile_qr_scan"}, "fusion_lon": 0.0, "lat": 38.9157955, "bike_id": "32574f7dd767608d76d2484655f12ea6", "type": "electric_scooter", "is_reserved": 0, "lon": -77.0320225}, {"fusion_lat": 0.0, "name": "1974751929e53cb62ca903eb1e748bd0", "is_disabled": 0, "rental_uris": {"android": "https://dc.lft.to/lastmile_qr_scan", "ios": "https://dc.lft.to/lastmile_qr_scan"}, "fusion_lon": 0.0, "lat": 38.940835666666665, "bike_id": "1974751929e53cb62ca903eb1e748bd0", "type": "electric_scooter", "is_reserved": 0, "lon": -77.0618015}, {"fusion_lat": 0.0, "name": "7553f8a00e210a2c6ec126745e8b1edf", "is_disabled": 0, "rental_uris": {"android": "https://dc.lft.to/lastmile_qr_scan", "ios": "https://dc.lft.to/lastmile_qr_scan"}, "fusion_lon": 0.0, "lat": 38.883974, "bike_id": "7553f8a00e210a2c6ec126745e8b1edf", "type": "electric_scooter", "is_reserved": 0, "lon": -76.9304795}, {"fusion_lat": 0.0, "name": "c0bed58abefa9bff3cf06d0ab033411e", "is_disabled": 0, "rental_uris": {"android": "https://dc.lft.to/lastmile_qr_scan", "ios": "https://dc.lft.to/lastmile_qr_scan"}, "fusion_lon": 0.0, "lat": 38.9306055, "bike_id": "c0bed58abefa9bff3cf06d0ab033411e", "type": "electric_scooter", "is_reserved": 0, "lon": -77.023241}, {"fusion_lat": 0.0, "name": "129a8547eb90c19cf5e3ad1af27221b8", "is_disabled": 0, "rental_uris": {"android": "https://dc.lft.to/lastmile_qr_scan", "ios": "https://dc.lft.to/lastmile_qr_scan"}, "fusion_lon": 0.0, "lat": 38.928221666666666, "bike_id": "129a8547eb90c19cf5e3ad1af27221b8", "type": "electric_scooter", "is_reserved": 0, "lon": -77.05448116666666}, {"fusion_lat": 0.0, "name": "87c76c46e586c7e41d5619fa19e6f329", "is_disabled": 0, "rental_uris": {"android": "https://dc.lft.to/lastmile_qr_scan", "ios": "https://dc.lft.to/lastmile_qr_scan"}, "fusion_lon": 0.0, "lat": 38.921640333333336, "bike_id": "87c76c46e586c7e41d5619fa19e6f329", "type": "electric_scooter", "is_reserved": 0, "lon": -76.99772233333333}, {"fusion_lat": 0.0, "name": "d2b9dc1aee9264c946348f2f5cbd894f", "is_disabled": 0, "rental_uris": {"android": "https://dc.lft.to/lastmile_qr_scan", "ios": "https://dc.lft.to/lastmile_qr_scan"}, "fusion_lon": 0.0, "lat": 38.920851166666665, "bike_id": "d2b9dc1aee9264c946348f2f5cbd894f", "type": "electric_scooter", "is_reserved": 0, "lon": -77.02410283333333}, {"fusion_lat": 0.0, "name": "2e6ba9b6eb0fa16290a69ef63f7df033", "is_disabled": 0, "rental_uris": {"android": "https://dc.lft.to/lastmile_qr_scan", "ios": "https://dc.lft.to/lastmile_qr_scan"}, "fusion_lon": 0.0, "lat": 38.899687666666665, "bike_id": "2e6ba9b6eb0fa16290a69ef63f7df033", "type": "electric_scooter", "is_reserved": 0, "lon": -77.01629683333333}, {"fusion_lat": 0.0, "name": "7935149c52ba5c8d265a1fdc9915db12", "is_disabled": 0, "rental_uris": {"android": "https://dc.lft.to/lastmile_qr_scan", "ios": "https://dc.lft.to/lastmile_qr_scan"}, "fusion_lon": 0.0, "lat": 38.9198885, "bike_id": "7935149c52ba5c8d265a1fdc9915db12", "type": "electric_scooter", "is_reserved": 0, "lon": -76.9730385}, {"fusion_lat": 0.0, "name": "7b800b6c59bc7667df9256f54b0145f1", "is_disabled": 0, "rental_uris": {"android": "https://dc.lft.to/lastmile_qr_scan", "ios": "https://dc.lft.to/lastmile_qr_scan"}, "fusion_lon": 0.0, "lat": 38.898042, "bike_id": "7b800b6c59bc7667df9256f54b0145f1", "type": "electric_scooter", "is_reserved": 0, "lon": -76.99032683333333}, {"fusion_lat": 0.0, "name": "c45b5885612956cbe2b0db8ad2a0b678", "is_disabled": 0, "rental_uris": {"android": "https://dc.lft.to/lastmile_qr_scan", "ios": "https://dc.lft.to/lastmile_qr_scan"}, "fusion_lon": 0.0, "lat": 38.881790333333335, "bike_id": "c45b5885612956cbe2b0db8ad2a0b678", "type": "electric_scooter", "is_reserved": 0, "lon": -76.95903366666667}, {"fusion_lat": 0.0, "name": "7d1bd1d106895bc7ac88b52f8d04dfff", "is_disabled": 0, "rental_uris": {"android": "https://dc.lft.to/lastmile_qr_scan", "ios": "https://dc.lft.to/lastmile_qr_scan"}, "fusion_lon": 0.0, "lat": 38.931027, "bike_id": "7d1bd1d106895bc7ac88b52f8d04dfff", "type": "electric_scooter", "is_reserved": 0, "lon": -77.0266225}, {"fusion_lat": 0.0, "name": "deb3fac0283853ef092f71fd6af8210e", "is_disabled": 0, "rental_uris": {"android": "https://dc.lft.to/lastmile_qr_scan", "ios": "https://dc.lft.to/lastmile_qr_scan"}, "fusion_lon": 0.0, "lat": 38.91926433333333, "bike_id": "deb3fac0283853ef092f71fd6af8210e", "type": "electric_scooter", "is_reserved": 0, "lon": -77.03430866666666}, {"fusion_lat": 0.0, "name": "119016705c0e0f610dd4339802b9dbad", "is_disabled": 0, "rental_uris": {"android": "https://dc.lft.to/lastmile_qr_scan", "ios": "https://dc.lft.to/lastmile_qr_scan"}, "fusion_lon": 0.0, "lat": 38.920382000000004, "bike_id": "119016705c0e0f610dd4339802b9dbad", "type": "electric_scooter", "is_reserved": 0, "lon": -77.025851}, {"fusion_lat": 0.0, "name": "0679c0f01a5930f340aa718fee7d8659", "is_disabled": 0, "rental_uris": {"android": "https://dc.lft.to/lastmile_qr_scan", "ios": "https://dc.lft.to/lastmile_qr_scan"}, "fusion_lon": 0.0, "lat": 38.909817, "bike_id": "0679c0f01a5930f340aa718fee7d8659", "type": "electric_scooter", "is_reserved": 0, "lon": -77.03380683333333}, {"fusion_lat": 0.0, "name": "2b9adf228118057ee217bfb0c0da606c", "is_disabled": 0, "rental_uris": {"android": "https://dc.lft.to/lastmile_qr_scan", "ios": "https://dc.lft.to/lastmile_qr_scan"}, "fusion_lon": 0.0, "lat": 38.93440433333333, "bike_id": "2b9adf228118057ee217bfb0c0da606c", "type": "electric_scooter", "is_reserved": 0, "lon": -77.03451333333334}, {"fusion_lat": 0.0, "name": "dab7ed2277ad85d05560a5da34f1440e", "is_disabled": 0, "rental_uris": {"android": "https://dc.lft.to/lastmile_qr_scan", "ios": "https://dc.lft.to/lastmile_qr_scan"}, "fusion_lon": 0.0, "lat": 38.91679283333333, "bike_id": "dab7ed2277ad85d05560a5da34f1440e", "type": "electric_scooter", "is_reserved": 0, "lon": -77.03198733333333}, {"fusion_lat": 0.0, "name": "c35dd66d0719459111d635aecabc46df", "is_disabled": 0, "rental_uris": {"android": "https://dc.lft.to/lastmile_qr_scan", "ios": "https://dc.lft.to/lastmile_qr_scan"}, "fusion_lon": 0.0, "lat": 38.91637433333333, "bike_id": "c35dd66d0719459111d635aecabc46df", "type": "electric_scooter", "is_reserved": 0, "lon": -77.02695066666666}, {"fusion_lat": 0.0, "name": "fd8b46526b13212277f107000164d44b", "is_disabled": 0, "rental_uris": {"android": "https://dc.lft.to/lastmile_qr_scan", "ios": "https://dc.lft.to/lastmile_qr_scan"}, "fusion_lon": 0.0, "lat": 38.93183666666667, "bike_id": "fd8b46526b13212277f107000164d44b", "type": "electric_scooter", "is_reserved": 0, "lon": -77.04300183333334}, {"fusion_lat": 0.0, "name": "a9ee21c05bda6b7ed6ac130bc6416ff2", "is_disabled": 0, "rental_uris": {"android": "https://dc.lft.to/lastmile_qr_scan", "ios": "https://dc.lft.to/lastmile_qr_scan"}, "fusion_lon": 0.0, "lat": 38.884289833333334, "bike_id": "a9ee21c05bda6b7ed6ac130bc6416ff2", "type": "electric_scooter", "is_reserved": 0, "lon": -77.03047483333333}, {"fusion_lat": 0.0, "name": "4c2f650e997feb60754cd98382cc1e25", "is_disabled": 0, "rental_uris": {"android": "https://dc.lft.to/lastmile_qr_scan", "ios": "https://dc.lft.to/lastmile_qr_scan"}, "fusion_lon": 0.0, "lat": 38.92401533333334, "bike_id": "4c2f650e997feb60754cd98382cc1e25", "type": "electric_scooter", "is_reserved": 0, "lon": -77.04297583333333}, {"fusion_lat": 0.0, "name": "741ce38089af919f7c22fcc3028f5f81", "is_disabled": 0, "rental_uris": {"android": "https://dc.lft.to/lastmile_qr_scan", "ios": "https://dc.lft.to/lastmile_qr_scan"}, "fusion_lon": 0.0, "lat": 38.91687483333333, "bike_id": "741ce38089af919f7c22fcc3028f5f81", "type": "electric_scooter", "is_reserved": 0, "lon": -77.02964783333333}, {"fusion_lat": 0.0, "name": "de8e6dcb1b89cf9074b052e5a8e9bcf5", "is_disabled": 0, "rental_uris": {"android": "https://dc.lft.to/lastmile_qr_scan", "ios": "https://dc.lft.to/lastmile_qr_scan"}, "fusion_lon": 0.0, "lat": 38.90427733333333, "bike_id": "de8e6dcb1b89cf9074b052e5a8e9bcf5", "type": "electric_scooter", "is_reserved": 0, "lon": -76.9497415}, {"fusion_lat": 0.0, "name": "38b0da34993f0e506c3a91c64040364c", "is_disabled": 0, "rental_uris": {"android": "https://dc.lft.to/lastmile_qr_scan", "ios": "https://dc.lft.to/lastmile_qr_scan"}, "fusion_lon": 0.0, "lat": 38.9155085, "bike_id": "38b0da34993f0e506c3a91c64040364c", "type": "electric_scooter", "is_reserved": 0, "lon": -77.03866316666667}, {"fusion_lat": 0.0, "name": "36c9b75c95b5e7b847eef3fd9a8e5898", "is_disabled": 0, "rental_uris": {"android": "https://dc.lft.to/lastmile_qr_scan", "ios": "https://dc.lft.to/lastmile_qr_scan"}, "fusion_lon": 0.0, "lat": 38.92154383333333, "bike_id": "36c9b75c95b5e7b847eef3fd9a8e5898", "type": "electric_scooter", "is_reserved": 0, "lon": -77.03383583333333}, {"fusion_lat": 0.0, "name": "44943af2f74d04991fb43d2ca13ea007", "is_disabled": 0, "rental_uris": {"android": "https://dc.lft.to/lastmile_qr_scan", "ios": "https://dc.lft.to/lastmile_qr_scan"}, "fusion_lon": 0.0, "lat": 38.93460483333333, "bike_id": "44943af2f74d04991fb43d2ca13ea007", "type": "electric_scooter", "is_reserved": 0, "lon": -77.0726555}, {"fusion_lat": 0.0, "name": "a6226f37ba4a04dc40b18dc46c92b221", "is_disabled": 0, "rental_uris": {"android": "https://dc.lft.to/lastmile_qr_scan", "ios": "https://dc.lft.to/lastmile_qr_scan"}, "fusion_lon": 0.0, "lat": 38.89713233333333, "bike_id": "a6226f37ba4a04dc40b18dc46c92b221", "type": "electric_scooter", "is_reserved": 0, "lon": -77.01315733333334}, {"fusion_lat": 0.0, "name": "26c9f29c6ad5ca7af3b6aaa6cd7febfc", "is_disabled": 0, "rental_uris": {"android": "https://dc.lft.to/lastmile_qr_scan", "ios": "https://dc.lft.to/lastmile_qr_scan"}, "fusion_lon": 0.0, "lat": 38.91333866666667, "bike_id": "26c9f29c6ad5ca7af3b6aaa6cd7febfc", "type": "electric_scooter", "is_reserved": 0, "lon": -77.03171483333334}, {"fusion_lat": 0.0, "name": "5d35e1634f2c657bc627a92806da5a4a", "is_disabled": 0, "rental_uris": {"android": "https://dc.lft.to/lastmile_qr_scan", "ios": "https://dc.lft.to/lastmile_qr_scan"}, "fusion_lon": 0.0, "lat": 38.92903116666667, "bike_id": "5d35e1634f2c657bc627a92806da5a4a", "type": "electric_scooter", "is_reserved": 0, "lon": -77.03208266666667}, {"fusion_lat": 0.0, "name": "b2eab162be300c62297b5553b7232124", "is_disabled": 0, "rental_uris": {"android": "https://dc.lft.to/lastmile_qr_scan", "ios": "https://dc.lft.to/lastmile_qr_scan"}, "fusion_lon": 0.0, "lat": 38.9173905, "bike_id": "b2eab162be300c62297b5553b7232124", "type": "electric_scooter", "is_reserved": 0, "lon": -77.03207583333334}, {"fusion_lat": 0.0, "name": "4ea9edc45b7e86197b05189bcf004f48", "is_disabled": 0, "rental_uris": {"android": "https://dc.lft.to/lastmile_qr_scan", "ios": "https://dc.lft.to/lastmile_qr_scan"}, "fusion_lon": 0.0, "lat": 38.9001225, "bike_id": "4ea9edc45b7e86197b05189bcf004f48", "type": "electric_scooter", "is_reserved": 0, "lon": -77.00661983333333}, {"fusion_lat": 0.0, "name": "18203e2997ae7325c74b9e2cd8df64db", "is_disabled": 0, "rental_uris": {"android": "https://dc.lft.to/lastmile_qr_scan", "ios": "https://dc.lft.to/lastmile_qr_scan"}, "fusion_lon": 0.0, "lat": 38.885212833333334, "bike_id": "18203e2997ae7325c74b9e2cd8df64db", "type": "electric_scooter", "is_reserved": 0, "lon": -77.01510483333334}, {"fusion_lat": 0.0, "name": "dbadefe29836a9c0d03585b09d74c181", "is_disabled": 0, "rental_uris": {"android": "https://dc.lft.to/lastmile_qr_scan", "ios": "https://dc.lft.to/lastmile_qr_scan"}, "fusion_lon": 0.0, "lat": 38.93194833333333, "bike_id": "dbadefe29836a9c0d03585b09d74c181", "type": "electric_scooter", "is_reserved": 0, "lon": -77.04295433333333}, {"fusion_lat": 0.0, "name": "fb512fe41da8c994ec1f602b9a9991fe", "is_disabled": 0, "rental_uris": {"android": "https://dc.lft.to/lastmile_qr_scan", "ios": "https://dc.lft.to/lastmile_qr_scan"}, "fusion_lon": 0.0, "lat": 38.9470485, "bike_id": "fb512fe41da8c994ec1f602b9a9991fe", "type": "electric_scooter", "is_reserved": 0, "lon": -77.019401}, {"fusion_lat": 0.0, "name": "442cf6cc68f596c578fcd3a87a025622", "is_disabled": 0, "rental_uris": {"android": "https://dc.lft.to/lastmile_qr_scan", "ios": "https://dc.lft.to/lastmile_qr_scan"}, "fusion_lon": 0.0, "lat": 38.8845805, "bike_id": "442cf6cc68f596c578fcd3a87a025622", "type": "electric_scooter", "is_reserved": 0, "lon": -76.99835216666666}, {"fusion_lat": 0.0, "name": "2a470798d04999e5a099bddda92a88d4", "is_disabled": 0, "rental_uris": {"android": "https://dc.lft.to/lastmile_qr_scan", "ios": "https://dc.lft.to/lastmile_qr_scan"}, "fusion_lon": 0.0, "lat": 38.92848816666667, "bike_id": "2a470798d04999e5a099bddda92a88d4", "type": "electric_bike", "is_reserved": 0, "lon": -77.0206095}, {"fusion_lat": 0.0, "name": "ee37c9d190a88f17502d46489ed597d8", "is_disabled": 0, "rental_uris": {"android": "https://dc.lft.to/lastmile_qr_scan", "ios": "https://dc.lft.to/lastmile_qr_scan"}, "fusion_lon": 0.0, "lat": 38.9512145, "bike_id": "ee37c9d190a88f17502d46489ed597d8", "type": "electric_scooter", "is_reserved": 0, "lon": -77.0136285}, {"fusion_lat": 0.0, "name": "4ff0f23ff58ccd6bb4796794c77e0c7c", "is_disabled": 0, "rental_uris": {"android": "https://dc.lft.to/lastmile_qr_scan", "ios": "https://dc.lft.to/lastmile_qr_scan"}, "fusion_lon": 0.0, "lat": 38.929039333333336, "bike_id": "4ff0f23ff58ccd6bb4796794c77e0c7c", "type": "electric_scooter", "is_reserved": 0, "lon": -77.0327295}, {"fusion_lat": 0.0, "name": "d2c0cc13fdc40b34189d81b7b5a8428f", "is_disabled": 0, "rental_uris": {"android": "https://dc.lft.to/lastmile_qr_scan", "ios": "https://dc.lft.to/lastmile_qr_scan"}, "fusion_lon": 0.0, "lat": 38.89231633333333, "bike_id": "d2c0cc13fdc40b34189d81b7b5a8428f", "type": "electric_scooter", "is_reserved": 0, "lon": -77.04998666666667}, {"fusion_lat": 0.0, "name": "e83c331a7094f7c24d3bd8ed269e1966", "is_disabled": 0, "rental_uris": {"android": "https://dc.lft.to/lastmile_qr_scan", "ios": "https://dc.lft.to/lastmile_qr_scan"}, "fusion_lon": 0.0, "lat": 38.93675066666667, "bike_id": "e83c331a7094f7c24d3bd8ed269e1966", "type": "electric_scooter", "is_reserved": 0, "lon": -77.03595366666667}, {"fusion_lat": 0.0, "name": "43a62db10b6af3768ac60f1962dd2efe", "is_disabled": 0, "rental_uris": {"android": "https://dc.lft.to/lastmile_qr_scan", "ios": "https://dc.lft.to/lastmile_qr_scan"}, "fusion_lon": 0.0, "lat": 38.908252, "bike_id": "43a62db10b6af3768ac60f1962dd2efe", "type": "electric_scooter", "is_reserved": 0, "lon": -77.05495183333333}, {"fusion_lat": 0.0, "name": "a834f23f961f7110afff36f631d8a007", "is_disabled": 0, "rental_uris": {"android": "https://dc.lft.to/lastmile_qr_scan", "ios": "https://dc.lft.to/lastmile_qr_scan"}, "fusion_lon": 0.0, "lat": 38.91717366666666, "bike_id": "a834f23f961f7110afff36f631d8a007", "type": "electric_scooter", "is_reserved": 0, "lon": -77.01206116666667}, {"fusion_lat": 0.0, "name": "a3d844e8ab34b44e0e96021c83ac5fca", "is_disabled": 0, "rental_uris": {"android": "https://dc.lft.to/lastmile_qr_scan", "ios": "https://dc.lft.to/lastmile_qr_scan"}, "fusion_lon": 0.0, "lat": 38.91769433333333, "bike_id": "a3d844e8ab34b44e0e96021c83ac5fca", "type": "electric_scooter", "is_reserved": 0, "lon": -77.0192045}, {"fusion_lat": 0.0, "name": "d4872f3d874e91c841ac2d0657c0c323", "is_disabled": 0, "rental_uris": {"android": "https://dc.lft.to/lastmile_qr_scan", "ios": "https://dc.lft.to/lastmile_qr_scan"}, "fusion_lon": 0.0, "lat": 38.92077316666666, "bike_id": "d4872f3d874e91c841ac2d0657c0c323", "type": "electric_scooter", "is_reserved": 0, "lon": -77.0045505}, {"fusion_lat": 0.0, "name": "6cf7764c84152ad7a2972b27a5eca42b", "is_disabled": 0, "rental_uris": {"android": "https://dc.lft.to/lastmile_qr_scan", "ios": "https://dc.lft.to/lastmile_qr_scan"}, "fusion_lon": 0.0, "lat": 38.91826533333333, "bike_id": "6cf7764c84152ad7a2972b27a5eca42b", "type": "electric_scooter", "is_reserved": 0, "lon": -77.02802466666667}, {"fusion_lat": 0.0, "name": "0d05fda77ff55c27005e721953e4cd82", "is_disabled": 0, "rental_uris": {"android": "https://dc.lft.to/lastmile_qr_scan", "ios": "https://dc.lft.to/lastmile_qr_scan"}, "fusion_lon": 0.0, "lat": 38.96120333333333, "bike_id": "0d05fda77ff55c27005e721953e4cd82", "type": "electric_scooter", "is_reserved": 0, "lon": -77.02864983333333}, {"fusion_lat": 0.0, "name": "4b2f6ecb7ccbc9d8d5598aef17f7bef5", "is_disabled": 0, "rental_uris": {"android": "https://dc.lft.to/lastmile_qr_scan", "ios": "https://dc.lft.to/lastmile_qr_scan"}, "fusion_lon": 0.0, "lat": 38.937942166666666, "bike_id": "4b2f6ecb7ccbc9d8d5598aef17f7bef5", "type": "electric_scooter", "is_reserved": 0, "lon": -77.02463116666667}, {"fusion_lat": 0.0, "name": "e63d2d3654773d23f7fb26089d6e48db", "is_disabled": 0, "rental_uris": {"android": "https://dc.lft.to/lastmile_qr_scan", "ios": "https://dc.lft.to/lastmile_qr_scan"}, "fusion_lon": 0.0, "lat": 38.91871783333333, "bike_id": "e63d2d3654773d23f7fb26089d6e48db", "type": "electric_scooter", "is_reserved": 0, "lon": -77.04041716666667}, {"fusion_lat": 0.0, "name": "a30dba3ce073454bcf6ff8386843d63f", "is_disabled": 0, "rental_uris": {"android": "https://dc.lft.to/lastmile_qr_scan", "ios": "https://dc.lft.to/lastmile_qr_scan"}, "fusion_lon": 0.0, "lat": 38.89499583333333, "bike_id": "a30dba3ce073454bcf6ff8386843d63f", "type": "electric_scooter", "is_reserved": 0, "lon": -77.01502983333333}, {"fusion_lat": 0.0, "name": "0e415d80915a525385a3a908da2300f3", "is_disabled": 0, "rental_uris": {"android": "https://dc.lft.to/lastmile_qr_scan", "ios": "https://dc.lft.to/lastmile_qr_scan"}, "fusion_lon": 0.0, "lat": 38.923312, "bike_id": "0e415d80915a525385a3a908da2300f3", "type": "electric_scooter", "is_reserved": 0, "lon": -77.01960033333333}, {"fusion_lat": 0.0, "name": "3eb49ac93bd805a56de9e640985e50a8", "is_disabled": 0, "rental_uris": {"android": "https://dc.lft.to/lastmile_qr_scan", "ios": "https://dc.lft.to/lastmile_qr_scan"}, "fusion_lon": 0.0, "lat": 38.907552333333335, "bike_id": "3eb49ac93bd805a56de9e640985e50a8", "type": "electric_scooter", "is_reserved": 0, "lon": -77.007626}, {"fusion_lat": 0.0, "name": "f1d10921861334f3f0e3732be226e9ac", "is_disabled": 0, "rental_uris": {"android": "https://dc.lft.to/lastmile_qr_scan", "ios": "https://dc.lft.to/lastmile_qr_scan"}, "fusion_lon": 0.0, "lat": 38.898512, "bike_id": "f1d10921861334f3f0e3732be226e9ac", "type": "electric_scooter", "is_reserved": 0, "lon": -77.01885733333333}, {"fusion_lat": 0.0, "name": "a35bafcfc04928727c507b320fab7493", "is_disabled": 0, "rental_uris": {"android": "https://dc.lft.to/lastmile_qr_scan", "ios": "https://dc.lft.to/lastmile_qr_scan"}, "fusion_lon": 0.0, "lat": 38.938038666666664, "bike_id": "a35bafcfc04928727c507b320fab7493", "type": "electric_scooter", "is_reserved": 0, "lon": -77.06860566666667}, {"fusion_lat": 0.0, "name": "7a9e85bcc69871e51daba42114bd9c56", "is_disabled": 0, "rental_uris": {"android": "https://dc.lft.to/lastmile_qr_scan", "ios": "https://dc.lft.to/lastmile_qr_scan"}, "fusion_lon": 0.0, "lat": 38.92851266666667, "bike_id": "7a9e85bcc69871e51daba42114bd9c56", "type": "electric_scooter", "is_reserved": 0, "lon": -76.9974895}, {"fusion_lat": 0.0, "name": "1bb48e2095fce1d0498f729c63e70dda", "is_disabled": 0, "rental_uris": {"android": "https://dc.lft.to/lastmile_qr_scan", "ios": "https://dc.lft.to/lastmile_qr_scan"}, "fusion_lon": 0.0, "lat": 38.92101783333333, "bike_id": "1bb48e2095fce1d0498f729c63e70dda", "type": "electric_scooter", "is_reserved": 0, "lon": -77.02542983333333}, {"fusion_lat": 0.0, "name": "5952cab8391c6ef15590b229135b27f8", "is_disabled": 0, "rental_uris": {"android": "https://dc.lft.to/lastmile_qr_scan", "ios": "https://dc.lft.to/lastmile_qr_scan"}, "fusion_lon": 0.0, "lat": 38.899655, "bike_id": "5952cab8391c6ef15590b229135b27f8", "type": "electric_scooter", "is_reserved": 0, "lon": -77.04897983333333}, {"fusion_lat": 0.0, "name": "ea50967b10f7622eab2b64f862ff7b64", "is_disabled": 0, "rental_uris": {"android": "https://dc.lft.to/lastmile_qr_scan", "ios": "https://dc.lft.to/lastmile_qr_scan"}, "fusion_lon": 0.0, "lat": 38.948227833333334, "bike_id": "ea50967b10f7622eab2b64f862ff7b64", "type": "electric_bike", "is_reserved": 0, "lon": -77.02945883333334}, {"fusion_lat": 0.0, "name": "f5658b32a06aba63f13b3160ee9c334b", "is_disabled": 0, "rental_uris": {"android": "https://dc.lft.to/lastmile_qr_scan", "ios": "https://dc.lft.to/lastmile_qr_scan"}, "fusion_lon": 0.0, "lat": 38.87496383333333, "bike_id": "f5658b32a06aba63f13b3160ee9c334b", "type": "electric_scooter", "is_reserved": 0, "lon": -77.00146716666667}, {"fusion_lat": 0.0, "name": "06d568fc1af1a75a779fb2442fd61c4e", "is_disabled": 0, "rental_uris": {"android": "https://dc.lft.to/lastmile_qr_scan", "ios": "https://dc.lft.to/lastmile_qr_scan"}, "fusion_lon": 0.0, "lat": 38.94472066666667, "bike_id": "06d568fc1af1a75a779fb2442fd61c4e", "type": "electric_scooter", "is_reserved": 0, "lon": -77.02359066666666}, {"fusion_lat": 0.0, "name": "d1a9e70779eb329ca556cb11724435dd", "is_disabled": 0, "rental_uris": {"android": "https://dc.lft.to/lastmile_qr_scan", "ios": "https://dc.lft.to/lastmile_qr_scan"}, "fusion_lon": 0.0, "lat": 38.922877166666666, "bike_id": "d1a9e70779eb329ca556cb11724435dd", "type": "electric_scooter", "is_reserved": 0, "lon": -77.03204716666667}, {"fusion_lat": 0.0, "name": "94d1039c4bc896afb8af9e39142f89b5", "is_disabled": 0, "rental_uris": {"android": "https://dc.lft.to/lastmile_qr_scan", "ios": "https://dc.lft.to/lastmile_qr_scan"}, "fusion_lon": 0.0, "lat": 38.9146745, "bike_id": "94d1039c4bc896afb8af9e39142f89b5", "type": "electric_scooter", "is_reserved": 0, "lon": -77.02398933333333}, {"fusion_lat": 0.0, "name": "ebe4f5ce74d7f334be54443ee715da16", "is_disabled": 0, "rental_uris": {"android": "https://dc.lft.to/lastmile_qr_scan", "ios": "https://dc.lft.to/lastmile_qr_scan"}, "fusion_lon": 0.0, "lat": 38.9235885, "bike_id": "ebe4f5ce74d7f334be54443ee715da16", "type": "electric_scooter", "is_reserved": 0, "lon": -77.01961166666666}, {"fusion_lat": 0.0, "name": "2e69f9715413986a1f9fdd8b6494edc5", "is_disabled": 0, "rental_uris": {"android": "https://dc.lft.to/lastmile_qr_scan", "ios": "https://dc.lft.to/lastmile_qr_scan"}, "fusion_lon": 0.0, "lat": 39.00294783333333, "bike_id": "2e69f9715413986a1f9fdd8b6494edc5", "type": "electric_bike", "is_reserved": 0, "lon": -76.9029685}, {"fusion_lat": 0.0, "name": "7160acdcd927f8f73fd0028c399ca704", "is_disabled": 0, "rental_uris": {"android": "https://dc.lft.to/lastmile_qr_scan", "ios": "https://dc.lft.to/lastmile_qr_scan"}, "fusion_lon": 0.0, "lat": 38.9118235, "bike_id": "7160acdcd927f8f73fd0028c399ca704", "type": "electric_scooter", "is_reserved": 0, "lon": -77.03841533333333}, {"fusion_lat": 0.0, "name": "ccadfeacaaffda211c3e671e67c5947a", "is_disabled": 0, "rental_uris": {"android": "https://dc.lft.to/lastmile_qr_scan", "ios": "https://dc.lft.to/lastmile_qr_scan"}, "fusion_lon": 0.0, "lat": 38.923920333333335, "bike_id": "ccadfeacaaffda211c3e671e67c5947a", "type": "electric_bike", "is_reserved": 0, "lon": -77.0000055}, {"fusion_lat": 0.0, "name": "c03e5e3d85b3e844b2d2f543329d7776", "is_disabled": 0, "rental_uris": {"android": "https://dc.lft.to/lastmile_qr_scan", "ios": "https://dc.lft.to/lastmile_qr_scan"}, "fusion_lon": 0.0, "lat": 38.933205, "bike_id": "c03e5e3d85b3e844b2d2f543329d7776", "type": "electric_scooter", "is_reserved": 0, "lon": -77.03445066666667}, {"fusion_lat": 0.0, "name": "51725fe484fae58e4ec04cf7592aa239", "is_disabled": 0, "rental_uris": {"android": "https://dc.lft.to/lastmile_qr_scan", "ios": "https://dc.lft.to/lastmile_qr_scan"}, "fusion_lon": 0.0, "lat": 38.92378683333333, "bike_id": "51725fe484fae58e4ec04cf7592aa239", "type": "electric_scooter", "is_reserved": 0, "lon": -77.05150266666666}, {"fusion_lat": 0.0, "name": "d89b8273549b9b8b6e9edacf6fe57d3f", "is_disabled": 0, "rental_uris": {"android": "https://dc.lft.to/lastmile_qr_scan", "ios": "https://dc.lft.to/lastmile_qr_scan"}, "fusion_lon": 0.0, "lat": 38.90729966666667, "bike_id": "d89b8273549b9b8b6e9edacf6fe57d3f", "type": "electric_scooter", "is_reserved": 0, "lon": -77.02977966666667}, {"fusion_lat": 0.0, "name": "c1b9bfb4d9b9779d0f169efe15eeb24c", "is_disabled": 0, "rental_uris": {"android": "https://dc.lft.to/lastmile_qr_scan", "ios": "https://dc.lft.to/lastmile_qr_scan"}, "fusion_lon": 0.0, "lat": 38.9081745, "bike_id": "c1b9bfb4d9b9779d0f169efe15eeb24c", "type": "electric_scooter", "is_reserved": 0, "lon": -77.0337065}, {"fusion_lat": 0.0, "name": "13a7625be88ba58577b6eb09ca7fb7c4", "is_disabled": 0, "rental_uris": {"android": "https://dc.lft.to/lastmile_qr_scan", "ios": "https://dc.lft.to/lastmile_qr_scan"}, "fusion_lon": 0.0, "lat": 38.904941, "bike_id": "13a7625be88ba58577b6eb09ca7fb7c4", "type": "electric_bike", "is_reserved": 0, "lon": -76.97583733333333}, {"fusion_lat": 0.0, "name": "d03bc619b3af4110d64b649de4eef917", "is_disabled": 0, "rental_uris": {"android": "https://dc.lft.to/lastmile_qr_scan", "ios": "https://dc.lft.to/lastmile_qr_scan"}, "fusion_lon": 0.0, "lat": 38.961332666666664, "bike_id": "d03bc619b3af4110d64b649de4eef917", "type": "electric_scooter", "is_reserved": 0, "lon": -77.027827}, {"fusion_lat": 0.0, "name": "0c6f444718bb31cc4045527025b0975b", "is_disabled": 0, "rental_uris": {"android": "https://dc.lft.to/lastmile_qr_scan", "ios": "https://dc.lft.to/lastmile_qr_scan"}, "fusion_lon": 0.0, "lat": 38.8768825, "bike_id": "0c6f444718bb31cc4045527025b0975b", "type": "electric_scooter", "is_reserved": 0, "lon": -76.99426416666667}, {"fusion_lat": 0.0, "name": "4bc064925234986ebb57af46e4e587e2", "is_disabled": 0, "rental_uris": {"android": "https://dc.lft.to/lastmile_qr_scan", "ios": "https://dc.lft.to/lastmile_qr_scan"}, "fusion_lon": 0.0, "lat": 38.97519166666667, "bike_id": "4bc064925234986ebb57af46e4e587e2", "type": "electric_scooter", "is_reserved": 0, "lon": -77.0173045}, {"fusion_lat": 0.0, "name": "679df14666452f7b028f4e2e952a7022", "is_disabled": 0, "rental_uris": {"android": "https://dc.lft.to/lastmile_qr_scan", "ios": "https://dc.lft.to/lastmile_qr_scan"}, "fusion_lon": 0.0, "lat": 38.91298783333333, "bike_id": "679df14666452f7b028f4e2e952a7022", "type": "electric_scooter", "is_reserved": 0, "lon": -77.01220516666666}, {"fusion_lat": 0.0, "name": "e88cfd90b048a426e9d8bc5acff8001d", "is_disabled": 0, "rental_uris": {"android": "https://dc.lft.to/lastmile_qr_scan", "ios": "https://dc.lft.to/lastmile_qr_scan"}, "fusion_lon": 0.0, "lat": 38.8890425, "bike_id": "e88cfd90b048a426e9d8bc5acff8001d", "type": "electric_scooter", "is_reserved": 0, "lon": -76.9920445}, {"fusion_lat": 0.0, "name": "4878260676d15238bc4dd5e3adde41ce", "is_disabled": 0, "rental_uris": {"android": "https://dc.lft.to/lastmile_qr_scan", "ios": "https://dc.lft.to/lastmile_qr_scan"}, "fusion_lon": 0.0, "lat": 38.934553333333334, "bike_id": "4878260676d15238bc4dd5e3adde41ce", "type": "electric_scooter", "is_reserved": 0, "lon": -77.02726483333333}, {"fusion_lat": 0.0, "name": "b1bd02ecf2ef2aea050bddbd0c7ba458", "is_disabled": 0, "rental_uris": {"android": "https://dc.lft.to/lastmile_qr_scan", "ios": "https://dc.lft.to/lastmile_qr_scan"}, "fusion_lon": 0.0, "lat": 38.893556333333336, "bike_id": "b1bd02ecf2ef2aea050bddbd0c7ba458", "type": "electric_bike", "is_reserved": 0, "lon": -77.1874255}, {"fusion_lat": 0.0, "name": "c77d5ddc9f873aae8b79f25892900573", "is_disabled": 0, "rental_uris": {"android": "https://dc.lft.to/lastmile_qr_scan", "ios": "https://dc.lft.to/lastmile_qr_scan"}, "fusion_lon": 0.0, "lat": 38.90523316666667, "bike_id": "c77d5ddc9f873aae8b79f25892900573", "type": "electric_scooter", "is_reserved": 0, "lon": -77.061354}, {"fusion_lat": 0.0, "name": "6cb8f9d3dbf84f8a896985d57a2e492f", "is_disabled": 0, "rental_uris": {"android": "https://dc.lft.to/lastmile_qr_scan", "ios": "https://dc.lft.to/lastmile_qr_scan"}, "fusion_lon": 0.0, "lat": 38.88197183333333, "bike_id": "6cb8f9d3dbf84f8a896985d57a2e492f", "type": "electric_scooter", "is_reserved": 0, "lon": -76.9949105}, {"fusion_lat": 0.0, "name": "7512b33a980b50edc7f25e82b12986b7", "is_disabled": 0, "rental_uris": {"android": "https://dc.lft.to/lastmile_qr_scan", "ios": "https://dc.lft.to/lastmile_qr_scan"}, "fusion_lon": 0.0, "lat": 38.924222, "bike_id": "7512b33a980b50edc7f25e82b12986b7", "type": "electric_scooter", "is_reserved": 0, "lon": -77.0195555}, {"fusion_lat": 0.0, "name": "ba99b910ad1afd85aa5fdd059f1cf97c", "is_disabled": 0, "rental_uris": {"android": "https://dc.lft.to/lastmile_qr_scan", "ios": "https://dc.lft.to/lastmile_qr_scan"}, "fusion_lon": 0.0, "lat": 38.92396566666667, "bike_id": "ba99b910ad1afd85aa5fdd059f1cf97c", "type": "electric_scooter", "is_reserved": 0, "lon": -77.02969983333334}, {"fusion_lat": 0.0, "name": "1b765004cce5475aaaf8ccecb1e49a71", "is_disabled": 0, "rental_uris": {"android": "https://dc.lft.to/lastmile_qr_scan", "ios": "https://dc.lft.to/lastmile_qr_scan"}, "fusion_lon": 0.0, "lat": 38.92844216666667, "bike_id": "1b765004cce5475aaaf8ccecb1e49a71", "type": "electric_scooter", "is_reserved": 0, "lon": -77.03294816666667}, {"fusion_lat": 0.0, "name": "209cd15ef1765a4ab0dfe0aee6fcdbe3", "is_disabled": 0, "rental_uris": {"android": "https://dc.lft.to/lastmile_qr_scan", "ios": "https://dc.lft.to/lastmile_qr_scan"}, "fusion_lon": 0.0, "lat": 38.94164283333333, "bike_id": "209cd15ef1765a4ab0dfe0aee6fcdbe3", "type": "electric_scooter", "is_reserved": 0, "lon": -77.02497516666666}, {"fusion_lat": 0.0, "name": "58d8964c47d6dddbbfcda5ba723a2c0d", "is_disabled": 0, "rental_uris": {"android": "https://dc.lft.to/lastmile_qr_scan", "ios": "https://dc.lft.to/lastmile_qr_scan"}, "fusion_lon": 0.0, "lat": 38.924811166666665, "bike_id": "58d8964c47d6dddbbfcda5ba723a2c0d", "type": "electric_scooter", "is_reserved": 0, "lon": -77.0520665}, {"fusion_lat": 0.0, "name": "c22d966d1dfb07ad2b26641d24c59ac2", "is_disabled": 0, "rental_uris": {"android": "https://dc.lft.to/lastmile_qr_scan", "ios": "https://dc.lft.to/lastmile_qr_scan"}, "fusion_lon": 0.0, "lat": 38.89487116666667, "bike_id": "c22d966d1dfb07ad2b26641d24c59ac2", "type": "electric_scooter", "is_reserved": 0, "lon": -77.00968616666667}, {"fusion_lat": 0.0, "name": "4cfc776f551ca91154d52df0c994c8e7", "is_disabled": 0, "rental_uris": {"android": "https://dc.lft.to/lastmile_qr_scan", "ios": "https://dc.lft.to/lastmile_qr_scan"}, "fusion_lon": 0.0, "lat": 38.894305333333335, "bike_id": "4cfc776f551ca91154d52df0c994c8e7", "type": "electric_scooter", "is_reserved": 0, "lon": -77.00104883333333}, {"fusion_lat": 0.0, "name": "18f802a69252ae54f6f53af827193223", "is_disabled": 0, "rental_uris": {"android": "https://dc.lft.to/lastmile_qr_scan", "ios": "https://dc.lft.to/lastmile_qr_scan"}, "fusion_lon": 0.0, "lat": 38.91563283333333, "bike_id": "18f802a69252ae54f6f53af827193223", "type": "electric_scooter", "is_reserved": 0, "lon": -77.021362}, {"fusion_lat": 0.0, "name": "a4fc9dc76f52db14a1230252b189f4df", "is_disabled": 0, "rental_uris": {"android": "https://dc.lft.to/lastmile_qr_scan", "ios": "https://dc.lft.to/lastmile_qr_scan"}, "fusion_lon": 0.0, "lat": 38.8922485, "bike_id": "a4fc9dc76f52db14a1230252b189f4df", "type": "electric_scooter", "is_reserved": 0, "lon": -77.03974633333333}, {"fusion_lat": 0.0, "name": "a39c7a64fe2321a12a29e5ff54d161d9", "is_disabled": 0, "rental_uris": {"android": "https://dc.lft.to/lastmile_qr_scan", "ios": "https://dc.lft.to/lastmile_qr_scan"}, "fusion_lon": 0.0, "lat": 38.9072575, "bike_id": "a39c7a64fe2321a12a29e5ff54d161d9", "type": "electric_scooter", "is_reserved": 0, "lon": -76.99765066666667}, {"fusion_lat": 0.0, "name": "570344c3dec96d92e94f2dd7e269713a", "is_disabled": 0, "rental_uris": {"android": "https://dc.lft.to/lastmile_qr_scan", "ios": "https://dc.lft.to/lastmile_qr_scan"}, "fusion_lon": 0.0, "lat": 38.978825666666665, "bike_id": "570344c3dec96d92e94f2dd7e269713a", "type": "electric_bike", "is_reserved": 0, "lon": -77.06024683333334}, {"fusion_lat": 0.0, "name": "f80eee9b911c28b99e097ad8806c835f", "is_disabled": 0, "rental_uris": {"android": "https://dc.lft.to/lastmile_qr_scan", "ios": "https://dc.lft.to/lastmile_qr_scan"}, "fusion_lon": 0.0, "lat": 38.8393195, "bike_id": "f80eee9b911c28b99e097ad8806c835f", "type": "electric_bike", "is_reserved": 0, "lon": -77.07902316666667}, {"fusion_lat": 0.0, "name": "5b6d4f240737c71a2537c20bb2646602", "is_disabled": 0, "rental_uris": {"android": "https://dc.lft.to/lastmile_qr_scan", "ios": "https://dc.lft.to/lastmile_qr_scan"}, "fusion_lon": 0.0, "lat": 38.913643666666665, "bike_id": "5b6d4f240737c71a2537c20bb2646602", "type": "electric_scooter", "is_reserved": 0, "lon": -77.0456105}, {"fusion_lat": 0.0, "name": "f90ff93ef775454cf6521ad3fd1f5c6a", "is_disabled": 0, "rental_uris": {"android": "https://dc.lft.to/lastmile_qr_scan", "ios": "https://dc.lft.to/lastmile_qr_scan"}, "fusion_lon": 0.0, "lat": 38.93574683333333, "bike_id": "f90ff93ef775454cf6521ad3fd1f5c6a", "type": "electric_bike", "is_reserved": 0, "lon": -77.0373855}, {"fusion_lat": 0.0, "name": "cebe3bd33a85e45214370a818fabf331", "is_disabled": 0, "rental_uris": {"android": "https://dc.lft.to/lastmile_qr_scan", "ios": "https://dc.lft.to/lastmile_qr_scan"}, "fusion_lon": 0.0, "lat": 38.897003, "bike_id": "cebe3bd33a85e45214370a818fabf331", "type": "electric_scooter", "is_reserved": 0, "lon": -77.03207433333333}, {"fusion_lat": 0.0, "name": "8f01debc7030db755fe55646c328b267", "is_disabled": 0, "rental_uris": {"android": "https://dc.lft.to/lastmile_qr_scan", "ios": "https://dc.lft.to/lastmile_qr_scan"}, "fusion_lon": 0.0, "lat": 38.917732, "bike_id": "8f01debc7030db755fe55646c328b267", "type": "electric_scooter", "is_reserved": 0, "lon": -77.04776133333333}, {"fusion_lat": 0.0, "name": "b4e1a8940622501d1901192ef42e40e6", "is_disabled": 0, "rental_uris": {"android": "https://dc.lft.to/lastmile_qr_scan", "ios": "https://dc.lft.to/lastmile_qr_scan"}, "fusion_lon": 0.0, "lat": 38.887429166666664, "bike_id": "b4e1a8940622501d1901192ef42e40e6", "type": "electric_scooter", "is_reserved": 0, "lon": -77.02580016666667}, {"fusion_lat": 0.0, "name": "8a68204e66797a0b70cb909a5bf0125c", "is_disabled": 0, "rental_uris": {"android": "https://dc.lft.to/lastmile_qr_scan", "ios": "https://dc.lft.to/lastmile_qr_scan"}, "fusion_lon": 0.0, "lat": 38.91489466666667, "bike_id": "8a68204e66797a0b70cb909a5bf0125c", "type": "electric_scooter", "is_reserved": 0, "lon": -77.03728983333333}, {"fusion_lat": 0.0, "name": "79497aa44aadd10ccb44eff206816d80", "is_disabled": 0, "rental_uris": {"android": "https://dc.lft.to/lastmile_qr_scan", "ios": "https://dc.lft.to/lastmile_qr_scan"}, "fusion_lon": 0.0, "lat": 38.892230833333336, "bike_id": "79497aa44aadd10ccb44eff206816d80", "type": "electric_scooter", "is_reserved": 0, "lon": -77.04680683333333}, {"fusion_lat": 0.0, "name": "d147f556d38bc4cbb687996cea288cac", "is_disabled": 0, "rental_uris": {"android": "https://dc.lft.to/lastmile_qr_scan", "ios": "https://dc.lft.to/lastmile_qr_scan"}, "fusion_lon": 0.0, "lat": 38.887402333333334, "bike_id": "d147f556d38bc4cbb687996cea288cac", "type": "electric_scooter", "is_reserved": 0, "lon": -77.01525483333333}, {"fusion_lat": 0.0, "name": "295d8467148bf708f2f167468612ba57", "is_disabled": 0, "rental_uris": {"android": "https://dc.lft.to/lastmile_qr_scan", "ios": "https://dc.lft.to/lastmile_qr_scan"}, "fusion_lon": 0.0, "lat": 38.878863833333334, "bike_id": "295d8467148bf708f2f167468612ba57", "type": "electric_scooter", "is_reserved": 0, "lon": -77.02285616666667}, {"fusion_lat": 0.0, "name": "e0aaf57de2d209edb6be2d72e73c44a7", "is_disabled": 0, "rental_uris": {"android": "https://dc.lft.to/lastmile_qr_scan", "ios": "https://dc.lft.to/lastmile_qr_scan"}, "fusion_lon": 0.0, "lat": 38.902674166666664, "bike_id": "e0aaf57de2d209edb6be2d72e73c44a7", "type": "electric_scooter", "is_reserved": 0, "lon": -77.00328466666667}, {"fusion_lat": 0.0, "name": "5022874ad9c9c829e294f869ac13548f", "is_disabled": 0, "rental_uris": {"android": "https://dc.lft.to/lastmile_qr_scan", "ios": "https://dc.lft.to/lastmile_qr_scan"}, "fusion_lon": 0.0, "lat": 38.91119366666667, "bike_id": "5022874ad9c9c829e294f869ac13548f", "type": "electric_scooter", "is_reserved": 0, "lon": -77.03147566666667}, {"fusion_lat": 0.0, "name": "6748fb893d994a07e08ddf32b675b529", "is_disabled": 0, "rental_uris": {"android": "https://dc.lft.to/lastmile_qr_scan", "ios": "https://dc.lft.to/lastmile_qr_scan"}, "fusion_lon": 0.0, "lat": 38.874601, "bike_id": "6748fb893d994a07e08ddf32b675b529", "type": "electric_scooter", "is_reserved": 0, "lon": -77.01853983333334}, {"fusion_lat": 0.0, "name": "63fc3e73022aa639ba02025db3929566", "is_disabled": 0, "rental_uris": {"android": "https://dc.lft.to/lastmile_qr_scan", "ios": "https://dc.lft.to/lastmile_qr_scan"}, "fusion_lon": 0.0, "lat": 38.816112333333336, "bike_id": "63fc3e73022aa639ba02025db3929566", "type": "electric_bike", "is_reserved": 0, "lon": -76.99655533333333}, {"fusion_lat": 0.0, "name": "5978710fe02bfdfdb9b6dd6029ec8f05", "is_disabled": 0, "rental_uris": {"android": "https://dc.lft.to/lastmile_qr_scan", "ios": "https://dc.lft.to/lastmile_qr_scan"}, "fusion_lon": 0.0, "lat": 39.01419283333333, "bike_id": "5978710fe02bfdfdb9b6dd6029ec8f05", "type": "electric_bike", "is_reserved": 0, "lon": -77.0449745}, {"fusion_lat": 0.0, "name": "a2642087693879b59c89c0846799bc04", "is_disabled": 0, "rental_uris": {"android": "https://dc.lft.to/lastmile_qr_scan", "ios": "https://dc.lft.to/lastmile_qr_scan"}, "fusion_lon": 0.0, "lat": 38.917734, "bike_id": "a2642087693879b59c89c0846799bc04", "type": "electric_scooter", "is_reserved": 0, "lon": -77.01912866666666}, {"fusion_lat": 0.0, "name": "f78401d3066c70df808e96c2ce94240e", "is_disabled": 0, "rental_uris": {"android": "https://dc.lft.to/lastmile_qr_scan", "ios": "https://dc.lft.to/lastmile_qr_scan"}, "fusion_lon": 0.0, "lat": 38.8491665, "bike_id": "f78401d3066c70df808e96c2ce94240e", "type": "electric_bike", "is_reserved": 0, "lon": -77.07928466666667}, {"fusion_lat": 0.0, "name": "030aba2e0383093f5f3f62063b47d642", "is_disabled": 0, "rental_uris": {"android": "https://dc.lft.to/lastmile_qr_scan", "ios": "https://dc.lft.to/lastmile_qr_scan"}, "fusion_lon": 0.0, "lat": 38.922306666666664, "bike_id": "030aba2e0383093f5f3f62063b47d642", "type": "electric_scooter", "is_reserved": 0, "lon": -77.02112433333333}, {"fusion_lat": 0.0, "name": "bfe9db08b6ceb13d16a36524c3f1ef01", "is_disabled": 0, "rental_uris": {"android": "https://dc.lft.to/lastmile_qr_scan", "ios": "https://dc.lft.to/lastmile_qr_scan"}, "fusion_lon": 0.0, "lat": 38.885066333333334, "bike_id": "bfe9db08b6ceb13d16a36524c3f1ef01", "type": "electric_scooter", "is_reserved": 0, "lon": -76.997521}, {"fusion_lat": 0.0, "name": "d47915f7bc8e874015a2706d7aee2ca9", "is_disabled": 0, "rental_uris": {"android": "https://dc.lft.to/lastmile_qr_scan", "ios": "https://dc.lft.to/lastmile_qr_scan"}, "fusion_lon": 0.0, "lat": 38.928297666666666, "bike_id": "d47915f7bc8e874015a2706d7aee2ca9", "type": "electric_bike", "is_reserved": 0, "lon": -77.0541275}, {"fusion_lat": 0.0, "name": "fb22a9ec3e639e9b6dac2caa36547868", "is_disabled": 0, "rental_uris": {"android": "https://dc.lft.to/lastmile_qr_scan", "ios": "https://dc.lft.to/lastmile_qr_scan"}, "fusion_lon": 0.0, "lat": 38.89302, "bike_id": "fb22a9ec3e639e9b6dac2caa36547868", "type": "electric_scooter", "is_reserved": 0, "lon": -77.02149366666667}, {"fusion_lat": 0.0, "name": "0fc45443e03646ccb7e8d76686426dfd", "is_disabled": 0, "rental_uris": {"android": "https://dc.lft.to/lastmile_qr_scan", "ios": "https://dc.lft.to/lastmile_qr_scan"}, "fusion_lon": 0.0, "lat": 38.94658716666667, "bike_id": "0fc45443e03646ccb7e8d76686426dfd", "type": "electric_bike", "is_reserved": 0, "lon": -76.95674833333334}, {"fusion_lat": 0.0, "name": "b34a4975f77fbdca3f3a1e419fadd6ab", "is_disabled": 0, "rental_uris": {"android": "https://dc.lft.to/lastmile_qr_scan", "ios": "https://dc.lft.to/lastmile_qr_scan"}, "fusion_lon": 0.0, "lat": 38.948346666666666, "bike_id": "b34a4975f77fbdca3f3a1e419fadd6ab", "type": "electric_scooter", "is_reserved": 0, "lon": -77.02565033333333}, {"fusion_lat": 0.0, "name": "bf1fe4ff61e65e928597eab5cb19b062", "is_disabled": 0, "rental_uris": {"android": "https://dc.lft.to/lastmile_qr_scan", "ios": "https://dc.lft.to/lastmile_qr_scan"}, "fusion_lon": 0.0, "lat": 38.900663, "bike_id": "bf1fe4ff61e65e928597eab5cb19b062", "type": "electric_scooter", "is_reserved": 0, "lon": -77.0365995}, {"fusion_lat": 0.0, "name": "2e451972498c829403617c2d984a6847", "is_disabled": 0, "rental_uris": {"android": "https://dc.lft.to/lastmile_qr_scan", "ios": "https://dc.lft.to/lastmile_qr_scan"}, "fusion_lon": 0.0, "lat": 38.905660833333336, "bike_id": "2e451972498c829403617c2d984a6847", "type": "electric_scooter", "is_reserved": 0, "lon": -77.04341216666667}, {"fusion_lat": 0.0, "name": "e6531122be88b767b3a7a58321c95202", "is_disabled": 0, "rental_uris": {"android": "https://dc.lft.to/lastmile_qr_scan", "ios": "https://dc.lft.to/lastmile_qr_scan"}, "fusion_lon": 0.0, "lat": 38.9003225, "bike_id": "e6531122be88b767b3a7a58321c95202", "type": "electric_scooter", "is_reserved": 0, "lon": -77.05827266666667}, {"fusion_lat": 0.0, "name": "06bfc8fd5245e6982324fe0d39d94ec0", "is_disabled": 0, "rental_uris": {"android": "https://dc.lft.to/lastmile_qr_scan", "ios": "https://dc.lft.to/lastmile_qr_scan"}, "fusion_lon": 0.0, "lat": 38.91690466666667, "bike_id": "06bfc8fd5245e6982324fe0d39d94ec0", "type": "electric_bike", "is_reserved": 0, "lon": -77.03767933333333}, {"fusion_lat": 0.0, "name": "fa8617013ad47dfcbc146c84cbf5bc86", "is_disabled": 0, "rental_uris": {"android": "https://dc.lft.to/lastmile_qr_scan", "ios": "https://dc.lft.to/lastmile_qr_scan"}, "fusion_lon": 0.0, "lat": 38.91904016666667, "bike_id": "fa8617013ad47dfcbc146c84cbf5bc86", "type": "electric_scooter", "is_reserved": 0, "lon": -77.02756916666667}, {"fusion_lat": 0.0, "name": "75edc6ed2e5d3a11789483a93820913e", "is_disabled": 0, "rental_uris": {"android": "https://dc.lft.to/lastmile_qr_scan", "ios": "https://dc.lft.to/lastmile_qr_scan"}, "fusion_lon": 0.0, "lat": 38.92248166666667, "bike_id": "75edc6ed2e5d3a11789483a93820913e", "type": "electric_scooter", "is_reserved": 0, "lon": -77.02971283333333}, {"fusion_lat": 0.0, "name": "3c44ec3747fe9e7b880b41c391a85a0a", "is_disabled": 0, "rental_uris": {"android": "https://dc.lft.to/lastmile_qr_scan", "ios": "https://dc.lft.to/lastmile_qr_scan"}, "fusion_lon": 0.0, "lat": 38.794701333333336, "bike_id": "3c44ec3747fe9e7b880b41c391a85a0a", "type": "electric_bike", "is_reserved": 0, "lon": -76.992501}, {"fusion_lat": 0.0, "name": "8d09034f1ca036df6de9d12802546c10", "is_disabled": 0, "rental_uris": {"android": "https://dc.lft.to/lastmile_qr_scan", "ios": "https://dc.lft.to/lastmile_qr_scan"}, "fusion_lon": 0.0, "lat": 38.903921833333335, "bike_id": "8d09034f1ca036df6de9d12802546c10", "type": "electric_scooter", "is_reserved": 0, "lon": -77.04434016666667}, {"fusion_lat": 0.0, "name": "903a83469e4a8bf49e0bc92131669b6d", "is_disabled": 0, "rental_uris": {"android": "https://dc.lft.to/lastmile_qr_scan", "ios": "https://dc.lft.to/lastmile_qr_scan"}, "fusion_lon": 0.0, "lat": 38.94438866666667, "bike_id": "903a83469e4a8bf49e0bc92131669b6d", "type": "electric_scooter", "is_reserved": 0, "lon": -77.06351716666667}, {"fusion_lat": 0.0, "name": "efdaad34ff7a416b8a7ccce12ccd4589", "is_disabled": 0, "rental_uris": {"android": "https://dc.lft.to/lastmile_qr_scan", "ios": "https://dc.lft.to/lastmile_qr_scan"}, "fusion_lon": 0.0, "lat": 38.89854066666667, "bike_id": "efdaad34ff7a416b8a7ccce12ccd4589", "type": "electric_scooter", "is_reserved": 0, "lon": -77.02865883333334}, {"fusion_lat": 0.0, "name": "804e3f2b192db2cd2be0238162a8dabf", "is_disabled": 0, "rental_uris": {"android": "https://dc.lft.to/lastmile_qr_scan", "ios": "https://dc.lft.to/lastmile_qr_scan"}, "fusion_lon": 0.0, "lat": 38.895474666666665, "bike_id": "804e3f2b192db2cd2be0238162a8dabf", "type": "electric_scooter", "is_reserved": 0, "lon": -77.03980683333333}, {"fusion_lat": 0.0, "name": "ef22a93e962c26b665193089962f7053", "is_disabled": 0, "rental_uris": {"android": "https://dc.lft.to/lastmile_qr_scan", "ios": "https://dc.lft.to/lastmile_qr_scan"}, "fusion_lon": 0.0, "lat": 38.85580383333333, "bike_id": "ef22a93e962c26b665193089962f7053", "type": "electric_scooter", "is_reserved": 0, "lon": -76.96656033333333}, {"fusion_lat": 0.0, "name": "8752b456d1974ac0ed24c892cbbf1c0a", "is_disabled": 0, "rental_uris": {"android": "https://dc.lft.to/lastmile_qr_scan", "ios": "https://dc.lft.to/lastmile_qr_scan"}, "fusion_lon": 0.0, "lat": 38.9083525, "bike_id": "8752b456d1974ac0ed24c892cbbf1c0a", "type": "electric_scooter", "is_reserved": 0, "lon": -77.04461733333333}, {"fusion_lat": 0.0, "name": "342269461de280301ceb5040bb5487e2", "is_disabled": 0, "rental_uris": {"android": "https://dc.lft.to/lastmile_qr_scan", "ios": "https://dc.lft.to/lastmile_qr_scan"}, "fusion_lon": 0.0, "lat": 38.89231783333334, "bike_id": "342269461de280301ceb5040bb5487e2", "type": "electric_scooter", "is_reserved": 0, "lon": -77.0211365}, {"fusion_lat": 0.0, "name": "b6149ca95aaed4e90c8e6d904f7bedf3", "is_disabled": 0, "rental_uris": {"android": "https://dc.lft.to/lastmile_qr_scan", "ios": "https://dc.lft.to/lastmile_qr_scan"}, "fusion_lon": 0.0, "lat": 38.90321383333333, "bike_id": "b6149ca95aaed4e90c8e6d904f7bedf3", "type": "electric_scooter", "is_reserved": 0, "lon": -77.04477966666667}, {"fusion_lat": 0.0, "name": "9c689d567ab32b2bb01ae52c4c6ae94c", "is_disabled": 0, "rental_uris": {"android": "https://dc.lft.to/lastmile_qr_scan", "ios": "https://dc.lft.to/lastmile_qr_scan"}, "fusion_lon": 0.0, "lat": 38.899185833333334, "bike_id": "9c689d567ab32b2bb01ae52c4c6ae94c", "type": "electric_scooter", "is_reserved": 0, "lon": -76.98536733333333}, {"fusion_lat": 0.0, "name": "b76600a98d7a55415ec94e581f274caf", "is_disabled": 0, "rental_uris": {"android": "https://dc.lft.to/lastmile_qr_scan", "ios": "https://dc.lft.to/lastmile_qr_scan"}, "fusion_lon": 0.0, "lat": 38.90037866666667, "bike_id": "b76600a98d7a55415ec94e581f274caf", "type": "electric_scooter", "is_reserved": 0, "lon": -77.01174316666666}, {"fusion_lat": 0.0, "name": "984ab5112a32537a20477dc71ae7755b", "is_disabled": 0, "rental_uris": {"android": "https://dc.lft.to/lastmile_qr_scan", "ios": "https://dc.lft.to/lastmile_qr_scan"}, "fusion_lon": 0.0, "lat": 38.9045245, "bike_id": "984ab5112a32537a20477dc71ae7755b", "type": "electric_scooter", "is_reserved": 0, "lon": -77.0406755}, {"fusion_lat": 0.0, "name": "e453ab8f8cb60fad2db026555d8d7821", "is_disabled": 0, "rental_uris": {"android": "https://dc.lft.to/lastmile_qr_scan", "ios": "https://dc.lft.to/lastmile_qr_scan"}, "fusion_lon": 0.0, "lat": 38.91695766666667, "bike_id": "e453ab8f8cb60fad2db026555d8d7821", "type": "electric_scooter", "is_reserved": 0, "lon": -77.042187}, {"fusion_lat": 0.0, "name": "0e7dbc0919f3383d3c0d85e1de7d0973", "is_disabled": 0, "rental_uris": {"android": "https://dc.lft.to/lastmile_qr_scan", "ios": "https://dc.lft.to/lastmile_qr_scan"}, "fusion_lon": 0.0, "lat": 38.9250585, "bike_id": "0e7dbc0919f3383d3c0d85e1de7d0973", "type": "electric_scooter", "is_reserved": 0, "lon": -77.051058}, {"fusion_lat": 0.0, "name": "781524233a10d3c64d646eed51b8840e", "is_disabled": 0, "rental_uris": {"android": "https://dc.lft.to/lastmile_qr_scan", "ios": "https://dc.lft.to/lastmile_qr_scan"}, "fusion_lon": 0.0, "lat": 38.892230833333336, "bike_id": "781524233a10d3c64d646eed51b8840e", "type": "electric_scooter", "is_reserved": 0, "lon": -77.048031}, {"fusion_lat": 0.0, "name": "c10d8cdc8dffbae2acd58fb75bcd4d51", "is_disabled": 0, "rental_uris": {"android": "https://dc.lft.to/lastmile_qr_scan", "ios": "https://dc.lft.to/lastmile_qr_scan"}, "fusion_lon": 0.0, "lat": 38.926112833333335, "bike_id": "c10d8cdc8dffbae2acd58fb75bcd4d51", "type": "electric_scooter", "is_reserved": 0, "lon": -77.0571895}, {"fusion_lat": 0.0, "name": "1cc5b2f184f2d253e6de55e9a40f80cf", "is_disabled": 0, "rental_uris": {"android": "https://dc.lft.to/lastmile_qr_scan", "ios": "https://dc.lft.to/lastmile_qr_scan"}, "fusion_lon": 0.0, "lat": 38.91824233333333, "bike_id": "1cc5b2f184f2d253e6de55e9a40f80cf", "type": "electric_scooter", "is_reserved": 0, "lon": -77.02712633333333}, {"fusion_lat": 0.0, "name": "56954f95cb3c39b74fd531ee459aba25", "is_disabled": 0, "rental_uris": {"android": "https://dc.lft.to/lastmile_qr_scan", "ios": "https://dc.lft.to/lastmile_qr_scan"}, "fusion_lon": 0.0, "lat": 38.93583233333333, "bike_id": "56954f95cb3c39b74fd531ee459aba25", "type": "electric_scooter", "is_reserved": 0, "lon": -77.03361}, {"fusion_lat": 0.0, "name": "08f1011a82a1c36781ab64222d5fcd0b", "is_disabled": 0, "rental_uris": {"android": "https://dc.lft.to/lastmile_qr_scan", "ios": "https://dc.lft.to/lastmile_qr_scan"}, "fusion_lon": 0.0, "lat": 38.876566333333336, "bike_id": "08f1011a82a1c36781ab64222d5fcd0b", "type": "electric_scooter", "is_reserved": 0, "lon": -77.005159}, {"fusion_lat": 0.0, "name": "ba653b3f105fdfb9a29e7d49d2ef2135", "is_disabled": 0, "rental_uris": {"android": "https://dc.lft.to/lastmile_qr_scan", "ios": "https://dc.lft.to/lastmile_qr_scan"}, "fusion_lon": 0.0, "lat": 38.88629316666667, "bike_id": "ba653b3f105fdfb9a29e7d49d2ef2135", "type": "electric_scooter", "is_reserved": 0, "lon": -77.0153145}, {"fusion_lat": 0.0, "name": "8ba572d36a84efd22c1ce64f0b5e7fe2", "is_disabled": 0, "rental_uris": {"android": "https://dc.lft.to/lastmile_qr_scan", "ios": "https://dc.lft.to/lastmile_qr_scan"}, "fusion_lon": 0.0, "lat": 38.9014205, "bike_id": "8ba572d36a84efd22c1ce64f0b5e7fe2", "type": "electric_scooter", "is_reserved": 0, "lon": -77.03933483333333}, {"fusion_lat": 0.0, "name": "67753dec1fde9d4b3a8114c28bd57f30", "is_disabled": 0, "rental_uris": {"android": "https://dc.lft.to/lastmile_qr_scan", "ios": "https://dc.lft.to/lastmile_qr_scan"}, "fusion_lon": 0.0, "lat": 38.905560333333334, "bike_id": "67753dec1fde9d4b3a8114c28bd57f30", "type": "electric_scooter", "is_reserved": 0, "lon": -77.006092},