{"data": {"bikes": [{"rental_uris": {"ios": "https://dc.lft.to/lastmile_qr_scan", "android": "https://dc.lft.to/lastmile_qr_scan"}, "lon": -76.99673883333334, "type": "electric_scooter", "fusion_lat": 0.0, "lat": 38.9002315, "name": "bbb2008edd3d39f42d8d4a02f00fc899", "fusion_lon": 0.0, "bike_id": "bbb2008edd3d39f42d8d4a02f00fc899", "is_disabled": 0, "is_reserved": 0}, {"rental_uris": {"ios": "https://dc.lft.to/lastmile_qr_scan", "android": "https://dc.lft.to/lastmile_qr_scan"}, "lon": -76.9858595, "type": "electric_scooter", "fusion_lat": 0.0, "lat": 38.89926666666667, "name": "e21662d5fa2745aed661760e59919fbe", "fusion_lon": 0.0, "bike_id": "e21662d5fa2745aed661760e59919fbe", "is_disabled": 0, "is_reserved": 0}, {"rental_uris": {"ios": "https://dc.lft.to/lastmile_qr_scan", "android": "https://dc.lft.to/lastmile_qr_scan"}, "lon": -77.04815816666667, "type": "electric_scooter", "fusion_lat": 0.0, "lat": 38.92032583333334, "name": "7382d0dd103df0fd518b9ef141210490", "fusion_lon": 0.0, "bike_id": "7382d0dd103df0fd518b9ef141210490", "is_disabled": 0, "is_reserved": 0}, {"rental_uris": {"ios": "https://dc.lft.to/lastmile_qr_scan", "android": "https://dc.lft.to/lastmile_qr_scan"}, "lon": -77.00071266666667, "type": "electric_scooter", "fusion_lat": 0.0, "lat": 38.92554066666667, "name": "4c28774373f2fd67dd27a5f91b861a32", "fusion_lon": 0.0, "bike_id": "4c28774373f2fd67dd27a5f91b861a32", "is_disabled": 0, "is_reserved": 0}, {"rental_uris": {"ios": "https://dc.lft.to/lastmile_qr_scan", "android": "https://dc.lft.to/lastmile_qr_scan"}, "lon": -77.00546016666667, "type": "electric_scooter", "fusion_lat": 0.0, "lat": 38.90553966666667, "name": "952eb7a9c2545d0cf01c0dacbe6f6375", "fusion_lon": 0.0, "bike_id": "952eb7a9c2545d0cf01c0dacbe6f6375", "is_disabled": 0, "is_reserved": 0}, {"rental_uris": {"ios": "https://dc.lft.to/lastmile_qr_scan", "android": "https://dc.lft.to/lastmile_qr_scan"}, "lon": -77.02339516666666, "type": "electric_scooter", "fusion_lat": 0.0, "lat": 38.93050433333333, "name": "71216fe97ce4e6f46b03a79b74e7ad2b", "fusion_lon": 0.0, "bike_id": "71216fe97ce4e6f46b03a79b74e7ad2b", "is_disabled": 0, "is_reserved": 0}, {"rental_uris": {"ios": "https://dc.lft.to/lastmile_qr_scan", "android": "https://dc.lft.to/lastmile_qr_scan"}, "lon": -77.040125, "type": "electric_scooter", "fusion_lat": 0.0, "lat": 38.932516166666666, "name": "35458ab5a944a427d7ae95a0d22984d8", "fusion_lon": 0.0, "bike_id": "35458ab5a944a427d7ae95a0d22984d8", "is_disabled": 0, "is_reserved": 0}, {"rental_uris": {"ios": "https://dc.lft.to/lastmile_qr_scan", "android": "https://dc.lft.to/lastmile_qr_scan"}, "lon": -77.0372165, "type": "electric_scooter", "fusion_lat": 0.0, "lat": 38.91045233333333, "name": "503b043d9be627ed2df4d32a7e31f4a6", "fusion_lon": 0.0, "bike_id": "503b043d9be627ed2df4d32a7e31f4a6", "is_disabled": 0, "is_reserved": 0}, {"rental_uris": {"ios": "https://dc.lft.to/lastmile_qr_scan", "android": "https://dc.lft.to/lastmile_qr_scan"}, "lon": -77.00761466666667, "type": "electric_scooter", "fusion_lat": 0.0, "lat": 38.910263666666665, "name": "e47be3fbf95b06e54e20dbb16174db9e", "fusion_lon": 0.0, "bike_id": "e47be3fbf95b06e54e20dbb16174db9e", "is_disabled": 0, "is_reserved": 0}, {"rental_uris": {"ios": "https://dc.lft.to/lastmile_qr_scan", "android": "https://dc.lft.to/lastmile_qr_scan"}, "lon": -76.98515716666667, "type": "electric_scooter", "fusion_lat": 0.0, "lat": 38.9008495, "name": "a6f72eb5e16c0cde7ee6530239e4625b", "fusion_lon": 0.0, "bike_id": "a6f72eb5e16c0cde7ee6530239e4625b", "is_disabled": 0, "is_reserved": 0}, {"rental_uris": {"ios": "https://dc.lft.to/lastmile_qr_scan", "android": "https://dc.lft.to/lastmile_qr_scan"}, "lon": -77.0420435, "type": "electric_scooter", "fusion_lat": 0.0, "lat": 38.911057166666666, "name": "97ed78741ee2cef72cf907318c20d738", "fusion_lon": 0.0, "bike_id": "97ed78741ee2cef72cf907318c20d738", "is_disabled": 0, "is_reserved": 0}, {"rental_uris": {"ios": "https://dc.lft.to/lastmile_qr_scan", "android": "https://dc.lft.to/lastmile_qr_scan"}, "lon": -77.039896, "type": "electric_scooter", "fusion_lat": 0.0, "lat": 38.901435, "name": "0039d8eb4fa7e9f9985c9b3deeabb8ab", "fusion_lon": 0.0, "bike_id": "0039d8eb4fa7e9f9985c9b3deeabb8ab", "is_disabled": 0, "is_reserved": 0}, {"rental_uris": {"ios": "https://dc.lft.to/lastmile_qr_scan", "android": "https://dc.lft.to/lastmile_qr_scan"}, "lon": -77.0541375, "type": "electric_scooter", "fusion_lat": 0.0, "lat": 38.9039745, "name": "673e8812cb1e178d0e8cdf843ed461cb", "fusion_lon": 0.0, "bike_id": "673e8812cb1e178d0e8cdf843ed461cb", "is_disabled": 0, "is_reserved": 0}, {"rental_uris": {"ios": "https://dc.lft.to/lastmile_qr_scan", "android": "https://dc.lft.to/lastmile_qr_scan"}, "lon": -76.99074533333334, "type": "electric_scooter", "fusion_lat": 0.0, "lat": 38.904186833333334, "name": "fdb00d97da898036b2c73c82c5766449", "fusion_lon": 0.0, "bike_id": "fdb00d97da898036b2c73c82c5766449", "is_disabled": 0, "is_reserved": 0}, {"rental_uris": {"ios": "https://dc.lft.to/lastmile_qr_scan", "android": "https://dc.lft.to/lastmile_qr_scan"}, "lon": -77.02589566666667, "type": "electric_scooter", "fusion_lat": 0.0, "lat": 38.91551333333334, "name": "ffdb5b13fa96f109df9dca4e960c4db0", "fusion_lon": 0.0, "bike_id": "ffdb5b13fa96f109df9dca4e960c4db0", "is_disabled": 0, "is_reserved": 0}, {"rental_uris": {"ios": "https://dc.lft.to/lastmile_qr_scan", "android": "https://dc.lft.to/lastmile_qr_scan"}, "lon": -77.0251105, "type": "electric_bike", "fusion_lat": 0.0, "lat": 38.93417483333333, "name": "61785f2cacbe6d1a8c9617dbeb0b6b9b", "fusion_lon": 0.0, "bike_id": "61785f2cacbe6d1a8c9617dbeb0b6b9b", "is_disabled": 0, "is_reserved": 0}, {"rental_uris": {"ios": "https://dc.lft.to/lastmile_qr_scan", "android": "https://dc.lft.to/lastmile_qr_scan"}, "lon": -77.02716266666667, "type": "electric_scooter", "fusion_lat": 0.0, "lat": 38.9066775, "name": "2bbd61fcb31838a850a71ff4dfe7a32a", "fusion_lon": 0.0, "bike_id": "2bbd61fcb31838a850a71ff4dfe7a32a", "is_disabled": 0, "is_reserved": 0}, {"rental_uris": {"ios": "https://dc.lft.to/lastmile_qr_scan", "android": "https://dc.lft.to/lastmile_qr_scan"}, "lon": -77.09163566666666, "type": "electric_bike", "fusion_lat": 0.0, "lat": 38.967628, "name": "58e8bf443edad48bd296f5b1b6224ab7", "fusion_lon": 0.0, "bike_id": "58e8bf443edad48bd296f5b1b6224ab7", "is_disabled": 0, "is_reserved": 0}, {"rental_uris": {"ios": "https://dc.lft.to/lastmile_qr_scan", "android": "https://dc.lft.to/lastmile_qr_scan"}, "lon": -77.0437415, "type": "electric_scooter", "fusion_lat": 0.0, "lat": 38.920579000000004, "name": "55f8c67d2ca0efbe50a4ab3c2e00d488", "fusion_lon": 0.0, "bike_id": "55f8c67d2ca0efbe50a4ab3c2e00d488", "is_disabled": 0, "is_reserved": 0}, {"rental_uris": {"ios": "https://dc.lft.to/lastmile_qr_scan", "android": "https://dc.lft.to/lastmile_qr_scan"}, "lon": -77.02319333333334, "type": "electric_scooter", "fusion_lat": 0.0, "lat": 38.88353033333333, "name": "fb379e2c79e358c59711a8ea9ec16f59", "fusion_lon": 0.0, "bike_id": "fb379e2c79e358c59711a8ea9ec16f59", "is_disabled": 0, "is_reserved": 0}, {"rental_uris": {"ios": "https://dc.lft.to/lastmile_qr_scan", "android": "https://dc.lft.to/lastmile_qr_scan"}, "lon": -77.01976716666667, "type": "electric_bike", "fusion_lat": 0.0, "lat": 38.9566775, "name": "546fc604908ed3626fab8f663a7cdea8", "fusion_lon": 0.0, "bike_id": "546fc604908ed3626fab8f663a7cdea8", "is_disabled": 0, "is_reserved": 0}, {"rental_uris": {"ios": "https://dc.lft.to/lastmile_qr_scan", "android": "https://dc.lft.to/lastmile_qr_scan"}, "lon": -77.1309315, "type": "electric_bike", "fusion_lat": 0.0, "lat": 38.86161516666667, "name": "c10d48db28b9ae7f2a087b8ca4650241", "fusion_lon": 0.0, "bike_id": "c10d48db28b9ae7f2a087b8ca4650241", "is_disabled": 0, "is_reserved": 0}, {"rental_uris": {"ios": "https://dc.lft.to/lastmile_qr_scan", "android": "https://dc.lft.to/lastmile_qr_scan"}, "lon": -77.01492616666667, "type": "electric_scooter", "fusion_lat": 0.0, "lat": 38.901435, "name": "760ff35e987b04511c5c5a0ee4e5bec5", "fusion_lon": 0.0, "bike_id": "760ff35e987b04511c5c5a0ee4e5bec5", "is_disabled": 0, "is_reserved": 0}, {"rental_uris": {"ios": "https://dc.lft.to/lastmile_qr_scan", "android": "https://dc.lft.to/lastmile_qr_scan"}, "lon": -76.97213166666667, "type": "electric_scooter", "fusion_lat": 0.0, "lat": 38.85493483333333, "name": "af47de2d74aa3af963ee2a2c885f87e0", "fusion_lon": 0.0, "bike_id": "af47de2d74aa3af963ee2a2c885f87e0", "is_disabled": 0, "is_reserved": 0}, {"rental_uris": {"ios": "https://dc.lft.to/lastmile_qr_scan", "android": "https://dc.lft.to/lastmile_qr_scan"}, "lon": -77.043355, "type": "electric_scooter", "fusion_lat": 0.0, "lat": 38.895874, "name": "7917a55da85cf36dc514cef0fc879a2a", "fusion_lon": 0.0, "bike_id": "7917a55da85cf36dc514cef0fc879a2a", "is_disabled": 0, "is_reserved": 0}, {"rental_uris": {"ios": "https://dc.lft.to/lastmile_qr_scan", "android": "https://dc.lft.to/lastmile_qr_scan"}, "lon": -76.9462815, "type": "electric_bike", "fusion_lat": 0.0, "lat": 38.94626, "name": "10956ff120eb790d4512b14b72508d60", "fusion_lon": 0.0, "bike_id": "10956ff120eb790d4512b14b72508d60", "is_disabled": 0, "is_reserved": 0}, {"rental_uris": {"ios": "https://dc.lft.to/lastmile_qr_scan", "android": "https://dc.lft.to/lastmile_qr_scan"}, "lon": -77.03466216666666, "type": "electric_scooter", "fusion_lat": 0.0, "lat": 38.917103, "name": "d18e1355bdb2609ba2d0db86be580689", "fusion_lon": 0.0, "bike_id": "d18e1355bdb2609ba2d0db86be580689", "is_disabled": 0, "is_reserved": 0}, {"rental_uris": {"ios": "https://dc.lft.to/lastmile_qr_scan", "android": "https://dc.lft.to/lastmile_qr_scan"}, "lon": -77.03920916666667, "type": "electric_scooter", "fusion_lat": 0.0, "lat": 38.8991925, "name": "d6af9e939b0103c9e0ab00e4acf733f8", "fusion_lon": 0.0, "bike_id": "d6af9e939b0103c9e0ab00e4acf733f8", "is_disabled": 0, "is_reserved": 0}, {"rental_uris": {"ios": "https://dc.lft.to/lastmile_qr_scan", "android": "https://dc.lft.to/lastmile_qr_scan"}, "lon": -77.02404616666666, "type": "electric_scooter", "fusion_lat": 0.0, "lat": 38.917271666666664, "name": "e6c5ca97b312738652d20564d05072bf", "fusion_lon": 0.0, "bike_id": "e6c5ca97b312738652d20564d05072bf", "is_disabled": 0, "is_reserved": 0}, {"rental_uris": {"ios": "https://dc.lft.to/lastmile_qr_scan", "android": "https://dc.lft.to/lastmile_qr_scan"}, "lon": -77.0317855, "type": "electric_scooter", "fusion_lat": 0.0, "lat": 38.907638166666665, "name": "f22800d59f40775755a98bdab3e8b5a2", "fusion_lon": 0.0, "bike_id": "f22800d59f40775755a98bdab3e8b5a2", "is_disabled": 0, "is_reserved": 0}, {"rental_uris": {"ios": "https://dc.lft.to/lastmile_qr_scan", "android": "https://dc.lft.to/lastmile_qr_scan"}, "lon": -77.02840066666667, "type": "electric_scooter", "fusion_lat": 0.0, "lat": 38.88747716666666, "name": "5f1ce7cb8541cba65f2fab6ce957bc27", "fusion_lon": 0.0, "bike_id": "5f1ce7cb8541cba65f2fab6ce957bc27", "is_disabled": 0, "is_reserved": 0}, {"rental_uris": {"ios": "https://dc.lft.to/lastmile_qr_scan", "android": "https://dc.lft.to/lastmile_qr_scan"}, "lon": -77.02637316666667, "type": "electric_scooter", "fusion_lat": 0.0, "lat": 38.895907, "name": "083b21ecab1242b675d801b205ca8f6e", "fusion_lon": 0.0, "bike_id": "083b21ecab1242b675d801b205ca8f6e", "is_disabled": 0, "is_reserved": 0}, {"rental_uris": {"ios": "https://dc.lft.to/lastmile_qr_scan", "android": "https://dc.lft.to/lastmile_qr_scan"}, "lon": -77.03842266666666, "type": "electric_scooter", "fusion_lat": 0.0, "lat": 38.92650883333334, "name": "ce51640686e5ff62577664ebf183c916", "fusion_lon": 0.0, "bike_id": "ce51640686e5ff62577664ebf183c916", "is_disabled": 0, "is_reserved": 0}, {"rental_uris": {"ios": "https://dc.lft.to/lastmile_qr_scan", "android": "https://dc.lft.to/lastmile_qr_scan"}, "lon": -77.0467275, "type": "electric_scooter", "fusion_lat": 0.0, "lat": 38.903800333333336, "name": "60c707f4457d1ebb8bbcafcfeb8d0a09", "fusion_lon": 0.0, "bike_id": "60c707f4457d1ebb8bbcafcfeb8d0a09", "is_disabled": 0, "is_reserved": 0}, {"rental_uris": {"ios": "https://dc.lft.to/lastmile_qr_scan", "android": "https://dc.lft.to/lastmile_qr_scan"}, "lon": -77.04493566666666, "type": "electric_scooter", "fusion_lat": 0.0, "lat": 38.91873433333333, "name": "1b576cccda32126a6b587ac8267ca737", "fusion_lon": 0.0, "bike_id": "1b576cccda32126a6b587ac8267ca737", "is_disabled": 0, "is_reserved": 0}, {"rental_uris": {"ios": "https://dc.lft.to/lastmile_qr_scan", "android": "https://dc.lft.to/lastmile_qr_scan"}, "lon": -76.99886616666667, "type": "electric_scooter", "fusion_lat": 0.0, "lat": 38.907536, "name": "dfaa6e4da3647dcfbc5fc7beae7194f8", "fusion_lon": 0.0, "bike_id": "dfaa6e4da3647dcfbc5fc7beae7194f8", "is_disabled": 0, "is_reserved": 0}, {"rental_uris": {"ios": "https://dc.lft.to/lastmile_qr_scan", "android": "https://dc.lft.to/lastmile_qr_scan"}, "lon": -77.01574416666666, "type": "electric_scooter", "fusion_lat": 0.0, "lat": 38.916836, "name": "a08c871795ee9dd61ea519ab5b4e24ff", "fusion_lon": 0.0, "bike_id": "a08c871795ee9dd61ea519ab5b4e24ff", "is_disabled": 0, "is_reserved": 0}, {"rental_uris": {"ios": "https://dc.lft.to/lastmile_qr_scan", "android": "https://dc.lft.to/lastmile_qr_scan"}, "lon": -77.03129316666667, "type": "electric_scooter", "fusion_lat": 0.0, "lat": 38.92376066666667, "name": "2933660a120b0119754ed3f7e8fbbc67", "fusion_lon": 0.0, "bike_id": "2933660a120b0119754ed3f7e8fbbc67", "is_disabled": 0, "is_reserved": 0}, {"rental_uris": {"ios": "https://dc.lft.to/lastmile_qr_scan", "android": "https://dc.lft.to/lastmile_qr_scan"}, "lon": -76.9871305, "type": "electric_scooter", "fusion_lat": 0.0, "lat": 38.86700666666667, "name": "b5370804a36f95bf759b9ae18deb7bfe", "fusion_lon": 0.0, "bike_id": "b5370804a36f95bf759b9ae18deb7bfe", "is_disabled": 0, "is_reserved": 0}, {"rental_uris": {"ios": "https://dc.lft.to/lastmile_qr_scan", "android": "https://dc.lft.to/lastmile_qr_scan"}, "lon": -77.03187966666667, "type": "electric_scooter", "fusion_lat": 0.0, "lat": 38.895953, "name": "c1f97528ef752d8d7d0d12206e01b092", "fusion_lon": 0.0, "bike_id": "c1f97528ef752d8d7d0d12206e01b092", "is_disabled": 0, "is_reserved": 0}, {"rental_uris": {"ios": "https://dc.lft.to/lastmile_qr_scan", "android": "https://dc.lft.to/lastmile_qr_scan"}, "lon": -77.0088975, "type": "electric_scooter", "fusion_lat": 0.0, "lat": 38.9123835, "name": "3e0a3743e869aa3143c440366a880efb", "fusion_lon": 0.0, "bike_id": "3e0a3743e869aa3143c440366a880efb", "is_disabled": 0, "is_reserved": 0}, {"rental_uris": {"ios": "https://dc.lft.to/lastmile_qr_scan", "android": "https://dc.lft.to/lastmile_qr_scan"}, "lon": -76.93175233333334, "type": "electric_scooter", "fusion_lat": 0.0, "lat": 38.8988445, "name": "28874562038e83b3f5a3d282bdf594a9", "fusion_lon": 0.0, "bike_id": "28874562038e83b3f5a3d282bdf594a9", "is_disabled": 0, "is_reserved": 0}, {"rental_uris": {"ios": "https://dc.lft.to/lastmile_qr_scan", "android": "https://dc.lft.to/lastmile_qr_scan"}, "lon": -76.92710966666667, "type": "electric_scooter", "fusion_lat": 0.0, "lat": 38.88770366666667, "name": "7c1cf7ee97d46b2e08c8f908fb290d63", "fusion_lon": 0.0, "bike_id": "7c1cf7ee97d46b2e08c8f908fb290d63", "is_disabled": 0, "is_reserved": 0}, {"rental_uris": {"ios": "https://dc.lft.to/lastmile_qr_scan", "android": "https://dc.lft.to/lastmile_qr_scan"}, "lon": -77.00571733333334, "type": "electric_scooter", "fusion_lat": 0.0, "lat": 38.903498666666664, "name": "1fead5b4a2345a73845b689642343de1", "fusion_lon": 0.0, "bike_id": "1fead5b4a2345a73845b689642343de1", "is_disabled": 0, "is_reserved": 0}, {"rental_uris": {"ios": "https://dc.lft.to/lastmile_qr_scan", "android": "https://dc.lft.to/lastmile_qr_scan"}, "lon": -77.02702866666667, "type": "electric_scooter", "fusion_lat": 0.0, "lat": 38.925921, "name": "75699a95ee6625dcd3353bec54665863", "fusion_lon": 0.0, "bike_id": "75699a95ee6625dcd3353bec54665863", "is_disabled": 0, "is_reserved": 0}, {"rental_uris": {"ios": "https://dc.lft.to/lastmile_qr_scan", "android": "https://dc.lft.to/lastmile_qr_scan"}, "lon": -77.02837116666667, "type": "electric_scooter", "fusion_lat": 0.0, "lat": 38.931925666666665, "name": "c62774166eb4a789d1105987becf7fea", "fusion_lon": 0.0, "bike_id": "c62774166eb4a789d1105987becf7fea", "is_disabled": 0, "is_reserved": 0}, {"rental_uris": {"ios": "https://dc.lft.to/lastmile_qr_scan", "android": "https://dc.lft.to/lastmile_qr_scan"}, "lon": -77.024824, "type": "electric_scooter", "fusion_lat": 0.0, "lat": 38.9309495, "name": "dae1072b35ebde9d0009b2e623f2e061", "fusion_lon": 0.0, "bike_id": "dae1072b35ebde9d0009b2e623f2e061", "is_disabled": 0, "is_reserved": 0}, {"rental_uris": {"ios": "https://dc.lft.to/lastmile_qr_scan", "android": "https://dc.lft.to/lastmile_qr_scan"}, "lon": -77.0112895, "type": "electric_scooter", "fusion_lat": 0.0, "lat": 38.8954645, "name": "02690d4fc73a73ad1f8468ea705d4c73", "fusion_lon": 0.0, "bike_id": "02690d4fc73a73ad1f8468ea705d4c73", "is_disabled": 0, "is_reserved": 0}, {"rental_uris": {"ios": "https://dc.lft.to/lastmile_qr_scan", "android": "https://dc.lft.to/lastmile_qr_scan"}, "lon": -77.08198416666667, "type": "electric_scooter", "fusion_lat": 0.0, "lat": 38.949284666666664, "name": "c1361eff8f8bc18dd2cdd89fe2d67107", "fusion_lon": 0.0, "bike_id": "c1361eff8f8bc18dd2cdd89fe2d67107", "is_disabled": 0, "is_reserved": 0}, {"rental_uris": {"ios": "https://dc.lft.to/lastmile_qr_scan", "android": "https://dc.lft.to/lastmile_qr_scan"}, "lon": -76.908186, "type": "electric_bike", "fusion_lat": 0.0, "lat": 38.994539833333334, "name": "0b782b718069c146f0cf2fcd0c085d01", "fusion_lon": 0.0, "bike_id": "0b782b718069c146f0cf2fcd0c085d01", "is_disabled": 0, "is_reserved": 0}, {"rental_uris": {"ios": "https://dc.lft.to/lastmile_qr_scan", "android": "https://dc.lft.to/lastmile_qr_scan"}, "lon": -76.98936633333334, "type": "electric_bike", "fusion_lat": 0.0, "lat": 38.92862866666667, "name": "4a9d7aabae9ff463785f46c5cc819265", "fusion_lon": 0.0, "bike_id": "4a9d7aabae9ff463785f46c5cc819265", "is_disabled": 0, "is_reserved": 0}, {"rental_uris": {"ios": "https://dc.lft.to/lastmile_qr_scan", "android": "https://dc.lft.to/lastmile_qr_scan"}, "lon": -76.96058716666667, "type": "electric_bike", "fusion_lat": 0.0, "lat": 38.884048166666666, "name": "37f1dc27b3a4836d24f7a4e64d9b652c", "fusion_lon": 0.0, "bike_id": "37f1dc27b3a4836d24f7a4e64d9b652c", "is_disabled": 0, "is_reserved": 0}, {"rental_uris": {"ios": "https://dc.lft.to/lastmile_qr_scan", "android": "https://dc.lft.to/lastmile_qr_scan"}, "lon": -77.04817266666667, "type": "electric_scooter", "fusion_lat": 0.0, "lat": 38.91337883333333, "name": "b4775917e836bffe7e563d447b949a7e", "fusion_lon": 0.0, "bike_id": "b4775917e836bffe7e563d447b949a7e", "is_disabled": 0, "is_reserved": 0}, {"rental_uris": {"ios": "https://dc.lft.to/lastmile_qr_scan", "android": "https://dc.lft.to/lastmile_qr_scan"}, "lon": -77.02147416666666, "type": "electric_scooter", "fusion_lat": 0.0, "lat": 38.8971965, "name": "d04efbcb5d4e8674030ace286db2a092", "fusion_lon": 0.0, "bike_id": "d04efbcb5d4e8674030ace286db2a092", "is_disabled": 0, "is_reserved": 0}, {"rental_uris": {"ios": "https://dc.lft.to/lastmile_qr_scan", "android": "https://dc.lft.to/lastmile_qr_scan"}, "lon": -77.03486383333333, "type": "electric_scooter", "fusion_lat": 0.0, "lat": 38.930421, "name": "91109de9fa8602fce3222dd88f2e2902", "fusion_lon": 0.0, "bike_id": "91109de9fa8602fce3222dd88f2e2902", "is_disabled": 0, "is_reserved": 0}, {"rental_uris": {"ios": "https://dc.lft.to/lastmile_qr_scan", "android": "https://dc.lft.to/lastmile_qr_scan"}, "lon": -77.04524533333333, "type": "electric_scooter", "fusion_lat": 0.0, "lat": 38.903566, "name": "f01a522ec85fbc4f16bd4fc02dc1cb6e", "fusion_lon": 0.0, "bike_id": "f01a522ec85fbc4f16bd4fc02dc1cb6e", "is_disabled": 0, "is_reserved": 0}, {"rental_uris": {"ios": "https://dc.lft.to/lastmile_qr_scan", "android": "https://dc.lft.to/lastmile_qr_scan"}, "lon": -77.04942566666666, "type": "electric_scooter", "fusion_lat": 0.0, "lat": 38.89672733333333, "name": "6904152a1d7e8ea6d011818e4e898d5f", "fusion_lon": 0.0, "bike_id": "6904152a1d7e8ea6d011818e4e898d5f", "is_disabled": 0, "is_reserved": 0}, {"rental_uris": {"ios": "https://dc.lft.to/lastmile_qr_scan", "android": "https://dc.lft.to/lastmile_qr_scan"}, "lon": -77.04226666666666, "type": "electric_scooter", "fusion_lat": 0.0, "lat": 38.90819483333333, "name": "bfd5d8edde6da55a36e73552a8b7f9c4", "fusion_lon": 0.0, "bike_id": "bfd5d8edde6da55a36e73552a8b7f9c4", "is_disabled": 0, "is_reserved": 0}, {"rental_uris": {"ios": "https://dc.lft.to/lastmile_qr_scan", "android": "https://dc.lft.to/lastmile_qr_scan"}, "lon": -77.0327205, "type": "electric_scooter", "fusion_lat": 0.0, "lat": 38.93740066666667, "name": "8f52e34f89a1792874d3c0de72bbe4a7", "fusion_lon": 0.0, "bike_id": "8f52e34f89a1792874d3c0de72bbe4a7", "is_disabled": 0, "is_reserved": 0}, {"rental_uris": {"ios": "https://dc.lft.to/lastmile_qr_scan", "android": "https://dc.lft.to/lastmile_qr_scan"}, "lon": -76.99544933333334, "type": "electric_scooter", "fusion_lat": 0.0, "lat": 38.92671566666667, "name": "f9be7845cfd9a8d2876f770cbf28a691", "fusion_lon": 0.0, "bike_id": "f9be7845cfd9a8d2876f770cbf28a691", "is_disabled": 0, "is_reserved": 0}, {"rental_uris": {"ios": "https://dc.lft.to/lastmile_qr_scan", "android": "https://dc.lft.to/lastmile_qr_scan"}, "lon": -77.02615983333334, "type": "electric_scooter", "fusion_lat": 0.0, "lat": 38.91689733333333, "name": "fe99a1c783879fba76c32c9fe499b734", "fusion_lon": 0.0, "bike_id": "fe99a1c783879fba76c32c9fe499b734", "is_disabled": 0, "is_reserved": 0}, {"rental_uris": {"ios": "https://dc.lft.to/lastmile_qr_scan", "android": "https://dc.lft.to/lastmile_qr_scan"}, "lon": -76.98775916666666, "type": "electric_scooter", "fusion_lat": 0.0, "lat": 38.911728, "name": "108135289e9273d11831275810f5f400", "fusion_lon": 0.0, "bike_id": "108135289e9273d11831275810f5f400", "is_disabled": 0, "is_reserved": 0}, {"rental_uris": {"ios": "https://dc.lft.to/lastmile_qr_scan", "android": "https://dc.lft.to/lastmile_qr_scan"}, "lon": -77.083639, "type": "electric_scooter", "fusion_lat": 0.0, "lat": 38.93014633333333, "name": "c486707af34c146d3c9845c483bbef3a", "fusion_lon": 0.0, "bike_id": "c486707af34c146d3c9845c483bbef3a", "is_disabled": 0, "is_reserved": 0}, {"rental_uris": {"ios": "https://dc.lft.to/lastmile_qr_scan", "android": "https://dc.lft.to/lastmile_qr_scan"}, "lon": -77.048264, "type": "electric_scooter", "fusion_lat": 0.0, "lat": 38.896190833333335, "name": "8c2a8c175f433bba61883ee7de14790a", "fusion_lon": 0.0, "bike_id": "8c2a8c175f433bba61883ee7de14790a", "is_disabled": 0, "is_reserved": 0}, {"rental_uris": {"ios": "https://dc.lft.to/lastmile_qr_scan", "android": "https://dc.lft.to/lastmile_qr_scan"}, "lon": -77.02886533333333, "type": "electric_scooter", "fusion_lat": 0.0, "lat": 38.90358916666667, "name": "71b5863eeb98f8be2f25bee603461af8", "fusion_lon": 0.0, "bike_id": "71b5863eeb98f8be2f25bee603461af8", "is_disabled": 0, "is_reserved": 0}, {"rental_uris": {"ios": "https://dc.lft.to/lastmile_qr_scan", "android": "https://dc.lft.to/lastmile_qr_scan"}, "lon": -77.0085325, "type": "electric_scooter", "fusion_lat": 0.0, "lat": 38.925937833333336, "name": "0bc284042ddb10f620bc1ba0293a0594", "fusion_lon": 0.0, "bike_id": "0bc284042ddb10f620bc1ba0293a0594", "is_disabled": 0, "is_reserved": 0}, {"rental_uris": {"ios": "https://dc.lft.to/lastmile_qr_scan", "android": "https://dc.lft.to/lastmile_qr_scan"}, "lon": -77.03067866666666, "type": "electric_scooter", "fusion_lat": 0.0, "lat": 38.93478316666667, "name": "7853840d00d4dee54661f9be706ea829", "fusion_lon": 0.0, "bike_id": "7853840d00d4dee54661f9be706ea829", "is_disabled": 0, "is_reserved": 0}, {"rental_uris": {"ios": "https://dc.lft.to/lastmile_qr_scan", "android": "https://dc.lft.to/lastmile_qr_scan"}, "lon": -77.017586, "type": "electric_scooter", "fusion_lat": 0.0, "lat": 38.938952, "name": "0d6154d3a335aa9d8603dcde7c8e9ae4", "fusion_lon": 0.0, "bike_id": "0d6154d3a335aa9d8603dcde7c8e9ae4", "is_disabled": 0, "is_reserved": 0}, {"rental_uris": {"ios": "https://dc.lft.to/lastmile_qr_scan", "android": "https://dc.lft.to/lastmile_qr_scan"}, "lon": -76.9789055, "type": "electric_scooter", "fusion_lat": 0.0, "lat": 38.91673516666667, "name": "c30d634a7d9d49871d2bc2745df2d9e5", "fusion_lon": 0.0, "bike_id": "c30d634a7d9d49871d2bc2745df2d9e5", "is_disabled": 0, "is_reserved": 0}, {"rental_uris": {"ios": "https://dc.lft.to/lastmile_qr_scan", "android": "https://dc.lft.to/lastmile_qr_scan"}, "lon": -76.93791116666667, "type": "electric_scooter", "fusion_lat": 0.0, "lat": 38.91288516666667, "name": "7e2df693752faac5d22665551d658e7d", "fusion_lon": 0.0, "bike_id": "7e2df693752faac5d22665551d658e7d", "is_disabled": 0, "is_reserved": 0}, {"rental_uris": {"ios": "https://dc.lft.to/lastmile_qr_scan", "android": "https://dc.lft.to/lastmile_qr_scan"}, "lon": -77.12739916666666, "type": "electric_bike", "fusion_lat": 0.0, "lat": 38.888165666666666, "name": "0df410b79d2554a5e5a6e0071d9098fd", "fusion_lon": 0.0, "bike_id": "0df410b79d2554a5e5a6e0071d9098fd", "is_disabled": 0, "is_reserved": 0}, {"rental_uris": {"ios": "https://dc.lft.to/lastmile_qr_scan", "android": "https://dc.lft.to/lastmile_qr_scan"}, "lon": -77.05375133333334, "type": "electric_scooter", "fusion_lat": 0.0, "lat": 38.9024775, "name": "554652d17d41f9fad362a9acf35e432f", "fusion_lon": 0.0, "bike_id": "554652d17d41f9fad362a9acf35e432f", "is_disabled": 0, "is_reserved": 0}, {"rental_uris": {"ios": "https://dc.lft.to/lastmile_qr_scan", "android": "https://dc.lft.to/lastmile_qr_scan"}, "lon": -76.9927905, "type": "electric_scooter", "fusion_lat": 0.0, "lat": 38.9213345, "name": "67210ab2d1104a8fd99c1b39d9f6860b", "fusion_lon": 0.0, "bike_id": "67210ab2d1104a8fd99c1b39d9f6860b", "is_disabled": 0, "is_reserved": 0}, {"rental_uris": {"ios": "https://dc.lft.to/lastmile_qr_scan", "android": "https://dc.lft.to/lastmile_qr_scan"}, "lon": -77.026842, "type": "electric_scooter", "fusion_lat": 0.0, "lat": 38.9071865, "name": "e2e6ef9b36cd78a2768df873fb8ece53", "fusion_lon": 0.0, "bike_id": "e2e6ef9b36cd78a2768df873fb8ece53", "is_disabled": 0, "is_reserved": 0}, {"rental_uris": {"ios": "https://dc.lft.to/lastmile_qr_scan", "android": "https://dc.lft.to/lastmile_qr_scan"}, "lon": -76.98867733333333, "type": "electric_scooter", "fusion_lat": 0.0, "lat": 38.8323635, "name": "2f892807931f4907379f3e22a8356297", "fusion_lon": 0.0, "bike_id": "2f892807931f4907379f3e22a8356297", "is_disabled": 0, "is_reserved": 0}, {"rental_uris": {"ios": "https://dc.lft.to/lastmile_qr_scan", "android": "https://dc.lft.to/lastmile_qr_scan"}, "lon": -77.01768783333333, "type": "electric_scooter", "fusion_lat": 0.0, "lat": 38.90573466666667, "name": "099152d59f8f98720d1c19a10b6334b2", "fusion_lon": 0.0, "bike_id": "099152d59f8f98720d1c19a10b6334b2", "is_disabled": 0, "is_reserved": 0}, {"rental_uris": {"ios": "https://dc.lft.to/lastmile_qr_scan", "android": "https://dc.lft.to/lastmile_qr_scan"}, "lon": -77.02949766666667, "type": "electric_scooter", "fusion_lat": 0.0, "lat": 38.916768833333336, "name": "d684905db801f6f79a9676ea1d87e9f2", "fusion_lon": 0.0, "bike_id": "d684905db801f6f79a9676ea1d87e9f2", "is_disabled": 0, "is_reserved": 0}, {"rental_uris": {"ios": "https://dc.lft.to/lastmile_qr_scan", "android": "https://dc.lft.to/lastmile_qr_scan"}, "lon": -77.06404, "type": "electric_bike", "fusion_lat": 0.0, "lat": 38.8434825, "name": "49086e6cf1c5146a218c60895762e9c6", "fusion_lon": 0.0, "bike_id": "49086e6cf1c5146a218c60895762e9c6", "is_disabled": 0, "is_reserved": 0}, {"rental_uris": {"ios": "https://dc.lft.to/lastmile_qr_scan", "android": "https://dc.lft.to/lastmile_qr_scan"}, "lon": -77.01780916666667, "type": "electric_scooter", "fusion_lat": 0.0, "lat": 38.904055, "name": "74292c6a60d7d75526c0a6c27c7372a0", "fusion_lon": 0.0, "bike_id": "74292c6a60d7d75526c0a6c27c7372a0", "is_disabled": 0, "is_reserved": 0}, {"rental_uris": {"ios": "https://dc.lft.to/lastmile_qr_scan", "android": "https://dc.lft.to/lastmile_qr_scan"}, "lon": -77.0221595, "type": "electric_scooter", "fusion_lat": 0.0, "lat": 38.91268683333333, "name": "28ce46454c2f43e3487f3d5f433c0bf2", "fusion_lon": 0.0, "bike_id": "28ce46454c2f43e3487f3d5f433c0bf2", "is_disabled": 0, "is_reserved": 0}, {"rental_uris": {"ios": "https://dc.lft.to/lastmile_qr_scan", "android": "https://dc.lft.to/lastmile_qr_scan"}, "lon": -76.93377833333334, "type": "electric_scooter", "fusion_lat": 0.0, "lat": 38.899125833333336, "name": "6d5626639628f3f309a1e22bbed6cba3", "fusion_lon": 0.0, "bike_id": "6d5626639628f3f309a1e22bbed6cba3", "is_disabled": 0, "is_reserved": 0}, {"rental_uris": {"ios": "https://dc.lft.to/lastmile_qr_scan", "android": "https://dc.lft.to/lastmile_qr_scan"}, "lon": -77.03877716666666, "type": "electric_scooter", "fusion_lat": 0.0, "lat": 38.9343575, "name": "ec0924ad4c62a806488ea46b84f3a634", "fusion_lon": 0.0, "bike_id": "ec0924ad4c62a806488ea46b84f3a634", "is_disabled": 0, "is_reserved": 0}, {"rental_uris": {"ios": "https://dc.lft.to/lastmile_qr_scan", "android": "https://dc.lft.to/lastmile_qr_scan"}, "lon": -77.03669916666666, "type": "electric_scooter", "fusion_lat": 0.0, "lat": 38.918197, "name": "d32e78638ff8fd21aae85737d32d2022", "fusion_lon": 0.0, "bike_id": "d32e78638ff8fd21aae85737d32d2022", "is_disabled": 0, "is_reserved": 0}, {"rental_uris": {"ios": "https://dc.lft.to/lastmile_qr_scan", "android": "https://dc.lft.to/lastmile_qr_scan"}, "lon": -76.936329, "type": "electric_scooter", "fusion_lat": 0.0, "lat": 38.88988783333333, "name": "dd3084374700db3162ddcf3def2303cd", "fusion_lon": 0.0, "bike_id": "dd3084374700db3162ddcf3def2303cd", "is_disabled": 0, "is_reserved": 0}, {"rental_uris": {"ios": "https://dc.lft.to/lastmile_qr_scan", "android": "https://dc.lft.to/lastmile_qr_scan"}, "lon": -77.03441066666667, "type": "electric_scooter", "fusion_lat": 0.0, "lat": 38.902864666666666, "name": "81f3a0c3326cbba649771d5728a502cf", "fusion_lon": 0.0, "bike_id": "81f3a0c3326cbba649771d5728a502cf", "is_disabled": 0, "is_reserved": 0}, {"rental_uris": {"ios": "https://dc.lft.to/lastmile_qr_scan", "android": "https://dc.lft.to/lastmile_qr_scan"}, "lon": -77.014282, "type": "electric_scooter", "fusion_lat": 0.0, "lat": 38.917027, "name": "972455aaa5841c99ef9fcc137c7adaa1", "fusion_lon": 0.0, "bike_id": "972455aaa5841c99ef9fcc137c7adaa1", "is_disabled": 0, "is_reserved": 0}, {"rental_uris": {"ios": "https://dc.lft.to/lastmile_qr_scan", "android": "https://dc.lft.to/lastmile_qr_scan"}, "lon": -77.02582316666667, "type": "electric_scooter", "fusion_lat": 0.0, "lat": 38.9020905, "name": "f767d2fcf6b00f6a1f7c3531559f93d4", "fusion_lon": 0.0, "bike_id": "f767d2fcf6b00f6a1f7c3531559f93d4", "is_disabled": 0, "is_reserved": 0}, {"rental_uris": {"ios": "https://dc.lft.to/lastmile_qr_scan", "android": "https://dc.lft.to/lastmile_qr_scan"}, "lon": -77.04133533333334, "type": "electric_scooter", "fusion_lat": 0.0, "lat": 38.9221005, "name": "f5a614a9435f0f8347b112812de91ac5", "fusion_lon": 0.0, "bike_id": "f5a614a9435f0f8347b112812de91ac5", "is_disabled": 0, "is_reserved": 0}, {"rental_uris": {"ios": "https://dc.lft.to/lastmile_qr_scan", "android": "https://dc.lft.to/lastmile_qr_scan"}, "lon": -76.999503, "type": "electric_scooter", "fusion_lat": 0.0, "lat": 38.8429315, "name": "e6cb9c300d0e26322a7b80857dc495a1", "fusion_lon": 0.0, "bike_id": "e6cb9c300d0e26322a7b80857dc495a1", "is_disabled": 0, "is_reserved": 0}, {"rental_uris": {"ios": "https://dc.lft.to/lastmile_qr_scan", "android": "https://dc.lft.to/lastmile_qr_scan"}, "lon": -77.04511083333334, "type": "electric_scooter", "fusion_lat": 0.0, "lat": 38.912878, "name": "230f4ce172e48b96cb966909a3365b61", "fusion_lon": 0.0, "bike_id": "230f4ce172e48b96cb966909a3365b61", "is_disabled": 0, "is_reserved": 0}, {"rental_uris": {"ios": "https://dc.lft.to/lastmile_qr_scan", "android": "https://dc.lft.to/lastmile_qr_scan"}, "lon": -77.03959416666666, "type": "electric_scooter", "fusion_lat": 0.0, "lat": 38.9026785, "name": "b93066aaf628baae7e9606b745acd37b", "fusion_lon": 0.0, "bike_id": "b93066aaf628baae7e9606b745acd37b", "is_disabled": 0, "is_reserved": 0}, {"rental_uris": {"ios": "https://dc.lft.to/lastmile_qr_scan", "android": "https://dc.lft.to/lastmile_qr_scan"}, "lon": -77.023702, "type": "electric_bike", "fusion_lat": 0.0, "lat": 38.9943975, "name": "409b81818497e27dc797b76d7f21cb7e", "fusion_lon": 0.0, "bike_id": "409b81818497e27dc797b76d7f21cb7e", "is_disabled": 0, "is_reserved": 0}, {"rental_uris": {"ios": "https://dc.lft.to/lastmile_qr_scan", "android": "https://dc.lft.to/lastmile_qr_scan"}, "lon": -77.06889533333333, "type": "electric_scooter", "fusion_lat": 0.0, "lat": 38.94031533333333, "name": "2e9209458f49c1ee06cf7211ac880f94", "fusion_lon": 0.0, "bike_id": "2e9209458f49c1ee06cf7211ac880f94", "is_disabled": 0, "is_reserved": 0}, {"rental_uris": {"ios": "https://dc.lft.to/lastmile_qr_scan", "android": "https://dc.lft.to/lastmile_qr_scan"}, "lon": -77.06373583333334, "type": "electric_scooter", "fusion_lat": 0.0, "lat": 38.909315, "name": "cedb65d44e9b3cb6b542032d6ab26657", "fusion_lon": 0.0, "bike_id": "cedb65d44e9b3cb6b542032d6ab26657", "is_disabled": 0, "is_reserved": 0}, {"rental_uris": {"ios": "https://dc.lft.to/lastmile_qr_scan", "android": "https://dc.lft.to/lastmile_qr_scan"}, "lon": -77.0163375, "type": "electric_scooter", "fusion_lat": 0.0, "lat": 38.903644666666665, "name": "915ef9a9556494407d63735c0195f2c3", "fusion_lon": 0.0, "bike_id": "915ef9a9556494407d63735c0195f2c3", "is_disabled": 0, "is_reserved": 0}, {"rental_uris": {"ios": "https://dc.lft.to/lastmile_qr_scan", "android": "https://dc.lft.to/lastmile_qr_scan"}, "lon": -77.070507, "type": "electric_bike", "fusion_lat": 0.0, "lat": 38.824479833333335, "name": "f4305befbe239f6eea676d9c9aa3acc0", "fusion_lon": 0.0, "bike_id": "f4305befbe239f6eea676d9c9aa3acc0", "is_disabled": 0, "is_reserved": 0}, {"rental_uris": {"ios": "https://dc.lft.to/lastmile_qr_scan", "android": "https://dc.lft.to/lastmile_qr_scan"}, "lon": -77.04064283333334, "type": "electric_scooter", "fusion_lat": 0.0, "lat": 38.92653333333333, "name": "6442c6daadb706d2b03f5045e60100a8", "fusion_lon": 0.0, "bike_id": "6442c6daadb706d2b03f5045e60100a8", "is_disabled": 0, "is_reserved": 0}, {"rental_uris": {"ios": "https://dc.lft.to/lastmile_qr_scan", "android": "https://dc.lft.to/lastmile_qr_scan"}, "lon": -77.00929433333333, "type": "electric_scooter", "fusion_lat": 0.0, "lat": 38.87195633333333, "name": "2e9b2e4d8a20f9ffdfeeaadd6f56edb8", "fusion_lon": 0.0, "bike_id": "2e9b2e4d8a20f9ffdfeeaadd6f56edb8", "is_disabled": 0, "is_reserved": 0}, {"rental_uris": {"ios": "https://dc.lft.to/lastmile_qr_scan", "android": "https://dc.lft.to/lastmile_qr_scan"}, "lon": -77.00231616666666, "type": "electric_scooter", "fusion_lat": 0.0, "lat": 38.9083335, "name": "b4002821b0ac590e8bf77fad2435cd47", "fusion_lon": 0.0, "bike_id": "b4002821b0ac590e8bf77fad2435cd47", "is_disabled": 0, "is_reserved": 0}, {"rental_uris": {"ios": "https://dc.lft.to/lastmile_qr_scan", "android": "https://dc.lft.to/lastmile_qr_scan"}, "lon": -77.05523133333334, "type": "electric_scooter", "fusion_lat": 0.0, "lat": 38.897276166666664, "name": "0fc90611787da1ed4c41045c50a8be7f", "fusion_lon": 0.0, "bike_id": "0fc90611787da1ed4c41045c50a8be7f", "is_disabled": 0, "is_reserved": 0}, {"rental_uris": {"ios": "https://dc.lft.to/lastmile_qr_scan", "android": "https://dc.lft.to/lastmile_qr_scan"}, "lon": -77.03651583333334, "type": "electric_scooter", "fusion_lat": 0.0, "lat": 38.902745, "name": "5b7658fcab9c6e0a6e33c69f8fe6ba69", "fusion_lon": 0.0, "bike_id": "5b7658fcab9c6e0a6e33c69f8fe6ba69", "is_disabled": 0, "is_reserved": 0}, {"rental_uris": {"ios": "https://dc.lft.to/lastmile_qr_scan", "android": "https://dc.lft.to/lastmile_qr_scan"}, "lon": -77.129574, "type": "electric_bike", "fusion_lat": 0.0, "lat": 38.80794133333333, "name": "c94ca20366745fde75924e8bac266b6d", "fusion_lon": 0.0, "bike_id": "c94ca20366745fde75924e8bac266b6d", "is_disabled": 0, "is_reserved": 0}, {"rental_uris": {"ios": "https://dc.lft.to/lastmile_qr_scan", "android": "https://dc.lft.to/lastmile_qr_scan"}, "lon": -77.01293866666667, "type": "electric_bike", "fusion_lat": 0.0, "lat": 39.00386016666667, "name": "452a45b36d017c0e39834b24365faa27", "fusion_lon": 0.0, "bike_id": "452a45b36d017c0e39834b24365faa27", "is_disabled": 0, "is_reserved": 0}, {"rental_uris": {"ios": "https://dc.lft.to/lastmile_qr_scan", "android": "https://dc.lft.to/lastmile_qr_scan"}, "lon": -77.04673316666667, "type": "electric_scooter", "fusion_lat": 0.0, "lat": 38.93301916666667, "name": "a6e3ef29181593a2c1f7faca999b6136", "fusion_lon": 0.0, "bike_id": "a6e3ef29181593a2c1f7faca999b6136", "is_disabled": 0, "is_reserved": 0}, {"rental_uris": {"ios": "https://dc.lft.to/lastmile_qr_scan", "android": "https://dc.lft.to/lastmile_qr_scan"}, "lon": -77.0243335, "type": "electric_scooter", "fusion_lat": 0.0, "lat": 38.91550616666667, "name": "dad3e54a48c9de2c02f89a6a7c4c48e4", "fusion_lon": 0.0, "bike_id": "dad3e54a48c9de2c02f89a6a7c4c48e4", "is_disabled": 0, "is_reserved": 0}, {"rental_uris": {"ios": "https://dc.lft.to/lastmile_qr_scan", "android": "https://dc.lft.to/lastmile_qr_scan"}, "lon": -76.9324665, "type": "electric_scooter", "fusion_lat": 0.0, "lat": 38.89403183333334, "name": "7e5c4152a99ad6c43bca0f4e47190217", "fusion_lon": 0.0, "bike_id": "7e5c4152a99ad6c43bca0f4e47190217", "is_disabled": 0, "is_reserved": 0}, {"rental_uris": {"ios": "https://dc.lft.to/lastmile_qr_scan", "android": "https://dc.lft.to/lastmile_qr_scan"}, "lon": -77.01581783333333, "type": "electric_scooter", "fusion_lat": 0.0, "lat": 38.901853333333335, "name": "1e7a9be01caf5c73344372dcb7eb9160", "fusion_lon": 0.0, "bike_id": "1e7a9be01caf5c73344372dcb7eb9160", "is_disabled": 0, "is_reserved": 0}, {"rental_uris": {"ios": "https://dc.lft.to/lastmile_qr_scan", "android": "https://dc.lft.to/lastmile_qr_scan"}, "lon": -77.03352566666666, "type": "electric_scooter", "fusion_lat": 0.0, "lat": 38.895322666666665, "name": "687cdc0ddc6413a29bb2cc84935121b5", "fusion_lon": 0.0, "bike_id": "687cdc0ddc6413a29bb2cc84935121b5", "is_disabled": 0, "is_reserved": 0}, {"rental_uris": {"ios": "https://dc.lft.to/lastmile_qr_scan", "android": "https://dc.lft.to/lastmile_qr_scan"}, "lon": -77.0247505, "type": "electric_scooter", "fusion_lat": 0.0, "lat": 38.937609, "name": "80f3fb3d6d3a305b73a24259d93c3242", "fusion_lon": 0.0, "bike_id": "80f3fb3d6d3a305b73a24259d93c3242", "is_disabled": 0, "is_reserved": 0}, {"rental_uris": {"ios": "https://dc.lft.to/lastmile_qr_scan", "android": "https://dc.lft.to/lastmile_qr_scan"}, "lon": -76.99074883333333, "type": "electric_scooter", "fusion_lat": 0.0, "lat": 38.86361266666667, "name": "06f9eaf8ccce3ec9e381b999607f6563", "fusion_lon": 0.0, "bike_id": "06f9eaf8ccce3ec9e381b999607f6563", "is_disabled": 0, "is_reserved": 0}, {"rental_uris": {"ios": "https://dc.lft.to/lastmile_qr_scan", "android": "https://dc.lft.to/lastmile_qr_scan"}, "lon": -77.03669916666666, "type": "electric_scooter", "fusion_lat": 0.0, "lat": 38.9029005, "name": "5c3373635b079cbcb7f6b93b8de69e4c", "fusion_lon": 0.0, "bike_id": "5c3373635b079cbcb7f6b93b8de69e4c", "is_disabled": 0, "is_reserved": 0}, {"rental_uris": {"ios": "https://dc.lft.to/lastmile_qr_scan", "android": "https://dc.lft.to/lastmile_qr_scan"}, "lon": -77.04495133333333, "type": "electric_scooter", "fusion_lat": 0.0, "lat": 38.911003666666666, "name": "178be47c276c0797465f700d3ec25441", "fusion_lon": 0.0, "bike_id": "178be47c276c0797465f700d3ec25441", "is_disabled": 0, "is_reserved": 0}, {"rental_uris": {"ios": "https://dc.lft.to/lastmile_qr_scan", "android": "https://dc.lft.to/lastmile_qr_scan"}, "lon": -77.0303945, "type": "electric_scooter", "fusion_lat": 0.0, "lat": 38.8960135, "name": "0bd51f314cb7239cb7fee47aeddf3d51", "fusion_lon": 0.0, "bike_id": "0bd51f314cb7239cb7fee47aeddf3d51", "is_disabled": 0, "is_reserved": 0}, {"rental_uris": {"ios": "https://dc.lft.to/lastmile_qr_scan", "android": "https://dc.lft.to/lastmile_qr_scan"}, "lon": -77.08392566666667, "type": "electric_scooter", "fusion_lat": 0.0, "lat": 38.960967833333335, "name": "86b299beb66dc288897060a278b3c4d6", "fusion_lon": 0.0, "bike_id": "86b299beb66dc288897060a278b3c4d6", "is_disabled": 0, "is_reserved": 0}, {"rental_uris": {"ios": "https://dc.lft.to/lastmile_qr_scan", "android": "https://dc.lft.to/lastmile_qr_scan"}, "lon": -77.04646216666667, "type": "electric_bike", "fusion_lat": 0.0, "lat": 38.8521185, "name": "5a555b2e42e2c13dee9e24ce35a27016", "fusion_lon": 0.0, "bike_id": "5a555b2e42e2c13dee9e24ce35a27016", "is_disabled": 0, "is_reserved": 0}, {"rental_uris": {"ios": "https://dc.lft.to/lastmile_qr_scan", "android": "https://dc.lft.to/lastmile_qr_scan"}, "lon": -77.049001, "type": "electric_scooter", "fusion_lat": 0.0, "lat": 38.9019795, "name": "c1f78f55eac3e30b9c215f5220a57c95", "fusion_lon": 0.0, "bike_id": "c1f78f55eac3e30b9c215f5220a57c95", "is_disabled": 0, "is_reserved": 0}, {"rental_uris": {"ios": "https://dc.lft.to/lastmile_qr_scan", "android": "https://dc.lft.to/lastmile_qr_scan"}, "lon": -77.03926033333333, "type": "electric_scooter", "fusion_lat": 0.0, "lat": 38.921098666666666, "name": "797021656f49ac26eb12e35c22f170f7", "fusion_lon": 0.0, "bike_id": "797021656f49ac26eb12e35c22f170f7", "is_disabled": 0, "is_reserved": 0}, {"rental_uris": {"ios": "https://dc.lft.to/lastmile_qr_scan", "android": "https://dc.lft.to/lastmile_qr_scan"}, "lon": -77.04217, "type": "electric_scooter", "fusion_lat": 0.0, "lat": 38.92115866666666, "name": "300fd5ed38db6dd9ffc0cfddd0b94f67", "fusion_lon": 0.0, "bike_id": "300fd5ed38db6dd9ffc0cfddd0b94f67", "is_disabled": 0, "is_reserved": 0}, {"rental_uris": {"ios": "https://dc.lft.to/lastmile_qr_scan", "android": "https://dc.lft.to/lastmile_qr_scan"}, "lon": -76.94420416666667, "type": "electric_scooter", "fusion_lat": 0.0, "lat": 38.897894666666666, "name": "4bceae33b2ea7cab2b41c90078883c9a", "fusion_lon": 0.0, "bike_id": "4bceae33b2ea7cab2b41c90078883c9a", "is_disabled": 0, "is_reserved": 0}, {"rental_uris": {"ios": "https://dc.lft.to/lastmile_qr_scan", "android": "https://dc.lft.to/lastmile_qr_scan"}, "lon": -77.0649665, "type": "electric_bike", "fusion_lat": 0.0, "lat": 38.964923666666664, "name": "9a6a34c52beaf27cbf9c04c7ad94f04f", "fusion_lon": 0.0, "bike_id": "9a6a34c52beaf27cbf9c04c7ad94f04f", "is_disabled": 0, "is_reserved": 0}, {"rental_uris": {"ios": "https://dc.lft.to/lastmile_qr_scan", "android": "https://dc.lft.to/lastmile_qr_scan"}, "lon": -76.98342, "type": "electric_scooter", "fusion_lat": 0.0, "lat": 38.91540166666667, "name": "9750bcd2f6d475b3e7b9a72e3f4a4d23", "fusion_lon": 0.0, "bike_id": "9750bcd2f6d475b3e7b9a72e3f4a4d23", "is_disabled": 0, "is_reserved": 0}, {"rental_uris": {"ios": "https://dc.lft.to/lastmile_qr_scan", "android": "https://dc.lft.to/lastmile_qr_scan"}, "lon": -77.03446133333334, "type": "electric_scooter", "fusion_lat": 0.0, "lat": 38.9188, "name": "096d390f5a736a8835484b86b8831aa5", "fusion_lon": 0.0, "bike_id": "096d390f5a736a8835484b86b8831aa5", "is_disabled": 0, "is_reserved": 0}, {"rental_uris": {"ios": "https://dc.lft.to/lastmile_qr_scan", "android": "https://dc.lft.to/lastmile_qr_scan"}, "lon": -77.03134, "type": "electric_scooter", "fusion_lat": 0.0, "lat": 38.92373033333333, "name": "2968e4c2f63a6fcb88a231e1d29c30a0", "fusion_lon": 0.0, "bike_id": "2968e4c2f63a6fcb88a231e1d29c30a0", "is_disabled": 0, "is_reserved": 0}, {"rental_uris": {"ios": "https://dc.lft.to/lastmile_qr_scan", "android": "https://dc.lft.to/lastmile_qr_scan"}, "lon": -77.02596716666666, "type": "electric_scooter", "fusion_lat": 0.0, "lat": 38.920319166666665, "name": "4c7a3fa25ec38cdad64aa28a1891887e", "fusion_lon": 0.0, "bike_id": "4c7a3fa25ec38cdad64aa28a1891887e", "is_disabled": 0, "is_reserved": 0}, {"rental_uris": {"ios": "https://dc.lft.to/lastmile_qr_scan", "android": "https://dc.lft.to/lastmile_qr_scan"}, "lon": -77.04146166666666, "type": "electric_scooter", "fusion_lat": 0.0, "lat": 38.922959166666665, "name": "c534890d7b3d80c6062000c04f39f07c", "fusion_lon": 0.0, "bike_id": "c534890d7b3d80c6062000c04f39f07c", "is_disabled": 0, "is_reserved": 0}, {"rental_uris": {"ios": "https://dc.lft.to/lastmile_qr_scan", "android": "https://dc.lft.to/lastmile_qr_scan"}, "lon": -76.993798, "type": "electric_scooter", "fusion_lat": 0.0, "lat": 38.88745083333333, "name": "dd0720c17695fb324d4918d193c567f8", "fusion_lon": 0.0, "bike_id": "dd0720c17695fb324d4918d193c567f8", "is_disabled": 0, "is_reserved": 0}, {"rental_uris": {"ios": "https://dc.lft.to/lastmile_qr_scan", "android": "https://dc.lft.to/lastmile_qr_scan"}, "lon": -77.03224866666666, "type": "electric_scooter", "fusion_lat": 0.0, "lat": 38.926710166666666, "name": "1ac7c967e8820322bffa5dc9202794d3", "fusion_lon": 0.0, "bike_id": "1ac7c967e8820322bffa5dc9202794d3", "is_disabled": 0, "is_reserved": 0}, {"rental_uris": {"ios": "https://dc.lft.to/lastmile_qr_scan", "android": "https://dc.lft.to/lastmile_qr_scan"}, "lon": -77.00141533333333, "type": "electric_scooter", "fusion_lat": 0.0, "lat": 38.9191735, "name": "374d445f2ebdd27d892c56b370c5bcac", "fusion_lon": 0.0, "bike_id": "374d445f2ebdd27d892c56b370c5bcac", "is_disabled": 0, "is_reserved": 0}, {"rental_uris": {"ios": "https://dc.lft.to/lastmile_qr_scan", "android": "https://dc.lft.to/lastmile_qr_scan"}, "lon": -77.0329225, "type": "electric_scooter", "fusion_lat": 0.0, "lat": 38.934887833333335, "name": "709cb07359a3dd5bc07fc0e068bd0a59", "fusion_lon": 0.0, "bike_id": "709cb07359a3dd5bc07fc0e068bd0a59", "is_disabled": 0, "is_reserved": 0}, {"rental_uris": {"ios": "https://dc.lft.to/lastmile_qr_scan", "android": "https://dc.lft.to/lastmile_qr_scan"}, "lon": -77.0222985, "type": "electric_scooter", "fusion_lat": 0.0, "lat": 38.891958, "name": "f472b194a8392c8e70debc3977cee2e2", "fusion_lon": 0.0, "bike_id": "f472b194a8392c8e70debc3977cee2e2", "is_disabled": 0, "is_reserved": 0}, {"rental_uris": {"ios": "https://dc.lft.to/lastmile_qr_scan", "android": "https://dc.lft.to/lastmile_qr_scan"}, "lon": -77.04245933333333, "type": "electric_scooter", "fusion_lat": 0.0, "lat": 38.92055883333333, "name": "441d75fb87dc5851a4f1f20611429bec", "fusion_lon": 0.0, "bike_id": "441d75fb87dc5851a4f1f20611429bec", "is_disabled": 0, "is_reserved": 0}, {"rental_uris": {"ios": "https://dc.lft.to/lastmile_qr_scan", "android": "https://dc.lft.to/lastmile_qr_scan"}, "lon": -77.03715366666667, "type": "electric_scooter", "fusion_lat": 0.0, "lat": 38.92627483333333, "name": "1cb7c62ce9806ac7f0b70c70bdd4bda5", "fusion_lon": 0.0, "bike_id": "1cb7c62ce9806ac7f0b70c70bdd4bda5", "is_disabled": 0, "is_reserved": 0}, {"rental_uris": {"ios": "https://dc.lft.to/lastmile_qr_scan", "android": "https://dc.lft.to/lastmile_qr_scan"}, "lon": -76.985634, "type": "electric_scooter", "fusion_lat": 0.0, "lat": 38.89952683333333, "name": "80969b4119d6ee13b8585a615b38593e", "fusion_lon": 0.0, "bike_id": "80969b4119d6ee13b8585a615b38593e", "is_disabled": 0, "is_reserved": 0}, {"rental_uris": {"ios": "https://dc.lft.to/lastmile_qr_scan", "android": "https://dc.lft.to/lastmile_qr_scan"}, "lon": -76.98596983333333, "type": "electric_bike", "fusion_lat": 0.0, "lat": 38.90618966666667, "name": "3fbaea9961bc1a7e04bddbaf69c25e52", "fusion_lon": 0.0, "bike_id": "3fbaea9961bc1a7e04bddbaf69c25e52", "is_disabled": 0, "is_reserved": 0}, {"rental_uris": {"ios": "https://dc.lft.to/lastmile_qr_scan", "android": "https://dc.lft.to/lastmile_qr_scan"}, "lon": -77.096784, "type": "electric_scooter", "fusion_lat": 0.0, "lat": 38.9177415, "name": "0a4f2c5cbd9859c7d863dcfa02f789e5", "fusion_lon": 0.0, "bike_id": "0a4f2c5cbd9859c7d863dcfa02f789e5", "is_disabled": 0, "is_reserved": 0}, {"rental_uris": {"ios": "https://dc.lft.to/lastmile_qr_scan", "android": "https://dc.lft.to/lastmile_qr_scan"}, "lon": -77.032236, "type": "electric_scooter", "fusion_lat": 0.0, "lat": 38.908649, "name": "7580027ee247bf8d8353f7f107e370f8", "fusion_lon": 0.0, "bike_id": "7580027ee247bf8d8353f7f107e370f8", "is_disabled": 0, "is_reserved": 0}, {"rental_uris": {"ios": "https://dc.lft.to/lastmile_qr_scan", "android": "https://dc.lft.to/lastmile_qr_scan"}, "lon": -77.01390933333333, "type": "electric_scooter", "fusion_lat": 0.0, "lat": 38.919422833333336, "name": "b3786124ccb4e767149520c5e686fde3", "fusion_lon": 0.0, "bike_id": "b3786124ccb4e767149520c5e686fde3", "is_disabled": 0, "is_reserved": 0}, {"rental_uris": {"ios": "https://dc.lft.to/lastmile_qr_scan", "android": "https://dc.lft.to/lastmile_qr_scan"}, "lon": -76.98881016666667, "type": "electric_scooter", "fusion_lat": 0.0, "lat": 38.86662333333334, "name": "019a7498c70c723870dd81c03529c74a", "fusion_lon": 0.0, "bike_id": "019a7498c70c723870dd81c03529c74a", "is_disabled": 0, "is_reserved": 0}, {"rental_uris": {"ios": "https://dc.lft.to/lastmile_qr_scan", "android": "https://dc.lft.to/lastmile_qr_scan"}, "lon": -77.037053, "type": "electric_scooter", "fusion_lat": 0.0, "lat": 38.92624433333334, "name": "3dde5baea94ad4e403bf44b942ae2638", "fusion_lon": 0.0, "bike_id": "3dde5baea94ad4e403bf44b942ae2638", "is_disabled": 0, "is_reserved": 0}, {"rental_uris": {"ios": "https://dc.lft.to/lastmile_qr_scan", "android": "https://dc.lft.to/lastmile_qr_scan"}, "lon": -76.97708133333333, "type": "electric_scooter", "fusion_lat": 0.0, "lat": 38.902451, "name": "89a33b75fad5a4095b9342825bf31ce2", "fusion_lon": 0.0, "bike_id": "89a33b75fad5a4095b9342825bf31ce2", "is_disabled": 0, "is_reserved": 0}, {"rental_uris": {"ios": "https://dc.lft.to/lastmile_qr_scan", "android": "https://dc.lft.to/lastmile_qr_scan"}, "lon": -76.93748983333333, "type": "electric_scooter", "fusion_lat": 0.0, "lat": 38.91287233333333, "name": "c09c4ed9a4f3070fa98d411b02102931", "fusion_lon": 0.0, "bike_id": "c09c4ed9a4f3070fa98d411b02102931", "is_disabled": 0, "is_reserved": 0}, {"rental_uris": {"ios": "https://dc.lft.to/lastmile_qr_scan", "android": "https://dc.lft.to/lastmile_qr_scan"}, "lon": -77.08196566666666, "type": "electric_bike", "fusion_lat": 0.0, "lat": 38.921986, "name": "a5dfd1e2efa890f3a0a652cbb8c109e5", "fusion_lon": 0.0, "bike_id": "a5dfd1e2efa890f3a0a652cbb8c109e5", "is_disabled": 0, "is_reserved": 0}, {"rental_uris": {"ios": "https://dc.lft.to/lastmile_qr_scan", "android": "https://dc.lft.to/lastmile_qr_scan"}, "lon": -77.02852366666667, "type": "electric_scooter", "fusion_lat": 0.0, "lat": 38.923835, "name": "eafb09fc938071b2613e1a55e746d36c", "fusion_lon": 0.0, "bike_id": "eafb09fc938071b2613e1a55e746d36c", "is_disabled": 0, "is_reserved": 0}, {"rental_uris": {"ios": "https://dc.lft.to/lastmile_qr_scan", "android": "https://dc.lft.to/lastmile_qr_scan"}, "lon": -77.04711433333334, "type": "electric_scooter", "fusion_lat": 0.0, "lat": 38.90856383333333, "name": "00926dba1b40d82c9cf25948cc44b954", "fusion_lon": 0.0, "bike_id": "00926dba1b40d82c9cf25948cc44b954", "is_disabled": 0, "is_reserved": 0}, {"rental_uris": {"ios": "https://dc.lft.to/lastmile_qr_scan", "android": "https://dc.lft.to/lastmile_qr_scan"}, "lon": -76.9761575, "type": "electric_bike", "fusion_lat": 0.0, "lat": 38.913130333333335, "name": "2aa306c5474da331baa6946103645629", "fusion_lon": 0.0, "bike_id": "2aa306c5474da331baa6946103645629", "is_disabled": 0, "is_reserved": 0}, {"rental_uris": {"ios": "https://dc.lft.to/lastmile_qr_scan", "android": "https://dc.lft.to/lastmile_qr_scan"}, "lon": -77.0660785, "type": "electric_bike", "fusion_lat": 0.0, "lat": 38.9113245, "name": "d928f414be53a35f3efed1d76efd7512", "fusion_lon": 0.0, "bike_id": "d928f414be53a35f3efed1d76efd7512", "is_disabled": 0, "is_reserved": 0}, {"rental_uris": {"ios": "https://dc.lft.to/lastmile_qr_scan", "android": "https://dc.lft.to/lastmile_qr_scan"}, "lon": -77.038683, "type": "electric_scooter", "fusion_lat": 0.0, "lat": 38.91560033333333, "name": "535f24581fec64bf3b7f1a8f42826a01", "fusion_lon": 0.0, "bike_id": "535f24581fec64bf3b7f1a8f42826a01", "is_disabled": 0, "is_reserved": 0}, {"rental_uris": {"ios": "https://dc.lft.to/lastmile_qr_scan", "android": "https://dc.lft.to/lastmile_qr_scan"}, "lon": -77.06691583333334, "type": "electric_scooter", "fusion_lat": 0.0, "lat": 38.90969883333333, "name": "595c12b5082ba9574637dcff1e4dbcd8", "fusion_lon": 0.0, "bike_id": "595c12b5082ba9574637dcff1e4dbcd8", "is_disabled": 0, "is_reserved": 0}, {"rental_uris": {"ios": "https://dc.lft.to/lastmile_qr_scan", "android": "https://dc.lft.to/lastmile_qr_scan"}, "lon": -77.03518516666666, "type": "electric_scooter", "fusion_lat": 0.0, "lat": 38.92336133333333, "name": "996bcfa7ca08b01d5a0416680261f4e8", "fusion_lon": 0.0, "bike_id": "996bcfa7ca08b01d5a0416680261f4e8", "is_disabled": 0, "is_reserved": 0}, {"rental_uris": {"ios": "https://dc.lft.to/lastmile_qr_scan", "android": "https://dc.lft.to/lastmile_qr_scan"}, "lon": -77.03960633333334, "type": "electric_scooter", "fusion_lat": 0.0, "lat": 38.916281166666664, "name": "42ceaf5481bb415ccbee6ef7e8bdde4e", "fusion_lon": 0.0, "bike_id": "42ceaf5481bb415ccbee6ef7e8bdde4e", "is_disabled": 0, "is_reserved": 0}, {"rental_uris": {"ios": "https://dc.lft.to/lastmile_qr_scan", "android": "https://dc.lft.to/lastmile_qr_scan"}, "lon": -76.99031983333333, "type": "electric_scooter", "fusion_lat": 0.0, "lat": 38.858656833333335, "name": "46606999a51a38bdd10b7d3b3f9fe233", "fusion_lon": 0.0, "bike_id": "46606999a51a38bdd10b7d3b3f9fe233", "is_disabled": 0, "is_reserved": 0}, {"rental_uris": {"ios": "https://dc.lft.to/lastmile_qr_scan", "android": "https://dc.lft.to/lastmile_qr_scan"}, "lon": -77.00923233333333, "type": "electric_scooter", "fusion_lat": 0.0, "lat": 38.9124015, "name": "0ed2f1ecabe4a6bd8347a687be461782", "fusion_lon": 0.0, "bike_id": "0ed2f1ecabe4a6bd8347a687be461782", "is_disabled": 0, "is_reserved": 0}, {"rental_uris": {"ios": "https://dc.lft.to/lastmile_qr_scan", "android": "https://dc.lft.to/lastmile_qr_scan"}, "lon": -77.02967416666667, "type": "electric_scooter", "fusion_lat": 0.0, "lat": 38.9053185, "name": "375d5c616cd404a87c14776bbf1f7015", "fusion_lon": 0.0, "bike_id": "375d5c616cd404a87c14776bbf1f7015", "is_disabled": 0, "is_reserved": 0}, {"rental_uris": {"ios": "https://dc.lft.to/lastmile_qr_scan", "android": "https://dc.lft.to/lastmile_qr_scan"}, "lon": -77.01218416666667, "type": "electric_scooter", "fusion_lat": 0.0, "lat": 38.9127645, "name": "7659baa151b57eca2d7f8fd8dd76fb01", "fusion_lon": 0.0, "bike_id": "7659baa151b57eca2d7f8fd8dd76fb01", "is_disabled": 0, "is_reserved": 0}, {"rental_uris": {"ios": "https://dc.lft.to/lastmile_qr_scan", "android": "https://dc.lft.to/lastmile_qr_scan"}, "lon": -77.02720083333334, "type": "electric_scooter", "fusion_lat": 0.0, "lat": 38.906902333333335, "name": "744f8eb185e1c219d06c97c8d4b6a3e8", "fusion_lon": 0.0, "bike_id": "744f8eb185e1c219d06c97c8d4b6a3e8", "is_disabled": 0, "is_reserved": 0}, {"rental_uris": {"ios": "https://dc.lft.to/lastmile_qr_scan", "android": "https://dc.lft.to/lastmile_qr_scan"}, "lon": -77.02620133333333, "type": "electric_scooter", "fusion_lat": 0.0, "lat": 38.91686683333333, "name": "0e3fdf995e69af488a239b207981bab9", "fusion_lon": 0.0, "bike_id": "0e3fdf995e69af488a239b207981bab9", "is_disabled": 0, "is_reserved": 0}, {"rental_uris": {"ios": "https://dc.lft.to/lastmile_qr_scan", "android": "https://dc.lft.to/lastmile_qr_scan"}, "lon": -77.02686, "type": "electric_scooter", "fusion_lat": 0.0, "lat": 38.9071815, "name": "e53a65fcfe4a83745c8237214c07311f", "fusion_lon": 0.0, "bike_id": "e53a65fcfe4a83745c8237214c07311f", "is_disabled": 0, "is_reserved": 0}, {"rental_uris": {"ios": "https://dc.lft.to/lastmile_qr_scan", "android": "https://dc.lft.to/lastmile_qr_scan"}, "lon": -76.99750733333333, "type": "electric_bike", "fusion_lat": 0.0, "lat": 38.922622, "name": "54a7cfeb96a68983a9a306ff1ff75789", "fusion_lon": 0.0, "bike_id": "54a7cfeb96a68983a9a306ff1ff75789", "is_disabled": 0, "is_reserved": 0}, {"rental_uris": {"ios": "https://dc.lft.to/lastmile_qr_scan", "android": "https://dc.lft.to/lastmile_qr_scan"}, "lon": -77.02439183333334, "type": "electric_scooter", "fusion_lat": 0.0, "lat": 38.920401, "name": "bd6fc6d47580db262fb36581c9058dae", "fusion_lon": 0.0, "bike_id": "bd6fc6d47580db262fb36581c9058dae", "is_disabled": 0, "is_reserved": 0}, {"rental_uris": {"ios": "https://dc.lft.to/lastmile_qr_scan", "android": "https://dc.lft.to/lastmile_qr_scan"}, "lon": -76.98891483333334, "type": "electric_scooter", "fusion_lat": 0.0, "lat": 38.866602666666665, "name": "754920e4a020f18fd500c1ebc557ae0e", "fusion_lon": 0.0, "bike_id": "754920e4a020f18fd500c1ebc557ae0e", "is_disabled": 0, "is_reserved": 0}, {"rental_uris": {"ios": "https://dc.lft.to/lastmile_qr_scan", "android": "https://dc.lft.to/lastmile_qr_scan"}, "lon": -77.0386915, "type": "electric_scooter", "fusion_lat": 0.0, "lat": 38.903027333333334, "name": "75a0e86d1d412c0f197ec80e5498f997", "fusion_lon": 0.0, "bike_id": "75a0e86d1d412c0f197ec80e5498f997", "is_disabled": 0, "is_reserved": 0}, {"rental_uris": {"ios": "https://dc.lft.to/lastmile_qr_scan", "android": "https://dc.lft.to/lastmile_qr_scan"}, "lon": -77.03006166666667, "type": "electric_scooter", "fusion_lat": 0.0, "lat": 38.912523666666665, "name": "451d2e2b6ffd146f8f540069a0702677", "fusion_lon": 0.0, "bike_id": "451d2e2b6ffd146f8f540069a0702677", "is_disabled": 0, "is_reserved": 0}, {"rental_uris": {"ios": "https://dc.lft.to/lastmile_qr_scan", "android": "https://dc.lft.to/lastmile_qr_scan"}, "lon": -77.1131455, "type": "electric_bike", "fusion_lat": 0.0, "lat": 38.855645333333335, "name": "cca664bb65532bb9fd38ed8491182e5b", "fusion_lon": 0.0, "bike_id": "cca664bb65532bb9fd38ed8491182e5b", "is_disabled": 0, "is_reserved": 0}, {"rental_uris": {"ios": "https://dc.lft.to/lastmile_qr_scan", "android": "https://dc.lft.to/lastmile_qr_scan"}, "lon": -76.96536416666666, "type": "electric_bike", "fusion_lat": 0.0, "lat": 38.8748255, "name": "a7db331c26d17e8a963a2e94e2dc6432", "fusion_lon": 0.0, "bike_id": "a7db331c26d17e8a963a2e94e2dc6432", "is_disabled": 0, "is_reserved": 0}, {"rental_uris": {"ios": "https://dc.lft.to/lastmile_qr_scan", "android": "https://dc.lft.to/lastmile_qr_scan"}, "lon": -76.9317395, "type": "electric_scooter", "fusion_lat": 0.0, "lat": 38.898858, "name": "6f62281c5dc322aca42a6b1f126f89b1", "fusion_lon": 0.0, "bike_id": "6f62281c5dc322aca42a6b1f126f89b1", "is_disabled": 0, "is_reserved": 0}, {"rental_uris": {"ios": "https://dc.lft.to/lastmile_qr_scan", "android": "https://dc.lft.to/lastmile_qr_scan"}, "lon": -77.068842, "type": "electric_scooter", "fusion_lat": 0.0, "lat": 38.907651, "name": "21d36dc35dc724ba59eb31d7946b24d8", "fusion_lon": 0.0, "bike_id": "21d36dc35dc724ba59eb31d7946b24d8", "is_disabled": 0, "is_reserved": 0}, {"rental_uris": {"ios": "https://dc.lft.to/lastmile_qr_scan", "android": "https://dc.lft.to/lastmile_qr_scan"}, "lon": -77.07090866666667, "type": "electric_bike", "fusion_lat": 0.0, "lat": 38.955584333333334, "name": "57592349f1619b9164fb63defe7e763d", "fusion_lon": 0.0, "bike_id": "57592349f1619b9164fb63defe7e763d", "is_disabled": 0, "is_reserved": 0}, {"rental_uris": {"ios": "https://dc.lft.to/lastmile_qr_scan", "android": "https://dc.lft.to/lastmile_qr_scan"}, "lon": -77.02979666666667, "type": "electric_scooter", "fusion_lat": 0.0, "lat": 38.938821, "name": "b9b3acaa68c8540713827fe4073f757a", "fusion_lon": 0.0, "bike_id": "b9b3acaa68c8540713827fe4073f757a", "is_disabled": 0, "is_reserved": 0}, {"rental_uris": {"ios": "https://dc.lft.to/lastmile_qr_scan", "android": "https://dc.lft.to/lastmile_qr_scan"}, "lon": -77.03045316666666, "type": "electric_scooter", "fusion_lat": 0.0, "lat": 38.897203, "name": "77da97c0b87412127ad198a1f0e13425", "fusion_lon": 0.0, "bike_id": "77da97c0b87412127ad198a1f0e13425", "is_disabled": 0, "is_reserved": 0}, {"rental_uris": {"ios": "https://dc.lft.to/lastmile_qr_scan", "android": "https://dc.lft.to/lastmile_qr_scan"}, "lon": -77.011841, "type": "electric_scooter", "fusion_lat": 0.0, "lat": 38.911142166666664, "name": "a98201c5e5a59108e23f763b6e090da6", "fusion_lon": 0.0, "bike_id": "a98201c5e5a59108e23f763b6e090da6", "is_disabled": 0, "is_reserved": 0}, {"rental_uris": {"ios": "https://dc.lft.to/lastmile_qr_scan", "android": "https://dc.lft.to/lastmile_qr_scan"}, "lon": -77.02646383333334, "type": "electric_scooter", "fusion_lat": 0.0, "lat": 38.89590533333333, "name": "d9ec0a99391dbde3ae61db9321f5051d", "fusion_lon": 0.0, "bike_id": "d9ec0a99391dbde3ae61db9321f5051d", "is_disabled": 0, "is_reserved": 0}, {"rental_uris": {"ios": "https://dc.lft.to/lastmile_qr_scan", "android": "https://dc.lft.to/lastmile_qr_scan"}, "lon": -77.04066333333333, "type": "electric_scooter", "fusion_lat": 0.0, "lat": 38.923899666666664, "name": "1e8cb9f6e11bdaeb977a01dcc9fad7d5", "fusion_lon": 0.0, "bike_id": "1e8cb9f6e11bdaeb977a01dcc9fad7d5", "is_disabled": 0, "is_reserved": 0}, {"rental_uris": {"ios": "https://dc.lft.to/lastmile_qr_scan", "android": "https://dc.lft.to/lastmile_qr_scan"}, "lon": -77.03199516666666, "type": "electric_scooter", "fusion_lat": 0.0, "lat": 38.918008666666665, "name": "a9e78a616abc9acfb7188f4f645ac46b", "fusion_lon": 0.0, "bike_id": "a9e78a616abc9acfb7188f4f645ac46b", "is_disabled": 0, "is_reserved": 0}, {"rental_uris": {"ios": "https://dc.lft.to/lastmile_qr_scan", "android": "https://dc.lft.to/lastmile_qr_scan"}, "lon": -77.04335283333333, "type": "electric_scooter", "fusion_lat": 0.0, "lat": 38.89587616666667, "name": "b9dc133439f0a426988616a366a6e93c", "fusion_lon": 0.0, "bike_id": "b9dc133439f0a426988616a366a6e93c", "is_disabled": 0, "is_reserved": 0}, {"rental_uris": {"ios": "https://dc.lft.to/lastmile_qr_scan", "android": "https://dc.lft.to/lastmile_qr_scan"}, "lon": -77.03265483333334, "type": "electric_scooter", "fusion_lat": 0.0, "lat": 38.9254505, "name": "d32a1771e4e8a18e7818c465eef55a0e", "fusion_lon": 0.0, "bike_id": "d32a1771e4e8a18e7818c465eef55a0e", "is_disabled": 0, "is_reserved": 0}, {"rental_uris": {"ios": "https://dc.lft.to/lastmile_qr_scan", "android": "https://dc.lft.to/lastmile_qr_scan"}, "lon": -77.04027033333334, "type": "electric_scooter", "fusion_lat": 0.0, "lat": 38.918094333333336, "name": "c572cefb4d57e8f28cad7859eb6c1577", "fusion_lon": 0.0, "bike_id": "c572cefb4d57e8f28cad7859eb6c1577", "is_disabled": 0, "is_reserved": 0}, {"rental_uris": {"ios": "https://dc.lft.to/lastmile_qr_scan", "android": "https://dc.lft.to/lastmile_qr_scan"}, "lon": -77.09188483333334, "type": "electric_scooter", "fusion_lat": 0.0, "lat": 38.91368133333334, "name": "f0bac121bd63f899da12a6292cb8dde4", "fusion_lon": 0.0, "bike_id": "f0bac121bd63f899da12a6292cb8dde4", "is_disabled": 0, "is_reserved": 0}, {"rental_uris": {"ios": "https://dc.lft.to/lastmile_qr_scan", "android": "https://dc.lft.to/lastmile_qr_scan"}, "lon": -77.03465166666666, "type": "electric_scooter", "fusion_lat": 0.0, "lat": 38.916905, "name": "5ced22a2a321b5d493c1027f9e5c3a83", "fusion_lon": 0.0, "bike_id": "5ced22a2a321b5d493c1027f9e5c3a83", "is_disabled": 0, "is_reserved": 0}, {"rental_uris": {"ios": "https://dc.lft.to/lastmile_qr_scan", "android": "https://dc.lft.to/lastmile_qr_scan"}, "lon": -77.00607866666667, "type": "electric_bike", "fusion_lat": 0.0, "lat": 38.9058625, "name": "9cace221879ef8779e04c552ca68c3f3", "fusion_lon": 0.0, "bike_id": "9cace221879ef8779e04c552ca68c3f3", "is_disabled": 0, "is_reserved": 0}, {"rental_uris": {"ios": "https://dc.lft.to/lastmile_qr_scan", "android": "https://dc.lft.to/lastmile_qr_scan"}, "lon": -77.04670016666667, "type": "electric_scooter", "fusion_lat": 0.0, "lat": 38.91479016666667, "name": "9a6f873914267167a21426d889e34ea2", "fusion_lon": 0.0, "bike_id": "9a6f873914267167a21426d889e34ea2", "is_disabled": 0, "is_reserved": 0}, {"rental_uris": {"ios": "https://dc.lft.to/lastmile_qr_scan", "android": "https://dc.lft.to/lastmile_qr_scan"}, "lon": -77.10688133333333, "type": "electric_bike", "fusion_lat": 0.0, "lat": 38.935778666666664, "name": "3c764b4ff6f072ea784935eb137cd938", "fusion_lon": 0.0, "bike_id": "3c764b4ff6f072ea784935eb137cd938", "is_disabled": 0, "is_reserved": 0}, {"rental_uris": {"ios": "https://dc.lft.to/lastmile_qr_scan", "android": "https://dc.lft.to/lastmile_qr_scan"}, "lon": -77.03507833333333, "type": "electric_scooter", "fusion_lat": 0.0, "lat": 38.92155733333333, "name": "f15376c66c01957e9b7a8db13a89c883", "fusion_lon": 0.0, "bike_id": "f15376c66c01957e9b7a8db13a89c883", "is_disabled": 0, "is_reserved": 0}, {"rental_uris": {"ios": "https://dc.lft.to/lastmile_qr_scan", "android": "https://dc.lft.to/lastmile_qr_scan"}, "lon": -76.94880283333333, "type": "electric_scooter", "fusion_lat": 0.0, "lat": 38.89505883333333, "name": "698ffb6ccf5b3beae8f6aaac29df5a85", "fusion_lon": 0.0, "bike_id": "698ffb6ccf5b3beae8f6aaac29df5a85", "is_disabled": 0, "is_reserved": 0}, {"rental_uris": {"ios": "https://dc.lft.to/lastmile_qr_scan", "android": "https://dc.lft.to/lastmile_qr_scan"}, "lon": -77.029653, "type": "electric_scooter", "fusion_lat": 0.0, "lat": 38.905273, "name": "450fc7c22d8435b29a11d94f43cab86f", "fusion_lon": 0.0, "bike_id": "450fc7c22d8435b29a11d94f43cab86f", "is_disabled": 0, "is_reserved": 0}, {"rental_uris": {"ios": "https://dc.lft.to/lastmile_qr_scan", "android": "https://dc.lft.to/lastmile_qr_scan"}, "lon": -77.00657666666666, "type": "electric_scooter", "fusion_lat": 0.0, "lat": 38.944632, "name": "9e65d056619731c729505cb2f53299c4", "fusion_lon": 0.0, "bike_id": "9e65d056619731c729505cb2f53299c4", "is_disabled": 0, "is_reserved": 0}, {"rental_uris": {"ios": "https://dc.lft.to/lastmile_qr_scan", "android": "https://dc.lft.to/lastmile_qr_scan"}, "lon": -77.04261516666666, "type": "electric_scooter", "fusion_lat": 0.0, "lat": 38.902737333333334, "name": "3cc05ab3540866567554d2ff79c3bbfa", "fusion_lon": 0.0, "bike_id": "3cc05ab3540866567554d2ff79c3bbfa", "is_disabled": 0, "is_reserved": 0}, {"rental_uris": {"ios": "https://dc.lft.to/lastmile_qr_scan", "android": "https://dc.lft.to/lastmile_qr_scan"}, "lon": -77.03190816666667, "type": "electric_scooter", "fusion_lat": 0.0, "lat": 38.91929566666666, "name": "89b4ea95726cd62e828ccb4772366b80", "fusion_lon": 0.0, "bike_id": "89b4ea95726cd62e828ccb4772366b80", "is_disabled": 0, "is_reserved": 0}, {"rental_uris": {"ios": "https://dc.lft.to/lastmile_qr_scan", "android": "https://dc.lft.to/lastmile_qr_scan"}, "lon": -77.03860833333333, "type": "electric_scooter", "fusion_lat": 0.0, "lat": 38.907772, "name": "ee419f65fd5c7498cca3d701ea9938fe", "fusion_lon": 0.0, "bike_id": "ee419f65fd5c7498cca3d701ea9938fe", "is_disabled": 0, "is_reserved": 0}, {"rental_uris": {"ios": "https://dc.lft.to/lastmile_qr_scan", "android": "https://dc.lft.to/lastmile_qr_scan"}, "lon": -77.11199166666667, "type": "electric_bike", "fusion_lat": 0.0, "lat": 38.813056833333334, "name": "cd21c8c5cdf103c9f007e19792e37bc8", "fusion_lon": 0.0, "bike_id": "cd21c8c5cdf103c9f007e19792e37bc8", "is_disabled": 0, "is_reserved": 0}, {"rental_uris": {"ios": "https://dc.lft.to/lastmile_qr_scan", "android": "https://dc.lft.to/lastmile_qr_scan"}, "lon": -76.93536716666667, "type": "electric_bike", "fusion_lat": 0.0, "lat": 38.95544233333333, "name": "1ca3c55fdd9a1196a40e707113602da4", "fusion_lon": 0.0, "bike_id": "1ca3c55fdd9a1196a40e707113602da4", "is_disabled": 0, "is_reserved": 0}, {"rental_uris": {"ios": "https://dc.lft.to/lastmile_qr_scan", "android": "https://dc.lft.to/lastmile_qr_scan"}, "lon": -77.021992, "type": "electric_scooter", "fusion_lat": 0.0, "lat": 38.89511983333333, "name": "dfdb14754cd982904b0d5af8a23a30bc", "fusion_lon": 0.0, "bike_id": "dfdb14754cd982904b0d5af8a23a30bc", "is_disabled": 0, "is_reserved": 0}, {"rental_uris": {"ios": "https://dc.lft.to/lastmile_qr_scan", "android": "https://dc.lft.to/lastmile_qr_scan"}, "lon": -77.12259983333334, "type": "electric_bike", "fusion_lat": 0.0, "lat": 38.891909, "name": "668ab4083e401e73014cbc9c853cb805", "fusion_lon": 0.0, "bike_id": "668ab4083e401e73014cbc9c853cb805", "is_disabled": 0, "is_reserved": 0}, {"rental_uris": {"ios": "https://dc.lft.to/lastmile_qr_scan", "android": "https://dc.lft.to/lastmile_qr_scan"}, "lon": -77.02963216666667, "type": "electric_scooter", "fusion_lat": 0.0, "lat": 38.8843795, "name": "966a94feddf77f0e8e918f87b28eb040", "fusion_lon": 0.0, "bike_id": "966a94feddf77f0e8e918f87b28eb040", "is_disabled": 0, "is_reserved": 0}, {"rental_uris": {"ios": "https://dc.lft.to/lastmile_qr_scan", "android": "https://dc.lft.to/lastmile_qr_scan"}, "lon": -77.03721833333333, "type": "electric_scooter", "fusion_lat": 0.0, "lat": 38.93362333333334, "name": "aa35570880f33ea80d4f976a59e4aa01", "fusion_lon": 0.0, "bike_id": "aa35570880f33ea80d4f976a59e4aa01", "is_disabled": 0, "is_reserved": 0}, {"rental_uris": {"ios": "https://dc.lft.to/lastmile_qr_scan", "android": "https://dc.lft.to/lastmile_qr_scan"}, "lon": -77.03315566666667, "type": "electric_scooter", "fusion_lat": 0.0, "lat": 38.92047866666667, "name": "8121fe7db439ceb57f942ff7e2a5f2fe", "fusion_lon": 0.0, "bike_id": "8121fe7db439ceb57f942ff7e2a5f2fe", "is_disabled": 0, "is_reserved": 0}, {"rental_uris": {"ios": "https://dc.lft.to/lastmile_qr_scan", "android": "https://dc.lft.to/lastmile_qr_scan"}, "lon": -77.07680883333333, "type": "electric_bike", "fusion_lat": 0.0, "lat": 38.831954333333336, "name": "8d7e1f476554c45ff0600b9cb4462d85", "fusion_lon": 0.0, "bike_id": "8d7e1f476554c45ff0600b9cb4462d85", "is_disabled": 0, "is_reserved": 0}, {"rental_uris": {"ios": "https://dc.lft.to/lastmile_qr_scan", "android": "https://dc.lft.to/lastmile_qr_scan"}, "lon": -76.97812383333333, "type": "electric_scooter", "fusion_lat": 0.0, "lat": 38.9067665, "name": "dbb5e96baad4610165469dc5f6b3b0bd", "fusion_lon": 0.0, "bike_id": "dbb5e96baad4610165469dc5f6b3b0bd", "is_disabled": 0, "is_reserved": 0}, {"rental_uris": {"ios": "https://dc.lft.to/lastmile_qr_scan", "android": "https://dc.lft.to/lastmile_qr_scan"}, "lon": -77.0322065, "type": "electric_scooter", "fusion_lat": 0.0, "lat": 38.919942, "name": "e4c2f00ebb2614e715c48c009ad9293e", "fusion_lon": 0.0, "bike_id": "e4c2f00ebb2614e715c48c009ad9293e", "is_disabled": 0, "is_reserved": 0}, {"rental_uris": {"ios": "https://dc.lft.to/lastmile_qr_scan", "android": "https://dc.lft.to/lastmile_qr_scan"}, "lon": -77.0296015, "type": "electric_scooter", "fusion_lat": 0.0, "lat": 38.9072675, "name": "f91cde7da260781e02fb2f4b93202e9b", "fusion_lon": 0.0, "bike_id": "f91cde7da260781e02fb2f4b93202e9b", "is_disabled": 0, "is_reserved": 0}, {"rental_uris": {"ios": "https://dc.lft.to/lastmile_qr_scan", "android": "https://dc.lft.to/lastmile_qr_scan"}, "lon": -77.02963583333333, "type": "electric_scooter", "fusion_lat": 0.0, "lat": 38.9167645, "name": "81ddba7055d412f2528b90cd75637e54", "fusion_lon": 0.0, "bike_id": "81ddba7055d412f2528b90cd75637e54", "is_disabled": 0, "is_reserved": 0}, {"rental_uris": {"ios": "https://dc.lft.to/lastmile_qr_scan", "android": "https://dc.lft.to/lastmile_qr_scan"}, "lon": -77.043804, "type": "electric_scooter", "fusion_lat": 0.0, "lat": 38.920679666666665, "name": "edf76942fd9bb74454a24b3850aaab3c", "fusion_lon": 0.0, "bike_id": "edf76942fd9bb74454a24b3850aaab3c", "is_disabled": 0, "is_reserved": 0}, {"rental_uris": {"ios": "https://dc.lft.to/lastmile_qr_scan", "android": "https://dc.lft.to/lastmile_qr_scan"}, "lon": -77.03218733333334, "type": "electric_scooter", "fusion_lat": 0.0, "lat": 38.925876833333334, "name": "3ed608fef2471fe266472fe4a896dfa9", "fusion_lon": 0.0, "bike_id": "3ed608fef2471fe266472fe4a896dfa9", "is_disabled": 0, "is_reserved": 0}, {"rental_uris": {"ios": "https://dc.lft.to/lastmile_qr_scan", "android": "https://dc.lft.to/lastmile_qr_scan"}, "lon": -77.04326566666667, "type": "electric_scooter", "fusion_lat": 0.0, "lat": 38.91488916666667, "name": "0cb96dfa99520ec4b959bffecc896c90", "fusion_lon": 0.0, "bike_id": "0cb96dfa99520ec4b959bffecc896c90", "is_disabled": 0, "is_reserved": 0}, {"rental_uris": {"ios": "https://dc.lft.to/lastmile_qr_scan", "android": "https://dc.lft.to/lastmile_qr_scan"}, "lon": -77.0481535, "type": "electric_scooter", "fusion_lat": 0.0, "lat": 38.8960295, "name": "b46d424d9ef5484f1d1ae1f0d71d8f59", "fusion_lon": 0.0, "bike_id": "b46d424d9ef5484f1d1ae1f0d71d8f59", "is_disabled": 0, "is_reserved": 0}, {"rental_uris": {"ios": "https://dc.lft.to/lastmile_qr_scan", "android": "https://dc.lft.to/lastmile_qr_scan"}, "lon": -77.04110916666667, "type": "electric_scooter", "fusion_lat": 0.0, "lat": 38.92445883333333, "name": "6890bf9640e645765c688e8eebbbf6e0", "fusion_lon": 0.0, "bike_id": "6890bf9640e645765c688e8eebbbf6e0", "is_disabled": 0, "is_reserved": 0}, {"rental_uris": {"ios": "https://dc.lft.to/lastmile_qr_scan", "android": "https://dc.lft.to/lastmile_qr_scan"}, "lon": -77.00233083333333, "type": "electric_scooter", "fusion_lat": 0.0, "lat": 38.91181683333333, "name": "1c4bece6d0a254bc7cf5ea74716858ab", "fusion_lon": 0.0, "bike_id": "1c4bece6d0a254bc7cf5ea74716858ab", "is_disabled": 0, "is_reserved": 0}, {"rental_uris": {"ios": "https://dc.lft.to/lastmile_qr_scan", "android": "https://dc.lft.to/lastmile_qr_scan"}, "lon": -76.97496183333334, "type": "electric_bike", "fusion_lat": 0.0, "lat": 38.920047, "name": "79a810d18c046be93983d0bfe51f90d8", "fusion_lon": 0.0, "bike_id": "79a810d18c046be93983d0bfe51f90d8", "is_disabled": 0, "is_reserved": 0}, {"rental_uris": {"ios": "https://dc.lft.to/lastmile_qr_scan", "android": "https://dc.lft.to/lastmile_qr_scan"}, "lon": -76.93720433333333, "type": "electric_scooter", "fusion_lat": 0.0, "lat": 38.895887, "name": "b15185fa0289c4560376ce23a83529f2", "fusion_lon": 0.0, "bike_id": "b15185fa0289c4560376ce23a83529f2", "is_disabled": 0, "is_reserved": 0}, {"rental_uris": {"ios": "https://dc.lft.to/lastmile_qr_scan", "android": "https://dc.lft.to/lastmile_qr_scan"}, "lon": -77.0400855, "type": "electric_scooter", "fusion_lat": 0.0, "lat": 38.909933, "name": "8f8a3c1df0a4444e482bfe12032f929a", "fusion_lon": 0.0, "bike_id": "8f8a3c1df0a4444e482bfe12032f929a", "is_disabled": 0, "is_reserved": 0}, {"rental_uris": {"ios": "https://dc.lft.to/lastmile_qr_scan", "android": "https://dc.lft.to/lastmile_qr_scan"}, "lon": -76.974043, "type": "electric_scooter", "fusion_lat": 0.0, "lat": 38.901553666666665, "name": "e32bda0a0d7f2fcd0f2a04dd236b4a1b", "fusion_lon": 0.0, "bike_id": "e32bda0a0d7f2fcd0f2a04dd236b4a1b", "is_disabled": 0, "is_reserved": 0}, {"rental_uris": {"ios": "https://dc.lft.to/lastmile_qr_scan", "android": "https://dc.lft.to/lastmile_qr_scan"}, "lon": -77.054539, "type": "electric_scooter", "fusion_lat": 0.0, "lat": 38.9289895, "name": "a9d3410dd7881f7f4b2e770c8633b64e", "fusion_lon": 0.0, "bike_id": "a9d3410dd7881f7f4b2e770c8633b64e", "is_disabled": 0, "is_reserved": 0}, {"rental_uris": {"ios": "https://dc.lft.to/lastmile_qr_scan", "android": "https://dc.lft.to/lastmile_qr_scan"}, "lon": -77.02596216666667, "type": "electric_scooter", "fusion_lat": 0.0, "lat": 38.90021133333333, "name": "a210193092c035b0cafd69462136ad4c", "fusion_lon": 0.0, "bike_id": "a210193092c035b0cafd69462136ad4c", "is_disabled": 0, "is_reserved": 0}, {"rental_uris": {"ios": "https://dc.lft.to/lastmile_qr_scan", "android": "https://dc.lft.to/lastmile_qr_scan"}, "lon": -77.03669566666666, "type": "electric_scooter", "fusion_lat": 0.0, "lat": 38.91709983333333, "name": "7308f19da9eefa12f5d45e8cee447ba4", "fusion_lon": 0.0, "bike_id": "7308f19da9eefa12f5d45e8cee447ba4", "is_disabled": 0, "is_reserved": 0}, {"rental_uris": {"ios": "https://dc.lft.to/lastmile_qr_scan", "android": "https://dc.lft.to/lastmile_qr_scan"}, "lon": -77.03422783333333, "type": "electric_scooter", "fusion_lat": 0.0, "lat": 38.935344666666666, "name": "f72e25582d2f3ed835285a8f64de94a4", "fusion_lon": 0.0, "bike_id": "f72e25582d2f3ed835285a8f64de94a4", "is_disabled": 0, "is_reserved": 0}, {"rental_uris": {"ios": "https://dc.lft.to/lastmile_qr_scan", "android": "https://dc.lft.to/lastmile_qr_scan"}, "lon": -77.02964683333333, "type": "electric_scooter", "fusion_lat": 0.0, "lat": 38.905310166666666, "name": "52f44debfaa8962c9dc90af8da2810db", "fusion_lon": 0.0, "bike_id": "52f44debfaa8962c9dc90af8da2810db", "is_disabled": 0, "is_reserved": 0}, {"rental_uris": {"ios": "https://dc.lft.to/lastmile_qr_scan", "android": "https://dc.lft.to/lastmile_qr_scan"}, "lon": -77.03226466666666, "type": "electric_scooter", "fusion_lat": 0.0, "lat": 38.9266705, "name": "5bf46345ed28da8373fa59b27df8d238", "fusion_lon": 0.0, "bike_id": "5bf46345ed28da8373fa59b27df8d238", "is_disabled": 0, "is_reserved": 0}, {"rental_uris": {"ios": "https://dc.lft.to/lastmile_qr_scan", "android": "https://dc.lft.to/lastmile_qr_scan"}, "lon": -77.056044, "type": "electric_bike", "fusion_lat": 0.0, "lat": 38.92419866666667, "name": "c944415e4b825d9ea843d195870ff1ee", "fusion_lon": 0.0, "bike_id": "c944415e4b825d9ea843d195870ff1ee", "is_disabled": 0, "is_reserved": 0}, {"rental_uris": {"ios": "https://dc.lft.to/lastmile_qr_scan", "android": "https://dc.lft.to/lastmile_qr_scan"}, "lon": -77.00277316666667, "type": "electric_scooter", "fusion_lat": 0.0, "lat": 38.901278166666664, "name": "ba98f87a3c902421ebdb1fda7af37c14", "fusion_lon": 0.0, "bike_id": "ba98f87a3c902421ebdb1fda7af37c14", "is_disabled": 0, "is_reserved": 0}, {"rental_uris": {"ios": "https://dc.lft.to/lastmile_qr_scan", "android": "https://dc.lft.to/lastmile_qr_scan"}, "lon": -77.04997833333333, "type": "electric_scooter", "fusion_lat": 0.0, "lat": 38.90027366666666, "name": "ffcb8e4fc570e595572179c7df078411", "fusion_lon": 0.0, "bike_id": "ffcb8e4fc570e595572179c7df078411", "is_disabled": 0, "is_reserved": 0}, {"rental_uris": {"ios": "https://dc.lft.to/lastmile_qr_scan", "android": "https://dc.lft.to/lastmile_qr_scan"}, "lon": -76.9888535, "type": "electric_scooter", "fusion_lat": 0.0, "lat": 38.86659733333333, "name": "39495f5ce09b1646401cd7ed735afaa7", "fusion_lon": 0.0, "bike_id": "39495f5ce09b1646401cd7ed735afaa7", "is_disabled": 0, "is_reserved": 0}, {"rental_uris": {"ios": "https://dc.lft.to/lastmile_qr_scan", "android": "https://dc.lft.to/lastmile_qr_scan"}, "lon": -77.03836383333334, "type": "electric_scooter", "fusion_lat": 0.0, "lat": 38.93114533333333, "name": "b980ec767851442644fa75c5c3b2faa9", "fusion_lon": 0.0, "bike_id": "b980ec767851442644fa75c5c3b2faa9", "is_disabled": 0, "is_reserved": 0}, {"rental_uris": {"ios": "https://dc.lft.to/lastmile_qr_scan", "android": "https://dc.lft.to/lastmile_qr_scan"}, "lon": -76.997776, "type": "electric_bike", "fusion_lat": 0.0, "lat": 38.909292, "name": "8b1e6d3af4fd0362847012edad18ead0", "fusion_lon": 0.0, "bike_id": "8b1e6d3af4fd0362847012edad18ead0", "is_disabled": 0, "is_reserved": 0}, {"rental_uris": {"ios": "https://dc.lft.to/lastmile_qr_scan", "android": "https://dc.lft.to/lastmile_qr_scan"}, "lon": -77.04503783333334, "type": "electric_scooter", "fusion_lat": 0.0, "lat": 38.9194315, "name": "31f7e754cde2d31b2be6f0bbe60282d1", "fusion_lon": 0.0, "bike_id": "31f7e754cde2d31b2be6f0bbe60282d1", "is_disabled": 0, "is_reserved": 0}, {"rental_uris": {"ios": "https://dc.lft.to/lastmile_qr_scan", "android": "https://dc.lft.to/lastmile_qr_scan"}, "lon": -76.97555433333333, "type": "electric_scooter", "fusion_lat": 0.0, "lat": 38.904413166666664, "name": "82f996bb751464f717e24d4284efb311", "fusion_lon": 0.0, "bike_id": "82f996bb751464f717e24d4284efb311", "is_disabled": 0, "is_reserved": 0}, {"rental_uris": {"ios": "https://dc.lft.to/lastmile_qr_scan", "android": "https://dc.lft.to/lastmile_qr_scan"}, "lon": -77.0484445, "type": "electric_scooter", "fusion_lat": 0.0, "lat": 38.909638666666666, "name": "ba31e15fcfd18d78d6e8dab4eb0f82b3", "fusion_lon": 0.0, "bike_id": "ba31e15fcfd18d78d6e8dab4eb0f82b3", "is_disabled": 0, "is_reserved": 0}, {"rental_uris": {"ios": "https://dc.lft.to/lastmile_qr_scan", "android": "https://dc.lft.to/lastmile_qr_scan"}, "lon": -77.0113285, "type": "electric_scooter", "fusion_lat": 0.0, "lat": 38.895058166666665, "name": "db75d824e90e2a9515e00addd0c3f76a", "fusion_lon": 0.0, "bike_id": "db75d824e90e2a9515e00addd0c3f76a", "is_disabled": 0, "is_reserved": 0}, {"rental_uris": {"ios": "https://dc.lft.to/lastmile_qr_scan", "android": "https://dc.lft.to/lastmile_qr_scan"}, "lon": -77.04231333333334, "type": "electric_scooter", "fusion_lat": 0.0, "lat": 38.921301666666665, "name": "dc51fef4bbb3cb9e97005997eb0d88eb", "fusion_lon": 0.0, "bike_id": "dc51fef4bbb3cb9e97005997eb0d88eb", "is_disabled": 0, "is_reserved": 0}, {"rental_uris": {"ios": "https://dc.lft.to/lastmile_qr_scan", "android": "https://dc.lft.to/lastmile_qr_scan"}, "lon": -76.98580133333333, "type": "electric_scooter", "fusion_lat": 0.0, "lat": 38.86144983333333, "name": "19929845c10ce311ced8bccf357fdf26", "fusion_lon": 0.0, "bike_id": "19929845c10ce311ced8bccf357fdf26", "is_disabled": 0, "is_reserved": 0}, {"rental_uris": {"ios": "https://dc.lft.to/lastmile_qr_scan", "android": "https://dc.lft.to/lastmile_qr_scan"}, "lon": -77.0491115, "type": "electric_scooter", "fusion_lat": 0.0, "lat": 38.918841, "name": "77698655f80c9178d4065c8c36f399ee", "fusion_lon": 0.0, "bike_id": "77698655f80c9178d4065c8c36f399ee", "is_disabled": 0, "is_reserved": 0}, {"rental_uris": {"ios": "https://dc.lft.to/lastmile_qr_scan", "android": "https://dc.lft.to/lastmile_qr_scan"}, "lon": -76.9960285, "type": "electric_scooter", "fusion_lat": 0.0, "lat": 38.88622633333333, "name": "018f249a6574929ae8453ac8b494e99c", "fusion_lon": 0.0, "bike_id": "018f249a6574929ae8453ac8b494e99c", "is_disabled": 0, "is_reserved": 0}, {"rental_uris": {"ios": "https://dc.lft.to/lastmile_qr_scan", "android": "https://dc.lft.to/lastmile_qr_scan"}, "lon": -77.0035955, "type": "electric_scooter", "fusion_lat": 0.0, "lat": 38.907231833333334, "name": "b8ff3f6bd1a5aa1a1f987988724e62b6", "fusion_lon": 0.0, "bike_id": "b8ff3f6bd1a5aa1a1f987988724e62b6", "is_disabled": 0, "is_reserved": 0}, {"rental_uris": {"ios": "https://dc.lft.to/lastmile_qr_scan", "android": "https://dc.lft.to/lastmile_qr_scan"}, "lon": -77.0413005, "type": "electric_scooter", "fusion_lat": 0.0, "lat": 38.92433283333333, "name": "b392dacc178ba530284aa552c8432f9d", "fusion_lon": 0.0, "bike_id": "b392dacc178ba530284aa552c8432f9d", "is_disabled": 0, "is_reserved": 0}, {"rental_uris": {"ios": "https://dc.lft.to/lastmile_qr_scan", "android": "https://dc.lft.to/lastmile_qr_scan"}, "lon": -77.02953866666667, "type": "electric_scooter", "fusion_lat": 0.0, "lat": 38.93242766666667, "name": "63ff6983bcad962d9707dd4e1542a2fe", "fusion_lon": 0.0, "bike_id": "63ff6983bcad962d9707dd4e1542a2fe", "is_disabled": 0, "is_reserved": 0}, {"rental_uris": {"ios": "https://dc.lft.to/lastmile_qr_scan", "android": "https://dc.lft.to/lastmile_qr_scan"}, "lon": -77.01389, "type": "electric_scooter", "fusion_lat": 0.0, "lat": 38.91944183333333, "name": "e7bbf5db310981c83b530f216c02d376", "fusion_lon": 0.0, "bike_id": "e7bbf5db310981c83b530f216c02d376", "is_disabled": 0, "is_reserved": 0}, {"rental_uris": {"ios": "https://dc.lft.to/lastmile_qr_scan", "android": "https://dc.lft.to/lastmile_qr_scan"}, "lon": -77.03065666666667, "type": "electric_scooter", "fusion_lat": 0.0, "lat": 38.894634333333336, "name": "018dbe092be963646ae4f1829ff67f1a", "fusion_lon": 0.0, "bike_id": "018dbe092be963646ae4f1829ff67f1a", "is_disabled": 0, "is_reserved": 0}, {"rental_uris": {"ios": "https://dc.lft.to/lastmile_qr_scan", "android": "https://dc.lft.to/lastmile_qr_scan"}, "lon": -77.07386433333333, "type": "electric_bike", "fusion_lat": 0.0, "lat": 38.961767, "name": "5085a46f08c2f751d032926c3f2483f7", "fusion_lon": 0.0, "bike_id": "5085a46f08c2f751d032926c3f2483f7", "is_disabled": 0, "is_reserved": 0}, {"rental_uris": {"ios": "https://dc.lft.to/lastmile_qr_scan", "android": "https://dc.lft.to/lastmile_qr_scan"}, "lon": -77.03633366666666, "type": "electric_scooter", "fusion_lat": 0.0, "lat": 38.9068035, "name": "42c5da34389be9c056c8eb03ab2478ee", "fusion_lon": 0.0, "bike_id": "42c5da34389be9c056c8eb03ab2478ee", "is_disabled": 0, "is_reserved": 0}, {"rental_uris": {"ios": "https://dc.lft.to/lastmile_qr_scan", "android": "https://dc.lft.to/lastmile_qr_scan"}, "lon": -77.1050415, "type": "electric_bike", "fusion_lat": 0.0, "lat": 38.928482833333334, "name": "b3c2fe0dd5b5dce9043ea56139507d01", "fusion_lon": 0.0, "bike_id": "b3c2fe0dd5b5dce9043ea56139507d01", "is_disabled": 0, "is_reserved": 0}, {"rental_uris": {"ios": "https://dc.lft.to/lastmile_qr_scan", "android": "https://dc.lft.to/lastmile_qr_scan"}, "lon": -76.99956866666666, "type": "electric_scooter", "fusion_lat": 0.0, "lat": 38.90858766666667, "name": "794aef1620fd17b12d1c00186e65cc84", "fusion_lon": 0.0, "bike_id": "794aef1620fd17b12d1c00186e65cc84", "is_disabled": 0, "is_reserved": 0}, {"rental_uris": {"ios": "https://dc.lft.to/lastmile_qr_scan", "android": "https://dc.lft.to/lastmile_qr_scan"}, "lon": -76.969767, "type": "electric_scooter", "fusion_lat": 0.0, "lat": 38.861641666666664, "name": "b9f0186ea8df0e7bbe5aec91a1d97e1a", "fusion_lon": 0.0, "bike_id": "b9f0186ea8df0e7bbe5aec91a1d97e1a", "is_disabled": 0, "is_reserved": 0}, {"rental_uris": {"ios": "https://dc.lft.to/lastmile_qr_scan", "android": "https://dc.lft.to/lastmile_qr_scan"}, "lon": -77.02527783333333, "type": "electric_scooter", "fusion_lat": 0.0, "lat": 38.920176833333336, "name": "bf49bbba362d033d77af9b3535f963d4", "fusion_lon": 0.0, "bike_id": "bf49bbba362d033d77af9b3535f963d4", "is_disabled": 0, "is_reserved": 0}, {"rental_uris": {"ios": "https://dc.lft.to/lastmile_qr_scan", "android": "https://dc.lft.to/lastmile_qr_scan"}, "lon": -77.02746266666666, "type": "electric_scooter", "fusion_lat": 0.0, "lat": 38.927696, "name": "2211cc10fd4b88b8d792030eab411894", "fusion_lon": 0.0, "bike_id": "2211cc10fd4b88b8d792030eab411894", "is_disabled": 0, "is_reserved": 0}, {"rental_uris": {"ios": "https://dc.lft.to/lastmile_qr_scan", "android": "https://dc.lft.to/lastmile_qr_scan"}, "lon": -77.03072816666666, "type": "electric_scooter", "fusion_lat": 0.0, "lat": 38.923781, "name": "3bf7883046542ac99617ab828af600f0", "fusion_lon": 0.0, "bike_id": "3bf7883046542ac99617ab828af600f0", "is_disabled": 0, "is_reserved": 0}, {"rental_uris": {"ios": "https://dc.lft.to/lastmile_qr_scan", "android": "https://dc.lft.to/lastmile_qr_scan"}, "lon": -77.01540616666666, "type": "electric_scooter", "fusion_lat": 0.0, "lat": 38.8874035, "name": "e7c61a40a43af3c3ebfb9b52b8161cf4", "fusion_lon": 0.0, "bike_id": "e7c61a40a43af3c3ebfb9b52b8161cf4", "is_disabled": 0, "is_reserved": 0}, {"rental_uris": {"ios": "https://dc.lft.to/lastmile_qr_scan", "android": "https://dc.lft.to/lastmile_qr_scan"}, "lon": -77.05327033333333, "type": "electric_scooter", "fusion_lat": 0.0, "lat": 38.9272185, "name": "a66bca173499853a95e5afceb37a5376", "fusion_lon": 0.0, "bike_id": "a66bca173499853a95e5afceb37a5376", "is_disabled": 0, "is_reserved": 0}, {"rental_uris": {"ios": "https://dc.lft.to/lastmile_qr_scan", "android": "https://dc.lft.to/lastmile_qr_scan"}, "lon": -77.0019595, "type": "electric_scooter", "fusion_lat": 0.0, "lat": 38.900386, "name": "4572995fdb6a8cecc13557ac6a3cf36f", "fusion_lon": 0.0, "bike_id": "4572995fdb6a8cecc13557ac6a3cf36f", "is_disabled": 0, "is_reserved": 0}, {"rental_uris": {"ios": "https://dc.lft.to/lastmile_qr_scan", "android": "https://dc.lft.to/lastmile_qr_scan"}, "lon": -77.06609433333334, "type": "electric_scooter", "fusion_lat": 0.0, "lat": 38.90580583333333, "name": "be0a9cba889ba25e7fa1b2f7c0fc7631", "fusion_lon": 0.0, "bike_id": "be0a9cba889ba25e7fa1b2f7c0fc7631", "is_disabled": 0, "is_reserved": 0}, {"rental_uris": {"ios": "https://dc.lft.to/lastmile_qr_scan", "android": "https://dc.lft.to/lastmile_qr_scan"}, "lon": -77.05475616666666, "type": "electric_scooter", "fusion_lat": 0.0, "lat": 38.893908, "name": "5f98ca922c3343bba25939d298ba1072", "fusion_lon": 0.0, "bike_id": "5f98ca922c3343bba25939d298ba1072", "is_disabled": 0, "is_reserved": 0}, {"rental_uris": {"ios": "https://dc.lft.to/lastmile_qr_scan", "android": "https://dc.lft.to/lastmile_qr_scan"}, "lon": -76.98370733333333, "type": "electric_scooter", "fusion_lat": 0.0, "lat": 38.895538333333334, "name": "72b0cf3537d13c20bb12e5ced5ac9b59", "fusion_lon": 0.0, "bike_id": "72b0cf3537d13c20bb12e5ced5ac9b59", "is_disabled": 0, "is_reserved": 0}, {"rental_uris": {"ios": "https://dc.lft.to/lastmile_qr_scan", "android": "https://dc.lft.to/lastmile_qr_scan"}, "lon": -77.0260045, "type": "electric_bike", "fusion_lat": 0.0, "lat": 38.96266416666667, "name": "a50dad2a82f3eab94bf54485571c75d9", "fusion_lon": 0.0, "bike_id": "a50dad2a82f3eab94bf54485571c75d9", "is_disabled": 0, "is_reserved": 0}, {"rental_uris": {"ios": "https://dc.lft.to/lastmile_qr_scan", "android": "https://dc.lft.to/lastmile_qr_scan"}, "lon": -76.95899366666667, "type": "electric_bike", "fusion_lat": 0.0, "lat": 38.98504833333333, "name": "13503e5aada41e279183072833040cf9", "fusion_lon": 0.0, "bike_id": "13503e5aada41e279183072833040cf9", "is_disabled": 0, "is_reserved": 0}, {"rental_uris": {"ios": "https://dc.lft.to/lastmile_qr_scan", "android": "https://dc.lft.to/lastmile_qr_scan"}, "lon": -76.95991683333334, "type": "electric_scooter", "fusion_lat": 0.0, "lat": 38.88041466666667, "name": "c6bfc51e0e2b20bc046850585665e7e2", "fusion_lon": 0.0, "bike_id": "c6bfc51e0e2b20bc046850585665e7e2", "is_disabled": 0, "is_reserved": 0}, {"rental_uris": {"ios": "https://dc.lft.to/lastmile_qr_scan", "android": "https://dc.lft.to/lastmile_qr_scan"}, "lon": -77.03055316666666, "type": "electric_scooter", "fusion_lat": 0.0, "lat": 38.91705683333333, "name": "91a674c5ee3573f8ffc164d868652af2", "fusion_lon": 0.0, "bike_id": "91a674c5ee3573f8ffc164d868652af2", "is_disabled": 0, "is_reserved": 0}, {"rental_uris": {"ios": "https://dc.lft.to/lastmile_qr_scan", "android": "https://dc.lft.to/lastmile_qr_scan"}, "lon": -76.99696433333334, "type": "electric_scooter", "fusion_lat": 0.0, "lat": 38.901006, "name": "98bc871f7be7a1244517478b3c0aa2a6", "fusion_lon": 0.0, "bike_id": "98bc871f7be7a1244517478b3c0aa2a6", "is_disabled": 0, "is_reserved": 0}, {"rental_uris": {"ios": "https://dc.lft.to/lastmile_qr_scan", "android": "https://dc.lft.to/lastmile_qr_scan"}, "lon": -76.947537, "type": "electric_scooter", "fusion_lat": 0.0, "lat": 38.90053566666667, "name": "237e4ec5350ffa3ed075721915d3cbd3", "fusion_lon": 0.0, "bike_id": "237e4ec5350ffa3ed075721915d3cbd3", "is_disabled": 0, "is_reserved": 0}, {"rental_uris": {"ios": "https://dc.lft.to/lastmile_qr_scan", "android": "https://dc.lft.to/lastmile_qr_scan"}, "lon": -77.129597, "type": "electric_bike", "fusion_lat": 0.0, "lat": 38.85222866666667, "name": "369425ff83e34b546336960dece28cde", "fusion_lon": 0.0, "bike_id": "369425ff83e34b546336960dece28cde", "is_disabled": 0, "is_reserved": 0}, {"rental_uris": {"ios": "https://dc.lft.to/lastmile_qr_scan", "android": "https://dc.lft.to/lastmile_qr_scan"}, "lon": -77.00209416666667, "type": "electric_scooter", "fusion_lat": 0.0, "lat": 38.899911833333334, "name": "8d2847d2926450880da4e4a6521d7992", "fusion_lon": 0.0, "bike_id": "8d2847d2926450880da4e4a6521d7992", "is_disabled": 0, "is_reserved": 0}, {"rental_uris": {"ios": "https://dc.lft.to/lastmile_qr_scan", "android": "https://dc.lft.to/lastmile_qr_scan"}, "lon": -76.97291083333333, "type": "electric_scooter", "fusion_lat": 0.0, "lat": 38.903364833333335, "name": "a219ae237c2f55c39d4c590819e5628f", "fusion_lon": 0.0, "bike_id": "a219ae237c2f55c39d4c590819e5628f", "is_disabled": 0, "is_reserved": 0}, {"rental_uris": {"ios": "https://dc.lft.to/lastmile_qr_scan", "android": "https://dc.lft.to/lastmile_qr_scan"}, "lon": -76.93232083333334, "type": "electric_bike", "fusion_lat": 0.0, "lat": 38.865967, "name": "b02f947f8502fd675df0132c630f2286", "fusion_lon": 0.0, "bike_id": "b02f947f8502fd675df0132c630f2286", "is_disabled": 0, "is_reserved": 0}, {"rental_uris": {"ios": "https://dc.lft.to/lastmile_qr_scan", "android": "https://dc.lft.to/lastmile_qr_scan"}, "lon": -76.99385633333333, "type": "electric_scooter", "fusion_lat": 0.0, "lat": 38.88723133333333, "name": "31847adba42016e757648973f39ee373", "fusion_lon": 0.0, "bike_id": "31847adba42016e757648973f39ee373", "is_disabled": 0, "is_reserved": 0}, {"rental_uris": {"ios": "https://dc.lft.to/lastmile_qr_scan", "android": "https://dc.lft.to/lastmile_qr_scan"}, "lon": -77.026988, "type": "electric_scooter", "fusion_lat": 0.0, "lat": 38.908448166666666, "name": "6d5f683a657582c82700870b644dea31", "fusion_lon": 0.0, "bike_id": "6d5f683a657582c82700870b644dea31", "is_disabled": 0, "is_reserved": 0}, {"rental_uris": {"ios": "https://dc.lft.to/lastmile_qr_scan", "android": "https://dc.lft.to/lastmile_qr_scan"}, "lon": -77.03640833333333, "type": "electric_scooter", "fusion_lat": 0.0, "lat": 38.91816766666667, "name": "d1648b42f7fff7bb098c9faa711f67ca", "fusion_lon": 0.0, "bike_id": "d1648b42f7fff7bb098c9faa711f67ca", "is_disabled": 0, "is_reserved": 0}, {"rental_uris": {"ios": "https://dc.lft.to/lastmile_qr_scan", "android": "https://dc.lft.to/lastmile_qr_scan"}, "lon": -77.00297266666666, "type": "electric_scooter", "fusion_lat": 0.0, "lat": 38.909229, "name": "45ce8dba7903214918d31e698330e9b0", "fusion_lon": 0.0, "bike_id": "45ce8dba7903214918d31e698330e9b0", "is_disabled": 0, "is_reserved": 0}, {"rental_uris": {"ios": "https://dc.lft.to/lastmile_qr_scan", "android": "https://dc.lft.to/lastmile_qr_scan"}, "lon": -76.9677155, "type": "electric_scooter", "fusion_lat": 0.0, "lat": 38.861461, "name": "b16fbb90ddbe02ed3f302f6ea9697141", "fusion_lon": 0.0, "bike_id": "b16fbb90ddbe02ed3f302f6ea9697141", "is_disabled": 0, "is_reserved": 0}, {"rental_uris": {"ios": "https://dc.lft.to/lastmile_qr_scan", "android": "https://dc.lft.to/lastmile_qr_scan"}, "lon": -77.1142905, "type": "electric_bike", "fusion_lat": 0.0, "lat": 38.852466166666666, "name": "84eb18f7fd5f6502f8d5f6886d35ce9e", "fusion_lon": 0.0, "bike_id": "84eb18f7fd5f6502f8d5f6886d35ce9e", "is_disabled": 0, "is_reserved": 0}, {"rental_uris": {"ios": "https://dc.lft.to/lastmile_qr_scan", "android": "https://dc.lft.to/lastmile_qr_scan"}, "lon": -77.050218, "type": "electric_scooter", "fusion_lat": 0.0, "lat": 38.89653583333333, "name": "9f598e431d1d65201d1b39a6e3bd8d6c", "fusion_lon": 0.0, "bike_id": "9f598e431d1d65201d1b39a6e3bd8d6c", "is_disabled": 0, "is_reserved": 0}, {"rental_uris": {"ios": "https://dc.lft.to/lastmile_qr_scan", "android": "https://dc.lft.to/lastmile_qr_scan"}, "lon": -77.03169133333333, "type": "electric_scooter", "fusion_lat": 0.0, "lat": 38.89961433333333, "name": "4832634f557ec7407f1bab8535812525", "fusion_lon": 0.0, "bike_id": "4832634f557ec7407f1bab8535812525", "is_disabled": 0, "is_reserved": 0}, {"rental_uris": {"ios": "https://dc.lft.to/lastmile_qr_scan", "android": "https://dc.lft.to/lastmile_qr_scan"}, "lon": -77.03458616666667, "type": "electric_scooter", "fusion_lat": 0.0, "lat": 38.90276183333334, "name": "d43cb259619849e6938c64fd6ca3e35b", "fusion_lon": 0.0, "bike_id": "d43cb259619849e6938c64fd6ca3e35b", "is_disabled": 0, "is_reserved": 0}, {"rental_uris": {"ios": "https://dc.lft.to/lastmile_qr_scan", "android": "https://dc.lft.to/lastmile_qr_scan"}, "lon": -77.03328266666666, "type": "electric_scooter", "fusion_lat": 0.0, "lat": 38.92148566666667, "name": "b508e78a4823a3de249749f78f2d53bb", "fusion_lon": 0.0, "bike_id": "b508e78a4823a3de249749f78f2d53bb", "is_disabled": 0, "is_reserved": 0}, {"rental_uris": {"ios": "https://dc.lft.to/lastmile_qr_scan", "android": "https://dc.lft.to/lastmile_qr_scan"}, "lon": -77.07488083333334, "type": "electric_scooter", "fusion_lat": 0.0, "lat": 38.91490116666667, "name": "2bc0fdf42b958e70dee1dd2fc33e4c7a", "fusion_lon": 0.0, "bike_id": "2bc0fdf42b958e70dee1dd2fc33e4c7a", "is_disabled": 0, "is_reserved": 0}, {"rental_uris": {"ios": "https://dc.lft.to/lastmile_qr_scan", "android": "https://dc.lft.to/lastmile_qr_scan"}, "lon": -77.00230233333333, "type": "electric_scooter", "fusion_lat": 0.0, "lat": 38.90579433333333, "name": "e212c62d9e483619c53812cd15ce27cf", "fusion_lon": 0.0, "bike_id": "e212c62d9e483619c53812cd15ce27cf", "is_disabled": 0, "is_reserved": 0}, {"rental_uris": {"ios": "https://dc.lft.to/lastmile_qr_scan", "android": "https://dc.lft.to/lastmile_qr_scan"}, "lon": -76.98411033333333, "type": "electric_scooter", "fusion_lat": 0.0, "lat": 38.913865666666666, "name": "e06ee7d94c7a8524ea149a58ba57aa77", "fusion_lon": 0.0, "bike_id": "e06ee7d94c7a8524ea149a58ba57aa77", "is_disabled": 0, "is_reserved": 0}, {"rental_uris": {"ios": "https://dc.lft.to/lastmile_qr_scan", "android": "https://dc.lft.to/lastmile_qr_scan"}, "lon": -77.06010366666666, "type": "electric_scooter", "fusion_lat": 0.0, "lat": 38.9126845, "name": "cf6a1cdad5650f011134e13146e6a74b", "fusion_lon": 0.0, "bike_id": "cf6a1cdad5650f011134e13146e6a74b", "is_disabled": 0, "is_reserved": 0}, {"rental_uris": {"ios": "https://dc.lft.to/lastmile_qr_scan", "android": "https://dc.lft.to/lastmile_qr_scan"}, "lon": -77.03869216666666, "type": "electric_scooter", "fusion_lat": 0.0, "lat": 38.915568, "name": "96369b0e2dd2cd81f0129fcea9fe63d2", "fusion_lon": 0.0, "bike_id": "96369b0e2dd2cd81f0129fcea9fe63d2", "is_disabled": 0, "is_reserved": 0}, {"rental_uris": {"ios": "https://dc.lft.to/lastmile_qr_scan", "android": "https://dc.lft.to/lastmile_qr_scan"}, "lon": -76.98715166666666, "type": "electric_scooter", "fusion_lat": 0.0, "lat": 38.8625665, "name": "aa635fd18360d4cb244ae6f67c3aaacd", "fusion_lon": 0.0, "bike_id": "aa635fd18360d4cb244ae6f67c3aaacd", "is_disabled": 0, "is_reserved": 0}, {"rental_uris": {"ios": "https://dc.lft.to/lastmile_qr_scan", "android": "https://dc.lft.to/lastmile_qr_scan"}, "lon": -77.03623633333333, "type": "electric_scooter", "fusion_lat": 0.0, "lat": 38.93253283333333, "name": "97b56586e3d6949a2fd12f15d2f543b2", "fusion_lon": 0.0, "bike_id": "97b56586e3d6949a2fd12f15d2f543b2", "is_disabled": 0, "is_reserved": 0}, {"rental_uris": {"ios": "https://dc.lft.to/lastmile_qr_scan", "android": "https://dc.lft.to/lastmile_qr_scan"}, "lon": -76.9418415, "type": "electric_scooter", "fusion_lat": 0.0, "lat": 38.88222066666667, "name": "9a6a749f3dd2bc2f0e339ddca5e02afb", "fusion_lon": 0.0, "bike_id": "9a6a749f3dd2bc2f0e339ddca5e02afb", "is_disabled": 0, "is_reserved": 0}, {"rental_uris": {"ios": "https://dc.lft.to/lastmile_qr_scan", "android": "https://dc.lft.to/lastmile_qr_scan"}, "lon": -77.034484, "type": "electric_scooter", "fusion_lat": 0.0, "lat": 38.90736016666666, "name": "be433417cf2ae8704016380eafc79d78", "fusion_lon": 0.0, "bike_id": "be433417cf2ae8704016380eafc79d78", "is_disabled": 0, "is_reserved": 0}, {"rental_uris": {"ios": "https://dc.lft.to/lastmile_qr_scan", "android": "https://dc.lft.to/lastmile_qr_scan"}, "lon": -77.02714533333334, "type": "electric_scooter", "fusion_lat": 0.0, "lat": 38.92465583333333, "name": "9df24bfcc4cb55c365f15cae9ecb3cd9", "fusion_lon": 0.0, "bike_id": "9df24bfcc4cb55c365f15cae9ecb3cd9", "is_disabled": 0, "is_reserved": 0}, {"rental_uris": {"ios": "https://dc.lft.to/lastmile_qr_scan", "android": "https://dc.lft.to/lastmile_qr_scan"}, "lon": -77.05469066666667, "type": "electric_scooter", "fusion_lat": 0.0, "lat": 38.920992, "name": "691bdb0615e47b59d71ebf710b1af4ab", "fusion_lon": 0.0, "bike_id": "691bdb0615e47b59d71ebf710b1af4ab", "is_disabled": 0, "is_reserved": 0}, {"rental_uris": {"ios": "https://dc.lft.to/lastmile_qr_scan", "android": "https://dc.lft.to/lastmile_qr_scan"}, "lon": -76.9553025, "type": "electric_scooter", "fusion_lat": 0.0, "lat": 38.88782333333333, "name": "ae9be3c01bca26e7aaca656627733ccc", "fusion_lon": 0.0, "bike_id": "ae9be3c01bca26e7aaca656627733ccc", "is_disabled": 0, "is_reserved": 0}, {"rental_uris": {"ios": "https://dc.lft.to/lastmile_qr_scan", "android": "https://dc.lft.to/lastmile_qr_scan"}, "lon": -77.03745783333333, "type": "electric_scooter", "fusion_lat": 0.0, "lat": 38.9290225, "name": "1d63962ec4b7da881b07c2ea6a3921cd", "fusion_lon": 0.0, "bike_id": "1d63962ec4b7da881b07c2ea6a3921cd", "is_disabled": 0, "is_reserved": 0}, {"rental_uris": {"ios": "https://dc.lft.to/lastmile_qr_scan", "android": "https://dc.lft.to/lastmile_qr_scan"},