{"data": {"bikes": [{"name": "ef0d2135b656543d77e813719941ebf2", "fusion_lat": 0.0, "type": "electric_scooter", "lat": 38.918271833333336, "is_reserved": 0, "is_disabled": 0, "fusion_lon": 0.0, "bike_id": "ef0d2135b656543d77e813719941ebf2", "lon": -77.02723983333334, "rental_uris": {"ios": "https://dc.lft.to/lastmile_qr_scan", "android": "https://dc.lft.to/lastmile_qr_scan"}}, {"name": "e88d5db3b04dbbfa0b27f952aae85cf4", "fusion_lat": 0.0, "type": "electric_scooter", "lat": 38.907281166666664, "is_reserved": 0, "is_disabled": 0, "fusion_lon": 0.0, "bike_id": "e88d5db3b04dbbfa0b27f952aae85cf4", "lon": -77.04491933333334, "rental_uris": {"ios": "https://dc.lft.to/lastmile_qr_scan", "android": "https://dc.lft.to/lastmile_qr_scan"}}, {"name": "c7c24899b25d31b800b595d11eb300ed", "fusion_lat": 0.0, "type": "electric_scooter", "lat": 38.93459933333333, "is_reserved": 0, "is_disabled": 0, "fusion_lon": 0.0, "bike_id": "c7c24899b25d31b800b595d11eb300ed", "lon": -77.02861366666667, "rental_uris": {"ios": "https://dc.lft.to/lastmile_qr_scan", "android": "https://dc.lft.to/lastmile_qr_scan"}}, {"name": "8922303aa3a92143a04dd05a12e91463", "fusion_lat": 0.0, "type": "electric_scooter", "lat": 38.90289683333334, "is_reserved": 0, "is_disabled": 0, "fusion_lon": 0.0, "bike_id": "8922303aa3a92143a04dd05a12e91463", "lon": -77.038389, "rental_uris": {"ios": "https://dc.lft.to/lastmile_qr_scan", "android": "https://dc.lft.to/lastmile_qr_scan"}}, {"name": "a56f6078928787c9afd53ecf2e952763", "fusion_lat": 0.0, "type": "electric_scooter", "lat": 38.91964483333334, "is_reserved": 0, "is_disabled": 0, "fusion_lon": 0.0, "bike_id": "a56f6078928787c9afd53ecf2e952763", "lon": -77.02498, "rental_uris": {"ios": "https://dc.lft.to/lastmile_qr_scan", "android": "https://dc.lft.to/lastmile_qr_scan"}}, {"name": "816c56ebf9d3fd3d1f318b9130df04bb", "fusion_lat": 0.0, "type": "electric_scooter", "lat": 38.918083333333335, "is_reserved": 0, "is_disabled": 0, "fusion_lon": 0.0, "bike_id": "816c56ebf9d3fd3d1f318b9130df04bb", "lon": -77.03261933333333, "rental_uris": {"ios": "https://dc.lft.to/lastmile_qr_scan", "android": "https://dc.lft.to/lastmile_qr_scan"}}, {"name": "fb87684469b410e8ad8873dd10808080", "fusion_lat": 0.0, "type": "electric_scooter", "lat": 38.915806833333335, "is_reserved": 0, "is_disabled": 0, "fusion_lon": 0.0, "bike_id": "fb87684469b410e8ad8873dd10808080", "lon": -77.0318225, "rental_uris": {"ios": "https://dc.lft.to/lastmile_qr_scan", "android": "https://dc.lft.to/lastmile_qr_scan"}}, {"name": "9058f38020dfda42eba297ec985b0a63", "fusion_lat": 0.0, "type": "electric_scooter", "lat": 38.9180575, "is_reserved": 0, "is_disabled": 0, "fusion_lon": 0.0, "bike_id": "9058f38020dfda42eba297ec985b0a63", "lon": -77.04014033333333, "rental_uris": {"ios": "https://dc.lft.to/lastmile_qr_scan", "android": "https://dc.lft.to/lastmile_qr_scan"}}, {"name": "59fa46c19cb2172b5482a0b687e27a96", "fusion_lat": 0.0, "type": "electric_scooter", "lat": 38.912640333333336, "is_reserved": 0, "is_disabled": 0, "fusion_lon": 0.0, "bike_id": "59fa46c19cb2172b5482a0b687e27a96", "lon": -77.04156766666667, "rental_uris": {"ios": "https://dc.lft.to/lastmile_qr_scan", "android": "https://dc.lft.to/lastmile_qr_scan"}}, {"name": "01d82ec6adf4f4138d34045ad8055ce9", "fusion_lat": 0.0, "type": "electric_bike", "lat": 38.85242983333333, "is_reserved": 0, "is_disabled": 0, "fusion_lon": 0.0, "bike_id": "01d82ec6adf4f4138d34045ad8055ce9", "lon": -77.11428633333334, "rental_uris": {"ios": "https://dc.lft.to/lastmile_qr_scan", "android": "https://dc.lft.to/lastmile_qr_scan"}}, {"name": "151fde9b3e8b88fee4d996484f9e9a7f", "fusion_lat": 0.0, "type": "electric_scooter", "lat": 38.958702333333335, "is_reserved": 0, "is_disabled": 0, "fusion_lon": 0.0, "bike_id": "151fde9b3e8b88fee4d996484f9e9a7f", "lon": -77.02049733333334, "rental_uris": {"ios": "https://dc.lft.to/lastmile_qr_scan", "android": "https://dc.lft.to/lastmile_qr_scan"}}, {"name": "25adcaa4a435cf77684d998632eec245", "fusion_lat": 0.0, "type": "electric_scooter", "lat": 38.909711333333334, "is_reserved": 0, "is_disabled": 0, "fusion_lon": 0.0, "bike_id": "25adcaa4a435cf77684d998632eec245", "lon": -77.04134083333334, "rental_uris": {"ios": "https://dc.lft.to/lastmile_qr_scan", "android": "https://dc.lft.to/lastmile_qr_scan"}}, {"name": "f6a622578c611e1ae3160de8d4159a84", "fusion_lat": 0.0, "type": "electric_scooter", "lat": 38.87095033333333, "is_reserved": 0, "is_disabled": 0, "fusion_lon": 0.0, "bike_id": "f6a622578c611e1ae3160de8d4159a84", "lon": -76.96585216666666, "rental_uris": {"ios": "https://dc.lft.to/lastmile_qr_scan", "android": "https://dc.lft.to/lastmile_qr_scan"}}, {"name": "9bbbcc955f98b9e3cec113a8f32e448b", "fusion_lat": 0.0, "type": "electric_scooter", "lat": 38.9012135, "is_reserved": 0, "is_disabled": 0, "fusion_lon": 0.0, "bike_id": "9bbbcc955f98b9e3cec113a8f32e448b", "lon": -77.0289535, "rental_uris": {"ios": "https://dc.lft.to/lastmile_qr_scan", "android": "https://dc.lft.to/lastmile_qr_scan"}}, {"name": "dee5630253f085621ddb0d08603d0efc", "fusion_lat": 0.0, "type": "electric_scooter", "lat": 38.901168, "is_reserved": 0, "is_disabled": 0, "fusion_lon": 0.0, "bike_id": "dee5630253f085621ddb0d08603d0efc", "lon": -77.03051066666667, "rental_uris": {"ios": "https://dc.lft.to/lastmile_qr_scan", "android": "https://dc.lft.to/lastmile_qr_scan"}}, {"name": "3eb959cb1ba4eb95947cc66f6ba4955e", "fusion_lat": 0.0, "type": "electric_scooter", "lat": 38.89413616666667, "is_reserved": 0, "is_disabled": 0, "fusion_lon": 0.0, "bike_id": "3eb959cb1ba4eb95947cc66f6ba4955e", "lon": -76.93956983333334, "rental_uris": {"ios": "https://dc.lft.to/lastmile_qr_scan", "android": "https://dc.lft.to/lastmile_qr_scan"}}, {"name": "442ab142069db9066082d1c648baa57b", "fusion_lat": 0.0, "type": "electric_scooter", "lat": 38.90324783333333, "is_reserved": 0, "is_disabled": 0, "fusion_lon": 0.0, "bike_id": "442ab142069db9066082d1c648baa57b", "lon": -77.0287745, "rental_uris": {"ios": "https://dc.lft.to/lastmile_qr_scan", "android": "https://dc.lft.to/lastmile_qr_scan"}}, {"name": "739b552e5d0ed50490298270c3b3fab2", "fusion_lat": 0.0, "type": "electric_scooter", "lat": 38.920253333333335, "is_reserved": 0, "is_disabled": 0, "fusion_lon": 0.0, "bike_id": "739b552e5d0ed50490298270c3b3fab2", "lon": -77.03116866666667, "rental_uris": {"ios": "https://dc.lft.to/lastmile_qr_scan", "android": "https://dc.lft.to/lastmile_qr_scan"}}, {"name": "7a5397abfd88fc04a90362065c83536b", "fusion_lat": 0.0, "type": "electric_scooter", "lat": 38.87724083333333, "is_reserved": 0, "is_disabled": 0, "fusion_lon": 0.0, "bike_id": "7a5397abfd88fc04a90362065c83536b", "lon": -77.01764833333333, "rental_uris": {"ios": "https://dc.lft.to/lastmile_qr_scan", "android": "https://dc.lft.to/lastmile_qr_scan"}}, {"name": "701bbb504e1f0fa2b02edc02b267cea5", "fusion_lat": 0.0, "type": "electric_scooter", "lat": 38.87234616666667, "is_reserved": 0, "is_disabled": 0, "fusion_lon": 0.0, "bike_id": "701bbb504e1f0fa2b02edc02b267cea5", "lon": -76.97823583333333, "rental_uris": {"ios": "https://dc.lft.to/lastmile_qr_scan", "android": "https://dc.lft.to/lastmile_qr_scan"}}, {"name": "d3153972fc97056f5df189e7bbbaf68b", "fusion_lat": 0.0, "type": "electric_bike", "lat": 38.940903166666665, "is_reserved": 0, "is_disabled": 0, "fusion_lon": 0.0, "bike_id": "d3153972fc97056f5df189e7bbbaf68b", "lon": -77.03261383333333, "rental_uris": {"ios": "https://dc.lft.to/lastmile_qr_scan", "android": "https://dc.lft.to/lastmile_qr_scan"}}, {"name": "d9eac6700af1aeee01af191c66963e1d", "fusion_lat": 0.0, "type": "electric_bike", "lat": 38.8793965, "is_reserved": 0, "is_disabled": 0, "fusion_lon": 0.0, "bike_id": "d9eac6700af1aeee01af191c66963e1d", "lon": -77.00638166666667, "rental_uris": {"ios": "https://dc.lft.to/lastmile_qr_scan", "android": "https://dc.lft.to/lastmile_qr_scan"}}, {"name": "f40f81febd6f7c3c3cb17dfcf578d272", "fusion_lat": 0.0, "type": "electric_bike", "lat": 38.904152, "is_reserved": 0, "is_disabled": 0, "fusion_lon": 0.0, "bike_id": "f40f81febd6f7c3c3cb17dfcf578d272", "lon": -77.0511795, "rental_uris": {"ios": "https://dc.lft.to/lastmile_qr_scan", "android": "https://dc.lft.to/lastmile_qr_scan"}}, {"name": "4f6ffe5d9817f06f6dc9f62086561b49", "fusion_lat": 0.0, "type": "electric_bike", "lat": 38.93672316666667, "is_reserved": 0, "is_disabled": 0, "fusion_lon": 0.0, "bike_id": "4f6ffe5d9817f06f6dc9f62086561b49", "lon": -76.9520715, "rental_uris": {"ios": "https://dc.lft.to/lastmile_qr_scan", "android": "https://dc.lft.to/lastmile_qr_scan"}}, {"name": "912eead34fd371e12d8e7da38fe2cd8a", "fusion_lat": 0.0, "type": "electric_scooter", "lat": 38.91262583333334, "is_reserved": 0, "is_disabled": 0, "fusion_lon": 0.0, "bike_id": "912eead34fd371e12d8e7da38fe2cd8a", "lon": -77.04470133333334, "rental_uris": {"ios": "https://dc.lft.to/lastmile_qr_scan", "android": "https://dc.lft.to/lastmile_qr_scan"}}, {"name": "ac3dde0cda012d42cf9cec17eabc29e5", "fusion_lat": 0.0, "type": "electric_scooter", "lat": 38.918024, "is_reserved": 0, "is_disabled": 0, "fusion_lon": 0.0, "bike_id": "ac3dde0cda012d42cf9cec17eabc29e5", "lon": -77.028153, "rental_uris": {"ios": "https://dc.lft.to/lastmile_qr_scan", "android": "https://dc.lft.to/lastmile_qr_scan"}}, {"name": "1dc93655ad5fa30ba6c8962e34c3581d", "fusion_lat": 0.0, "type": "electric_bike", "lat": 38.83859833333333, "is_reserved": 0, "is_disabled": 0, "fusion_lon": 0.0, "bike_id": "1dc93655ad5fa30ba6c8962e34c3581d", "lon": -77.08866216666667, "rental_uris": {"ios": "https://dc.lft.to/lastmile_qr_scan", "android": "https://dc.lft.to/lastmile_qr_scan"}}, {"name": "8cc6ab48ae04dac56dce183bed26ef97", "fusion_lat": 0.0, "type": "electric_scooter", "lat": 38.903232, "is_reserved": 0, "is_disabled": 0, "fusion_lon": 0.0, "bike_id": "8cc6ab48ae04dac56dce183bed26ef97", "lon": -77.03855566666667, "rental_uris": {"ios": "https://dc.lft.to/lastmile_qr_scan", "android": "https://dc.lft.to/lastmile_qr_scan"}}, {"name": "52b23dcca76b8cab9e94661a07a2c11d", "fusion_lat": 0.0, "type": "electric_scooter", "lat": 38.930984333333335, "is_reserved": 0, "is_disabled": 0, "fusion_lon": 0.0, "bike_id": "52b23dcca76b8cab9e94661a07a2c11d", "lon": -77.02413616666666, "rental_uris": {"ios": "https://dc.lft.to/lastmile_qr_scan", "android": "https://dc.lft.to/lastmile_qr_scan"}}, {"name": "ce4f2d902647fdc2d88af64577124310", "fusion_lat": 0.0, "type": "electric_scooter", "lat": 38.88932766666667, "is_reserved": 0, "is_disabled": 0, "fusion_lon": 0.0, "bike_id": "ce4f2d902647fdc2d88af64577124310", "lon": -76.94777466666666, "rental_uris": {"ios": "https://dc.lft.to/lastmile_qr_scan", "android": "https://dc.lft.to/lastmile_qr_scan"}}, {"name": "9b7a6ded4f1474d4a7582da0a9545490", "fusion_lat": 0.0, "type": "electric_scooter", "lat": 38.901400333333335, "is_reserved": 0, "is_disabled": 0, "fusion_lon": 0.0, "bike_id": "9b7a6ded4f1474d4a7582da0a9545490", "lon": -76.99969066666667, "rental_uris": {"ios": "https://dc.lft.to/lastmile_qr_scan", "android": "https://dc.lft.to/lastmile_qr_scan"}}, {"name": "c3e2d0e5f766ceae9a0e5cf366291f79", "fusion_lat": 0.0, "type": "electric_scooter", "lat": 38.91108366666667, "is_reserved": 0, "is_disabled": 0, "fusion_lon": 0.0, "bike_id": "c3e2d0e5f766ceae9a0e5cf366291f79", "lon": -77.03827583333333, "rental_uris": {"ios": "https://dc.lft.to/lastmile_qr_scan", "android": "https://dc.lft.to/lastmile_qr_scan"}}, {"name": "0a2dc202ea98624f2b0c279f045b5c66", "fusion_lat": 0.0, "type": "electric_bike", "lat": 38.902839166666666, "is_reserved": 0, "is_disabled": 0, "fusion_lon": 0.0, "bike_id": "0a2dc202ea98624f2b0c279f045b5c66", "lon": -76.980845, "rental_uris": {"ios": "https://dc.lft.to/lastmile_qr_scan", "android": "https://dc.lft.to/lastmile_qr_scan"}}, {"name": "47c69328d79b9c6cdb60a9b463612f62", "fusion_lat": 0.0, "type": "electric_scooter", "lat": 38.93433616666667, "is_reserved": 0, "is_disabled": 0, "fusion_lon": 0.0, "bike_id": "47c69328d79b9c6cdb60a9b463612f62", "lon": -77.039952, "rental_uris": {"ios": "https://dc.lft.to/lastmile_qr_scan", "android": "https://dc.lft.to/lastmile_qr_scan"}}, {"name": "ef88fc339d7de775cc670fe53a5fe001", "fusion_lat": 0.0, "type": "electric_bike", "lat": 38.97324866666666, "is_reserved": 0, "is_disabled": 0, "fusion_lon": 0.0, "bike_id": "ef88fc339d7de775cc670fe53a5fe001", "lon": -77.02152316666667, "rental_uris": {"ios": "https://dc.lft.to/lastmile_qr_scan", "android": "https://dc.lft.to/lastmile_qr_scan"}}, {"name": "462941c64fb6423ed4970481aca6fd89", "fusion_lat": 0.0, "type": "electric_scooter", "lat": 38.9141585, "is_reserved": 0, "is_disabled": 0, "fusion_lon": 0.0, "bike_id": "462941c64fb6423ed4970481aca6fd89", "lon": -77.02805783333334, "rental_uris": {"ios": "https://dc.lft.to/lastmile_qr_scan", "android": "https://dc.lft.to/lastmile_qr_scan"}}, {"name": "2319fd3b6afdf934d50c64fc715f15f2", "fusion_lat": 0.0, "type": "electric_scooter", "lat": 38.90874766666666, "is_reserved": 0, "is_disabled": 0, "fusion_lon": 0.0, "bike_id": "2319fd3b6afdf934d50c64fc715f15f2", "lon": -77.03441816666667, "rental_uris": {"ios": "https://dc.lft.to/lastmile_qr_scan", "android": "https://dc.lft.to/lastmile_qr_scan"}}, {"name": "dd119cd25fa3e57e04ce808a08c2b655", "fusion_lat": 0.0, "type": "electric_scooter", "lat": 38.882207666666666, "is_reserved": 0, "is_disabled": 0, "fusion_lon": 0.0, "bike_id": "dd119cd25fa3e57e04ce808a08c2b655", "lon": -76.94173516666666, "rental_uris": {"ios": "https://dc.lft.to/lastmile_qr_scan", "android": "https://dc.lft.to/lastmile_qr_scan"}}, {"name": "4ef252726ab8e3473c30e92cc1396fc5", "fusion_lat": 0.0, "type": "electric_scooter", "lat": 38.92488916666667, "is_reserved": 0, "is_disabled": 0, "fusion_lon": 0.0, "bike_id": "4ef252726ab8e3473c30e92cc1396fc5", "lon": -77.02710966666666, "rental_uris": {"ios": "https://dc.lft.to/lastmile_qr_scan", "android": "https://dc.lft.to/lastmile_qr_scan"}}, {"name": "355d90ab9134b6b070cc67213a059e70", "fusion_lat": 0.0, "type": "electric_scooter", "lat": 38.924726, "is_reserved": 0, "is_disabled": 0, "fusion_lon": 0.0, "bike_id": "355d90ab9134b6b070cc67213a059e70", "lon": -77.03047633333334, "rental_uris": {"ios": "https://dc.lft.to/lastmile_qr_scan", "android": "https://dc.lft.to/lastmile_qr_scan"}}, {"name": "3827c204cb0170ff2d1fc3d169700d92", "fusion_lat": 0.0, "type": "electric_scooter", "lat": 38.909799166666666, "is_reserved": 0, "is_disabled": 0, "fusion_lon": 0.0, "bike_id": "3827c204cb0170ff2d1fc3d169700d92", "lon": -77.04657466666667, "rental_uris": {"ios": "https://dc.lft.to/lastmile_qr_scan", "android": "https://dc.lft.to/lastmile_qr_scan"}}, {"name": "d9034d6080dd7e75ca1d7fd6d6a3358b", "fusion_lat": 0.0, "type": "electric_scooter", "lat": 38.920747166666665, "is_reserved": 0, "is_disabled": 0, "fusion_lon": 0.0, "bike_id": "d9034d6080dd7e75ca1d7fd6d6a3358b", "lon": -77.02390933333334, "rental_uris": {"ios": "https://dc.lft.to/lastmile_qr_scan", "android": "https://dc.lft.to/lastmile_qr_scan"}}, {"name": "7f3e561db33487beb744702cd9bc56f4", "fusion_lat": 0.0, "type": "electric_scooter", "lat": 38.932610833333335, "is_reserved": 0, "is_disabled": 0, "fusion_lon": 0.0, "bike_id": "7f3e561db33487beb744702cd9bc56f4", "lon": -77.032637, "rental_uris": {"ios": "https://dc.lft.to/lastmile_qr_scan", "android": "https://dc.lft.to/lastmile_qr_scan"}}, {"name": "c78f0e96204fe20e4d33556ee16cd3ab", "fusion_lat": 0.0, "type": "electric_scooter", "lat": 38.9056795, "is_reserved": 0, "is_disabled": 0, "fusion_lon": 0.0, "bike_id": "c78f0e96204fe20e4d33556ee16cd3ab", "lon": -76.99681133333333, "rental_uris": {"ios": "https://dc.lft.to/lastmile_qr_scan", "android": "https://dc.lft.to/lastmile_qr_scan"}}, {"name": "289d2f1ced292bf588c43c4c441d2205", "fusion_lat": 0.0, "type": "electric_scooter", "lat": 38.86259166666667, "is_reserved": 0, "is_disabled": 0, "fusion_lon": 0.0, "bike_id": "289d2f1ced292bf588c43c4c441d2205", "lon": -76.98709516666666, "rental_uris": {"ios": "https://dc.lft.to/lastmile_qr_scan", "android": "https://dc.lft.to/lastmile_qr_scan"}}, {"name": "187bf7e567c17167a83f29fd6696afc2", "fusion_lat": 0.0, "type": "electric_scooter", "lat": 38.914850333333334, "is_reserved": 0, "is_disabled": 0, "fusion_lon": 0.0, "bike_id": "187bf7e567c17167a83f29fd6696afc2", "lon": -77.04144883333333, "rental_uris": {"ios": "https://dc.lft.to/lastmile_qr_scan", "android": "https://dc.lft.to/lastmile_qr_scan"}}, {"name": "b65efa999edc5ea895f1158860bf0498", "fusion_lat": 0.0, "type": "electric_scooter", "lat": 38.92929983333333, "is_reserved": 0, "is_disabled": 0, "fusion_lon": 0.0, "bike_id": "b65efa999edc5ea895f1158860bf0498", "lon": -77.02334716666667, "rental_uris": {"ios": "https://dc.lft.to/lastmile_qr_scan", "android": "https://dc.lft.to/lastmile_qr_scan"}}, {"name": "e4e78c181f85d6f82a6d72ef259b94c8", "fusion_lat": 0.0, "type": "electric_scooter", "lat": 38.881320333333335, "is_reserved": 0, "is_disabled": 0, "fusion_lon": 0.0, "bike_id": "e4e78c181f85d6f82a6d72ef259b94c8", "lon": -77.0131425, "rental_uris": {"ios": "https://dc.lft.to/lastmile_qr_scan", "android": "https://dc.lft.to/lastmile_qr_scan"}}, {"name": "72afdca3710de08d9689a5e6ede99938", "fusion_lat": 0.0, "type": "electric_scooter", "lat": 38.902565333333335, "is_reserved": 0, "is_disabled": 0, "fusion_lon": 0.0, "bike_id": "72afdca3710de08d9689a5e6ede99938", "lon": -77.0346705, "rental_uris": {"ios": "https://dc.lft.to/lastmile_qr_scan", "android": "https://dc.lft.to/lastmile_qr_scan"}}, {"name": "c81957b1c460241f5b746faa9753a569", "fusion_lat": 0.0, "type": "electric_scooter", "lat": 38.916855166666664, "is_reserved": 0, "is_disabled": 0, "fusion_lon": 0.0, "bike_id": "c81957b1c460241f5b746faa9753a569", "lon": -77.03634516666666, "rental_uris": {"ios": "https://dc.lft.to/lastmile_qr_scan", "android": "https://dc.lft.to/lastmile_qr_scan"}}, {"name": "57e4888cfe212e507870eaf6a2d42b0c", "fusion_lat": 0.0, "type": "electric_bike", "lat": 38.96540616666667, "is_reserved": 0, "is_disabled": 0, "fusion_lon": 0.0, "bike_id": "57e4888cfe212e507870eaf6a2d42b0c", "lon": -77.03522466666666, "rental_uris": {"ios": "https://dc.lft.to/lastmile_qr_scan", "android": "https://dc.lft.to/lastmile_qr_scan"}}, {"name": "785dfa520041fb4d3472aeeb077c7ed7", "fusion_lat": 0.0, "type": "electric_scooter", "lat": 38.90701383333333, "is_reserved": 0, "is_disabled": 0, "fusion_lon": 0.0, "bike_id": "785dfa520041fb4d3472aeeb077c7ed7", "lon": -76.9870215, "rental_uris": {"ios": "https://dc.lft.to/lastmile_qr_scan", "android": "https://dc.lft.to/lastmile_qr_scan"}}, {"name": "f2ec253e89d935e7f5adbd486725029b", "fusion_lat": 0.0, "type": "electric_scooter", "lat": 38.9097725, "is_reserved": 0, "is_disabled": 0, "fusion_lon": 0.0, "bike_id": "f2ec253e89d935e7f5adbd486725029b", "lon": -77.03374583333333, "rental_uris": {"ios": "https://dc.lft.to/lastmile_qr_scan", "android": "https://dc.lft.to/lastmile_qr_scan"}}, {"name": "30e029cd500d1d9327223d78ab2c5057", "fusion_lat": 0.0, "type": "electric_scooter", "lat": 38.93488216666667, "is_reserved": 0, "is_disabled": 0, "fusion_lon": 0.0, "bike_id": "30e029cd500d1d9327223d78ab2c5057", "lon": -77.072737, "rental_uris": {"ios": "https://dc.lft.to/lastmile_qr_scan", "android": "https://dc.lft.to/lastmile_qr_scan"}}, {"name": "eec4aecbc5924444efc3cd6524fe62a0", "fusion_lat": 0.0, "type": "electric_scooter", "lat": 38.90322416666667, "is_reserved": 0, "is_disabled": 0, "fusion_lon": 0.0, "bike_id": "eec4aecbc5924444efc3cd6524fe62a0", "lon": -77.0532515, "rental_uris": {"ios": "https://dc.lft.to/lastmile_qr_scan", "android": "https://dc.lft.to/lastmile_qr_scan"}}, {"name": "19b20c32e8b6fb7dc9f809280f5547cb", "fusion_lat": 0.0, "type": "electric_scooter", "lat": 38.89471783333333, "is_reserved": 0, "is_disabled": 0, "fusion_lon": 0.0, "bike_id": "19b20c32e8b6fb7dc9f809280f5547cb", "lon": -77.0200775, "rental_uris": {"ios": "https://dc.lft.to/lastmile_qr_scan", "android": "https://dc.lft.to/lastmile_qr_scan"}}, {"name": "3819d124487d13ddfbcdc524fc115c45", "fusion_lat": 0.0, "type": "electric_bike", "lat": 38.863681666666665, "is_reserved": 0, "is_disabled": 0, "fusion_lon": 0.0, "bike_id": "3819d124487d13ddfbcdc524fc115c45", "lon": -76.9700815, "rental_uris": {"ios": "https://dc.lft.to/lastmile_qr_scan", "android": "https://dc.lft.to/lastmile_qr_scan"}}, {"name": "df4ca929e1d7fe8f038f931296eed9de", "fusion_lat": 0.0, "type": "electric_bike", "lat": 38.8193815, "is_reserved": 0, "is_disabled": 0, "fusion_lon": 0.0, "bike_id": "df4ca929e1d7fe8f038f931296eed9de", "lon": -77.002077, "rental_uris": {"ios": "https://dc.lft.to/lastmile_qr_scan", "android": "https://dc.lft.to/lastmile_qr_scan"}}, {"name": "b5df7cdc1bae98d18ce7de6f3c503fba", "fusion_lat": 0.0, "type": "electric_scooter", "lat": 38.92047316666667, "is_reserved": 0, "is_disabled": 0, "fusion_lon": 0.0, "bike_id": "b5df7cdc1bae98d18ce7de6f3c503fba", "lon": -77.02419583333334, "rental_uris": {"ios": "https://dc.lft.to/lastmile_qr_scan", "android": "https://dc.lft.to/lastmile_qr_scan"}}, {"name": "28a29878fc090d70d31a49173ecc3b6a", "fusion_lat": 0.0, "type": "electric_scooter", "lat": 38.90564116666667, "is_reserved": 0, "is_disabled": 0, "fusion_lon": 0.0, "bike_id": "28a29878fc090d70d31a49173ecc3b6a", "lon": -77.04494116666666, "rental_uris": {"ios": "https://dc.lft.to/lastmile_qr_scan", "android": "https://dc.lft.to/lastmile_qr_scan"}}, {"name": "628f7a18280253852eb2e1f411f1a272", "fusion_lat": 0.0, "type": "electric_scooter", "lat": 38.876361, "is_reserved": 0, "is_disabled": 0, "fusion_lon": 0.0, "bike_id": "628f7a18280253852eb2e1f411f1a272", "lon": -77.0036985, "rental_uris": {"ios": "https://dc.lft.to/lastmile_qr_scan", "android": "https://dc.lft.to/lastmile_qr_scan"}}, {"name": "405c3769b8acb1f36e8919cf3f966d4c", "fusion_lat": 0.0, "type": "electric_scooter", "lat": 38.8741695, "is_reserved": 0, "is_disabled": 0, "fusion_lon": 0.0, "bike_id": "405c3769b8acb1f36e8919cf3f966d4c", "lon": -76.9608775, "rental_uris": {"ios": "https://dc.lft.to/lastmile_qr_scan", "android": "https://dc.lft.to/lastmile_qr_scan"}}, {"name": "fed9fdbf8a49ae89e7dbf1226fcee8ca", "fusion_lat": 0.0, "type": "electric_scooter", "lat": 38.909799166666666, "is_reserved": 0, "is_disabled": 0, "fusion_lon": 0.0, "bike_id": "fed9fdbf8a49ae89e7dbf1226fcee8ca", "lon": -77.06711266666667, "rental_uris": {"ios": "https://dc.lft.to/lastmile_qr_scan", "android": "https://dc.lft.to/lastmile_qr_scan"}}, {"name": "c31968b950e7cb08d9db55eb8ea1dc2c", "fusion_lat": 0.0, "type": "electric_scooter", "lat": 38.94097416666666, "is_reserved": 0, "is_disabled": 0, "fusion_lon": 0.0, "bike_id": "c31968b950e7cb08d9db55eb8ea1dc2c", "lon": -77.02541533333333, "rental_uris": {"ios": "https://dc.lft.to/lastmile_qr_scan", "android": "https://dc.lft.to/lastmile_qr_scan"}}, {"name": "ffd23da753348ae63a2ffa8fa13c1441", "fusion_lat": 0.0, "type": "electric_scooter", "lat": 38.892308, "is_reserved": 0, "is_disabled": 0, "fusion_lon": 0.0, "bike_id": "ffd23da753348ae63a2ffa8fa13c1441", "lon": -77.05000033333333, "rental_uris": {"ios": "https://dc.lft.to/lastmile_qr_scan", "android": "https://dc.lft.to/lastmile_qr_scan"}}, {"name": "8523eaff0c406ef8c2a8c5551662879e", "fusion_lat": 0.0, "type": "electric_scooter", "lat": 38.89653916666666, "is_reserved": 0, "is_disabled": 0, "fusion_lon": 0.0, "bike_id": "8523eaff0c406ef8c2a8c5551662879e", "lon": -76.948532, "rental_uris": {"ios": "https://dc.lft.to/lastmile_qr_scan", "android": "https://dc.lft.to/lastmile_qr_scan"}}, {"name": "5f12c732f14014fd4e1982585a7d0074", "fusion_lat": 0.0, "type": "electric_scooter", "lat": 38.91886266666667, "is_reserved": 0, "is_disabled": 0, "fusion_lon": 0.0, "bike_id": "5f12c732f14014fd4e1982585a7d0074", "lon": -77.02293316666666, "rental_uris": {"ios": "https://dc.lft.to/lastmile_qr_scan", "android": "https://dc.lft.to/lastmile_qr_scan"}}, {"name": "57f58acdee73f72b3fb8099bb843e2f6", "fusion_lat": 0.0, "type": "electric_scooter", "lat": 38.91513883333333, "is_reserved": 0, "is_disabled": 0, "fusion_lon": 0.0, "bike_id": "57f58acdee73f72b3fb8099bb843e2f6", "lon": -77.04169066666667, "rental_uris": {"ios": "https://dc.lft.to/lastmile_qr_scan", "android": "https://dc.lft.to/lastmile_qr_scan"}}, {"name": "865620955997a2c8918c4de0f74a42d9", "fusion_lat": 0.0, "type": "electric_scooter", "lat": 38.88045016666667, "is_reserved": 0, "is_disabled": 0, "fusion_lon": 0.0, "bike_id": "865620955997a2c8918c4de0f74a42d9", "lon": -77.0033965, "rental_uris": {"ios": "https://dc.lft.to/lastmile_qr_scan", "android": "https://dc.lft.to/lastmile_qr_scan"}}, {"name": "af1ba6d5505d0646ab8c78f6826a722d", "fusion_lat": 0.0, "type": "electric_scooter", "lat": 38.90316883333333, "is_reserved": 0, "is_disabled": 0, "fusion_lon": 0.0, "bike_id": "af1ba6d5505d0646ab8c78f6826a722d", "lon": -76.9915825, "rental_uris": {"ios": "https://dc.lft.to/lastmile_qr_scan", "android": "https://dc.lft.to/lastmile_qr_scan"}}, {"name": "3e066429e620f1320d5a5cbb3466c74c", "fusion_lat": 0.0, "type": "electric_bike", "lat": 38.907255166666666, "is_reserved": 0, "is_disabled": 0, "fusion_lon": 0.0, "bike_id": "3e066429e620f1320d5a5cbb3466c74c", "lon": -77.05137566666667, "rental_uris": {"ios": "https://dc.lft.to/lastmile_qr_scan", "android": "https://dc.lft.to/lastmile_qr_scan"}}, {"name": "629963e6a15c72a0b11e531741bb5a2e", "fusion_lat": 0.0, "type": "electric_scooter", "lat": 38.90643133333333, "is_reserved": 0, "is_disabled": 0, "fusion_lon": 0.0, "bike_id": "629963e6a15c72a0b11e531741bb5a2e", "lon": -77.0060295, "rental_uris": {"ios": "https://dc.lft.to/lastmile_qr_scan", "android": "https://dc.lft.to/lastmile_qr_scan"}}, {"name": "666cb41f7eb80f112e345a74ea85299b", "fusion_lat": 0.0, "type": "electric_bike", "lat": 38.94632216666667, "is_reserved": 0, "is_disabled": 0, "fusion_lon": 0.0, "bike_id": "666cb41f7eb80f112e345a74ea85299b", "lon": -77.01843733333334, "rental_uris": {"ios": "https://dc.lft.to/lastmile_qr_scan", "android": "https://dc.lft.to/lastmile_qr_scan"}}, {"name": "5b1964fbbfdfccc7dbb696a20e389bfb", "fusion_lat": 0.0, "type": "electric_scooter", "lat": 38.908498, "is_reserved": 0, "is_disabled": 0, "fusion_lon": 0.0, "bike_id": "5b1964fbbfdfccc7dbb696a20e389bfb", "lon": -77.03268983333334, "rental_uris": {"ios": "https://dc.lft.to/lastmile_qr_scan", "android": "https://dc.lft.to/lastmile_qr_scan"}}, {"name": "4102e3f9522f8f2266b43ef522b3e2df", "fusion_lat": 0.0, "type": "electric_scooter", "lat": 38.923447, "is_reserved": 0, "is_disabled": 0, "fusion_lon": 0.0, "bike_id": "4102e3f9522f8f2266b43ef522b3e2df", "lon": -77.05097283333333, "rental_uris": {"ios": "https://dc.lft.to/lastmile_qr_scan", "android": "https://dc.lft.to/lastmile_qr_scan"}}, {"name": "8a5b66e66c532e0116c74cf684f33fc9", "fusion_lat": 0.0, "type": "electric_scooter", "lat": 38.89522766666666, "is_reserved": 0, "is_disabled": 0, "fusion_lon": 0.0, "bike_id": "8a5b66e66c532e0116c74cf684f33fc9", "lon": -77.0160955, "rental_uris": {"ios": "https://dc.lft.to/lastmile_qr_scan", "android": "https://dc.lft.to/lastmile_qr_scan"}}, {"name": "ac42c39931ac035e4a0a687735ed164f", "fusion_lat": 0.0, "type": "electric_bike", "lat": 38.85867266666666, "is_reserved": 0, "is_disabled": 0, "fusion_lon": 0.0, "bike_id": "ac42c39931ac035e4a0a687735ed164f", "lon": -77.09554183333333, "rental_uris": {"ios": "https://dc.lft.to/lastmile_qr_scan", "android": "https://dc.lft.to/lastmile_qr_scan"}}, {"name": "b0f3db791079133aa08b3a993119a6d8", "fusion_lat": 0.0, "type": "electric_scooter", "lat": 38.9171435, "is_reserved": 0, "is_disabled": 0, "fusion_lon": 0.0, "bike_id": "b0f3db791079133aa08b3a993119a6d8", "lon": -77.03554983333333, "rental_uris": {"ios": "https://dc.lft.to/lastmile_qr_scan", "android": "https://dc.lft.to/lastmile_qr_scan"}}, {"name": "d11c0491e20bcc3a431c3c2997a7a04f", "fusion_lat": 0.0, "type": "electric_scooter", "lat": 38.913488666666666, "is_reserved": 0, "is_disabled": 0, "fusion_lon": 0.0, "bike_id": "d11c0491e20bcc3a431c3c2997a7a04f", "lon": -77.041698, "rental_uris": {"ios": "https://dc.lft.to/lastmile_qr_scan", "android": "https://dc.lft.to/lastmile_qr_scan"}}, {"name": "32b8fb082ea8726876b06b96c5fde9cf", "fusion_lat": 0.0, "type": "electric_scooter", "lat": 38.8780265, "is_reserved": 0, "is_disabled": 0, "fusion_lon": 0.0, "bike_id": "32b8fb082ea8726876b06b96c5fde9cf", "lon": -77.0036845, "rental_uris": {"ios": "https://dc.lft.to/lastmile_qr_scan", "android": "https://dc.lft.to/lastmile_qr_scan"}}, {"name": "899a4fa2ab70861ad19a78ab397974a4", "fusion_lat": 0.0, "type": "electric_scooter", "lat": 38.91772483333333, "is_reserved": 0, "is_disabled": 0, "fusion_lon": 0.0, "bike_id": "899a4fa2ab70861ad19a78ab397974a4", "lon": -77.0475175, "rental_uris": {"ios": "https://dc.lft.to/lastmile_qr_scan", "android": "https://dc.lft.to/lastmile_qr_scan"}}, {"name": "a8f54b2db07af6d1551956a974cdcb22", "fusion_lat": 0.0, "type": "electric_bike", "lat": 38.85211966666667, "is_reserved": 0, "is_disabled": 0, "fusion_lon": 0.0, "bike_id": "a8f54b2db07af6d1551956a974cdcb22", "lon": -77.10131066666666, "rental_uris": {"ios": "https://dc.lft.to/lastmile_qr_scan", "android": "https://dc.lft.to/lastmile_qr_scan"}}, {"name": "7711a4878baf28c5c44ae1e86a98ad6a", "fusion_lat": 0.0, "type": "electric_scooter", "lat": 38.90684616666667, "is_reserved": 0, "is_disabled": 0, "fusion_lon": 0.0, "bike_id": "7711a4878baf28c5c44ae1e86a98ad6a", "lon": -77.04883716666667, "rental_uris": {"ios": "https://dc.lft.to/lastmile_qr_scan", "android": "https://dc.lft.to/lastmile_qr_scan"}}, {"name": "aa64335ebb8cfc08f534143eef23b6d3", "fusion_lat": 0.0, "type": "electric_scooter", "lat": 38.91706166666667, "is_reserved": 0, "is_disabled": 0, "fusion_lon": 0.0, "bike_id": "aa64335ebb8cfc08f534143eef23b6d3", "lon": -77.02901783333333, "rental_uris": {"ios": "https://dc.lft.to/lastmile_qr_scan", "android": "https://dc.lft.to/lastmile_qr_scan"}}, {"name": "9b30ce10ba0ea34168441a90626398be", "fusion_lat": 0.0, "type": "electric_scooter", "lat": 38.93205066666667, "is_reserved": 0, "is_disabled": 0, "fusion_lon": 0.0, "bike_id": "9b30ce10ba0ea34168441a90626398be", "lon": -77.03634083333333, "rental_uris": {"ios": "https://dc.lft.to/lastmile_qr_scan", "android": "https://dc.lft.to/lastmile_qr_scan"}}, {"name": "41d61927555fa9ac7e9d3e1af0ab279f", "fusion_lat": 0.0, "type": "electric_scooter", "lat": 38.929128166666665, "is_reserved": 0, "is_disabled": 0, "fusion_lon": 0.0, "bike_id": "41d61927555fa9ac7e9d3e1af0ab279f", "lon": -77.01955383333333, "rental_uris": {"ios": "https://dc.lft.to/lastmile_qr_scan", "android": "https://dc.lft.to/lastmile_qr_scan"}}, {"name": "726cf64f81e0101e2a26338d1f708940", "fusion_lat": 0.0, "type": "electric_bike", "lat": 38.94793716666667, "is_reserved": 0, "is_disabled": 0, "fusion_lon": 0.0, "bike_id": "726cf64f81e0101e2a26338d1f708940", "lon": -77.02149866666667, "rental_uris": {"ios": "https://dc.lft.to/lastmile_qr_scan", "android": "https://dc.lft.to/lastmile_qr_scan"}}, {"name": "fc0b14a99c1717c52763fb333b329996", "fusion_lat": 0.0, "type": "electric_scooter", "lat": 38.918346, "is_reserved": 0, "is_disabled": 0, "fusion_lon": 0.0, "bike_id": "fc0b14a99c1717c52763fb333b329996", "lon": -77.02714733333333, "rental_uris": {"ios": "https://dc.lft.to/lastmile_qr_scan", "android": "https://dc.lft.to/lastmile_qr_scan"}}, {"name": "eb22916e914c2bcc00544d90f8bc6447", "fusion_lat": 0.0, "type": "electric_scooter", "lat": 38.874296666666666, "is_reserved": 0, "is_disabled": 0, "fusion_lon": 0.0, "bike_id": "eb22916e914c2bcc00544d90f8bc6447", "lon": -77.00578216666666, "rental_uris": {"ios": "https://dc.lft.to/lastmile_qr_scan", "android": "https://dc.lft.to/lastmile_qr_scan"}}, {"name": "3ea319735d75fbb58243b0e88fcc26c3", "fusion_lat": 0.0, "type": "electric_bike", "lat": 38.9290715, "is_reserved": 0, "is_disabled": 0, "fusion_lon": 0.0, "bike_id": "3ea319735d75fbb58243b0e88fcc26c3", "lon": -77.02386683333333, "rental_uris": {"ios": "https://dc.lft.to/lastmile_qr_scan", "android": "https://dc.lft.to/lastmile_qr_scan"}}, {"name": "c3c567281443aedc765957836f12f98a", "fusion_lat": 0.0, "type": "electric_bike", "lat": 38.8578915, "is_reserved": 0, "is_disabled": 0, "fusion_lon": 0.0, "bike_id": "c3c567281443aedc765957836f12f98a", "lon": -76.9874285, "rental_uris": {"ios": "https://dc.lft.to/lastmile_qr_scan", "android": "https://dc.lft.to/lastmile_qr_scan"}}, {"name": "25dd36887a7b724b48373883e7f3b36e", "fusion_lat": 0.0, "type": "electric_scooter", "lat": 38.898542166666665, "is_reserved": 0, "is_disabled": 0, "fusion_lon": 0.0, "bike_id": "25dd36887a7b724b48373883e7f3b36e", "lon": -77.02594566666667, "rental_uris": {"ios": "https://dc.lft.to/lastmile_qr_scan", "android": "https://dc.lft.to/lastmile_qr_scan"}}, {"name": "d32ece02d1be6b700bd29e9316a22e59", "fusion_lat": 0.0, "type": "electric_scooter", "lat": 38.90773633333333, "is_reserved": 0, "is_disabled": 0, "fusion_lon": 0.0, "bike_id": "d32ece02d1be6b700bd29e9316a22e59", "lon": -77.03556766666667, "rental_uris": {"ios": "https://dc.lft.to/lastmile_qr_scan", "android": "https://dc.lft.to/lastmile_qr_scan"}}, {"name": "c0fafd0f05c0a457a67c543d30a8af68", "fusion_lat": 0.0, "type": "electric_scooter", "lat": 38.908956, "is_reserved": 0, "is_disabled": 0, "fusion_lon": 0.0, "bike_id": "c0fafd0f05c0a457a67c543d30a8af68", "lon": -77.03192583333333, "rental_uris": {"ios": "https://dc.lft.to/lastmile_qr_scan", "android": "https://dc.lft.to/lastmile_qr_scan"}}, {"name": "3678fd540c14c845c3a606da3f29906d", "fusion_lat": 0.0, "type": "electric_scooter", "lat": 38.9161735, "is_reserved": 0, "is_disabled": 0, "fusion_lon": 0.0, "bike_id": "3678fd540c14c845c3a606da3f29906d", "lon": -77.02160433333333, "rental_uris": {"ios": "https://dc.lft.to/lastmile_qr_scan", "android": "https://dc.lft.to/lastmile_qr_scan"}}, {"name": "c1fb980e06216f062868bc55f173caf3", "fusion_lat": 0.0, "type": "electric_scooter", "lat": 38.910409666666666, "is_reserved": 0, "is_disabled": 0, "fusion_lon": 0.0, "bike_id": "c1fb980e06216f062868bc55f173caf3", "lon": -77.04373816666667, "rental_uris": {"ios": "https://dc.lft.to/lastmile_qr_scan", "android": "https://dc.lft.to/lastmile_qr_scan"}}, {"name": "d17eb5949f9ec1921ce912a0a783f54f", "fusion_lat": 0.0, "type": "electric_scooter", "lat": 38.921308, "is_reserved": 0, "is_disabled": 0, "fusion_lon": 0.0, "bike_id": "d17eb5949f9ec1921ce912a0a783f54f", "lon": -77.04030566666667, "rental_uris": {"ios": "https://dc.lft.to/lastmile_qr_scan", "android": "https://dc.lft.to/lastmile_qr_scan"}}, {"name": "f012ef4023104439cc539070c463c8bf", "fusion_lat": 0.0, "type": "electric_scooter", "lat": 38.904156, "is_reserved": 0, "is_disabled": 0, "fusion_lon": 0.0, "bike_id": "f012ef4023104439cc539070c463c8bf", "lon": -76.97890416666667, "rental_uris": {"ios": "https://dc.lft.to/lastmile_qr_scan", "android": "https://dc.lft.to/lastmile_qr_scan"}}, {"name": "ecbef00480fe2b7af45c181b6e98809d", "fusion_lat": 0.0, "type": "electric_scooter", "lat": 38.92124883333334, "is_reserved": 0, "is_disabled": 0, "fusion_lon": 0.0, "bike_id": "ecbef00480fe2b7af45c181b6e98809d", "lon": -77.04213166666666, "rental_uris": {"ios": "https://dc.lft.to/lastmile_qr_scan", "android": "https://dc.lft.to/lastmile_qr_scan"}}, {"name": "730c378fc7c692e8bf10ad1b63b867f7", "fusion_lat": 0.0, "type": "electric_scooter", "lat": 38.91851116666667, "is_reserved": 0, "is_disabled": 0, "fusion_lon": 0.0, "bike_id": "730c378fc7c692e8bf10ad1b63b867f7", "lon": -77.02599583333334, "rental_uris": {"ios": "https://dc.lft.to/lastmile_qr_scan", "android": "https://dc.lft.to/lastmile_qr_scan"}}, {"name": "891da9abeb27a98c4d3411c555e76c8f", "fusion_lat": 0.0, "type": "electric_scooter", "lat": 38.907134, "is_reserved": 0, "is_disabled": 0, "fusion_lon": 0.0, "bike_id": "891da9abeb27a98c4d3411c555e76c8f", "lon": -77.00536416666667, "rental_uris": {"ios": "https://dc.lft.to/lastmile_qr_scan", "android": "https://dc.lft.to/lastmile_qr_scan"}}, {"name": "1c9a1f1a1c2807c456eb2bd2740a1442", "fusion_lat": 0.0, "type": "electric_scooter", "lat": 38.9132415, "is_reserved": 0, "is_disabled": 0, "fusion_lon": 0.0, "bike_id": "1c9a1f1a1c2807c456eb2bd2740a1442", "lon": -77.04537616666667, "rental_uris": {"ios": "https://dc.lft.to/lastmile_qr_scan", "android": "https://dc.lft.to/lastmile_qr_scan"}}, {"name": "b5eb046b8899fcd4351d06ff57c893c1", "fusion_lat": 0.0, "type": "electric_bike", "lat": 38.959602, "is_reserved": 0, "is_disabled": 0, "fusion_lon": 0.0, "bike_id": "b5eb046b8899fcd4351d06ff57c893c1", "lon": -77.100902, "rental_uris": {"ios": "https://dc.lft.to/lastmile_qr_scan", "android": "https://dc.lft.to/lastmile_qr_scan"}}, {"name": "81d154847f74a641df5e6efa1b3340a4", "fusion_lat": 0.0, "type": "electric_scooter", "lat": 38.904604, "is_reserved": 0, "is_disabled": 0, "fusion_lon": 0.0, "bike_id": "81d154847f74a641df5e6efa1b3340a4", "lon": -77.014248, "rental_uris": {"ios": "https://dc.lft.to/lastmile_qr_scan", "android": "https://dc.lft.to/lastmile_qr_scan"}}, {"name": "109efc4144438955d8ea090d2187b208", "fusion_lat": 0.0, "type": "electric_scooter", "lat": 38.9126755, "is_reserved": 0, "is_disabled": 0, "fusion_lon": 0.0, "bike_id": "109efc4144438955d8ea090d2187b208", "lon": -77.0092485, "rental_uris": {"ios": "https://dc.lft.to/lastmile_qr_scan", "android": "https://dc.lft.to/lastmile_qr_scan"}}, {"name": "a735e59a444d128fdff5d089d8f6b486", "fusion_lat": 0.0, "type": "electric_scooter", "lat": 38.9125325, "is_reserved": 0, "is_disabled": 0, "fusion_lon": 0.0, "bike_id": "a735e59a444d128fdff5d089d8f6b486", "lon": -77.01976816666667, "rental_uris": {"ios": "https://dc.lft.to/lastmile_qr_scan", "android": "https://dc.lft.to/lastmile_qr_scan"}}, {"name": "3126827d8a9ce6e6638d15361c264fb4", "fusion_lat": 0.0, "type": "electric_scooter", "lat": 38.8922455, "is_reserved": 0, "is_disabled": 0, "fusion_lon": 0.0, "bike_id": "3126827d8a9ce6e6638d15361c264fb4", "lon": -77.05008516666666, "rental_uris": {"ios": "https://dc.lft.to/lastmile_qr_scan", "android": "https://dc.lft.to/lastmile_qr_scan"}}, {"name": "61820fcded1f1b515a27ae607d1b2d63", "fusion_lat": 0.0, "type": "electric_scooter", "lat": 38.935579833333335, "is_reserved": 0, "is_disabled": 0, "fusion_lon": 0.0, "bike_id": "61820fcded1f1b515a27ae607d1b2d63", "lon": -77.03262783333334, "rental_uris": {"ios": "https://dc.lft.to/lastmile_qr_scan", "android": "https://dc.lft.to/lastmile_qr_scan"}}, {"name": "06f1d01894984343feb97ca64a51e3ab", "fusion_lat": 0.0, "type": "electric_scooter", "lat": 38.924202666666666, "is_reserved": 0, "is_disabled": 0, "fusion_lon": 0.0, "bike_id": "06f1d01894984343feb97ca64a51e3ab", "lon": -77.01946783333334, "rental_uris": {"ios": "https://dc.lft.to/lastmile_qr_scan", "android": "https://dc.lft.to/lastmile_qr_scan"}}, {"name": "a06128045f6cd3e11d16bd4de4b18f10", "fusion_lat": 0.0, "type": "electric_scooter", "lat": 38.87750783333333, "is_reserved": 0, "is_disabled": 0, "fusion_lon": 0.0, "bike_id": "a06128045f6cd3e11d16bd4de4b18f10", "lon": -77.01988866666667, "rental_uris": {"ios": "https://dc.lft.to/lastmile_qr_scan", "android": "https://dc.lft.to/lastmile_qr_scan"}}, {"name": "4b27ef63bd0efb7e24ec747f8803f048", "fusion_lat": 0.0, "type": "electric_scooter", "lat": 38.924847, "is_reserved": 0, "is_disabled": 0, "fusion_lon": 0.0, "bike_id": "4b27ef63bd0efb7e24ec747f8803f048", "lon": -77.02835833333333, "rental_uris": {"ios": "https://dc.lft.to/lastmile_qr_scan", "android": "https://dc.lft.to/lastmile_qr_scan"}}, {"name": "3fc4b686ca197f97dac159ddae31c440", "fusion_lat": 0.0, "type": "electric_scooter", "lat": 38.91814466666666, "is_reserved": 0, "is_disabled": 0, "fusion_lon": 0.0, "bike_id": "3fc4b686ca197f97dac159ddae31c440", "lon": -77.04002616666666, "rental_uris": {"ios": "https://dc.lft.to/lastmile_qr_scan", "android": "https://dc.lft.to/lastmile_qr_scan"}}, {"name": "c9fce8d3d196551bfc9af5fda375208d", "fusion_lat": 0.0, "type": "electric_scooter", "lat": 38.899955166666665, "is_reserved": 0, "is_disabled": 0, "fusion_lon": 0.0, "bike_id": "c9fce8d3d196551bfc9af5fda375208d", "lon": -77.0220975, "rental_uris": {"ios": "https://dc.lft.to/lastmile_qr_scan", "android": "https://dc.lft.to/lastmile_qr_scan"}}, {"name": "9ca53d03090c98ed48e686b43f04b006", "fusion_lat": 0.0, "type": "electric_scooter", "lat": 38.921662, "is_reserved": 0, "is_disabled": 0, "fusion_lon": 0.0, "bike_id": "9ca53d03090c98ed48e686b43f04b006", "lon": -76.99639716666667, "rental_uris": {"ios": "https://dc.lft.to/lastmile_qr_scan", "android": "https://dc.lft.to/lastmile_qr_scan"}}, {"name": "86451964fc648fe8c6130c42f42f314c", "fusion_lat": 0.0, "type": "electric_scooter", "lat": 38.880465, "is_reserved": 0, "is_disabled": 0, "fusion_lon": 0.0, "bike_id": "86451964fc648fe8c6130c42f42f314c", "lon": -77.00514083333333, "rental_uris": {"ios": "https://dc.lft.to/lastmile_qr_scan", "android": "https://dc.lft.to/lastmile_qr_scan"}}, {"name": "d55c90a475fdd749a61465d39024b42a", "fusion_lat": 0.0, "type": "electric_scooter", "lat": 38.9126555, "is_reserved": 0, "is_disabled": 0, "fusion_lon": 0.0, "bike_id": "d55c90a475fdd749a61465d39024b42a", "lon": -77.0386715, "rental_uris": {"ios": "https://dc.lft.to/lastmile_qr_scan", "android": "https://dc.lft.to/lastmile_qr_scan"}}, {"name": "e4e55dd46db040aac2b03ad12a69418f", "fusion_lat": 0.0, "type": "electric_scooter", "lat": 38.93253266666667, "is_reserved": 0, "is_disabled": 0, "fusion_lon": 0.0, "bike_id": "e4e55dd46db040aac2b03ad12a69418f", "lon": -77.04011933333334, "rental_uris": {"ios": "https://dc.lft.to/lastmile_qr_scan", "android": "https://dc.lft.to/lastmile_qr_scan"}}, {"name": "293a97a2fb55d8cacf50789235076ee6", "fusion_lat": 0.0, "type": "electric_scooter", "lat": 38.9070245, "is_reserved": 0, "is_disabled": 0, "fusion_lon": 0.0, "bike_id": "293a97a2fb55d8cacf50789235076ee6", "lon": -77.024012, "rental_uris": {"ios": "https://dc.lft.to/lastmile_qr_scan", "android": "https://dc.lft.to/lastmile_qr_scan"}}, {"name": "9e0de1d003fcedf15226ce5703e2cc4c", "fusion_lat": 0.0, "type": "electric_bike", "lat": 38.90029933333334, "is_reserved": 0, "is_disabled": 0, "fusion_lon": 0.0, "bike_id": "9e0de1d003fcedf15226ce5703e2cc4c", "lon": -77.02889133333333, "rental_uris": {"ios": "https://dc.lft.to/lastmile_qr_scan", "android": "https://dc.lft.to/lastmile_qr_scan"}}, {"name": "099aa67d90ad86179e2c03c2c3be360a", "fusion_lat": 0.0, "type": "electric_scooter", "lat": 38.89091066666667, "is_reserved": 0, "is_disabled": 0, "fusion_lon": 0.0, "bike_id": "099aa67d90ad86179e2c03c2c3be360a", "lon": -76.98729766666666, "rental_uris": {"ios": "https://dc.lft.to/lastmile_qr_scan", "android": "https://dc.lft.to/lastmile_qr_scan"}}, {"name": "c478d2a69c5a23f3063cb24b3df4adeb", "fusion_lat": 0.0, "type": "electric_scooter", "lat": 38.9050955, "is_reserved": 0, "is_disabled": 0, "fusion_lon": 0.0, "bike_id": "c478d2a69c5a23f3063cb24b3df4adeb", "lon": -77.04482216666666, "rental_uris": {"ios": "https://dc.lft.to/lastmile_qr_scan", "android": "https://dc.lft.to/lastmile_qr_scan"}}, {"name": "307964db61c65759d07cdc6665dd2bf6", "fusion_lat": 0.0, "type": "electric_scooter", "lat": 38.905493666666665, "is_reserved": 0, "is_disabled": 0, "fusion_lon": 0.0, "bike_id": "307964db61c65759d07cdc6665dd2bf6", "lon": -77.02921633333334, "rental_uris": {"ios": "https://dc.lft.to/lastmile_qr_scan", "android": "https://dc.lft.to/lastmile_qr_scan"}}, {"name": "f6882135fa8d6945e63e5a25de649fd1", "fusion_lat": 0.0, "type": "electric_scooter", "lat": 38.887659166666666, "is_reserved": 0, "is_disabled": 0, "fusion_lon": 0.0, "bike_id": "f6882135fa8d6945e63e5a25de649fd1", "lon": -76.956019, "rental_uris": {"ios": "https://dc.lft.to/lastmile_qr_scan", "android": "https://dc.lft.to/lastmile_qr_scan"}}, {"name": "249a01a09efc0aaa4f2eb3a81a9040f9", "fusion_lat": 0.0, "type": "electric_scooter", "lat": 38.927421, "is_reserved": 0, "is_disabled": 0, "fusion_lon": 0.0, "bike_id": "249a01a09efc0aaa4f2eb3a81a9040f9", "lon": -77.022512, "rental_uris": {"ios": "https://dc.lft.to/lastmile_qr_scan", "android": "https://dc.lft.to/lastmile_qr_scan"}}, {"name": "fcaf5c29f6fb106bf284e32941b940f7", "fusion_lat": 0.0, "type": "electric_scooter", "lat": 38.91176316666667, "is_reserved": 0, "is_disabled": 0, "fusion_lon": 0.0, "bike_id": "fcaf5c29f6fb106bf284e32941b940f7", "lon": -77.01126183333334, "rental_uris": {"ios": "https://dc.lft.to/lastmile_qr_scan", "android": "https://dc.lft.to/lastmile_qr_scan"}}, {"name": "08afc1d5bc1b7073e9a750f2e3b2085f", "fusion_lat": 0.0, "type": "electric_scooter", "lat": 38.935922166666664, "is_reserved": 0, "is_disabled": 0, "fusion_lon": 0.0, "bike_id": "08afc1d5bc1b7073e9a750f2e3b2085f", "lon": -76.99119716666667, "rental_uris": {"ios": "https://dc.lft.to/lastmile_qr_scan", "android": "https://dc.lft.to/lastmile_qr_scan"}}, {"name": "65206e42f206d95fd5ec6719f53b751d", "fusion_lat": 0.0, "type": "electric_scooter", "lat": 38.91229283333333, "is_reserved": 0, "is_disabled": 0, "fusion_lon": 0.0, "bike_id": "65206e42f206d95fd5ec6719f53b751d", "lon": -77.03852216666667, "rental_uris": {"ios": "https://dc.lft.to/lastmile_qr_scan", "android": "https://dc.lft.to/lastmile_qr_scan"}}, {"name": "1004655d6f18994b2c085134ff91df8b", "fusion_lat": 0.0, "type": "electric_scooter", "lat": 38.91862966666667, "is_reserved": 0, "is_disabled": 0, "fusion_lon": 0.0, "bike_id": "1004655d6f18994b2c085134ff91df8b", "lon": -77.045981, "rental_uris": {"ios": "https://dc.lft.to/lastmile_qr_scan", "android": "https://dc.lft.to/lastmile_qr_scan"}}, {"name": "d027aab11dc4617918a62b5058298370", "fusion_lat": 0.0, "type": "electric_scooter", "lat": 38.893336166666664, "is_reserved": 0, "is_disabled": 0, "fusion_lon": 0.0, "bike_id": "d027aab11dc4617918a62b5058298370", "lon": -76.92893816666667, "rental_uris": {"ios": "https://dc.lft.to/lastmile_qr_scan", "android": "https://dc.lft.to/lastmile_qr_scan"}}, {"name": "142565f50419696cafe60ea62c1d2147", "fusion_lat": 0.0, "type": "electric_scooter", "lat": 38.89198616666667, "is_reserved": 0, "is_disabled": 0, "fusion_lon": 0.0, "bike_id": "142565f50419696cafe60ea62c1d2147", "lon": -77.002898, "rental_uris": {"ios": "https://dc.lft.to/lastmile_qr_scan", "android": "https://dc.lft.to/lastmile_qr_scan"}}, {"name": "4666b452442798f5151ad07cc6dd91a2", "fusion_lat": 0.0, "type": "electric_scooter", "lat": 38.884635, "is_reserved": 0, "is_disabled": 0, "fusion_lon": 0.0, "bike_id": "4666b452442798f5151ad07cc6dd91a2", "lon": -77.025881, "rental_uris": {"ios": "https://dc.lft.to/lastmile_qr_scan", "android": "https://dc.lft.to/lastmile_qr_scan"}}, {"name": "1073577740dd022812e1c1f388cadcc1", "fusion_lat": 0.0, "type": "electric_scooter", "lat": 38.92333383333333, "is_reserved": 0, "is_disabled": 0, "fusion_lon": 0.0, "bike_id": "1073577740dd022812e1c1f388cadcc1", "lon": -77.02050816666667, "rental_uris": {"ios": "https://dc.lft.to/lastmile_qr_scan", "android": "https://dc.lft.to/lastmile_qr_scan"}}, {"name": "6b4046af96ea07bd38de55cbbc8af3c8", "fusion_lat": 0.0, "type": "electric_scooter", "lat": 38.932549333333334, "is_reserved": 0, "is_disabled": 0, "fusion_lon": 0.0, "bike_id": "6b4046af96ea07bd38de55cbbc8af3c8", "lon": -77.03263766666667, "rental_uris": {"ios": "https://dc.lft.to/lastmile_qr_scan", "android": "https://dc.lft.to/lastmile_qr_scan"}}, {"name": "02cbcb33763cf60fe2e3b4b48fa39461", "fusion_lat": 0.0, "type": "electric_scooter", "lat": 38.90004, "is_reserved": 0, "is_disabled": 0, "fusion_lon": 0.0, "bike_id": "02cbcb33763cf60fe2e3b4b48fa39461", "lon": -76.98541016666667, "rental_uris": {"ios": "https://dc.lft.to/lastmile_qr_scan", "android": "https://dc.lft.to/lastmile_qr_scan"}}, {"name": "b2242e1d740831e89f632b5237463867", "fusion_lat": 0.0, "type": "electric_scooter", "lat": 38.8744025, "is_reserved": 0, "is_disabled": 0, "fusion_lon": 0.0, "bike_id": "b2242e1d740831e89f632b5237463867", "lon": -77.009267, "rental_uris": {"ios": "https://dc.lft.to/lastmile_qr_scan", "android": "https://dc.lft.to/lastmile_qr_scan"}}, {"name": "c68a5202961100d5e597f1be7abb19cb", "fusion_lat": 0.0, "type": "electric_bike", "lat": 38.943758833333334, "is_reserved": 0, "is_disabled": 0, "fusion_lon": 0.0, "bike_id": "c68a5202961100d5e597f1be7abb19cb", "lon": -76.9629215, "rental_uris": {"ios": "https://dc.lft.to/lastmile_qr_scan", "android": "https://dc.lft.to/lastmile_qr_scan"}}, {"name": "4d6eb7b442af8dda85b4ba0910c3d07f", "fusion_lat": 0.0, "type": "electric_scooter", "lat": 38.8743045, "is_reserved": 0, "is_disabled": 0, "fusion_lon": 0.0, "bike_id": "4d6eb7b442af8dda85b4ba0910c3d07f", "lon": -77.02068833333334, "rental_uris": {"ios": "https://dc.lft.to/lastmile_qr_scan", "android": "https://dc.lft.to/lastmile_qr_scan"}}, {"name": "97f1e51d4d4f99c4bd0c050fecae2b32", "fusion_lat": 0.0, "type": "electric_scooter", "lat": 38.91461066666667, "is_reserved": 0, "is_disabled": 0, "fusion_lon": 0.0, "bike_id": "97f1e51d4d4f99c4bd0c050fecae2b32", "lon": -77.02183366666667, "rental_uris": {"ios": "https://dc.lft.to/lastmile_qr_scan", "android": "https://dc.lft.to/lastmile_qr_scan"}}, {"name": "c26dbf0ffe913c36ea5178ac8c5c5553", "fusion_lat": 0.0, "type": "electric_scooter", "lat": 38.901862, "is_reserved": 0, "is_disabled": 0, "fusion_lon": 0.0, "bike_id": "c26dbf0ffe913c36ea5178ac8c5c5553", "lon": -77.0337215, "rental_uris": {"ios": "https://dc.lft.to/lastmile_qr_scan", "android": "https://dc.lft.to/lastmile_qr_scan"}}, {"name": "3fc9b4c21f0f7dc1903b587ddc228732", "fusion_lat": 0.0, "type": "electric_scooter", "lat": 38.922034833333335, "is_reserved": 0, "is_disabled": 0, "fusion_lon": 0.0, "bike_id": "3fc9b4c21f0f7dc1903b587ddc228732", "lon": -76.9975385, "rental_uris": {"ios": "https://dc.lft.to/lastmile_qr_scan", "android": "https://dc.lft.to/lastmile_qr_scan"}}, {"name": "9d7d37206e0ae231dd7187306ad0fb52", "fusion_lat": 0.0, "type": "electric_scooter", "lat": 38.91260316666666, "is_reserved": 0, "is_disabled": 0, "fusion_lon": 0.0, "bike_id": "9d7d37206e0ae231dd7187306ad0fb52", "lon": -77.03857883333333, "rental_uris": {"ios": "https://dc.lft.to/lastmile_qr_scan", "android": "https://dc.lft.to/lastmile_qr_scan"}}, {"name": "e7f79418a290328e5f41ec6c2f705cbd", "fusion_lat": 0.0, "type": "electric_scooter", "lat": 38.8977465, "is_reserved": 0, "is_disabled": 0, "fusion_lon": 0.0, "bike_id": "e7f79418a290328e5f41ec6c2f705cbd", "lon": -77.02607533333334, "rental_uris": {"ios": "https://dc.lft.to/lastmile_qr_scan", "android": "https://dc.lft.to/lastmile_qr_scan"}}, {"name": "e9ead8a09797e024dda02ec9923af7c2", "fusion_lat": 0.0, "type": "electric_scooter", "lat": 38.93103333333333, "is_reserved": 0, "is_disabled": 0, "fusion_lon": 0.0, "bike_id": "e9ead8a09797e024dda02ec9923af7c2", "lon": -77.035144, "rental_uris": {"ios": "https://dc.lft.to/lastmile_qr_scan", "android": "https://dc.lft.to/lastmile_qr_scan"}}, {"name": "b5bfbe7397f8319e51c5eb8f4e01e87b", "fusion_lat": 0.0, "type": "electric_scooter", "lat": 38.91346733333334, "is_reserved": 0, "is_disabled": 0, "fusion_lon": 0.0, "bike_id": "b5bfbe7397f8319e51c5eb8f4e01e87b", "lon": -77.04233666666667, "rental_uris": {"ios": "https://dc.lft.to/lastmile_qr_scan", "android": "https://dc.lft.to/lastmile_qr_scan"}}, {"name": "bdd9b6002f109f5637d5943e0f83e41c", "fusion_lat": 0.0, "type": "electric_scooter", "lat": 38.88506316666667, "is_reserved": 0, "is_disabled": 0, "fusion_lon": 0.0, "bike_id": "bdd9b6002f109f5637d5943e0f83e41c", "lon": -77.00567033333333, "rental_uris": {"ios": "https://dc.lft.to/lastmile_qr_scan", "android": "https://dc.lft.to/lastmile_qr_scan"}}, {"name": "38161260af4637604b94f680937e0e64", "fusion_lat": 0.0, "type": "electric_scooter", "lat": 38.911251666666665, "is_reserved": 0, "is_disabled": 0, "fusion_lon": 0.0, "bike_id": "38161260af4637604b94f680937e0e64", "lon": -77.04770533333334, "rental_uris": {"ios": "https://dc.lft.to/lastmile_qr_scan", "android": "https://dc.lft.to/lastmile_qr_scan"}}, {"name": "e01b6fe026c6a49a7a53ac83559514a9", "fusion_lat": 0.0, "type": "electric_bike", "lat": 38.91414533333333, "is_reserved": 0, "is_disabled": 0, "fusion_lon": 0.0, "bike_id": "e01b6fe026c6a49a7a53ac83559514a9", "lon": -77.0317375, "rental_uris": {"ios": "https://dc.lft.to/lastmile_qr_scan", "android": "https://dc.lft.to/lastmile_qr_scan"}}, {"name": "916172a9d3f64e85b82936909a0d3ba2", "fusion_lat": 0.0, "type": "electric_scooter", "lat": 38.895511166666665, "is_reserved": 0, "is_disabled": 0, "fusion_lon": 0.0, "bike_id": "916172a9d3f64e85b82936909a0d3ba2", "lon": -76.94877083333333, "rental_uris": {"ios": "https://dc.lft.to/lastmile_qr_scan", "android": "https://dc.lft.to/lastmile_qr_scan"}}, {"name": "11f88abc0ca69a2fa5c3f139c66f7c84", "fusion_lat": 0.0, "type": "electric_scooter", "lat": 38.926997666666665, "is_reserved": 0, "is_disabled": 0, "fusion_lon": 0.0, "bike_id": "11f88abc0ca69a2fa5c3f139c66f7c84", "lon": -77.03730066666667, "rental_uris": {"ios": "https://dc.lft.to/lastmile_qr_scan", "android": "https://dc.lft.to/lastmile_qr_scan"}}, {"name": "2a825a0d136ba5a63ab31ba3e4f909f5", "fusion_lat": 0.0, "type": "electric_scooter", "lat": 38.91194516666667, "is_reserved": 0, "is_disabled": 0, "fusion_lon": 0.0, "bike_id": "2a825a0d136ba5a63ab31ba3e4f909f5", "lon": -77.0325075, "rental_uris": {"ios": "https://dc.lft.to/lastmile_qr_scan", "android": "https://dc.lft.to/lastmile_qr_scan"}}, {"name": "ab25969e423c2dd1e6a8a91e80a45af2", "fusion_lat": 0.0, "type": "electric_scooter", "lat": 38.9361155, "is_reserved": 0, "is_disabled": 0, "fusion_lon": 0.0, "bike_id": "ab25969e423c2dd1e6a8a91e80a45af2", "lon": -77.03213733333334, "rental_uris": {"ios": "https://dc.lft.to/lastmile_qr_scan", "android": "https://dc.lft.to/lastmile_qr_scan"}}, {"name": "479638a7a21de2eec0fa992c3846968d", "fusion_lat": 0.0, "type": "electric_scooter", "lat": 38.93708383333333, "is_reserved": 0, "is_disabled": 0, "fusion_lon": 0.0, "bike_id": "479638a7a21de2eec0fa992c3846968d", "lon": -77.060983, "rental_uris": {"ios": "https://dc.lft.to/lastmile_qr_scan", "android": "https://dc.lft.to/lastmile_qr_scan"}}, {"name": "c71e278e0b0d3aabf211b48fdf2f8e83", "fusion_lat": 0.0, "type": "electric_scooter", "lat": 38.9101575, "is_reserved": 0, "is_disabled": 0, "fusion_lon": 0.0, "bike_id": "c71e278e0b0d3aabf211b48fdf2f8e83", "lon": -76.99670316666666, "rental_uris": {"ios": "https://dc.lft.to/lastmile_qr_scan", "android": "https://dc.lft.to/lastmile_qr_scan"}}, {"name": "e5b18acc8efe521d271c606a1b66369f", "fusion_lat": 0.0, "type": "electric_scooter", "lat": 38.93126316666667, "is_reserved": 0, "is_disabled": 0, "fusion_lon": 0.0, "bike_id": "e5b18acc8efe521d271c606a1b66369f", "lon": -77.03605133333333, "rental_uris": {"ios": "https://dc.lft.to/lastmile_qr_scan", "android": "https://dc.lft.to/lastmile_qr_scan"}}, {"name": "855c2da04a0ad093c12b9451ee01d6bb", "fusion_lat": 0.0, "type": "electric_scooter", "lat": 38.94403416666667, "is_reserved": 0, "is_disabled": 0, "fusion_lon": 0.0, "bike_id": "855c2da04a0ad093c12b9451ee01d6bb", "lon": -77.06329766666667, "rental_uris": {"ios": "https://dc.lft.to/lastmile_qr_scan", "android": "https://dc.lft.to/lastmile_qr_scan"}}, {"name": "2952f094b647c1a30c7a3deb8aa8ea9e", "fusion_lat": 0.0, "type": "electric_scooter", "lat": 38.8964035, "is_reserved": 0, "is_disabled": 0, "fusion_lon": 0.0, "bike_id": "2952f094b647c1a30c7a3deb8aa8ea9e", "lon": -77.04651716666666, "rental_uris": {"ios": "https://dc.lft.to/lastmile_qr_scan", "android": "https://dc.lft.to/lastmile_qr_scan"}}, {"name": "52c59d2f8ec2ffb9dec19b9ae575c93c", "fusion_lat": 0.0, "type": "electric_scooter", "lat": 38.89855033333333, "is_reserved": 0, "is_disabled": 0, "fusion_lon": 0.0, "bike_id": "52c59d2f8ec2ffb9dec19b9ae575c93c", "lon": -77.0161355, "rental_uris": {"ios": "https://dc.lft.to/lastmile_qr_scan", "android": "https://dc.lft.to/lastmile_qr_scan"}}, {"name": "c029fb1aaaaf5b07bb5d5eba5b5b0bd4", "fusion_lat": 0.0, "type": "electric_scooter", "lat": 38.90031783333333, "is_reserved": 0, "is_disabled": 0, "fusion_lon": 0.0, "bike_id": "c029fb1aaaaf5b07bb5d5eba5b5b0bd4", "lon": -76.99853183333333, "rental_uris": {"ios": "https://dc.lft.to/lastmile_qr_scan", "android": "https://dc.lft.to/lastmile_qr_scan"}}, {"name": "b082cce50f0b4e70ac0a839796be403f", "fusion_lat": 0.0, "type": "electric_scooter", "lat": 38.87649833333333, "is_reserved": 0, "is_disabled": 0, "fusion_lon": 0.0, "bike_id": "b082cce50f0b4e70ac0a839796be403f", "lon": -77.00584, "rental_uris": {"ios": "https://dc.lft.to/lastmile_qr_scan", "android": "https://dc.lft.to/lastmile_qr_scan"}}, {"name": "56b01d749c4d9d6ab1b86436d8c87d14", "fusion_lat": 0.0, "type": "electric_scooter", "lat": 38.927387833333334, "is_reserved": 0, "is_disabled": 0, "fusion_lon": 0.0, "bike_id": "56b01d749c4d9d6ab1b86436d8c87d14", "lon": -77.0249225, "rental_uris": {"ios": "https://dc.lft.to/lastmile_qr_scan", "android": "https://dc.lft.to/lastmile_qr_scan"}}, {"name": "3dc4e0659bee35662ed62b844ed8526f", "fusion_lat": 0.0, "type": "electric_scooter", "lat": 38.91698, "is_reserved": 0, "is_disabled": 0, "fusion_lon": 0.0, "bike_id": "3dc4e0659bee35662ed62b844ed8526f", "lon": -77.0358895, "rental_uris": {"ios": "https://dc.lft.to/lastmile_qr_scan", "android": "https://dc.lft.to/lastmile_qr_scan"}}, {"name": "61467a2c90e47a1293c07d3e298a300d", "fusion_lat": 0.0, "type": "electric_scooter", "lat": 38.901205833333336, "is_reserved": 0, "is_disabled": 0, "fusion_lon": 0.0, "bike_id": "61467a2c90e47a1293c07d3e298a300d", "lon": -77.02192016666666, "rental_uris": {"ios": "https://dc.lft.to/lastmile_qr_scan", "android": "https://dc.lft.to/lastmile_qr_scan"}}, {"name": "d2284c2bf356e18fc0b26c0cd39a02f7", "fusion_lat": 0.0, "type": "electric_scooter", "lat": 38.92887283333334, "is_reserved": 0, "is_disabled": 0, "fusion_lon": 0.0, "bike_id": "d2284c2bf356e18fc0b26c0cd39a02f7", "lon": -77.023106, "rental_uris": {"ios": "https://dc.lft.to/lastmile_qr_scan", "android": "https://dc.lft.to/lastmile_qr_scan"}}, {"name": "74f89bce4fb7f003ce987a10b6806ab1", "fusion_lat": 0.0, "type": "electric_scooter", "lat": 38.9264725, "is_reserved": 0, "is_disabled": 0, "fusion_lon": 0.0, "bike_id": "74f89bce4fb7f003ce987a10b6806ab1", "lon": -77.03690266666666, "rental_uris": {"ios": "https://dc.lft.to/lastmile_qr_scan", "android": "https://dc.lft.to/lastmile_qr_scan"}}, {"name": "f6e23636babce8b89ac5b2564f2f55d9", "fusion_lat": 0.0, "type": "electric_scooter", "lat": 38.907251, "is_reserved": 0, "is_disabled": 0, "fusion_lon": 0.0, "bike_id": "f6e23636babce8b89ac5b2564f2f55d9", "lon": -77.02444283333334, "rental_uris": {"ios": "https://dc.lft.to/lastmile_qr_scan", "android": "https://dc.lft.to/lastmile_qr_scan"}}, {"name": "34997e00e60880ef80ac40605a1a5831", "fusion_lat": 0.0, "type": "electric_scooter", "lat": 38.889204, "is_reserved": 0, "is_disabled": 0, "fusion_lon": 0.0, "bike_id": "34997e00e60880ef80ac40605a1a5831", "lon": -76.95372033333334, "rental_uris": {"ios": "https://dc.lft.to/lastmile_qr_scan", "android": "https://dc.lft.to/lastmile_qr_scan"}}, {"name": "7d95dbe09dc3508852df0bd86692c100", "fusion_lat": 0.0, "type": "electric_scooter", "lat": 38.9096995, "is_reserved": 0, "is_disabled": 0, "fusion_lon": 0.0, "bike_id": "7d95dbe09dc3508852df0bd86692c100", "lon": -77.03375833333334, "rental_uris": {"ios": "https://dc.lft.to/lastmile_qr_scan", "android": "https://dc.lft.to/lastmile_qr_scan"}}, {"name": "3f7da3998008e98f27c69ce0728b8bed", "fusion_lat": 0.0, "type": "electric_scooter", "lat": 38.91183866666667, "is_reserved": 0, "is_disabled": 0, "fusion_lon": 0.0, "bike_id": "3f7da3998008e98f27c69ce0728b8bed", "lon": -77.01788566666667, "rental_uris": {"ios": "https://dc.lft.to/lastmile_qr_scan", "android": "https://dc.lft.to/lastmile_qr_scan"}}, {"name": "e0c16b6f6cd8aadcb28697f87b71d7d5", "fusion_lat": 0.0, "type": "electric_scooter", "lat": 38.9376715, "is_reserved": 0, "is_disabled": 0, "fusion_lon": 0.0, "bike_id": "e0c16b6f6cd8aadcb28697f87b71d7d5", "lon": -77.03284416666666, "rental_uris": {"ios": "https://dc.lft.to/lastmile_qr_scan", "android": "https://dc.lft.to/lastmile_qr_scan"}}, {"name": "d699329f26ff8e8938846b6029d06671", "fusion_lat": 0.0, "type": "electric_scooter", "lat": 38.934651, "is_reserved": 0, "is_disabled": 0, "fusion_lon": 0.0, "bike_id": "d699329f26ff8e8938846b6029d06671", "lon": -77.02851383333334, "rental_uris": {"ios": "https://dc.lft.to/lastmile_qr_scan", "android": "https://dc.lft.to/lastmile_qr_scan"}}, {"name": "40144d19599d7cf2423475a8480a13ee", "fusion_lat": 0.0, "type": "electric_scooter", "lat": 38.9001215, "is_reserved": 0, "is_disabled": 0, "fusion_lon": 0.0, "bike_id": "40144d19599d7cf2423475a8480a13ee", "lon": -77.027012, "rental_uris": {"ios": "https://dc.lft.to/lastmile_qr_scan", "android": "https://dc.lft.to/lastmile_qr_scan"}}, {"name": "44b61b3b22bb623898e5ec10f6fac661", "fusion_lat": 0.0, "type": "electric_scooter", "lat": 38.914997, "is_reserved": 0, "is_disabled": 0, "fusion_lon": 0.0, "bike_id": "44b61b3b22bb623898e5ec10f6fac661", "lon": -77.03249116666667, "rental_uris": {"ios": "https://dc.lft.to/lastmile_qr_scan", "android": "https://dc.lft.to/lastmile_qr_scan"}}, {"name": "b849bf92914aecb6257e57a67bdb6aaa", "fusion_lat": 0.0, "type": "electric_scooter", "lat": 38.91323916666666, "is_reserved": 0, "is_disabled": 0, "fusion_lon": 0.0, "bike_id": "b849bf92914aecb6257e57a67bdb6aaa", "lon": -77.03130416666667, "rental_uris": {"ios": "https://dc.lft.to/lastmile_qr_scan", "android": "https://dc.lft.to/lastmile_qr_scan"}}, {"name": "8f997d79888aad09284cc6f304476259", "fusion_lat": 0.0, "type": "electric_bike", "lat": 38.96859833333333, "is_reserved": 0, "is_disabled": 0, "fusion_lon": 0.0, "bike_id": "8f997d79888aad09284cc6f304476259", "lon": -77.033457, "rental_uris": {"ios": "https://dc.lft.to/lastmile_qr_scan", "android": "https://dc.lft.to/lastmile_qr_scan"}}, {"name": "57e1a0fb6ad49ce7fab97f9a79fe103c", "fusion_lat": 0.0, "type": "electric_scooter", "lat": 38.91915633333333, "is_reserved": 0, "is_disabled": 0, "fusion_lon": 0.0, "bike_id": "57e1a0fb6ad49ce7fab97f9a79fe103c", "lon": -77.031073, "rental_uris": {"ios": "https://dc.lft.to/lastmile_qr_scan", "android": "https://dc.lft.to/lastmile_qr_scan"}}, {"name": "c375737031f5c6c084a53236f97b4835", "fusion_lat": 0.0, "type": "electric_scooter", "lat": 38.93206566666667, "is_reserved": 0, "is_disabled": 0, "fusion_lon": 0.0, "bike_id": "c375737031f5c6c084a53236f97b4835", "lon": -77.02734316666667, "rental_uris": {"ios": "https://dc.lft.to/lastmile_qr_scan", "android": "https://dc.lft.to/lastmile_qr_scan"}}, {"name": "232dd5454941ac41fbb1d636760d9b5f", "fusion_lat": 0.0, "type": "electric_scooter", "lat": 38.9227505, "is_reserved": 0, "is_disabled": 0, "fusion_lon": 0.0, "bike_id": "232dd5454941ac41fbb1d636760d9b5f", "lon": -77.03655483333333, "rental_uris": {"ios": "https://dc.lft.to/lastmile_qr_scan", "android": "https://dc.lft.to/lastmile_qr_scan"}}, {"name": "545647cbd91d8af2378d97057345f8f4", "fusion_lat": 0.0, "type": "electric_scooter", "lat": 38.899424833333335, "is_reserved": 0, "is_disabled": 0, "fusion_lon": 0.0, "bike_id": "545647cbd91d8af2378d97057345f8f4", "lon": -77.0311355, "rental_uris": {"ios": "https://dc.lft.to/lastmile_qr_scan", "android": "https://dc.lft.to/lastmile_qr_scan"}}, {"name": "e5ce3b2e5ca62f39b3c85df878353174", "fusion_lat": 0.0, "type": "electric_scooter", "lat": 38.91869833333333, "is_reserved": 0, "is_disabled": 0, "fusion_lon": 0.0, "bike_id": "e5ce3b2e5ca62f39b3c85df878353174", "lon": -77.043432, "rental_uris": {"ios": "https://dc.lft.to/lastmile_qr_scan", "android": "https://dc.lft.to/lastmile_qr_scan"}}, {"name": "53aa2c30a02ec468132aad75f8d07d3f", "fusion_lat": 0.0, "type": "electric_bike", "lat": 38.964184833333334, "is_reserved": 0, "is_disabled": 0, "fusion_lon": 0.0, "bike_id": "53aa2c30a02ec468132aad75f8d07d3f", "lon": -77.0335725, "rental_uris": {"ios": "https://dc.lft.to/lastmile_qr_scan", "android": "https://dc.lft.to/lastmile_qr_scan"}}, {"name": "e0e40b4716df8130701f1b04b69b6403", "fusion_lat": 0.0, "type": "electric_scooter", "lat": 38.896036333333335, "is_reserved": 0, "is_disabled": 0, "fusion_lon": 0.0, "bike_id": "e0e40b4716df8130701f1b04b69b6403", "lon": -77.04689366666666, "rental_uris": {"ios": "https://dc.lft.to/lastmile_qr_scan", "android": "https://dc.lft.to/lastmile_qr_scan"}}, {"name": "bda9b919c17fd3b5b0612f881774c71d", "fusion_lat": 0.0, "type": "electric_scooter", "lat": 38.8971775, "is_reserved": 0, "is_disabled": 0, "fusion_lon": 0.0, "bike_id": "bda9b919c17fd3b5b0612f881774c71d", "lon": -77.03251866666666, "rental_uris": {"ios": "https://dc.lft.to/lastmile_qr_scan", "android": "https://dc.lft.to/lastmile_qr_scan"}}, {"name": "efcad852bbb838a4b702b869ac7f3782", "fusion_lat": 0.0, "type": "electric_scooter", "lat": 38.87493283333333, "is_reserved": 0, "is_disabled": 0, "fusion_lon": 0.0, "bike_id": "efcad852bbb838a4b702b869ac7f3782", "lon": -77.0017405, "rental_uris": {"ios": "https://dc.lft.to/lastmile_qr_scan", "android": "https://dc.lft.to/lastmile_qr_scan"}}, {"name": "5bc1403dd72163bec9b51aed9fedbfa0", "fusion_lat": 0.0, "type": "electric_bike", "lat": 38.842710333333336, "is_reserved": 0, "is_disabled": 0, "fusion_lon": 0.0, "bike_id": "5bc1403dd72163bec9b51aed9fedbfa0", "lon": -76.98845633333333, "rental_uris": {"ios": "https://dc.lft.to/lastmile_qr_scan", "android": "https://dc.lft.to/lastmile_qr_scan"}}, {"name": "92bcdf0b34ca17e59abf93450be3c11a", "fusion_lat": 0.0, "type": "electric_scooter", "lat": 38.92822833333334, "is_reserved": 0, "is_disabled": 0, "fusion_lon": 0.0, "bike_id": "92bcdf0b34ca17e59abf93450be3c11a", "lon": -77.02257516666667, "rental_uris": {"ios": "https://dc.lft.to/lastmile_qr_scan", "android": "https://dc.lft.to/lastmile_qr_scan"}}, {"name": "d1a54bcee70c1694f52bd08adb399d7e", "fusion_lat": 0.0, "type": "electric_scooter", "lat": 38.92579466666667, "is_reserved": 0, "is_disabled": 0, "fusion_lon": 0.0, "bike_id": "d1a54bcee70c1694f52bd08adb399d7e", "lon": -76.994905, "rental_uris": {"ios": "https://dc.lft.to/lastmile_qr_scan", "android": "https://dc.lft.to/lastmile_qr_scan"}}, {"name": "24f63de85f169e5c9cd2a3e10ccbfe35", "fusion_lat": 0.0, "type": "electric_scooter", "lat": 38.8615305, "is_reserved": 0, "is_disabled": 0, "fusion_lon": 0.0, "bike_id": "24f63de85f169e5c9cd2a3e10ccbfe35", "lon": -76.98924816666667, "rental_uris": {"ios": "https://dc.lft.to/lastmile_qr_scan", "android": "https://dc.lft.to/lastmile_qr_scan"}}, {"name": "561cf58d3267ddc76d1ffc7fe07b9ade", "fusion_lat": 0.0, "type": "electric_scooter", "lat": 38.90575666666667, "is_reserved": 0, "is_disabled": 0, "fusion_lon": 0.0, "bike_id": "561cf58d3267ddc76d1ffc7fe07b9ade", "lon": -77.02180616666666, "rental_uris": {"ios": "https://dc.lft.to/lastmile_qr_scan", "android": "https://dc.lft.to/lastmile_qr_scan"}}, {"name": "b0641985994e598cb270e2b0240fb1cd", "fusion_lat": 0.0, "type": "electric_bike", "lat": 38.88117733333333, "is_reserved": 0, "is_disabled": 0, "fusion_lon": 0.0, "bike_id": "b0641985994e598cb270e2b0240fb1cd", "lon": -77.01346266666667, "rental_uris": {"ios": "https://dc.lft.to/lastmile_qr_scan", "android": "https://dc.lft.to/lastmile_qr_scan"}}, {"name": "9272c8e456937b54a4e681472468852f", "fusion_lat": 0.0, "type": "electric_scooter", "lat": 38.906794, "is_reserved": 0, "is_disabled": 0, "fusion_lon": 0.0, "bike_id": "9272c8e456937b54a4e681472468852f", "lon": -77.062371, "rental_uris": {"ios": "https://dc.lft.to/lastmile_qr_scan", "android": "https://dc.lft.to/lastmile_qr_scan"}}, {"name": "068000625297a3a20066fd1f8df5291c", "fusion_lat": 0.0, "type": "electric_bike", "lat": 38.9600585, "is_reserved": 0, "is_disabled": 0, "fusion_lon": 0.0, "bike_id": "068000625297a3a20066fd1f8df5291c", "lon": -76.99871183333333, "rental_uris": {"ios": "https://dc.lft.to/lastmile_qr_scan", "android": "https://dc.lft.to/lastmile_qr_scan"}}, {"name": "4339dd8c0f7eaca61fdcafe6167bcece", "fusion_lat": 0.0, "type": "electric_scooter", "lat": 38.90028783333333, "is_reserved": 0, "is_disabled": 0, "fusion_lon": 0.0, "bike_id": "4339dd8c0f7eaca61fdcafe6167bcece", "lon": -77.04573933333333, "rental_uris": {"ios": "https://dc.lft.to/lastmile_qr_scan", "android": "https://dc.lft.to/lastmile_qr_scan"}}, {"name": "0272667c4884e140495a18dd8eeeb800", "fusion_lat": 0.0, "type": "electric_scooter", "lat": 38.90345083333333, "is_reserved": 0, "is_disabled": 0, "fusion_lon": 0.0, "bike_id": "0272667c4884e140495a18dd8eeeb800", "lon": -77.0260765, "rental_uris": {"ios": "https://dc.lft.to/lastmile_qr_scan", "android": "https://dc.lft.to/lastmile_qr_scan"}}, {"name": "61d018ce368306756ff37253d0673e5c", "fusion_lat": 0.0, "type": "electric_scooter", "lat": 38.9212505, "is_reserved": 0, "is_disabled": 0, "fusion_lon": 0.0, "bike_id": "61d018ce368306756ff37253d0673e5c", "lon": -77.02548433333334, "rental_uris": {"ios": "https://dc.lft.to/lastmile_qr_scan", "android": "https://dc.lft.to/lastmile_qr_scan"}}, {"name": "232e84a0f4304b46af807f1afa72aea6", "fusion_lat": 0.0, "type": "electric_scooter", "lat": 38.898895333333336, "is_reserved": 0, "is_disabled": 0, "fusion_lon": 0.0, "bike_id": "232e84a0f4304b46af807f1afa72aea6", "lon": -77.0327375, "rental_uris": {"ios": "https://dc.lft.to/lastmile_qr_scan", "android": "https://dc.lft.to/lastmile_qr_scan"}}, {"name": "83921faf97b05fdb815691331f80dce4", "fusion_lat": 0.0, "type": "electric_scooter", "lat": 38.898186, "is_reserved": 0, "is_disabled": 0, "fusion_lon": 0.0, "bike_id": "83921faf97b05fdb815691331f80dce4", "lon": -77.03337083333334, "rental_uris": {"ios": "https://dc.lft.to/lastmile_qr_scan", "android": "https://dc.lft.to/lastmile_qr_scan"}}, {"name": "e0fa4ce66173cd48059462902c8b1de9", "fusion_lat": 0.0, "type": "electric_bike", "lat": 38.866268166666664, "is_reserved": 0, "is_disabled": 0, "fusion_lon": 0.0, "bike_id": "e0fa4ce66173cd48059462902c8b1de9", "lon": -77.01042516666666, "rental_uris": {"ios": "https://dc.lft.to/lastmile_qr_scan", "android": "https://dc.lft.to/lastmile_qr_scan"}}, {"name": "c93d60ce549ce59ced51706f4bd6fa68", "fusion_lat": 0.0, "type": "electric_scooter", "lat": 38.865064333333336, "is_reserved": 0, "is_disabled": 0, "fusion_lon": 0.0, "bike_id": "c93d60ce549ce59ced51706f4bd6fa68", "lon": -76.990063, "rental_uris": {"ios": "https://dc.lft.to/lastmile_qr_scan", "android": "https://dc.lft.to/lastmile_qr_scan"}}, {"name": "3f6df885dc0880d2365cc500802e1fb3", "fusion_lat": 0.0, "type": "electric_scooter", "lat": 38.932371833333335, "is_reserved": 0, "is_disabled": 0, "fusion_lon": 0.0, "bike_id": "3f6df885dc0880d2365cc500802e1fb3", "lon": -77.030906, "rental_uris": {"ios": "https://dc.lft.to/lastmile_qr_scan", "android": "https://dc.lft.to/lastmile_qr_scan"}}, {"name": "8f9f6a3e0aec794fe8e3b7d8465112f6", "fusion_lat": 0.0, "type": "electric_scooter", "lat": 38.92833516666666, "is_reserved": 0, "is_disabled": 0, "fusion_lon": 0.0, "bike_id": "8f9f6a3e0aec794fe8e3b7d8465112f6", "lon": -77.054219, "rental_uris": {"ios": "https://dc.lft.to/lastmile_qr_scan", "android": "https://dc.lft.to/lastmile_qr_scan"}}, {"name": "036571383d9a9a6c480ec693f62c95d4", "fusion_lat": 0.0, "type": "electric_scooter", "lat": 38.8928135, "is_reserved": 0, "is_disabled": 0, "fusion_lon": 0.0, "bike_id": "036571383d9a9a6c480ec693f62c95d4", "lon": -77.050393, "rental_uris": {"ios": "https://dc.lft.to/lastmile_qr_scan", "android": "https://dc.lft.to/lastmile_qr_scan"}}, {"name": "969544bb1638ef19c1b2b402b4e6a61c", "fusion_lat": 0.0, "type": "electric_scooter", "lat": 38.920717, "is_reserved": 0, "is_disabled": 0, "fusion_lon": 0.0, "bike_id": "969544bb1638ef19c1b2b402b4e6a61c", "lon": -77.02396216666666, "rental_uris": {"ios": "https://dc.lft.to/lastmile_qr_scan", "android": "https://dc.lft.to/lastmile_qr_scan"}}, {"name": "53aa8f952d1999c948a7c7205abad310", "fusion_lat": 0.0, "type": "electric_scooter", "lat": 38.89511566666667, "is_reserved": 0, "is_disabled": 0, "fusion_lon": 0.0, "bike_id": "53aa8f952d1999c948a7c7205abad310", "lon": -76.94888566666667, "rental_uris": {"ios": "https://dc.lft.to/lastmile_qr_scan", "android": "https://dc.lft.to/lastmile_qr_scan"}}, {"name": "e318d10eb8d2983c9b50a41d2b456423", "fusion_lat": 0.0, "type": "electric_scooter", "lat": 38.918956333333334, "is_reserved": 0, "is_disabled": 0, "fusion_lon": 0.0, "bike_id": "e318d10eb8d2983c9b50a41d2b456423", "lon": -77.0529205, "rental_uris": {"ios": "https://dc.lft.to/lastmile_qr_scan", "android": "https://dc.lft.to/lastmile_qr_scan"}}, {"name": "da8cd9e6def1a1121b74dc009bf8da8a", "fusion_lat": 0.0, "type": "electric_bike", "lat": 38.827312166666665, "is_reserved": 0, "is_disabled": 0, "fusion_lon": 0.0, "bike_id": "da8cd9e6def1a1121b74dc009bf8da8a", "lon": -77.00861833333333, "rental_uris": {"ios": "https://dc.lft.to/lastmile_qr_scan", "android": "https://dc.lft.to/lastmile_qr_scan"}}, {"name": "8dba6c1530eccec828bf572b87f4d6f0", "fusion_lat": 0.0, "type": "electric_scooter", "lat": 38.89483466666667, "is_reserved": 0, "is_disabled": 0, "fusion_lon": 0.0, "bike_id": "8dba6c1530eccec828bf572b87f4d6f0", "lon": -76.94869533333333, "rental_uris": {"ios": "https://dc.lft.to/lastmile_qr_scan", "android": "https://dc.lft.to/lastmile_qr_scan"}}, {"name": "4dc36fcefa07083a2914a0c53daed274", "fusion_lat": 0.0, "type": "electric_scooter", "lat": 38.901381666666666, "is_reserved": 0, "is_disabled": 0, "fusion_lon": 0.0, "bike_id": "4dc36fcefa07083a2914a0c53daed274", "lon": -77.00072833333333, "rental_uris": {"ios": "https://dc.lft.to/lastmile_qr_scan", "android": "https://dc.lft.to/lastmile_qr_scan"}}, {"name": "86495b1c086ab14ae74cc05a21ed1b50", "fusion_lat": 0.0, "type": "electric_scooter", "lat": 38.8983405, "is_reserved": 0, "is_disabled": 0, "fusion_lon": 0.0, "bike_id": "86495b1c086ab14ae74cc05a21ed1b50", "lon": -76.94637633333333, "rental_uris": {"ios": "https://dc.lft.to/lastmile_qr_scan", "android": "https://dc.lft.to/lastmile_qr_scan"}}, {"name": "8c99caaff6724d7d080899247af3b4db", "fusion_lat": 0.0, "type": "electric_scooter", "lat": 38.88381783333333, "is_reserved": 0, "is_disabled": 0, "fusion_lon": 0.0, "bike_id": "8c99caaff6724d7d080899247af3b4db", "lon": -76.99524483333333, "rental_uris": {"ios": "https://dc.lft.to/lastmile_qr_scan", "android": "https://dc.lft.to/lastmile_qr_scan"}}, {"name": "b4cdf3415fe097c0dc479e59b341a3c0", "fusion_lat": 0.0, "type": "electric_scooter", "lat": 38.92583533333333, "is_reserved": 0, "is_disabled": 0, "fusion_lon": 0.0, "bike_id": "b4cdf3415fe097c0dc479e59b341a3c0", "lon": -77.05292033333333, "rental_uris": {"ios": "https://dc.lft.to/lastmile_qr_scan", "android": "https://dc.lft.to/lastmile_qr_scan"}}, {"name": "118bccc3b2139693688262adb5ba90d5", "fusion_lat": 0.0, "type": "electric_scooter", "lat": 38.91197283333333, "is_reserved": 0, "is_disabled": 0, "fusion_lon": 0.0, "bike_id": "118bccc3b2139693688262adb5ba90d5", "lon": -77.03857016666667, "rental_uris": {"ios": "https://dc.lft.to/lastmile_qr_scan", "android": "https://dc.lft.to/lastmile_qr_scan"}}, {"name": "5936095c9b10c13c7ab0bc0e638f38ad", "fusion_lat": 0.0, "type": "electric_scooter", "lat": 38.903477, "is_reserved": 0, "is_disabled": 0, "fusion_lon": 0.0, "bike_id": "5936095c9b10c13c7ab0bc0e638f38ad", "lon": -77.0260495, "rental_uris": {"ios": "https://dc.lft.to/lastmile_qr_scan", "android": "https://dc.lft.to/lastmile_qr_scan"}}, {"name": "1c9433dc65db333885ab809074494a9d", "fusion_lat": 0.0, "type": "electric_scooter", "lat": 38.89505183333333, "is_reserved": 0, "is_disabled": 0, "fusion_lon": 0.0, "bike_id": "1c9433dc65db333885ab809074494a9d", "lon": -77.0239225, "rental_uris": {"ios": "https://dc.lft.to/lastmile_qr_scan", "android": "https://dc.lft.to/lastmile_qr_scan"}}, {"name": "e6e8d1a5cfd58e90a2daa5824da1970b", "fusion_lat": 0.0, "type": "electric_scooter", "lat": 38.910559166666665, "is_reserved": 0, "is_disabled": 0, "fusion_lon": 0.0, "bike_id": "e6e8d1a5cfd58e90a2daa5824da1970b", "lon": -77.04578266666667, "rental_uris": {"ios": "https://dc.lft.to/lastmile_qr_scan", "android": "https://dc.lft.to/lastmile_qr_scan"}}, {"name": "057352c65c65b00fe96f096fbd1f49fb", "fusion_lat": 0.0, "type": "electric_scooter", "lat": 38.952181833333334, "is_reserved": 0, "is_disabled": 0, "fusion_lon": 0.0, "bike_id": "057352c65c65b00fe96f096fbd1f49fb", "lon": -77.07069316666667, "rental_uris": {"ios": "https://dc.lft.to/lastmile_qr_scan", "android": "https://dc.lft.to/lastmile_qr_scan"}}, {"name": "e4823c50bd5fbd25ea3351439968cc5f", "fusion_lat": 0.0, "type": "electric_scooter", "lat": 38.9004105, "is_reserved": 0, "is_disabled": 0, "fusion_lon": 0.0, "bike_id": "e4823c50bd5fbd25ea3351439968cc5f", "lon": -76.919176, "rental_uris": {"ios": "https://dc.lft.to/lastmile_qr_scan", "android": "https://dc.lft.to/lastmile_qr_scan"}}, {"name": "60e40fad7be541efa4e816e72d5425ca", "fusion_lat": 0.0, "type": "electric_scooter", "lat": 38.898036166666664, "is_reserved": 0, "is_disabled": 0, "fusion_lon": 0.0, "bike_id": "60e40fad7be541efa4e816e72d5425ca", "lon": -76.99496966666666, "rental_uris": {"ios": "https://dc.lft.to/lastmile_qr_scan", "android": "https://dc.lft.to/lastmile_qr_scan"}}, {"name": "134be03de5d3f5909b783f097a0e21f2", "fusion_lat": 0.0, "type": "electric_bike", "lat": 38.937779666666664, "is_reserved": 0, "is_disabled": 0, "fusion_lon": 0.0, "bike_id": "134be03de5d3f5909b783f097a0e21f2", "lon": -77.01909083333334, "rental_uris": {"ios": "https://dc.lft.to/lastmile_qr_scan", "android": "https://dc.lft.to/lastmile_qr_scan"}}, {"name": "ebb27878ac765bce31a3a049ccaf2b0f", "fusion_lat": 0.0, "type": "electric_scooter", "lat": 38.8896585, "is_reserved": 0, "is_disabled": 0, "fusion_lon": 0.0, "bike_id": "ebb27878ac765bce31a3a049ccaf2b0f", "lon": -76.9277075, "rental_uris": {"ios": "https://dc.lft.to/lastmile_qr_scan", "android": "https://dc.lft.to/lastmile_qr_scan"}}, {"name": "d4c32c7996e0ebd41c54dfe53bd1f200", "fusion_lat": 0.0, "type": "electric_scooter", "lat": 38.87648033333333, "is_reserved": 0, "is_disabled": 0, "fusion_lon": 0.0, "bike_id": "d4c32c7996e0ebd41c54dfe53bd1f200", "lon": -76.9650605, "rental_uris": {"ios": "https://dc.lft.to/lastmile_qr_scan", "android": "https://dc.lft.to/lastmile_qr_scan"}}, {"name": "0fe427894520dc8debf744e830acd416", "fusion_lat": 0.0, "type": "electric_scooter", "lat": 38.92341483333333, "is_reserved": 0, "is_disabled": 0, "fusion_lon": 0.0, "bike_id": "0fe427894520dc8debf744e830acd416", "lon": -77.05101733333333, "rental_uris": {"ios": "https://dc.lft.to/lastmile_qr_scan", "android": "https://dc.lft.to/lastmile_qr_scan"}}, {"name": "ed21352bc6f3c6d0e409eab722c25d0b", "fusion_lat": 0.0, "type": "electric_scooter", "lat": 38.9012205, "is_reserved": 0, "is_disabled": 0, "fusion_lon": 0.0, "bike_id": "ed21352bc6f3c6d0e409eab722c25d0b", "lon": -77.04996616666666, "rental_uris": {"ios": "https://dc.lft.to/lastmile_qr_scan", "android": "https://dc.lft.to/lastmile_qr_scan"}}, {"name": "6782ed04aedf75cb9d9727c3b6f9b552", "fusion_lat": 0.0, "type": "electric_scooter", "lat": 38.91271116666667, "is_reserved": 0, "is_disabled": 0, "fusion_lon": 0.0, "bike_id": "6782ed04aedf75cb9d9727c3b6f9b552", "lon": -77.01614083333334, "rental_uris": {"ios": "https://dc.lft.to/lastmile_qr_scan", "android": "https://dc.lft.to/lastmile_qr_scan"}}, {"name": "40a3c144890485c97dc189d5361937a5", "fusion_lat": 0.0, "type": "electric_scooter", "lat": 38.933925333333335, "is_reserved": 0, "is_disabled": 0, "fusion_lon": 0.0, "bike_id": "40a3c144890485c97dc189d5361937a5", "lon": -77.03154566666667, "rental_uris": {"ios": "https://dc.lft.to/lastmile_qr_scan", "android": "https://dc.lft.to/lastmile_qr_scan"}}, {"name": "6067d2654d6ce6df6939b93497132c3c", "fusion_lat": 0.0, "type": "electric_scooter", "lat": 38.903453666666664, "is_reserved": 0, "is_disabled": 0, "fusion_lon": 0.0, "bike_id": "6067d2654d6ce6df6939b93497132c3c", "lon": -77.03830233333333, "rental_uris": {"ios": "https://dc.lft.to/lastmile_qr_scan", "android": "https://dc.lft.to/lastmile_qr_scan"}}, {"name": "d773a75e6c5cfecf7ae240649c192612", "fusion_lat": 0.0, "type": "electric_scooter", "lat": 38.91333616666667, "is_reserved": 0, "is_disabled": 0, "fusion_lon": 0.0, "bike_id": "d773a75e6c5cfecf7ae240649c192612", "lon": -77.04580383333334, "rental_uris": {"ios": "https://dc.lft.to/lastmile_qr_scan", "android": "https://dc.lft.to/lastmile_qr_scan"}}, {"name": "b8f34332326383f2aac04733449146c3", "fusion_lat": 0.0, "type": "electric_bike", "lat": 38.846075166666665, "is_reserved": 0, "is_disabled": 0, "fusion_lon": 0.0, "bike_id": "b8f34332326383f2aac04733449146c3", "lon": -76.97829, "rental_uris": {"ios": "https://dc.lft.to/lastmile_qr_scan", "android": "https://dc.lft.to/lastmile_qr_scan"}}, {"name": "919afb9d867329b0e1917bbe948314a2", "fusion_lat": 0.0, "type": "electric_scooter", "lat": 38.902098, "is_reserved": 0, "is_disabled": 0, "fusion_lon": 0.0, "bike_id": "919afb9d867329b0e1917bbe948314a2", "lon": -77.05032683333333, "rental_uris": {"ios": "https://dc.lft.to/lastmile_qr_scan", "android": "https://dc.lft.to/lastmile_qr_scan"}}, {"name": "38e5092b6afa85562352ce99a97e930b", "fusion_lat": 0.0, "type": "electric_bike", "lat": 38.87914766666667, "is_reserved": 0, "is_disabled": 0, "fusion_lon": 0.0, "bike_id": "38e5092b6afa85562352ce99a97e930b", "lon": -77.00537966666667, "rental_uris": {"ios": "https://dc.lft.to/lastmile_qr_scan", "android": "https://dc.lft.to/lastmile_qr_scan"}}, {"name": "3b39ef0ab04c357c6baa5938c5c32992", "fusion_lat": 0.0, "type": "electric_scooter", "lat": 38.912551666666666, "is_reserved": 0, "is_disabled": 0, "fusion_lon": 0.0, "bike_id": "3b39ef0ab04c357c6baa5938c5c32992", "lon": -77.02682566666667, "rental_uris": {"ios": "https://dc.lft.to/lastmile_qr_scan", "android": "https://dc.lft.to/lastmile_qr_scan"}}, {"name": "e193ca6a0351899711fd4142df6db73d", "fusion_lat": 0.0, "type": "electric_bike", "lat": 38.9496445, "is_reserved": 0, "is_disabled": 0, "fusion_lon": 0.0, "bike_id": "e193ca6a0351899711fd4142df6db73d", "lon": -76.9610285, "rental_uris": {"ios": "https://dc.lft.to/lastmile_qr_scan", "android": "https://dc.lft.to/lastmile_qr_scan"}}, {"name": "298797d997debde83d3d50a1bd6f0130", "fusion_lat": 0.0, "type": "electric_scooter", "lat": 38.9418175, "is_reserved": 0, "is_disabled": 0, "fusion_lon": 0.0, "bike_id": "298797d997debde83d3d50a1bd6f0130", "lon": -77.03027116666667, "rental_uris": {"ios": "https://dc.lft.to/lastmile_qr_scan", "android": "https://dc.lft.to/lastmile_qr_scan"}}, {"name": "e26b7640cd3cc3afb587bda1f741b47f", "fusion_lat": 0.0, "type": "electric_scooter", "lat": 38.8972755, "is_reserved": 0, "is_disabled": 0, "fusion_lon": 0.0, "bike_id": "e26b7640cd3cc3afb587bda1f741b47f", "lon": -77.009315, "rental_uris": {"ios": "https://dc.lft.to/lastmile_qr_scan", "android": "https://dc.lft.to/lastmile_qr_scan"}}, {"name": "d5bcd1485304b353b43069f39a558360", "fusion_lat": 0.0, "type": "electric_scooter", "lat": 38.919143166666665, "is_reserved": 0, "is_disabled": 0, "fusion_lon": 0.0, "bike_id": "d5bcd1485304b353b43069f39a558360", "lon": -77.0261585, "rental_uris": {"ios": "https://dc.lft.to/lastmile_qr_scan", "android": "https://dc.lft.to/lastmile_qr_scan"}}, {"name": "80fc63f02d1fb66cd8986166cafbe738", "fusion_lat": 0.0, "type": "electric_scooter", "lat": 38.9103895, "is_reserved": 0, "is_disabled": 0, "fusion_lon": 0.0, "bike_id": "80fc63f02d1fb66cd8986166cafbe738", "lon": -77.03185033333334, "rental_uris": {"ios": "https://dc.lft.to/lastmile_qr_scan", "android": "https://dc.lft.to/lastmile_qr_scan"}}, {"name": "85e1c518ec24b1300c783b62af76e802", "fusion_lat": 0.0, "type": "electric_bike", "lat": 39.05810266666667, "is_reserved": 0, "is_disabled": 0, "fusion_lon": 0.0, "bike_id": "85e1c518ec24b1300c783b62af76e802", "lon": -77.126256, "rental_uris": {"ios": "https://dc.lft.to/lastmile_qr_scan", "android": "https://dc.lft.to/lastmile_qr_scan"}}, {"name": "88658aa927089b5aa096032c9b7bc8c4", "fusion_lat": 0.0, "type": "electric_scooter", "lat": 38.900376666666666, "is_reserved": 0, "is_disabled": 0, "fusion_lon": 0.0, "bike_id": "88658aa927089b5aa096032c9b7bc8c4", "lon": -76.99010316666667, "rental_uris": {"ios": "https://dc.lft.to/lastmile_qr_scan", "android": "https://dc.lft.to/lastmile_qr_scan"}}, {"name": "f8cd647052d5c1858454eb766e010a65", "fusion_lat": 0.0, "type": "electric_scooter", "lat": 38.91967066666667, "is_reserved": 0, "is_disabled": 0, "fusion_lon": 0.0, "bike_id": "f8cd647052d5c1858454eb766e010a65", "lon": -77.03863483333333, "rental_uris": {"ios": "https://dc.lft.to/lastmile_qr_scan", "android": "https://dc.lft.to/lastmile_qr_scan"}}, {"name": "d76b357a5ec6e176788ed558720d2f5b", "fusion_lat": 0.0, "type": "electric_scooter", "lat": 38.8866025, "is_reserved": 0, "is_disabled": 0, "fusion_lon": 0.0, "bike_id": "d76b357a5ec6e176788ed558720d2f5b", "lon": -77.033913, "rental_uris": {"ios": "https://dc.lft.to/lastmile_qr_scan", "android": "https://dc.lft.to/lastmile_qr_scan"}}, {"name": "65db8613bb678fb00a45109ba14eff9c", "fusion_lat": 0.0, "type": "electric_scooter", "lat": 38.907933166666666, "is_reserved": 0, "is_disabled": 0, "fusion_lon": 0.0, "bike_id": "65db8613bb678fb00a45109ba14eff9c", "lon": -77.03190716666667, "rental_uris": {"ios": "https://dc.lft.to/lastmile_qr_scan", "android": "https://dc.lft.to/lastmile_qr_scan"}}, {"name": "e4c4ee9f0d81ea408da4f26a9f3428ac", "fusion_lat": 0.0, "type": "electric_bike", "lat": 39.08895533333333, "is_reserved": 0, "is_disabled": 0, "fusion_lon": 0.0, "bike_id": "e4c4ee9f0d81ea408da4f26a9f3428ac", "lon": -77.17844083333334, "rental_uris": {"ios": "https://dc.lft.to/lastmile_qr_scan", "android": "https://dc.lft.to/lastmile_qr_scan"}}, {"name": "cf049d5a8d8a9d0fc460490a9b461f64", "fusion_lat": 0.0, "type": "electric_scooter", "lat": 38.930077833333335, "is_reserved": 0, "is_disabled": 0, "fusion_lon": 0.0, "bike_id": "cf049d5a8d8a9d0fc460490a9b461f64", "lon": -77.05522066666667, "rental_uris": {"ios": "https://dc.lft.to/lastmile_qr_scan", "android": "https://dc.lft.to/lastmile_qr_scan"}}, {"name": "4a0f07514c4a2f5d13be1c8959653345", "fusion_lat": 0.0, "type": "electric_scooter", "lat": 38.91140383333333, "is_reserved": 0, "is_disabled": 0, "fusion_lon": 0.0, "bike_id": "4a0f07514c4a2f5d13be1c8959653345", "lon": -77.04198116666667, "rental_uris": {"ios": "https://dc.lft.to/lastmile_qr_scan", "android": "https://dc.lft.to/lastmile_qr_scan"}}, {"name": "7c6b42ffbc23e1447c036086e4394b0c", "fusion_lat": 0.0, "type": "electric_scooter", "lat": 38.89188983333333, "is_reserved": 0, "is_disabled": 0, "fusion_lon": 0.0, "bike_id": "7c6b42ffbc23e1447c036086e4394b0c", "lon": -77.0158335, "rental_uris": {"ios": "https://dc.lft.to/lastmile_qr_scan", "android": "https://dc.lft.to/lastmile_qr_scan"}}, {"name": "67094ae6e9193e36d7ce6da177e1abd0", "fusion_lat": 0.0, "type": "electric_scooter", "lat": 38.91099466666667, "is_reserved": 0, "is_disabled": 0, "fusion_lon": 0.0, "bike_id": "67094ae6e9193e36d7ce6da177e1abd0", "lon": -77.073461, "rental_uris": {"ios": "https://dc.lft.to/lastmile_qr_scan", "android": "https://dc.lft.to/lastmile_qr_scan"}}, {"name": "e38f53791fe1cff54759683e464520a0", "fusion_lat": 0.0, "type": "electric_scooter", "lat": 38.874585333333336, "is_reserved": 0, "is_disabled": 0, "fusion_lon": 0.0, "bike_id": "e38f53791fe1cff54759683e464520a0", "lon": -77.00544366666666, "rental_uris": {"ios": "https://dc.lft.to/lastmile_qr_scan", "android": "https://dc.lft.to/lastmile_qr_scan"}}, {"name": "f1ad8b12f05483034b291a32e686be61", "fusion_lat": 0.0, "type": "electric_scooter", "lat": 38.94291183333333, "is_reserved": 0, "is_disabled": 0, "fusion_lon": 0.0, "bike_id": "f1ad8b12f05483034b291a32e686be61", "lon": -77.02169016666667, "rental_uris": {"ios": "https://dc.lft.to/lastmile_qr_scan", "android": "https://dc.lft.to/lastmile_qr_scan"}}, {"name": "3c5ea0c9d57afaf75129947e3f474e8b", "fusion_lat": 0.0, "type": "electric_scooter", "lat": 38.957284666666666, "is_reserved": 0, "is_disabled": 0, "fusion_lon": 0.0, "bike_id": "3c5ea0c9d57afaf75129947e3f474e8b", "lon": -77.02390116666666, "rental_uris": {"ios": "https://dc.lft.to/lastmile_qr_scan", "android": "https://dc.lft.to/lastmile_qr_scan"}}, {"name": "ef9b339b45c93b0b1a09c67a6660c50d", "fusion_lat": 0.0, "type": "electric_bike", "lat": 38.871977, "is_reserved": 0, "is_disabled": 0, "fusion_lon": 0.0, "bike_id": "ef9b339b45c93b0b1a09c67a6660c50d", "lon": -77.0093355, "rental_uris": {"ios": "https://dc.lft.to/lastmile_qr_scan", "android": "https://dc.lft.to/lastmile_qr_scan"}}, {"name": "d3364fdefd14eb2bf1c0d6c44b79df1c", "fusion_lat": 0.0, "type": "electric_bike", "lat": 38.892211833333334, "is_reserved": 0, "is_disabled": 0, "fusion_lon": 0.0, "bike_id": "d3364fdefd14eb2bf1c0d6c44b79df1c", "lon": -77.10778533333334, "rental_uris": {"ios": "https://dc.lft.to/lastmile_qr_scan", "android": "https://dc.lft.to/lastmile_qr_scan"}}, {"name": "7d0a52c1636198ac4e7cd185c4018382", "fusion_lat": 0.0, "type": "electric_scooter", "lat": 38.8592345, "is_reserved": 0, "is_disabled": 0, "fusion_lon": 0.0, "bike_id": "7d0a52c1636198ac4e7cd185c4018382", "lon": -76.9898075, "rental_uris": {"ios": "https://dc.lft.to/lastmile_qr_scan", "android": "https://dc.lft.to/lastmile_qr_scan"}}, {"name": "8b618f4f96a00fc598fb6b0c3420e54b", "fusion_lat": 0.0, "type": "electric_scooter", "lat": 38.911902, "is_reserved": 0, "is_disabled": 0, "fusion_lon": 0.0, "bike_id": "8b618f4f96a00fc598fb6b0c3420e54b", "lon": -77.03861383333333, "rental_uris": {"ios": "https://dc.lft.to/lastmile_qr_scan", "android": "https://dc.lft.to/lastmile_qr_scan"}}, {"name": "02afc152e24302129ea580033bbf0f64", "fusion_lat": 0.0, "type": "electric_scooter", "lat": 38.92840416666667, "is_reserved": 0, "is_disabled": 0, "fusion_lon": 0.0, "bike_id": "02afc152e24302129ea580033bbf0f64", "lon": -77.05418633333333, "rental_uris": {"ios": "https://dc.lft.to/lastmile_qr_scan", "android": "https://dc.lft.to/lastmile_qr_scan"}}, {"name": "1b8340f6579cdaa2da17dde82be3725a", "fusion_lat": 0.0, "type": "electric_scooter", "lat": 38.872842, "is_reserved": 0, "is_disabled": 0, "fusion_lon": 0.0, "bike_id": "1b8340f6579cdaa2da17dde82be3725a", "lon": -77.00988, "rental_uris": {"ios": "https://dc.lft.to/lastmile_qr_scan", "android": "https://dc.lft.to/lastmile_qr_scan"}}, {"name": "134ad94a8e029c38f2117ab6848aa721", "fusion_lat": 0.0, "type": "electric_scooter", "lat": 38.91258766666667, "is_reserved": 0, "is_disabled": 0, "fusion_lon": 0.0, "bike_id": "134ad94a8e029c38f2117ab6848aa721", "lon": -77.03154666666667, "rental_uris": {"ios": "https://dc.lft.to/lastmile_qr_scan", "android": "https://dc.lft.to/lastmile_qr_scan"}}, {"name": "30503f1b96556fed180467700496ebdb", "fusion_lat": 0.0, "type": "electric_scooter", "lat": 38.933901, "is_reserved": 0, "is_disabled": 0, "fusion_lon": 0.0, "bike_id": "30503f1b96556fed180467700496ebdb", "lon": -77.03583583333334, "rental_uris": {"ios": "https://dc.lft.to/lastmile_qr_scan", "android": "https://dc.lft.to/lastmile_qr_scan"}}, {"name": "3d94f0f7723fc36e09ec5423e6ff66b2", "fusion_lat": 0.0, "type": "electric_scooter", "lat": 38.8832485, "is_reserved": 0, "is_disabled": 0, "fusion_lon": 0.0, "bike_id": "3d94f0f7723fc36e09ec5423e6ff66b2", "lon": -77.02378666666667, "rental_uris": {"ios": "https://dc.lft.to/lastmile_qr_scan", "android": "https://dc.lft.to/lastmile_qr_scan"}}, {"name": "536136e7d52dbc126216cc1355aa473b", "fusion_lat": 0.0, "type": "electric_scooter", "lat": 38.901726833333335, "is_reserved": 0, "is_disabled": 0, "fusion_lon": 0.0, "bike_id": "536136e7d52dbc126216cc1355aa473b", "lon": -77.022939, "rental_uris": {"ios": "https://dc.lft.to/lastmile_qr_scan", "android": "https://dc.lft.to/lastmile_qr_scan"}}, {"name": "a7fe1e145f6fa2404744013bcf34c13d", "fusion_lat": 0.0, "type": "electric_scooter", "lat": 38.916844, "is_reserved": 0, "is_disabled": 0, "fusion_lon": 0.0, "bike_id": "a7fe1e145f6fa2404744013bcf34c13d", "lon": -77.0292085, "rental_uris": {"ios": "https://dc.lft.to/lastmile_qr_scan", "android": "https://dc.lft.to/lastmile_qr_scan"}}, {"name": "7ccdd2152d0af82c54f594ec1704e4d5", "fusion_lat": 0.0, "type": "electric_scooter", "lat": 38.900443833333334, "is_reserved": 0, "is_disabled": 0, "fusion_lon": 0.0, "bike_id": "7ccdd2152d0af82c54f594ec1704e4d5", "lon": -76.9881235, "rental_uris": {"ios": "https://dc.lft.to/lastmile_qr_scan", "android": "https://dc.lft.to/lastmile_qr_scan"}}, {"name": "90df5149d42454174f24646991306b03", "fusion_lat": 0.0, "type": "electric_scooter", "lat": 38.91115033333333, "is_reserved": 0, "is_disabled": 0, "fusion_lon": 0.0, "bike_id": "90df5149d42454174f24646991306b03", "lon": -77.03915133333334, "rental_uris": {"ios": "https://dc.lft.to/lastmile_qr_scan", "android": "https://dc.lft.to/lastmile_qr_scan"}}, {"name": "59b7da85f9b4e1a27488aa27c21cce8c", "fusion_lat": 0.0, "type": "electric_scooter", "lat": 38.9070205, "is_reserved": 0, "is_disabled": 0, "fusion_lon": 0.0, "bike_id": "59b7da85f9b4e1a27488aa27c21cce8c", "lon": -77.02388516666667, "rental_uris": {"ios": "https://dc.lft.to/lastmile_qr_scan", "android": "https://dc.lft.to/lastmile_qr_scan"}}, {"name": "45e9e68cdf8d85eea9eb17d14e8cc985", "fusion_lat": 0.0, "type": "electric_scooter", "lat": 38.892172, "is_reserved": 0, "is_disabled": 0, "fusion_lon": 0.0, "bike_id": "45e9e68cdf8d85eea9eb17d14e8cc985", "lon": -77.01375233333333, "rental_uris": {"ios": "https://dc.lft.to/lastmile_qr_scan", "android": "https://dc.lft.to/lastmile_qr_scan"}}, {"name": "adb51f8294772a909bd73308bf89a46a", "fusion_lat": 0.0, "type": "electric_scooter", "lat": 38.896058333333336, "is_reserved": 0, "is_disabled": 0, "fusion_lon": 0.0, "bike_id": "adb51f8294772a909bd73308bf89a46a", "lon": -77.02808166666667, "rental_uris": {"ios": "https://dc.lft.to/lastmile_qr_scan", "android": "https://dc.lft.to/lastmile_qr_scan"}}, {"name": "7e6b296a5ed618eb3a5d6441e7c30663", "fusion_lat": 0.0, "type": "electric_bike", "lat": 38.8690505, "is_reserved": 0, "is_disabled": 0, "fusion_lon": 0.0, "bike_id": "7e6b296a5ed618eb3a5d6441e7c30663", "lon": -77.131809, "rental_uris": {"ios": "https://dc.lft.to/lastmile_qr_scan", "android": "https://dc.lft.to/lastmile_qr_scan"}}, {"name": "e7955fb1f194224c931a6b4bbae0e8f4", "fusion_lat": 0.0, "type": "electric_bike", "lat": 38.916942, "is_reserved": 0, "is_disabled": 0, "fusion_lon": 0.0, "bike_id": "e7955fb1f194224c931a6b4bbae0e8f4", "lon": -77.02688, "rental_uris": {"ios": "https://dc.lft.to/lastmile_qr_scan", "android": "https://dc.lft.to/lastmile_qr_scan"}}, {"name": "5bd6ec13a6bfab51b87d19c0d6e2cc3b", "fusion_lat": 0.0, "type": "electric_scooter", "lat": 38.84426883333333, "is_reserved": 0, "is_disabled": 0, "fusion_lon": 0.0, "bike_id": "5bd6ec13a6bfab51b87d19c0d6e2cc3b", "lon": -76.9977845, "rental_uris": {"ios": "https://dc.lft.to/lastmile_qr_scan", "android": "https://dc.lft.to/lastmile_qr_scan"}}, {"name": "4fdf711c8d8567729b3afce4efe66cae", "fusion_lat": 0.0, "type": "electric_scooter", "lat": 38.8961625, "is_reserved": 0, "is_disabled": 0, "fusion_lon": 0.0, "bike_id": "4fdf711c8d8567729b3afce4efe66cae", "lon": -77.02332233333334, "rental_uris": {"ios": "https://dc.lft.to/lastmile_qr_scan", "android": "https://dc.lft.to/lastmile_qr_scan"}}, {"name": "6059c0ec86a1fcd699881317d6ce9e4e", "fusion_lat": 0.0, "type": "electric_scooter", "lat": 38.917654166666665, "is_reserved": 0, "is_disabled": 0, "fusion_lon": 0.0, "bike_id": "6059c0ec86a1fcd699881317d6ce9e4e", "lon": -77.02711683333334, "rental_uris": {"ios": "https://dc.lft.to/lastmile_qr_scan", "android": "https://dc.lft.to/lastmile_qr_scan"}}, {"name": "86a75860e8a2f89c9de008d1964248e2", "fusion_lat": 0.0, "type": "electric_scooter", "lat": 38.893606166666665, "is_reserved": 0, "is_disabled": 0, "fusion_lon": 0.0, "bike_id": "86a75860e8a2f89c9de008d1964248e2", "lon": -76.949825, "rental_uris": {"ios": "https://dc.lft.to/lastmile_qr_scan", "android": "https://dc.lft.to/lastmile_qr_scan"}}, {"name": "f31a8e2529dea16b042294a3d9a56015", "fusion_lat": 0.0, "type": "electric_bike", "lat": 38.83438433333333, "is_reserved": 0, "is_disabled": 0, "fusion_lon": 0.0, "bike_id": "f31a8e2529dea16b042294a3d9a56015", "lon": -77.00823733333333, "rental_uris": {"ios": "https://dc.lft.to/lastmile_qr_scan", "android": "https://dc.lft.to/lastmile_qr_scan"}}, {"name": "e6857610198675960e9b0dcca808df48", "fusion_lat": 0.0, "type": "electric_scooter", "lat": 38.931455166666666, "is_reserved": 0, "is_disabled": 0, "fusion_lon": 0.0, "bike_id": "e6857610198675960e9b0dcca808df48", "lon": -77.02975616666667, "rental_uris": {"ios": "https://dc.lft.to/lastmile_qr_scan", "android": "https://dc.lft.to/lastmile_qr_scan"}}, {"name": "a8a79595226fa4c3015092bfd6f09c20", "fusion_lat": 0.0, "type": "electric_scooter", "lat": 38.95647433333333, "is_reserved": 0, "is_disabled": 0, "fusion_lon": 0.0, "bike_id": "a8a79595226fa4c3015092bfd6f09c20", "lon": -77.03282733333333, "rental_uris": {"ios": "https://dc.lft.to/lastmile_qr_scan", "android": "https://dc.lft.to/lastmile_qr_scan"}}, {"name": "aaa7d3a5f5861cb8a4afb08c4f5e5d95", "fusion_lat": 0.0, "type": "electric_bike", "lat": 38.928543833333336, "is_reserved": 0, "is_disabled": 0, "fusion_lon": 0.0, "bike_id": "aaa7d3a5f5861cb8a4afb08c4f5e5d95", "lon": -77.22219433333333, "rental_uris": {"ios": "https://dc.lft.to/lastmile_qr_scan", "android": "https://dc.lft.to/lastmile_qr_scan"}}, {"name": "a087fa253771c6ac85843a0c36f47de8", "fusion_lat": 0.0, "type": "electric_bike", "lat": 38.91181783333333, "is_reserved": 0, "is_disabled": 0, "fusion_lon": 0.0, "bike_id": "a087fa253771c6ac85843a0c36f47de8", "lon": -77.0115245, "rental_uris": {"ios": "https://dc.lft.to/lastmile_qr_scan", "android": "https://dc.lft.to/lastmile_qr_scan"}}, {"name": "1eb0cee176b5220314d71f3949aa0fa1", "fusion_lat": 0.0, "type": "electric_scooter", "lat": 38.9026675, "is_reserved": 0, "is_disabled": 0, "fusion_lon": 0.0, "bike_id": "1eb0cee176b5220314d71f3949aa0fa1", "lon": -76.98712533333334, "rental_uris": {"ios": "https://dc.lft.to/lastmile_qr_scan", "android": "https://dc.lft.to/lastmile_qr_scan"}}, {"name": "45ab150d2bac5a88f2a805a8628473b0", "fusion_lat": 0.0, "type": "electric_bike", "lat": 39.05313916666667, "is_reserved": 0, "is_disabled": 0, "fusion_lon": 0.0, "bike_id": "45ab150d2bac5a88f2a805a8628473b0", "lon": -77.04776533333333, "rental_uris": {"ios": "https://dc.lft.to/lastmile_qr_scan", "android": "https://dc.lft.to/lastmile_qr_scan"}}, {"name": "bc1601b3e7dcc56441af88a61d300fe2", "fusion_lat": 0.0, "type": "electric_scooter", "lat": 38.865369333333334, "is_reserved": 0, "is_disabled": 0, "fusion_lon": 0.0, "bike_id": "bc1601b3e7dcc56441af88a61d300fe2", "lon": -76.9870635, "rental_uris": {"ios": "https://dc.lft.to/lastmile_qr_scan", "android": "https://dc.lft.to/lastmile_qr_scan"}}, {"name": "1b0afbe2e8a928add34415a035d08312", "fusion_lat": 0.0, "type": "electric_scooter", "lat": 38.9225015, "is_reserved": 0, "is_disabled": 0, "fusion_lon": 0.0, "bike_id": "1b0afbe2e8a928add34415a035d08312", "lon": -76.99388616666667, "rental_uris": {"ios": "https://dc.lft.to/lastmile_qr_scan", "android": "https://dc.lft.to/lastmile_qr_scan"}}, {"name": "58ec2f99e60e7892f157c7852281b89a", "fusion_lat": 0.0, "type": "electric_scooter", "lat": 38.9058425, "is_reserved": 0, "is_disabled": 0, "fusion_lon": 0.0, "bike_id": "58ec2f99e60e7892f157c7852281b89a", "lon": -77.02412066666666, "rental_uris": {"ios": "https://dc.lft.to/lastmile_qr_scan", "android": "https://dc.lft.to/lastmile_qr_scan"}}, {"name": "6701a29f365bfd2d0a67ed2bd76b9dfb", "fusion_lat": 0.0, "type": "electric_scooter", "lat": 38.90121033333333, "is_reserved": 0, "is_disabled": 0, "fusion_lon": 0.0, "bike_id": "6701a29f365bfd2d0a67ed2bd76b9dfb", "lon": -77.04216466666666, "rental_uris": {"ios": "https://dc.lft.to/lastmile_qr_scan", "android": "https://dc.lft.to/lastmile_qr_scan"}}, {"name": "52c365dd9067e2f0d741410d937af3ca", "fusion_lat": 0.0, "type": "electric_bike", "lat": 39.08859533333333, "is_reserved": 0, "is_disabled": 0, "fusion_lon": 0.0, "bike_id": "52c365dd9067e2f0d741410d937af3ca", "lon": -77.178421, "rental_uris": {"ios": "https://dc.lft.to/lastmile_qr_scan", "android": "https://dc.lft.to/lastmile_qr_scan"}},