{"data": {"bikes": [{"is_disabled": 0, "fusion_lon": 0.0, "fusion_lat": 0.0, "lat": 38.925734, "type": "electric_scooter", "lon": -76.9949395, "bike_id": "abe7b14f634e2f93118e2bf856f35f05", "rental_uris": {"android": "https://dc.lft.to/lastmile_qr_scan", "ios": "https://dc.lft.to/lastmile_qr_scan"}, "name": "abe7b14f634e2f93118e2bf856f35f05", "is_reserved": 0}, {"is_disabled": 0, "fusion_lon": 0.0, "fusion_lat": 0.0, "lat": 38.88271566666667, "type": "electric_scooter", "lon": -76.98778733333333, "bike_id": "00aab82df88ce885a9630498693ddbae", "rental_uris": {"android": "https://dc.lft.to/lastmile_qr_scan", "ios": "https://dc.lft.to/lastmile_qr_scan"}, "name": "00aab82df88ce885a9630498693ddbae", "is_reserved": 0}, {"is_disabled": 0, "fusion_lon": 0.0, "fusion_lat": 0.0, "lat": 38.90734033333333, "type": "electric_scooter", "lon": -77.03453033333334, "bike_id": "8411cb3e7cea60474d357cb8d8a416c0", "rental_uris": {"android": "https://dc.lft.to/lastmile_qr_scan", "ios": "https://dc.lft.to/lastmile_qr_scan"}, "name": "8411cb3e7cea60474d357cb8d8a416c0", "is_reserved": 0}, {"is_disabled": 0, "fusion_lon": 0.0, "fusion_lat": 0.0, "lat": 38.9419715, "type": "electric_scooter", "lon": -77.02577866666667, "bike_id": "892ade70aa2749037a839e2dc2df0b88", "rental_uris": {"android": "https://dc.lft.to/lastmile_qr_scan", "ios": "https://dc.lft.to/lastmile_qr_scan"}, "name": "892ade70aa2749037a839e2dc2df0b88", "is_reserved": 0}, {"is_disabled": 0, "fusion_lon": 0.0, "fusion_lat": 0.0, "lat": 38.90027533333333, "type": "electric_scooter", "lon": -77.04381666666667, "bike_id": "1c6f3f8f53617deb5fba065b463b0150", "rental_uris": {"android": "https://dc.lft.to/lastmile_qr_scan", "ios": "https://dc.lft.to/lastmile_qr_scan"}, "name": "1c6f3f8f53617deb5fba065b463b0150", "is_reserved": 0}, {"is_disabled": 0, "fusion_lon": 0.0, "fusion_lat": 0.0, "lat": 38.91930966666666, "type": "electric_scooter", "lon": -77.0259385, "bike_id": "c821de4af97f622593b100efea900b38", "rental_uris": {"android": "https://dc.lft.to/lastmile_qr_scan", "ios": "https://dc.lft.to/lastmile_qr_scan"}, "name": "c821de4af97f622593b100efea900b38", "is_reserved": 0}, {"is_disabled": 0, "fusion_lon": 0.0, "fusion_lat": 0.0, "lat": 38.9090085, "type": "electric_scooter", "lon": -76.99867983333333, "bike_id": "1e78018f68c1437a14d07a09cb824c77", "rental_uris": {"android": "https://dc.lft.to/lastmile_qr_scan", "ios": "https://dc.lft.to/lastmile_qr_scan"}, "name": "1e78018f68c1437a14d07a09cb824c77", "is_reserved": 0}, {"is_disabled": 0, "fusion_lon": 0.0, "fusion_lat": 0.0, "lat": 38.98827283333333, "type": "electric_bike", "lon": -76.9875475, "bike_id": "b4474313b4f8aed0d9f060c9624ba963", "rental_uris": {"android": "https://dc.lft.to/lastmile_qr_scan", "ios": "https://dc.lft.to/lastmile_qr_scan"}, "name": "b4474313b4f8aed0d9f060c9624ba963", "is_reserved": 0}, {"is_disabled": 0, "fusion_lon": 0.0, "fusion_lat": 0.0, "lat": 38.89879083333334, "type": "electric_scooter", "lon": -76.98683566666666, "bike_id": "ee21c4371c9f32f6d3c897f21af0d9d2", "rental_uris": {"android": "https://dc.lft.to/lastmile_qr_scan", "ios": "https://dc.lft.to/lastmile_qr_scan"}, "name": "ee21c4371c9f32f6d3c897f21af0d9d2", "is_reserved": 0}, {"is_disabled": 0, "fusion_lon": 0.0, "fusion_lat": 0.0, "lat": 38.92255633333333, "type": "electric_scooter", "lon": -77.03522116666667, "bike_id": "8263ffdd833b8d14fdda6b27181199f4", "rental_uris": {"android": "https://dc.lft.to/lastmile_qr_scan", "ios": "https://dc.lft.to/lastmile_qr_scan"}, "name": "8263ffdd833b8d14fdda6b27181199f4", "is_reserved": 0}, {"is_disabled": 0, "fusion_lon": 0.0, "fusion_lat": 0.0, "lat": 38.901711166666665, "type": "electric_scooter", "lon": -77.05316533333334, "bike_id": "37e89a259794a8ea6c0383e45881e70c", "rental_uris": {"android": "https://dc.lft.to/lastmile_qr_scan", "ios": "https://dc.lft.to/lastmile_qr_scan"}, "name": "37e89a259794a8ea6c0383e45881e70c", "is_reserved": 0}, {"is_disabled": 0, "fusion_lon": 0.0, "fusion_lat": 0.0, "lat": 38.92744, "type": "electric_scooter", "lon": -77.03355966666666, "bike_id": "5f5022a9142fe92c11c4753c79cdb725", "rental_uris": {"android": "https://dc.lft.to/lastmile_qr_scan", "ios": "https://dc.lft.to/lastmile_qr_scan"}, "name": "5f5022a9142fe92c11c4753c79cdb725", "is_reserved": 0}, {"is_disabled": 0, "fusion_lon": 0.0, "fusion_lat": 0.0, "lat": 38.939255333333335, "type": "electric_scooter", "lon": -77.07471083333333, "bike_id": "f9711f0b73d672e81fcca82f88f12e90", "rental_uris": {"android": "https://dc.lft.to/lastmile_qr_scan", "ios": "https://dc.lft.to/lastmile_qr_scan"}, "name": "f9711f0b73d672e81fcca82f88f12e90", "is_reserved": 0}, {"is_disabled": 0, "fusion_lon": 0.0, "fusion_lat": 0.0, "lat": 38.9073125, "type": "electric_scooter", "lon": -77.0344835, "bike_id": "02dc9660003576686d1003ec12a5366d", "rental_uris": {"android": "https://dc.lft.to/lastmile_qr_scan", "ios": "https://dc.lft.to/lastmile_qr_scan"}, "name": "02dc9660003576686d1003ec12a5366d", "is_reserved": 0}, {"is_disabled": 0, "fusion_lon": 0.0, "fusion_lat": 0.0, "lat": 38.9025895, "type": "electric_scooter", "lon": -77.00208433333333, "bike_id": "1657c8709ea0317dd1008869b7996654", "rental_uris": {"android": "https://dc.lft.to/lastmile_qr_scan", "ios": "https://dc.lft.to/lastmile_qr_scan"}, "name": "1657c8709ea0317dd1008869b7996654", "is_reserved": 0}, {"is_disabled": 0, "fusion_lon": 0.0, "fusion_lat": 0.0, "lat": 38.949689666666664, "type": "electric_scooter", "lon": -77.037609, "bike_id": "08a77848a004af963c2233e56662507d", "rental_uris": {"android": "https://dc.lft.to/lastmile_qr_scan", "ios": "https://dc.lft.to/lastmile_qr_scan"}, "name": "08a77848a004af963c2233e56662507d", "is_reserved": 0}, {"is_disabled": 0, "fusion_lon": 0.0, "fusion_lat": 0.0, "lat": 38.9038215, "type": "electric_scooter", "lon": -77.04016633333333, "bike_id": "fc6794be65eddacc339de48386c0005d", "rental_uris": {"android": "https://dc.lft.to/lastmile_qr_scan", "ios": "https://dc.lft.to/lastmile_qr_scan"}, "name": "fc6794be65eddacc339de48386c0005d", "is_reserved": 0}, {"is_disabled": 0, "fusion_lon": 0.0, "fusion_lat": 0.0, "lat": 38.907848, "type": "electric_scooter", "lon": -77.0097245, "bike_id": "8263fc071a1208621f547f7904063291", "rental_uris": {"android": "https://dc.lft.to/lastmile_qr_scan", "ios": "https://dc.lft.to/lastmile_qr_scan"}, "name": "8263fc071a1208621f547f7904063291", "is_reserved": 0}, {"is_disabled": 0, "fusion_lon": 0.0, "fusion_lat": 0.0, "lat": 39.026850333333336, "type": "electric_bike", "lon": -77.125992, "bike_id": "2f15e14744e78e496538815bf9dd4fef", "rental_uris": {"android": "https://dc.lft.to/lastmile_qr_scan", "ios": "https://dc.lft.to/lastmile_qr_scan"}, "name": "2f15e14744e78e496538815bf9dd4fef", "is_reserved": 0}, {"is_disabled": 0, "fusion_lon": 0.0, "fusion_lat": 0.0, "lat": 38.902023, "type": "electric_scooter", "lon": -77.05105533333334, "bike_id": "b7033ace284c888a940f076b81ca7bcd", "rental_uris": {"android": "https://dc.lft.to/lastmile_qr_scan", "ios": "https://dc.lft.to/lastmile_qr_scan"}, "name": "b7033ace284c888a940f076b81ca7bcd", "is_reserved": 0}, {"is_disabled": 0, "fusion_lon": 0.0, "fusion_lat": 0.0, "lat": 38.917172666666666, "type": "electric_scooter", "lon": -77.09814166666666, "bike_id": "c6fa47f589e7b28a1a6fd828c0f51d63", "rental_uris": {"android": "https://dc.lft.to/lastmile_qr_scan", "ios": "https://dc.lft.to/lastmile_qr_scan"}, "name": "c6fa47f589e7b28a1a6fd828c0f51d63", "is_reserved": 0}, {"is_disabled": 0, "fusion_lon": 0.0, "fusion_lat": 0.0, "lat": 38.89486316666667, "type": "electric_scooter", "lon": -76.99521566666667, "bike_id": "97f1cc9a94b8b67fd2babb7dd287eed4", "rental_uris": {"android": "https://dc.lft.to/lastmile_qr_scan", "ios": "https://dc.lft.to/lastmile_qr_scan"}, "name": "97f1cc9a94b8b67fd2babb7dd287eed4", "is_reserved": 0}, {"is_disabled": 0, "fusion_lon": 0.0, "fusion_lat": 0.0, "lat": 38.9202335, "type": "electric_scooter", "lon": -77.03161, "bike_id": "1ae67b2e0b6e769c0cd1356d9d9a45d3", "rental_uris": {"android": "https://dc.lft.to/lastmile_qr_scan", "ios": "https://dc.lft.to/lastmile_qr_scan"}, "name": "1ae67b2e0b6e769c0cd1356d9d9a45d3", "is_reserved": 0}, {"is_disabled": 0, "fusion_lon": 0.0, "fusion_lat": 0.0, "lat": 38.9235715, "type": "electric_scooter", "lon": -77.050625, "bike_id": "10ea868b42fdd7bf8da603c8caf7e3c3", "rental_uris": {"android": "https://dc.lft.to/lastmile_qr_scan", "ios": "https://dc.lft.to/lastmile_qr_scan"}, "name": "10ea868b42fdd7bf8da603c8caf7e3c3", "is_reserved": 0}, {"is_disabled": 0, "fusion_lon": 0.0, "fusion_lat": 0.0, "lat": 38.892234333333334, "type": "electric_scooter", "lon": -77.04688966666667, "bike_id": "39e33e75b7f55407e23f6fed69e8d392", "rental_uris": {"android": "https://dc.lft.to/lastmile_qr_scan", "ios": "https://dc.lft.to/lastmile_qr_scan"}, "name": "39e33e75b7f55407e23f6fed69e8d392", "is_reserved": 0}, {"is_disabled": 0, "fusion_lon": 0.0, "fusion_lat": 0.0, "lat": 38.93176183333333, "type": "electric_scooter", "lon": -77.07256333333333, "bike_id": "c201a56bf1d6729c73b031bea9edbd5b", "rental_uris": {"android": "https://dc.lft.to/lastmile_qr_scan", "ios": "https://dc.lft.to/lastmile_qr_scan"}, "name": "c201a56bf1d6729c73b031bea9edbd5b", "is_reserved": 0}, {"is_disabled": 0, "fusion_lon": 0.0, "fusion_lat": 0.0, "lat": 38.91686, "type": "electric_scooter", "lon": -77.03763266666667, "bike_id": "b7bef65e790de79e420b13bff6a3c79e", "rental_uris": {"android": "https://dc.lft.to/lastmile_qr_scan", "ios": "https://dc.lft.to/lastmile_qr_scan"}, "name": "b7bef65e790de79e420b13bff6a3c79e", "is_reserved": 0}, {"is_disabled": 0, "fusion_lon": 0.0, "fusion_lat": 0.0, "lat": 38.899665166666665, "type": "electric_scooter", "lon": -77.05059466666667, "bike_id": "d2043baa0730324c2aad8f64e5c4ab64", "rental_uris": {"android": "https://dc.lft.to/lastmile_qr_scan", "ios": "https://dc.lft.to/lastmile_qr_scan"}, "name": "d2043baa0730324c2aad8f64e5c4ab64", "is_reserved": 0}, {"is_disabled": 0, "fusion_lon": 0.0, "fusion_lat": 0.0, "lat": 38.88475316666667, "type": "electric_scooter", "lon": -77.01977016666666, "bike_id": "09807be32ef02f900feebc82afbd49a5", "rental_uris": {"android": "https://dc.lft.to/lastmile_qr_scan", "ios": "https://dc.lft.to/lastmile_qr_scan"}, "name": "09807be32ef02f900feebc82afbd49a5", "is_reserved": 0}, {"is_disabled": 0, "fusion_lon": 0.0, "fusion_lat": 0.0, "lat": 38.820828166666665, "type": "electric_bike", "lon": -77.05365666666667, "bike_id": "0ad30bbda08a1b095b021f306b83cfb7", "rental_uris": {"android": "https://dc.lft.to/lastmile_qr_scan", "ios": "https://dc.lft.to/lastmile_qr_scan"}, "name": "0ad30bbda08a1b095b021f306b83cfb7", "is_reserved": 0}, {"is_disabled": 0, "fusion_lon": 0.0, "fusion_lat": 0.0, "lat": 39.030914333333335, "type": "electric_bike", "lon": -77.1040125, "bike_id": "c1f3ee9e6c86de0e9e34c5cbcdebe3b5", "rental_uris": {"android": "https://dc.lft.to/lastmile_qr_scan", "ios": "https://dc.lft.to/lastmile_qr_scan"}, "name": "c1f3ee9e6c86de0e9e34c5cbcdebe3b5", "is_reserved": 0}, {"is_disabled": 0, "fusion_lon": 0.0, "fusion_lat": 0.0, "lat": 38.92059666666667, "type": "electric_scooter", "lon": -77.02429533333333, "bike_id": "8a94c41b50500c3ad740cc49fa982a8b", "rental_uris": {"android": "https://dc.lft.to/lastmile_qr_scan", "ios": "https://dc.lft.to/lastmile_qr_scan"}, "name": "8a94c41b50500c3ad740cc49fa982a8b", "is_reserved": 0}, {"is_disabled": 0, "fusion_lon": 0.0, "fusion_lat": 0.0, "lat": 38.90504816666667, "type": "electric_scooter", "lon": -77.0293255, "bike_id": "7a0611cfa7280a79b1d2df55b432ccf9", "rental_uris": {"android": "https://dc.lft.to/lastmile_qr_scan", "ios": "https://dc.lft.to/lastmile_qr_scan"}, "name": "7a0611cfa7280a79b1d2df55b432ccf9", "is_reserved": 0}, {"is_disabled": 0, "fusion_lon": 0.0, "fusion_lat": 0.0, "lat": 38.93169983333333, "type": "electric_scooter", "lon": -77.072702, "bike_id": "4485cc229b97fcfec38c631450f09637", "rental_uris": {"android": "https://dc.lft.to/lastmile_qr_scan", "ios": "https://dc.lft.to/lastmile_qr_scan"}, "name": "4485cc229b97fcfec38c631450f09637", "is_reserved": 0}, {"is_disabled": 0, "fusion_lon": 0.0, "fusion_lat": 0.0, "lat": 38.90977433333333, "type": "electric_scooter", "lon": -77.02177083333333, "bike_id": "1354f1fb62c5bc80a45d9498a115b449", "rental_uris": {"android": "https://dc.lft.to/lastmile_qr_scan", "ios": "https://dc.lft.to/lastmile_qr_scan"}, "name": "1354f1fb62c5bc80a45d9498a115b449", "is_reserved": 0}, {"is_disabled": 0, "fusion_lon": 0.0, "fusion_lat": 0.0, "lat": 38.95357116666667, "type": "electric_bike", "lon": -76.98094533333334, "bike_id": "afb972dd7de73b1a170d93a22f3745e8", "rental_uris": {"android": "https://dc.lft.to/lastmile_qr_scan", "ios": "https://dc.lft.to/lastmile_qr_scan"}, "name": "afb972dd7de73b1a170d93a22f3745e8", "is_reserved": 0}, {"is_disabled": 0, "fusion_lon": 0.0, "fusion_lat": 0.0, "lat": 38.898410166666665, "type": "electric_scooter", "lon": -76.94635433333333, "bike_id": "ead829a694830f5aa1c59e82fd1b2ec0", "rental_uris": {"android": "https://dc.lft.to/lastmile_qr_scan", "ios": "https://dc.lft.to/lastmile_qr_scan"}, "name": "ead829a694830f5aa1c59e82fd1b2ec0", "is_reserved": 0}, {"is_disabled": 0, "fusion_lon": 0.0, "fusion_lat": 0.0, "lat": 38.921456666666664, "type": "electric_scooter", "lon": -77.035006, "bike_id": "f9786fad80c0758ee6a9dd456b5027d5", "rental_uris": {"android": "https://dc.lft.to/lastmile_qr_scan", "ios": "https://dc.lft.to/lastmile_qr_scan"}, "name": "f9786fad80c0758ee6a9dd456b5027d5", "is_reserved": 0}, {"is_disabled": 0, "fusion_lon": 0.0, "fusion_lat": 0.0, "lat": 38.83936816666667, "type": "electric_bike", "lon": -77.07907383333334, "bike_id": "87e8374af8243ef22b5b34954b4e025c", "rental_uris": {"android": "https://dc.lft.to/lastmile_qr_scan", "ios": "https://dc.lft.to/lastmile_qr_scan"}, "name": "87e8374af8243ef22b5b34954b4e025c", "is_reserved": 0}, {"is_disabled": 0, "fusion_lon": 0.0, "fusion_lat": 0.0, "lat": 38.895365, "type": "electric_scooter", "lon": -77.010938, "bike_id": "44cb80a19988fa37e99733d64d4e7982", "rental_uris": {"android": "https://dc.lft.to/lastmile_qr_scan", "ios": "https://dc.lft.to/lastmile_qr_scan"}, "name": "44cb80a19988fa37e99733d64d4e7982", "is_reserved": 0}, {"is_disabled": 0, "fusion_lon": 0.0, "fusion_lat": 0.0, "lat": 38.920275333333336, "type": "electric_scooter", "lon": -77.01287166666667, "bike_id": "1c32f2047064e7b9ebc176ec09bbeafa", "rental_uris": {"android": "https://dc.lft.to/lastmile_qr_scan", "ios": "https://dc.lft.to/lastmile_qr_scan"}, "name": "1c32f2047064e7b9ebc176ec09bbeafa", "is_reserved": 0}, {"is_disabled": 0, "fusion_lon": 0.0, "fusion_lat": 0.0, "lat": 38.89216166666667, "type": "electric_scooter", "lon": -77.022206, "bike_id": "936971c6e91d55d764a7d111deb3ae2a", "rental_uris": {"android": "https://dc.lft.to/lastmile_qr_scan", "ios": "https://dc.lft.to/lastmile_qr_scan"}, "name": "936971c6e91d55d764a7d111deb3ae2a", "is_reserved": 0}, {"is_disabled": 0, "fusion_lon": 0.0, "fusion_lat": 0.0, "lat": 38.903866666666666, "type": "electric_scooter", "lon": -77.03189016666667, "bike_id": "0ab729d0106250bbd162079debef91f9", "rental_uris": {"android": "https://dc.lft.to/lastmile_qr_scan", "ios": "https://dc.lft.to/lastmile_qr_scan"}, "name": "0ab729d0106250bbd162079debef91f9", "is_reserved": 0}, {"is_disabled": 0, "fusion_lon": 0.0, "fusion_lat": 0.0, "lat": 38.972570166666664, "type": "electric_bike", "lon": -76.99168866666666, "bike_id": "e6aa8a765fbe9ee5fed9ebd5b150859f", "rental_uris": {"android": "https://dc.lft.to/lastmile_qr_scan", "ios": "https://dc.lft.to/lastmile_qr_scan"}, "name": "e6aa8a765fbe9ee5fed9ebd5b150859f", "is_reserved": 0}, {"is_disabled": 0, "fusion_lon": 0.0, "fusion_lat": 0.0, "lat": 38.820469, "type": "electric_bike", "lon": -77.05311983333333, "bike_id": "6250366f0f0c5fe6be0e2bb09f925823", "rental_uris": {"android": "https://dc.lft.to/lastmile_qr_scan", "ios": "https://dc.lft.to/lastmile_qr_scan"}, "name": "6250366f0f0c5fe6be0e2bb09f925823", "is_reserved": 0}, {"is_disabled": 0, "fusion_lon": 0.0, "fusion_lat": 0.0, "lat": 38.90540683333333, "type": "electric_scooter", "lon": -77.00564883333334, "bike_id": "fc77783fc398bbd5f209a5e5dd239486", "rental_uris": {"android": "https://dc.lft.to/lastmile_qr_scan", "ios": "https://dc.lft.to/lastmile_qr_scan"}, "name": "fc77783fc398bbd5f209a5e5dd239486", "is_reserved": 0}, {"is_disabled": 0, "fusion_lon": 0.0, "fusion_lat": 0.0, "lat": 38.896412, "type": "electric_scooter", "lon": -77.0092045, "bike_id": "f41bdca5f7d50cdabe92bd093b5aa6f5", "rental_uris": {"android": "https://dc.lft.to/lastmile_qr_scan", "ios": "https://dc.lft.to/lastmile_qr_scan"}, "name": "f41bdca5f7d50cdabe92bd093b5aa6f5", "is_reserved": 0}, {"is_disabled": 0, "fusion_lon": 0.0, "fusion_lat": 0.0, "lat": 38.84434866666667, "type": "electric_bike", "lon": -77.0858785, "bike_id": "f6ca851c882893c4ee57365adb7258bb", "rental_uris": {"android": "https://dc.lft.to/lastmile_qr_scan", "ios": "https://dc.lft.to/lastmile_qr_scan"}, "name": "f6ca851c882893c4ee57365adb7258bb", "is_reserved": 0}, {"is_disabled": 0, "fusion_lon": 0.0, "fusion_lat": 0.0, "lat": 38.9166385, "type": "electric_scooter", "lon": -77.027079, "bike_id": "845c4edacab21ea419dc99f2bb9e9930", "rental_uris": {"android": "https://dc.lft.to/lastmile_qr_scan", "ios": "https://dc.lft.to/lastmile_qr_scan"}, "name": "845c4edacab21ea419dc99f2bb9e9930", "is_reserved": 0}, {"is_disabled": 0, "fusion_lon": 0.0, "fusion_lat": 0.0, "lat": 38.909982166666666, "type": "electric_scooter", "lon": -77.03743033333333, "bike_id": "b24517c1fc387f13314a462845e3fb34", "rental_uris": {"android": "https://dc.lft.to/lastmile_qr_scan", "ios": "https://dc.lft.to/lastmile_qr_scan"}, "name": "b24517c1fc387f13314a462845e3fb34", "is_reserved": 0}, {"is_disabled": 0, "fusion_lon": 0.0, "fusion_lat": 0.0, "lat": 38.94318833333333, "type": "electric_scooter", "lon": -77.08581483333333, "bike_id": "b6787bd2088920d6fb70f19935998f7e", "rental_uris": {"android": "https://dc.lft.to/lastmile_qr_scan", "ios": "https://dc.lft.to/lastmile_qr_scan"}, "name": "b6787bd2088920d6fb70f19935998f7e", "is_reserved": 0}, {"is_disabled": 0, "fusion_lon": 0.0, "fusion_lat": 0.0, "lat": 38.92429683333334, "type": "electric_scooter", "lon": -77.04247533333333, "bike_id": "e0807ebc3c549317a261f619daf36da6", "rental_uris": {"android": "https://dc.lft.to/lastmile_qr_scan", "ios": "https://dc.lft.to/lastmile_qr_scan"}, "name": "e0807ebc3c549317a261f619daf36da6", "is_reserved": 0}, {"is_disabled": 0, "fusion_lon": 0.0, "fusion_lat": 0.0, "lat": 38.872901666666664, "type": "electric_scooter", "lon": -77.0098825, "bike_id": "bf0fa0ee70d6900724cf1e7c3c3d1f8d", "rental_uris": {"android": "https://dc.lft.to/lastmile_qr_scan", "ios": "https://dc.lft.to/lastmile_qr_scan"}, "name": "bf0fa0ee70d6900724cf1e7c3c3d1f8d", "is_reserved": 0}, {"is_disabled": 0, "fusion_lon": 0.0, "fusion_lat": 0.0, "lat": 38.89847433333333, "type": "electric_scooter", "lon": -77.0332145, "bike_id": "5cbe00d2445737dc336d6d1aea4e5e1c", "rental_uris": {"android": "https://dc.lft.to/lastmile_qr_scan", "ios": "https://dc.lft.to/lastmile_qr_scan"}, "name": "5cbe00d2445737dc336d6d1aea4e5e1c", "is_reserved": 0}, {"is_disabled": 0, "fusion_lon": 0.0, "fusion_lat": 0.0, "lat": 38.89270666666667, "type": "electric_scooter", "lon": -76.93726533333333, "bike_id": "9a4f1bd40e7aa7a53b67293dcdf13655", "rental_uris": {"android": "https://dc.lft.to/lastmile_qr_scan", "ios": "https://dc.lft.to/lastmile_qr_scan"}, "name": "9a4f1bd40e7aa7a53b67293dcdf13655", "is_reserved": 0}, {"is_disabled": 0, "fusion_lon": 0.0, "fusion_lat": 0.0, "lat": 38.895609, "type": "electric_scooter", "lon": -77.00895433333334, "bike_id": "3fb8195cedd7cf287113cb0e8deb8ce9", "rental_uris": {"android": "https://dc.lft.to/lastmile_qr_scan", "ios": "https://dc.lft.to/lastmile_qr_scan"}, "name": "3fb8195cedd7cf287113cb0e8deb8ce9", "is_reserved": 0}, {"is_disabled": 0, "fusion_lon": 0.0, "fusion_lat": 0.0, "lat": 38.91084633333333, "type": "electric_scooter", "lon": -77.0239, "bike_id": "7d83023c5e3d5f8060f8f8b7c3f8da36", "rental_uris": {"android": "https://dc.lft.to/lastmile_qr_scan", "ios": "https://dc.lft.to/lastmile_qr_scan"}, "name": "7d83023c5e3d5f8060f8f8b7c3f8da36", "is_reserved": 0}, {"is_disabled": 0, "fusion_lon": 0.0, "fusion_lat": 0.0, "lat": 39.060652, "type": "electric_bike", "lon": -77.064679, "bike_id": "5fdfe8a903535b33a9826845188611e5", "rental_uris": {"android": "https://dc.lft.to/lastmile_qr_scan", "ios": "https://dc.lft.to/lastmile_qr_scan"}, "name": "5fdfe8a903535b33a9826845188611e5", "is_reserved": 0}, {"is_disabled": 0, "fusion_lon": 0.0, "fusion_lat": 0.0, "lat": 38.83809766666667, "type": "electric_scooter", "lon": -77.00432566666667, "bike_id": "bd493de690505b8d9e99bb1ff57f1b7e", "rental_uris": {"android": "https://dc.lft.to/lastmile_qr_scan", "ios": "https://dc.lft.to/lastmile_qr_scan"}, "name": "bd493de690505b8d9e99bb1ff57f1b7e", "is_reserved": 0}, {"is_disabled": 0, "fusion_lon": 0.0, "fusion_lat": 0.0, "lat": 38.9326985, "type": "electric_scooter", "lon": -77.034791, "bike_id": "1d6fec1349abd7b0817a7478ce2acb8c", "rental_uris": {"android": "https://dc.lft.to/lastmile_qr_scan", "ios": "https://dc.lft.to/lastmile_qr_scan"}, "name": "1d6fec1349abd7b0817a7478ce2acb8c", "is_reserved": 0}, {"is_disabled": 0, "fusion_lon": 0.0, "fusion_lat": 0.0, "lat": 38.90026683333333, "type": "electric_scooter", "lon": -77.00207983333334, "bike_id": "6b5444f5bf452f68e6356266f1b00e89", "rental_uris": {"android": "https://dc.lft.to/lastmile_qr_scan", "ios": "https://dc.lft.to/lastmile_qr_scan"}, "name": "6b5444f5bf452f68e6356266f1b00e89", "is_reserved": 0}, {"is_disabled": 0, "fusion_lon": 0.0, "fusion_lat": 0.0, "lat": 38.918585, "type": "electric_bike", "lon": -76.96089, "bike_id": "9b0f7dfd41bd3c89b68f81030b70b34f", "rental_uris": {"android": "https://dc.lft.to/lastmile_qr_scan", "ios": "https://dc.lft.to/lastmile_qr_scan"}, "name": "9b0f7dfd41bd3c89b68f81030b70b34f", "is_reserved": 0}, {"is_disabled": 0, "fusion_lon": 0.0, "fusion_lat": 0.0, "lat": 38.9041775, "type": "electric_scooter", "lon": -76.98550183333333, "bike_id": "88cde6889d7667829e52bb05ad6d084a", "rental_uris": {"android": "https://dc.lft.to/lastmile_qr_scan", "ios": "https://dc.lft.to/lastmile_qr_scan"}, "name": "88cde6889d7667829e52bb05ad6d084a", "is_reserved": 0}, {"is_disabled": 0, "fusion_lon": 0.0, "fusion_lat": 0.0, "lat": 38.879197, "type": "electric_scooter", "lon": -77.00532233333334, "bike_id": "a1c17ade567c98c19ce07fa51170282b", "rental_uris": {"android": "https://dc.lft.to/lastmile_qr_scan", "ios": "https://dc.lft.to/lastmile_qr_scan"}, "name": "a1c17ade567c98c19ce07fa51170282b", "is_reserved": 0}, {"is_disabled": 0, "fusion_lon": 0.0, "fusion_lat": 0.0, "lat": 38.93355566666666, "type": "electric_scooter", "lon": -77.0237175, "bike_id": "4b0938b9f3fbeb7cd0ed76436ac1deb0", "rental_uris": {"android": "https://dc.lft.to/lastmile_qr_scan", "ios": "https://dc.lft.to/lastmile_qr_scan"}, "name": "4b0938b9f3fbeb7cd0ed76436ac1deb0", "is_reserved": 0}, {"is_disabled": 0, "fusion_lon": 0.0, "fusion_lat": 0.0, "lat": 38.8874715, "type": "electric_scooter", "lon": -77.02167083333333, "bike_id": "4270e7adc68a6bc856f2af6b57e10eb0", "rental_uris": {"android": "https://dc.lft.to/lastmile_qr_scan", "ios": "https://dc.lft.to/lastmile_qr_scan"}, "name": "4270e7adc68a6bc856f2af6b57e10eb0", "is_reserved": 0}, {"is_disabled": 0, "fusion_lon": 0.0, "fusion_lat": 0.0, "lat": 38.9148975, "type": "electric_scooter", "lon": -76.98373883333333, "bike_id": "e8cbb26b6908d2a53938cc81715146e6", "rental_uris": {"android": "https://dc.lft.to/lastmile_qr_scan", "ios": "https://dc.lft.to/lastmile_qr_scan"}, "name": "e8cbb26b6908d2a53938cc81715146e6", "is_reserved": 0}, {"is_disabled": 0, "fusion_lon": 0.0, "fusion_lat": 0.0, "lat": 38.93122266666666, "type": "electric_scooter", "lon": -77.0226175, "bike_id": "2b287f4c3be3922b79f751517eac09f9", "rental_uris": {"android": "https://dc.lft.to/lastmile_qr_scan", "ios": "https://dc.lft.to/lastmile_qr_scan"}, "name": "2b287f4c3be3922b79f751517eac09f9", "is_reserved": 0}, {"is_disabled": 0, "fusion_lon": 0.0, "fusion_lat": 0.0, "lat": 38.93592016666667, "type": "electric_scooter", "lon": -77.03744833333333, "bike_id": "4c09ebfc967580398ee7733925ea4160", "rental_uris": {"android": "https://dc.lft.to/lastmile_qr_scan", "ios": "https://dc.lft.to/lastmile_qr_scan"}, "name": "4c09ebfc967580398ee7733925ea4160", "is_reserved": 0}, {"is_disabled": 0, "fusion_lon": 0.0, "fusion_lat": 0.0, "lat": 38.8580745, "type": "electric_scooter", "lon": -76.986567, "bike_id": "c0f760aade1b7baf4149429696f8a591", "rental_uris": {"android": "https://dc.lft.to/lastmile_qr_scan", "ios": "https://dc.lft.to/lastmile_qr_scan"}, "name": "c0f760aade1b7baf4149429696f8a591", "is_reserved": 0}, {"is_disabled": 0, "fusion_lon": 0.0, "fusion_lat": 0.0, "lat": 38.90733433333333, "type": "electric_scooter", "lon": -77.03449733333333, "bike_id": "37f5f87683685d3fdd5b843b4b9a6489", "rental_uris": {"android": "https://dc.lft.to/lastmile_qr_scan", "ios": "https://dc.lft.to/lastmile_qr_scan"}, "name": "37f5f87683685d3fdd5b843b4b9a6489", "is_reserved": 0}, {"is_disabled": 0, "fusion_lon": 0.0, "fusion_lat": 0.0, "lat": 38.900129666666665, "type": "electric_scooter", "lon": -77.04658516666667, "bike_id": "6853875544a09b5ff27f74b1b1fabe83", "rental_uris": {"android": "https://dc.lft.to/lastmile_qr_scan", "ios": "https://dc.lft.to/lastmile_qr_scan"}, "name": "6853875544a09b5ff27f74b1b1fabe83", "is_reserved": 0}, {"is_disabled": 0, "fusion_lon": 0.0, "fusion_lat": 0.0, "lat": 38.96757133333333, "type": "electric_bike", "lon": -77.09160216666666, "bike_id": "5ba4e5c198e3e9b9ead6996234cae10a", "rental_uris": {"android": "https://dc.lft.to/lastmile_qr_scan", "ios": "https://dc.lft.to/lastmile_qr_scan"}, "name": "5ba4e5c198e3e9b9ead6996234cae10a", "is_reserved": 0}, {"is_disabled": 0, "fusion_lon": 0.0, "fusion_lat": 0.0, "lat": 38.93087716666667, "type": "electric_scooter", "lon": -77.037605, "bike_id": "6e5f0620f45d6ff31dd04f5b03261acf", "rental_uris": {"android": "https://dc.lft.to/lastmile_qr_scan", "ios": "https://dc.lft.to/lastmile_qr_scan"}, "name": "6e5f0620f45d6ff31dd04f5b03261acf", "is_reserved": 0}, {"is_disabled": 0, "fusion_lon": 0.0, "fusion_lat": 0.0, "lat": 38.83604, "type": "electric_scooter", "lon": -77.00364666666667, "bike_id": "b76715c15c8d297b2c2039732b1b8c84", "rental_uris": {"android": "https://dc.lft.to/lastmile_qr_scan", "ios": "https://dc.lft.to/lastmile_qr_scan"}, "name": "b76715c15c8d297b2c2039732b1b8c84", "is_reserved": 0}, {"is_disabled": 0, "fusion_lon": 0.0, "fusion_lat": 0.0, "lat": 38.8632605, "type": "electric_scooter", "lon": -76.990346, "bike_id": "5703cd1a433856fa1c7fea12e29867fa", "rental_uris": {"android": "https://dc.lft.to/lastmile_qr_scan", "ios": "https://dc.lft.to/lastmile_qr_scan"}, "name": "5703cd1a433856fa1c7fea12e29867fa", "is_reserved": 0}, {"is_disabled": 0, "fusion_lon": 0.0, "fusion_lat": 0.0, "lat": 38.85786, "type": "electric_bike", "lon": -77.099651, "bike_id": "dbb0cb6a4ca4ac4cad9a9593506b70be", "rental_uris": {"android": "https://dc.lft.to/lastmile_qr_scan", "ios": "https://dc.lft.to/lastmile_qr_scan"}, "name": "dbb0cb6a4ca4ac4cad9a9593506b70be", "is_reserved": 0}, {"is_disabled": 0, "fusion_lon": 0.0, "fusion_lat": 0.0, "lat": 38.8922285, "type": "electric_scooter", "lon": -77.04789966666667, "bike_id": "375a9e284dba3f25723c687da22d2c2d", "rental_uris": {"android": "https://dc.lft.to/lastmile_qr_scan", "ios": "https://dc.lft.to/lastmile_qr_scan"}, "name": "375a9e284dba3f25723c687da22d2c2d", "is_reserved": 0}, {"is_disabled": 0, "fusion_lon": 0.0, "fusion_lat": 0.0, "lat": 38.928426, "type": "electric_scooter", "lon": -77.01408216666667, "bike_id": "b609847ca0c41ff13015191e8eea51a4", "rental_uris": {"android": "https://dc.lft.to/lastmile_qr_scan", "ios": "https://dc.lft.to/lastmile_qr_scan"}, "name": "b609847ca0c41ff13015191e8eea51a4", "is_reserved": 0}, {"is_disabled": 0, "fusion_lon": 0.0, "fusion_lat": 0.0, "lat": 38.91620316666667, "type": "electric_scooter", "lon": -77.0338845, "bike_id": "8dda8052e95d141f16f84a9d5aefa321", "rental_uris": {"android": "https://dc.lft.to/lastmile_qr_scan", "ios": "https://dc.lft.to/lastmile_qr_scan"}, "name": "8dda8052e95d141f16f84a9d5aefa321", "is_reserved": 0}, {"is_disabled": 0, "fusion_lon": 0.0, "fusion_lat": 0.0, "lat": 38.962166333333336, "type": "electric_scooter", "lon": -77.028056, "bike_id": "6a890f2d9ba03a24a661ef54cc9c1904", "rental_uris": {"android": "https://dc.lft.to/lastmile_qr_scan", "ios": "https://dc.lft.to/lastmile_qr_scan"}, "name": "6a890f2d9ba03a24a661ef54cc9c1904", "is_reserved": 0}, {"is_disabled": 0, "fusion_lon": 0.0, "fusion_lat": 0.0, "lat": 38.91244116666667, "type": "electric_scooter", "lon": -77.0223475, "bike_id": "c1213272ccdf33de4d1ef656e2b1b4da", "rental_uris": {"android": "https://dc.lft.to/lastmile_qr_scan", "ios": "https://dc.lft.to/lastmile_qr_scan"}, "name": "c1213272ccdf33de4d1ef656e2b1b4da", "is_reserved": 0}, {"is_disabled": 0, "fusion_lon": 0.0, "fusion_lat": 0.0, "lat": 38.84619633333333, "type": "electric_scooter", "lon": -76.99629916666666, "bike_id": "e12914897dbacbd63ffe22559e9c63ab", "rental_uris": {"android": "https://dc.lft.to/lastmile_qr_scan", "ios": "https://dc.lft.to/lastmile_qr_scan"}, "name": "e12914897dbacbd63ffe22559e9c63ab", "is_reserved": 0}, {"is_disabled": 0, "fusion_lon": 0.0, "fusion_lat": 0.0, "lat": 38.922524, "type": "electric_scooter", "lon": -77.0429975, "bike_id": "a813b0590cd4057632c855d15ffa3b39", "rental_uris": {"android": "https://dc.lft.to/lastmile_qr_scan", "ios": "https://dc.lft.to/lastmile_qr_scan"}, "name": "a813b0590cd4057632c855d15ffa3b39", "is_reserved": 0}, {"is_disabled": 0, "fusion_lon": 0.0, "fusion_lat": 0.0, "lat": 38.865209666666665, "type": "electric_scooter", "lon": -76.98972216666667, "bike_id": "9cf03943116f86ecaf71b3f6fc106c04", "rental_uris": {"android": "https://dc.lft.to/lastmile_qr_scan", "ios": "https://dc.lft.to/lastmile_qr_scan"}, "name": "9cf03943116f86ecaf71b3f6fc106c04", "is_reserved": 0}, {"is_disabled": 0, "fusion_lon": 0.0, "fusion_lat": 0.0, "lat": 38.912713833333335, "type": "electric_scooter", "lon": -77.02238933333334, "bike_id": "9e9071044f1625343d0b131da93b7190", "rental_uris": {"android": "https://dc.lft.to/lastmile_qr_scan", "ios": "https://dc.lft.to/lastmile_qr_scan"}, "name": "9e9071044f1625343d0b131da93b7190", "is_reserved": 0}, {"is_disabled": 0, "fusion_lon": 0.0, "fusion_lat": 0.0, "lat": 38.90331366666667, "type": "electric_scooter", "lon": -76.98012883333334, "bike_id": "10504f79675d9fd253df50cab5423259", "rental_uris": {"android": "https://dc.lft.to/lastmile_qr_scan", "ios": "https://dc.lft.to/lastmile_qr_scan"}, "name": "10504f79675d9fd253df50cab5423259", "is_reserved": 0}, {"is_disabled": 0, "fusion_lon": 0.0, "fusion_lat": 0.0, "lat": 38.90538016666667, "type": "electric_scooter", "lon": -77.05052166666667, "bike_id": "1eda0ff7dfbd45693d57aaba2cb1a6dd", "rental_uris": {"android": "https://dc.lft.to/lastmile_qr_scan", "ios": "https://dc.lft.to/lastmile_qr_scan"}, "name": "1eda0ff7dfbd45693d57aaba2cb1a6dd", "is_reserved": 0}, {"is_disabled": 0, "fusion_lon": 0.0, "fusion_lat": 0.0, "lat": 38.896063, "type": "electric_scooter", "lon": -77.029615, "bike_id": "cccf395f88cc17be6ecc9e5edcc13924", "rental_uris": {"android": "https://dc.lft.to/lastmile_qr_scan", "ios": "https://dc.lft.to/lastmile_qr_scan"}, "name": "cccf395f88cc17be6ecc9e5edcc13924", "is_reserved": 0}, {"is_disabled": 0, "fusion_lon": 0.0, "fusion_lat": 0.0, "lat": 38.9167115, "type": "electric_scooter", "lon": -77.02955016666667, "bike_id": "dd4b03fef48e1f728fb2d708fc0dcda8", "rental_uris": {"android": "https://dc.lft.to/lastmile_qr_scan", "ios": "https://dc.lft.to/lastmile_qr_scan"}, "name": "dd4b03fef48e1f728fb2d708fc0dcda8", "is_reserved": 0}, {"is_disabled": 0, "fusion_lon": 0.0, "fusion_lat": 0.0, "lat": 38.92374783333333, "type": "electric_scooter", "lon": -77.03025783333334, "bike_id": "6b2d6207f4a711b80fcf581482e5fba3", "rental_uris": {"android": "https://dc.lft.to/lastmile_qr_scan", "ios": "https://dc.lft.to/lastmile_qr_scan"}, "name": "6b2d6207f4a711b80fcf581482e5fba3", "is_reserved": 0}, {"is_disabled": 0, "fusion_lon": 0.0, "fusion_lat": 0.0, "lat": 38.9228385, "type": "electric_scooter", "lon": -77.0366235, "bike_id": "70b37ee6349ed2a1cc0c2cac96e3f994", "rental_uris": {"android": "https://dc.lft.to/lastmile_qr_scan", "ios": "https://dc.lft.to/lastmile_qr_scan"}, "name": "70b37ee6349ed2a1cc0c2cac96e3f994", "is_reserved": 0}, {"is_disabled": 0, "fusion_lon": 0.0, "fusion_lat": 0.0, "lat": 38.911505, "type": "electric_scooter", "lon": -77.087928, "bike_id": "79208ea56d2e2b1c666eb9f1ccb96d1b", "rental_uris": {"android": "https://dc.lft.to/lastmile_qr_scan", "ios": "https://dc.lft.to/lastmile_qr_scan"}, "name": "79208ea56d2e2b1c666eb9f1ccb96d1b", "is_reserved": 0}, {"is_disabled": 0, "fusion_lon": 0.0, "fusion_lat": 0.0, "lat": 38.917283833333336, "type": "electric_scooter", "lon": -77.03207866666666, "bike_id": "f6278f4ea1a4597b8be8205a004162bd", "rental_uris": {"android": "https://dc.lft.to/lastmile_qr_scan", "ios": "https://dc.lft.to/lastmile_qr_scan"}, "name": "f6278f4ea1a4597b8be8205a004162bd", "is_reserved": 0}, {"is_disabled": 0, "fusion_lon": 0.0, "fusion_lat": 0.0, "lat": 38.910785833333335, "type": "electric_scooter", "lon": -77.0214745, "bike_id": "9a6302ad50c831abe0c3db88aa182adc", "rental_uris": {"android": "https://dc.lft.to/lastmile_qr_scan", "ios": "https://dc.lft.to/lastmile_qr_scan"}, "name": "9a6302ad50c831abe0c3db88aa182adc", "is_reserved": 0}, {"is_disabled": 0, "fusion_lon": 0.0, "fusion_lat": 0.0, "lat": 38.90455983333333, "type": "electric_scooter", "lon": -77.027045, "bike_id": "aa5f8c294363e936617bd7c159dc53e6", "rental_uris": {"android": "https://dc.lft.to/lastmile_qr_scan", "ios": "https://dc.lft.to/lastmile_qr_scan"}, "name": "aa5f8c294363e936617bd7c159dc53e6", "is_reserved": 0}, {"is_disabled": 0, "fusion_lon": 0.0, "fusion_lat": 0.0, "lat": 38.93309683333333, "type": "electric_scooter", "lon": -77.08187116666667, "bike_id": "cda4f09f31aec4dec2cad243b1aefaac", "rental_uris": {"android": "https://dc.lft.to/lastmile_qr_scan", "ios": "https://dc.lft.to/lastmile_qr_scan"}, "name": "cda4f09f31aec4dec2cad243b1aefaac", "is_reserved": 0}, {"is_disabled": 0, "fusion_lon": 0.0, "fusion_lat": 0.0, "lat": 38.96268766666667, "type": "electric_scooter", "lon": -77.03350083333333, "bike_id": "d72acedf9120aa3be835b867db86df34", "rental_uris": {"android": "https://dc.lft.to/lastmile_qr_scan", "ios": "https://dc.lft.to/lastmile_qr_scan"}, "name": "d72acedf9120aa3be835b867db86df34", "is_reserved": 0}, {"is_disabled": 0, "fusion_lon": 0.0, "fusion_lat": 0.0, "lat": 38.904492166666664, "type": "electric_scooter", "lon": -77.02895033333333, "bike_id": "730610af3dee69ce0e51a99fa399f7e4", "rental_uris": {"android": "https://dc.lft.to/lastmile_qr_scan", "ios": "https://dc.lft.to/lastmile_qr_scan"}, "name": "730610af3dee69ce0e51a99fa399f7e4", "is_reserved": 0}, {"is_disabled": 0, "fusion_lon": 0.0, "fusion_lat": 0.0, "lat": 38.96644416666667, "type": "electric_bike", "lon": -76.93023733333334, "bike_id": "13a89ed1af0190cd7b64b4f03c723175", "rental_uris": {"android": "https://dc.lft.to/lastmile_qr_scan", "ios": "https://dc.lft.to/lastmile_qr_scan"}, "name": "13a89ed1af0190cd7b64b4f03c723175", "is_reserved": 0}, {"is_disabled": 0, "fusion_lon": 0.0, "fusion_lat": 0.0, "lat": 38.85800416666667, "type": "electric_bike", "lon": -76.98755216666666, "bike_id": "0f7497e3fd37e39923f34d80e5e58d58", "rental_uris": {"android": "https://dc.lft.to/lastmile_qr_scan", "ios": "https://dc.lft.to/lastmile_qr_scan"}, "name": "0f7497e3fd37e39923f34d80e5e58d58", "is_reserved": 0}, {"is_disabled": 0, "fusion_lon": 0.0, "fusion_lat": 0.0, "lat": 38.90408683333333, "type": "electric_scooter", "lon": -77.04339616666667, "bike_id": "bd3e1fff44807f31a285c827981de1a2", "rental_uris": {"android": "https://dc.lft.to/lastmile_qr_scan", "ios": "https://dc.lft.to/lastmile_qr_scan"}, "name": "bd3e1fff44807f31a285c827981de1a2", "is_reserved": 0}, {"is_disabled": 0, "fusion_lon": 0.0, "fusion_lat": 0.0, "lat": 38.90555616666666, "type": "electric_scooter", "lon": -77.005724, "bike_id": "64350e81c0e58536b895d045c6991dce", "rental_uris": {"android": "https://dc.lft.to/lastmile_qr_scan", "ios": "https://dc.lft.to/lastmile_qr_scan"}, "name": "64350e81c0e58536b895d045c6991dce", "is_reserved": 0}, {"is_disabled": 0, "fusion_lon": 0.0, "fusion_lat": 0.0, "lat": 38.89352, "type": "electric_scooter", "lon": -77.022162, "bike_id": "f214d666137cef35131ef273bda6a0e4", "rental_uris": {"android": "https://dc.lft.to/lastmile_qr_scan", "ios": "https://dc.lft.to/lastmile_qr_scan"}, "name": "f214d666137cef35131ef273bda6a0e4", "is_reserved": 0}, {"is_disabled": 0, "fusion_lon": 0.0, "fusion_lat": 0.0, "lat": 38.919453, "type": "electric_scooter", "lon": -77.01392916666667, "bike_id": "c32f9d0e59bd2c51018a73f8aa0a1469", "rental_uris": {"android": "https://dc.lft.to/lastmile_qr_scan", "ios": "https://dc.lft.to/lastmile_qr_scan"}, "name": "c32f9d0e59bd2c51018a73f8aa0a1469", "is_reserved": 0}, {"is_disabled": 0, "fusion_lon": 0.0, "fusion_lat": 0.0, "lat": 38.879790666666665, "type": "electric_bike", "lon": -76.91597733333333, "bike_id": "cfa55723c489f3b5057a4047fe796fd8", "rental_uris": {"android": "https://dc.lft.to/lastmile_qr_scan", "ios": "https://dc.lft.to/lastmile_qr_scan"}, "name": "cfa55723c489f3b5057a4047fe796fd8", "is_reserved": 0}, {"is_disabled": 0, "fusion_lon": 0.0, "fusion_lat": 0.0, "lat": 38.919222500000004, "type": "electric_scooter", "lon": -77.03168066666667, "bike_id": "f9ccbc8f6259d6791ce7d7d1997decb6", "rental_uris": {"android": "https://dc.lft.to/lastmile_qr_scan", "ios": "https://dc.lft.to/lastmile_qr_scan"}, "name": "f9ccbc8f6259d6791ce7d7d1997decb6", "is_reserved": 0}, {"is_disabled": 0, "fusion_lon": 0.0, "fusion_lat": 0.0, "lat": 38.94489183333334, "type": "electric_bike", "lon": -76.98657766666666, "bike_id": "9d01ffbf8eb3c77baf8ac2395310b081", "rental_uris": {"android": "https://dc.lft.to/lastmile_qr_scan", "ios": "https://dc.lft.to/lastmile_qr_scan"}, "name": "9d01ffbf8eb3c77baf8ac2395310b081", "is_reserved": 0}, {"is_disabled": 0, "fusion_lon": 0.0, "fusion_lat": 0.0, "lat": 38.92282, "type": "electric_scooter", "lon": -77.07292883333334, "bike_id": "9efae5888694f6b28773848b01046867", "rental_uris": {"android": "https://dc.lft.to/lastmile_qr_scan", "ios": "https://dc.lft.to/lastmile_qr_scan"}, "name": "9efae5888694f6b28773848b01046867", "is_reserved": 0}, {"is_disabled": 0, "fusion_lon": 0.0, "fusion_lat": 0.0, "lat": 38.914728833333335, "type": "electric_scooter", "lon": -77.02178683333334, "bike_id": "ecd2d3fff63d31b78fd330bdb74aa159", "rental_uris": {"android": "https://dc.lft.to/lastmile_qr_scan", "ios": "https://dc.lft.to/lastmile_qr_scan"}, "name": "ecd2d3fff63d31b78fd330bdb74aa159", "is_reserved": 0}, {"is_disabled": 0, "fusion_lon": 0.0, "fusion_lat": 0.0, "lat": 38.9233245, "type": "electric_scooter", "lon": -77.04179216666667, "bike_id": "03867ec04eb4764935fdb3b0151c30b9", "rental_uris": {"android": "https://dc.lft.to/lastmile_qr_scan", "ios": "https://dc.lft.to/lastmile_qr_scan"}, "name": "03867ec04eb4764935fdb3b0151c30b9", "is_reserved": 0}, {"is_disabled": 0, "fusion_lon": 0.0, "fusion_lat": 0.0, "lat": 38.916879333333334, "type": "electric_scooter", "lon": -77.05639916666667, "bike_id": "2fdacca4be14493d74e98a876d43e0e0", "rental_uris": {"android": "https://dc.lft.to/lastmile_qr_scan", "ios": "https://dc.lft.to/lastmile_qr_scan"}, "name": "2fdacca4be14493d74e98a876d43e0e0", "is_reserved": 0}, {"is_disabled": 0, "fusion_lon": 0.0, "fusion_lat": 0.0, "lat": 38.91873833333333, "type": "electric_scooter", "lon": -77.04307816666666, "bike_id": "b9880ec80a45f34478aa256e59966901", "rental_uris": {"android": "https://dc.lft.to/lastmile_qr_scan", "ios": "https://dc.lft.to/lastmile_qr_scan"}, "name": "b9880ec80a45f34478aa256e59966901", "is_reserved": 0}, {"is_disabled": 0, "fusion_lon": 0.0, "fusion_lat": 0.0, "lat": 38.89012433333333, "type": "electric_scooter", "lon": -76.93738116666667, "bike_id": "6af505f56034d52fdef185ef1d715918", "rental_uris": {"android": "https://dc.lft.to/lastmile_qr_scan", "ios": "https://dc.lft.to/lastmile_qr_scan"}, "name": "6af505f56034d52fdef185ef1d715918", "is_reserved": 0}, {"is_disabled": 0, "fusion_lon": 0.0, "fusion_lat": 0.0, "lat": 38.92691966666667, "type": "electric_bike", "lon": -77.06120566666667, "bike_id": "baa6a208170ff859777aacd80e3a69d3", "rental_uris": {"android": "https://dc.lft.to/lastmile_qr_scan", "ios": "https://dc.lft.to/lastmile_qr_scan"}, "name": "baa6a208170ff859777aacd80e3a69d3", "is_reserved": 0}, {"is_disabled": 0, "fusion_lon": 0.0, "fusion_lat": 0.0, "lat": 38.874690666666666, "type": "electric_scooter", "lon": -77.01590166666666, "bike_id": "19201d6cffb90190565677f78dd26afe", "rental_uris": {"android": "https://dc.lft.to/lastmile_qr_scan", "ios": "https://dc.lft.to/lastmile_qr_scan"}, "name": "19201d6cffb90190565677f78dd26afe", "is_reserved": 0}, {"is_disabled": 0, "fusion_lon": 0.0, "fusion_lat": 0.0, "lat": 38.924152, "type": "electric_bike", "lon": -77.05042866666666, "bike_id": "6e84a1ca35ad173bed1d47e3ee36f3d7", "rental_uris": {"android": "https://dc.lft.to/lastmile_qr_scan", "ios": "https://dc.lft.to/lastmile_qr_scan"}, "name": "6e84a1ca35ad173bed1d47e3ee36f3d7", "is_reserved": 0}, {"is_disabled": 0, "fusion_lon": 0.0, "fusion_lat": 0.0, "lat": 38.901335333333336, "type": "electric_scooter", "lon": -77.03162133333333, "bike_id": "d696ddc1923de5bbb691f1633ec9e063", "rental_uris": {"android": "https://dc.lft.to/lastmile_qr_scan", "ios": "https://dc.lft.to/lastmile_qr_scan"}, "name": "d696ddc1923de5bbb691f1633ec9e063", "is_reserved": 0}, {"is_disabled": 0, "fusion_lon": 0.0, "fusion_lat": 0.0, "lat": 38.923004166666665, "type": "electric_scooter", "lon": -77.04144616666666, "bike_id": "45d27453e50a7e6df90f31e4da6617da", "rental_uris": {"android": "https://dc.lft.to/lastmile_qr_scan", "ios": "https://dc.lft.to/lastmile_qr_scan"}, "name": "45d27453e50a7e6df90f31e4da6617da", "is_reserved": 0}, {"is_disabled": 0, "fusion_lon": 0.0, "fusion_lat": 0.0, "lat": 38.895307, "type": "electric_scooter", "lon": -77.03350933333333, "bike_id": "d76e2775e7ae381c11f0a40b233aec72", "rental_uris": {"android": "https://dc.lft.to/lastmile_qr_scan", "ios": "https://dc.lft.to/lastmile_qr_scan"}, "name": "d76e2775e7ae381c11f0a40b233aec72", "is_reserved": 0}, {"is_disabled": 0, "fusion_lon": 0.0, "fusion_lat": 0.0, "lat": 38.916229666666666, "type": "electric_scooter", "lon": -77.03174683333333, "bike_id": "55bd59fb97e94d1f6f512051ff1f585d", "rental_uris": {"android": "https://dc.lft.to/lastmile_qr_scan", "ios": "https://dc.lft.to/lastmile_qr_scan"}, "name": "55bd59fb97e94d1f6f512051ff1f585d", "is_reserved": 0}, {"is_disabled": 0, "fusion_lon": 0.0, "fusion_lat": 0.0, "lat": 38.94792666666667, "type": "electric_scooter", "lon": -77.0328285, "bike_id": "b88154f952bd60a7c8662c232d432b28", "rental_uris": {"android": "https://dc.lft.to/lastmile_qr_scan", "ios": "https://dc.lft.to/lastmile_qr_scan"}, "name": "b88154f952bd60a7c8662c232d432b28", "is_reserved": 0}, {"is_disabled": 0, "fusion_lon": 0.0, "fusion_lat": 0.0, "lat": 38.91106, "type": "electric_scooter", "lon": -77.05041566666667, "bike_id": "98929f82b73b1de5d5203d1df5dd4aac", "rental_uris": {"android": "https://dc.lft.to/lastmile_qr_scan", "ios": "https://dc.lft.to/lastmile_qr_scan"}, "name": "98929f82b73b1de5d5203d1df5dd4aac", "is_reserved": 0}, {"is_disabled": 0, "fusion_lon": 0.0, "fusion_lat": 0.0, "lat": 38.91703616666667, "type": "electric_scooter", "lon": -77.02794016666667, "bike_id": "66c2337988074df5c9552d6bbf4522bd", "rental_uris": {"android": "https://dc.lft.to/lastmile_qr_scan", "ios": "https://dc.lft.to/lastmile_qr_scan"}, "name": "66c2337988074df5c9552d6bbf4522bd", "is_reserved": 0}, {"is_disabled": 0, "fusion_lon": 0.0, "fusion_lat": 0.0, "lat": 39.04111616666667, "type": "electric_bike", "lon": -76.98905766666667, "bike_id": "7b9d6a618851ee295f038d4d18c89813", "rental_uris": {"android": "https://dc.lft.to/lastmile_qr_scan", "ios": "https://dc.lft.to/lastmile_qr_scan"}, "name": "7b9d6a618851ee295f038d4d18c89813", "is_reserved": 0}, {"is_disabled": 0, "fusion_lon": 0.0, "fusion_lat": 0.0, "lat": 38.90737816666667, "type": "electric_scooter", "lon": -77.02180416666667, "bike_id": "2ec9cb304e42d13ba5bb15f54031036f", "rental_uris": {"android": "https://dc.lft.to/lastmile_qr_scan", "ios": "https://dc.lft.to/lastmile_qr_scan"}, "name": "2ec9cb304e42d13ba5bb15f54031036f", "is_reserved": 0}, {"is_disabled": 0, "fusion_lon": 0.0, "fusion_lat": 0.0, "lat": 38.91136766666666, "type": "electric_bike", "lon": -76.98812216666667, "bike_id": "6325b81499ac8c4c5c0f9687916cad23", "rental_uris": {"android": "https://dc.lft.to/lastmile_qr_scan", "ios": "https://dc.lft.to/lastmile_qr_scan"}, "name": "6325b81499ac8c4c5c0f9687916cad23", "is_reserved": 0}, {"is_disabled": 0, "fusion_lon": 0.0, "fusion_lat": 0.0, "lat": 38.9237165, "type": "electric_scooter", "lon": -77.05031316666667, "bike_id": "4b47f5ae9335f21f67bdec12f385c4f8", "rental_uris": {"android": "https://dc.lft.to/lastmile_qr_scan", "ios": "https://dc.lft.to/lastmile_qr_scan"}, "name": "4b47f5ae9335f21f67bdec12f385c4f8", "is_reserved": 0}, {"is_disabled": 0, "fusion_lon": 0.0, "fusion_lat": 0.0, "lat": 38.900140666666665, "type": "electric_scooter", "lon": -77.04398766666667, "bike_id": "c72191364d5c65b9c3785e58a73e48d4", "rental_uris": {"android": "https://dc.lft.to/lastmile_qr_scan", "ios": "https://dc.lft.to/lastmile_qr_scan"}, "name": "c72191364d5c65b9c3785e58a73e48d4", "is_reserved": 0}, {"is_disabled": 0, "fusion_lon": 0.0, "fusion_lat": 0.0, "lat": 38.905710166666665, "type": "electric_scooter", "lon": -77.06606266666667, "bike_id": "e5c9e73f30428aafc548e60742f06650", "rental_uris": {"android": "https://dc.lft.to/lastmile_qr_scan", "ios": "https://dc.lft.to/lastmile_qr_scan"}, "name": "e5c9e73f30428aafc548e60742f06650", "is_reserved": 0}, {"is_disabled": 0, "fusion_lon": 0.0, "fusion_lat": 0.0, "lat": 38.9027955, "type": "electric_scooter", "lon": -76.97401033333334, "bike_id": "b9f4f6e39bedad8fbd6d6bf5852372e0", "rental_uris": {"android": "https://dc.lft.to/lastmile_qr_scan", "ios": "https://dc.lft.to/lastmile_qr_scan"}, "name": "b9f4f6e39bedad8fbd6d6bf5852372e0", "is_reserved": 0}, {"is_disabled": 0, "fusion_lon": 0.0, "fusion_lat": 0.0, "lat": 38.914862666666664, "type": "electric_scooter", "lon": -77.0331575, "bike_id": "17009c4df4d5546fc906e9ef7ae96f49", "rental_uris": {"android": "https://dc.lft.to/lastmile_qr_scan", "ios": "https://dc.lft.to/lastmile_qr_scan"}, "name": "17009c4df4d5546fc906e9ef7ae96f49", "is_reserved": 0}, {"is_disabled": 0, "fusion_lon": 0.0, "fusion_lat": 0.0, "lat": 38.90774433333333, "type": "electric_scooter", "lon": -77.03471833333333, "bike_id": "e25b857d040a8ff753dd03897b24a8fe", "rental_uris": {"android": "https://dc.lft.to/lastmile_qr_scan", "ios": "https://dc.lft.to/lastmile_qr_scan"}, "name": "e25b857d040a8ff753dd03897b24a8fe", "is_reserved": 0}, {"is_disabled": 0, "fusion_lon": 0.0, "fusion_lat": 0.0, "lat": 38.87852066666667, "type": "electric_scooter", "lon": -77.00747933333334, "bike_id": "1a7f66899ce7d2a8422d74678d065713", "rental_uris": {"android": "https://dc.lft.to/lastmile_qr_scan", "ios": "https://dc.lft.to/lastmile_qr_scan"}, "name": "1a7f66899ce7d2a8422d74678d065713", "is_reserved": 0}, {"is_disabled": 0, "fusion_lon": 0.0, "fusion_lat": 0.0, "lat": 38.90153333333333, "type": "electric_scooter", "lon": -77.05910516666667, "bike_id": "2590bf3b87d23446a1475a118eae745a", "rental_uris": {"android": "https://dc.lft.to/lastmile_qr_scan", "ios": "https://dc.lft.to/lastmile_qr_scan"}, "name": "2590bf3b87d23446a1475a118eae745a", "is_reserved": 0}, {"is_disabled": 0, "fusion_lon": 0.0, "fusion_lat": 0.0, "lat": 38.90551333333333, "type": "electric_scooter", "lon": -77.04651433333333, "bike_id": "e782355d9ba4e1c7ff5cbb7a385f1f03", "rental_uris": {"android": "https://dc.lft.to/lastmile_qr_scan", "ios": "https://dc.lft.to/lastmile_qr_scan"}, "name": "e782355d9ba4e1c7ff5cbb7a385f1f03", "is_reserved": 0}, {"is_disabled": 0, "fusion_lon": 0.0, "fusion_lat": 0.0, "lat": 38.92169483333333, "type": "electric_scooter", "lon": -77.05528633333333, "bike_id": "0227749d34641e33b650d3a32e86b1ce", "rental_uris": {"android": "https://dc.lft.to/lastmile_qr_scan", "ios": "https://dc.lft.to/lastmile_qr_scan"}, "name": "0227749d34641e33b650d3a32e86b1ce", "is_reserved": 0}, {"is_disabled": 0, "fusion_lon": 0.0, "fusion_lat": 0.0, "lat": 38.916197833333335, "type": "electric_scooter", "lon": -77.0255685, "bike_id": "def0cbb38b7d169ee81f25841a58e790", "rental_uris": {"android": "https://dc.lft.to/lastmile_qr_scan", "ios": "https://dc.lft.to/lastmile_qr_scan"}, "name": "def0cbb38b7d169ee81f25841a58e790", "is_reserved": 0}, {"is_disabled": 0, "fusion_lon": 0.0, "fusion_lat": 0.0, "lat": 38.91757666666667, "type": "electric_scooter", "lon": -77.00497766666666, "bike_id": "ed0feb08da6c95877b02dd68716e84f3", "rental_uris": {"android": "https://dc.lft.to/lastmile_qr_scan", "ios": "https://dc.lft.to/lastmile_qr_scan"}, "name": "ed0feb08da6c95877b02dd68716e84f3", "is_reserved": 0}, {"is_disabled": 0, "fusion_lon": 0.0, "fusion_lat": 0.0, "lat": 38.916294, "type": "electric_scooter", "lon": -77.031918, "bike_id": "4afd5f0c730545fde995de8d7cadc493", "rental_uris": {"android": "https://dc.lft.to/lastmile_qr_scan", "ios": "https://dc.lft.to/lastmile_qr_scan"}, "name": "4afd5f0c730545fde995de8d7cadc493", "is_reserved": 0}, {"is_disabled": 0, "fusion_lon": 0.0, "fusion_lat": 0.0, "lat": 38.89350233333333, "type": "electric_scooter", "lon": -76.94944433333333, "bike_id": "a2b690e98cfe019c01e9434266d51b3c", "rental_uris": {"android": "https://dc.lft.to/lastmile_qr_scan", "ios": "https://dc.lft.to/lastmile_qr_scan"}, "name": "a2b690e98cfe019c01e9434266d51b3c", "is_reserved": 0}, {"is_disabled": 0, "fusion_lon": 0.0, "fusion_lat": 0.0, "lat": 38.9354945, "type": "electric_scooter", "lon": -77.02859016666666, "bike_id": "49bef5b925a76bde79d2c5105e304974", "rental_uris": {"android": "https://dc.lft.to/lastmile_qr_scan", "ios": "https://dc.lft.to/lastmile_qr_scan"}, "name": "49bef5b925a76bde79d2c5105e304974", "is_reserved": 0}, {"is_disabled": 0, "fusion_lon": 0.0, "fusion_lat": 0.0, "lat": 38.94926133333333, "type": "electric_scooter", "lon": -77.01856866666667, "bike_id": "6cb13b001dbc84910a16bc9b6662e46a", "rental_uris": {"android": "https://dc.lft.to/lastmile_qr_scan", "ios": "https://dc.lft.to/lastmile_qr_scan"}, "name": "6cb13b001dbc84910a16bc9b6662e46a", "is_reserved": 0}, {"is_disabled": 0, "fusion_lon": 0.0, "fusion_lat": 0.0, "lat": 38.92126966666667, "type": "electric_scooter", "lon": -77.0442065, "bike_id": "b7d24171b4273c7e87349735b6eaf3e9", "rental_uris": {"android": "https://dc.lft.to/lastmile_qr_scan", "ios": "https://dc.lft.to/lastmile_qr_scan"}, "name": "b7d24171b4273c7e87349735b6eaf3e9", "is_reserved": 0}, {"is_disabled": 0, "fusion_lon": 0.0, "fusion_lat": 0.0, "lat": 38.920903333333335, "type": "electric_scooter", "lon": -77.02596866666667, "bike_id": "5cec04eac0964bc11c47a7800ff81af3", "rental_uris": {"android": "https://dc.lft.to/lastmile_qr_scan", "ios": "https://dc.lft.to/lastmile_qr_scan"}, "name": "5cec04eac0964bc11c47a7800ff81af3", "is_reserved": 0}, {"is_disabled": 0, "fusion_lon": 0.0, "fusion_lat": 0.0, "lat": 38.923392166666666, "type": "electric_scooter", "lon": -77.05050816666666, "bike_id": "758e16fcfa3cfa5950d22240660ded4f", "rental_uris": {"android": "https://dc.lft.to/lastmile_qr_scan", "ios": "https://dc.lft.to/lastmile_qr_scan"}, "name": "758e16fcfa3cfa5950d22240660ded4f", "is_reserved": 0}, {"is_disabled": 0, "fusion_lon": 0.0, "fusion_lat": 0.0, "lat": 38.9095675, "type": "electric_scooter", "lon": -77.024986, "bike_id": "46b29f37e10b0b1ed30af410a55e115a", "rental_uris": {"android": "https://dc.lft.to/lastmile_qr_scan", "ios": "https://dc.lft.to/lastmile_qr_scan"}, "name": "46b29f37e10b0b1ed30af410a55e115a", "is_reserved": 0}, {"is_disabled": 0, "fusion_lon": 0.0, "fusion_lat": 0.0, "lat": 38.88738633333333, "type": "electric_scooter", "lon": -76.97888366666666, "bike_id": "514ba66e5aaf8dbfb33b9a19d0dde4ec", "rental_uris": {"android": "https://dc.lft.to/lastmile_qr_scan", "ios": "https://dc.lft.to/lastmile_qr_scan"}, "name": "514ba66e5aaf8dbfb33b9a19d0dde4ec", "is_reserved": 0}, {"is_disabled": 0, "fusion_lon": 0.0, "fusion_lat": 0.0, "lat": 38.9266545, "type": "electric_scooter", "lon": -77.043274, "bike_id": "6e9959debd918491e9b558b9d2e42c07", "rental_uris": {"android": "https://dc.lft.to/lastmile_qr_scan", "ios": "https://dc.lft.to/lastmile_qr_scan"}, "name": "6e9959debd918491e9b558b9d2e42c07", "is_reserved": 0}, {"is_disabled": 0, "fusion_lon": 0.0, "fusion_lat": 0.0, "lat": 38.9056275, "type": "electric_scooter", "lon": -77.01891416666666, "bike_id": "a0e7ba131ceef312a488c912e3904a46", "rental_uris": {"android": "https://dc.lft.to/lastmile_qr_scan", "ios": "https://dc.lft.to/lastmile_qr_scan"}, "name": "a0e7ba131ceef312a488c912e3904a46", "is_reserved": 0}, {"is_disabled": 0, "fusion_lon": 0.0, "fusion_lat": 0.0, "lat": 38.91567, "type": "electric_scooter", "lon": -77.03086983333333, "bike_id": "63bb087a16e2c5be71bf1f949bda6f6a", "rental_uris": {"android": "https://dc.lft.to/lastmile_qr_scan", "ios": "https://dc.lft.to/lastmile_qr_scan"}, "name": "63bb087a16e2c5be71bf1f949bda6f6a", "is_reserved": 0}, {"is_disabled": 0, "fusion_lon": 0.0, "fusion_lat": 0.0, "lat": 38.89016683333333, "type": "electric_scooter", "lon": -76.9373685, "bike_id": "2460d4ba61a14508b2f5247e9c54b355", "rental_uris": {"android": "https://dc.lft.to/lastmile_qr_scan", "ios": "https://dc.lft.to/lastmile_qr_scan"}, "name": "2460d4ba61a14508b2f5247e9c54b355", "is_reserved": 0}, {"is_disabled": 0, "fusion_lon": 0.0, "fusion_lat": 0.0, "lat": 38.844326, "type": "electric_scooter", "lon": -76.9978395, "bike_id": "5eaa7fbc5c1dde3f9a72bdc369e660b2", "rental_uris": {"android": "https://dc.lft.to/lastmile_qr_scan", "ios": "https://dc.lft.to/lastmile_qr_scan"}, "name": "5eaa7fbc5c1dde3f9a72bdc369e660b2", "is_reserved": 0}, {"is_disabled": 0, "fusion_lon": 0.0, "fusion_lat": 0.0, "lat": 38.92971566666667, "type": "electric_scooter", "lon": -77.0318215, "bike_id": "06907e034d2dc543416c6a8447e8ae69", "rental_uris": {"android": "https://dc.lft.to/lastmile_qr_scan", "ios": "https://dc.lft.to/lastmile_qr_scan"}, "name": "06907e034d2dc543416c6a8447e8ae69", "is_reserved": 0}, {"is_disabled": 0, "fusion_lon": 0.0, "fusion_lat": 0.0, "lat": 38.9453855, "type": "electric_scooter", "lon": -77.02533766666667, "bike_id": "1c3cea7e9346cc4d7d1532bfec365de1", "rental_uris": {"android": "https://dc.lft.to/lastmile_qr_scan", "ios": "https://dc.lft.to/lastmile_qr_scan"}, "name": "1c3cea7e9346cc4d7d1532bfec365de1", "is_reserved": 0}, {"is_disabled": 0, "fusion_lon": 0.0, "fusion_lat": 0.0, "lat": 38.935868166666666, "type": "electric_scooter", "lon": -77.0374085, "bike_id": "1e8e2e7815522a3a2d2debaa39502ce7", "rental_uris": {"android": "https://dc.lft.to/lastmile_qr_scan", "ios": "https://dc.lft.to/lastmile_qr_scan"}, "name": "1e8e2e7815522a3a2d2debaa39502ce7", "is_reserved": 0}, {"is_disabled": 0, "fusion_lon": 0.0, "fusion_lat": 0.0, "lat": 38.89774233333333, "type": "electric_scooter", "lon": -77.02481066666667, "bike_id": "8c72f77a04bbd624b4a2af5470792a24", "rental_uris": {"android": "https://dc.lft.to/lastmile_qr_scan", "ios": "https://dc.lft.to/lastmile_qr_scan"}, "name": "8c72f77a04bbd624b4a2af5470792a24", "is_reserved": 0}, {"is_disabled": 0, "fusion_lon": 0.0, "fusion_lat": 0.0, "lat": 38.902954, "type": "electric_scooter", "lon": -77.03621966666667, "bike_id": "3831e6fe325b1f42e915259d10dc3fca", "rental_uris": {"android": "https://dc.lft.to/lastmile_qr_scan", "ios": "https://dc.lft.to/lastmile_qr_scan"}, "name": "3831e6fe325b1f42e915259d10dc3fca", "is_reserved": 0}, {"is_disabled": 0, "fusion_lon": 0.0, "fusion_lat": 0.0, "lat": 38.92532466666667, "type": "electric_scooter", "lon": -77.073138, "bike_id": "38949cf401846241d92516d0db723ea1", "rental_uris": {"android": "https://dc.lft.to/lastmile_qr_scan", "ios": "https://dc.lft.to/lastmile_qr_scan"}, "name": "38949cf401846241d92516d0db723ea1", "is_reserved": 0}, {"is_disabled": 0, "fusion_lon": 0.0, "fusion_lat": 0.0, "lat": 38.86698583333333, "type": "electric_scooter", "lon": -76.9871705, "bike_id": "e484e604cadf46b6850bb5630aa897a0", "rental_uris": {"android": "https://dc.lft.to/lastmile_qr_scan", "ios": "https://dc.lft.to/lastmile_qr_scan"}, "name": "e484e604cadf46b6850bb5630aa897a0", "is_reserved": 0}, {"is_disabled": 0, "fusion_lon": 0.0, "fusion_lat": 0.0, "lat": 38.90501916666667, "type": "electric_scooter", "lon": -77.04320416666667, "bike_id": "2683ea72ba4e196eb738dd2d9d49832d", "rental_uris": {"android": "https://dc.lft.to/lastmile_qr_scan", "ios": "https://dc.lft.to/lastmile_qr_scan"}, "name": "2683ea72ba4e196eb738dd2d9d49832d", "is_reserved": 0}, {"is_disabled": 0, "fusion_lon": 0.0, "fusion_lat": 0.0, "lat": 38.94440066666667, "type": "electric_scooter", "lon": -77.06390066666667, "bike_id": "b8c80b55ec9eb02281646c756e063470", "rental_uris": {"android": "https://dc.lft.to/lastmile_qr_scan", "ios": "https://dc.lft.to/lastmile_qr_scan"}, "name": "b8c80b55ec9eb02281646c756e063470", "is_reserved": 0}, {"is_disabled": 0, "fusion_lon": 0.0, "fusion_lat": 0.0, "lat": 38.92895083333333, "type": "electric_scooter", "lon": -77.03171233333333, "bike_id": "88531aa8ea9fa83a612c71e4eb064c2a", "rental_uris": {"android": "https://dc.lft.to/lastmile_qr_scan", "ios": "https://dc.lft.to/lastmile_qr_scan"}, "name": "88531aa8ea9fa83a612c71e4eb064c2a", "is_reserved": 0}, {"is_disabled": 0, "fusion_lon": 0.0, "fusion_lat": 0.0, "lat": 38.89444916666667, "type": "electric_scooter", "lon": -77.021534, "bike_id": "8ed16bf7ceb8c6f80417d285a31c5c04", "rental_uris": {"android": "https://dc.lft.to/lastmile_qr_scan", "ios": "https://dc.lft.to/lastmile_qr_scan"}, "name": "8ed16bf7ceb8c6f80417d285a31c5c04", "is_reserved": 0}, {"is_disabled": 0, "fusion_lon": 0.0, "fusion_lat": 0.0, "lat": 38.9118635, "type": "electric_scooter", "lon": -77.04155133333333, "bike_id": "4b6498542b98f60ff5ada62daa05aff4", "rental_uris": {"android": "https://dc.lft.to/lastmile_qr_scan", "ios": "https://dc.lft.to/lastmile_qr_scan"}, "name": "4b6498542b98f60ff5ada62daa05aff4", "is_reserved": 0}, {"is_disabled": 0, "fusion_lon": 0.0, "fusion_lat": 0.0, "lat": 38.863346, "type": "electric_bike", "lon": -76.9871175, "bike_id": "6e85fdc17ab3a32ec4622ef2f4250a67", "rental_uris": {"android": "https://dc.lft.to/lastmile_qr_scan", "ios": "https://dc.lft.to/lastmile_qr_scan"}, "name": "6e85fdc17ab3a32ec4622ef2f4250a67", "is_reserved": 0}, {"is_disabled": 0, "fusion_lon": 0.0, "fusion_lat": 0.0, "lat": 38.917705833333336, "type": "electric_scooter", "lon": -77.04059366666667, "bike_id": "7af079f12fc6a2f72e6a6dd29b72d83c", "rental_uris": {"android": "https://dc.lft.to/lastmile_qr_scan", "ios": "https://dc.lft.to/lastmile_qr_scan"}, "name": "7af079f12fc6a2f72e6a6dd29b72d83c", "is_reserved": 0}, {"is_disabled": 0, "fusion_lon": 0.0, "fusion_lat": 0.0, "lat": 38.912113, "type": "electric_scooter", "lon": -77.02098916666667, "bike_id": "44bb07126292c574abb9ae9e69c323f2", "rental_uris": {"android": "https://dc.lft.to/lastmile_qr_scan", "ios": "https://dc.lft.to/lastmile_qr_scan"}, "name": "44bb07126292c574abb9ae9e69c323f2", "is_reserved": 0}, {"is_disabled": 0, "fusion_lon": 0.0, "fusion_lat": 0.0, "lat": 38.91930883333333, "type": "electric_scooter", "lon": -77.02594966666666, "bike_id": "188a8e225ca8e38e51d47e0ee9c55042", "rental_uris": {"android": "https://dc.lft.to/lastmile_qr_scan", "ios": "https://dc.lft.to/lastmile_qr_scan"}, "name": "188a8e225ca8e38e51d47e0ee9c55042", "is_reserved": 0}, {"is_disabled": 0, "fusion_lon": 0.0, "fusion_lat": 0.0, "lat": 38.92458366666666, "type": "electric_scooter", "lon": -77.05233883333334, "bike_id": "e731e95d5467677a2743aa7049cdca4e", "rental_uris": {"android": "https://dc.lft.to/lastmile_qr_scan", "ios": "https://dc.lft.to/lastmile_qr_scan"}, "name": "e731e95d5467677a2743aa7049cdca4e", "is_reserved": 0}, {"is_disabled": 0, "fusion_lon": 0.0, "fusion_lat": 0.0, "lat": 38.928220833333334, "type": "electric_scooter", "lon": -77.05436416666667, "bike_id": "7d77e4fbdf7d3381bb7f4a427348a47a", "rental_uris": {"android": "https://dc.lft.to/lastmile_qr_scan", "ios": "https://dc.lft.to/lastmile_qr_scan"}, "name": "7d77e4fbdf7d3381bb7f4a427348a47a", "is_reserved": 0}, {"is_disabled": 0, "fusion_lon": 0.0, "fusion_lat": 0.0, "lat": 38.9135795, "type": "electric_scooter", "lon": -77.04655116666666, "bike_id": "4160e9c96490177796cd67e4b8d7f418", "rental_uris": {"android": "https://dc.lft.to/lastmile_qr_scan", "ios": "https://dc.lft.to/lastmile_qr_scan"}, "name": "4160e9c96490177796cd67e4b8d7f418", "is_reserved": 0}, {"is_disabled": 0, "fusion_lon": 0.0, "fusion_lat": 0.0, "lat": 38.936428, "type": "electric_scooter", "lon": -77.02088216666667, "bike_id": "ae54aa32d8c1ce0d436e904651f0fce5", "rental_uris": {"android": "https://dc.lft.to/lastmile_qr_scan", "ios": "https://dc.lft.to/lastmile_qr_scan"}, "name": "ae54aa32d8c1ce0d436e904651f0fce5", "is_reserved": 0}, {"is_disabled": 0, "fusion_lon": 0.0, "fusion_lat": 0.0, "lat": 38.89218433333333, "type": "electric_scooter", "lon": -77.02223033333334, "bike_id": "2408cacab0ba54e449b97bf55a757062", "rental_uris": {"android": "https://dc.lft.to/lastmile_qr_scan", "ios": "https://dc.lft.to/lastmile_qr_scan"}, "name": "2408cacab0ba54e449b97bf55a757062", "is_reserved": 0}, {"is_disabled": 0, "fusion_lon": 0.0, "fusion_lat": 0.0, "lat": 38.88999333333334, "type": "electric_scooter", "lon": -77.04899783333333, "bike_id": "fb4a59f668ec4d5ad5e26575dc373d14", "rental_uris": {"android": "https://dc.lft.to/lastmile_qr_scan", "ios": "https://dc.lft.to/lastmile_qr_scan"}, "name": "fb4a59f668ec4d5ad5e26575dc373d14", "is_reserved": 0}, {"is_disabled": 0, "fusion_lon": 0.0, "fusion_lat": 0.0, "lat": 38.898518333333335, "type": "electric_scooter", "lon": -77.03214983333334, "bike_id": "b80a29ee7f43c213e1667b241624eb30", "rental_uris": {"android": "https://dc.lft.to/lastmile_qr_scan", "ios": "https://dc.lft.to/lastmile_qr_scan"}, "name": "b80a29ee7f43c213e1667b241624eb30", "is_reserved": 0}, {"is_disabled": 0, "fusion_lon": 0.0, "fusion_lat": 0.0, "lat": 38.90757933333333, "type": "electric_scooter", "lon": -76.99652566666667, "bike_id": "93935a944948cdefad125740dc0684d1", "rental_uris": {"android": "https://dc.lft.to/lastmile_qr_scan", "ios": "https://dc.lft.to/lastmile_qr_scan"}, "name": "93935a944948cdefad125740dc0684d1", "is_reserved": 0}, {"is_disabled": 0, "fusion_lon": 0.0, "fusion_lat": 0.0, "lat": 38.905567166666664, "type": "electric_scooter", "lon": -77.02791, "bike_id": "825458fc49b21233827f13dd864fa61a", "rental_uris": {"android": "https://dc.lft.to/lastmile_qr_scan", "ios": "https://dc.lft.to/lastmile_qr_scan"}, "name": "825458fc49b21233827f13dd864fa61a", "is_reserved": 0}, {"is_disabled": 0, "fusion_lon": 0.0, "fusion_lat": 0.0, "lat": 38.90060116666667, "type": "electric_scooter", "lon": -76.934755, "bike_id": "ee48cb8b860a156b35bf4384c12774f0", "rental_uris": {"android": "https://dc.lft.to/lastmile_qr_scan", "ios": "https://dc.lft.to/lastmile_qr_scan"}, "name": "ee48cb8b860a156b35bf4384c12774f0", "is_reserved": 0}, {"is_disabled": 0, "fusion_lon": 0.0, "fusion_lat": 0.0, "lat": 38.906919, "type": "electric_bike", "lon": -76.95254583333333, "bike_id": "58a521765248fb67f1716f3e7586d0c3", "rental_uris": {"android": "https://dc.lft.to/lastmile_qr_scan", "ios": "https://dc.lft.to/lastmile_qr_scan"}, "name": "58a521765248fb67f1716f3e7586d0c3", "is_reserved": 0}, {"is_disabled": 0, "fusion_lon": 0.0, "fusion_lat": 0.0, "lat": 38.917054666666665, "type": "electric_scooter", "lon": -77.02490683333333, "bike_id": "8c0fbc23eebb11f9292545722b7d4455", "rental_uris": {"android": "https://dc.lft.to/lastmile_qr_scan", "ios": "https://dc.lft.to/lastmile_qr_scan"}, "name": "8c0fbc23eebb11f9292545722b7d4455", "is_reserved": 0}, {"is_disabled": 0, "fusion_lon": 0.0, "fusion_lat": 0.0, "lat": 38.913204, "type": "electric_scooter", "lon": -77.03180616666667, "bike_id": "a62540732b0fae0c895af9b6edc24146", "rental_uris": {"android": "https://dc.lft.to/lastmile_qr_scan", "ios": "https://dc.lft.to/lastmile_qr_scan"}, "name": "a62540732b0fae0c895af9b6edc24146", "is_reserved": 0}, {"is_disabled": 0, "fusion_lon": 0.0, "fusion_lat": 0.0, "lat": 39.11504216666667, "type": "electric_bike", "lon": -77.19545, "bike_id": "b7a24b2e5dfa1e1a53b16ed01c2526a3", "rental_uris": {"android": "https://dc.lft.to/lastmile_qr_scan", "ios": "https://dc.lft.to/lastmile_qr_scan"}, "name": "b7a24b2e5dfa1e1a53b16ed01c2526a3", "is_reserved": 0}, {"is_disabled": 0, "fusion_lon": 0.0, "fusion_lat": 0.0, "lat": 38.99249483333333, "type": "electric_bike", "lon": -77.04996833333334, "bike_id": "400837be79f98cd003ac318fd62a3441", "rental_uris": {"android": "https://dc.lft.to/lastmile_qr_scan", "ios": "https://dc.lft.to/lastmile_qr_scan"}, "name": "400837be79f98cd003ac318fd62a3441", "is_reserved": 0}, {"is_disabled": 0, "fusion_lon": 0.0, "fusion_lat": 0.0, "lat": 38.854736833333334, "type": "electric_bike", "lon": -76.97100833333333, "bike_id": "ee1ff563f8e8ebea6f56887aa7c76469", "rental_uris": {"android": "https://dc.lft.to/lastmile_qr_scan", "ios": "https://dc.lft.to/lastmile_qr_scan"}, "name": "ee1ff563f8e8ebea6f56887aa7c76469", "is_reserved": 0}, {"is_disabled": 0, "fusion_lon": 0.0, "fusion_lat": 0.0, "lat": 38.967187333333335, "type": "electric_scooter", "lon": -77.02733866666667, "bike_id": "c2dffa44c6791395a78c22e3007867e7", "rental_uris": {"android": "https://dc.lft.to/lastmile_qr_scan", "ios": "https://dc.lft.to/lastmile_qr_scan"}, "name": "c2dffa44c6791395a78c22e3007867e7", "is_reserved": 0}, {"is_disabled": 0, "fusion_lon": 0.0, "fusion_lat": 0.0, "lat": 38.923317833333336, "type": "electric_scooter", "lon": -77.03562466666666, "bike_id": "c2004ccdeaa01bd7d402c0fb840850f7", "rental_uris": {"android": "https://dc.lft.to/lastmile_qr_scan", "ios": "https://dc.lft.to/lastmile_qr_scan"}, "name": "c2004ccdeaa01bd7d402c0fb840850f7", "is_reserved": 0}, {"is_disabled": 0, "fusion_lon": 0.0, "fusion_lat": 0.0, "lat": 38.93048066666667, "type": "electric_scooter", "lon": -77.00417833333333, "bike_id": "8046259a29d8fa2f3c723edcec409e47", "rental_uris": {"android": "https://dc.lft.to/lastmile_qr_scan", "ios": "https://dc.lft.to/lastmile_qr_scan"}, "name": "8046259a29d8fa2f3c723edcec409e47", "is_reserved": 0}, {"is_disabled": 0, "fusion_lon": 0.0, "fusion_lat": 0.0, "lat": 38.990834, "type": "electric_bike", "lon": -77.00181316666666, "bike_id": "9eaecc76cb82608ce03be80c4ff1daeb", "rental_uris": {"android": "https://dc.lft.to/lastmile_qr_scan", "ios": "https://dc.lft.to/lastmile_qr_scan"}, "name": "9eaecc76cb82608ce03be80c4ff1daeb", "is_reserved": 0}, {"is_disabled": 0, "fusion_lon": 0.0, "fusion_lat": 0.0, "lat": 38.918050666666666, "type": "electric_scooter", "lon": -77.03632416666666, "bike_id": "30faa5ff6cd4d95389a9d6627112d4bd", "rental_uris": {"android": "https://dc.lft.to/lastmile_qr_scan", "ios": "https://dc.lft.to/lastmile_qr_scan"}, "name": "30faa5ff6cd4d95389a9d6627112d4bd", "is_reserved": 0}, {"is_disabled": 0, "fusion_lon": 0.0, "fusion_lat": 0.0, "lat": 38.943071833333335, "type": "electric_scooter", "lon": -77.023554, "bike_id": "6ed343c593df5602d8903acf7ae224aa", "rental_uris": {"android": "https://dc.lft.to/lastmile_qr_scan", "ios": "https://dc.lft.to/lastmile_qr_scan"}, "name": "6ed343c593df5602d8903acf7ae224aa", "is_reserved": 0}, {"is_disabled": 0, "fusion_lon": 0.0, "fusion_lat": 0.0, "lat": 38.83118266666666, "type": "electric_bike", "lon": -77.04325833333333, "bike_id": "ee913230b7153e5a325ecfef6b8b6400", "rental_uris": {"android": "https://dc.lft.to/lastmile_qr_scan", "ios": "https://dc.lft.to/lastmile_qr_scan"}, "name": "ee913230b7153e5a325ecfef6b8b6400", "is_reserved": 0}, {"is_disabled": 0, "fusion_lon": 0.0, "fusion_lat": 0.0, "lat": 38.8380805, "type": "electric_scooter", "lon": -77.00427466666666, "bike_id": "526d06fc0186e67468ab09c827146327", "rental_uris": {"android": "https://dc.lft.to/lastmile_qr_scan", "ios": "https://dc.lft.to/lastmile_qr_scan"}, "name": "526d06fc0186e67468ab09c827146327", "is_reserved": 0}, {"is_disabled": 0, "fusion_lon": 0.0, "fusion_lat": 0.0, "lat": 38.91538116666667, "type": "electric_scooter", "lon": -77.038512, "bike_id": "f538da4faf30d20b60533aac4d79962d", "rental_uris": {"android": "https://dc.lft.to/lastmile_qr_scan", "ios": "https://dc.lft.to/lastmile_qr_scan"}, "name": "f538da4faf30d20b60533aac4d79962d", "is_reserved": 0}, {"is_disabled": 0, "fusion_lon": 0.0, "fusion_lat": 0.0, "lat": 38.895031, "type": "electric_scooter", "lon": -76.9488095, "bike_id": "810a2afe756c739bcb74706964e1df8b", "rental_uris": {"android": "https://dc.lft.to/lastmile_qr_scan", "ios": "https://dc.lft.to/lastmile_qr_scan"}, "name": "810a2afe756c739bcb74706964e1df8b", "is_reserved": 0}, {"is_disabled": 0, "fusion_lon": 0.0, "fusion_lat": 0.0, "lat": 38.909520666666666, "type": "electric_scooter", "lon": -76.99895733333334, "bike_id": "bda533b18867525c41c0c9fd6c17280b", "rental_uris": {"android": "https://dc.lft.to/lastmile_qr_scan", "ios": "https://dc.lft.to/lastmile_qr_scan"}, "name": "bda533b18867525c41c0c9fd6c17280b", "is_reserved": 0}, {"is_disabled": 0, "fusion_lon": 0.0, "fusion_lat": 0.0, "lat": 38.941976, "type": "electric_scooter", "lon": -77.02580216666667, "bike_id": "7c1d47cea9cc9c065ff5b3c00c8934ba", "rental_uris": {"android": "https://dc.lft.to/lastmile_qr_scan", "ios": "https://dc.lft.to/lastmile_qr_scan"}, "name": "7c1d47cea9cc9c065ff5b3c00c8934ba", "is_reserved": 0}, {"is_disabled": 0, "fusion_lon": 0.0, "fusion_lat": 0.0, "lat": 38.8442845, "type": "electric_scooter", "lon": -76.99782583333334, "bike_id": "742d67f9124f8abffce6eeeac0b3da40", "rental_uris": {"android": "https://dc.lft.to/lastmile_qr_scan", "ios": "https://dc.lft.to/lastmile_qr_scan"}, "name": "742d67f9124f8abffce6eeeac0b3da40", "is_reserved": 0}, {"is_disabled": 0, "fusion_lon": 0.0, "fusion_lat": 0.0, "lat": 38.8766915, "type": "electric_scooter", "lon": -77.00291866666667, "bike_id": "661eba2be0840850fd7913c76cad6bef", "rental_uris": {"android": "https://dc.lft.to/lastmile_qr_scan", "ios": "https://dc.lft.to/lastmile_qr_scan"}, "name": "661eba2be0840850fd7913c76cad6bef", "is_reserved": 0}, {"is_disabled": 0, "fusion_lon": 0.0, "fusion_lat": 0.0, "lat": 38.95963283333333, "type": "electric_scooter", "lon": -77.021131, "bike_id": "16d745afdc45458ddd8efadcc5563dda", "rental_uris": {"android": "https://dc.lft.to/lastmile_qr_scan", "ios": "https://dc.lft.to/lastmile_qr_scan"}, "name": "16d745afdc45458ddd8efadcc5563dda", "is_reserved": 0}, {"is_disabled": 0, "fusion_lon": 0.0, "fusion_lat": 0.0, "lat": 38.90404016666667, "type": "electric_scooter", "lon": -77.054068, "bike_id": "69435141eb211e362872ce421e353bdd", "rental_uris": {"android": "https://dc.lft.to/lastmile_qr_scan", "ios": "https://dc.lft.to/lastmile_qr_scan"}, "name": "69435141eb211e362872ce421e353bdd", "is_reserved": 0}, {"is_disabled": 0, "fusion_lon": 0.0, "fusion_lat": 0.0, "lat": 38.894980833333335, "type": "electric_scooter", "lon": -77.02277666666667, "bike_id": "4a4d1e796095d100f4d6c8d538f8e4d6", "rental_uris": {"android": "https://dc.lft.to/lastmile_qr_scan", "ios": "https://dc.lft.to/lastmile_qr_scan"}, "name": "4a4d1e796095d100f4d6c8d538f8e4d6", "is_reserved": 0}, {"is_disabled": 0, "fusion_lon": 0.0, "fusion_lat": 0.0, "lat": 38.954023, "type": "electric_scooter", "lon": -77.02750383333333, "bike_id": "4c5687fa3c4f760e88bf985bd8a2a43e", "rental_uris": {"android": "https://dc.lft.to/lastmile_qr_scan", "ios": "https://dc.lft.to/lastmile_qr_scan"}, "name": "4c5687fa3c4f760e88bf985bd8a2a43e", "is_reserved": 0}, {"is_disabled": 0, "fusion_lon": 0.0, "fusion_lat": 0.0, "lat": 38.896209, "type": "electric_scooter", "lon": -77.0257785, "bike_id": "d2b8b54e76d5ebfb3c29991ccaf28506", "rental_uris": {"android": "https://dc.lft.to/lastmile_qr_scan", "ios": "https://dc.lft.to/lastmile_qr_scan"}, "name": "d2b8b54e76d5ebfb3c29991ccaf28506", "is_reserved": 0}, {"is_disabled": 0, "fusion_lon": 0.0, "fusion_lat": 0.0, "lat": 38.899111166666664, "type": "electric_scooter", "lon": -76.93395416666667, "bike_id": "b30a333991af16b515d8cccab9ed8c3f", "rental_uris": {"android": "https://dc.lft.to/lastmile_qr_scan", "ios": "https://dc.lft.to/lastmile_qr_scan"}, "name": "b30a333991af16b515d8cccab9ed8c3f", "is_reserved": 0}, {"is_disabled": 0, "fusion_lon": 0.0, "fusion_lat": 0.0, "lat": 38.86296866666667, "type": "electric_scooter", "lon": -76.982736, "bike_id": "fc0ebde206b502e51b528ab2ef03bde7", "rental_uris": {"android": "https://dc.lft.to/lastmile_qr_scan", "ios": "https://dc.lft.to/lastmile_qr_scan"}, "name": "fc0ebde206b502e51b528ab2ef03bde7", "is_reserved": 0}, {"is_disabled": 0, "fusion_lon": 0.0, "fusion_lat": 0.0, "lat": 38.84604866666667, "type": "electric_bike", "lon": -76.96876583333334, "bike_id": "d223acecf31a702bd2f14166fb2c8fd9", "rental_uris": {"android": "https://dc.lft.to/lastmile_qr_scan", "ios": "https://dc.lft.to/lastmile_qr_scan"}, "name": "d223acecf31a702bd2f14166fb2c8fd9", "is_reserved": 0}, {"is_disabled": 0, "fusion_lon": 0.0, "fusion_lat": 0.0, "lat": 38.92228333333333, "type": "electric_scooter", "lon": -77.0434475, "bike_id": "9564941ddf67eda59b5aeec8cde352f6", "rental_uris": {"android": "https://dc.lft.to/lastmile_qr_scan", "ios": "https://dc.lft.to/lastmile_qr_scan"}, "name": "9564941ddf67eda59b5aeec8cde352f6", "is_reserved": 0}, {"is_disabled": 0, "fusion_lon": 0.0, "fusion_lat": 0.0, "lat": 38.9024395, "type": "electric_bike", "lon": -76.9701695, "bike_id": "5a7500f61d2069564943a15d064fa62e", "rental_uris": {"android": "https://dc.lft.to/lastmile_qr_scan", "ios": "https://dc.lft.to/lastmile_qr_scan"}, "name": "5a7500f61d2069564943a15d064fa62e", "is_reserved": 0}, {"is_disabled": 0, "fusion_lon": 0.0, "fusion_lat": 0.0, "lat": 38.850357, "type": "electric_bike", "lon": -77.10106166666667, "bike_id": "e47d02637747590987805ce646b40d40", "rental_uris": {"android": "https://dc.lft.to/lastmile_qr_scan", "ios": "https://dc.lft.to/lastmile_qr_scan"}, "name": "e47d02637747590987805ce646b40d40", "is_reserved": 0}, {"is_disabled": 0, "fusion_lon": 0.0, "fusion_lat": 0.0, "lat": 38.91425816666667, "type": "electric_scooter", "lon": -77.02954233333334, "bike_id": "06d4985c26fae46bdaf37e250f0d5f18", "rental_uris": {"android": "https://dc.lft.to/lastmile_qr_scan", "ios": "https://dc.lft.to/lastmile_qr_scan"}, "name": "06d4985c26fae46bdaf37e250f0d5f18", "is_reserved": 0}, {"is_disabled": 0, "fusion_lon": 0.0, "fusion_lat": 0.0, "lat": 38.928591833333336, "type": "electric_scooter", "lon": -77.0342585, "bike_id": "3a44f830bb7e56f653b1a772e30d1098", "rental_uris": {"android": "https://dc.lft.to/lastmile_qr_scan", "ios": "https://dc.lft.to/lastmile_qr_scan"}, "name": "3a44f830bb7e56f653b1a772e30d1098", "is_reserved": 0}, {"is_disabled": 0, "fusion_lon": 0.0, "fusion_lat": 0.0, "lat": 38.89673366666667, "type": "electric_scooter", "lon": -76.97620916666666, "bike_id": "f063c14efcb7231402a232ac8fd0ac60", "rental_uris": {"android": "https://dc.lft.to/lastmile_qr_scan", "ios": "https://dc.lft.to/lastmile_qr_scan"}, "name": "f063c14efcb7231402a232ac8fd0ac60", "is_reserved": 0}, {"is_disabled": 0, "fusion_lon": 0.0, "fusion_lat": 0.0, "lat": 38.928303666666665, "type": "electric_scooter", "lon": -77.02153683333333, "bike_id": "446ffa65c1f93491029e0c6b3e730d46", "rental_uris": {"android": "https://dc.lft.to/lastmile_qr_scan", "ios": "https://dc.lft.to/lastmile_qr_scan"}, "name": "446ffa65c1f93491029e0c6b3e730d46", "is_reserved": 0}, {"is_disabled": 0, "fusion_lon": 0.0, "fusion_lat": 0.0, "lat": 38.914685666666664, "type": "electric_scooter", "lon": -77.02171783333333, "bike_id": "cbcec86e73283d056f306748ca784efa", "rental_uris": {"android": "https://dc.lft.to/lastmile_qr_scan", "ios": "https://dc.lft.to/lastmile_qr_scan"}, "name": "cbcec86e73283d056f306748ca784efa", "is_reserved": 0}, {"is_disabled": 0, "fusion_lon": 0.0, "fusion_lat": 0.0, "lat": 38.87620033333334, "type": "electric_scooter", "lon": -76.9653705, "bike_id": "a10eff0de01394713ac18ba80bfb14bb", "rental_uris": {"android": "https://dc.lft.to/lastmile_qr_scan", "ios": "https://dc.lft.to/lastmile_qr_scan"}, "name": "a10eff0de01394713ac18ba80bfb14bb", "is_reserved": 0}, {"is_disabled": 0, "fusion_lon": 0.0, "fusion_lat": 0.0, "lat": 38.912711, "type": "electric_scooter", "lon": -77.01134916666666, "bike_id": "462fd993440fe6d316b6c1b52585d257", "rental_uris": {"android": "https://dc.lft.to/lastmile_qr_scan", "ios": "https://dc.lft.to/lastmile_qr_scan"}, "name": "462fd993440fe6d316b6c1b52585d257", "is_reserved": 0}, {"is_disabled": 0, "fusion_lon": 0.0, "fusion_lat": 0.0, "lat": 38.917122, "type": "electric_scooter", "lon": -77.02287216666667, "bike_id": "723f5b6d1774604526843c6f4f425de8", "rental_uris": {"android": "https://dc.lft.to/lastmile_qr_scan", "ios": "https://dc.lft.to/lastmile_qr_scan"}, "name": "723f5b6d1774604526843c6f4f425de8", "is_reserved": 0}, {"is_disabled": 0, "fusion_lon": 0.0, "fusion_lat": 0.0, "lat": 38.9001475, "type": "electric_scooter", "lon": -77.05567266666667, "bike_id": "0ad0d19181793ab8200e1d4aa1c7cf89", "rental_uris": {"android": "https://dc.lft.to/lastmile_qr_scan", "ios": "https://dc.lft.to/lastmile_qr_scan"}, "name": "0ad0d19181793ab8200e1d4aa1c7cf89", "is_reserved": 0}, {"is_disabled": 0, "fusion_lon": 0.0, "fusion_lat": 0.0, "lat": 38.9049365, "type": "electric_scooter", "lon": -77.01976666666667, "bike_id": "a85b0e5eda63eeb42e18499f72240444", "rental_uris": {"android": "https://dc.lft.to/lastmile_qr_scan", "ios": "https://dc.lft.to/lastmile_qr_scan"}, "name": "a85b0e5eda63eeb42e18499f72240444", "is_reserved": 0}, {"is_disabled": 0, "fusion_lon": 0.0, "fusion_lat": 0.0, "lat": 38.970509166666666, "type": "electric_bike", "lon": -77.03086766666667, "bike_id": "c0334c09f74833ec074a150624c0c25d", "rental_uris": {"android": "https://dc.lft.to/lastmile_qr_scan", "ios": "https://dc.lft.to/lastmile_qr_scan"}, "name": "c0334c09f74833ec074a150624c0c25d", "is_reserved": 0}, {"is_disabled": 0, "fusion_lon": 0.0, "fusion_lat": 0.0, "lat": 38.9183515, "type": "electric_scooter", "lon": -77.03437383333333, "bike_id": "5980c166b63d282f13891f9f21820f16", "rental_uris": {"android": "https://dc.lft.to/lastmile_qr_scan", "ios": "https://dc.lft.to/lastmile_qr_scan"}, "name": "5980c166b63d282f13891f9f21820f16", "is_reserved": 0}, {"is_disabled": 0, "fusion_lon": 0.0, "fusion_lat": 0.0, "lat": 38.91661383333334, "type": "electric_scooter", "lon": -77.02706033333334, "bike_id": "7682fa819839ddf2e760a127a512500f", "rental_uris": {"android": "https://dc.lft.to/lastmile_qr_scan", "ios": "https://dc.lft.to/lastmile_qr_scan"}, "name": "7682fa819839ddf2e760a127a512500f", "is_reserved": 0}, {"is_disabled": 0, "fusion_lon": 0.0, "fusion_lat": 0.0, "lat": 38.916373666666665, "type": "electric_scooter", "lon": -77.0478055, "bike_id": "dad8257802998410ae0d62e2fdaf2eed", "rental_uris": {"android": "https://dc.lft.to/lastmile_qr_scan", "ios": "https://dc.lft.to/lastmile_qr_scan"}, "name": "dad8257802998410ae0d62e2fdaf2eed", "is_reserved": 0}, {"is_disabled": 0, "fusion_lon": 0.0, "fusion_lat": 0.0, "lat": 38.913048833333335, "type": "electric_scooter", "lon": -77.03191966666667, "bike_id": "691df1851ea8fd4fec7f1e7a5bf1fa71", "rental_uris": {"android": "https://dc.lft.to/lastmile_qr_scan", "ios": "https://dc.lft.to/lastmile_qr_scan"}, "name": "691df1851ea8fd4fec7f1e7a5bf1fa71", "is_reserved": 0}, {"is_disabled": 0, "fusion_lon": 0.0, "fusion_lat": 0.0, "lat": 38.906582666666665, "type": "electric_scooter", "lon": -77.0270065, "bike_id": "6afcec8cbf808c3ddee4cb0df9fac9bb", "rental_uris": {"android": "https://dc.lft.to/lastmile_qr_scan", "ios": "https://dc.lft.to/lastmile_qr_scan"}, "name": "6afcec8cbf808c3ddee4cb0df9fac9bb", "is_reserved": 0}, {"is_disabled": 0, "fusion_lon": 0.0, "fusion_lat": 0.0, "lat": 38.91036783333333, "type": "electric_scooter", "lon": -77.033778, "bike_id": "dbc7daca5981d788c426a2b1416f669d", "rental_uris": {"android": "https://dc.lft.to/lastmile_qr_scan", "ios": "https://dc.lft.to/lastmile_qr_scan"}, "name": "dbc7daca5981d788c426a2b1416f669d", "is_reserved": 0}, {"is_disabled": 0, "fusion_lon": 0.0, "fusion_lat": 0.0, "lat": 38.8244305, "type": "electric_bike", "lon": -77.07046183333334, "bike_id": "aa66e5f76d4f7ea0980a5f8a6f188bdb", "rental_uris": {"android": "https://dc.lft.to/lastmile_qr_scan", "ios": "https://dc.lft.to/lastmile_qr_scan"}, "name": "aa66e5f76d4f7ea0980a5f8a6f188bdb", "is_reserved": 0}, {"is_disabled": 0, "fusion_lon": 0.0, "fusion_lat": 0.0, "lat": 38.9001425, "type": "electric_scooter", "lon": -77.002094, "bike_id": "c1a443f66c5e8300b8d5c239dbf2a62b", "rental_uris": {"android": "https://dc.lft.to/lastmile_qr_scan", "ios": "https://dc.lft.to/lastmile_qr_scan"}, "name": "c1a443f66c5e8300b8d5c239dbf2a62b", "is_reserved": 0}, {"is_disabled": 0, "fusion_lon": 0.0, "fusion_lat": 0.0, "lat": 38.96190566666667, "type": "electric_scooter", "lon": -77.027829, "bike_id": "261ae65d84e341dc7490533b5dadb32d", "rental_uris": {"android": "https://dc.lft.to/lastmile_qr_scan", "ios": "https://dc.lft.to/lastmile_qr_scan"}, "name": "261ae65d84e341dc7490533b5dadb32d", "is_reserved": 0}, {"is_disabled": 0, "fusion_lon": 0.0, "fusion_lat": 0.0, "lat": 38.82781466666667, "type": "electric_bike", "lon": -77.1108255, "bike_id": "63fb7040bc8a8b90aee91981a9a57e33", "rental_uris": {"android": "https://dc.lft.to/lastmile_qr_scan", "ios": "https://dc.lft.to/lastmile_qr_scan"}, "name": "63fb7040bc8a8b90aee91981a9a57e33", "is_reserved": 0}, {"is_disabled": 0, "fusion_lon": 0.0, "fusion_lat": 0.0, "lat": 38.90222416666667, "type": "electric_bike", "lon": -77.048309, "bike_id": "a3677bb4f3ecfaef73dc0d3a99a8b14e", "rental_uris": {"android": "https://dc.lft.to/lastmile_qr_scan", "ios": "https://dc.lft.to/lastmile_qr_scan"}, "name": "a3677bb4f3ecfaef73dc0d3a99a8b14e", "is_reserved": 0}, {"is_disabled": 0, "fusion_lon": 0.0, "fusion_lat": 0.0, "lat": 38.939630333333334, "type": "electric_scooter", "lon": -77.0327805, "bike_id": "8cd144c04bda3a49e19cdf1a9232a93f", "rental_uris": {"android": "https://dc.lft.to/lastmile_qr_scan", "ios": "https://dc.lft.to/lastmile_qr_scan"}, "name": "8cd144c04bda3a49e19cdf1a9232a93f", "is_reserved": 0}, {"is_disabled": 0, "fusion_lon": 0.0, "fusion_lat": 0.0, "lat": 38.898339666666665, "type": "electric_scooter", "lon": -76.94634783333333, "bike_id": "22b095ed6473e115cc4fbf0d037be24a", "rental_uris": {"android": "https://dc.lft.to/lastmile_qr_scan", "ios": "https://dc.lft.to/lastmile_qr_scan"}, "name": "22b095ed6473e115cc4fbf0d037be24a", "is_reserved": 0}, {"is_disabled": 0, "fusion_lon": 0.0, "fusion_lat": 0.0, "lat": 38.8853155, "type": "electric_scooter", "lon": -76.926964, "bike_id": "48705e719e69a39437e670fae04a2ef0", "rental_uris": {"android": "https://dc.lft.to/lastmile_qr_scan", "ios": "https://dc.lft.to/lastmile_qr_scan"}, "name": "48705e719e69a39437e670fae04a2ef0", "is_reserved": 0}, {"is_disabled": 0, "fusion_lon": 0.0, "fusion_lat": 0.0, "lat": 38.86531216666667, "type": "electric_bike", "lon": -77.12827783333333, "bike_id": "c461fe7d7f6eb4a2267285de0a63e24b", "rental_uris": {"android": "https://dc.lft.to/lastmile_qr_scan", "ios": "https://dc.lft.to/lastmile_qr_scan"}, "name": "c461fe7d7f6eb4a2267285de0a63e24b", "is_reserved": 0}, {"is_disabled": 0, "fusion_lon": 0.0, "fusion_lat": 0.0, "lat": 38.93032316666667, "type": "electric_scooter", "lon": -77.03452466666667, "bike_id": "18599a40a9447b468d5d6fc24c6b916f", "rental_uris": {"android": "https://dc.lft.to/lastmile_qr_scan", "ios": "https://dc.lft.to/lastmile_qr_scan"}, "name": "18599a40a9447b468d5d6fc24c6b916f", "is_reserved": 0}, {"is_disabled": 0, "fusion_lon": 0.0, "fusion_lat": 0.0, "lat": 38.92152866666667, "type": "electric_scooter", "lon": -77.03506166666666, "bike_id": "adfe2c6874ec7b4005c32bc0dd5326f8", "rental_uris": {"android": "https://dc.lft.to/lastmile_qr_scan", "ios": "https://dc.lft.to/lastmile_qr_scan"}, "name": "adfe2c6874ec7b4005c32bc0dd5326f8", "is_reserved": 0}, {"is_disabled": 0, "fusion_lon": 0.0, "fusion_lat": 0.0, "lat": 38.99666333333333, "type": "electric_bike", "lon": -76.99144166666666, "bike_id": "41b5b58a606d64ac886afc94a16266ad", "rental_uris": {"android": "https://dc.lft.to/lastmile_qr_scan", "ios": "https://dc.lft.to/lastmile_qr_scan"}, "name": "41b5b58a606d64ac886afc94a16266ad", "is_reserved": 0}, {"is_disabled": 0, "fusion_lon": 0.0, "fusion_lat": 0.0, "lat": 38.90549083333333, "type": "electric_scooter", "lon": -77.04657516666667, "bike_id": "5665898cab28c6a04ec82fb08f1140fe", "rental_uris": {"android": "https://dc.lft.to/lastmile_qr_scan", "ios": "https://dc.lft.to/lastmile_qr_scan"}, "name": "5665898cab28c6a04ec82fb08f1140fe", "is_reserved": 0}, {"is_disabled": 0, "fusion_lon": 0.0, "fusion_lat": 0.0, "lat": 38.8773575, "type": "electric_scooter", "lon": -76.99628, "bike_id": "1f32b2ed4b0908cce4fbef425575a56e", "rental_uris": {"android": "https://dc.lft.to/lastmile_qr_scan", "ios": "https://dc.lft.to/lastmile_qr_scan"}, "name": "1f32b2ed4b0908cce4fbef425575a56e", "is_reserved": 0}, {"is_disabled": 0, "fusion_lon": 0.0, "fusion_lat": 0.0, "lat": 38.944554333333336, "type": "electric_scooter", "lon": -77.06023933333333, "bike_id": "2c41eed9efbb3a9cd4d329e438ca7731", "rental_uris": {"android": "https://dc.lft.to/lastmile_qr_scan", "ios": "https://dc.lft.to/lastmile_qr_scan"}, "name": "2c41eed9efbb3a9cd4d329e438ca7731", "is_reserved": 0}, {"is_disabled": 0, "fusion_lon": 0.0, "fusion_lat": 0.0, "lat": 38.8763115, "type": "electric_scooter", "lon": -77.00785066666667, "bike_id": "779948821753cb5f1010a5157b0b8048", "rental_uris": {"android": "https://dc.lft.to/lastmile_qr_scan", "ios": "https://dc.lft.to/lastmile_qr_scan"}, "name": "779948821753cb5f1010a5157b0b8048", "is_reserved": 0}, {"is_disabled": 0, "fusion_lon": 0.0, "fusion_lat": 0.0, "lat": 38.92619116666667, "type": "electric_scooter", "lon": -77.04193216666667, "bike_id": "f65a8b3327e61303b57d779ad72ae49f", "rental_uris": {"android": "https://dc.lft.to/lastmile_qr_scan", "ios": "https://dc.lft.to/lastmile_qr_scan"}, "name": "f65a8b3327e61303b57d779ad72ae49f", "is_reserved": 0}, {"is_disabled": 0, "fusion_lon": 0.0, "fusion_lat": 0.0, "lat": 38.895195666666666, "type": "electric_scooter", "lon": -77.028236, "bike_id": "f3eafecba13f8c71d12ce2ea589cdea0", "rental_uris": {"android": "https://dc.lft.to/lastmile_qr_scan", "ios": "https://dc.lft.to/lastmile_qr_scan"}, "name": "f3eafecba13f8c71d12ce2ea589cdea0", "is_reserved": 0}, {"is_disabled": 0, "fusion_lon": 0.0, "fusion_lat": 0.0, "lat": 38.909728333333334, "type": "electric_scooter", "lon": -77.0387085, "bike_id": "c1bb129dd09edb8165d6c7278d4e00a1", "rental_uris": {"android": "https://dc.lft.to/lastmile_qr_scan", "ios": "https://dc.lft.to/lastmile_qr_scan"}, "name": "c1bb129dd09edb8165d6c7278d4e00a1", "is_reserved": 0}, {"is_disabled": 0, "fusion_lon": 0.0, "fusion_lat": 0.0, "lat": 38.869517333333334, "type": "electric_scooter", "lon": -76.97602566666667, "bike_id": "8d570cfac74b01b230981270bb62fe6f", "rental_uris": {"android": "https://dc.lft.to/lastmile_qr_scan", "ios": "https://dc.lft.to/lastmile_qr_scan"}, "name": "8d570cfac74b01b230981270bb62fe6f", "is_reserved": 0}, {"is_disabled": 0, "fusion_lon": 0.0, "fusion_lat": 0.0, "lat": 38.93457083333333, "type": "electric_scooter", "lon": -77.072351, "bike_id": "2fc4d5c14da45035d34805804f43095c", "rental_uris": {"android": "https://dc.lft.to/lastmile_qr_scan", "ios": "https://dc.lft.to/lastmile_qr_scan"}, "name": "2fc4d5c14da45035d34805804f43095c", "is_reserved": 0}, {"is_disabled": 0, "fusion_lon": 0.0, "fusion_lat": 0.0, "lat": 38.928491, "type": "electric_scooter", "lon": -77.01402016666667, "bike_id": "17db037048e37e15576a43282d1f794d", "rental_uris": {"android": "https://dc.lft.to/lastmile_qr_scan", "ios": "https://dc.lft.to/lastmile_qr_scan"}, "name": "17db037048e37e15576a43282d1f794d", "is_reserved": 0}, {"is_disabled": 0, "fusion_lon": 0.0, "fusion_lat": 0.0, "lat": 38.8956435, "type": "electric_scooter", "lon": -77.04675683333333, "bike_id": "1cecf4cd2b939efe558f6665057ff557", "rental_uris": {"android": "https://dc.lft.to/lastmile_qr_scan", "ios": "https://dc.lft.to/lastmile_qr_scan"}, "name": "1cecf4cd2b939efe558f6665057ff557", "is_reserved": 0}, {"is_disabled": 0, "fusion_lon": 0.0, "fusion_lat": 0.0, "lat": 38.9004145, "type": "electric_scooter", "lon": -76.92271116666667, "bike_id": "45ade509cad5b8786afea4ec83ad00c2", "rental_uris": {"android": "https://dc.lft.to/lastmile_qr_scan", "ios": "https://dc.lft.to/lastmile_qr_scan"}, "name": "45ade509cad5b8786afea4ec83ad00c2", "is_reserved": 0}, {"is_disabled": 0, "fusion_lon": 0.0, "fusion_lat": 0.0, "lat": 38.89236916666667, "type": "electric_scooter", "lon": -77.02803916666667, "bike_id": "8cf567e0fad55c89bfc29d86e997d492", "rental_uris": {"android": "https://dc.lft.to/lastmile_qr_scan", "ios": "https://dc.lft.to/lastmile_qr_scan"}, "name": "8cf567e0fad55c89bfc29d86e997d492", "is_reserved": 0}, {"is_disabled": 0, "fusion_lon": 0.0, "fusion_lat": 0.0, "lat": 38.93535716666667, "type": "electric_scooter", "lon": -77.02384516666666, "bike_id": "50d3290ce283834a124e7499a75a5e0b", "rental_uris": {"android": "https://dc.lft.to/lastmile_qr_scan", "ios": "https://dc.lft.to/lastmile_qr_scan"}, "name": "50d3290ce283834a124e7499a75a5e0b", "is_reserved": 0}, {"is_disabled": 0, "fusion_lon": 0.0, "fusion_lat": 0.0, "lat": 38.917335, "type": "electric_scooter", "lon": -77.0227515, "bike_id": "12776269bbb7c9dedabe2ad226882234", "rental_uris": {"android": "https://dc.lft.to/lastmile_qr_scan", "ios": "https://dc.lft.to/lastmile_qr_scan"}, "name": "12776269bbb7c9dedabe2ad226882234", "is_reserved": 0}, {"is_disabled": 0, "fusion_lon": 0.0, "fusion_lat": 0.0, "lat": 38.93200616666667, "type": "electric_scooter", "lon": -77.03265266666666, "bike_id": "1a7ed2b8664b5fb51f8d7b31f1179cd2", "rental_uris": {"android": "https://dc.lft.to/lastmile_qr_scan", "ios": "https://dc.lft.to/lastmile_qr_scan"}, "name": "1a7ed2b8664b5fb51f8d7b31f1179cd2", "is_reserved": 0}, {"is_disabled": 0, "fusion_lon": 0.0, "fusion_lat": 0.0, "lat": 38.90969183333333, "type": "electric_scooter", "lon": -77.02168466666667, "bike_id": "73a2567a230910ee9890b0962e9242b1", "rental_uris": {"android": "https://dc.lft.to/lastmile_qr_scan", "ios": "https://dc.lft.to/lastmile_qr_scan"}, "name": "73a2567a230910ee9890b0962e9242b1", "is_reserved": 0}, {"is_disabled": 0, "fusion_lon": 0.0, "fusion_lat": 0.0, "lat": 38.88188183333333, "type": "electric_scooter", "lon": -77.00351166666667, "bike_id": "028ed7fb66c71fa608c1f71f12e6d29e", "rental_uris": {"android": "https://dc.lft.to/lastmile_qr_scan", "ios": "https://dc.lft.to/lastmile_qr_scan"}, "name": "028ed7fb66c71fa608c1f71f12e6d29e", "is_reserved": 0}, {"is_disabled": 0, "fusion_lon": 0.0, "fusion_lat": 0.0, "lat": 38.8937415, "type": "electric_scooter", "lon": -76.94998233333334, "bike_id": "8f852af1dc4281c5cf5b7788c1f7346e", "rental_uris": {"android": "https://dc.lft.to/lastmile_qr_scan", "ios": "https://dc.lft.to/lastmile_qr_scan"}, "name": "8f852af1dc4281c5cf5b7788c1f7346e", "is_reserved": 0}, {"is_disabled": 0, "fusion_lon": 0.0, "fusion_lat": 0.0, "lat": 38.902624333333335, "type": "electric_scooter", "lon": -77.045974, "bike_id": "e27168123ddbf67f0aca168263b0a0f3", "rental_uris": {"android": "https://dc.lft.to/lastmile_qr_scan", "ios": "https://dc.lft.to/lastmile_qr_scan"}, "name": "e27168123ddbf67f0aca168263b0a0f3", "is_reserved": 0}, {"is_disabled": 0, "fusion_lon": 0.0, "fusion_lat": 0.0, "lat": 38.9171255, "type": "electric_scooter", "lon": -77.02802916666667, "bike_id": "cc19e7c9e41375d752bbb82ab31c14f5", "rental_uris": {"android": "https://dc.lft.to/lastmile_qr_scan", "ios": "https://dc.lft.to/lastmile_qr_scan"}, "name": "cc19e7c9e41375d752bbb82ab31c14f5", "is_reserved": 0}, {"is_disabled": 0, "fusion_lon": 0.0, "fusion_lat": 0.0, "lat": 38.91808, "type": "electric_scooter", "lon": -77.02689183333334, "bike_id": "4f9f603b6f78be65269d2f160351f299", "rental_uris": {"android": "https://dc.lft.to/lastmile_qr_scan", "ios": "https://dc.lft.to/lastmile_qr_scan"}, "name": "4f9f603b6f78be65269d2f160351f299", "is_reserved": 0}, {"is_disabled": 0, "fusion_lon": 0.0, "fusion_lat": 0.0, "lat": 38.90708333333333, "type": "electric_scooter", "lon": -77.0244095, "bike_id": "e59d6787829ee9c968411af79c0623d2", "rental_uris": {"android": "https://dc.lft.to/lastmile_qr_scan", "ios": "https://dc.lft.to/lastmile_qr_scan"}, "name": "e59d6787829ee9c968411af79c0623d2", "is_reserved": 0}, {"is_disabled": 0, "fusion_lon": 0.0, "fusion_lat": 0.0, "lat": 38.935284, "type": "electric_scooter", "lon": -77.03695483333334, "bike_id": "d77d5785176b7fe94c4ccac0b7845468", "rental_uris": {"android": "https://dc.lft.to/lastmile_qr_scan", "ios": "https://dc.lft.to/lastmile_qr_scan"}, "name": "d77d5785176b7fe94c4ccac0b7845468", "is_reserved": 0}, {"is_disabled": 0, "fusion_lon": 0.0, "fusion_lat": 0.0, "lat": 38.932179, "type": "electric_scooter", "lon": -77.03263733333333, "bike_id": "300d6f3b603ed8cf824671fd10d64eb7", "rental_uris": {"android": "https://dc.lft.to/lastmile_qr_scan", "ios": "https://dc.lft.to/lastmile_qr_scan"}, "name": "300d6f3b603ed8cf824671fd10d64eb7", "is_reserved": 0}, {"is_disabled": 0, "fusion_lon": 0.0, "fusion_lat": 0.0, "lat": 38.94980833333334, "type": "electric_scooter", "lon": -77.02703933333333, "bike_id": "55ecc1e8f7a25c3eda4026a0f84f2500", "rental_uris": {"android": "https://dc.lft.to/lastmile_qr_scan", "ios": "https://dc.lft.to/lastmile_qr_scan"}, "name": "55ecc1e8f7a25c3eda4026a0f84f2500", "is_reserved": 0}, {"is_disabled": 0, "fusion_lon": 0.0, "fusion_lat": 0.0, "lat": 38.91868683333333, "type": "electric_scooter", "lon": -77.04484383333333, "bike_id": "49b7b1eedd4002b545833139374817c2", "rental_uris": {"android": "https://dc.lft.to/lastmile_qr_scan", "ios": "https://dc.lft.to/lastmile_qr_scan"}, "name": "49b7b1eedd4002b545833139374817c2", "is_reserved": 0}, {"is_disabled": 0, "fusion_lon": 0.0, "fusion_lat": 0.0, "lat": 38.917132333333335, "type": "electric_scooter", "lon": -77.022853, "bike_id": "57cff0a02608557d601a1585eb23b762", "rental_uris": {"android": "https://dc.lft.to/lastmile_qr_scan", "ios": "https://dc.lft.to/lastmile_qr_scan"}, "name": "57cff0a02608557d601a1585eb23b762", "is_reserved": 0}, {"is_disabled": 0, "fusion_lon": 0.0, "fusion_lat": 0.0, "lat": 38.902899833333336, "type": "electric_scooter", "lon": -77.02427883333333, "bike_id": "7c504967b6e78fe27b087f2a52661e11", "rental_uris": {"android": "https://dc.lft.to/lastmile_qr_scan", "ios": "https://dc.lft.to/lastmile_qr_scan"}, "name": "7c504967b6e78fe27b087f2a52661e11", "is_reserved": 0}, {"is_disabled": 0, "fusion_lon": 0.0, "fusion_lat": 0.0, "lat": 38.86574383333333, "type": "electric_scooter", "lon": -76.99043466666667, "bike_id": "c44eb2715e105fbf363dc9ac2d138170", "rental_uris": {"android": "https://dc.lft.to/lastmile_qr_scan", "ios": "https://dc.lft.to/lastmile_qr_scan"}, "name": "c44eb2715e105fbf363dc9ac2d138170", "is_reserved": 0}, {"is_disabled": 0, "fusion_lon": 0.0, "fusion_lat": 0.0, "lat": 38.89228266666667, "type": "electric_scooter", "lon": -77.022082, "bike_id": "a77c911def4320c32ff080da844539cc", "rental_uris": {"android": "https://dc.lft.to/lastmile_qr_scan", "ios": "https://dc.lft.to/lastmile_qr_scan"}, "name": "a77c911def4320c32ff080da844539cc", "is_reserved": 0}, {"is_disabled": 0, "fusion_lon": 0.0, "fusion_lat": 0.0, "lat": 38.901017, "type": "electric_scooter", "lon": -77.017412, "bike_id": "7498748b77b3b0bc6cdf96e4f203eb97", "rental_uris": {"android": "https://dc.lft.to/lastmile_qr_scan", "ios": "https://dc.lft.to/lastmile_qr_scan"}, "name": "7498748b77b3b0bc6cdf96e4f203eb97", "is_reserved": 0}, {"is_disabled": 0, "fusion_lon": 0.0, "fusion_lat": 0.0, "lat": 38.896505833333336, "type": "electric_bike", "lon": -77.03185283333333, "bike_id": "46c7e0d96d61a0e91f166cbb88f49f12", "rental_uris": {"android": "https://dc.lft.to/lastmile_qr_scan", "ios": "https://dc.lft.to/lastmile_qr_scan"}, "name": "46c7e0d96d61a0e91f166cbb88f49f12", "is_reserved": 0}, {"is_disabled": 0, "fusion_lon": 0.0, "fusion_lat": 0.0, "lat": 38.920744166666665, "type": "electric_scooter", "lon": -77.01798766666667, "bike_id": "4bd9af29d6350a4b5735daf77a5193d0", "rental_uris": {"android": "https://dc.lft.to/lastmile_qr_scan", "ios": "https://dc.lft.to/lastmile_qr_scan"}, "name": "4bd9af29d6350a4b5735daf77a5193d0", "is_reserved": 0}, {"is_disabled": 0, "fusion_lon": 0.0, "fusion_lat": 0.0, "lat": 38.8956045, "type": "electric_bike", "lon": -76.97618266666667, "bike_id": "90bc861394420ff31c5cd4b1b191841c", "rental_uris": {"android": "https://dc.lft.to/lastmile_qr_scan", "ios": "https://dc.lft.to/lastmile_qr_scan"}, "name": "90bc861394420ff31c5cd4b1b191841c", "is_reserved": 0}, {"is_disabled": 0, "fusion_lon": 0.0, "fusion_lat": 0.0, "lat": 38.897067666666665, "type": "electric_scooter", "lon": -77.03346716666667, "bike_id": "548a688cff63d6ae2e2c40a179eaff74", "rental_uris": {"android": "https://dc.lft.to/lastmile_qr_scan", "ios": "https://dc.lft.to/lastmile_qr_scan"}, "name": "548a688cff63d6ae2e2c40a179eaff74", "is_reserved": 0}, {"is_disabled": 0, "fusion_lon": 0.0, "fusion_lat": 0.0, "lat": 38.901235666666665, "type": "electric_scooter", "lon": -77.04347716666666, "bike_id": "8e01b152297e87608bf41294252d933b", "rental_uris": {"android": "https://dc.lft.to/lastmile_qr_scan", "ios": "https://dc.lft.to/lastmile_qr_scan"}, "name": "8e01b152297e87608bf41294252d933b", "is_reserved": 0}, {"is_disabled": 0, "fusion_lon": 0.0, "fusion_lat": 0.0, "lat": 38.89877633333333, "type": "electric_scooter", "lon": -76.93163166666666, "bike_id": "36f0a854aa527925ab54eb9ff530551c", "rental_uris": {"android": "https://dc.lft.to/lastmile_qr_scan", "ios": "https://dc.lft.to/lastmile_qr_scan"}, "name": "36f0a854aa527925ab54eb9ff530551c", "is_reserved": 0}, {"is_disabled": 0, "fusion_lon": 0.0, "fusion_lat": 0.0, "lat": 38.907719666666665, "type": "electric_scooter", "lon": -77.03484933333333, "bike_id": "cd97b566af69120bb34d8985ecbfdd8e", "rental_uris": {"android": "https://dc.lft.to/lastmile_qr_scan", "ios": "https://dc.lft.to/lastmile_qr_scan"}, "name": "cd97b566af69120bb34d8985ecbfdd8e", "is_reserved": 0}, {"is_disabled": 0, "fusion_lon": 0.0, "fusion_lat": 0.0, "lat": 38.898482333333334, "type": "electric_scooter", "lon": -76.99033933333334, "bike_id": "8127fcc34c7cd823dfc85a7505709dc0", "rental_uris": {"android": "https://dc.lft.to/lastmile_qr_scan", "ios": "https://dc.lft.to/lastmile_qr_scan"}, "name": "8127fcc34c7cd823dfc85a7505709dc0", "is_reserved": 0}, {"is_disabled": 0, "fusion_lon": 0.0, "fusion_lat": 0.0, "lat": 38.89756783333333, "type": "electric_scooter", "lon": -77.02184966666667, "bike_id": "deab6fff07e266c9ba786dd80193da83", "rental_uris": {"android": "https://dc.lft.to/lastmile_qr_scan", "ios": "https://dc.lft.to/lastmile_qr_scan"}, "name": "deab6fff07e266c9ba786dd80193da83", "is_reserved": 0}, {"is_disabled": 0, "fusion_lon": 0.0, "fusion_lat": 0.0, "lat": 38.926935666666665, "type": "electric_scooter", "lon": -77.00617166666666, "bike_id": "0c2ca94958347b1ec23d8252ea78eb94", "rental_uris": {"android": "https://dc.lft.to/lastmile_qr_scan", "ios": "https://dc.lft.to/lastmile_qr_scan"}, "name": "0c2ca94958347b1ec23d8252ea78eb94", "is_reserved": 0}, {"is_disabled": 0, "fusion_lon": 0.0, "fusion_lat": 0.0, "lat": 38.88265166666667, "type": "electric_scooter", "lon": -76.98546366666666, "bike_id": "20a256e3781e39ee6cf94fe941b87ed7", "rental_uris": {"android": "https://dc.lft.to/lastmile_qr_scan", "ios": "https://dc.lft.to/lastmile_qr_scan"}, "name": "20a256e3781e39ee6cf94fe941b87ed7", "is_reserved": 0},