{"data": {"bikes": [{"rental_uris": {"android": "https://dc.lft.to/lastmile_qr_scan", "ios": "https://dc.lft.to/lastmile_qr_scan"}, "is_reserved": 0, "is_disabled": 0, "name": "d3250b17342516c5c2a2bbe1d3f104f5", "bike_id": "d3250b17342516c5c2a2bbe1d3f104f5", "fusion_lat": 0.0, "lon": -77.05987583333334, "type": "electric_scooter", "fusion_lon": 0.0, "lat": 38.93825566666667}, {"rental_uris": {"android": "https://dc.lft.to/lastmile_qr_scan", "ios": "https://dc.lft.to/lastmile_qr_scan"}, "is_reserved": 0, "is_disabled": 0, "name": "e5eeeb676c7c8546c0837b07e8ebda4b", "bike_id": "e5eeeb676c7c8546c0837b07e8ebda4b", "fusion_lat": 0.0, "lon": -77.0181185, "type": "electric_scooter", "fusion_lon": 0.0, "lat": 38.95228866666667}, {"rental_uris": {"android": "https://dc.lft.to/lastmile_qr_scan", "ios": "https://dc.lft.to/lastmile_qr_scan"}, "is_reserved": 0, "is_disabled": 0, "name": "b7986331f8bc2f9a7f9a280f4d2a5ada", "bike_id": "b7986331f8bc2f9a7f9a280f4d2a5ada", "fusion_lat": 0.0, "lon": -77.02641233333334, "type": "electric_scooter", "fusion_lon": 0.0, "lat": 38.93102783333333}, {"rental_uris": {"android": "https://dc.lft.to/lastmile_qr_scan", "ios": "https://dc.lft.to/lastmile_qr_scan"}, "is_reserved": 0, "is_disabled": 0, "name": "e7ef70e612ebffd7a68327a9e0174cbf", "bike_id": "e7ef70e612ebffd7a68327a9e0174cbf", "fusion_lat": 0.0, "lon": -77.02970783333333, "type": "electric_scooter", "fusion_lon": 0.0, "lat": 38.892277166666666}, {"rental_uris": {"android": "https://dc.lft.to/lastmile_qr_scan", "ios": "https://dc.lft.to/lastmile_qr_scan"}, "is_reserved": 0, "is_disabled": 0, "name": "eea053a997ac55127f622cb15fe194d1", "bike_id": "eea053a997ac55127f622cb15fe194d1", "fusion_lat": 0.0, "lon": -77.027099, "type": "electric_scooter", "fusion_lon": 0.0, "lat": 38.89771733333333}, {"rental_uris": {"android": "https://dc.lft.to/lastmile_qr_scan", "ios": "https://dc.lft.to/lastmile_qr_scan"}, "is_reserved": 0, "is_disabled": 0, "name": "98171f65b0e278ea19f4df4884d4a9e2", "bike_id": "98171f65b0e278ea19f4df4884d4a9e2", "fusion_lat": 0.0, "lon": -77.0296075, "type": "electric_scooter", "fusion_lon": 0.0, "lat": 38.90721966666667}, {"rental_uris": {"android": "https://dc.lft.to/lastmile_qr_scan", "ios": "https://dc.lft.to/lastmile_qr_scan"}, "is_reserved": 0, "is_disabled": 0, "name": "e616cb959628ef4fbbb93208e4dd161d", "bike_id": "e616cb959628ef4fbbb93208e4dd161d", "fusion_lat": 0.0, "lon": -77.06128016666666, "type": "electric_scooter", "fusion_lon": 0.0, "lat": 38.94308916666667}, {"rental_uris": {"android": "https://dc.lft.to/lastmile_qr_scan", "ios": "https://dc.lft.to/lastmile_qr_scan"}, "is_reserved": 0, "is_disabled": 0, "name": "21352c15f4bee2240e1de4ae703ef24e", "bike_id": "21352c15f4bee2240e1de4ae703ef24e", "fusion_lat": 0.0, "lon": -76.9030585, "type": "electric_bike", "fusion_lon": 0.0, "lat": 39.00293533333333}, {"rental_uris": {"android": "https://dc.lft.to/lastmile_qr_scan", "ios": "https://dc.lft.to/lastmile_qr_scan"}, "is_reserved": 0, "is_disabled": 0, "name": "c781494d7dff7e8ec2745bdaff88cace", "bike_id": "c781494d7dff7e8ec2745bdaff88cace", "fusion_lat": 0.0, "lon": -77.01284666666666, "type": "electric_scooter", "fusion_lon": 0.0, "lat": 38.89845433333333}, {"rental_uris": {"android": "https://dc.lft.to/lastmile_qr_scan", "ios": "https://dc.lft.to/lastmile_qr_scan"}, "is_reserved": 0, "is_disabled": 0, "name": "4ba20c342bf94fd5e8179ef9765864e0", "bike_id": "4ba20c342bf94fd5e8179ef9765864e0", "fusion_lat": 0.0, "lon": -77.05149683333333, "type": "electric_scooter", "fusion_lon": 0.0, "lat": 38.92378133333333}, {"rental_uris": {"android": "https://dc.lft.to/lastmile_qr_scan", "ios": "https://dc.lft.to/lastmile_qr_scan"}, "is_reserved": 0, "is_disabled": 0, "name": "695aff77ee0957ea000add5085d7f436", "bike_id": "695aff77ee0957ea000add5085d7f436", "fusion_lat": 0.0, "lon": -77.01007866666667, "type": "electric_bike", "fusion_lon": 0.0, "lat": 38.955963}, {"rental_uris": {"android": "https://dc.lft.to/lastmile_qr_scan", "ios": "https://dc.lft.to/lastmile_qr_scan"}, "is_reserved": 0, "is_disabled": 0, "name": "a4ddde3a720b77b98a2fd4266760616a", "bike_id": "a4ddde3a720b77b98a2fd4266760616a", "fusion_lat": 0.0, "lon": -77.0121885, "type": "electric_scooter", "fusion_lon": 0.0, "lat": 38.897986833333334}, {"rental_uris": {"android": "https://dc.lft.to/lastmile_qr_scan", "ios": "https://dc.lft.to/lastmile_qr_scan"}, "is_reserved": 0, "is_disabled": 0, "name": "0dd2106689d35fe7156f6022bd0b7ab3", "bike_id": "0dd2106689d35fe7156f6022bd0b7ab3", "fusion_lat": 0.0, "lon": -77.02871816666666, "type": "electric_bike", "fusion_lon": 0.0, "lat": 38.99432683333333}, {"rental_uris": {"android": "https://dc.lft.to/lastmile_qr_scan", "ios": "https://dc.lft.to/lastmile_qr_scan"}, "is_reserved": 0, "is_disabled": 0, "name": "af93aa9e18ea94ff6a2beaf48eda1c06", "bike_id": "af93aa9e18ea94ff6a2beaf48eda1c06", "fusion_lat": 0.0, "lon": -76.93173366666667, "type": "electric_scooter", "fusion_lon": 0.0, "lat": 38.89887516666667}, {"rental_uris": {"android": "https://dc.lft.to/lastmile_qr_scan", "ios": "https://dc.lft.to/lastmile_qr_scan"}, "is_reserved": 0, "is_disabled": 0, "name": "ddde3b85b3dd253adb32d1d9feba06a1", "bike_id": "ddde3b85b3dd253adb32d1d9feba06a1", "fusion_lat": 0.0, "lon": -77.00439566666667, "type": "electric_scooter", "fusion_lon": 0.0, "lat": 38.9156645}, {"rental_uris": {"android": "https://dc.lft.to/lastmile_qr_scan", "ios": "https://dc.lft.to/lastmile_qr_scan"}, "is_reserved": 0, "is_disabled": 0, "name": "615f9097cf8a2c9754cd45b2eecbc900", "bike_id": "615f9097cf8a2c9754cd45b2eecbc900", "fusion_lat": 0.0, "lon": -77.0501875, "type": "electric_scooter", "fusion_lon": 0.0, "lat": 38.9052595}, {"rental_uris": {"android": "https://dc.lft.to/lastmile_qr_scan", "ios": "https://dc.lft.to/lastmile_qr_scan"}, "is_reserved": 0, "is_disabled": 0, "name": "9910c01120d461f97ba97c58cccf5eff", "bike_id": "9910c01120d461f97ba97c58cccf5eff", "fusion_lat": 0.0, "lon": -77.00727166666667, "type": "electric_scooter", "fusion_lon": 0.0, "lat": 38.9061}, {"rental_uris": {"android": "https://dc.lft.to/lastmile_qr_scan", "ios": "https://dc.lft.to/lastmile_qr_scan"}, "is_reserved": 0, "is_disabled": 0, "name": "d81d3545e9bc7dfe247d689b110d6af2", "bike_id": "d81d3545e9bc7dfe247d689b110d6af2", "fusion_lat": 0.0, "lon": -77.02307183333333, "type": "electric_scooter", "fusion_lon": 0.0, "lat": 38.9090595}, {"rental_uris": {"android": "https://dc.lft.to/lastmile_qr_scan", "ios": "https://dc.lft.to/lastmile_qr_scan"}, "is_reserved": 0, "is_disabled": 0, "name": "1fb30d974968b15cd5d762c2d46ec4e3", "bike_id": "1fb30d974968b15cd5d762c2d46ec4e3", "fusion_lat": 0.0, "lon": -77.02565266666667, "type": "electric_scooter", "fusion_lon": 0.0, "lat": 38.887463}, {"rental_uris": {"android": "https://dc.lft.to/lastmile_qr_scan", "ios": "https://dc.lft.to/lastmile_qr_scan"}, "is_reserved": 0, "is_disabled": 0, "name": "b5eafeb81f47f4e5115145cab3a3d86c", "bike_id": "b5eafeb81f47f4e5115145cab3a3d86c", "fusion_lat": 0.0, "lon": -77.018725, "type": "electric_scooter", "fusion_lon": 0.0, "lat": 38.91417833333333}, {"rental_uris": {"android": "https://dc.lft.to/lastmile_qr_scan", "ios": "https://dc.lft.to/lastmile_qr_scan"}, "is_reserved": 0, "is_disabled": 0, "name": "554ee67b2f276d1c84f6269b920ca169", "bike_id": "554ee67b2f276d1c84f6269b920ca169", "fusion_lat": 0.0, "lon": -77.013066, "type": "electric_scooter", "fusion_lon": 0.0, "lat": 38.901390666666664}, {"rental_uris": {"android": "https://dc.lft.to/lastmile_qr_scan", "ios": "https://dc.lft.to/lastmile_qr_scan"}, "is_reserved": 0, "is_disabled": 0, "name": "964a902e4a161c8bcdbbd310810da659", "bike_id": "964a902e4a161c8bcdbbd310810da659", "fusion_lat": 0.0, "lon": -77.01138916666666, "type": "electric_scooter", "fusion_lon": 0.0, "lat": 38.917071}, {"rental_uris": {"android": "https://dc.lft.to/lastmile_qr_scan", "ios": "https://dc.lft.to/lastmile_qr_scan"}, "is_reserved": 0, "is_disabled": 0, "name": "e844282dd723d84c0871cd444432a0f7", "bike_id": "e844282dd723d84c0871cd444432a0f7", "fusion_lat": 0.0, "lon": -77.06350966666666, "type": "electric_scooter", "fusion_lon": 0.0, "lat": 38.9443965}, {"rental_uris": {"android": "https://dc.lft.to/lastmile_qr_scan", "ios": "https://dc.lft.to/lastmile_qr_scan"}, "is_reserved": 0, "is_disabled": 0, "name": "4ab4e3e533abff17e9b29d5370f1cac2", "bike_id": "4ab4e3e533abff17e9b29d5370f1cac2", "fusion_lat": 0.0, "lon": -77.03201016666667, "type": "electric_scooter", "fusion_lon": 0.0, "lat": 38.90724316666667}, {"rental_uris": {"android": "https://dc.lft.to/lastmile_qr_scan", "ios": "https://dc.lft.to/lastmile_qr_scan"}, "is_reserved": 0, "is_disabled": 0, "name": "edfc7f92b6f505b064d116ad571a1d8e", "bike_id": "edfc7f92b6f505b064d116ad571a1d8e", "fusion_lat": 0.0, "lon": -77.03356866666667, "type": "electric_scooter", "fusion_lon": 0.0, "lat": 38.92156516666667}, {"rental_uris": {"android": "https://dc.lft.to/lastmile_qr_scan", "ios": "https://dc.lft.to/lastmile_qr_scan"}, "is_reserved": 0, "is_disabled": 0, "name": "44015f342c21e5f64320f01be078b184", "bike_id": "44015f342c21e5f64320f01be078b184", "fusion_lat": 0.0, "lon": -77.04399316666667, "type": "electric_scooter", "fusion_lon": 0.0, "lat": 38.92588033333333}, {"rental_uris": {"android": "https://dc.lft.to/lastmile_qr_scan", "ios": "https://dc.lft.to/lastmile_qr_scan"}, "is_reserved": 0, "is_disabled": 0, "name": "8996d39a71d2b20fa21a105f08a50ebe", "bike_id": "8996d39a71d2b20fa21a105f08a50ebe", "fusion_lat": 0.0, "lon": -77.03205283333334, "type": "electric_scooter", "fusion_lon": 0.0, "lat": 38.903751}, {"rental_uris": {"android": "https://dc.lft.to/lastmile_qr_scan", "ios": "https://dc.lft.to/lastmile_qr_scan"}, "is_reserved": 0, "is_disabled": 0, "name": "3ba4dee44682fce0d582708759e1e678", "bike_id": "3ba4dee44682fce0d582708759e1e678", "fusion_lat": 0.0, "lon": -77.0228675, "type": "electric_scooter", "fusion_lon": 0.0, "lat": 38.917522}, {"rental_uris": {"android": "https://dc.lft.to/lastmile_qr_scan", "ios": "https://dc.lft.to/lastmile_qr_scan"}, "is_reserved": 0, "is_disabled": 0, "name": "06ef60fa1dea98e142f768653df38e9d", "bike_id": "06ef60fa1dea98e142f768653df38e9d", "fusion_lat": 0.0, "lon": -77.030046, "type": "electric_scooter", "fusion_lon": 0.0, "lat": 38.883203333333334}, {"rental_uris": {"android": "https://dc.lft.to/lastmile_qr_scan", "ios": "https://dc.lft.to/lastmile_qr_scan"}, "is_reserved": 0, "is_disabled": 0, "name": "b57fa4c811256f2e2146f36e456d8606", "bike_id": "b57fa4c811256f2e2146f36e456d8606", "fusion_lat": 0.0, "lon": -77.044945, "type": "electric_scooter", "fusion_lon": 0.0, "lat": 38.89749666666667}, {"rental_uris": {"android": "https://dc.lft.to/lastmile_qr_scan", "ios": "https://dc.lft.to/lastmile_qr_scan"}, "is_reserved": 0, "is_disabled": 0, "name": "c3c7aede28eafcdc20a90bca7686d40c", "bike_id": "c3c7aede28eafcdc20a90bca7686d40c", "fusion_lat": 0.0, "lon": -77.05336783333334, "type": "electric_scooter", "fusion_lon": 0.0, "lat": 38.904265333333335}, {"rental_uris": {"android": "https://dc.lft.to/lastmile_qr_scan", "ios": "https://dc.lft.to/lastmile_qr_scan"}, "is_reserved": 0, "is_disabled": 0, "name": "5917cc5a983e42179f4e6350cce5bb28", "bike_id": "5917cc5a983e42179f4e6350cce5bb28", "fusion_lat": 0.0, "lon": -77.02249083333334, "type": "electric_scooter", "fusion_lon": 0.0, "lat": 38.89842383333333}, {"rental_uris": {"android": "https://dc.lft.to/lastmile_qr_scan", "ios": "https://dc.lft.to/lastmile_qr_scan"}, "is_reserved": 0, "is_disabled": 0, "name": "26f232e3a89ca477552c139180082301", "bike_id": "26f232e3a89ca477552c139180082301", "fusion_lat": 0.0, "lon": -77.044594, "type": "electric_scooter", "fusion_lon": 0.0, "lat": 38.902796}, {"rental_uris": {"android": "https://dc.lft.to/lastmile_qr_scan", "ios": "https://dc.lft.to/lastmile_qr_scan"}, "is_reserved": 0, "is_disabled": 0, "name": "187422cb5eb437d1080ca02a33f4e695", "bike_id": "187422cb5eb437d1080ca02a33f4e695", "fusion_lat": 0.0, "lon": -77.05143733333334, "type": "electric_scooter", "fusion_lon": 0.0, "lat": 38.9061475}, {"rental_uris": {"android": "https://dc.lft.to/lastmile_qr_scan", "ios": "https://dc.lft.to/lastmile_qr_scan"}, "is_reserved": 0, "is_disabled": 0, "name": "62fe219143104e7fd361fe9844ac8ef6", "bike_id": "62fe219143104e7fd361fe9844ac8ef6", "fusion_lat": 0.0, "lon": -77.04404683333334, "type": "electric_scooter", "fusion_lon": 0.0, "lat": 38.89593516666667}, {"rental_uris": {"android": "https://dc.lft.to/lastmile_qr_scan", "ios": "https://dc.lft.to/lastmile_qr_scan"}, "is_reserved": 0, "is_disabled": 0, "name": "4226a9499349543367627c997af8d572", "bike_id": "4226a9499349543367627c997af8d572", "fusion_lat": 0.0, "lon": -77.02274316666667, "type": "electric_scooter", "fusion_lon": 0.0, "lat": 38.899851166666664}, {"rental_uris": {"android": "https://dc.lft.to/lastmile_qr_scan", "ios": "https://dc.lft.to/lastmile_qr_scan"}, "is_reserved": 0, "is_disabled": 0, "name": "efaa84451e729bcd902134a733df9e2a", "bike_id": "efaa84451e729bcd902134a733df9e2a", "fusion_lat": 0.0, "lon": -76.960892, "type": "electric_scooter", "fusion_lon": 0.0, "lat": 38.91859483333333}, {"rental_uris": {"android": "https://dc.lft.to/lastmile_qr_scan", "ios": "https://dc.lft.to/lastmile_qr_scan"}, "is_reserved": 0, "is_disabled": 0, "name": "0070920be6570d388cd79527f68cc280", "bike_id": "0070920be6570d388cd79527f68cc280", "fusion_lat": 0.0, "lon": -77.09452083333333, "type": "electric_bike", "fusion_lon": 0.0, "lat": 38.807540833333334}, {"rental_uris": {"android": "https://dc.lft.to/lastmile_qr_scan", "ios": "https://dc.lft.to/lastmile_qr_scan"}, "is_reserved": 0, "is_disabled": 0, "name": "13b43768722358f1a2f649cbe2dd3dbd", "bike_id": "13b43768722358f1a2f649cbe2dd3dbd", "fusion_lat": 0.0, "lon": -77.03440333333333, "type": "electric_scooter", "fusion_lon": 0.0, "lat": 38.918020166666665}, {"rental_uris": {"android": "https://dc.lft.to/lastmile_qr_scan", "ios": "https://dc.lft.to/lastmile_qr_scan"}, "is_reserved": 0, "is_disabled": 0, "name": "0ec65494c60bea3d9617a8aba70c7d69", "bike_id": "0ec65494c60bea3d9617a8aba70c7d69", "fusion_lat": 0.0, "lon": -77.0087805, "type": "electric_scooter", "fusion_lon": 0.0, "lat": 38.90982366666667}, {"rental_uris": {"android": "https://dc.lft.to/lastmile_qr_scan", "ios": "https://dc.lft.to/lastmile_qr_scan"}, "is_reserved": 0, "is_disabled": 0, "name": "79ae34f053f51df1f29b4776d55041c7", "bike_id": "79ae34f053f51df1f29b4776d55041c7", "fusion_lat": 0.0, "lon": -77.02282916666667, "type": "electric_scooter", "fusion_lon": 0.0, "lat": 38.91782083333333}, {"rental_uris": {"android": "https://dc.lft.to/lastmile_qr_scan", "ios": "https://dc.lft.to/lastmile_qr_scan"}, "is_reserved": 0, "is_disabled": 0, "name": "f7cbf1a20a5fdf1af07d7619a41ad5e1", "bike_id": "f7cbf1a20a5fdf1af07d7619a41ad5e1", "fusion_lat": 0.0, "lon": -77.0486865, "type": "electric_scooter", "fusion_lon": 0.0, "lat": 38.919739666666665}, {"rental_uris": {"android": "https://dc.lft.to/lastmile_qr_scan", "ios": "https://dc.lft.to/lastmile_qr_scan"}, "is_reserved": 0, "is_disabled": 0, "name": "c6dd9300c9a9594fbca5d7dc80a63f0b", "bike_id": "c6dd9300c9a9594fbca5d7dc80a63f0b", "fusion_lat": 0.0, "lon": -76.92923783333333, "type": "electric_scooter", "fusion_lon": 0.0, "lat": 38.892064166666664}, {"rental_uris": {"android": "https://dc.lft.to/lastmile_qr_scan", "ios": "https://dc.lft.to/lastmile_qr_scan"}, "is_reserved": 0, "is_disabled": 0, "name": "60e9fedda3d26237b8b33faf2a5d9cd2", "bike_id": "60e9fedda3d26237b8b33faf2a5d9cd2", "fusion_lat": 0.0, "lon": -77.0762575, "type": "electric_scooter", "fusion_lon": 0.0, "lat": 38.92523833333333}, {"rental_uris": {"android": "https://dc.lft.to/lastmile_qr_scan", "ios": "https://dc.lft.to/lastmile_qr_scan"}, "is_reserved": 0, "is_disabled": 0, "name": "c977567baa197c5a540f00016443387f", "bike_id": "c977567baa197c5a540f00016443387f", "fusion_lat": 0.0, "lon": -77.02140333333334, "type": "electric_scooter", "fusion_lon": 0.0, "lat": 38.927428166666665}, {"rental_uris": {"android": "https://dc.lft.to/lastmile_qr_scan", "ios": "https://dc.lft.to/lastmile_qr_scan"}, "is_reserved": 0, "is_disabled": 0, "name": "1c3eb347abaaf40533930dcf7abedf02", "bike_id": "1c3eb347abaaf40533930dcf7abedf02", "fusion_lat": 0.0, "lon": -77.02302966666667, "type": "electric_scooter", "fusion_lon": 0.0, "lat": 38.912852}, {"rental_uris": {"android": "https://dc.lft.to/lastmile_qr_scan", "ios": "https://dc.lft.to/lastmile_qr_scan"}, "is_reserved": 0, "is_disabled": 0, "name": "297937dcff7f67c45b5de527c993d2b8", "bike_id": "297937dcff7f67c45b5de527c993d2b8", "fusion_lat": 0.0, "lon": -77.03403233333333, "type": "electric_scooter", "fusion_lon": 0.0, "lat": 38.91404683333333}, {"rental_uris": {"android": "https://dc.lft.to/lastmile_qr_scan", "ios": "https://dc.lft.to/lastmile_qr_scan"}, "is_reserved": 0, "is_disabled": 0, "name": "7620c5be14cee7801dde888c3f29c27c", "bike_id": "7620c5be14cee7801dde888c3f29c27c", "fusion_lat": 0.0, "lon": -77.0081975, "type": "electric_scooter", "fusion_lon": 0.0, "lat": 38.915678}, {"rental_uris": {"android": "https://dc.lft.to/lastmile_qr_scan", "ios": "https://dc.lft.to/lastmile_qr_scan"}, "is_reserved": 0, "is_disabled": 0, "name": "1083daedfb5f1582d0496b9538075ce6", "bike_id": "1083daedfb5f1582d0496b9538075ce6", "fusion_lat": 0.0, "lon": -77.00387533333334, "type": "electric_bike", "fusion_lon": 0.0, "lat": 38.834304}, {"rental_uris": {"android": "https://dc.lft.to/lastmile_qr_scan", "ios": "https://dc.lft.to/lastmile_qr_scan"}, "is_reserved": 0, "is_disabled": 0, "name": "f42135f6bdeb0c6e62d9820feffdca09", "bike_id": "f42135f6bdeb0c6e62d9820feffdca09", "fusion_lat": 0.0, "lon": -77.02688383333333, "type": "electric_scooter", "fusion_lon": 0.0, "lat": 38.93086383333333}, {"rental_uris": {"android": "https://dc.lft.to/lastmile_qr_scan", "ios": "https://dc.lft.to/lastmile_qr_scan"}, "is_reserved": 0, "is_disabled": 0, "name": "8daa4bb2a6df97afc9c35a7b380f435e", "bike_id": "8daa4bb2a6df97afc9c35a7b380f435e", "fusion_lat": 0.0, "lon": -77.0200595, "type": "electric_bike", "fusion_lon": 0.0, "lat": 39.026237333333334}, {"rental_uris": {"android": "https://dc.lft.to/lastmile_qr_scan", "ios": "https://dc.lft.to/lastmile_qr_scan"}, "is_reserved": 0, "is_disabled": 0, "name": "85f5be007be6458a0a1ca29b1f377175", "bike_id": "85f5be007be6458a0a1ca29b1f377175", "fusion_lat": 0.0, "lon": -77.02317366666666, "type": "electric_scooter", "fusion_lon": 0.0, "lat": 38.89476}, {"rental_uris": {"android": "https://dc.lft.to/lastmile_qr_scan", "ios": "https://dc.lft.to/lastmile_qr_scan"}, "is_reserved": 0, "is_disabled": 0, "name": "9c53ca094ed8783b3b26238d9a66fdbe", "bike_id": "9c53ca094ed8783b3b26238d9a66fdbe", "fusion_lat": 0.0, "lon": -77.05150783333333, "type": "electric_scooter", "fusion_lon": 0.0, "lat": 38.92375583333333}, {"rental_uris": {"android": "https://dc.lft.to/lastmile_qr_scan", "ios": "https://dc.lft.to/lastmile_qr_scan"}, "is_reserved": 0, "is_disabled": 0, "name": "c6ebc875b5cc3ad42674f5b543d16684", "bike_id": "c6ebc875b5cc3ad42674f5b543d16684", "fusion_lat": 0.0, "lon": -77.028308, "type": "electric_scooter", "fusion_lon": 0.0, "lat": 38.93171866666667}, {"rental_uris": {"android": "https://dc.lft.to/lastmile_qr_scan", "ios": "https://dc.lft.to/lastmile_qr_scan"}, "is_reserved": 0, "is_disabled": 0, "name": "5bba0c697434ef9a19fd19fca1fe9698", "bike_id": "5bba0c697434ef9a19fd19fca1fe9698", "fusion_lat": 0.0, "lon": -77.11280683333334, "type": "electric_bike", "fusion_lon": 0.0, "lat": 38.831075166666665}, {"rental_uris": {"android": "https://dc.lft.to/lastmile_qr_scan", "ios": "https://dc.lft.to/lastmile_qr_scan"}, "is_reserved": 0, "is_disabled": 0, "name": "564ace476d126e6df31d6d59f492318c", "bike_id": "564ace476d126e6df31d6d59f492318c", "fusion_lat": 0.0, "lon": -77.05149616666667, "type": "electric_scooter", "fusion_lon": 0.0, "lat": 38.923798}, {"rental_uris": {"android": "https://dc.lft.to/lastmile_qr_scan", "ios": "https://dc.lft.to/lastmile_qr_scan"}, "is_reserved": 0, "is_disabled": 0, "name": "cddb3fd72bd7ee746f5f2aae322f6b26", "bike_id": "cddb3fd72bd7ee746f5f2aae322f6b26", "fusion_lat": 0.0, "lon": -77.02964033333333, "type": "electric_scooter", "fusion_lon": 0.0, "lat": 38.922673333333336}, {"rental_uris": {"android": "https://dc.lft.to/lastmile_qr_scan", "ios": "https://dc.lft.to/lastmile_qr_scan"}, "is_reserved": 0, "is_disabled": 0, "name": "ec824a7134df27e5dda0682fdfea49ab", "bike_id": "ec824a7134df27e5dda0682fdfea49ab", "fusion_lat": 0.0, "lon": -77.0164655, "type": "electric_scooter", "fusion_lon": 0.0, "lat": 38.881267666666666}, {"rental_uris": {"android": "https://dc.lft.to/lastmile_qr_scan", "ios": "https://dc.lft.to/lastmile_qr_scan"}, "is_reserved": 0, "is_disabled": 0, "name": "e69629835893147337cfb65e0a208352", "bike_id": "e69629835893147337cfb65e0a208352", "fusion_lat": 0.0, "lon": -77.0297405, "type": "electric_scooter", "fusion_lon": 0.0, "lat": 38.897440833333334}, {"rental_uris": {"android": "https://dc.lft.to/lastmile_qr_scan", "ios": "https://dc.lft.to/lastmile_qr_scan"}, "is_reserved": 0, "is_disabled": 0, "name": "aea8847a6560263106425a005eda62ab", "bike_id": "aea8847a6560263106425a005eda62ab", "fusion_lat": 0.0, "lon": -77.04739416666666, "type": "electric_scooter", "fusion_lon": 0.0, "lat": 38.91256833333333}, {"rental_uris": {"android": "https://dc.lft.to/lastmile_qr_scan", "ios": "https://dc.lft.to/lastmile_qr_scan"}, "is_reserved": 0, "is_disabled": 0, "name": "7fe2e07f073c6d4220ac845a0e7181ae", "bike_id": "7fe2e07f073c6d4220ac845a0e7181ae", "fusion_lat": 0.0, "lon": -77.036987, "type": "electric_scooter", "fusion_lon": 0.0, "lat": 38.9263115}, {"rental_uris": {"android": "https://dc.lft.to/lastmile_qr_scan", "ios": "https://dc.lft.to/lastmile_qr_scan"}, "is_reserved": 0, "is_disabled": 0, "name": "2869048a45b68088235e439ff860b892", "bike_id": "2869048a45b68088235e439ff860b892", "fusion_lat": 0.0, "lon": -77.06845033333333, "type": "electric_bike", "fusion_lon": 0.0, "lat": 38.9510925}, {"rental_uris": {"android": "https://dc.lft.to/lastmile_qr_scan", "ios": "https://dc.lft.to/lastmile_qr_scan"}, "is_reserved": 0, "is_disabled": 0, "name": "68cb2554449818d269abba5b59bc9043", "bike_id": "68cb2554449818d269abba5b59bc9043", "fusion_lat": 0.0, "lon": -77.03558316666667, "type": "electric_scooter", "fusion_lon": 0.0, "lat": 38.92478533333333}, {"rental_uris": {"android": "https://dc.lft.to/lastmile_qr_scan", "ios": "https://dc.lft.to/lastmile_qr_scan"}, "is_reserved": 0, "is_disabled": 0, "name": "dafbfba5b40845b0340d95f4df64d0e2", "bike_id": "dafbfba5b40845b0340d95f4df64d0e2", "fusion_lat": 0.0, "lon": -77.0766095, "type": "electric_bike", "fusion_lon": 0.0, "lat": 38.809816833333336}, {"rental_uris": {"android": "https://dc.lft.to/lastmile_qr_scan", "ios": "https://dc.lft.to/lastmile_qr_scan"}, "is_reserved": 0, "is_disabled": 0, "name": "f8d3b9ff0b788655f88c5bc85381d92d", "bike_id": "f8d3b9ff0b788655f88c5bc85381d92d", "fusion_lat": 0.0, "lon": -76.94185616666667, "type": "electric_scooter", "fusion_lon": 0.0, "lat": 38.89757616666667}, {"rental_uris": {"android": "https://dc.lft.to/lastmile_qr_scan", "ios": "https://dc.lft.to/lastmile_qr_scan"}, "is_reserved": 0, "is_disabled": 0, "name": "637eaa15b1e9f4843ff93c5ba6ad8104", "bike_id": "637eaa15b1e9f4843ff93c5ba6ad8104", "fusion_lat": 0.0, "lon": -77.0476025, "type": "electric_bike", "fusion_lon": 0.0, "lat": 38.9199515}, {"rental_uris": {"android": "https://dc.lft.to/lastmile_qr_scan", "ios": "https://dc.lft.to/lastmile_qr_scan"}, "is_reserved": 0, "is_disabled": 0, "name": "07cf9ae11eb97160d0c5240deee4fce4", "bike_id": "07cf9ae11eb97160d0c5240deee4fce4", "fusion_lat": 0.0, "lon": -77.03394133333333, "type": "electric_scooter", "fusion_lon": 0.0, "lat": 38.91924516666667}, {"rental_uris": {"android": "https://dc.lft.to/lastmile_qr_scan", "ios": "https://dc.lft.to/lastmile_qr_scan"}, "is_reserved": 0, "is_disabled": 0, "name": "e0f1c08bf2f68fddd79285586d510575", "bike_id": "e0f1c08bf2f68fddd79285586d510575", "fusion_lat": 0.0, "lon": -77.0487605, "type": "electric_scooter", "fusion_lon": 0.0, "lat": 38.897970666666666}, {"rental_uris": {"android": "https://dc.lft.to/lastmile_qr_scan", "ios": "https://dc.lft.to/lastmile_qr_scan"}, "is_reserved": 0, "is_disabled": 0, "name": "ea24f157d9394ee9d0375cd6ea17abf5", "bike_id": "ea24f157d9394ee9d0375cd6ea17abf5", "fusion_lat": 0.0, "lon": -76.97816516666667, "type": "electric_scooter", "fusion_lon": 0.0, "lat": 38.8939945}, {"rental_uris": {"android": "https://dc.lft.to/lastmile_qr_scan", "ios": "https://dc.lft.to/lastmile_qr_scan"}, "is_reserved": 0, "is_disabled": 0, "name": "252db1b6486eaee46c0b79847aaf0d93", "bike_id": "252db1b6486eaee46c0b79847aaf0d93", "fusion_lat": 0.0, "lon": -77.0337995, "type": "electric_scooter", "fusion_lon": 0.0, "lat": 38.901445833333334}, {"rental_uris": {"android": "https://dc.lft.to/lastmile_qr_scan", "ios": "https://dc.lft.to/lastmile_qr_scan"}, "is_reserved": 0, "is_disabled": 0, "name": "d7a4830dfcc780b7723b1f3e7290d594", "bike_id": "d7a4830dfcc780b7723b1f3e7290d594", "fusion_lat": 0.0, "lon": -77.02298183333333, "type": "electric_scooter", "fusion_lon": 0.0, "lat": 38.924185}, {"rental_uris": {"android": "https://dc.lft.to/lastmile_qr_scan", "ios": "https://dc.lft.to/lastmile_qr_scan"}, "is_reserved": 0, "is_disabled": 0, "name": "b4b140925a4f078e86bbee76556185c0", "bike_id": "b4b140925a4f078e86bbee76556185c0", "fusion_lat": 0.0, "lon": -77.02692233333333, "type": "electric_scooter", "fusion_lon": 0.0, "lat": 38.912730333333336}, {"rental_uris": {"android": "https://dc.lft.to/lastmile_qr_scan", "ios": "https://dc.lft.to/lastmile_qr_scan"}, "is_reserved": 0, "is_disabled": 0, "name": "cfb8d350e64225a207dc8790399e7b5c", "bike_id": "cfb8d350e64225a207dc8790399e7b5c", "fusion_lat": 0.0, "lon": -77.02174716666667, "type": "electric_scooter", "fusion_lon": 0.0, "lat": 38.92497816666667}, {"rental_uris": {"android": "https://dc.lft.to/lastmile_qr_scan", "ios": "https://dc.lft.to/lastmile_qr_scan"}, "is_reserved": 0, "is_disabled": 0, "name": "946e3be11ac0e4624d9deccb0b01fbab", "bike_id": "946e3be11ac0e4624d9deccb0b01fbab", "fusion_lat": 0.0, "lon": -77.020698, "type": "electric_bike", "fusion_lon": 0.0, "lat": 38.964426}, {"rental_uris": {"android": "https://dc.lft.to/lastmile_qr_scan", "ios": "https://dc.lft.to/lastmile_qr_scan"}, "is_reserved": 0, "is_disabled": 0, "name": "218b5fab8de1fe4469bce870a3646362", "bike_id": "218b5fab8de1fe4469bce870a3646362", "fusion_lat": 0.0, "lon": -76.99630466666666, "type": "electric_scooter", "fusion_lon": 0.0, "lat": 38.87740683333333}, {"rental_uris": {"android": "https://dc.lft.to/lastmile_qr_scan", "ios": "https://dc.lft.to/lastmile_qr_scan"}, "is_reserved": 0, "is_disabled": 0, "name": "9a6502b168b5e981024f0af45f594626", "bike_id": "9a6502b168b5e981024f0af45f594626", "fusion_lat": 0.0, "lon": -77.03781416666666, "type": "electric_bike", "fusion_lon": 0.0, "lat": 38.996779833333335}, {"rental_uris": {"android": "https://dc.lft.to/lastmile_qr_scan", "ios": "https://dc.lft.to/lastmile_qr_scan"}, "is_reserved": 0, "is_disabled": 0, "name": "c46afce15f58b825e967b6dd067c5de9", "bike_id": "c46afce15f58b825e967b6dd067c5de9", "fusion_lat": 0.0, "lon": -77.052663, "type": "electric_bike", "fusion_lon": 0.0, "lat": 38.94089983333333}, {"rental_uris": {"android": "https://dc.lft.to/lastmile_qr_scan", "ios": "https://dc.lft.to/lastmile_qr_scan"}, "is_reserved": 0, "is_disabled": 0, "name": "2f8ff01894b3a4e8e727436c4558a2ef", "bike_id": "2f8ff01894b3a4e8e727436c4558a2ef", "fusion_lat": 0.0, "lon": -76.998551, "type": "electric_scooter", "fusion_lon": 0.0, "lat": 38.89187066666667}, {"rental_uris": {"android": "https://dc.lft.to/lastmile_qr_scan", "ios": "https://dc.lft.to/lastmile_qr_scan"}, "is_reserved": 0, "is_disabled": 0, "name": "02899ea04a143f95dcaa28810ff0702f", "bike_id": "02899ea04a143f95dcaa28810ff0702f", "fusion_lat": 0.0, "lon": -77.052034, "type": "electric_scooter", "fusion_lon": 0.0, "lat": 38.92490383333333}, {"rental_uris": {"android": "https://dc.lft.to/lastmile_qr_scan", "ios": "https://dc.lft.to/lastmile_qr_scan"}, "is_reserved": 0, "is_disabled": 0, "name": "332d99b2e9110805ac7095851f6a0d14", "bike_id": "332d99b2e9110805ac7095851f6a0d14", "fusion_lat": 0.0, "lon": -77.00717266666666, "type": "electric_bike", "fusion_lon": 0.0, "lat": 38.995123166666666}, {"rental_uris": {"android": "https://dc.lft.to/lastmile_qr_scan", "ios": "https://dc.lft.to/lastmile_qr_scan"}, "is_reserved": 0, "is_disabled": 0, "name": "189ac0b081c239932727c48256ea2bc3", "bike_id": "189ac0b081c239932727c48256ea2bc3", "fusion_lat": 0.0, "lon": -77.0297185, "type": "electric_scooter", "fusion_lon": 0.0, "lat": 38.93255216666667}, {"rental_uris": {"android": "https://dc.lft.to/lastmile_qr_scan", "ios": "https://dc.lft.to/lastmile_qr_scan"}, "is_reserved": 0, "is_disabled": 0, "name": "8c7e82d4c039683993ef69cdbf1b4360", "bike_id": "8c7e82d4c039683993ef69cdbf1b4360", "fusion_lat": 0.0, "lon": -77.032637, "type": "electric_scooter", "fusion_lon": 0.0, "lat": 38.93523916666667}, {"rental_uris": {"android": "https://dc.lft.to/lastmile_qr_scan", "ios": "https://dc.lft.to/lastmile_qr_scan"}, "is_reserved": 0, "is_disabled": 0, "name": "55be6595e750fefba0b59b15ad641a29", "bike_id": "55be6595e750fefba0b59b15ad641a29", "fusion_lat": 0.0, "lon": -77.01156116666667, "type": "electric_scooter", "fusion_lon": 0.0, "lat": 38.917067333333335}, {"rental_uris": {"android": "https://dc.lft.to/lastmile_qr_scan", "ios": "https://dc.lft.to/lastmile_qr_scan"}, "is_reserved": 0, "is_disabled": 0, "name": "a6ead3c69c734f40e5b4fb03fbd616fd", "bike_id": "a6ead3c69c734f40e5b4fb03fbd616fd", "fusion_lat": 0.0, "lon": -77.02796166666667, "type": "electric_scooter", "fusion_lon": 0.0, "lat": 38.91677216666667}, {"rental_uris": {"android": "https://dc.lft.to/lastmile_qr_scan", "ios": "https://dc.lft.to/lastmile_qr_scan"}, "is_reserved": 0, "is_disabled": 0, "name": "ee9cc795b2ced768413579ec74043592", "bike_id": "ee9cc795b2ced768413579ec74043592", "fusion_lat": 0.0, "lon": -76.98345566666667, "type": "electric_bike", "fusion_lon": 0.0, "lat": 38.86263533333333}, {"rental_uris": {"android": "https://dc.lft.to/lastmile_qr_scan", "ios": "https://dc.lft.to/lastmile_qr_scan"}, "is_reserved": 0, "is_disabled": 0, "name": "d306f2ce672a6c97f52c6d46d54ef944", "bike_id": "d306f2ce672a6c97f52c6d46d54ef944", "fusion_lat": 0.0, "lon": -76.97721866666667, "type": "electric_scooter", "fusion_lon": 0.0, "lat": 38.88818216666667}, {"rental_uris": {"android": "https://dc.lft.to/lastmile_qr_scan", "ios": "https://dc.lft.to/lastmile_qr_scan"}, "is_reserved": 0, "is_disabled": 0, "name": "f6dcef6094340c318f689b7b7b8c109c", "bike_id": "f6dcef6094340c318f689b7b7b8c109c", "fusion_lat": 0.0, "lon": -77.03656066666667, "type": "electric_scooter", "fusion_lon": 0.0, "lat": 38.9363815}, {"rental_uris": {"android": "https://dc.lft.to/lastmile_qr_scan", "ios": "https://dc.lft.to/lastmile_qr_scan"}, "is_reserved": 0, "is_disabled": 0, "name": "091fedb8bf4cf5f03d7a74bf4f9c8a46", "bike_id": "091fedb8bf4cf5f03d7a74bf4f9c8a46", "fusion_lat": 0.0, "lon": -77.05812583333334, "type": "electric_scooter", "fusion_lon": 0.0, "lat": 38.90638533333333}, {"rental_uris": {"android": "https://dc.lft.to/lastmile_qr_scan", "ios": "https://dc.lft.to/lastmile_qr_scan"}, "is_reserved": 0, "is_disabled": 0, "name": "a247d1cf57ee1b717fe2835a9030c1fb", "bike_id": "a247d1cf57ee1b717fe2835a9030c1fb", "fusion_lat": 0.0, "lon": -77.032546, "type": "electric_scooter", "fusion_lon": 0.0, "lat": 38.93969516666667}, {"rental_uris": {"android": "https://dc.lft.to/lastmile_qr_scan", "ios": "https://dc.lft.to/lastmile_qr_scan"}, "is_reserved": 0, "is_disabled": 0, "name": "50acb9d2dffed2648423f35d710c5db3", "bike_id": "50acb9d2dffed2648423f35d710c5db3", "fusion_lat": 0.0, "lon": -77.05894166666667, "type": "electric_scooter", "fusion_lon": 0.0, "lat": 38.9361155}, {"rental_uris": {"android": "https://dc.lft.to/lastmile_qr_scan", "ios": "https://dc.lft.to/lastmile_qr_scan"}, "is_reserved": 0, "is_disabled": 0, "name": "e835b0f23a8033786d909fa74c2fec9d", "bike_id": "e835b0f23a8033786d909fa74c2fec9d", "fusion_lat": 0.0, "lon": -76.98357166666666, "type": "electric_scooter", "fusion_lon": 0.0, "lat": 38.8873445}, {"rental_uris": {"android": "https://dc.lft.to/lastmile_qr_scan", "ios": "https://dc.lft.to/lastmile_qr_scan"}, "is_reserved": 0, "is_disabled": 0, "name": "73cdc6dd5faf412986c630c91a26a130", "bike_id": "73cdc6dd5faf412986c630c91a26a130", "fusion_lat": 0.0, "lon": -77.04152916666666, "type": "electric_scooter", "fusion_lon": 0.0, "lat": 38.91620866666667}, {"rental_uris": {"android": "https://dc.lft.to/lastmile_qr_scan", "ios": "https://dc.lft.to/lastmile_qr_scan"}, "is_reserved": 0, "is_disabled": 0, "name": "ba747b7482ed5c6a676f78e1a3b4389f", "bike_id": "ba747b7482ed5c6a676f78e1a3b4389f", "fusion_lat": 0.0, "lon": -77.023413, "type": "electric_scooter", "fusion_lon": 0.0, "lat": 38.88135833333333}, {"rental_uris": {"android": "https://dc.lft.to/lastmile_qr_scan", "ios": "https://dc.lft.to/lastmile_qr_scan"}, "is_reserved": 0, "is_disabled": 0, "name": "858f9e7b2d4186ca37d8aa3af20236f2", "bike_id": "858f9e7b2d4186ca37d8aa3af20236f2", "fusion_lat": 0.0, "lon": -77.02198683333333, "type": "electric_scooter", "fusion_lon": 0.0, "lat": 38.9053815}, {"rental_uris": {"android": "https://dc.lft.to/lastmile_qr_scan", "ios": "https://dc.lft.to/lastmile_qr_scan"}, "is_reserved": 0, "is_disabled": 0, "name": "aaf827aec4f44d4295c6f0ed1fec44c5", "bike_id": "aaf827aec4f44d4295c6f0ed1fec44c5", "fusion_lat": 0.0, "lon": -77.03176216666667, "type": "electric_scooter", "fusion_lon": 0.0, "lat": 38.883907}, {"rental_uris": {"android": "https://dc.lft.to/lastmile_qr_scan", "ios": "https://dc.lft.to/lastmile_qr_scan"}, "is_reserved": 0, "is_disabled": 0, "name": "06f3f0a196e611f580d28a38c2ddc95f", "bike_id": "06f3f0a196e611f580d28a38c2ddc95f", "fusion_lat": 0.0, "lon": -77.0247335, "type": "electric_scooter", "fusion_lon": 0.0, "lat": 38.91816516666667}, {"rental_uris": {"android": "https://dc.lft.to/lastmile_qr_scan", "ios": "https://dc.lft.to/lastmile_qr_scan"}, "is_reserved": 0, "is_disabled": 0, "name": "fc0a2ac651ace9023f523335db85e59a", "bike_id": "fc0a2ac651ace9023f523335db85e59a", "fusion_lat": 0.0, "lon": -77.01909983333333, "type": "electric_scooter", "fusion_lon": 0.0, "lat": 38.921727833333335}, {"rental_uris": {"android": "https://dc.lft.to/lastmile_qr_scan", "ios": "https://dc.lft.to/lastmile_qr_scan"}, "is_reserved": 0, "is_disabled": 0, "name": "bf2f39a714026d4b7f54c00d1259086b", "bike_id": "bf2f39a714026d4b7f54c00d1259086b", "fusion_lat": 0.0, "lon": -77.004814, "type": "electric_scooter", "fusion_lon": 0.0, "lat": 38.8746485}, {"rental_uris": {"android": "https://dc.lft.to/lastmile_qr_scan", "ios": "https://dc.lft.to/lastmile_qr_scan"}, "is_reserved": 0, "is_disabled": 0, "name": "32f88e6478dcc7c3e760c85ffe07fd99", "bike_id": "32f88e6478dcc7c3e760c85ffe07fd99", "fusion_lat": 0.0, "lon": -77.05340166666667, "type": "electric_scooter", "fusion_lon": 0.0, "lat": 38.906440333333336}, {"rental_uris": {"android": "https://dc.lft.to/lastmile_qr_scan", "ios": "https://dc.lft.to/lastmile_qr_scan"}, "is_reserved": 0, "is_disabled": 0, "name": "0123368b47bde77d33851dd01038f3b7", "bike_id": "0123368b47bde77d33851dd01038f3b7", "fusion_lat": 0.0, "lon": -77.04497516666666, "type": "electric_scooter", "fusion_lon": 0.0, "lat": 38.897521}, {"rental_uris": {"android": "https://dc.lft.to/lastmile_qr_scan", "ios": "https://dc.lft.to/lastmile_qr_scan"}, "is_reserved": 0, "is_disabled": 0, "name": "5e172c9112300e0c41f47ee5d1c7e226", "bike_id": "5e172c9112300e0c41f47ee5d1c7e226", "fusion_lat": 0.0, "lon": -77.01748033333334, "type": "electric_scooter", "fusion_lon": 0.0, "lat": 38.939905333333336}, {"rental_uris": {"android": "https://dc.lft.to/lastmile_qr_scan", "ios": "https://dc.lft.to/lastmile_qr_scan"}, "is_reserved": 0, "is_disabled": 0, "name": "81068794b53b0bab50b2e0f1bdb79efb", "bike_id": "81068794b53b0bab50b2e0f1bdb79efb", "fusion_lat": 0.0, "lon": -76.994854, "type": "electric_scooter", "fusion_lon": 0.0, "lat": 38.894038}, {"rental_uris": {"android": "https://dc.lft.to/lastmile_qr_scan", "ios": "https://dc.lft.to/lastmile_qr_scan"}, "is_reserved": 0, "is_disabled": 0, "name": "08a78b08a39255a90bd7e851df3e0456", "bike_id": "08a78b08a39255a90bd7e851df3e0456", "fusion_lat": 0.0, "lon": -77.05152333333334, "type": "electric_scooter", "fusion_lon": 0.0, "lat": 38.897707}, {"rental_uris": {"android": "https://dc.lft.to/lastmile_qr_scan", "ios": "https://dc.lft.to/lastmile_qr_scan"}, "is_reserved": 0, "is_disabled": 0, "name": "746eeea53847c5d0f1c9737325b05e89", "bike_id": "746eeea53847c5d0f1c9737325b05e89", "fusion_lat": 0.0, "lon": -77.01020466666667, "type": "electric_scooter", "fusion_lon": 0.0, "lat": 38.914067833333334}, {"rental_uris": {"android": "https://dc.lft.to/lastmile_qr_scan", "ios": "https://dc.lft.to/lastmile_qr_scan"}, "is_reserved": 0, "is_disabled": 0, "name": "afeb3dd183dd44de32a064850397b8a9", "bike_id": "afeb3dd183dd44de32a064850397b8a9", "fusion_lat": 0.0, "lon": -76.98024466666666, "type": "electric_bike", "fusion_lon": 0.0, "lat": 38.95754483333333}, {"rental_uris": {"android": "https://dc.lft.to/lastmile_qr_scan", "ios": "https://dc.lft.to/lastmile_qr_scan"}, "is_reserved": 0, "is_disabled": 0, "name": "135c0612986d8bf1ca79b6d2e6124344", "bike_id": "135c0612986d8bf1ca79b6d2e6124344", "fusion_lat": 0.0, "lon": -77.0452255, "type": "electric_scooter", "fusion_lon": 0.0, "lat": 38.9097155}, {"rental_uris": {"android": "https://dc.lft.to/lastmile_qr_scan", "ios": "https://dc.lft.to/lastmile_qr_scan"}, "is_reserved": 0, "is_disabled": 0, "name": "ffa5181cefa5a75db936e6f0cae57007", "bike_id": "ffa5181cefa5a75db936e6f0cae57007", "fusion_lat": 0.0, "lon": -77.00255333333334, "type": "electric_scooter", "fusion_lon": 0.0, "lat": 38.89477016666667}, {"rental_uris": {"android": "https://dc.lft.to/lastmile_qr_scan", "ios": "https://dc.lft.to/lastmile_qr_scan"}, "is_reserved": 0, "is_disabled": 0, "name": "1a7ebc882d98ac4bbf7783d0882198b8", "bike_id": "1a7ebc882d98ac4bbf7783d0882198b8", "fusion_lat": 0.0, "lon": -77.05666166666667, "type": "electric_scooter", "fusion_lon": 0.0, "lat": 38.92343133333333}, {"rental_uris": {"android": "https://dc.lft.to/lastmile_qr_scan", "ios": "https://dc.lft.to/lastmile_qr_scan"}, "is_reserved": 0, "is_disabled": 0, "name": "2d961b187ad7a75e059c981cd6b68a0c", "bike_id": "2d961b187ad7a75e059c981cd6b68a0c", "fusion_lat": 0.0, "lon": -77.02545016666667, "type": "electric_scooter", "fusion_lon": 0.0, "lat": 38.91401033333333}, {"rental_uris": {"android": "https://dc.lft.to/lastmile_qr_scan", "ios": "https://dc.lft.to/lastmile_qr_scan"}, "is_reserved": 0, "is_disabled": 0, "name": "9c443a8182fa6d6379808a0c5479edf1", "bike_id": "9c443a8182fa6d6379808a0c5479edf1", "fusion_lat": 0.0, "lon": -77.0318505, "type": "electric_scooter", "fusion_lon": 0.0, "lat": 38.913324}, {"rental_uris": {"android": "https://dc.lft.to/lastmile_qr_scan", "ios": "https://dc.lft.to/lastmile_qr_scan"}, "is_reserved": 0, "is_disabled": 0, "name": "9a5b70f69118329063480975c1958eff", "bike_id": "9a5b70f69118329063480975c1958eff", "fusion_lat": 0.0, "lon": -77.02981183333333, "type": "electric_scooter", "fusion_lon": 0.0, "lat": 38.90228316666666}, {"rental_uris": {"android": "https://dc.lft.to/lastmile_qr_scan", "ios": "https://dc.lft.to/lastmile_qr_scan"}, "is_reserved": 0, "is_disabled": 0, "name": "ca9a5b3062f4a25e75ea84f7d0c83902", "bike_id": "ca9a5b3062f4a25e75ea84f7d0c83902", "fusion_lat": 0.0, "lon": -77.0273265, "type": "electric_scooter", "fusion_lon": 0.0, "lat": 38.91818333333333}, {"rental_uris": {"android": "https://dc.lft.to/lastmile_qr_scan", "ios": "https://dc.lft.to/lastmile_qr_scan"}, "is_reserved": 0, "is_disabled": 0, "name": "96a583fd3041d7c64f7447e982b082f9", "bike_id": "96a583fd3041d7c64f7447e982b082f9", "fusion_lat": 0.0, "lon": -76.98015266666667, "type": "electric_bike", "fusion_lon": 0.0, "lat": 38.853180333333334}, {"rental_uris": {"android": "https://dc.lft.to/lastmile_qr_scan", "ios": "https://dc.lft.to/lastmile_qr_scan"}, "is_reserved": 0, "is_disabled": 0, "name": "0ec2c6897f296aecd3180ba033b41752", "bike_id": "0ec2c6897f296aecd3180ba033b41752", "fusion_lat": 0.0, "lon": -77.05192933333333, "type": "electric_scooter", "fusion_lon": 0.0, "lat": 38.90316766666667}, {"rental_uris": {"android": "https://dc.lft.to/lastmile_qr_scan", "ios": "https://dc.lft.to/lastmile_qr_scan"}, "is_reserved": 0, "is_disabled": 0, "name": "0bc644e37c3c628610572aa938d1966c", "bike_id": "0bc644e37c3c628610572aa938d1966c", "fusion_lat": 0.0, "lon": -77.04035533333334, "type": "electric_scooter", "fusion_lon": 0.0, "lat": 38.912899833333334}, {"rental_uris": {"android": "https://dc.lft.to/lastmile_qr_scan", "ios": "https://dc.lft.to/lastmile_qr_scan"}, "is_reserved": 0, "is_disabled": 0, "name": "b9bfa8c246b0ded1d69813144c3ef8c1", "bike_id": "b9bfa8c246b0ded1d69813144c3ef8c1", "fusion_lat": 0.0, "lon": -77.04501866666666, "type": "electric_scooter", "fusion_lon": 0.0, "lat": 38.892267}, {"rental_uris": {"android": "https://dc.lft.to/lastmile_qr_scan", "ios": "https://dc.lft.to/lastmile_qr_scan"}, "is_reserved": 0, "is_disabled": 0, "name": "618c59fe8a1d61bd3c5f10f2919169bb", "bike_id": "618c59fe8a1d61bd3c5f10f2919169bb", "fusion_lat": 0.0, "lon": -77.03314066666667, "type": "electric_scooter", "fusion_lon": 0.0, "lat": 38.898831666666666}, {"rental_uris": {"android": "https://dc.lft.to/lastmile_qr_scan", "ios": "https://dc.lft.to/lastmile_qr_scan"}, "is_reserved": 0, "is_disabled": 0, "name": "b7be6abf4391d63ebc3d972edaa8993d", "bike_id": "b7be6abf4391d63ebc3d972edaa8993d", "fusion_lat": 0.0, "lon": -77.033309, "type": "electric_scooter", "fusion_lon": 0.0, "lat": 38.9001345}, {"rental_uris": {"android": "https://dc.lft.to/lastmile_qr_scan", "ios": "https://dc.lft.to/lastmile_qr_scan"}, "is_reserved": 0, "is_disabled": 0, "name": "56af33d185e331f2def5825994e6fb4c", "bike_id": "56af33d185e331f2def5825994e6fb4c", "fusion_lat": 0.0, "lon": -76.98249983333334, "type": "electric_bike", "fusion_lon": 0.0, "lat": 38.952459833333336}, {"rental_uris": {"android": "https://dc.lft.to/lastmile_qr_scan", "ios": "https://dc.lft.to/lastmile_qr_scan"}, "is_reserved": 0, "is_disabled": 0, "name": "0146cc82996cc972a7fb3e4f42903e5e", "bike_id": "0146cc82996cc972a7fb3e4f42903e5e", "fusion_lat": 0.0, "lon": -77.02093533333333, "type": "electric_scooter", "fusion_lon": 0.0, "lat": 38.93267066666667}, {"rental_uris": {"android": "https://dc.lft.to/lastmile_qr_scan", "ios": "https://dc.lft.to/lastmile_qr_scan"}, "is_reserved": 0, "is_disabled": 0, "name": "40816233ee8f7943dba3c61a760bf3ed", "bike_id": "40816233ee8f7943dba3c61a760bf3ed", "fusion_lat": 0.0, "lon": -77.02274616666666, "type": "electric_scooter", "fusion_lon": 0.0, "lat": 38.899854}, {"rental_uris": {"android": "https://dc.lft.to/lastmile_qr_scan", "ios": "https://dc.lft.to/lastmile_qr_scan"}, "is_reserved": 0, "is_disabled": 0, "name": "bdb5110a84784942aca75717be4e085a", "bike_id": "bdb5110a84784942aca75717be4e085a", "fusion_lat": 0.0, "lon": -77.0300505, "type": "electric_bike", "fusion_lon": 0.0, "lat": 38.90025266666667}, {"rental_uris": {"android": "https://dc.lft.to/lastmile_qr_scan", "ios": "https://dc.lft.to/lastmile_qr_scan"}, "is_reserved": 0, "is_disabled": 0, "name": "2961b12f1d148c5dbd0d925c629b56bf", "bike_id": "2961b12f1d148c5dbd0d925c629b56bf", "fusion_lat": 0.0, "lon": -77.04230433333333, "type": "electric_scooter", "fusion_lon": 0.0, "lat": 38.91111933333333}, {"rental_uris": {"android": "https://dc.lft.to/lastmile_qr_scan", "ios": "https://dc.lft.to/lastmile_qr_scan"}, "is_reserved": 0, "is_disabled": 0, "name": "63a159820807ac1aa984c973eb33ac70", "bike_id": "63a159820807ac1aa984c973eb33ac70", "fusion_lat": 0.0, "lon": -77.034403, "type": "electric_scooter", "fusion_lon": 0.0, "lat": 38.907465333333334}, {"rental_uris": {"android": "https://dc.lft.to/lastmile_qr_scan", "ios": "https://dc.lft.to/lastmile_qr_scan"}, "is_reserved": 0, "is_disabled": 0, "name": "a2fef9cba5d193dbc7cb08c1bbd23511", "bike_id": "a2fef9cba5d193dbc7cb08c1bbd23511", "fusion_lat": 0.0, "lon": -77.03379933333333, "type": "electric_scooter", "fusion_lon": 0.0, "lat": 38.92475733333333}, {"rental_uris": {"android": "https://dc.lft.to/lastmile_qr_scan", "ios": "https://dc.lft.to/lastmile_qr_scan"}, "is_reserved": 0, "is_disabled": 0, "name": "bf357e6b63040274e97fcec2a8654daf", "bike_id": "bf357e6b63040274e97fcec2a8654daf", "fusion_lat": 0.0, "lon": -77.04879933333333, "type": "electric_scooter", "fusion_lon": 0.0, "lat": 38.905342166666664}, {"rental_uris": {"android": "https://dc.lft.to/lastmile_qr_scan", "ios": "https://dc.lft.to/lastmile_qr_scan"}, "is_reserved": 0, "is_disabled": 0, "name": "afbe8048d774b22cca527ff441f21674", "bike_id": "afbe8048d774b22cca527ff441f21674", "fusion_lat": 0.0, "lon": -77.02112816666667, "type": "electric_bike", "fusion_lon": 0.0, "lat": 38.93600566666667}, {"rental_uris": {"android": "https://dc.lft.to/lastmile_qr_scan", "ios": "https://dc.lft.to/lastmile_qr_scan"}, "is_reserved": 0, "is_disabled": 0, "name": "6ec5c34bcdf0c398cad66d19c4485772", "bike_id": "6ec5c34bcdf0c398cad66d19c4485772", "fusion_lat": 0.0, "lon": -76.98372166666667, "type": "electric_scooter", "fusion_lon": 0.0, "lat": 38.89266466666667}, {"rental_uris": {"android": "https://dc.lft.to/lastmile_qr_scan", "ios": "https://dc.lft.to/lastmile_qr_scan"}, "is_reserved": 0, "is_disabled": 0, "name": "2489c66fa20bd46761a7c1ceb054d292", "bike_id": "2489c66fa20bd46761a7c1ceb054d292", "fusion_lat": 0.0, "lon": -77.0487535, "type": "electric_scooter", "fusion_lon": 0.0, "lat": 38.9039275}, {"rental_uris": {"android": "https://dc.lft.to/lastmile_qr_scan", "ios": "https://dc.lft.to/lastmile_qr_scan"}, "is_reserved": 0, "is_disabled": 0, "name": "1d7073f95227d169dc5b0ab4f02eaaca", "bike_id": "1d7073f95227d169dc5b0ab4f02eaaca", "fusion_lat": 0.0, "lon": -77.0150935, "type": "electric_scooter", "fusion_lon": 0.0, "lat": 38.89341666666667}, {"rental_uris": {"android": "https://dc.lft.to/lastmile_qr_scan", "ios": "https://dc.lft.to/lastmile_qr_scan"}, "is_reserved": 0, "is_disabled": 0, "name": "aa80407f9d457f3a1c0c05fe624c21de", "bike_id": "aa80407f9d457f3a1c0c05fe624c21de", "fusion_lat": 0.0, "lon": -77.011632, "type": "electric_scooter", "fusion_lon": 0.0, "lat": 38.90058783333333}, {"rental_uris": {"android": "https://dc.lft.to/lastmile_qr_scan", "ios": "https://dc.lft.to/lastmile_qr_scan"}, "is_reserved": 0, "is_disabled": 0, "name": "069f8cee6203ad274ad20257535b3f3b", "bike_id": "069f8cee6203ad274ad20257535b3f3b", "fusion_lat": 0.0, "lon": -77.03456566666667, "type": "electric_scooter", "fusion_lon": 0.0, "lat": 38.911741666666664}, {"rental_uris": {"android": "https://dc.lft.to/lastmile_qr_scan", "ios": "https://dc.lft.to/lastmile_qr_scan"}, "is_reserved": 0, "is_disabled": 0, "name": "323156c30ecee91aca8b02a2d87c547b", "bike_id": "323156c30ecee91aca8b02a2d87c547b", "fusion_lat": 0.0, "lon": -77.05389216666667, "type": "electric_scooter", "fusion_lon": 0.0, "lat": 38.91054316666666}, {"rental_uris": {"android": "https://dc.lft.to/lastmile_qr_scan", "ios": "https://dc.lft.to/lastmile_qr_scan"}, "is_reserved": 0, "is_disabled": 0, "name": "81d6ceba846547e91d297745706709d1", "bike_id": "81d6ceba846547e91d297745706709d1", "fusion_lat": 0.0, "lon": -77.07753133333334, "type": "electric_bike", "fusion_lon": 0.0, "lat": 38.84194316666667}, {"rental_uris": {"android": "https://dc.lft.to/lastmile_qr_scan", "ios": "https://dc.lft.to/lastmile_qr_scan"}, "is_reserved": 0, "is_disabled": 0, "name": "078e97c532895bfd68a6495f715c5b7f", "bike_id": "078e97c532895bfd68a6495f715c5b7f", "fusion_lat": 0.0, "lon": -77.04320316666667, "type": "electric_scooter", "fusion_lon": 0.0, "lat": 38.892274666666665}, {"rental_uris": {"android": "https://dc.lft.to/lastmile_qr_scan", "ios": "https://dc.lft.to/lastmile_qr_scan"}, "is_reserved": 0, "is_disabled": 0, "name": "57f38e6d62e74349e30956e66c4e151e", "bike_id": "57f38e6d62e74349e30956e66c4e151e", "fusion_lat": 0.0, "lon": -77.03335783333333, "type": "electric_scooter", "fusion_lon": 0.0, "lat": 38.921659166666664}, {"rental_uris": {"android": "https://dc.lft.to/lastmile_qr_scan", "ios": "https://dc.lft.to/lastmile_qr_scan"}, "is_reserved": 0, "is_disabled": 0, "name": "ba8942a59757cfaf4c7b2348f0cdf1c2", "bike_id": "ba8942a59757cfaf4c7b2348f0cdf1c2", "fusion_lat": 0.0, "lon": -76.995712, "type": "electric_scooter", "fusion_lon": 0.0, "lat": 38.900142833333334}, {"rental_uris": {"android": "https://dc.lft.to/lastmile_qr_scan", "ios": "https://dc.lft.to/lastmile_qr_scan"}, "is_reserved": 0, "is_disabled": 0, "name": "13a2605a649da7959fd6a2c74041ea43", "bike_id": "13a2605a649da7959fd6a2c74041ea43", "fusion_lat": 0.0, "lon": -77.0345705, "type": "electric_scooter", "fusion_lon": 0.0, "lat": 38.9064435}, {"rental_uris": {"android": "https://dc.lft.to/lastmile_qr_scan", "ios": "https://dc.lft.to/lastmile_qr_scan"}, "is_reserved": 0, "is_disabled": 0, "name": "3c9bf0972ffad880afa85b27c06dae4f", "bike_id": "3c9bf0972ffad880afa85b27c06dae4f", "fusion_lat": 0.0, "lon": -77.02933433333334, "type": "electric_scooter", "fusion_lon": 0.0, "lat": 38.907187666666665}, {"rental_uris": {"android": "https://dc.lft.to/lastmile_qr_scan", "ios": "https://dc.lft.to/lastmile_qr_scan"}, "is_reserved": 0, "is_disabled": 0, "name": "ec17bab0eaa6397406ac9123523529fa", "bike_id": "ec17bab0eaa6397406ac9123523529fa", "fusion_lat": 0.0, "lon": -77.0730625, "type": "electric_scooter", "fusion_lon": 0.0, "lat": 38.9220475}, {"rental_uris": {"android": "https://dc.lft.to/lastmile_qr_scan", "ios": "https://dc.lft.to/lastmile_qr_scan"}, "is_reserved": 0, "is_disabled": 0, "name": "75b81e139aa431c5129979f83f354195", "bike_id": "75b81e139aa431c5129979f83f354195", "fusion_lat": 0.0, "lon": -76.9408635, "type": "electric_scooter", "fusion_lon": 0.0, "lat": 38.891229833333334}, {"rental_uris": {"android": "https://dc.lft.to/lastmile_qr_scan", "ios": "https://dc.lft.to/lastmile_qr_scan"}, "is_reserved": 0, "is_disabled": 0, "name": "c5f7a9a38679003dc56d1b60c6ad995e", "bike_id": "c5f7a9a38679003dc56d1b60c6ad995e", "fusion_lat": 0.0, "lon": -77.03797, "type": "electric_scooter", "fusion_lon": 0.0, "lat": 38.93069716666667}, {"rental_uris": {"android": "https://dc.lft.to/lastmile_qr_scan", "ios": "https://dc.lft.to/lastmile_qr_scan"}, "is_reserved": 0, "is_disabled": 0, "name": "9390190bf28206d501e104e60f52c488", "bike_id": "9390190bf28206d501e104e60f52c488", "fusion_lat": 0.0, "lon": -77.06349433333334, "type": "electric_scooter", "fusion_lon": 0.0, "lat": 38.9443785}, {"rental_uris": {"android": "https://dc.lft.to/lastmile_qr_scan", "ios": "https://dc.lft.to/lastmile_qr_scan"}, "is_reserved": 0, "is_disabled": 0, "name": "c794309e53c0649d41c531e5b5b3c6d1", "bike_id": "c794309e53c0649d41c531e5b5b3c6d1", "fusion_lat": 0.0, "lon": -77.05329566666667, "type": "electric_scooter", "fusion_lon": 0.0, "lat": 38.905098}, {"rental_uris": {"android": "https://dc.lft.to/lastmile_qr_scan", "ios": "https://dc.lft.to/lastmile_qr_scan"}, "is_reserved": 0, "is_disabled": 0, "name": "3f024fdadc12c7938617aea88f9a4e02", "bike_id": "3f024fdadc12c7938617aea88f9a4e02", "fusion_lat": 0.0, "lon": -77.02270166666666, "type": "electric_scooter", "fusion_lon": 0.0, "lat": 38.918379}, {"rental_uris": {"android": "https://dc.lft.to/lastmile_qr_scan", "ios": "https://dc.lft.to/lastmile_qr_scan"}, "is_reserved": 0, "is_disabled": 0, "name": "401ebec3b5dd2b4d8f7d5fd9b6c70564", "bike_id": "401ebec3b5dd2b4d8f7d5fd9b6c70564", "fusion_lat": 0.0, "lon": -77.040551, "type": "electric_scooter", "fusion_lon": 0.0, "lat": 38.908727999999996}, {"rental_uris": {"android": "https://dc.lft.to/lastmile_qr_scan", "ios": "https://dc.lft.to/lastmile_qr_scan"}, "is_reserved": 0, "is_disabled": 0, "name": "8de37e1ceb35753bcf4d2569cefe1313", "bike_id": "8de37e1ceb35753bcf4d2569cefe1313", "fusion_lat": 0.0, "lon": -77.0343725, "type": "electric_scooter", "fusion_lon": 0.0, "lat": 38.902688}, {"rental_uris": {"android": "https://dc.lft.to/lastmile_qr_scan", "ios": "https://dc.lft.to/lastmile_qr_scan"}, "is_reserved": 0, "is_disabled": 0, "name": "cb1fbfc84be7a7b250954fbc48a18ac1", "bike_id": "cb1fbfc84be7a7b250954fbc48a18ac1", "fusion_lat": 0.0, "lon": -77.0405425, "type": "electric_scooter", "fusion_lon": 0.0, "lat": 38.903824166666666}, {"rental_uris": {"android": "https://dc.lft.to/lastmile_qr_scan", "ios": "https://dc.lft.to/lastmile_qr_scan"}, "is_reserved": 0, "is_disabled": 0, "name": "38746c3027de2e72055fce2778c87b10", "bike_id": "38746c3027de2e72055fce2778c87b10", "fusion_lat": 0.0, "lon": -77.023815, "type": "electric_scooter", "fusion_lon": 0.0, "lat": 38.95277166666666}, {"rental_uris": {"android": "https://dc.lft.to/lastmile_qr_scan", "ios": "https://dc.lft.to/lastmile_qr_scan"}, "is_reserved": 0, "is_disabled": 0, "name": "6083350bf91cbe7459d16488f330cc44", "bike_id": "6083350bf91cbe7459d16488f330cc44", "fusion_lat": 0.0, "lon": -77.0325875, "type": "electric_scooter", "fusion_lon": 0.0, "lat": 38.93737683333333}, {"rental_uris": {"android": "https://dc.lft.to/lastmile_qr_scan", "ios": "https://dc.lft.to/lastmile_qr_scan"}, "is_reserved": 0, "is_disabled": 0, "name": "f379ef7e8c94568338224110c41384c5", "bike_id": "f379ef7e8c94568338224110c41384c5", "fusion_lat": 0.0, "lon": -77.04314183333334, "type": "electric_scooter", "fusion_lon": 0.0, "lat": 38.918805}, {"rental_uris": {"android": "https://dc.lft.to/lastmile_qr_scan", "ios": "https://dc.lft.to/lastmile_qr_scan"}, "is_reserved": 0, "is_disabled": 0, "name": "77fae86f92170733682bebc6908ab533", "bike_id": "77fae86f92170733682bebc6908ab533", "fusion_lat": 0.0, "lon": -77.003269, "type": "electric_scooter", "fusion_lon": 0.0, "lat": 38.902682666666664}, {"rental_uris": {"android": "https://dc.lft.to/lastmile_qr_scan", "ios": "https://dc.lft.to/lastmile_qr_scan"}, "is_reserved": 0, "is_disabled": 0, "name": "b1a3dbdc04669f8b790b95080967324d", "bike_id": "b1a3dbdc04669f8b790b95080967324d", "fusion_lat": 0.0, "lon": -77.0218195, "type": "electric_scooter", "fusion_lon": 0.0, "lat": 38.90955916666667}, {"rental_uris": {"android": "https://dc.lft.to/lastmile_qr_scan", "ios": "https://dc.lft.to/lastmile_qr_scan"}, "is_reserved": 0, "is_disabled": 0, "name": "e410b70bd59a8a0670eeb1299e708ad3", "bike_id": "e410b70bd59a8a0670eeb1299e708ad3", "fusion_lat": 0.0, "lon": -77.03269266666666, "type": "electric_scooter", "fusion_lon": 0.0, "lat": 38.89898066666667}, {"rental_uris": {"android": "https://dc.lft.to/lastmile_qr_scan", "ios": "https://dc.lft.to/lastmile_qr_scan"}, "is_reserved": 0, "is_disabled": 0, "name": "a8762884633d3a30ee3c6a73b4373ffe", "bike_id": "a8762884633d3a30ee3c6a73b4373ffe", "fusion_lat": 0.0, "lon": -77.030346, "type": "electric_scooter", "fusion_lon": 0.0, "lat": 38.93102833333333}, {"rental_uris": {"android": "https://dc.lft.to/lastmile_qr_scan", "ios": "https://dc.lft.to/lastmile_qr_scan"}, "is_reserved": 0, "is_disabled": 0, "name": "43331c2144939499b320b2d993f5cd13", "bike_id": "43331c2144939499b320b2d993f5cd13", "fusion_lat": 0.0, "lon": -77.04865216666667, "type": "electric_scooter", "fusion_lon": 0.0, "lat": 38.900232333333335}, {"rental_uris": {"android": "https://dc.lft.to/lastmile_qr_scan", "ios": "https://dc.lft.to/lastmile_qr_scan"}, "is_reserved": 0, "is_disabled": 0, "name": "37a40a981875a10d5d8a6491969d1097", "bike_id": "37a40a981875a10d5d8a6491969d1097", "fusion_lat": 0.0, "lon": -77.02603033333334, "type": "electric_scooter", "fusion_lon": 0.0, "lat": 38.90414483333333}, {"rental_uris": {"android": "https://dc.lft.to/lastmile_qr_scan", "ios": "https://dc.lft.to/lastmile_qr_scan"}, "is_reserved": 0, "is_disabled": 0, "name": "d6c65b66a18c19754bccbb7c227029e2", "bike_id": "d6c65b66a18c19754bccbb7c227029e2", "fusion_lat": 0.0, "lon": -76.98644083333333, "type": "electric_bike", "fusion_lon": 0.0, "lat": 38.8321775}, {"rental_uris": {"android": "https://dc.lft.to/lastmile_qr_scan", "ios": "https://dc.lft.to/lastmile_qr_scan"}, "is_reserved": 0, "is_disabled": 0, "name": "d52c6496a8c0cff2190ed00190a32b35", "bike_id": "d52c6496a8c0cff2190ed00190a32b35", "fusion_lat": 0.0, "lon": -77.02548816666666, "type": "electric_scooter", "fusion_lon": 0.0, "lat": 38.892028}, {"rental_uris": {"android": "https://dc.lft.to/lastmile_qr_scan", "ios": "https://dc.lft.to/lastmile_qr_scan"}, "is_reserved": 0, "is_disabled": 0, "name": "c53663bb8b2fa36c3c07198269955f55", "bike_id": "c53663bb8b2fa36c3c07198269955f55", "fusion_lat": 0.0, "lon": -77.00203116666667, "type": "electric_scooter", "fusion_lon": 0.0, "lat": 38.902408333333334}, {"rental_uris": {"android": "https://dc.lft.to/lastmile_qr_scan", "ios": "https://dc.lft.to/lastmile_qr_scan"}, "is_reserved": 0, "is_disabled": 0, "name": "fad5e32d41460328dfd764ee6e845a62", "bike_id": "fad5e32d41460328dfd764ee6e845a62", "fusion_lat": 0.0, "lon": -76.98094983333333, "type": "electric_bike", "fusion_lon": 0.0, "lat": 38.953564666666665}, {"rental_uris": {"android": "https://dc.lft.to/lastmile_qr_scan", "ios": "https://dc.lft.to/lastmile_qr_scan"}, "is_reserved": 0, "is_disabled": 0, "name": "8d6c4723e069994dcb3140901622e298", "bike_id": "8d6c4723e069994dcb3140901622e298", "fusion_lat": 0.0, "lon": -77.01511066666667, "type": "electric_scooter", "fusion_lon": 0.0, "lat": 38.887361}, {"rental_uris": {"android": "https://dc.lft.to/lastmile_qr_scan", "ios": "https://dc.lft.to/lastmile_qr_scan"}, "is_reserved": 0, "is_disabled": 0, "name": "6b729c373247612ff095420176cb9d07", "bike_id": "6b729c373247612ff095420176cb9d07", "fusion_lat": 0.0, "lon": -77.0388585, "type": "electric_scooter", "fusion_lon": 0.0, "lat": 38.91847383333333}, {"rental_uris": {"android": "https://dc.lft.to/lastmile_qr_scan", "ios": "https://dc.lft.to/lastmile_qr_scan"}, "is_reserved": 0, "is_disabled": 0, "name": "f1b1f9cc247d5dfb9ef8963dc4218bde", "bike_id": "f1b1f9cc247d5dfb9ef8963dc4218bde", "fusion_lat": 0.0, "lon": -76.95286666666667, "type": "electric_scooter", "fusion_lon": 0.0, "lat": 38.8903365}, {"rental_uris": {"android": "https://dc.lft.to/lastmile_qr_scan", "ios": "https://dc.lft.to/lastmile_qr_scan"}, "is_reserved": 0, "is_disabled": 0, "name": "d5ea403f90ca72c9529262dbdf74097a", "bike_id": "d5ea403f90ca72c9529262dbdf74097a", "fusion_lat": 0.0, "lon": -77.04656533333333, "type": "electric_scooter", "fusion_lon": 0.0, "lat": 38.89339066666667}, {"rental_uris": {"android": "https://dc.lft.to/lastmile_qr_scan", "ios": "https://dc.lft.to/lastmile_qr_scan"}, "is_reserved": 0, "is_disabled": 0, "name": "8b6a65e67c318cd4fdc3d6843f16202f", "bike_id": "8b6a65e67c318cd4fdc3d6843f16202f", "fusion_lat": 0.0, "lon": -77.021542, "type": "electric_scooter", "fusion_lon": 0.0, "lat": 38.924632}, {"rental_uris": {"android": "https://dc.lft.to/lastmile_qr_scan", "ios": "https://dc.lft.to/lastmile_qr_scan"}, "is_reserved": 0, "is_disabled": 0, "name": "90cf61cc944149cd0c4f2d2afd3f6a0e", "bike_id": "90cf61cc944149cd0c4f2d2afd3f6a0e", "fusion_lat": 0.0, "lon": -77.0194165, "type": "electric_scooter", "fusion_lon": 0.0, "lat": 38.9241725}, {"rental_uris": {"android": "https://dc.lft.to/lastmile_qr_scan", "ios": "https://dc.lft.to/lastmile_qr_scan"}, "is_reserved": 0, "is_disabled": 0, "name": "d297f1f9bd74ccd6acbbb27ecda726c5", "bike_id": "d297f1f9bd74ccd6acbbb27ecda726c5", "fusion_lat": 0.0, "lon": -77.01862766666666, "type": "electric_scooter", "fusion_lon": 0.0, "lat": 38.9492105}, {"rental_uris": {"android": "https://dc.lft.to/lastmile_qr_scan", "ios": "https://dc.lft.to/lastmile_qr_scan"}, "is_reserved": 0, "is_disabled": 0, "name": "2132d086b50feca53cb09fec879688b2", "bike_id": "2132d086b50feca53cb09fec879688b2", "fusion_lat": 0.0, "lon": -77.0358655, "type": "electric_bike", "fusion_lon": 0.0, "lat": 38.99228083333333}, {"rental_uris": {"android": "https://dc.lft.to/lastmile_qr_scan", "ios": "https://dc.lft.to/lastmile_qr_scan"}, "is_reserved": 0, "is_disabled": 0, "name": "a637c6e59209088b183ab041299aec37", "bike_id": "a637c6e59209088b183ab041299aec37", "fusion_lat": 0.0, "lon": -77.013703, "type": "electric_scooter", "fusion_lon": 0.0, "lat": 38.87613983333333}, {"rental_uris": {"android": "https://dc.lft.to/lastmile_qr_scan", "ios": "https://dc.lft.to/lastmile_qr_scan"}, "is_reserved": 0, "is_disabled": 0, "name": "ce1294a72d9ee2da53ff443b949318b1", "bike_id": "ce1294a72d9ee2da53ff443b949318b1", "fusion_lat": 0.0, "lon": -77.00271766666667, "type": "electric_bike", "fusion_lon": 0.0, "lat": 38.838102666666664}, {"rental_uris": {"android": "https://dc.lft.to/lastmile_qr_scan", "ios": "https://dc.lft.to/lastmile_qr_scan"}, "is_reserved": 0, "is_disabled": 0, "name": "959f96f7683cd09b8554877cd176a18d", "bike_id": "959f96f7683cd09b8554877cd176a18d", "fusion_lat": 0.0, "lon": -76.9852925, "type": "electric_scooter", "fusion_lon": 0.0, "lat": 38.900129}, {"rental_uris": {"android": "https://dc.lft.to/lastmile_qr_scan", "ios": "https://dc.lft.to/lastmile_qr_scan"}, "is_reserved": 0, "is_disabled": 0, "name": "24581964e0fdcb9c7f34a5bb9dc4d003", "bike_id": "24581964e0fdcb9c7f34a5bb9dc4d003", "fusion_lat": 0.0, "lon": -77.03456733333333, "type": "electric_scooter", "fusion_lon": 0.0, "lat": 38.92151766666667}, {"rental_uris": {"android": "https://dc.lft.to/lastmile_qr_scan", "ios": "https://dc.lft.to/lastmile_qr_scan"}, "is_reserved": 0, "is_disabled": 0, "name": "d6cc26bee974b724cbd0442c608a92bb", "bike_id": "d6cc26bee974b724cbd0442c608a92bb", "fusion_lat": 0.0, "lon": -76.9631865, "type": "electric_bike", "fusion_lon": 0.0, "lat": 38.939000666666665}, {"rental_uris": {"android": "https://dc.lft.to/lastmile_qr_scan", "ios": "https://dc.lft.to/lastmile_qr_scan"}, "is_reserved": 0, "is_disabled": 0, "name": "a1688af8b463864b7787faadb82c8393", "bike_id": "a1688af8b463864b7787faadb82c8393", "fusion_lat": 0.0, "lon": -77.05916183333333, "type": "electric_scooter", "fusion_lon": 0.0, "lat": 38.9019165}, {"rental_uris": {"android": "https://dc.lft.to/lastmile_qr_scan", "ios": "https://dc.lft.to/lastmile_qr_scan"}, "is_reserved": 0, "is_disabled": 0, "name": "16bc734b34a5d355872f5f76e2facbaf", "bike_id": "16bc734b34a5d355872f5f76e2facbaf", "fusion_lat": 0.0, "lon": -77.03174816666667, "type": "electric_scooter", "fusion_lon": 0.0, "lat": 38.9162015}, {"rental_uris": {"android": "https://dc.lft.to/lastmile_qr_scan", "ios": "https://dc.lft.to/lastmile_qr_scan"}, "is_reserved": 0, "is_disabled": 0, "name": "b00b109160726c3ef2961a68027125bf", "bike_id": "b00b109160726c3ef2961a68027125bf", "fusion_lat": 0.0, "lon": -77.03776416666666, "type": "electric_scooter", "fusion_lon": 0.0, "lat": 38.919991333333336}, {"rental_uris": {"android": "https://dc.lft.to/lastmile_qr_scan", "ios": "https://dc.lft.to/lastmile_qr_scan"}, "is_reserved": 0, "is_disabled": 0, "name": "4298749a07f366aa84bb0de055240af7", "bike_id": "4298749a07f366aa84bb0de055240af7", "fusion_lat": 0.0, "lon": -77.02785516666667, "type": "electric_scooter", "fusion_lon": 0.0, "lat": 38.96163633333333}, {"rental_uris": {"android": "https://dc.lft.to/lastmile_qr_scan", "ios": "https://dc.lft.to/lastmile_qr_scan"}, "is_reserved": 0, "is_disabled": 0, "name": "4f4b243efbc2ecdb211dcdf427523f02", "bike_id": "4f4b243efbc2ecdb211dcdf427523f02", "fusion_lat": 0.0, "lon": -77.00375933333333, "type": "electric_bike", "fusion_lon": 0.0, "lat": 38.83606016666667}, {"rental_uris": {"android": "https://dc.lft.to/lastmile_qr_scan", "ios": "https://dc.lft.to/lastmile_qr_scan"}, "is_reserved": 0, "is_disabled": 0, "name": "373d83bba7c0e88c4fda2197e39e53c1", "bike_id": "373d83bba7c0e88c4fda2197e39e53c1", "fusion_lat": 0.0, "lon": -76.98743216666666, "type": "electric_scooter", "fusion_lon": 0.0, "lat": 38.879634833333334}, {"rental_uris": {"android": "https://dc.lft.to/lastmile_qr_scan", "ios": "https://dc.lft.to/lastmile_qr_scan"}, "is_reserved": 0, "is_disabled": 0, "name": "d05d8048f58b1c106073214afd4650c8", "bike_id": "d05d8048f58b1c106073214afd4650c8", "fusion_lat": 0.0, "lon": -77.02072616666666, "type": "electric_scooter", "fusion_lon": 0.0, "lat": 38.930212}, {"rental_uris": {"android": "https://dc.lft.to/lastmile_qr_scan", "ios": "https://dc.lft.to/lastmile_qr_scan"}, "is_reserved": 0, "is_disabled": 0, "name": "6f212812a2489f1ae9253c1f034130e0", "bike_id": "6f212812a2489f1ae9253c1f034130e0", "fusion_lat": 0.0, "lon": -77.028161, "type": "electric_scooter", "fusion_lon": 0.0, "lat": 38.8994855}, {"rental_uris": {"android": "https://dc.lft.to/lastmile_qr_scan", "ios": "https://dc.lft.to/lastmile_qr_scan"}, "is_reserved": 0, "is_disabled": 0, "name": "92259a112d2f9cdaf3765f56bf2d1cf2", "bike_id": "92259a112d2f9cdaf3765f56bf2d1cf2", "fusion_lat": 0.0, "lon": -77.033278, "type": "electric_scooter", "fusion_lon": 0.0, "lat": 38.90013783333333}, {"rental_uris": {"android": "https://dc.lft.to/lastmile_qr_scan", "ios": "https://dc.lft.to/lastmile_qr_scan"}, "is_reserved": 0, "is_disabled": 0, "name": "24139e6c9409db837eed08e201dda4d9", "bike_id": "24139e6c9409db837eed08e201dda4d9", "fusion_lat": 0.0, "lon": -77.0344055, "type": "electric_scooter", "fusion_lon": 0.0, "lat": 38.918002}, {"rental_uris": {"android": "https://dc.lft.to/lastmile_qr_scan", "ios": "https://dc.lft.to/lastmile_qr_scan"}, "is_reserved": 0, "is_disabled": 0, "name": "f3d9203e4ffad9d1015325d9e058caf9", "bike_id": "f3d9203e4ffad9d1015325d9e058caf9", "fusion_lat": 0.0, "lon": -76.92944866666667, "type": "electric_scooter", "fusion_lon": 0.0, "lat": 38.90348766666666}, {"rental_uris": {"android": "https://dc.lft.to/lastmile_qr_scan", "ios": "https://dc.lft.to/lastmile_qr_scan"}, "is_reserved": 0, "is_disabled": 0, "name": "a37c2a37be1c4f8c379294d8dff6f3de", "bike_id": "a37c2a37be1c4f8c379294d8dff6f3de", "fusion_lat": 0.0, "lon": -77.0346775, "type": "electric_scooter", "fusion_lon": 0.0, "lat": 38.902692}, {"rental_uris": {"android": "https://dc.lft.to/lastmile_qr_scan", "ios": "https://dc.lft.to/lastmile_qr_scan"}, "is_reserved": 0, "is_disabled": 0, "name": "b8bbd5108f8c064ea0b5d949a9d1df57", "bike_id": "b8bbd5108f8c064ea0b5d949a9d1df57", "fusion_lat": 0.0, "lon": -77.04359883333333, "type": "electric_scooter", "fusion_lon": 0.0, "lat": 38.904739}, {"rental_uris": {"android": "https://dc.lft.to/lastmile_qr_scan", "ios": "https://dc.lft.to/lastmile_qr_scan"}, "is_reserved": 0, "is_disabled": 0, "name": "b455166eaa6d3a4797e411b0b0f535a8", "bike_id": "b455166eaa6d3a4797e411b0b0f535a8", "fusion_lat": 0.0, "lon": -77.0218, "type": "electric_scooter", "fusion_lon": 0.0, "lat": 38.892282}, {"rental_uris": {"android": "https://dc.lft.to/lastmile_qr_scan", "ios": "https://dc.lft.to/lastmile_qr_scan"}, "is_reserved": 0, "is_disabled": 0, "name": "2a7a8068c764c88a7e3936f8a5afbcc1", "bike_id": "2a7a8068c764c88a7e3936f8a5afbcc1", "fusion_lat": 0.0, "lon": -76.91806216666667, "type": "electric_bike", "fusion_lon": 0.0, "lat": 39.000032833333336}, {"rental_uris": {"android": "https://dc.lft.to/lastmile_qr_scan", "ios": "https://dc.lft.to/lastmile_qr_scan"}, "is_reserved": 0, "is_disabled": 0, "name": "9dcf87c9ca1511be22378e1c3c94dbfc", "bike_id": "9dcf87c9ca1511be22378e1c3c94dbfc", "fusion_lat": 0.0, "lon": -77.07750083333333, "type": "electric_bike", "fusion_lon": 0.0, "lat": 38.841967333333336}, {"rental_uris": {"android": "https://dc.lft.to/lastmile_qr_scan", "ios": "https://dc.lft.to/lastmile_qr_scan"}, "is_reserved": 0, "is_disabled": 0, "name": "f6374dba3fdcd93fdded0be10575f909", "bike_id": "f6374dba3fdcd93fdded0be10575f909", "fusion_lat": 0.0, "lon": -77.04492366666666, "type": "electric_scooter", "fusion_lon": 0.0, "lat": 38.9016395}, {"rental_uris": {"android": "https://dc.lft.to/lastmile_qr_scan", "ios": "https://dc.lft.to/lastmile_qr_scan"}, "is_reserved": 0, "is_disabled": 0, "name": "cd8cea63204070a8916e1be9d0b0df23", "bike_id": "cd8cea63204070a8916e1be9d0b0df23", "fusion_lat": 0.0, "lon": -76.9608575, "type": "electric_bike", "fusion_lon": 0.0, "lat": 38.9186695}, {"rental_uris": {"android": "https://dc.lft.to/lastmile_qr_scan", "ios": "https://dc.lft.to/lastmile_qr_scan"}, "is_reserved": 0, "is_disabled": 0, "name": "b707d35a4ceb7c1cf6bac3dd8063a6a9", "bike_id": "b707d35a4ceb7c1cf6bac3dd8063a6a9", "fusion_lat": 0.0, "lon": -77.02364266666666, "type": "electric_scooter", "fusion_lon": 0.0, "lat": 38.920676666666665}, {"rental_uris": {"android": "https://dc.lft.to/lastmile_qr_scan", "ios": "https://dc.lft.to/lastmile_qr_scan"}, "is_reserved": 0, "is_disabled": 0, "name": "38851f9ea68120e3a9bcc6e63aaf566f", "bike_id": "38851f9ea68120e3a9bcc6e63aaf566f", "fusion_lat": 0.0, "lon": -77.0476815, "type": "electric_scooter", "fusion_lon": 0.0, "lat": 38.91748666666667}, {"rental_uris": {"android": "https://dc.lft.to/lastmile_qr_scan", "ios": "https://dc.lft.to/lastmile_qr_scan"}, "is_reserved": 0, "is_disabled": 0, "name": "c7bdc80137f38fde5d754faa30240bdb", "bike_id": "c7bdc80137f38fde5d754faa30240bdb", "fusion_lat": 0.0, "lon": -77.03205, "type": "electric_scooter", "fusion_lon": 0.0, "lat": 38.90735816666667}, {"rental_uris": {"android": "https://dc.lft.to/lastmile_qr_scan", "ios": "https://dc.lft.to/lastmile_qr_scan"}, "is_reserved": 0, "is_disabled": 0, "name": "15073ed5eaf7d28b59916d9445f5af4e", "bike_id": "15073ed5eaf7d28b59916d9445f5af4e", "fusion_lat": 0.0, "lon": -77.03465633333333, "type": "electric_scooter", "fusion_lon": 0.0, "lat": 38.905726}, {"rental_uris": {"android": "https://dc.lft.to/lastmile_qr_scan", "ios": "https://dc.lft.to/lastmile_qr_scan"}, "is_reserved": 0, "is_disabled": 0, "name": "a02b5899426db7343524714b555cb51b", "bike_id": "a02b5899426db7343524714b555cb51b", "fusion_lat": 0.0, "lon": -77.03564033333333, "type": "electric_scooter", "fusion_lon": 0.0, "lat": 38.927510166666664}, {"rental_uris": {"android": "https://dc.lft.to/lastmile_qr_scan", "ios": "https://dc.lft.to/lastmile_qr_scan"}, "is_reserved": 0, "is_disabled": 0, "name": "7603ca8ba9a50ae1ed9548c37a354966", "bike_id": "7603ca8ba9a50ae1ed9548c37a354966", "fusion_lat": 0.0, "lon": -77.0255345, "type": "electric_scooter", "fusion_lon": 0.0, "lat": 38.95398133333333}, {"rental_uris": {"android": "https://dc.lft.to/lastmile_qr_scan", "ios": "https://dc.lft.to/lastmile_qr_scan"}, "is_reserved": 0, "is_disabled": 0, "name": "24499a6a803db25276716c6fee233ee0", "bike_id": "24499a6a803db25276716c6fee233ee0", "fusion_lat": 0.0, "lon": -77.05912216666667, "type": "electric_scooter", "fusion_lon": 0.0, "lat": 38.904802333333336}, {"rental_uris": {"android": "https://dc.lft.to/lastmile_qr_scan", "ios": "https://dc.lft.to/lastmile_qr_scan"}, "is_reserved": 0, "is_disabled": 0, "name": "8c8fcc458cea8ac105e5bf204f1a09b5", "bike_id": "8c8fcc458cea8ac105e5bf204f1a09b5", "fusion_lat": 0.0, "lon": -77.0968415, "type": "electric_bike", "fusion_lon": 0.0, "lat": 38.80741066666667}, {"rental_uris": {"android": "https://dc.lft.to/lastmile_qr_scan", "ios": "https://dc.lft.to/lastmile_qr_scan"}, "is_reserved": 0, "is_disabled": 0, "name": "48337f9fa2c6b0f41d66779a3f871e70", "bike_id": "48337f9fa2c6b0f41d66779a3f871e70", "fusion_lat": 0.0, "lon": -76.985129, "type": "electric_scooter", "fusion_lon": 0.0, "lat": 38.900550333333335}, {"rental_uris": {"android": "https://dc.lft.to/lastmile_qr_scan", "ios": "https://dc.lft.to/lastmile_qr_scan"}, "is_reserved": 0, "is_disabled": 0, "name": "ecc53976827b8b9f13b7c9a54fc2e99b", "bike_id": "ecc53976827b8b9f13b7c9a54fc2e99b", "fusion_lat": 0.0, "lon": -77.04353233333333, "type": "electric_scooter", "fusion_lon": 0.0, "lat": 38.91130366666667}, {"rental_uris": {"android": "https://dc.lft.to/lastmile_qr_scan", "ios": "https://dc.lft.to/lastmile_qr_scan"}, "is_reserved": 0, "is_disabled": 0, "name": "717c01312ec9a334a289682e7eee194d", "bike_id": "717c01312ec9a334a289682e7eee194d", "fusion_lat": 0.0, "lon": -77.06173733333334, "type": "electric_scooter", "fusion_lon": 0.0, "lat": 38.941302666666665}, {"rental_uris": {"android": "https://dc.lft.to/lastmile_qr_scan", "ios": "https://dc.lft.to/lastmile_qr_scan"}, "is_reserved": 0, "is_disabled": 0, "name": "8f629e2bb6a045fabec7660a60fe6fa0", "bike_id": "8f629e2bb6a045fabec7660a60fe6fa0", "fusion_lat": 0.0, "lon": -77.03871516666666, "type": "electric_scooter", "fusion_lon": 0.0, "lat": 38.917140333333336}, {"rental_uris": {"android": "https://dc.lft.to/lastmile_qr_scan", "ios": "https://dc.lft.to/lastmile_qr_scan"}, "is_reserved": 0, "is_disabled": 0, "name": "1c21853475bf744ccd431d93f9940237", "bike_id": "1c21853475bf744ccd431d93f9940237", "fusion_lat": 0.0, "lon": -77.04382283333334, "type": "electric_scooter", "fusion_lon": 0.0, "lat": 38.9206185}, {"rental_uris": {"android": "https://dc.lft.to/lastmile_qr_scan", "ios": "https://dc.lft.to/lastmile_qr_scan"}, "is_reserved": 0, "is_disabled": 0, "name": "4b136de7fc361d9313374d56c3140935", "bike_id": "4b136de7fc361d9313374d56c3140935", "fusion_lat": 0.0, "lon": -76.94875466666667, "type": "electric_scooter", "fusion_lon": 0.0, "lat": 38.89500983333333}, {"rental_uris": {"android": "https://dc.lft.to/lastmile_qr_scan", "ios": "https://dc.lft.to/lastmile_qr_scan"}, "is_reserved": 0, "is_disabled": 0, "name": "14062ca3f4da1f226920598c4451b4cc", "bike_id": "14062ca3f4da1f226920598c4451b4cc", "fusion_lat": 0.0, "lon": -77.03676216666666, "type": "electric_scooter", "fusion_lon": 0.0, "lat": 38.906994166666664}, {"rental_uris": {"android": "https://dc.lft.to/lastmile_qr_scan", "ios": "https://dc.lft.to/lastmile_qr_scan"}, "is_reserved": 0, "is_disabled": 0, "name": "7413e7ef41d049b7578e29edd7ea563e", "bike_id": "7413e7ef41d049b7578e29edd7ea563e", "fusion_lat": 0.0, "lon": -77.0194595, "type": "electric_scooter", "fusion_lon": 0.0, "lat": 38.9244805}, {"rental_uris": {"android": "https://dc.lft.to/lastmile_qr_scan", "ios": "https://dc.lft.to/lastmile_qr_scan"}, "is_reserved": 0, "is_disabled": 0, "name": "28bf5295e396c2b634006c80f29c8d73", "bike_id": "28bf5295e396c2b634006c80f29c8d73", "fusion_lat": 0.0, "lon": -77.0468715, "type": "electric_scooter", "fusion_lon": 0.0, "lat": 38.892228}, {"rental_uris": {"android": "https://dc.lft.to/lastmile_qr_scan", "ios": "https://dc.lft.to/lastmile_qr_scan"}, "is_reserved": 0, "is_disabled": 0, "name": "d19e58d2cc56a8dcc2410e3020168ff9", "bike_id": "d19e58d2cc56a8dcc2410e3020168ff9", "fusion_lat": 0.0, "lon": -77.04367516666667, "type": "electric_scooter", "fusion_lon": 0.0, "lat": 38.92242816666667}, {"rental_uris": {"android": "https://dc.lft.to/lastmile_qr_scan", "ios": "https://dc.lft.to/lastmile_qr_scan"}, "is_reserved": 0, "is_disabled": 0, "name": "36a628b694b3a7f246ba070c84919713", "bike_id": "36a628b694b3a7f246ba070c84919713", "fusion_lat": 0.0, "lon": -77.00889833333333, "type": "electric_scooter", "fusion_lon": 0.0, "lat": 38.92467583333333}, {"rental_uris": {"android": "https://dc.lft.to/lastmile_qr_scan", "ios": "https://dc.lft.to/lastmile_qr_scan"}, "is_reserved": 0, "is_disabled": 0, "name": "405655047aaab9d34af06a3f15a9ec0f", "bike_id": "405655047aaab9d34af06a3f15a9ec0f", "fusion_lat": 0.0, "lon": -77.03190966666666, "type": "electric_scooter", "fusion_lon": 0.0, "lat": 38.910248}, {"rental_uris": {"android": "https://dc.lft.to/lastmile_qr_scan", "ios": "https://dc.lft.to/lastmile_qr_scan"}, "is_reserved": 0, "is_disabled": 0, "name": "2592afd8e4f432a3e13af5eadee8f6b9", "bike_id": "2592afd8e4f432a3e13af5eadee8f6b9", "fusion_lat": 0.0, "lon": -77.0296895, "type": "electric_scooter", "fusion_lon": 0.0, "lat": 38.907169}, {"rental_uris": {"android": "https://dc.lft.to/lastmile_qr_scan", "ios": "https://dc.lft.to/lastmile_qr_scan"}, "is_reserved": 0, "is_disabled": 0, "name": "2635e050c700120106311a3809e00618", "bike_id": "2635e050c700120106311a3809e00618", "fusion_lat": 0.0, "lon": -77.03499016666666, "type": "electric_scooter", "fusion_lon": 0.0, "lat": 38.918792}, {"rental_uris": {"android": "https://dc.lft.to/lastmile_qr_scan", "ios": "https://dc.lft.to/lastmile_qr_scan"}, "is_reserved": 0, "is_disabled": 0, "name": "4aa6c3f585cc83203acfde15a5686566", "bike_id": "4aa6c3f585cc83203acfde15a5686566", "fusion_lat": 0.0, "lon": -77.23387216666667, "type": "electric_bike", "fusion_lon": 0.0, "lat": 38.87173383333333}, {"rental_uris": {"android": "https://dc.lft.to/lastmile_qr_scan", "ios": "https://dc.lft.to/lastmile_qr_scan"}, "is_reserved": 0, "is_disabled": 0, "name": "bc8df04fb32104095c8462416d35d4bb", "bike_id": "bc8df04fb32104095c8462416d35d4bb", "fusion_lat": 0.0, "lon": -77.01514383333334, "type": "electric_scooter", "fusion_lon": 0.0, "lat": 38.8728725}, {"rental_uris": {"android": "https://dc.lft.to/lastmile_qr_scan", "ios": "https://dc.lft.to/lastmile_qr_scan"}, "is_reserved": 0, "is_disabled": 0, "name": "9b4552675188b600b9ab4419a43293fa", "bike_id": "9b4552675188b600b9ab4419a43293fa", "fusion_lat": 0.0, "lon": -77.03752766666666, "type": "electric_scooter", "fusion_lon": 0.0, "lat": 38.91268183333333}, {"rental_uris": {"android": "https://dc.lft.to/lastmile_qr_scan", "ios": "https://dc.lft.to/lastmile_qr_scan"}, "is_reserved": 0, "is_disabled": 0, "name": "7b7bd5159972ef426a3cde610d2d6df9", "bike_id": "7b7bd5159972ef426a3cde610d2d6df9", "fusion_lat": 0.0, "lon": -77.0209695, "type": "electric_scooter", "fusion_lon": 0.0, "lat": 38.921280333333335}, {"rental_uris": {"android": "https://dc.lft.to/lastmile_qr_scan", "ios": "https://dc.lft.to/lastmile_qr_scan"}, "is_reserved": 0, "is_disabled": 0, "name": "93e8617db84bdd50466fbb2b3ce170f0", "bike_id": "93e8617db84bdd50466fbb2b3ce170f0", "fusion_lat": 0.0, "lon": -77.03632383333333, "type": "electric_bike", "fusion_lon": 0.0, "lat": 38.9274715}, {"rental_uris": {"android": "https://dc.lft.to/lastmile_qr_scan", "ios": "https://dc.lft.to/lastmile_qr_scan"}, "is_reserved": 0, "is_disabled": 0, "name": "d0e786dec40e8384e04ec5d0b39007f6", "bike_id": "d0e786dec40e8384e04ec5d0b39007f6", "fusion_lat": 0.0, "lon": -77.2317545, "type": "electric_bike", "fusion_lon": 0.0, "lat": 38.92897283333333}, {"rental_uris": {"android": "https://dc.lft.to/lastmile_qr_scan", "ios": "https://dc.lft.to/lastmile_qr_scan"}, "is_reserved": 0, "is_disabled": 0, "name": "aac0f4f6000c6fe7d62125d2b3f8741d", "bike_id": "aac0f4f6000c6fe7d62125d2b3f8741d", "fusion_lat": 0.0, "lon": -77.03546366666667, "type": "electric_scooter", "fusion_lon": 0.0, "lat": 38.918297}, {"rental_uris": {"android": "https://dc.lft.to/lastmile_qr_scan", "ios": "https://dc.lft.to/lastmile_qr_scan"}, "is_reserved": 0, "is_disabled": 0, "name": "2b921dc23c8730777229b7398afd2928", "bike_id": "2b921dc23c8730777229b7398afd2928", "fusion_lat": 0.0, "lon": -77.07351733333333, "type": "electric_scooter", "fusion_lon": 0.0, "lat": 38.91019133333333}, {"rental_uris": {"android": "https://dc.lft.to/lastmile_qr_scan", "ios": "https://dc.lft.to/lastmile_qr_scan"}, "is_reserved": 0, "is_disabled": 0, "name": "56e446c7be397fac3676734acb27b639", "bike_id": "56e446c7be397fac3676734acb27b639", "fusion_lat": 0.0, "lon": -77.03849283333334, "type": "electric_scooter", "fusion_lon": 0.0, "lat": 38.92169083333334}, {"rental_uris": {"android": "https://dc.lft.to/lastmile_qr_scan", "ios": "https://dc.lft.to/lastmile_qr_scan"}, "is_reserved": 0, "is_disabled": 0, "name": "85e8e7c69a12382142b9b6cdaf6279c1", "bike_id": "85e8e7c69a12382142b9b6cdaf6279c1", "fusion_lat": 0.0, "lon": -77.01450966666667, "type": "electric_scooter", "fusion_lon": 0.0, "lat": 38.958194166666665}, {"rental_uris": {"android": "https://dc.lft.to/lastmile_qr_scan", "ios": "https://dc.lft.to/lastmile_qr_scan"}, "is_reserved": 0, "is_disabled": 0, "name": "cd1747329295d31084d020d179cbc49b", "bike_id": "cd1747329295d31084d020d179cbc49b", "fusion_lat": 0.0, "lon": -77.00653883333334, "type": "electric_scooter", "fusion_lon": 0.0, "lat": 38.909845833333335}, {"rental_uris": {"android": "https://dc.lft.to/lastmile_qr_scan", "ios": "https://dc.lft.to/lastmile_qr_scan"}, "is_reserved": 0, "is_disabled": 0, "name": "3fd1428d97c3c2a46425d01017f3bdb0", "bike_id": "3fd1428d97c3c2a46425d01017f3bdb0", "fusion_lat": 0.0, "lon": -77.019443, "type": "electric_scooter", "fusion_lon": 0.0, "lat": 38.9233425}, {"rental_uris": {"android": "https://dc.lft.to/lastmile_qr_scan", "ios": "https://dc.lft.to/lastmile_qr_scan"}, "is_reserved": 0, "is_disabled": 0, "name": "52dcf87811944518f06e52b1a1a240cc", "bike_id": "52dcf87811944518f06e52b1a1a240cc", "fusion_lat": 0.0, "lon": -77.10291766666667, "type": "electric_bike", "fusion_lon": 0.0, "lat": 38.85254883333333}, {"rental_uris": {"android": "https://dc.lft.to/lastmile_qr_scan", "ios": "https://dc.lft.to/lastmile_qr_scan"}, "is_reserved": 0, "is_disabled": 0, "name": "d08a2dad72f49218e8732795117e426b", "bike_id": "d08a2dad72f49218e8732795117e426b", "fusion_lat": 0.0, "lon": -77.021792, "type": "electric_scooter", "fusion_lon": 0.0, "lat": 38.892286666666664}, {"rental_uris": {"android": "https://dc.lft.to/lastmile_qr_scan", "ios": "https://dc.lft.to/lastmile_qr_scan"}, "is_reserved": 0, "is_disabled": 0, "name": "aecb38fd41afccc4077c57c09aa02b1d", "bike_id": "aecb38fd41afccc4077c57c09aa02b1d", "fusion_lat": 0.0, "lon": -77.03657233333334, "type": "electric_bike", "fusion_lon": 0.0, "lat": 38.93633033333333}, {"rental_uris": {"android": "https://dc.lft.to/lastmile_qr_scan", "ios": "https://dc.lft.to/lastmile_qr_scan"}, "is_reserved": 0, "is_disabled": 0, "name": "e93ac8cef4ad9eb60479b1907b76baee", "bike_id": "e93ac8cef4ad9eb60479b1907b76baee", "fusion_lat": 0.0, "lon": -77.02399733333333, "type": "electric_scooter", "fusion_lon": 0.0, "lat": 38.92098383333333}, {"rental_uris": {"android": "https://dc.lft.to/lastmile_qr_scan", "ios": "https://dc.lft.to/lastmile_qr_scan"}, "is_reserved": 0, "is_disabled": 0, "name": "b5fe1c7c882e03cb7e34391d20823169", "bike_id": "b5fe1c7c882e03cb7e34391d20823169", "fusion_lat": 0.0, "lon": -77.07910983333333, "type": "electric_bike", "fusion_lon": 0.0, "lat": 38.83833416666667}, {"rental_uris": {"android": "https://dc.lft.to/lastmile_qr_scan", "ios": "https://dc.lft.to/lastmile_qr_scan"}, "is_reserved": 0, "is_disabled": 0, "name": "c9dfdd869284b3b876f0608233dfa0b5", "bike_id": "c9dfdd869284b3b876f0608233dfa0b5", "fusion_lat": 0.0, "lon": -76.9335905, "type": "electric_scooter", "fusion_lon": 0.0, "lat": 38.89835583333333}, {"rental_uris": {"android": "https://dc.lft.to/lastmile_qr_scan", "ios": "https://dc.lft.to/lastmile_qr_scan"}, "is_reserved": 0, "is_disabled": 0, "name": "2abef267ead6ac647ba8d8e4d8f9f88c", "bike_id": "2abef267ead6ac647ba8d8e4d8f9f88c", "fusion_lat": 0.0, "lon": -77.02636633333333, "type": "electric_scooter", "fusion_lon": 0.0, "lat": 38.92922633333333}, {"rental_uris": {"android": "https://dc.lft.to/lastmile_qr_scan", "ios": "https://dc.lft.to/lastmile_qr_scan"}, "is_reserved": 0, "is_disabled": 0, "name": "cadbc266c25f69fa12cd476f1854743b", "bike_id": "cadbc266c25f69fa12cd476f1854743b", "fusion_lat": 0.0, "lon": -77.00063233333333, "type": "electric_bike", "fusion_lon": 0.0, "lat": 38.91908566666667}, {"rental_uris": {"android": "https://dc.lft.to/lastmile_qr_scan", "ios": "https://dc.lft.to/lastmile_qr_scan"}, "is_reserved": 0, "is_disabled": 0, "name": "fda4a2ac7a9387c83d406576fedc1417", "bike_id": "fda4a2ac7a9387c83d406576fedc1417", "fusion_lat": 0.0, "lon": -77.03352383333333, "type": "electric_scooter", "fusion_lon": 0.0, "lat": 38.93588066666667}, {"rental_uris": {"android": "https://dc.lft.to/lastmile_qr_scan", "ios": "https://dc.lft.to/lastmile_qr_scan"}, "is_reserved": 0, "is_disabled": 0, "name": "cd90e635c57742ff455012ad772147d0", "bike_id": "cd90e635c57742ff455012ad772147d0", "fusion_lat": 0.0, "lon": -77.03726016666667, "type": "electric_scooter", "fusion_lon": 0.0, "lat": 38.9170815}, {"rental_uris": {"android": "https://dc.lft.to/lastmile_qr_scan", "ios": "https://dc.lft.to/lastmile_qr_scan"}, "is_reserved": 0, "is_disabled": 0, "name": "0aa8b21196c1311b3c29cdbdaec11c86", "bike_id": "0aa8b21196c1311b3c29cdbdaec11c86", "fusion_lat": 0.0, "lon": -77.03781333333333, "type": "electric_scooter", "fusion_lon": 0.0, "lat": 38.925646}, {"rental_uris": {"android": "https://dc.lft.to/lastmile_qr_scan", "ios": "https://dc.lft.to/lastmile_qr_scan"}, "is_reserved": 0, "is_disabled": 0, "name": "2687b49eeabd85c7ecca15c27d585f08", "bike_id": "2687b49eeabd85c7ecca15c27d585f08", "fusion_lat": 0.0, "lon": -77.04421583333334, "type": "electric_scooter", "fusion_lon": 0.0, "lat": 38.89594666666667}, {"rental_uris": {"android": "https://dc.lft.to/lastmile_qr_scan", "ios": "https://dc.lft.to/lastmile_qr_scan"}, "is_reserved": 0, "is_disabled": 0, "name": "99495580d249c5fda3a04ba9f7214708", "bike_id": "99495580d249c5fda3a04ba9f7214708", "fusion_lat": 0.0, "lon": -77.03628533333334, "type": "electric_scooter", "fusion_lon": 0.0, "lat": 38.93679783333333}, {"rental_uris": {"android": "https://dc.lft.to/lastmile_qr_scan", "ios": "https://dc.lft.to/lastmile_qr_scan"}, "is_reserved": 0, "is_disabled": 0, "name": "d96cd57822bed92681ca16d612c1ba83", "bike_id": "d96cd57822bed92681ca16d612c1ba83", "fusion_lat": 0.0, "lon": -77.00020766666667, "type": "electric_scooter", "fusion_lon": 0.0, "lat": 38.91984016666667}, {"rental_uris": {"android": "https://dc.lft.to/lastmile_qr_scan", "ios": "https://dc.lft.to/lastmile_qr_scan"}, "is_reserved": 0, "is_disabled": 0, "name": "0d659abb2909c88fef6da94e438bf19d", "bike_id": "0d659abb2909c88fef6da94e438bf19d", "fusion_lat": 0.0, "lon": -77.03804416666667, "type": "electric_scooter", "fusion_lon": 0.0, "lat": 38.90668633333333}, {"rental_uris": {"android": "https://dc.lft.to/lastmile_qr_scan", "ios": "https://dc.lft.to/lastmile_qr_scan"}, "is_reserved": 0, "is_disabled": 0, "name": "754956f7e709f0c40ff369b238d5bd7c", "bike_id": "754956f7e709f0c40ff369b238d5bd7c", "fusion_lat": 0.0, "lon": -77.02408116666666, "type": "electric_scooter", "fusion_lon": 0.0, "lat": 38.9098075}, {"rental_uris": {"android": "https://dc.lft.to/lastmile_qr_scan", "ios": "https://dc.lft.to/lastmile_qr_scan"}, "is_reserved": 0, "is_disabled": 0, "name": "c15a58032c88606eec22cde2c7029ee9", "bike_id": "c15a58032c88606eec22cde2c7029ee9", "fusion_lat": 0.0, "lon": -77.03182866666667, "type": "electric_scooter", "fusion_lon": 0.0, "lat": 38.91011066666667}, {"rental_uris": {"android": "https://dc.lft.to/lastmile_qr_scan", "ios": "https://dc.lft.to/lastmile_qr_scan"}, "is_reserved": 0, "is_disabled": 0, "name": "e6a52fd36251e33d0300f22e469e508e", "bike_id": "e6a52fd36251e33d0300f22e469e508e", "fusion_lat": 0.0, "lon": -77.02447333333333, "type": "electric_scooter", "fusion_lon": 0.0, "lat": 38.94980783333333}, {"rental_uris": {"android": "https://dc.lft.to/lastmile_qr_scan", "ios": "https://dc.lft.to/lastmile_qr_scan"}, "is_reserved": 0, "is_disabled": 0, "name": "80b6d83b62cfff5f4bd4dd494c8d29cd", "bike_id": "80b6d83b62cfff5f4bd4dd494c8d29cd", "fusion_lat": 0.0, "lon": -77.06951, "type": "electric_bike", "fusion_lon": 0.0, "lat": 38.83630866666667}, {"rental_uris": {"android": "https://dc.lft.to/lastmile_qr_scan", "ios": "https://dc.lft.to/lastmile_qr_scan"}, "is_reserved": 0, "is_disabled": 0, "name": "3ecf12ad651e915dcb033fe3efb9a595", "bike_id": "3ecf12ad651e915dcb033fe3efb9a595", "fusion_lat": 0.0, "lon": -77.05815716666666, "type": "electric_scooter", "fusion_lon": 0.0, "lat": 38.93531333333333}, {"rental_uris": {"android": "https://dc.lft.to/lastmile_qr_scan", "ios": "https://dc.lft.to/lastmile_qr_scan"}, "is_reserved": 0, "is_disabled": 0, "name": "a8ffdf7f5f1958d64e71f7f0eb9f6d07", "bike_id": "a8ffdf7f5f1958d64e71f7f0eb9f6d07", "fusion_lat": 0.0, "lon": -77.03535316666667, "type": "electric_scooter", "fusion_lon": 0.0, "lat": 38.91701783333333}, {"rental_uris": {"android": "https://dc.lft.to/lastmile_qr_scan", "ios": "https://dc.lft.to/lastmile_qr_scan"}, "is_reserved": 0, "is_disabled": 0, "name": "00dc7c59d8e9a68736c97918a41af136", "bike_id": "00dc7c59d8e9a68736c97918a41af136", "fusion_lat": 0.0, "lon": -76.97333333333333, "type": "electric_scooter", "fusion_lon": 0.0, "lat": 38.90413183333333}, {"rental_uris": {"android": "https://dc.lft.to/lastmile_qr_scan", "ios": "https://dc.lft.to/lastmile_qr_scan"}, "is_reserved": 0, "is_disabled": 0, "name": "0f4a4f51fe34794f5a590978f6c1cda4", "bike_id": "0f4a4f51fe34794f5a590978f6c1cda4", "fusion_lat": 0.0, "lon": -77.008389, "type": "electric_scooter", "fusion_lon": 0.0, "lat": 38.876404666666666}, {"rental_uris": {"android": "https://dc.lft.to/lastmile_qr_scan", "ios": "https://dc.lft.to/lastmile_qr_scan"}, "is_reserved": 0, "is_disabled": 0, "name": "01beae545c4ed181dd77da376b1222c6", "bike_id": "01beae545c4ed181dd77da376b1222c6", "fusion_lat": 0.0, "lon": -77.06531216666667, "type": "electric_bike", "fusion_lon": 0.0, "lat": 38.992326}, {"rental_uris": {"android": "https://dc.lft.to/lastmile_qr_scan", "ios": "https://dc.lft.to/lastmile_qr_scan"}, "is_reserved": 0, "is_disabled": 0, "name": "df20839645845ea5aef5f29f69322185", "bike_id": "df20839645845ea5aef5f29f69322185", "fusion_lat": 0.0, "lon": -77.0465705, "type": "electric_scooter", "fusion_lon": 0.0, "lat": 38.90950216666667}, {"rental_uris": {"android": "https://dc.lft.to/lastmile_qr_scan", "ios": "https://dc.lft.to/lastmile_qr_scan"}, "is_reserved": 0, "is_disabled": 0, "name": "076316ad360dfc1c748817387bf5ffe0", "bike_id": "076316ad360dfc1c748817387bf5ffe0", "fusion_lat": 0.0, "lon": -77.02655316666667, "type": "electric_scooter", "fusion_lon": 0.0, "lat": 38.9238705}, {"rental_uris": {"android": "https://dc.lft.to/lastmile_qr_scan", "ios": "https://dc.lft.to/lastmile_qr_scan"}, "is_reserved": 0, "is_disabled": 0, "name": "14a0999041eb9a791713709a29411ce6", "bike_id": "14a0999041eb9a791713709a29411ce6", "fusion_lat": 0.0, "lon": -77.01475016666667, "type": "electric_bike", "fusion_lon": 0.0, "lat": 38.918233}, {"rental_uris": {"android": "https://dc.lft.to/lastmile_qr_scan", "ios": "https://dc.lft.to/lastmile_qr_scan"}, "is_reserved": 0, "is_disabled": 0, "name": "1cc7cfea454bbe58122435b1fa01a210", "bike_id": "1cc7cfea454bbe58122435b1fa01a210", "fusion_lat": 0.0, "lon": -77.01221033333333, "type": "electric_scooter", "fusion_lon": 0.0, "lat": 38.914045}, {"rental_uris": {"android": "https://dc.lft.to/lastmile_qr_scan", "ios": "https://dc.lft.to/lastmile_qr_scan"}, "is_reserved": 0, "is_disabled": 0, "name": "51527146317bc498b20bf90554abfd59", "bike_id": "51527146317bc498b20bf90554abfd59", "fusion_lat": 0.0, "lon": -77.0082845, "type": "electric_scooter", "fusion_lon": 0.0, "lat": 38.8765295}, {"rental_uris": {"android": "https://dc.lft.to/lastmile_qr_scan", "ios": "https://dc.lft.to/lastmile_qr_scan"}, "is_reserved": 0, "is_disabled": 0, "name": "39ba8aad6595242361bd84c7ae5078ad", "bike_id": "39ba8aad6595242361bd84c7ae5078ad", "fusion_lat": 0.0, "lon": -77.0401025, "type": "electric_scooter", "fusion_lon": 0.0, "lat": 38.918101}, {"rental_uris": {"android": "https://dc.lft.to/lastmile_qr_scan", "ios": "https://dc.lft.to/lastmile_qr_scan"}, "is_reserved": 0, "is_disabled": 0, "name": "04da535bfd41028889e664169913e0e5", "bike_id": "04da535bfd41028889e664169913e0e5", "fusion_lat": 0.0, "lon": -76.93223233333333, "type": "electric_scooter", "fusion_lon": 0.0, "lat": 38.88055583333333}, {"rental_uris": {"android": "https://dc.lft.to/lastmile_qr_scan", "ios": "https://dc.lft.to/lastmile_qr_scan"}, "is_reserved": 0, "is_disabled": 0, "name": "3c7bfaf1ea94a87b9c10f0060c9e4b54", "bike_id": "3c7bfaf1ea94a87b9c10f0060c9e4b54", "fusion_lat": 0.0, "lon": -77.01222166666666, "type": "electric_scooter", "fusion_lon": 0.0, "lat": 38.900965166666666}, {"rental_uris": {"android": "https://dc.lft.to/lastmile_qr_scan", "ios": "https://dc.lft.to/lastmile_qr_scan"}, "is_reserved": 0, "is_disabled": 0, "name": "a9e0959274376ca6d28b2126ab6b6709", "bike_id": "a9e0959274376ca6d28b2126ab6b6709", "fusion_lat": 0.0, "lon": -77.01655616666666, "type": "electric_bike", "fusion_lon": 0.0, "lat": 38.95358316666667}, {"rental_uris": {"android": "https://dc.lft.to/lastmile_qr_scan", "ios": "https://dc.lft.to/lastmile_qr_scan"}, "is_reserved": 0, "is_disabled": 0, "name": "d4853ddf9c311367ee7d819a24f3101c", "bike_id": "d4853ddf9c311367ee7d819a24f3101c", "fusion_lat": 0.0, "lon": -76.98238433333333, "type": "electric_scooter", "fusion_lon": 0.0, "lat": 38.9089115}, {"rental_uris": {"android": "https://dc.lft.to/lastmile_qr_scan", "ios": "https://dc.lft.to/lastmile_qr_scan"}, "is_reserved": 0, "is_disabled": 0, "name": "876e56973cc05cf86ba2cd5e478c0682", "bike_id": "876e56973cc05cf86ba2cd5e478c0682", "fusion_lat": 0.0, "lon": -77.03448966666667, "type": "electric_scooter", "fusion_lon": 0.0, "lat": 38.90741416666667}, {"rental_uris": {"android": "https://dc.lft.to/lastmile_qr_scan", "ios": "https://dc.lft.to/lastmile_qr_scan"}, "is_reserved": 0, "is_disabled": 0, "name": "83bd34055eb2f55265a63c78ad760990", "bike_id": "83bd34055eb2f55265a63c78ad760990", "fusion_lat": 0.0, "lon": -77.025382, "type": "electric_scooter", "fusion_lon": 0.0, "lat": 38.89967766666667}, {"rental_uris": {"android": "https://dc.lft.to/lastmile_qr_scan", "ios": "https://dc.lft.to/lastmile_qr_scan"}, "is_reserved": 0, "is_disabled": 0, "name": "6249b956b27f57938539d2560c1b82fd", "bike_id": "6249b956b27f57938539d2560c1b82fd", "fusion_lat": 0.0, "lon": -77.0326705, "type": "electric_scooter", "fusion_lon": 0.0, "lat": 38.93691833333333}, {"rental_uris": {"android": "https://dc.lft.to/lastmile_qr_scan", "ios": "https://dc.lft.to/lastmile_qr_scan"}, "is_reserved": 0, "is_disabled": 0, "name": "348fc124a305c2d81535788004ca629f", "bike_id": "348fc124a305c2d81535788004ca629f", "fusion_lat": 0.0, "lon": -77.07667533333333, "type": "electric_bike", "fusion_lon": 0.0, "lat": 38.864749833333335}, {"rental_uris": {"android": "https://dc.lft.to/lastmile_qr_scan", "ios": "https://dc.lft.to/lastmile_qr_scan"}, "is_reserved": 0, "is_disabled": 0, "name": "d007933c07a98be6389bc0f4e4c63041", "bike_id": "d007933c07a98be6389bc0f4e4c63041", "fusion_lat": 0.0, "lon": -77.04013066666667, "type": "electric_scooter", "fusion_lon": 0.0, "lat": 38.918455}, {"rental_uris": {"android": "https://dc.lft.to/lastmile_qr_scan", "ios": "https://dc.lft.to/lastmile_qr_scan"}, "is_reserved": 0, "is_disabled": 0, "name": "43f02cb1f190cdb077a1c1a5d948c5bd", "bike_id": "43f02cb1f190cdb077a1c1a5d948c5bd", "fusion_lat": 0.0, "lon": -77.03361166666667, "type": "electric_scooter", "fusion_lon": 0.0, "lat": 38.93585233333334}, {"rental_uris": {"android": "https://dc.lft.to/lastmile_qr_scan", "ios": "https://dc.lft.to/lastmile_qr_scan"}, "is_reserved": 0, "is_disabled": 0, "name": "f6df15d10c5b209ef4ff8aafd09a5ce5", "bike_id": "f6df15d10c5b209ef4ff8aafd09a5ce5", "fusion_lat": 0.0, "lon": -77.067994, "type": "electric_scooter", "fusion_lon": 0.0, "lat": 38.9156485}, {"rental_uris": {"android": "https://dc.lft.to/lastmile_qr_scan", "ios": "https://dc.lft.to/lastmile_qr_scan"}, "is_reserved": 0, "is_disabled": 0, "name": "0c4f9dc6bcab0175aba5c12839439c1f", "bike_id": "0c4f9dc6bcab0175aba5c12839439c1f", "fusion_lat": 0.0, "lon": -77.02126766666666, "type": "electric_scooter", "fusion_lon": 0.0, "lat": 38.8995285}, {"rental_uris": {"android": "https://dc.lft.to/lastmile_qr_scan", "ios": "https://dc.lft.to/lastmile_qr_scan"}, "is_reserved": 0, "is_disabled": 0, "name": "701fca06968610460dab5e547f4f2f90", "bike_id": "701fca06968610460dab5e547f4f2f90", "fusion_lat": 0.0, "lon": -77.0206135, "type": "electric_scooter", "fusion_lon": 0.0, "lat": 38.87562883333333}, {"rental_uris": {"android": "https://dc.lft.to/lastmile_qr_scan", "ios": "https://dc.lft.to/lastmile_qr_scan"}, "is_reserved": 0, "is_disabled": 0, "name": "818b9735c1f1148bd68db278f11f0a72", "bike_id": "818b9735c1f1148bd68db278f11f0a72", "fusion_lat": 0.0, "lon": -77.08526183333333, "type": "electric_bike", "fusion_lon": 0.0, "lat": 38.856542833333336}, {"rental_uris": {"android": "https://dc.lft.to/lastmile_qr_scan", "ios": "https://dc.lft.to/lastmile_qr_scan"}, "is_reserved": 0, "is_disabled": 0, "name": "d86458778869e7bd73f5ec9428f0badf", "bike_id": "d86458778869e7bd73f5ec9428f0badf", "fusion_lat": 0.0, "lon": -76.986019, "type": "electric_scooter", "fusion_lon": 0.0, "lat": 38.90860216666667}, {"rental_uris": {"android": "https://dc.lft.to/lastmile_qr_scan", "ios": "https://dc.lft.to/lastmile_qr_scan"}, "is_reserved": 0, "is_disabled": 0, "name": "5a0b190d43c96cb797e0fa54e03a7e77", "bike_id": "5a0b190d43c96cb797e0fa54e03a7e77", "fusion_lat": 0.0, "lon": -77.03460816666667, "type": "electric_scooter", "fusion_lon": 0.0, "lat": 38.917006}, {"rental_uris": {"android": "https://dc.lft.to/lastmile_qr_scan", "ios": "https://dc.lft.to/lastmile_qr_scan"}, "is_reserved": 0, "is_disabled": 0, "name": "fe720308221291b7ebbdf3d7a37e619c", "bike_id": "fe720308221291b7ebbdf3d7a37e619c", "fusion_lat": 0.0, "lon": -76.944551, "type": "electric_scooter", "fusion_lon": 0.0, "lat": 38.890663833333335}, {"rental_uris": {"android": "https://dc.lft.to/lastmile_qr_scan", "ios": "https://dc.lft.to/lastmile_qr_scan"}, "is_reserved": 0, "is_disabled": 0, "name": "8dc01beb9a712d0acf6ed1330f5f15ea", "bike_id": "8dc01beb9a712d0acf6ed1330f5f15ea", "fusion_lat": 0.0, "lon": -77.04941616666666, "type": "electric_scooter", "fusion_lon": 0.0, "lat": 38.900841666666665}, {"rental_uris": {"android": "https://dc.lft.to/lastmile_qr_scan", "ios": "https://dc.lft.to/lastmile_qr_scan"}, "is_reserved": 0, "is_disabled": 0, "name": "4c8064893a74a52269321b1b5f99914d", "bike_id": "4c8064893a74a52269321b1b5f99914d", "fusion_lat": 0.0, "lon": -77.03371266666667, "type": "electric_scooter", "fusion_lon": 0.0, "lat": 38.90254766666666}, {"rental_uris": {"android": "https://dc.lft.to/lastmile_qr_scan", "ios": "https://dc.lft.to/lastmile_qr_scan"}, "is_reserved": 0, "is_disabled": 0, "name": "2f8b5ec9c51b3a8d7e1858d9cd89be08", "bike_id": "2f8b5ec9c51b3a8d7e1858d9cd89be08", "fusion_lat": 0.0, "lon": -77.04533233333333, "type": "electric_scooter", "fusion_lon": 0.0, "lat": 38.90550483333333}, {"rental_uris": {"android": "https://dc.lft.to/lastmile_qr_scan", "ios": "https://dc.lft.to/lastmile_qr_scan"}, "is_reserved": 0, "is_disabled": 0, "name": "5ecb0a860f900e54a84b7f985c0d4df3", "bike_id": "5ecb0a860f900e54a84b7f985c0d4df3", "fusion_lat": 0.0, "lon": -77.0656785, "type": "electric_bike", "fusion_lon": 0.0, "lat": 38.9326315}, {"rental_uris": {"android": "https://dc.lft.to/lastmile_qr_scan", "ios": "https://dc.lft.to/lastmile_qr_scan"}, "is_reserved": 0, "is_disabled": 0, "name": "a42ae91f3cbf40d089014de88925241e", "bike_id": "a42ae91f3cbf40d089014de88925241e", "fusion_lat": 0.0, "lon": -77.06821083333334, "type": "electric_scooter", "fusion_lon": 0.0, "lat": 38.91661833333333}, {"rental_uris": {"android": "https://dc.lft.to/lastmile_qr_scan", "ios": "https://dc.lft.to/lastmile_qr_scan"}, "is_reserved": 0, "is_disabled": 0, "name": "891276cc99097a5725f273788b6a6250", "bike_id": "891276cc99097a5725f273788b6a6250", "fusion_lat": 0.0, "lon": -77.05214433333333, "type": "electric_scooter", "fusion_lon": 0.0, "lat": 38.90267983333333}, {"rental_uris": {"android": "https://dc.lft.to/lastmile_qr_scan", "ios": "https://dc.lft.to/lastmile_qr_scan"}, "is_reserved": 0, "is_disabled": 0, "name": "cf7c04d837a0bcaa4534844eccc49d73", "bike_id": "cf7c04d837a0bcaa4534844eccc49d73", "fusion_lat": 0.0, "lon": -77.04174783333333, "type": "electric_scooter", "fusion_lon": 0.0, "lat": 38.917367}, {"rental_uris": {"android": "https://dc.lft.to/lastmile_qr_scan", "ios": "https://dc.lft.to/lastmile_qr_scan"}, "is_reserved": 0, "is_disabled": 0, "name": "9a0be51cdfac621b27bcca236027e589", "bike_id": "9a0be51cdfac621b27bcca236027e589", "fusion_lat": 0.0, "lon": -77.01508383333334, "type": "electric_scooter", "fusion_lon": 0.0, "lat": 38.892392}, {"rental_uris": {"android": "https://dc.lft.to/lastmile_qr_scan", "ios": "https://dc.lft.to/lastmile_qr_scan"}, "is_reserved": 0, "is_disabled": 0, "name": "87301dd46c34314fe0edb744f4bfe0f5", "bike_id": "87301dd46c34314fe0edb744f4bfe0f5", "fusion_lat": 0.0, "lon": -77.045784, "type": "electric_scooter", "fusion_lon": 0.0, "lat": 38.91391333333333}, {"rental_uris": {"android": "https://dc.lft.to/lastmile_qr_scan", "ios": "https://dc.lft.to/lastmile_qr_scan"},