{"data": {"bikes": [{"is_disabled": 0, "is_reserved": 0, "fusion_lat": 0.0, "lat": 38.897291333333335, "fusion_lon": 0.0, "rental_uris": {"ios": "https://dc.lft.to/lastmile_qr_scan", "android": "https://dc.lft.to/lastmile_qr_scan"}, "lon": -77.04358016666667, "bike_id": "c513e027d1e072ad94d3b744be0aedc6", "type": "electric_scooter", "name": "c513e027d1e072ad94d3b744be0aedc6"}, {"is_disabled": 0, "is_reserved": 0, "fusion_lat": 0.0, "lat": 38.9301135, "fusion_lon": 0.0, "rental_uris": {"ios": "https://dc.lft.to/lastmile_qr_scan", "android": "https://dc.lft.to/lastmile_qr_scan"}, "lon": -77.0240575, "bike_id": "18b66e0fb65f62acc65f2b7f02c39986", "type": "electric_scooter", "name": "18b66e0fb65f62acc65f2b7f02c39986"}, {"is_disabled": 0, "is_reserved": 0, "fusion_lat": 0.0, "lat": 38.898305, "fusion_lon": 0.0, "rental_uris": {"ios": "https://dc.lft.to/lastmile_qr_scan", "android": "https://dc.lft.to/lastmile_qr_scan"}, "lon": -77.02487366666666, "bike_id": "1da1a1c05ec5ade5c90986751b20cec1", "type": "electric_scooter", "name": "1da1a1c05ec5ade5c90986751b20cec1"}, {"is_disabled": 0, "is_reserved": 0, "fusion_lat": 0.0, "lat": 38.91263383333333, "fusion_lon": 0.0, "rental_uris": {"ios": "https://dc.lft.to/lastmile_qr_scan", "android": "https://dc.lft.to/lastmile_qr_scan"}, "lon": -77.02247966666667, "bike_id": "3a50c4ee7da902c5d050f84082158641", "type": "electric_scooter", "name": "3a50c4ee7da902c5d050f84082158641"}, {"is_disabled": 0, "is_reserved": 0, "fusion_lat": 0.0, "lat": 38.89225366666667, "fusion_lon": 0.0, "rental_uris": {"ios": "https://dc.lft.to/lastmile_qr_scan", "android": "https://dc.lft.to/lastmile_qr_scan"}, "lon": -77.02424216666667, "bike_id": "3542af99ccf6f1b7e620b9134045ac8c", "type": "electric_scooter", "name": "3542af99ccf6f1b7e620b9134045ac8c"}, {"is_disabled": 0, "is_reserved": 0, "fusion_lat": 0.0, "lat": 38.899735166666666, "fusion_lon": 0.0, "rental_uris": {"ios": "https://dc.lft.to/lastmile_qr_scan", "android": "https://dc.lft.to/lastmile_qr_scan"}, "lon": -77.054912, "bike_id": "b78ca0b7f674dfa17345c3461798f3b6", "type": "electric_scooter", "name": "b78ca0b7f674dfa17345c3461798f3b6"}, {"is_disabled": 0, "is_reserved": 0, "fusion_lat": 0.0, "lat": 38.8924065, "fusion_lon": 0.0, "rental_uris": {"ios": "https://dc.lft.to/lastmile_qr_scan", "android": "https://dc.lft.to/lastmile_qr_scan"}, "lon": -77.03192666666666, "bike_id": "3d0d22a8349646edb682f71da6fe23ba", "type": "electric_scooter", "name": "3d0d22a8349646edb682f71da6fe23ba"}, {"is_disabled": 0, "is_reserved": 0, "fusion_lat": 0.0, "lat": 38.92053083333333, "fusion_lon": 0.0, "rental_uris": {"ios": "https://dc.lft.to/lastmile_qr_scan", "android": "https://dc.lft.to/lastmile_qr_scan"}, "lon": -77.0244395, "bike_id": "34a87391c7e58b6d06a082e28aff9b8d", "type": "electric_scooter", "name": "34a87391c7e58b6d06a082e28aff9b8d"}, {"is_disabled": 0, "is_reserved": 0, "fusion_lat": 0.0, "lat": 38.8765005, "fusion_lon": 0.0, "rental_uris": {"ios": "https://dc.lft.to/lastmile_qr_scan", "android": "https://dc.lft.to/lastmile_qr_scan"}, "lon": -77.007834, "bike_id": "dd68c16c0cbf0ca531c0dfd7952f311d", "type": "electric_scooter", "name": "dd68c16c0cbf0ca531c0dfd7952f311d"}, {"is_disabled": 0, "is_reserved": 0, "fusion_lat": 0.0, "lat": 38.892945166666664, "fusion_lon": 0.0, "rental_uris": {"ios": "https://dc.lft.to/lastmile_qr_scan", "android": "https://dc.lft.to/lastmile_qr_scan"}, "lon": -76.97616083333334, "bike_id": "1658e3244722c8161adaf232d814afba", "type": "electric_bike", "name": "1658e3244722c8161adaf232d814afba"}, {"is_disabled": 0, "is_reserved": 0, "fusion_lat": 0.0, "lat": 38.93704533333333, "fusion_lon": 0.0, "rental_uris": {"ios": "https://dc.lft.to/lastmile_qr_scan", "android": "https://dc.lft.to/lastmile_qr_scan"}, "lon": -77.05595966666667, "bike_id": "d5e76de4eee190e32a534f7b9d925942", "type": "electric_scooter", "name": "d5e76de4eee190e32a534f7b9d925942"}, {"is_disabled": 0, "is_reserved": 0, "fusion_lat": 0.0, "lat": 38.9240095, "fusion_lon": 0.0, "rental_uris": {"ios": "https://dc.lft.to/lastmile_qr_scan", "android": "https://dc.lft.to/lastmile_qr_scan"}, "lon": -76.993864, "bike_id": "52bef9aaa55dc08d51d46093f244d180", "type": "electric_scooter", "name": "52bef9aaa55dc08d51d46093f244d180"}, {"is_disabled": 0, "is_reserved": 0, "fusion_lat": 0.0, "lat": 38.91728766666667, "fusion_lon": 0.0, "rental_uris": {"ios": "https://dc.lft.to/lastmile_qr_scan", "android": "https://dc.lft.to/lastmile_qr_scan"}, "lon": -77.0270165, "bike_id": "a3c3ada3904ce7c51970816917438916", "type": "electric_scooter", "name": "a3c3ada3904ce7c51970816917438916"}, {"is_disabled": 0, "is_reserved": 0, "fusion_lat": 0.0, "lat": 38.892075166666665, "fusion_lon": 0.0, "rental_uris": {"ios": "https://dc.lft.to/lastmile_qr_scan", "android": "https://dc.lft.to/lastmile_qr_scan"}, "lon": -76.99843216666666, "bike_id": "8157430442f84b673264781f18412049", "type": "electric_scooter", "name": "8157430442f84b673264781f18412049"}, {"is_disabled": 0, "is_reserved": 0, "fusion_lat": 0.0, "lat": 38.92653833333333, "fusion_lon": 0.0, "rental_uris": {"ios": "https://dc.lft.to/lastmile_qr_scan", "android": "https://dc.lft.to/lastmile_qr_scan"}, "lon": -77.02421733333334, "bike_id": "cca873c3318b3867552aa9b896cc3ac2", "type": "electric_scooter", "name": "cca873c3318b3867552aa9b896cc3ac2"}, {"is_disabled": 0, "is_reserved": 0, "fusion_lat": 0.0, "lat": 38.92656983333333, "fusion_lon": 0.0, "rental_uris": {"ios": "https://dc.lft.to/lastmile_qr_scan", "android": "https://dc.lft.to/lastmile_qr_scan"}, "lon": -77.024476, "bike_id": "0fca1f12de137954f8bbb9fc2e0fe472", "type": "electric_scooter", "name": "0fca1f12de137954f8bbb9fc2e0fe472"}, {"is_disabled": 0, "is_reserved": 0, "fusion_lat": 0.0, "lat": 38.918637833333335, "fusion_lon": 0.0, "rental_uris": {"ios": "https://dc.lft.to/lastmile_qr_scan", "android": "https://dc.lft.to/lastmile_qr_scan"}, "lon": -77.04443616666667, "bike_id": "d33a659580e7a124aaa97eb6fb5aadb6", "type": "electric_scooter", "name": "d33a659580e7a124aaa97eb6fb5aadb6"}, {"is_disabled": 0, "is_reserved": 0, "fusion_lat": 0.0, "lat": 38.93123583333333, "fusion_lon": 0.0, "rental_uris": {"ios": "https://dc.lft.to/lastmile_qr_scan", "android": "https://dc.lft.to/lastmile_qr_scan"}, "lon": -77.02073133333333, "bike_id": "8ed15614111964ae2022569152bda32e", "type": "electric_scooter", "name": "8ed15614111964ae2022569152bda32e"}, {"is_disabled": 0, "is_reserved": 0, "fusion_lat": 0.0, "lat": 38.907986333333334, "fusion_lon": 0.0, "rental_uris": {"ios": "https://dc.lft.to/lastmile_qr_scan", "android": "https://dc.lft.to/lastmile_qr_scan"}, "lon": -77.04984883333333, "bike_id": "769cdba9c322a3251ecb4ad70939814e", "type": "electric_scooter", "name": "769cdba9c322a3251ecb4ad70939814e"}, {"is_disabled": 0, "is_reserved": 0, "fusion_lat": 0.0, "lat": 38.900034166666664, "fusion_lon": 0.0, "rental_uris": {"ios": "https://dc.lft.to/lastmile_qr_scan", "android": "https://dc.lft.to/lastmile_qr_scan"}, "lon": -77.02167416666667, "bike_id": "43fe03aacb1e4b310897b0a973299599", "type": "electric_scooter", "name": "43fe03aacb1e4b310897b0a973299599"}, {"is_disabled": 0, "is_reserved": 0, "fusion_lat": 0.0, "lat": 38.9235555, "fusion_lon": 0.0, "rental_uris": {"ios": "https://dc.lft.to/lastmile_qr_scan", "android": "https://dc.lft.to/lastmile_qr_scan"}, "lon": -77.0730585, "bike_id": "523d74b3230c307618a8399f24ac4f22", "type": "electric_scooter", "name": "523d74b3230c307618a8399f24ac4f22"}, {"is_disabled": 0, "is_reserved": 0, "fusion_lat": 0.0, "lat": 38.92450766666666, "fusion_lon": 0.0, "rental_uris": {"ios": "https://dc.lft.to/lastmile_qr_scan", "android": "https://dc.lft.to/lastmile_qr_scan"}, "lon": -77.0439775, "bike_id": "55b5f825215f99c9da97de2c9c8f9f9c", "type": "electric_scooter", "name": "55b5f825215f99c9da97de2c9c8f9f9c"}, {"is_disabled": 0, "is_reserved": 0, "fusion_lat": 0.0, "lat": 38.9386075, "fusion_lon": 0.0, "rental_uris": {"ios": "https://dc.lft.to/lastmile_qr_scan", "android": "https://dc.lft.to/lastmile_qr_scan"}, "lon": -76.99432233333333, "bike_id": "f9b9bb6cff10228e42b04d924a58e726", "type": "electric_scooter", "name": "f9b9bb6cff10228e42b04d924a58e726"}, {"is_disabled": 0, "is_reserved": 0, "fusion_lat": 0.0, "lat": 38.892295833333336, "fusion_lon": 0.0, "rental_uris": {"ios": "https://dc.lft.to/lastmile_qr_scan", "android": "https://dc.lft.to/lastmile_qr_scan"}, "lon": -77.03203033333334, "bike_id": "810e4633077580209ea25ffba0c5a61d", "type": "electric_scooter", "name": "810e4633077580209ea25ffba0c5a61d"}, {"is_disabled": 0, "is_reserved": 0, "fusion_lat": 0.0, "lat": 38.9170675, "fusion_lon": 0.0, "rental_uris": {"ios": "https://dc.lft.to/lastmile_qr_scan", "android": "https://dc.lft.to/lastmile_qr_scan"}, "lon": -77.0417155, "bike_id": "cef196b20ac60dedb5d1bcc1ca6cc447", "type": "electric_scooter", "name": "cef196b20ac60dedb5d1bcc1ca6cc447"}, {"is_disabled": 0, "is_reserved": 0, "fusion_lat": 0.0, "lat": 38.874837666666664, "fusion_lon": 0.0, "rental_uris": {"ios": "https://dc.lft.to/lastmile_qr_scan", "android": "https://dc.lft.to/lastmile_qr_scan"}, "lon": -77.00448433333334, "bike_id": "664dad2a9ebf941867e464b8b6c2f9f6", "type": "electric_scooter", "name": "664dad2a9ebf941867e464b8b6c2f9f6"}, {"is_disabled": 0, "is_reserved": 0, "fusion_lat": 0.0, "lat": 38.935568333333336, "fusion_lon": 0.0, "rental_uris": {"ios": "https://dc.lft.to/lastmile_qr_scan", "android": "https://dc.lft.to/lastmile_qr_scan"}, "lon": -77.0770735, "bike_id": "b724c9dd20b3eb816b44c4de5cfb7ccd", "type": "electric_scooter", "name": "b724c9dd20b3eb816b44c4de5cfb7ccd"}, {"is_disabled": 0, "is_reserved": 0, "fusion_lat": 0.0, "lat": 38.908507, "fusion_lon": 0.0, "rental_uris": {"ios": "https://dc.lft.to/lastmile_qr_scan", "android": "https://dc.lft.to/lastmile_qr_scan"}, "lon": -77.00077083333333, "bike_id": "6d65f80d4fda861e3d560f80adda72ca", "type": "electric_scooter", "name": "6d65f80d4fda861e3d560f80adda72ca"}, {"is_disabled": 0, "is_reserved": 0, "fusion_lat": 0.0, "lat": 38.8589995, "fusion_lon": 0.0, "rental_uris": {"ios": "https://dc.lft.to/lastmile_qr_scan", "android": "https://dc.lft.to/lastmile_qr_scan"}, "lon": -77.09553933333333, "bike_id": "c84ef7668f55f2ed56f51f1019395cac", "type": "electric_bike", "name": "c84ef7668f55f2ed56f51f1019395cac"}, {"is_disabled": 0, "is_reserved": 0, "fusion_lat": 0.0, "lat": 38.89261366666667, "fusion_lon": 0.0, "rental_uris": {"ios": "https://dc.lft.to/lastmile_qr_scan", "android": "https://dc.lft.to/lastmile_qr_scan"}, "lon": -77.0502845, "bike_id": "fc30302f4639bae854339a180b2f1f35", "type": "electric_scooter", "name": "fc30302f4639bae854339a180b2f1f35"}, {"is_disabled": 0, "is_reserved": 0, "fusion_lat": 0.0, "lat": 38.88374316666667, "fusion_lon": 0.0, "rental_uris": {"ios": "https://dc.lft.to/lastmile_qr_scan", "android": "https://dc.lft.to/lastmile_qr_scan"}, "lon": -76.93052183333333, "bike_id": "4c1c03323c1527994b1d0563152beacc", "type": "electric_scooter", "name": "4c1c03323c1527994b1d0563152beacc"}, {"is_disabled": 0, "is_reserved": 0, "fusion_lat": 0.0, "lat": 38.92882316666667, "fusion_lon": 0.0, "rental_uris": {"ios": "https://dc.lft.to/lastmile_qr_scan", "android": "https://dc.lft.to/lastmile_qr_scan"}, "lon": -77.03836216666667, "bike_id": "8bd76278dcc943b6bffdf83ba7b9ec0a", "type": "electric_scooter", "name": "8bd76278dcc943b6bffdf83ba7b9ec0a"}, {"is_disabled": 0, "is_reserved": 0, "fusion_lat": 0.0, "lat": 38.9192935, "fusion_lon": 0.0, "rental_uris": {"ios": "https://dc.lft.to/lastmile_qr_scan", "android": "https://dc.lft.to/lastmile_qr_scan"}, "lon": -77.04153566666666, "bike_id": "f7ee7044712cf29cc7c58c6bcb0d93a5", "type": "electric_scooter", "name": "f7ee7044712cf29cc7c58c6bcb0d93a5"}, {"is_disabled": 0, "is_reserved": 0, "fusion_lat": 0.0, "lat": 38.88375216666667, "fusion_lon": 0.0, "rental_uris": {"ios": "https://dc.lft.to/lastmile_qr_scan", "android": "https://dc.lft.to/lastmile_qr_scan"}, "lon": -76.92372183333333, "bike_id": "b6041012c1c15dbc586cd7a0a148a517", "type": "electric_bike", "name": "b6041012c1c15dbc586cd7a0a148a517"}, {"is_disabled": 0, "is_reserved": 0, "fusion_lat": 0.0, "lat": 38.91023533333333, "fusion_lon": 0.0, "rental_uris": {"ios": "https://dc.lft.to/lastmile_qr_scan", "android": "https://dc.lft.to/lastmile_qr_scan"}, "lon": -77.03184016666667, "bike_id": "6717a8316ca8eb71777b584a738ad85e", "type": "electric_scooter", "name": "6717a8316ca8eb71777b584a738ad85e"}, {"is_disabled": 0, "is_reserved": 0, "fusion_lat": 0.0, "lat": 38.93468983333333, "fusion_lon": 0.0, "rental_uris": {"ios": "https://dc.lft.to/lastmile_qr_scan", "android": "https://dc.lft.to/lastmile_qr_scan"}, "lon": -77.02785283333333, "bike_id": "37fc10181a89f5ba23bc6f95b3e2a18c", "type": "electric_scooter", "name": "37fc10181a89f5ba23bc6f95b3e2a18c"}, {"is_disabled": 0, "is_reserved": 0, "fusion_lat": 0.0, "lat": 38.95704683333334, "fusion_lon": 0.0, "rental_uris": {"ios": "https://dc.lft.to/lastmile_qr_scan", "android": "https://dc.lft.to/lastmile_qr_scan"}, "lon": -77.35970883333333, "bike_id": "51936431f76b4abaf4f31cfd6277eb3f", "type": "electric_bike", "name": "51936431f76b4abaf4f31cfd6277eb3f"}, {"is_disabled": 0, "is_reserved": 0, "fusion_lat": 0.0, "lat": 38.9217465, "fusion_lon": 0.0, "rental_uris": {"ios": "https://dc.lft.to/lastmile_qr_scan", "android": "https://dc.lft.to/lastmile_qr_scan"}, "lon": -77.021008, "bike_id": "a492de7596dde6d21ed7b46330712a63", "type": "electric_scooter", "name": "a492de7596dde6d21ed7b46330712a63"}, {"is_disabled": 0, "is_reserved": 0, "fusion_lat": 0.0, "lat": 39.08431366666667, "fusion_lon": 0.0, "rental_uris": {"ios": "https://dc.lft.to/lastmile_qr_scan", "android": "https://dc.lft.to/lastmile_qr_scan"}, "lon": -76.95142083333333, "bike_id": "47a637ce6417eda3a75d408d1abf304b", "type": "electric_bike", "name": "47a637ce6417eda3a75d408d1abf304b"}, {"is_disabled": 0, "is_reserved": 0, "fusion_lat": 0.0, "lat": 38.915537, "fusion_lon": 0.0, "rental_uris": {"ios": "https://dc.lft.to/lastmile_qr_scan", "android": "https://dc.lft.to/lastmile_qr_scan"}, "lon": -77.021188, "bike_id": "812ed7eae0fcd1d7aa870bd1f2edbd40", "type": "electric_scooter", "name": "812ed7eae0fcd1d7aa870bd1f2edbd40"}, {"is_disabled": 0, "is_reserved": 0, "fusion_lat": 0.0, "lat": 38.933146, "fusion_lon": 0.0, "rental_uris": {"ios": "https://dc.lft.to/lastmile_qr_scan", "android": "https://dc.lft.to/lastmile_qr_scan"}, "lon": -77.031835, "bike_id": "ad7684119bd6318cac55797678aa90b6", "type": "electric_scooter", "name": "ad7684119bd6318cac55797678aa90b6"}, {"is_disabled": 0, "is_reserved": 0, "fusion_lat": 0.0, "lat": 38.93066616666667, "fusion_lon": 0.0, "rental_uris": {"ios": "https://dc.lft.to/lastmile_qr_scan", "android": "https://dc.lft.to/lastmile_qr_scan"}, "lon": -77.03171966666666, "bike_id": "86f61200129d4d03f6dede91b556eb98", "type": "electric_scooter", "name": "86f61200129d4d03f6dede91b556eb98"}, {"is_disabled": 0, "is_reserved": 0, "fusion_lat": 0.0, "lat": 38.91210316666667, "fusion_lon": 0.0, "rental_uris": {"ios": "https://dc.lft.to/lastmile_qr_scan", "android": "https://dc.lft.to/lastmile_qr_scan"}, "lon": -77.02099333333334, "bike_id": "e45bbc29e71254cbedb61454f86448ed", "type": "electric_scooter", "name": "e45bbc29e71254cbedb61454f86448ed"}, {"is_disabled": 0, "is_reserved": 0, "fusion_lat": 0.0, "lat": 38.93359016666667, "fusion_lon": 0.0, "rental_uris": {"ios": "https://dc.lft.to/lastmile_qr_scan", "android": "https://dc.lft.to/lastmile_qr_scan"}, "lon": -77.07292566666666, "bike_id": "db2de549fcc4789df49194bf5e9d9ce9", "type": "electric_scooter", "name": "db2de549fcc4789df49194bf5e9d9ce9"}, {"is_disabled": 0, "is_reserved": 0, "fusion_lat": 0.0, "lat": 38.911117833333336, "fusion_lon": 0.0, "rental_uris": {"ios": "https://dc.lft.to/lastmile_qr_scan", "android": "https://dc.lft.to/lastmile_qr_scan"}, "lon": -77.0187875, "bike_id": "fcb4c3fe558ce33e7043759af72e1494", "type": "electric_scooter", "name": "fcb4c3fe558ce33e7043759af72e1494"}, {"is_disabled": 0, "is_reserved": 0, "fusion_lat": 0.0, "lat": 38.90895166666667, "fusion_lon": 0.0, "rental_uris": {"ios": "https://dc.lft.to/lastmile_qr_scan", "android": "https://dc.lft.to/lastmile_qr_scan"}, "lon": -77.04415066666667, "bike_id": "6faa87a2b091112442f5e332a51506c3", "type": "electric_scooter", "name": "6faa87a2b091112442f5e332a51506c3"}, {"is_disabled": 0, "is_reserved": 0, "fusion_lat": 0.0, "lat": 38.91274333333333, "fusion_lon": 0.0, "rental_uris": {"ios": "https://dc.lft.to/lastmile_qr_scan", "android": "https://dc.lft.to/lastmile_qr_scan"}, "lon": -77.0226805, "bike_id": "4ffde34b27f6c5b93b51b5d3c218a584", "type": "electric_scooter", "name": "4ffde34b27f6c5b93b51b5d3c218a584"}, {"is_disabled": 0, "is_reserved": 0, "fusion_lat": 0.0, "lat": 38.921647, "fusion_lon": 0.0, "rental_uris": {"ios": "https://dc.lft.to/lastmile_qr_scan", "android": "https://dc.lft.to/lastmile_qr_scan"}, "lon": -77.03668766666667, "bike_id": "cdabc4cd72a2bebe137ae3b4cbeb3c93", "type": "electric_scooter", "name": "cdabc4cd72a2bebe137ae3b4cbeb3c93"}, {"is_disabled": 0, "is_reserved": 0, "fusion_lat": 0.0, "lat": 38.89200816666666, "fusion_lon": 0.0, "rental_uris": {"ios": "https://dc.lft.to/lastmile_qr_scan", "android": "https://dc.lft.to/lastmile_qr_scan"}, "lon": -77.02470316666667, "bike_id": "0c97c47495e2d2318f263e4c77e89d56", "type": "electric_scooter", "name": "0c97c47495e2d2318f263e4c77e89d56"}, {"is_disabled": 0, "is_reserved": 0, "fusion_lat": 0.0, "lat": 38.89356866666667, "fusion_lon": 0.0, "rental_uris": {"ios": "https://dc.lft.to/lastmile_qr_scan", "android": "https://dc.lft.to/lastmile_qr_scan"}, "lon": -76.99213833333333, "bike_id": "db23dcefa8fd034d6ecbe0061cef5ad4", "type": "electric_scooter", "name": "db23dcefa8fd034d6ecbe0061cef5ad4"}, {"is_disabled": 0, "is_reserved": 0, "fusion_lat": 0.0, "lat": 38.907229666666666, "fusion_lon": 0.0, "rental_uris": {"ios": "https://dc.lft.to/lastmile_qr_scan", "android": "https://dc.lft.to/lastmile_qr_scan"}, "lon": -77.053109, "bike_id": "66b8b9af64542eaa09b006c63a5f7a57", "type": "electric_scooter", "name": "66b8b9af64542eaa09b006c63a5f7a57"}, {"is_disabled": 0, "is_reserved": 0, "fusion_lat": 0.0, "lat": 38.884842666666664, "fusion_lon": 0.0, "rental_uris": {"ios": "https://dc.lft.to/lastmile_qr_scan", "android": "https://dc.lft.to/lastmile_qr_scan"}, "lon": -77.03349616666667, "bike_id": "e0be5820338459702aba1915af4d7661", "type": "electric_scooter", "name": "e0be5820338459702aba1915af4d7661"}, {"is_disabled": 0, "is_reserved": 0, "fusion_lat": 0.0, "lat": 38.8938585, "fusion_lon": 0.0, "rental_uris": {"ios": "https://dc.lft.to/lastmile_qr_scan", "android": "https://dc.lft.to/lastmile_qr_scan"}, "lon": -76.923029, "bike_id": "01d3a3b5556d2f5b265f05b2f1ae925a", "type": "electric_scooter", "name": "01d3a3b5556d2f5b265f05b2f1ae925a"}, {"is_disabled": 0, "is_reserved": 0, "fusion_lat": 0.0, "lat": 38.93134216666667, "fusion_lon": 0.0, "rental_uris": {"ios": "https://dc.lft.to/lastmile_qr_scan", "android": "https://dc.lft.to/lastmile_qr_scan"}, "lon": -77.02802283333334, "bike_id": "c7291f1177a293ab5efa5a493142c375", "type": "electric_scooter", "name": "c7291f1177a293ab5efa5a493142c375"}, {"is_disabled": 0, "is_reserved": 0, "fusion_lat": 0.0, "lat": 38.89755916666667, "fusion_lon": 0.0, "rental_uris": {"ios": "https://dc.lft.to/lastmile_qr_scan", "android": "https://dc.lft.to/lastmile_qr_scan"}, "lon": -77.021297, "bike_id": "9316aed57b61763069c2842d3fb9be7a", "type": "electric_scooter", "name": "9316aed57b61763069c2842d3fb9be7a"}, {"is_disabled": 0, "is_reserved": 0, "fusion_lat": 0.0, "lat": 38.9071195, "fusion_lon": 0.0, "rental_uris": {"ios": "https://dc.lft.to/lastmile_qr_scan", "android": "https://dc.lft.to/lastmile_qr_scan"}, "lon": -77.03213083333333, "bike_id": "72ddaa4b5bcb0b62700174d8a4e0da34", "type": "electric_scooter", "name": "72ddaa4b5bcb0b62700174d8a4e0da34"}, {"is_disabled": 0, "is_reserved": 0, "fusion_lat": 0.0, "lat": 38.8583595, "fusion_lon": 0.0, "rental_uris": {"ios": "https://dc.lft.to/lastmile_qr_scan", "android": "https://dc.lft.to/lastmile_qr_scan"}, "lon": -76.98819416666667, "bike_id": "c4c6333b35eb0793ad799a61260571e6", "type": "electric_scooter", "name": "c4c6333b35eb0793ad799a61260571e6"}, {"is_disabled": 0, "is_reserved": 0, "fusion_lat": 0.0, "lat": 38.93864933333333, "fusion_lon": 0.0, "rental_uris": {"ios": "https://dc.lft.to/lastmile_qr_scan", "android": "https://dc.lft.to/lastmile_qr_scan"}, "lon": -77.02631233333334, "bike_id": "2ae9ad3486cae49d08612e837ae8e454", "type": "electric_bike", "name": "2ae9ad3486cae49d08612e837ae8e454"}, {"is_disabled": 0, "is_reserved": 0, "fusion_lat": 0.0, "lat": 38.923241833333336, "fusion_lon": 0.0, "rental_uris": {"ios": "https://dc.lft.to/lastmile_qr_scan", "android": "https://dc.lft.to/lastmile_qr_scan"}, "lon": -77.028061, "bike_id": "1bc45c63937ca2fe6b37bbf64cc4cd01", "type": "electric_scooter", "name": "1bc45c63937ca2fe6b37bbf64cc4cd01"}, {"is_disabled": 0, "is_reserved": 0, "fusion_lat": 0.0, "lat": 38.911221166666664, "fusion_lon": 0.0, "rental_uris": {"ios": "https://dc.lft.to/lastmile_qr_scan", "android": "https://dc.lft.to/lastmile_qr_scan"}, "lon": -77.038319, "bike_id": "8720660f2eb68b7f5cc7f60e5b057ca4", "type": "electric_scooter", "name": "8720660f2eb68b7f5cc7f60e5b057ca4"}, {"is_disabled": 0, "is_reserved": 0, "fusion_lat": 0.0, "lat": 38.897688, "fusion_lon": 0.0, "rental_uris": {"ios": "https://dc.lft.to/lastmile_qr_scan", "android": "https://dc.lft.to/lastmile_qr_scan"}, "lon": -77.0271425, "bike_id": "a34adf6ff14eae93466c0af9be77c96d", "type": "electric_scooter", "name": "a34adf6ff14eae93466c0af9be77c96d"}, {"is_disabled": 0, "is_reserved": 0, "fusion_lat": 0.0, "lat": 38.85785383333333, "fusion_lon": 0.0, "rental_uris": {"ios": "https://dc.lft.to/lastmile_qr_scan", "android": "https://dc.lft.to/lastmile_qr_scan"}, "lon": -76.98761666666667, "bike_id": "cc7c20fa75748a1f7028e5edce04d004", "type": "electric_bike", "name": "cc7c20fa75748a1f7028e5edce04d004"}, {"is_disabled": 0, "is_reserved": 0, "fusion_lat": 0.0, "lat": 38.91812433333333, "fusion_lon": 0.0, "rental_uris": {"ios": "https://dc.lft.to/lastmile_qr_scan", "android": "https://dc.lft.to/lastmile_qr_scan"}, "lon": -77.03996933333333, "bike_id": "045a99a01aba062a2e98ffcdb08211f9", "type": "electric_scooter", "name": "045a99a01aba062a2e98ffcdb08211f9"}, {"is_disabled": 0, "is_reserved": 0, "fusion_lat": 0.0, "lat": 38.892501, "fusion_lon": 0.0, "rental_uris": {"ios": "https://dc.lft.to/lastmile_qr_scan", "android": "https://dc.lft.to/lastmile_qr_scan"}, "lon": -77.04654516666666, "bike_id": "5822e3387253d716b0f4c612c1ef69e1", "type": "electric_scooter", "name": "5822e3387253d716b0f4c612c1ef69e1"}, {"is_disabled": 0, "is_reserved": 0, "fusion_lat": 0.0, "lat": 38.924098, "fusion_lon": 0.0, "rental_uris": {"ios": "https://dc.lft.to/lastmile_qr_scan", "android": "https://dc.lft.to/lastmile_qr_scan"}, "lon": -77.02714883333333, "bike_id": "a382c44ad7c876565f9c0f182d3da3b3", "type": "electric_scooter", "name": "a382c44ad7c876565f9c0f182d3da3b3"}, {"is_disabled": 0, "is_reserved": 0, "fusion_lat": 0.0, "lat": 38.902808, "fusion_lon": 0.0, "rental_uris": {"ios": "https://dc.lft.to/lastmile_qr_scan", "android": "https://dc.lft.to/lastmile_qr_scan"}, "lon": -77.05900216666667, "bike_id": "7c9de59572ca6b440b72195b89e49569", "type": "electric_scooter", "name": "7c9de59572ca6b440b72195b89e49569"}, {"is_disabled": 0, "is_reserved": 0, "fusion_lat": 0.0, "lat": 38.847069, "fusion_lon": 0.0, "rental_uris": {"ios": "https://dc.lft.to/lastmile_qr_scan", "android": "https://dc.lft.to/lastmile_qr_scan"}, "lon": -76.99615833333333, "bike_id": "ef7a1b46813d213f206d612b032a3d82", "type": "electric_bike", "name": "ef7a1b46813d213f206d612b032a3d82"}, {"is_disabled": 0, "is_reserved": 0, "fusion_lat": 0.0, "lat": 38.92473433333333, "fusion_lon": 0.0, "rental_uris": {"ios": "https://dc.lft.to/lastmile_qr_scan", "android": "https://dc.lft.to/lastmile_qr_scan"}, "lon": -77.03533983333334, "bike_id": "6a36b80346216d7f2b39c469379538e2", "type": "electric_scooter", "name": "6a36b80346216d7f2b39c469379538e2"}, {"is_disabled": 0, "is_reserved": 0, "fusion_lat": 0.0, "lat": 38.9386715, "fusion_lon": 0.0, "rental_uris": {"ios": "https://dc.lft.to/lastmile_qr_scan", "android": "https://dc.lft.to/lastmile_qr_scan"}, "lon": -77.03044566666667, "bike_id": "555a605a7404dd1d82bce43328976405", "type": "electric_scooter", "name": "555a605a7404dd1d82bce43328976405"}, {"is_disabled": 0, "is_reserved": 0, "fusion_lat": 0.0, "lat": 38.912699833333335, "fusion_lon": 0.0, "rental_uris": {"ios": "https://dc.lft.to/lastmile_qr_scan", "android": "https://dc.lft.to/lastmile_qr_scan"}, "lon": -77.01532516666667, "bike_id": "064263c276a3e2bcfa41357c676c0372", "type": "electric_scooter", "name": "064263c276a3e2bcfa41357c676c0372"}, {"is_disabled": 0, "is_reserved": 0, "fusion_lat": 0.0, "lat": 38.90863266666667, "fusion_lon": 0.0, "rental_uris": {"ios": "https://dc.lft.to/lastmile_qr_scan", "android": "https://dc.lft.to/lastmile_qr_scan"}, "lon": -77.002003, "bike_id": "8ad5f77147b3d7a73673a83968d791ca", "type": "electric_scooter", "name": "8ad5f77147b3d7a73673a83968d791ca"}, {"is_disabled": 0, "is_reserved": 0, "fusion_lat": 0.0, "lat": 38.9527715, "fusion_lon": 0.0, "rental_uris": {"ios": "https://dc.lft.to/lastmile_qr_scan", "android": "https://dc.lft.to/lastmile_qr_scan"}, "lon": -77.00040133333333, "bike_id": "bbc4d1f503e355a02a68d34fe61ee44b", "type": "electric_scooter", "name": "bbc4d1f503e355a02a68d34fe61ee44b"}, {"is_disabled": 0, "is_reserved": 0, "fusion_lat": 0.0, "lat": 38.882781333333334, "fusion_lon": 0.0, "rental_uris": {"ios": "https://dc.lft.to/lastmile_qr_scan", "android": "https://dc.lft.to/lastmile_qr_scan"}, "lon": -76.93238183333334, "bike_id": "107b56fdaec3ba697d200b3dbc9683ee", "type": "electric_bike", "name": "107b56fdaec3ba697d200b3dbc9683ee"}, {"is_disabled": 0, "is_reserved": 0, "fusion_lat": 0.0, "lat": 38.88167333333333, "fusion_lon": 0.0, "rental_uris": {"ios": "https://dc.lft.to/lastmile_qr_scan", "android": "https://dc.lft.to/lastmile_qr_scan"}, "lon": -76.9250425, "bike_id": "c9a27a2db3da7a2f117d39dea1904c4d", "type": "electric_scooter", "name": "c9a27a2db3da7a2f117d39dea1904c4d"}, {"is_disabled": 0, "is_reserved": 0, "fusion_lat": 0.0, "lat": 38.92240966666667, "fusion_lon": 0.0, "rental_uris": {"ios": "https://dc.lft.to/lastmile_qr_scan", "android": "https://dc.lft.to/lastmile_qr_scan"}, "lon": -77.04484033333334, "bike_id": "69016ffbf374ef535cbcb4fd5eae5454", "type": "electric_scooter", "name": "69016ffbf374ef535cbcb4fd5eae5454"}, {"is_disabled": 0, "is_reserved": 0, "fusion_lat": 0.0, "lat": 38.906847166666665, "fusion_lon": 0.0, "rental_uris": {"ios": "https://dc.lft.to/lastmile_qr_scan", "android": "https://dc.lft.to/lastmile_qr_scan"}, "lon": -77.05324733333333, "bike_id": "c84e784065a3d17e0e06b2a76d833ea2", "type": "electric_scooter", "name": "c84e784065a3d17e0e06b2a76d833ea2"}, {"is_disabled": 0, "is_reserved": 0, "fusion_lat": 0.0, "lat": 38.876586833333334, "fusion_lon": 0.0, "rental_uris": {"ios": "https://dc.lft.to/lastmile_qr_scan", "android": "https://dc.lft.to/lastmile_qr_scan"}, "lon": -76.99640466666666, "bike_id": "b2b6f1f4b6287fb3608d60e87946bd55", "type": "electric_scooter", "name": "b2b6f1f4b6287fb3608d60e87946bd55"}, {"is_disabled": 0, "is_reserved": 0, "fusion_lat": 0.0, "lat": 38.89421133333333, "fusion_lon": 0.0, "rental_uris": {"ios": "https://dc.lft.to/lastmile_qr_scan", "android": "https://dc.lft.to/lastmile_qr_scan"}, "lon": -77.02135716666666, "bike_id": "601c022fc07443b66e30a0877223831b", "type": "electric_scooter", "name": "601c022fc07443b66e30a0877223831b"}, {"is_disabled": 0, "is_reserved": 0, "fusion_lat": 0.0, "lat": 38.9497695, "fusion_lon": 0.0, "rental_uris": {"ios": "https://dc.lft.to/lastmile_qr_scan", "android": "https://dc.lft.to/lastmile_qr_scan"}, "lon": -77.024478, "bike_id": "93e5e5c87a66b47fd8d695d8f6cc675b", "type": "electric_scooter", "name": "93e5e5c87a66b47fd8d695d8f6cc675b"}, {"is_disabled": 0, "is_reserved": 0, "fusion_lat": 0.0, "lat": 38.933768, "fusion_lon": 0.0, "rental_uris": {"ios": "https://dc.lft.to/lastmile_qr_scan", "android": "https://dc.lft.to/lastmile_qr_scan"}, "lon": -77.02724816666667, "bike_id": "24ca45de89e321d16399108bff0b59e6", "type": "electric_scooter", "name": "24ca45de89e321d16399108bff0b59e6"}, {"is_disabled": 0, "is_reserved": 0, "fusion_lat": 0.0, "lat": 38.935291, "fusion_lon": 0.0, "rental_uris": {"ios": "https://dc.lft.to/lastmile_qr_scan", "android": "https://dc.lft.to/lastmile_qr_scan"}, "lon": -77.03817583333333, "bike_id": "fae59e9a618f30cca429bbb40052b64f", "type": "electric_scooter", "name": "fae59e9a618f30cca429bbb40052b64f"}, {"is_disabled": 0, "is_reserved": 0, "fusion_lat": 0.0, "lat": 38.89442283333333, "fusion_lon": 0.0, "rental_uris": {"ios": "https://dc.lft.to/lastmile_qr_scan", "android": "https://dc.lft.to/lastmile_qr_scan"}, "lon": -77.02215866666667, "bike_id": "6fa098cdaf36e043bce8e53452ec96d9", "type": "electric_scooter", "name": "6fa098cdaf36e043bce8e53452ec96d9"}, {"is_disabled": 0, "is_reserved": 0, "fusion_lat": 0.0, "lat": 38.96175016666667, "fusion_lon": 0.0, "rental_uris": {"ios": "https://dc.lft.to/lastmile_qr_scan", "android": "https://dc.lft.to/lastmile_qr_scan"}, "lon": -77.0322725, "bike_id": "1cf358abf00dda762908ea684d6eef89", "type": "electric_scooter", "name": "1cf358abf00dda762908ea684d6eef89"}, {"is_disabled": 0, "is_reserved": 0, "fusion_lat": 0.0, "lat": 38.94366333333333, "fusion_lon": 0.0, "rental_uris": {"ios": "https://dc.lft.to/lastmile_qr_scan", "android": "https://dc.lft.to/lastmile_qr_scan"}, "lon": -77.06105816666667, "bike_id": "73c14dbeae2e3450a2ef9bcc56bb8c43", "type": "electric_scooter", "name": "73c14dbeae2e3450a2ef9bcc56bb8c43"}, {"is_disabled": 0, "is_reserved": 0, "fusion_lat": 0.0, "lat": 38.886593500000004, "fusion_lon": 0.0, "rental_uris": {"ios": "https://dc.lft.to/lastmile_qr_scan", "android": "https://dc.lft.to/lastmile_qr_scan"}, "lon": -77.03389683333333, "bike_id": "14ab3153b3123603ae055ac7cfad6c52", "type": "electric_scooter", "name": "14ab3153b3123603ae055ac7cfad6c52"}, {"is_disabled": 0, "is_reserved": 0, "fusion_lat": 0.0, "lat": 38.9370075, "fusion_lon": 0.0, "rental_uris": {"ios": "https://dc.lft.to/lastmile_qr_scan", "android": "https://dc.lft.to/lastmile_qr_scan"}, "lon": -77.05690316666667, "bike_id": "7acb3d6929e80fac24fb1ab13191b250", "type": "electric_scooter", "name": "7acb3d6929e80fac24fb1ab13191b250"}, {"is_disabled": 0, "is_reserved": 0, "fusion_lat": 0.0, "lat": 38.906255, "fusion_lon": 0.0, "rental_uris": {"ios": "https://dc.lft.to/lastmile_qr_scan", "android": "https://dc.lft.to/lastmile_qr_scan"}, "lon": -77.04136616666666, "bike_id": "399987af04cb1ce2227bd29d598d7793", "type": "electric_scooter", "name": "399987af04cb1ce2227bd29d598d7793"}, {"is_disabled": 0, "is_reserved": 0, "fusion_lat": 0.0, "lat": 38.890202333333335, "fusion_lon": 0.0, "rental_uris": {"ios": "https://dc.lft.to/lastmile_qr_scan", "android": "https://dc.lft.to/lastmile_qr_scan"}, "lon": -76.937351, "bike_id": "239fce1a7c66bc09ff9503101d69cc7f", "type": "electric_scooter", "name": "239fce1a7c66bc09ff9503101d69cc7f"}, {"is_disabled": 0, "is_reserved": 0, "fusion_lat": 0.0, "lat": 38.924437, "fusion_lon": 0.0, "rental_uris": {"ios": "https://dc.lft.to/lastmile_qr_scan", "android": "https://dc.lft.to/lastmile_qr_scan"}, "lon": -77.04024466666667, "bike_id": "7cd3ca77164072cca259a8d41568f233", "type": "electric_scooter", "name": "7cd3ca77164072cca259a8d41568f233"}, {"is_disabled": 0, "is_reserved": 0, "fusion_lat": 0.0, "lat": 38.895035166666666, "fusion_lon": 0.0, "rental_uris": {"ios": "https://dc.lft.to/lastmile_qr_scan", "android": "https://dc.lft.to/lastmile_qr_scan"}, "lon": -77.04160083333333, "bike_id": "03dc62e94031e4b9ed8e70893e426cdd", "type": "electric_scooter", "name": "03dc62e94031e4b9ed8e70893e426cdd"}, {"is_disabled": 0, "is_reserved": 0, "fusion_lat": 0.0, "lat": 38.906160166666666, "fusion_lon": 0.0, "rental_uris": {"ios": "https://dc.lft.to/lastmile_qr_scan", "android": "https://dc.lft.to/lastmile_qr_scan"}, "lon": -77.039981, "bike_id": "5e9db8ccdab88a3fd7cdc0cd32a957e3", "type": "electric_scooter", "name": "5e9db8ccdab88a3fd7cdc0cd32a957e3"}, {"is_disabled": 0, "is_reserved": 0, "fusion_lat": 0.0, "lat": 38.892006, "fusion_lon": 0.0, "rental_uris": {"ios": "https://dc.lft.to/lastmile_qr_scan", "android": "https://dc.lft.to/lastmile_qr_scan"}, "lon": -77.04386016666666, "bike_id": "0909ec1139c3e299cc1d9b3d73939d0e", "type": "electric_scooter", "name": "0909ec1139c3e299cc1d9b3d73939d0e"}, {"is_disabled": 0, "is_reserved": 0, "fusion_lat": 0.0, "lat": 38.93464733333333, "fusion_lon": 0.0, "rental_uris": {"ios": "https://dc.lft.to/lastmile_qr_scan", "android": "https://dc.lft.to/lastmile_qr_scan"}, "lon": -77.02416533333333, "bike_id": "6c9ea714e9cb798c709ed5e81f6ce88c", "type": "electric_scooter", "name": "6c9ea714e9cb798c709ed5e81f6ce88c"}, {"is_disabled": 0, "is_reserved": 0, "fusion_lat": 0.0, "lat": 38.952996, "fusion_lon": 0.0, "rental_uris": {"ios": "https://dc.lft.to/lastmile_qr_scan", "android": "https://dc.lft.to/lastmile_qr_scan"}, "lon": -77.02020333333333, "bike_id": "0334b079bd146fd9680ca1f2000e412d", "type": "electric_scooter", "name": "0334b079bd146fd9680ca1f2000e412d"}, {"is_disabled": 0, "is_reserved": 0, "fusion_lat": 0.0, "lat": 38.892495, "fusion_lon": 0.0, "rental_uris": {"ios": "https://dc.lft.to/lastmile_qr_scan", "android": "https://dc.lft.to/lastmile_qr_scan"}, "lon": -77.03956566666666, "bike_id": "2f3dc73b1caba54e9756d3356f879eba", "type": "electric_scooter", "name": "2f3dc73b1caba54e9756d3356f879eba"}, {"is_disabled": 0, "is_reserved": 0, "fusion_lat": 0.0, "lat": 38.931999166666664, "fusion_lon": 0.0, "rental_uris": {"ios": "https://dc.lft.to/lastmile_qr_scan", "android": "https://dc.lft.to/lastmile_qr_scan"}, "lon": -77.02453283333334, "bike_id": "5b1353c1073191309ee1fbdda1114573", "type": "electric_scooter", "name": "5b1353c1073191309ee1fbdda1114573"}, {"is_disabled": 0, "is_reserved": 0, "fusion_lat": 0.0, "lat": 38.9208265, "fusion_lon": 0.0, "rental_uris": {"ios": "https://dc.lft.to/lastmile_qr_scan", "android": "https://dc.lft.to/lastmile_qr_scan"}, "lon": -77.0045785, "bike_id": "51c343e081ce44b8db931c7d31b02392", "type": "electric_scooter", "name": "51c343e081ce44b8db931c7d31b02392"}, {"is_disabled": 0, "is_reserved": 0, "fusion_lat": 0.0, "lat": 38.9320465, "fusion_lon": 0.0, "rental_uris": {"ios": "https://dc.lft.to/lastmile_qr_scan", "android": "https://dc.lft.to/lastmile_qr_scan"}, "lon": -77.02334816666666, "bike_id": "2405d39ee9165c2461bcb834989c1d9d", "type": "electric_scooter", "name": "2405d39ee9165c2461bcb834989c1d9d"}, {"is_disabled": 0, "is_reserved": 0, "fusion_lat": 0.0, "lat": 38.905499666666664, "fusion_lon": 0.0, "rental_uris": {"ios": "https://dc.lft.to/lastmile_qr_scan", "android": "https://dc.lft.to/lastmile_qr_scan"}, "lon": -77.062689, "bike_id": "9e388f0e69b1fa41b142a4e7b7210927", "type": "electric_scooter", "name": "9e388f0e69b1fa41b142a4e7b7210927"}, {"is_disabled": 0, "is_reserved": 0, "fusion_lat": 0.0, "lat": 38.905267, "fusion_lon": 0.0, "rental_uris": {"ios": "https://dc.lft.to/lastmile_qr_scan", "android": "https://dc.lft.to/lastmile_qr_scan"}, "lon": -77.062466, "bike_id": "567fb2d3f8dbbfe32f27c8b0c5786a25", "type": "electric_scooter", "name": "567fb2d3f8dbbfe32f27c8b0c5786a25"}, {"is_disabled": 0, "is_reserved": 0, "fusion_lat": 0.0, "lat": 38.916991, "fusion_lon": 0.0, "rental_uris": {"ios": "https://dc.lft.to/lastmile_qr_scan", "android": "https://dc.lft.to/lastmile_qr_scan"}, "lon": -77.0273245, "bike_id": "2578507573936afc643509c9fe0c642a", "type": "electric_scooter", "name": "2578507573936afc643509c9fe0c642a"}, {"is_disabled": 0, "is_reserved": 0, "fusion_lat": 0.0, "lat": 38.9250285, "fusion_lon": 0.0, "rental_uris": {"ios": "https://dc.lft.to/lastmile_qr_scan", "android": "https://dc.lft.to/lastmile_qr_scan"}, "lon": -77.02361483333334, "bike_id": "01824fbfec85cef69f051a7706dd46e4", "type": "electric_scooter", "name": "01824fbfec85cef69f051a7706dd46e4"}, {"is_disabled": 0, "is_reserved": 0, "fusion_lat": 0.0, "lat": 38.90239866666667, "fusion_lon": 0.0, "rental_uris": {"ios": "https://dc.lft.to/lastmile_qr_scan", "android": "https://dc.lft.to/lastmile_qr_scan"}, "lon": -77.02651166666666, "bike_id": "f7aec75e09fed89474331f1d034fcfac", "type": "electric_scooter", "name": "f7aec75e09fed89474331f1d034fcfac"}, {"is_disabled": 0, "is_reserved": 0, "fusion_lat": 0.0, "lat": 38.916175333333335, "fusion_lon": 0.0, "rental_uris": {"ios": "https://dc.lft.to/lastmile_qr_scan", "android": "https://dc.lft.to/lastmile_qr_scan"}, "lon": -77.0216195, "bike_id": "5ce9927ac13d4ce64dfec3059efa26fd", "type": "electric_scooter", "name": "5ce9927ac13d4ce64dfec3059efa26fd"}, {"is_disabled": 0, "is_reserved": 0, "fusion_lat": 0.0, "lat": 38.902499666666664, "fusion_lon": 0.0, "rental_uris": {"ios": "https://dc.lft.to/lastmile_qr_scan", "android": "https://dc.lft.to/lastmile_qr_scan"}, "lon": -77.026647, "bike_id": "98ef3ce10101948668a5d133142f9a16", "type": "electric_scooter", "name": "98ef3ce10101948668a5d133142f9a16"}, {"is_disabled": 0, "is_reserved": 0, "fusion_lat": 0.0, "lat": 38.91028516666667, "fusion_lon": 0.0, "rental_uris": {"ios": "https://dc.lft.to/lastmile_qr_scan", "android": "https://dc.lft.to/lastmile_qr_scan"}, "lon": -76.92333583333334, "bike_id": "f897b73152125ad8a11c0c037366328c", "type": "electric_bike", "name": "f897b73152125ad8a11c0c037366328c"}, {"is_disabled": 0, "is_reserved": 0, "fusion_lat": 0.0, "lat": 38.91758566666667, "fusion_lon": 0.0, "rental_uris": {"ios": "https://dc.lft.to/lastmile_qr_scan", "android": "https://dc.lft.to/lastmile_qr_scan"}, "lon": -77.03884083333334, "bike_id": "0d1284bf7850ef10dd190f16eaf9d390", "type": "electric_scooter", "name": "0d1284bf7850ef10dd190f16eaf9d390"}, {"is_disabled": 0, "is_reserved": 0, "fusion_lat": 0.0, "lat": 38.93683566666667, "fusion_lon": 0.0, "rental_uris": {"ios": "https://dc.lft.to/lastmile_qr_scan", "android": "https://dc.lft.to/lastmile_qr_scan"}, "lon": -77.05851883333334, "bike_id": "669cf1543270773bb6e1231515649609", "type": "electric_scooter", "name": "669cf1543270773bb6e1231515649609"}, {"is_disabled": 0, "is_reserved": 0, "fusion_lat": 0.0, "lat": 38.906446333333335, "fusion_lon": 0.0, "rental_uris": {"ios": "https://dc.lft.to/lastmile_qr_scan", "android": "https://dc.lft.to/lastmile_qr_scan"}, "lon": -77.05319516666667, "bike_id": "4839a72ff56ff53161a82df29b945a9f", "type": "electric_scooter", "name": "4839a72ff56ff53161a82df29b945a9f"}, {"is_disabled": 0, "is_reserved": 0, "fusion_lat": 0.0, "lat": 38.911994166666666, "fusion_lon": 0.0, "rental_uris": {"ios": "https://dc.lft.to/lastmile_qr_scan", "android": "https://dc.lft.to/lastmile_qr_scan"}, "lon": -77.008779, "bike_id": "0c10656da10998b60039f67eced5b8fa", "type": "electric_scooter", "name": "0c10656da10998b60039f67eced5b8fa"}, {"is_disabled": 0, "is_reserved": 0, "fusion_lat": 0.0, "lat": 38.88489466666667, "fusion_lon": 0.0, "rental_uris": {"ios": "https://dc.lft.to/lastmile_qr_scan", "android": "https://dc.lft.to/lastmile_qr_scan"}, "lon": -77.03477516666666, "bike_id": "38026f599a2967e16ca5c5c7af544437", "type": "electric_scooter", "name": "38026f599a2967e16ca5c5c7af544437"}, {"is_disabled": 0, "is_reserved": 0, "fusion_lat": 0.0, "lat": 38.846766, "fusion_lon": 0.0, "rental_uris": {"ios": "https://dc.lft.to/lastmile_qr_scan", "android": "https://dc.lft.to/lastmile_qr_scan"}, "lon": -77.13934716666667, "bike_id": "fb76edc6ee1dbca811e5d0c83cc83c51", "type": "electric_bike", "name": "fb76edc6ee1dbca811e5d0c83cc83c51"}, {"is_disabled": 0, "is_reserved": 0, "fusion_lat": 0.0, "lat": 38.915577166666665, "fusion_lon": 0.0, "rental_uris": {"ios": "https://dc.lft.to/lastmile_qr_scan", "android": "https://dc.lft.to/lastmile_qr_scan"}, "lon": -77.05102633333334, "bike_id": "bf3c038647a2497f51321d76fc98388b", "type": "electric_scooter", "name": "bf3c038647a2497f51321d76fc98388b"}, {"is_disabled": 0, "is_reserved": 0, "fusion_lat": 0.0, "lat": 38.911305666666664, "fusion_lon": 0.0, "rental_uris": {"ios": "https://dc.lft.to/lastmile_qr_scan", "android": "https://dc.lft.to/lastmile_qr_scan"}, "lon": -77.02199383333334, "bike_id": "61323fbf1ff9b0d58b404972b7c83048", "type": "electric_scooter", "name": "61323fbf1ff9b0d58b404972b7c83048"}, {"is_disabled": 0, "is_reserved": 0, "fusion_lat": 0.0, "lat": 38.9151275, "fusion_lon": 0.0, "rental_uris": {"ios": "https://dc.lft.to/lastmile_qr_scan", "android": "https://dc.lft.to/lastmile_qr_scan"}, "lon": -77.01906916666667, "bike_id": "ddb524d25583868b39acb1b910c17bfe", "type": "electric_scooter", "name": "ddb524d25583868b39acb1b910c17bfe"}, {"is_disabled": 0, "is_reserved": 0, "fusion_lat": 0.0, "lat": 38.93274316666667, "fusion_lon": 0.0, "rental_uris": {"ios": "https://dc.lft.to/lastmile_qr_scan", "android": "https://dc.lft.to/lastmile_qr_scan"}, "lon": -77.02096566666667, "bike_id": "c32237273f43bab8db7759011c3aecd6", "type": "electric_scooter", "name": "c32237273f43bab8db7759011c3aecd6"}, {"is_disabled": 0, "is_reserved": 0, "fusion_lat": 0.0, "lat": 38.88967533333334, "fusion_lon": 0.0, "rental_uris": {"ios": "https://dc.lft.to/lastmile_qr_scan", "android": "https://dc.lft.to/lastmile_qr_scan"}, "lon": -76.98034966666667, "bike_id": "19d24d354f22c988b195ad31c0b3af2a", "type": "electric_scooter", "name": "19d24d354f22c988b195ad31c0b3af2a"}, {"is_disabled": 0, "is_reserved": 0, "fusion_lat": 0.0, "lat": 38.91115666666666, "fusion_lon": 0.0, "rental_uris": {"ios": "https://dc.lft.to/lastmile_qr_scan", "android": "https://dc.lft.to/lastmile_qr_scan"}, "lon": -77.03833383333334, "bike_id": "3595376b148350b4c5a19062a936bf06", "type": "electric_scooter", "name": "3595376b148350b4c5a19062a936bf06"}, {"is_disabled": 0, "is_reserved": 0, "fusion_lat": 0.0, "lat": 38.890924, "fusion_lon": 0.0, "rental_uris": {"ios": "https://dc.lft.to/lastmile_qr_scan", "android": "https://dc.lft.to/lastmile_qr_scan"}, "lon": -77.048588, "bike_id": "517cb5a6eb16b43473aec46c1ee902ea", "type": "electric_scooter", "name": "517cb5a6eb16b43473aec46c1ee902ea"}, {"is_disabled": 0, "is_reserved": 0, "fusion_lat": 0.0, "lat": 38.88715, "fusion_lon": 0.0, "rental_uris": {"ios": "https://dc.lft.to/lastmile_qr_scan", "android": "https://dc.lft.to/lastmile_qr_scan"}, "lon": -76.996259, "bike_id": "047dffb287f753e9020e67ad235d6da6", "type": "electric_scooter", "name": "047dffb287f753e9020e67ad235d6da6"}, {"is_disabled": 0, "is_reserved": 0, "fusion_lat": 0.0, "lat": 38.923869833333335, "fusion_lon": 0.0, "rental_uris": {"ios": "https://dc.lft.to/lastmile_qr_scan", "android": "https://dc.lft.to/lastmile_qr_scan"}, "lon": -77.043184, "bike_id": "d496a8ef17636fa8d7baa7fc138f9604", "type": "electric_scooter", "name": "d496a8ef17636fa8d7baa7fc138f9604"}, {"is_disabled": 0, "is_reserved": 0, "fusion_lat": 0.0, "lat": 38.8905275, "fusion_lon": 0.0, "rental_uris": {"ios": "https://dc.lft.to/lastmile_qr_scan", "android": "https://dc.lft.to/lastmile_qr_scan"}, "lon": -77.01970566666667, "bike_id": "25bc41714c4d212fd75ee09451d354b7", "type": "electric_scooter", "name": "25bc41714c4d212fd75ee09451d354b7"}, {"is_disabled": 0, "is_reserved": 0, "fusion_lat": 0.0, "lat": 38.8705945, "fusion_lon": 0.0, "rental_uris": {"ios": "https://dc.lft.to/lastmile_qr_scan", "android": "https://dc.lft.to/lastmile_qr_scan"}, "lon": -77.11044266666667, "bike_id": "2bb34622e52cd79233e97de641b8170c", "type": "electric_bike", "name": "2bb34622e52cd79233e97de641b8170c"}, {"is_disabled": 0, "is_reserved": 0, "fusion_lat": 0.0, "lat": 38.93310366666667, "fusion_lon": 0.0, "rental_uris": {"ios": "https://dc.lft.to/lastmile_qr_scan", "android": "https://dc.lft.to/lastmile_qr_scan"}, "lon": -77.02178416666666, "bike_id": "4389cbda5e6341e8dab7a366b4ecf19c", "type": "electric_scooter", "name": "4389cbda5e6341e8dab7a366b4ecf19c"}, {"is_disabled": 0, "is_reserved": 0, "fusion_lat": 0.0, "lat": 38.923355666666666, "fusion_lon": 0.0, "rental_uris": {"ios": "https://dc.lft.to/lastmile_qr_scan", "android": "https://dc.lft.to/lastmile_qr_scan"}, "lon": -77.0560455, "bike_id": "4a5af12545bf44ebec0012c102b26321", "type": "electric_scooter", "name": "4a5af12545bf44ebec0012c102b26321"}, {"is_disabled": 0, "is_reserved": 0, "fusion_lat": 0.0, "lat": 38.87921083333333, "fusion_lon": 0.0, "rental_uris": {"ios": "https://dc.lft.to/lastmile_qr_scan", "android": "https://dc.lft.to/lastmile_qr_scan"}, "lon": -77.0086665, "bike_id": "e038d1adac65d134b6252cd2dae022f4", "type": "electric_scooter", "name": "e038d1adac65d134b6252cd2dae022f4"}, {"is_disabled": 0, "is_reserved": 0, "fusion_lat": 0.0, "lat": 38.8682115, "fusion_lon": 0.0, "rental_uris": {"ios": "https://dc.lft.to/lastmile_qr_scan", "android": "https://dc.lft.to/lastmile_qr_scan"}, "lon": -76.98025366666667, "bike_id": "aa6d9cde6d3f0390d7da9f8c1f5491f5", "type": "electric_bike", "name": "aa6d9cde6d3f0390d7da9f8c1f5491f5"}, {"is_disabled": 0, "is_reserved": 0, "fusion_lat": 0.0, "lat": 38.920603, "fusion_lon": 0.0, "rental_uris": {"ios": "https://dc.lft.to/lastmile_qr_scan", "android": "https://dc.lft.to/lastmile_qr_scan"}, "lon": -77.03301783333333, "bike_id": "4a2b45d1f19b48b8fb6c81539d95f3a0", "type": "electric_scooter", "name": "4a2b45d1f19b48b8fb6c81539d95f3a0"}, {"is_disabled": 0, "is_reserved": 0, "fusion_lat": 0.0, "lat": 38.939210833333334, "fusion_lon": 0.0, "rental_uris": {"ios": "https://dc.lft.to/lastmile_qr_scan", "android": "https://dc.lft.to/lastmile_qr_scan"}, "lon": -77.03261683333334, "bike_id": "86263196ce80483b80eea1ac75c89f36", "type": "electric_scooter", "name": "86263196ce80483b80eea1ac75c89f36"}, {"is_disabled": 0, "is_reserved": 0, "fusion_lat": 0.0, "lat": 38.912091833333335, "fusion_lon": 0.0, "rental_uris": {"ios": "https://dc.lft.to/lastmile_qr_scan", "android": "https://dc.lft.to/lastmile_qr_scan"}, "lon": -77.044687, "bike_id": "48f2e9a8d6219378ce82c5a9953eaf14", "type": "electric_scooter", "name": "48f2e9a8d6219378ce82c5a9953eaf14"}, {"is_disabled": 0, "is_reserved": 0, "fusion_lat": 0.0, "lat": 38.90774916666667, "fusion_lon": 0.0, "rental_uris": {"ios": "https://dc.lft.to/lastmile_qr_scan", "android": "https://dc.lft.to/lastmile_qr_scan"}, "lon": -77.03547666666667, "bike_id": "aed8e9998c5572373723389e912d806c", "type": "electric_scooter", "name": "aed8e9998c5572373723389e912d806c"}, {"is_disabled": 0, "is_reserved": 0, "fusion_lat": 0.0, "lat": 38.93246633333333, "fusion_lon": 0.0, "rental_uris": {"ios": "https://dc.lft.to/lastmile_qr_scan", "android": "https://dc.lft.to/lastmile_qr_scan"}, "lon": -77.03882466666667, "bike_id": "ae77b7d378033280a0563ab8f6fd8deb", "type": "electric_scooter", "name": "ae77b7d378033280a0563ab8f6fd8deb"}, {"is_disabled": 0, "is_reserved": 0, "fusion_lat": 0.0, "lat": 38.90657316666667, "fusion_lon": 0.0, "rental_uris": {"ios": "https://dc.lft.to/lastmile_qr_scan", "android": "https://dc.lft.to/lastmile_qr_scan"}, "lon": -77.053156, "bike_id": "4008a5abac451eea41531cbadc4b6784", "type": "electric_scooter", "name": "4008a5abac451eea41531cbadc4b6784"}, {"is_disabled": 0, "is_reserved": 0, "fusion_lat": 0.0, "lat": 38.9025735, "fusion_lon": 0.0, "rental_uris": {"ios": "https://dc.lft.to/lastmile_qr_scan", "android": "https://dc.lft.to/lastmile_qr_scan"}, "lon": -77.0264625, "bike_id": "881df1a2c2d52dcef1d92993fca852cd", "type": "electric_scooter", "name": "881df1a2c2d52dcef1d92993fca852cd"}, {"is_disabled": 0, "is_reserved": 0, "fusion_lat": 0.0, "lat": 38.88666116666667, "fusion_lon": 0.0, "rental_uris": {"ios": "https://dc.lft.to/lastmile_qr_scan", "android": "https://dc.lft.to/lastmile_qr_scan"}, "lon": -77.1623055, "bike_id": "2a1d84bca6db8a4dab789aa3e4921fe3", "type": "electric_bike", "name": "2a1d84bca6db8a4dab789aa3e4921fe3"}, {"is_disabled": 0, "is_reserved": 0, "fusion_lat": 0.0, "lat": 38.925199, "fusion_lon": 0.0, "rental_uris": {"ios": "https://dc.lft.to/lastmile_qr_scan", "android": "https://dc.lft.to/lastmile_qr_scan"}, "lon": -77.02126566666666, "bike_id": "76598d342f9859f37154c54aa7b63c60", "type": "electric_scooter", "name": "76598d342f9859f37154c54aa7b63c60"}, {"is_disabled": 0, "is_reserved": 0, "fusion_lat": 0.0, "lat": 38.96766483333333, "fusion_lon": 0.0, "rental_uris": {"ios": "https://dc.lft.to/lastmile_qr_scan", "android": "https://dc.lft.to/lastmile_qr_scan"}, "lon": -77.03351783333333, "bike_id": "398ac159369a7936547c4f962f325dec", "type": "electric_scooter", "name": "398ac159369a7936547c4f962f325dec"}, {"is_disabled": 0, "is_reserved": 0, "fusion_lat": 0.0, "lat": 38.921570333333335, "fusion_lon": 0.0, "rental_uris": {"ios": "https://dc.lft.to/lastmile_qr_scan", "android": "https://dc.lft.to/lastmile_qr_scan"}, "lon": -77.03390733333333, "bike_id": "01b50902faefa8be8590f7bb29bc414b", "type": "electric_scooter", "name": "01b50902faefa8be8590f7bb29bc414b"}, {"is_disabled": 0, "is_reserved": 0, "fusion_lat": 0.0, "lat": 38.929747666666664, "fusion_lon": 0.0, "rental_uris": {"ios": "https://dc.lft.to/lastmile_qr_scan", "android": "https://dc.lft.to/lastmile_qr_scan"}, "lon": -77.02827366666666, "bike_id": "b6cb791e89e4205ef8b91ec978e0f2d4", "type": "electric_scooter", "name": "b6cb791e89e4205ef8b91ec978e0f2d4"}, {"is_disabled": 0, "is_reserved": 0, "fusion_lat": 0.0, "lat": 38.92779633333333, "fusion_lon": 0.0, "rental_uris": {"ios": "https://dc.lft.to/lastmile_qr_scan", "android": "https://dc.lft.to/lastmile_qr_scan"}, "lon": -77.05262883333333, "bike_id": "952c3d2791d869f759c64bcf436fccf7", "type": "electric_scooter", "name": "952c3d2791d869f759c64bcf436fccf7"}, {"is_disabled": 0, "is_reserved": 0, "fusion_lat": 0.0, "lat": 38.94288533333334, "fusion_lon": 0.0, "rental_uris": {"ios": "https://dc.lft.to/lastmile_qr_scan", "android": "https://dc.lft.to/lastmile_qr_scan"}, "lon": -77.07719216666666, "bike_id": "1cad09ff0dc88248971618bba514d638", "type": "electric_scooter", "name": "1cad09ff0dc88248971618bba514d638"}, {"is_disabled": 0, "is_reserved": 0, "fusion_lat": 0.0, "lat": 38.892009333333334, "fusion_lon": 0.0, "rental_uris": {"ios": "https://dc.lft.to/lastmile_qr_scan", "android": "https://dc.lft.to/lastmile_qr_scan"}, "lon": -77.04391816666667, "bike_id": "cae6d625c8537cf2edbf53b660258acc", "type": "electric_scooter", "name": "cae6d625c8537cf2edbf53b660258acc"}, {"is_disabled": 0, "is_reserved": 0, "fusion_lat": 0.0, "lat": 38.94182, "fusion_lon": 0.0, "rental_uris": {"ios": "https://dc.lft.to/lastmile_qr_scan", "android": "https://dc.lft.to/lastmile_qr_scan"}, "lon": -77.01529666666667, "bike_id": "5c6dbcf9d2ef34cc58fb7427b2e42abc", "type": "electric_scooter", "name": "5c6dbcf9d2ef34cc58fb7427b2e42abc"}, {"is_disabled": 0, "is_reserved": 0, "fusion_lat": 0.0, "lat": 38.920722, "fusion_lon": 0.0, "rental_uris": {"ios": "https://dc.lft.to/lastmile_qr_scan", "android": "https://dc.lft.to/lastmile_qr_scan"}, "lon": -77.04380366666666, "bike_id": "3c940775c31ec95fffd1da17353f5066", "type": "electric_scooter", "name": "3c940775c31ec95fffd1da17353f5066"}, {"is_disabled": 0, "is_reserved": 0, "fusion_lat": 0.0, "lat": 38.895152333333336, "fusion_lon": 0.0, "rental_uris": {"ios": "https://dc.lft.to/lastmile_qr_scan", "android": "https://dc.lft.to/lastmile_qr_scan"}, "lon": -77.02270766666666, "bike_id": "6ff335e47192cc8c0ea87d2001d1f771", "type": "electric_scooter", "name": "6ff335e47192cc8c0ea87d2001d1f771"}, {"is_disabled": 0, "is_reserved": 0, "fusion_lat": 0.0, "lat": 38.918159833333334, "fusion_lon": 0.0, "rental_uris": {"ios": "https://dc.lft.to/lastmile_qr_scan", "android": "https://dc.lft.to/lastmile_qr_scan"}, "lon": -77.0399825, "bike_id": "e2404d987964249535598be1bf0d9722", "type": "electric_scooter", "name": "e2404d987964249535598be1bf0d9722"}, {"is_disabled": 0, "is_reserved": 0, "fusion_lat": 0.0, "lat": 38.92180283333333, "fusion_lon": 0.0, "rental_uris": {"ios": "https://dc.lft.to/lastmile_qr_scan", "android": "https://dc.lft.to/lastmile_qr_scan"}, "lon": -76.99423116666667, "bike_id": "8d2c1163e00c7ef05d4277750a4f6104", "type": "electric_scooter", "name": "8d2c1163e00c7ef05d4277750a4f6104"}, {"is_disabled": 0, "is_reserved": 0, "fusion_lat": 0.0, "lat": 38.94290433333333, "fusion_lon": 0.0, "rental_uris": {"ios": "https://dc.lft.to/lastmile_qr_scan", "android": "https://dc.lft.to/lastmile_qr_scan"}, "lon": -77.02168416666666, "bike_id": "26b657a33f186d67a5b248f3d078ded8", "type": "electric_scooter", "name": "26b657a33f186d67a5b248f3d078ded8"}, {"is_disabled": 0, "is_reserved": 0, "fusion_lat": 0.0, "lat": 38.927487166666666, "fusion_lon": 0.0, "rental_uris": {"ios": "https://dc.lft.to/lastmile_qr_scan", "android": "https://dc.lft.to/lastmile_qr_scan"}, "lon": -77.02159116666667, "bike_id": "14609e483aa371cface6ccf1244a5e38", "type": "electric_scooter", "name": "14609e483aa371cface6ccf1244a5e38"}, {"is_disabled": 0, "is_reserved": 0, "fusion_lat": 0.0, "lat": 38.921705833333334, "fusion_lon": 0.0, "rental_uris": {"ios": "https://dc.lft.to/lastmile_qr_scan", "android": "https://dc.lft.to/lastmile_qr_scan"}, "lon": -77.04232133333333, "bike_id": "80e9713927eb08fed29a6ba846ed32fc", "type": "electric_scooter", "name": "80e9713927eb08fed29a6ba846ed32fc"}, {"is_disabled": 0, "is_reserved": 0, "fusion_lat": 0.0, "lat": 38.8966665, "fusion_lon": 0.0, "rental_uris": {"ios": "https://dc.lft.to/lastmile_qr_scan", "android": "https://dc.lft.to/lastmile_qr_scan"}, "lon": -76.94911383333333, "bike_id": "a9d592aa575f70b4135fa439d5959693", "type": "electric_scooter", "name": "a9d592aa575f70b4135fa439d5959693"}, {"is_disabled": 0, "is_reserved": 0, "fusion_lat": 0.0, "lat": 38.89851933333333, "fusion_lon": 0.0, "rental_uris": {"ios": "https://dc.lft.to/lastmile_qr_scan", "android": "https://dc.lft.to/lastmile_qr_scan"}, "lon": -77.02858183333333, "bike_id": "edc7d25e63df70f89ad05a7f0e5195ba", "type": "electric_scooter", "name": "edc7d25e63df70f89ad05a7f0e5195ba"}, {"is_disabled": 0, "is_reserved": 0, "fusion_lat": 0.0, "lat": 38.92552033333333, "fusion_lon": 0.0, "rental_uris": {"ios": "https://dc.lft.to/lastmile_qr_scan", "android": "https://dc.lft.to/lastmile_qr_scan"}, "lon": -77.003243, "bike_id": "2eef271cb6ff7a9c1bc4b1a1470e7547", "type": "electric_scooter", "name": "2eef271cb6ff7a9c1bc4b1a1470e7547"}, {"is_disabled": 0, "is_reserved": 0, "fusion_lat": 0.0, "lat": 38.91633866666667, "fusion_lon": 0.0, "rental_uris": {"ios": "https://dc.lft.to/lastmile_qr_scan", "android": "https://dc.lft.to/lastmile_qr_scan"}, "lon": -77.00854166666667, "bike_id": "8f162b7ef8a2b114e9109f475bdfb4d0", "type": "electric_scooter", "name": "8f162b7ef8a2b114e9109f475bdfb4d0"}, {"is_disabled": 0, "is_reserved": 0, "fusion_lat": 0.0, "lat": 38.9205615, "fusion_lon": 0.0, "rental_uris": {"ios": "https://dc.lft.to/lastmile_qr_scan", "android": "https://dc.lft.to/lastmile_qr_scan"}, "lon": -77.04387733333333, "bike_id": "887792ca30f711d99f73c8a7cd620e2a", "type": "electric_scooter", "name": "887792ca30f711d99f73c8a7cd620e2a"}, {"is_disabled": 0, "is_reserved": 0, "fusion_lat": 0.0, "lat": 38.874740333333335, "fusion_lon": 0.0, "rental_uris": {"ios": "https://dc.lft.to/lastmile_qr_scan", "android": "https://dc.lft.to/lastmile_qr_scan"}, "lon": -77.01073883333333, "bike_id": "41b440d61cd2f69424118acbfde36c85", "type": "electric_scooter", "name": "41b440d61cd2f69424118acbfde36c85"}, {"is_disabled": 0, "is_reserved": 0, "fusion_lat": 0.0, "lat": 38.90959466666666, "fusion_lon": 0.0, "rental_uris": {"ios": "https://dc.lft.to/lastmile_qr_scan", "android": "https://dc.lft.to/lastmile_qr_scan"}, "lon": -77.02306016666667, "bike_id": "8ce53e55ca54faf1983b928150a56824", "type": "electric_scooter", "name": "8ce53e55ca54faf1983b928150a56824"}, {"is_disabled": 0, "is_reserved": 0, "fusion_lat": 0.0, "lat": 38.936612333333336, "fusion_lon": 0.0, "rental_uris": {"ios": "https://dc.lft.to/lastmile_qr_scan", "android": "https://dc.lft.to/lastmile_qr_scan"}, "lon": -77.06609, "bike_id": "f413fcbf79cec3c32ba7d14ef641d11d", "type": "electric_scooter", "name": "f413fcbf79cec3c32ba7d14ef641d11d"}, {"is_disabled": 0, "is_reserved": 0, "fusion_lat": 0.0, "lat": 38.93120616666667, "fusion_lon": 0.0, "rental_uris": {"ios": "https://dc.lft.to/lastmile_qr_scan", "android": "https://dc.lft.to/lastmile_qr_scan"}, "lon": -77.02071566666666, "bike_id": "399b51471a8d062d3b9b6290f75d3ba4", "type": "electric_scooter", "name": "399b51471a8d062d3b9b6290f75d3ba4"}, {"is_disabled": 0, "is_reserved": 0, "fusion_lat": 0.0, "lat": 38.88262666666667, "fusion_lon": 0.0, "rental_uris": {"ios": "https://dc.lft.to/lastmile_qr_scan", "android": "https://dc.lft.to/lastmile_qr_scan"}, "lon": -77.00069633333334, "bike_id": "9508f7b9fc0e74e4f77b41048572beeb", "type": "electric_scooter", "name": "9508f7b9fc0e74e4f77b41048572beeb"}, {"is_disabled": 0, "is_reserved": 0, "fusion_lat": 0.0, "lat": 38.923184, "fusion_lon": 0.0, "rental_uris": {"ios": "https://dc.lft.to/lastmile_qr_scan", "android": "https://dc.lft.to/lastmile_qr_scan"}, "lon": -77.04183083333334, "bike_id": "46855d714f472fbd0c9720a89642e852", "type": "electric_scooter", "name": "46855d714f472fbd0c9720a89642e852"}, {"is_disabled": 0, "is_reserved": 0, "fusion_lat": 0.0, "lat": 38.930656666666664, "fusion_lon": 0.0, "rental_uris": {"ios": "https://dc.lft.to/lastmile_qr_scan", "android": "https://dc.lft.to/lastmile_qr_scan"}, "lon": -77.04030033333333, "bike_id": "411664d365b16d107bc5a54adb1426a6", "type": "electric_scooter", "name": "411664d365b16d107bc5a54adb1426a6"}, {"is_disabled": 0, "is_reserved": 0, "fusion_lat": 0.0, "lat": 38.947247, "fusion_lon": 0.0, "rental_uris": {"ios": "https://dc.lft.to/lastmile_qr_scan", "android": "https://dc.lft.to/lastmile_qr_scan"}, "lon": -77.023517, "bike_id": "b3f73b1230f79f124d1454520fa4879a", "type": "electric_scooter", "name": "b3f73b1230f79f124d1454520fa4879a"}, {"is_disabled": 0, "is_reserved": 0, "fusion_lat": 0.0, "lat": 38.92548716666667, "fusion_lon": 0.0, "rental_uris": {"ios": "https://dc.lft.to/lastmile_qr_scan", "android": "https://dc.lft.to/lastmile_qr_scan"}, "lon": -77.02279233333333, "bike_id": "73006556052cafdc2151e89b20e296b8", "type": "electric_scooter", "name": "73006556052cafdc2151e89b20e296b8"}, {"is_disabled": 0, "is_reserved": 0, "fusion_lat": 0.0, "lat": 38.917876, "fusion_lon": 0.0, "rental_uris": {"ios": "https://dc.lft.to/lastmile_qr_scan", "android": "https://dc.lft.to/lastmile_qr_scan"}, "lon": -77.02472016666667, "bike_id": "bff14476c49e12d4e0f095b9df93762a", "type": "electric_scooter", "name": "bff14476c49e12d4e0f095b9df93762a"}, {"is_disabled": 0, "is_reserved": 0, "fusion_lat": 0.0, "lat": 38.90222166666667, "fusion_lon": 0.0, "rental_uris": {"ios": "https://dc.lft.to/lastmile_qr_scan", "android": "https://dc.lft.to/lastmile_qr_scan"}, "lon": -77.0237835, "bike_id": "d45d0735679ee41b1cad97ffa4975de0", "type": "electric_scooter", "name": "d45d0735679ee41b1cad97ffa4975de0"}, {"is_disabled": 0, "is_reserved": 0, "fusion_lat": 0.0, "lat": 38.90955366666667, "fusion_lon": 0.0, "rental_uris": {"ios": "https://dc.lft.to/lastmile_qr_scan", "android": "https://dc.lft.to/lastmile_qr_scan"}, "lon": -77.0231325, "bike_id": "0c3a2bd5d9d7778a7525d22a9d5c5aa5", "type": "electric_scooter", "name": "0c3a2bd5d9d7778a7525d22a9d5c5aa5"}, {"is_disabled": 0, "is_reserved": 0, "fusion_lat": 0.0, "lat": 38.926546333333334, "fusion_lon": 0.0, "rental_uris": {"ios": "https://dc.lft.to/lastmile_qr_scan", "android": "https://dc.lft.to/lastmile_qr_scan"}, "lon": -77.02434533333333, "bike_id": "2d8a21355128c28e72e3f6ffe9e4f0cb", "type": "electric_scooter", "name": "2d8a21355128c28e72e3f6ffe9e4f0cb"}, {"is_disabled": 0, "is_reserved": 0, "fusion_lat": 0.0, "lat": 38.901956, "fusion_lon": 0.0, "rental_uris": {"ios": "https://dc.lft.to/lastmile_qr_scan", "android": "https://dc.lft.to/lastmile_qr_scan"}, "lon": -77.05091916666667, "bike_id": "9416278501769827c36d16685ee1e0c4", "type": "electric_scooter", "name": "9416278501769827c36d16685ee1e0c4"}, {"is_disabled": 0, "is_reserved": 0, "fusion_lat": 0.0, "lat": 38.91569883333333, "fusion_lon": 0.0, "rental_uris": {"ios": "https://dc.lft.to/lastmile_qr_scan", "android": "https://dc.lft.to/lastmile_qr_scan"}, "lon": -77.06777166666667, "bike_id": "721bbf60c024f0ac2f54cfaf2708ddec", "type": "electric_scooter", "name": "721bbf60c024f0ac2f54cfaf2708ddec"}, {"is_disabled": 0, "is_reserved": 0, "fusion_lat": 0.0, "lat": 38.84280616666667, "fusion_lon": 0.0, "rental_uris": {"ios": "https://dc.lft.to/lastmile_qr_scan", "android": "https://dc.lft.to/lastmile_qr_scan"}, "lon": -76.98842866666666, "bike_id": "0ae737f4aaaae35d5a2eac1ba5789d02", "type": "electric_bike", "name": "0ae737f4aaaae35d5a2eac1ba5789d02"}, {"is_disabled": 0, "is_reserved": 0, "fusion_lat": 0.0, "lat": 38.92124166666667, "fusion_lon": 0.0, "rental_uris": {"ios": "https://dc.lft.to/lastmile_qr_scan", "android": "https://dc.lft.to/lastmile_qr_scan"}, "lon": -77.03663266666666, "bike_id": "3a85ea6412f99f2d3c4d632f0cd439b2", "type": "electric_scooter", "name": "3a85ea6412f99f2d3c4d632f0cd439b2"}, {"is_disabled": 0, "is_reserved": 0, "fusion_lat": 0.0, "lat": 38.928829666666665, "fusion_lon": 0.0, "rental_uris": {"ios": "https://dc.lft.to/lastmile_qr_scan", "android": "https://dc.lft.to/lastmile_qr_scan"}, "lon": -77.0260395, "bike_id": "a63f2fa208e6f3fda59435cf7324f32c", "type": "electric_scooter", "name": "a63f2fa208e6f3fda59435cf7324f32c"}, {"is_disabled": 0, "is_reserved": 0, "fusion_lat": 0.0, "lat": 38.900589833333335, "fusion_lon": 0.0, "rental_uris": {"ios": "https://dc.lft.to/lastmile_qr_scan", "android": "https://dc.lft.to/lastmile_qr_scan"}, "lon": -77.01727183333334, "bike_id": "ab7ff0d1be98bc6baae94956536ca197", "type": "electric_scooter", "name": "ab7ff0d1be98bc6baae94956536ca197"}, {"is_disabled": 0, "is_reserved": 0, "fusion_lat": 0.0, "lat": 38.88403683333333, "fusion_lon": 0.0, "rental_uris": {"ios": "https://dc.lft.to/lastmile_qr_scan", "android": "https://dc.lft.to/lastmile_qr_scan"}, "lon": -77.030427, "bike_id": "649caecb95c2fd4c8b9d964b64eb2e98", "type": "electric_scooter", "name": "649caecb95c2fd4c8b9d964b64eb2e98"}, {"is_disabled": 0, "is_reserved": 0, "fusion_lat": 0.0, "lat": 38.90230116666667, "fusion_lon": 0.0, "rental_uris": {"ios": "https://dc.lft.to/lastmile_qr_scan", "android": "https://dc.lft.to/lastmile_qr_scan"}, "lon": -77.0534325, "bike_id": "a329e5f565062f1b0d2d5b66e80cdfaf", "type": "electric_scooter", "name": "a329e5f565062f1b0d2d5b66e80cdfaf"}, {"is_disabled": 0, "is_reserved": 0, "fusion_lat": 0.0, "lat": 38.907874, "fusion_lon": 0.0, "rental_uris": {"ios": "https://dc.lft.to/lastmile_qr_scan", "android": "https://dc.lft.to/lastmile_qr_scan"}, "lon": -77.04655833333334, "bike_id": "d1800e941efe044e364e2736ebd4421a", "type": "electric_scooter", "name": "d1800e941efe044e364e2736ebd4421a"}, {"is_disabled": 0, "is_reserved": 0, "fusion_lat": 0.0, "lat": 38.880950166666665, "fusion_lon": 0.0, "rental_uris": {"ios": "https://dc.lft.to/lastmile_qr_scan", "android": "https://dc.lft.to/lastmile_qr_scan"}, "lon": -77.02594, "bike_id": "faaedcb42ec38b0e196e4ee4c2c46347", "type": "electric_scooter", "name": "faaedcb42ec38b0e196e4ee4c2c46347"}, {"is_disabled": 0, "is_reserved": 0, "fusion_lat": 0.0, "lat": 38.936061333333335, "fusion_lon": 0.0, "rental_uris": {"ios": "https://dc.lft.to/lastmile_qr_scan", "android": "https://dc.lft.to/lastmile_qr_scan"}, "lon": -77.038787, "bike_id": "81f18c40be751d13c8f0425f5fc90bdd", "type": "electric_scooter", "name": "81f18c40be751d13c8f0425f5fc90bdd"}, {"is_disabled": 0, "is_reserved": 0, "fusion_lat": 0.0, "lat": 38.90896583333333, "fusion_lon": 0.0, "rental_uris": {"ios": "https://dc.lft.to/lastmile_qr_scan", "android": "https://dc.lft.to/lastmile_qr_scan"}, "lon": -76.9979815, "bike_id": "076e56a2c6e2084c4aaded319096a966", "type": "electric_scooter", "name": "076e56a2c6e2084c4aaded319096a966"}, {"is_disabled": 0, "is_reserved": 0, "fusion_lat": 0.0, "lat": 38.9363295, "fusion_lon": 0.0, "rental_uris": {"ios": "https://dc.lft.to/lastmile_qr_scan", "android": "https://dc.lft.to/lastmile_qr_scan"}, "lon": -77.036666, "bike_id": "9063b741e241be924e2f1d28a616e705", "type": "electric_scooter", "name": "9063b741e241be924e2f1d28a616e705"}, {"is_disabled": 0, "is_reserved": 0, "fusion_lat": 0.0, "lat": 38.934142, "fusion_lon": 0.0, "rental_uris": {"ios": "https://dc.lft.to/lastmile_qr_scan", "android": "https://dc.lft.to/lastmile_qr_scan"}, "lon": -77.04282516666666, "bike_id": "3e04195e9c6fb78b170668be20568aef", "type": "electric_scooter", "name": "3e04195e9c6fb78b170668be20568aef"}, {"is_disabled": 0, "is_reserved": 0, "fusion_lat": 0.0, "lat": 38.91905583333333, "fusion_lon": 0.0, "rental_uris": {"ios": "https://dc.lft.to/lastmile_qr_scan", "android": "https://dc.lft.to/lastmile_qr_scan"}, "lon": -77.10176416666667, "bike_id": "03facf130a18344afbc0ca90d5a5238e", "type": "electric_bike", "name": "03facf130a18344afbc0ca90d5a5238e"}, {"is_disabled": 0, "is_reserved": 0, "fusion_lat": 0.0, "lat": 38.900325, "fusion_lon": 0.0, "rental_uris": {"ios": "https://dc.lft.to/lastmile_qr_scan", "android": "https://dc.lft.to/lastmile_qr_scan"}, "lon": -76.99839466666667, "bike_id": "4119abe0063ae0511620fbc83230858a", "type": "electric_scooter", "name": "4119abe0063ae0511620fbc83230858a"}, {"is_disabled": 0, "is_reserved": 0, "fusion_lat": 0.0, "lat": 38.892496333333334, "fusion_lon": 0.0, "rental_uris": {"ios": "https://dc.lft.to/lastmile_qr_scan", "android": "https://dc.lft.to/lastmile_qr_scan"}, "lon": -77.03954183333333, "bike_id": "1ec8ab2695cb1fcc53cbe1180bc6a46e", "type": "electric_scooter", "name": "1ec8ab2695cb1fcc53cbe1180bc6a46e"}, {"is_disabled": 0, "is_reserved": 0, "fusion_lat": 0.0, "lat": 38.92862316666667, "fusion_lon": 0.0, "rental_uris": {"ios": "https://dc.lft.to/lastmile_qr_scan", "android": "https://dc.lft.to/lastmile_qr_scan"}, "lon": -77.07892766666667, "bike_id": "bcdcff0443a192ed499bb0a964680343", "type": "electric_scooter", "name": "bcdcff0443a192ed499bb0a964680343"}, {"is_disabled": 0, "is_reserved": 0, "fusion_lat": 0.0, "lat": 38.90539416666667, "fusion_lon": 0.0, "rental_uris": {"ios": "https://dc.lft.to/lastmile_qr_scan", "android": "https://dc.lft.to/lastmile_qr_scan"}, "lon": -77.0295005, "bike_id": "c5682428d982cdc06779220e8193d58d", "type": "electric_scooter", "name": "c5682428d982cdc06779220e8193d58d"}, {"is_disabled": 0, "is_reserved": 0, "fusion_lat": 0.0, "lat": 38.918262666666664, "fusion_lon": 0.0, "rental_uris": {"ios": "https://dc.lft.to/lastmile_qr_scan", "android": "https://dc.lft.to/lastmile_qr_scan"}, "lon": -77.024189, "bike_id": "a3ec9c752d38a089b542f9772d89cd85", "type": "electric_scooter", "name": "a3ec9c752d38a089b542f9772d89cd85"}, {"is_disabled": 0, "is_reserved": 0, "fusion_lat": 0.0, "lat": 38.87658666666667, "fusion_lon": 0.0, "rental_uris": {"ios": "https://dc.lft.to/lastmile_qr_scan", "android": "https://dc.lft.to/lastmile_qr_scan"}, "lon": -77.00884266666667, "bike_id": "51f9bfae918f5832a9e6be3b016264f0", "type": "electric_scooter", "name": "51f9bfae918f5832a9e6be3b016264f0"}, {"is_disabled": 0, "is_reserved": 0, "fusion_lat": 0.0, "lat": 38.883624833333336, "fusion_lon": 0.0, "rental_uris": {"ios": "https://dc.lft.to/lastmile_qr_scan", "android": "https://dc.lft.to/lastmile_qr_scan"}, "lon": -76.92791383333333, "bike_id": "c8ae9e06359acdcb19f36135d7c27867", "type": "electric_scooter", "name": "c8ae9e06359acdcb19f36135d7c27867"}, {"is_disabled": 0, "is_reserved": 0, "fusion_lat": 0.0, "lat": 38.913166833333335, "fusion_lon": 0.0, "rental_uris": {"ios": "https://dc.lft.to/lastmile_qr_scan", "android": "https://dc.lft.to/lastmile_qr_scan"}, "lon": -77.03259233333333, "bike_id": "571263eff3c0c0b6bfa4cce73b66f468", "type": "electric_scooter", "name": "571263eff3c0c0b6bfa4cce73b66f468"}, {"is_disabled": 0, "is_reserved": 0, "fusion_lat": 0.0, "lat": 38.904652166666665, "fusion_lon": 0.0, "rental_uris": {"ios": "https://dc.lft.to/lastmile_qr_scan", "android": "https://dc.lft.to/lastmile_qr_scan"}, "lon": -77.04890383333333, "bike_id": "6a5a6229c47d5eb759951314f66e3a2f", "type": "electric_scooter", "name": "6a5a6229c47d5eb759951314f66e3a2f"}, {"is_disabled": 0, "is_reserved": 0, "fusion_lat": 0.0, "lat": 38.918397, "fusion_lon": 0.0, "rental_uris": {"ios": "https://dc.lft.to/lastmile_qr_scan", "android": "https://dc.lft.to/lastmile_qr_scan"}, "lon": -77.04171383333333, "bike_id": "7553009fd3f4576c13dceb4c807fde34", "type": "electric_scooter", "name": "7553009fd3f4576c13dceb4c807fde34"}, {"is_disabled": 0, "is_reserved": 0, "fusion_lat": 0.0, "lat": 38.923366333333334, "fusion_lon": 0.0, "rental_uris": {"ios": "https://dc.lft.to/lastmile_qr_scan", "android": "https://dc.lft.to/lastmile_qr_scan"}, "lon": -77.05679283333333, "bike_id": "4a756dbacab25ddea7b67370db501af9", "type": "electric_scooter", "name": "4a756dbacab25ddea7b67370db501af9"}, {"is_disabled": 0, "is_reserved": 0, "fusion_lat": 0.0, "lat": 38.9060405, "fusion_lon": 0.0, "rental_uris": {"ios": "https://dc.lft.to/lastmile_qr_scan", "android": "https://dc.lft.to/lastmile_qr_scan"}, "lon": -77.12886583333334, "bike_id": "acdc7d854abf994cf77dd3cdeaefe1e7", "type": "electric_bike", "name": "acdc7d854abf994cf77dd3cdeaefe1e7"}, {"is_disabled": 0, "is_reserved": 0, "fusion_lat": 0.0, "lat": 38.892211, "fusion_lon": 0.0, "rental_uris": {"ios": "https://dc.lft.to/lastmile_qr_scan", "android": "https://dc.lft.to/lastmile_qr_scan"}, "lon": -77.02422183333333, "bike_id": "74d6bf28ba96d8eb121db403204f99d5", "type": "electric_scooter", "name": "74d6bf28ba96d8eb121db403204f99d5"}, {"is_disabled": 0, "is_reserved": 0, "fusion_lat": 0.0, "lat": 38.908734333333335, "fusion_lon": 0.0, "rental_uris": {"ios": "https://dc.lft.to/lastmile_qr_scan", "android": "https://dc.lft.to/lastmile_qr_scan"}, "lon": -76.99808683333333, "bike_id": "35acf4e1aa80dcca308d4c33ad4f9778", "type": "electric_scooter", "name": "35acf4e1aa80dcca308d4c33ad4f9778"}, {"is_disabled": 0, "is_reserved": 0, "fusion_lat": 0.0, "lat": 38.900353, "fusion_lon": 0.0, "rental_uris": {"ios": "https://dc.lft.to/lastmile_qr_scan", "android": "https://dc.lft.to/lastmile_qr_scan"}, "lon": -76.988398, "bike_id": "11cb0672757fb722539c8a545b369ede", "type": "electric_scooter", "name": "11cb0672757fb722539c8a545b369ede"}, {"is_disabled": 0, "is_reserved": 0, "fusion_lat": 0.0, "lat": 38.9347065, "fusion_lon": 0.0, "rental_uris": {"ios": "https://dc.lft.to/lastmile_qr_scan", "android": "https://dc.lft.to/lastmile_qr_scan"}, "lon": -77.02937733333333, "bike_id": "6bb6d1b997aad2e35f9a40caebb5901b", "type": "electric_scooter", "name": "6bb6d1b997aad2e35f9a40caebb5901b"}, {"is_disabled": 0, "is_reserved": 0, "fusion_lat": 0.0, "lat": 38.9492985, "fusion_lon": 0.0, "rental_uris": {"ios": "https://dc.lft.to/lastmile_qr_scan", "android": "https://dc.lft.to/lastmile_qr_scan"}, "lon": -77.01932916666667, "bike_id": "6260aeebae7999bee73c64d302084e7c", "type": "electric_scooter", "name": "6260aeebae7999bee73c64d302084e7c"}, {"is_disabled": 0, "is_reserved": 0, "fusion_lat": 0.0, "lat": 38.948344666666664, "fusion_lon": 0.0, "rental_uris": {"ios": "https://dc.lft.to/lastmile_qr_scan", "android": "https://dc.lft.to/lastmile_qr_scan"}, "lon": -76.982455, "bike_id": "05ce67dc47daea4005b5265e57334525", "type": "electric_scooter", "name": "05ce67dc47daea4005b5265e57334525"}, {"is_disabled": 0, "is_reserved": 0, "fusion_lat": 0.0, "lat": 38.919172833333334, "fusion_lon": 0.0, "rental_uris": {"ios": "https://dc.lft.to/lastmile_qr_scan", "android": "https://dc.lft.to/lastmile_qr_scan"}, "lon": -77.03427783333333, "bike_id": "222b02452f16e85788c0039d2f098dc0", "type": "electric_scooter", "name": "222b02452f16e85788c0039d2f098dc0"}, {"is_disabled": 0, "is_reserved": 0, "fusion_lat": 0.0, "lat": 38.900727833333335, "fusion_lon": 0.0, "rental_uris": {"ios": "https://dc.lft.to/lastmile_qr_scan", "android": "https://dc.lft.to/lastmile_qr_scan"}, "lon": -77.01817066666666, "bike_id": "f3b293b689e42dde40b0465da999f53a", "type": "electric_scooter", "name": "f3b293b689e42dde40b0465da999f53a"}, {"is_disabled": 0, "is_reserved": 0, "fusion_lat": 0.0, "lat": 38.9049795, "fusion_lon": 0.0, "rental_uris": {"ios": "https://dc.lft.to/lastmile_qr_scan", "android": "https://dc.lft.to/lastmile_qr_scan"}, "lon": -77.02590633333334, "bike_id": "00cfe278507680f582c0bc1e1ee80086", "type": "electric_scooter", "name": "00cfe278507680f582c0bc1e1ee80086"}, {"is_disabled": 0, "is_reserved": 0, "fusion_lat": 0.0, "lat": 38.9105555, "fusion_lon": 0.0, "rental_uris": {"ios": "https://dc.lft.to/lastmile_qr_scan", "android": "https://dc.lft.to/lastmile_qr_scan"}, "lon": -77.044961, "bike_id": "c9fa847b0a61b746bd60d30a1d068a0c", "type": "electric_scooter", "name": "c9fa847b0a61b746bd60d30a1d068a0c"}, {"is_disabled": 0, "is_reserved": 0, "fusion_lat": 0.0, "lat": 38.903627, "fusion_lon": 0.0, "rental_uris": {"ios": "https://dc.lft.to/lastmile_qr_scan", "android": "https://dc.lft.to/lastmile_qr_scan"}, "lon": -77.02776066666667, "bike_id": "64767c01e93a10c115b372f3fa031d01", "type": "electric_scooter", "name": "64767c01e93a10c115b372f3fa031d01"}, {"is_disabled": 0, "is_reserved": 0, "fusion_lat": 0.0, "lat": 38.91021716666667, "fusion_lon": 0.0, "rental_uris": {"ios": "https://dc.lft.to/lastmile_qr_scan", "android": "https://dc.lft.to/lastmile_qr_scan"}, "lon": -77.04878766666667, "bike_id": "121130f5fcfb6ef74b30fef34e48af67", "type": "electric_scooter", "name": "121130f5fcfb6ef74b30fef34e48af67"}, {"is_disabled": 0, "is_reserved": 0, "fusion_lat": 0.0, "lat": 38.924593, "fusion_lon": 0.0, "rental_uris": {"ios": "https://dc.lft.to/lastmile_qr_scan", "android": "https://dc.lft.to/lastmile_qr_scan"}, "lon": -77.02017516666666, "bike_id": "2cd8ed4a8af71fcacb45cca0239d5551", "type": "electric_scooter", "name": "2cd8ed4a8af71fcacb45cca0239d5551"}, {"is_disabled": 0, "is_reserved": 0, "fusion_lat": 0.0, "lat": 38.89639316666667, "fusion_lon": 0.0, "rental_uris": {"ios": "https://dc.lft.to/lastmile_qr_scan", "android": "https://dc.lft.to/lastmile_qr_scan"}, "lon": -77.00754, "bike_id": "6a00e21f126f05a7c5151083be713755", "type": "electric_scooter", "name": "6a00e21f126f05a7c5151083be713755"}, {"is_disabled": 0, "is_reserved": 0, "fusion_lat": 0.0, "lat": 38.922593666666664, "fusion_lon": 0.0, "rental_uris": {"ios": "https://dc.lft.to/lastmile_qr_scan", "android": "https://dc.lft.to/lastmile_qr_scan"}, "lon": -77.03658166666666, "bike_id": "cdb5eb0789c7cd3f2ad0a79a15090950", "type": "electric_scooter", "name": "cdb5eb0789c7cd3f2ad0a79a15090950"}, {"is_disabled": 0, "is_reserved": 0, "fusion_lat": 0.0, "lat": 38.88417116666667, "fusion_lon": 0.0, "rental_uris": {"ios": "https://dc.lft.to/lastmile_qr_scan", "android": "https://dc.lft.to/lastmile_qr_scan"}, "lon": -76.983506, "bike_id": "f254e6c106c15752f85251e17c15c75a", "type": "electric_scooter", "name": "f254e6c106c15752f85251e17c15c75a"}, {"is_disabled": 0, "is_reserved": 0, "fusion_lat": 0.0, "lat": 38.89235983333333, "fusion_lon": 0.0, "rental_uris": {"ios": "https://dc.lft.to/lastmile_qr_scan", "android": "https://dc.lft.to/lastmile_qr_scan"}, "lon": -77.0436235, "bike_id": "6e29a980dfc97ff9fad2a7b20de65db8", "type": "electric_scooter", "name": "6e29a980dfc97ff9fad2a7b20de65db8"}, {"is_disabled": 0, "is_reserved": 0, "fusion_lat": 0.0, "lat": 38.890362, "fusion_lon": 0.0, "rental_uris": {"ios": "https://dc.lft.to/lastmile_qr_scan", "android": "https://dc.lft.to/lastmile_qr_scan"}, "lon": -76.93748533333333, "bike_id": "9ae3d19a22567d48a51b5348951ff3ae", "type": "electric_scooter", "name": "9ae3d19a22567d48a51b5348951ff3ae"}, {"is_disabled": 0, "is_reserved": 0, "fusion_lat": 0.0, "lat": 38.89222566666667, "fusion_lon": 0.0, "rental_uris": {"ios": "https://dc.lft.to/lastmile_qr_scan", "android": "https://dc.lft.to/lastmile_qr_scan"}, "lon": -77.04680216666667, "bike_id": "ea7807c8246e7a9779567b0a4169bfe1", "type": "electric_scooter", "name": "ea7807c8246e7a9779567b0a4169bfe1"}, {"is_disabled": 0, "is_reserved": 0, "fusion_lat": 0.0, "lat": 38.89174916666666, "fusion_lon": 0.0, "rental_uris": {"ios": "https://dc.lft.to/lastmile_qr_scan", "android": "https://dc.lft.to/lastmile_qr_scan"}, "lon": -77.01564766666667, "bike_id": "ed6e5c2a5e09f4385097ad854ccf34b4", "type": "electric_scooter", "name": "ed6e5c2a5e09f4385097ad854ccf34b4"}, {"is_disabled": 0, "is_reserved": 0, "fusion_lat": 0.0, "lat": 38.9180885, "fusion_lon": 0.0, "rental_uris": {"ios": "https://dc.lft.to/lastmile_qr_scan", "android": "https://dc.lft.to/lastmile_qr_scan"}, "lon": -77.034377, "bike_id": "aee2cdb16ece38f9077a6cb5a650b9b5", "type": "electric_scooter", "name": "aee2cdb16ece38f9077a6cb5a650b9b5"}, {"is_disabled": 0, "is_reserved": 0, "fusion_lat": 0.0, "lat": 38.91557866666667, "fusion_lon": 0.0, "rental_uris": {"ios": "https://dc.lft.to/lastmile_qr_scan", "android": "https://dc.lft.to/lastmile_qr_scan"}, "lon": -77.03470833333333, "bike_id": "013a589c18c593a2e57b00d42574f1a3", "type": "electric_scooter", "name": "013a589c18c593a2e57b00d42574f1a3"}, {"is_disabled": 0, "is_reserved": 0, "fusion_lat": 0.0, "lat": 38.9356535, "fusion_lon": 0.0, "rental_uris": {"ios": "https://dc.lft.to/lastmile_qr_scan", "android": "https://dc.lft.to/lastmile_qr_scan"}, "lon": -76.991021, "bike_id": "c7bda9058fa075e319cf99bc74070bbf", "type": "electric_scooter", "name": "c7bda9058fa075e319cf99bc74070bbf"}, {"is_disabled": 0, "is_reserved": 0, "fusion_lat": 0.0, "lat": 39.00379433333333, "fusion_lon": 0.0, "rental_uris": {"ios": "https://dc.lft.to/lastmile_qr_scan", "android": "https://dc.lft.to/lastmile_qr_scan"}, "lon": -77.0128665, "bike_id": "2fd3d06c208b969aecf95810f1bbb6af", "type": "electric_bike", "name": "2fd3d06c208b969aecf95810f1bbb6af"}, {"is_disabled": 0, "is_reserved": 0, "fusion_lat": 0.0, "lat": 38.9008325, "fusion_lon": 0.0, "rental_uris": {"ios": "https://dc.lft.to/lastmile_qr_scan", "android": "https://dc.lft.to/lastmile_qr_scan"}, "lon": -77.05072333333334, "bike_id": "4c30222c9f020e930e3c6238f482050c", "type": "electric_scooter", "name": "4c30222c9f020e930e3c6238f482050c"}, {"is_disabled": 0, "is_reserved": 0, "fusion_lat": 0.0, "lat": 38.9003655, "fusion_lon": 0.0, "rental_uris": {"ios": "https://dc.lft.to/lastmile_qr_scan", "android": "https://dc.lft.to/lastmile_qr_scan"}, "lon": -76.98833633333334, "bike_id": "9425dc591d20b0341338dc3ff13d8b7a", "type": "electric_scooter", "name": "9425dc591d20b0341338dc3ff13d8b7a"}, {"is_disabled": 0, "is_reserved": 0, "fusion_lat": 0.0, "lat": 38.9307845, "fusion_lon": 0.0, "rental_uris": {"ios": "https://dc.lft.to/lastmile_qr_scan", "android": "https://dc.lft.to/lastmile_qr_scan"}, "lon": -77.07755566666667, "bike_id": "f98952874815b32d3bfa7f9439a6f48a", "type": "electric_scooter", "name": "f98952874815b32d3bfa7f9439a6f48a"}, {"is_disabled": 0, "is_reserved": 0, "fusion_lat": 0.0, "lat": 38.9536325, "fusion_lon": 0.0, "rental_uris": {"ios": "https://dc.lft.to/lastmile_qr_scan", "android": "https://dc.lft.to/lastmile_qr_scan"}, "lon": -76.94296816666667, "bike_id": "080421fb99688b73fdbf5acc0d071138", "type": "electric_bike", "name": "080421fb99688b73fdbf5acc0d071138"}, {"is_disabled": 0, "is_reserved": 0, "fusion_lat": 0.0, "lat": 38.939753833333334, "fusion_lon": 0.0, "rental_uris": {"ios": "https://dc.lft.to/lastmile_qr_scan", "android": "https://dc.lft.to/lastmile_qr_scan"}, "lon": -77.03430733333333, "bike_id": "911cd7e3f5199faef204680fc05f0d5e", "type": "electric_scooter", "name": "911cd7e3f5199faef204680fc05f0d5e"}, {"is_disabled": 0, "is_reserved": 0, "fusion_lat": 0.0, "lat": 38.90865016666667, "fusion_lon": 0.0, "rental_uris": {"ios": "https://dc.lft.to/lastmile_qr_scan", "android": "https://dc.lft.to/lastmile_qr_scan"}, "lon": -77.04682583333333, "bike_id": "718dcf33d9fb0841c2d202173d44a44f", "type": "electric_scooter", "name": "718dcf33d9fb0841c2d202173d44a44f"}, {"is_disabled": 0, "is_reserved": 0, "fusion_lat": 0.0, "lat": 38.91516466666667, "fusion_lon": 0.0, "rental_uris": {"ios": "https://dc.lft.to/lastmile_qr_scan", "android": "https://dc.lft.to/lastmile_qr_scan"}, "lon": -77.02592033333333, "bike_id": "a0a241288d85585e7cb919500eb9c575", "type": "electric_scooter", "name": "a0a241288d85585e7cb919500eb9c575"}, {"is_disabled": 0, "is_reserved": 0, "fusion_lat": 0.0, "lat": 38.892271, "fusion_lon": 0.0, "rental_uris": {"ios": "https://dc.lft.to/lastmile_qr_scan", "android": "https://dc.lft.to/lastmile_qr_scan"}, "lon": -77.03164, "bike_id": "e12667fcc631ee12303081f9a4f48365", "type": "electric_scooter", "name": "e12667fcc631ee12303081f9a4f48365"}, {"is_disabled": 0, "is_reserved": 0, "fusion_lat": 0.0, "lat": 38.927661666666665, "fusion_lon": 0.0, "rental_uris": {"ios": "https://dc.lft.to/lastmile_qr_scan", "android": "https://dc.lft.to/lastmile_qr_scan"}, "lon": -77.029534, "bike_id": "523ce2455c4627e596d38b0c7da59aba", "type": "electric_scooter", "name": "523ce2455c4627e596d38b0c7da59aba"}, {"is_disabled": 0, "is_reserved": 0, "fusion_lat": 0.0, "lat": 38.923645, "fusion_lon": 0.0, "rental_uris": {"ios": "https://dc.lft.to/lastmile_qr_scan", "android": "https://dc.lft.to/lastmile_qr_scan"}, "lon": -77.04322566666667, "bike_id": "081b62cfe8b619adc31fff11a72899c3", "type": "electric_scooter", "name": "081b62cfe8b619adc31fff11a72899c3"}, {"is_disabled": 0, "is_reserved": 0, "fusion_lat": 0.0, "lat": 38.829189666666664, "fusion_lon": 0.0, "rental_uris": {"ios": "https://dc.lft.to/lastmile_qr_scan", "android": "https://dc.lft.to/lastmile_qr_scan"}, "lon": -77.06876883333334, "bike_id": "6f71201c7797679054b1788a7cbe7678", "type": "electric_bike", "name": "6f71201c7797679054b1788a7cbe7678"}, {"is_disabled": 0, "is_reserved": 0, "fusion_lat": 0.0, "lat": 38.91067316666667, "fusion_lon": 0.0, "rental_uris": {"ios": "https://dc.lft.to/lastmile_qr_scan", "android": "https://dc.lft.to/lastmile_qr_scan"}, "lon": -77.04091583333333, "bike_id": "adc46c99d84a4e669f759a65b4af90c6", "type": "electric_scooter", "name": "adc46c99d84a4e669f759a65b4af90c6"}, {"is_disabled": 0, "is_reserved": 0, "fusion_lat": 0.0, "lat": 38.92872083333334, "fusion_lon": 0.0, "rental_uris": {"ios": "https://dc.lft.to/lastmile_qr_scan", "android": "https://dc.lft.to/lastmile_qr_scan"}, "lon": -77.05652066666667, "bike_id": "dec83836f0bfd0118af4b658039eba71", "type": "electric_scooter", "name": "dec83836f0bfd0118af4b658039eba71"}, {"is_disabled": 0, "is_reserved": 0, "fusion_lat": 0.0, "lat": 38.88038816666667, "fusion_lon": 0.0, "rental_uris": {"ios": "https://dc.lft.to/lastmile_qr_scan", "android": "https://dc.lft.to/lastmile_qr_scan"}, "lon": -76.92719983333333, "bike_id": "adce4fde1900beed7723cd7245126484", "type": "electric_scooter", "name": "adce4fde1900beed7723cd7245126484"}, {"is_disabled": 0, "is_reserved": 0, "fusion_lat": 0.0, "lat": 38.89913833333333, "fusion_lon": 0.0, "rental_uris": {"ios": "https://dc.lft.to/lastmile_qr_scan", "android": "https://dc.lft.to/lastmile_qr_scan"}, "lon": -76.933655, "bike_id": "6b322965d3f36113d50bd7d442670528", "type": "electric_scooter", "name": "6b322965d3f36113d50bd7d442670528"}, {"is_disabled": 0, "is_reserved": 0, "fusion_lat": 0.0, "lat": 38.895147333333334, "fusion_lon": 0.0, "rental_uris": {"ios": "https://dc.lft.to/lastmile_qr_scan", "android": "https://dc.lft.to/lastmile_qr_scan"}, "lon": -77.02207266666667, "bike_id": "ba160da6c7f38cc04c9d8b6c1c1a86e6", "type": "electric_scooter", "name": "ba160da6c7f38cc04c9d8b6c1c1a86e6"}, {"is_disabled": 0, "is_reserved": 0, "fusion_lat": 0.0, "lat": 38.922646, "fusion_lon": 0.0, "rental_uris": {"ios": "https://dc.lft.to/lastmile_qr_scan", "android": "https://dc.lft.to/lastmile_qr_scan"}, "lon": -77.07278333333333, "bike_id": "caf1dd9f267b91fc46b14aa5bc129649", "type": "electric_scooter", "name": "caf1dd9f267b91fc46b14aa5bc129649"}, {"is_disabled": 0, "is_reserved": 0, "fusion_lat": 0.0, "lat": 38.90527866666667, "fusion_lon": 0.0, "rental_uris": {"ios": "https://dc.lft.to/lastmile_qr_scan", "android": "https://dc.lft.to/lastmile_qr_scan"}, "lon": -77.06207383333333, "bike_id": "afcfbed18991885f26b5e9e056ec9b67", "type": "electric_scooter", "name": "afcfbed18991885f26b5e9e056ec9b67"}, {"is_disabled": 0, "is_reserved": 0, "fusion_lat": 0.0, "lat": 38.9474675, "fusion_lon": 0.0, "rental_uris": {"ios": "https://dc.lft.to/lastmile_qr_scan", "android": "https://dc.lft.to/lastmile_qr_scan"}, "lon": -77.02353116666667, "bike_id": "04c0036faf7995bf4da3c0f97977f71d", "type": "electric_scooter", "name": "04c0036faf7995bf4da3c0f97977f71d"}, {"is_disabled": 0, "is_reserved": 0, "fusion_lat": 0.0, "lat": 38.911008833333334, "fusion_lon": 0.0, "rental_uris": {"ios": "https://dc.lft.to/lastmile_qr_scan", "android": "https://dc.lft.to/lastmile_qr_scan"}, "lon": -77.02803183333333, "bike_id": "c6e71c2ad8c5b5a7899f558a96195c80", "type": "electric_scooter", "name": "c6e71c2ad8c5b5a7899f558a96195c80"}, {"is_disabled": 0, "is_reserved": 0, "fusion_lat": 0.0, "lat": 38.85601333333334, "fusion_lon": 0.0, "rental_uris": {"ios": "https://dc.lft.to/lastmile_qr_scan", "android": "https://dc.lft.to/lastmile_qr_scan"}, "lon": -76.97284166666667, "bike_id": "10d6315d02d76379974133b4a4935f35", "type": "electric_bike", "name": "10d6315d02d76379974133b4a4935f35"}, {"is_disabled": 0, "is_reserved": 0, "fusion_lat": 0.0, "lat": 38.9182, "fusion_lon": 0.0, "rental_uris": {"ios": "https://dc.lft.to/lastmile_qr_scan", "android": "https://dc.lft.to/lastmile_qr_scan"}, "lon": -77.0252725, "bike_id": "a2505a599479a087f2318a861e7db540", "type": "electric_scooter", "name": "a2505a599479a087f2318a861e7db540"}, {"is_disabled": 0, "is_reserved": 0, "fusion_lat": 0.0, "lat": 38.804060166666666, "fusion_lon": 0.0, "rental_uris": {"ios": "https://dc.lft.to/lastmile_qr_scan", "android": "https://dc.lft.to/lastmile_qr_scan"}, "lon": -77.11328933333333, "bike_id": "7a354b08047e68871818ba99cb945d75", "type": "electric_bike", "name": "7a354b08047e68871818ba99cb945d75"}, {"is_disabled": 0, "is_reserved": 0, "fusion_lat": 0.0, "lat": 39.07443333333333, "fusion_lon": 0.0, "rental_uris": {"ios": "https://dc.lft.to/lastmile_qr_scan", "android": "https://dc.lft.to/lastmile_qr_scan"}, "lon": -77.11532483333333, "bike_id": "87ca20f2ccfdf306dd5cebc0ae6a6663", "type": "electric_bike", "name": "87ca20f2ccfdf306dd5cebc0ae6a6663"}, {"is_disabled": 0, "is_reserved": 0, "fusion_lat": 0.0, "lat": 38.928028, "fusion_lon": 0.0, "rental_uris": {"ios": "https://dc.lft.to/lastmile_qr_scan", "android": "https://dc.lft.to/lastmile_qr_scan"}, "lon": -77.03692966666667, "bike_id": "8e3c68be8cbac3cede8165f81cffe6bf", "type": "electric_scooter", "name": "8e3c68be8cbac3cede8165f81cffe6bf"}, {"is_disabled": 0, "is_reserved": 0, "fusion_lat": 0.0, "lat": 38.892549, "fusion_lon": 0.0, "rental_uris": {"ios": "https://dc.lft.to/lastmile_qr_scan", "android": "https://dc.lft.to/lastmile_qr_scan"}, "lon": -77.04654266666667, "bike_id": "0b3b06a9a879258051a7eeadbf556bab", "type": "electric_scooter", "name": "0b3b06a9a879258051a7eeadbf556bab"}, {"is_disabled": 0, "is_reserved": 0, "fusion_lat": 0.0, "lat": 38.938553166666665, "fusion_lon": 0.0, "rental_uris": {"ios": "https://dc.lft.to/lastmile_qr_scan", "android": "https://dc.lft.to/lastmile_qr_scan"}, "lon": -77.02472033333333, "bike_id": "207ade6d10798d6d5ed3dc71fb1f9aed", "type": "electric_scooter", "name": "207ade6d10798d6d5ed3dc71fb1f9aed"}, {"is_disabled": 0, "is_reserved": 0, "fusion_lat": 0.0, "lat": 38.930048666666664, "fusion_lon": 0.0, "rental_uris": {"ios": "https://dc.lft.to/lastmile_qr_scan", "android": "https://dc.lft.to/lastmile_qr_scan"}, "lon": -77.02320183333333, "bike_id": "70f0c3657fb420b9ecdfb55d0fbef809", "type": "electric_scooter", "name": "70f0c3657fb420b9ecdfb55d0fbef809"}, {"is_disabled": 0, "is_reserved": 0, "fusion_lat": 0.0, "lat": 38.923913666666664, "fusion_lon": 0.0, "rental_uris": {"ios": "https://dc.lft.to/lastmile_qr_scan", "android": "https://dc.lft.to/lastmile_qr_scan"}, "lon": -77.04021516666667, "bike_id": "361484871326b95118e98708270da1c7", "type": "electric_scooter", "name": "361484871326b95118e98708270da1c7"}, {"is_disabled": 0, "is_reserved": 0, "fusion_lat": 0.0, "lat": 38.91053083333333, "fusion_lon": 0.0, "rental_uris": {"ios": "https://dc.lft.to/lastmile_qr_scan", "android": "https://dc.lft.to/lastmile_qr_scan"}, "lon": -77.043608, "bike_id": "553e279fe85f90c09d9f6a4909f50644", "type": "electric_scooter", "name": "553e279fe85f90c09d9f6a4909f50644"}, {"is_disabled": 0, "is_reserved": 0, "fusion_lat": 0.0, "lat": 38.96583033333334, "fusion_lon": 0.0, "rental_uris": {"ios": "https://dc.lft.to/lastmile_qr_scan", "android": "https://dc.lft.to/lastmile_qr_scan"}, "lon": -77.0275605, "bike_id": "3ac6cfe3007b3242199e2c53346f19ad", "type": "electric_scooter", "name": "3ac6cfe3007b3242199e2c53346f19ad"}, {"is_disabled": 0, "is_reserved": 0, "fusion_lat": 0.0, "lat": 38.9197945, "fusion_lon": 0.0, "rental_uris": {"ios": "https://dc.lft.to/lastmile_qr_scan", "android": "https://dc.lft.to/lastmile_qr_scan"}, "lon": -77.04774583333334, "bike_id": "ef93d5f744d4e00d303a02be40b1d387", "type": "electric_scooter", "name": "ef93d5f744d4e00d303a02be40b1d387"}, {"is_disabled": 0, "is_reserved": 0, "fusion_lat": 0.0, "lat": 38.90456783333333, "fusion_lon": 0.0, "rental_uris": {"ios": "https://dc.lft.to/lastmile_qr_scan", "android": "https://dc.lft.to/lastmile_qr_scan"}, "lon": -76.93274983333333, "bike_id": "818b39ffe021f2c788c650b851e6f483", "type": "electric_scooter", "name": "818b39ffe021f2c788c650b851e6f483"}, {"is_disabled": 0, "is_reserved": 0, "fusion_lat": 0.0, "lat": 38.9329665, "fusion_lon": 0.0, "rental_uris": {"ios": "https://dc.lft.to/lastmile_qr_scan", "android": "https://dc.lft.to/lastmile_qr_scan"}, "lon": -77.02314583333333, "bike_id": "42d685b83eef2bd5dee7db24907689e1", "type": "electric_scooter", "name": "42d685b83eef2bd5dee7db24907689e1"}, {"is_disabled": 0, "is_reserved": 0, "fusion_lat": 0.0, "lat": 38.900746, "fusion_lon": 0.0, "rental_uris": {"ios": "https://dc.lft.to/lastmile_qr_scan", "android": "https://dc.lft.to/lastmile_qr_scan"}, "lon": -77.0488895, "bike_id": "b43637c7c199c8b7678c81e981765535", "type": "electric_scooter", "name": "b43637c7c199c8b7678c81e981765535"}, {"is_disabled": 0, "is_reserved": 0, "fusion_lat": 0.0, "lat": 38.887549166666666, "fusion_lon": 0.0, "rental_uris": {"ios": "https://dc.lft.to/lastmile_qr_scan", "android": "https://dc.lft.to/lastmile_qr_scan"}, "lon": -77.0321925, "bike_id": "638c4fb0c9b9b3a355a723235d3c75af", "type": "electric_scooter", "name": "638c4fb0c9b9b3a355a723235d3c75af"}, {"is_disabled": 0, "is_reserved": 0, "fusion_lat": 0.0, "lat": 38.89201416666667, "fusion_lon": 0.0, "rental_uris": {"ios": "https://dc.lft.to/lastmile_qr_scan", "android": "https://dc.lft.to/lastmile_qr_scan"}, "lon": -77.0438645, "bike_id": "7c1dd777e2c5513bdc49002020430de2", "type": "electric_scooter", "name": "7c1dd777e2c5513bdc49002020430de2"}, {"is_disabled": 0, "is_reserved": 0, "fusion_lat": 0.0, "lat": 38.91564483333333, "fusion_lon": 0.0, "rental_uris": {"ios": "https://dc.lft.to/lastmile_qr_scan", "android": "https://dc.lft.to/lastmile_qr_scan"}, "lon": -77.0007055, "bike_id": "6face9a3c1491fbfe69a9b2c3345c5fa", "type": "electric_scooter", "name": "6face9a3c1491fbfe69a9b2c3345c5fa"}, {"is_disabled": 0, "is_reserved": 0, "fusion_lat": 0.0, "lat": 38.9072155, "fusion_lon": 0.0, "rental_uris": {"ios": "https://dc.lft.to/lastmile_qr_scan", "android": "https://dc.lft.to/lastmile_qr_scan"}, "lon": -77.03501116666666, "bike_id": "8e80fc9c12288ec6ef4320a33d64d225", "type": "electric_scooter", "name": "8e80fc9c12288ec6ef4320a33d64d225"}, {"is_disabled": 0, "is_reserved": 0, "fusion_lat": 0.0, "lat": 38.82210883333333, "fusion_lon": 0.0, "rental_uris": {"ios": "https://dc.lft.to/lastmile_qr_scan", "android": "https://dc.lft.to/lastmile_qr_scan"}, "lon": -76.977032, "bike_id": "b2837b91da54a4a4524dff202db8d49b", "type": "electric_bike", "name": "b2837b91da54a4a4524dff202db8d49b"}, {"is_disabled": 0, "is_reserved": 0, "fusion_lat": 0.0, "lat": 38.923652, "fusion_lon": 0.0, "rental_uris": {"ios": "https://dc.lft.to/lastmile_qr_scan", "android": "https://dc.lft.to/lastmile_qr_scan"}, "lon": -77.02141433333334, "bike_id": "e2ff81a3f6bcdc36a8bdf1e782925560", "type": "electric_scooter", "name": "e2ff81a3f6bcdc36a8bdf1e782925560"}, {"is_disabled": 0, "is_reserved": 0, "fusion_lat": 0.0, "lat": 38.895226666666666, "fusion_lon": 0.0, "rental_uris": {"ios": "https://dc.lft.to/lastmile_qr_scan", "android": "https://dc.lft.to/lastmile_qr_scan"}, "lon": -76.981083, "bike_id": "e8038e04a11ae146d6697bca69e97ca6", "type": "electric_scooter", "name": "e8038e04a11ae146d6697bca69e97ca6"}, {"is_disabled": 0, "is_reserved": 0, "fusion_lat": 0.0, "lat": 38.886213, "fusion_lon": 0.0, "rental_uris": {"ios": "https://dc.lft.to/lastmile_qr_scan", "android": "https://dc.lft.to/lastmile_qr_scan"}, "lon": -76.92634666666666, "bike_id": "54faa9cd5797b25c5821b7207ab2e18c", "type": "electric_scooter", "name": "54faa9cd5797b25c5821b7207ab2e18c"}, {"is_disabled": 0, "is_reserved": 0, "fusion_lat": 0.0, "lat": 38.914129333333335, "fusion_lon": 0.0, "rental_uris": {"ios": "https://dc.lft.to/lastmile_qr_scan", "android": "https://dc.lft.to/lastmile_qr_scan"}, "lon": -77.05208816666666, "bike_id": "61c887dbaf3ffa6d860c3eebef143cd7", "type": "electric_scooter", "name": "61c887dbaf3ffa6d860c3eebef143cd7"}, {"is_disabled": 0, "is_reserved": 0, "fusion_lat": 0.0, "lat": 39.0264985, "fusion_lon": 0.0, "rental_uris": {"ios": "https://dc.lft.to/lastmile_qr_scan", "android": "https://dc.lft.to/lastmile_qr_scan"}, "lon": -77.03684866666667, "bike_id": "d5a2d26c166ae228c48b42d3cdba9f57", "type": "electric_bike", "name": "d5a2d26c166ae228c48b42d3cdba9f57"}, {"is_disabled": 0, "is_reserved": 0, "fusion_lat": 0.0, "lat": 38.9433315, "fusion_lon": 0.0, "rental_uris": {"ios": "https://dc.lft.to/lastmile_qr_scan", "android": "https://dc.lft.to/lastmile_qr_scan"}, "lon": -77.02689083333334, "bike_id": "8bbbc5011df66473ffa0853b73faf19d", "type": "electric_scooter", "name": "8bbbc5011df66473ffa0853b73faf19d"}, {"is_disabled": 0, "is_reserved": 0, "fusion_lat": 0.0, "lat": 38.922032333333334, "fusion_lon": 0.0, "rental_uris": {"ios": "https://dc.lft.to/lastmile_qr_scan", "android": "https://dc.lft.to/lastmile_qr_scan"}, "lon": -77.02048, "bike_id": "2e87765b3a036186b61a7bf7d778073d", "type": "electric_scooter", "name": "2e87765b3a036186b61a7bf7d778073d"}, {"is_disabled": 0, "is_reserved": 0, "fusion_lat": 0.0, "lat": 38.90520683333333, "fusion_lon": 0.0, "rental_uris": {"ios": "https://dc.lft.to/lastmile_qr_scan", "android": "https://dc.lft.to/lastmile_qr_scan"}, "lon": -76.9519935, "bike_id": "955ff9a0c4339654be9e4f3c12765669", "type": "electric_scooter", "name": "955ff9a0c4339654be9e4f3c12765669"}, {"is_disabled": 0, "is_reserved": 0, "fusion_lat": 0.0, "lat": 38.9306, "fusion_lon": 0.0, "rental_uris": {"ios": "https://dc.lft.to/lastmile_qr_scan", "android": "https://dc.lft.to/lastmile_qr_scan"}, "lon": -77.023214, "bike_id": "385e813ca70b8d2703c022e400778258", "type": "electric_scooter", "name": "385e813ca70b8d2703c022e400778258"}, {"is_disabled": 0, "is_reserved": 0, "fusion_lat": 0.0, "lat": 38.92729666666666, "fusion_lon": 0.0, "rental_uris": {"ios": "https://dc.lft.to/lastmile_qr_scan", "android": "https://dc.lft.to/lastmile_qr_scan"}, "lon": -77.03666183333333, "bike_id": "08db156185fb2d0785341b615ca16ce6", "type": "electric_scooter", "name": "08db156185fb2d0785341b615ca16ce6"}, {"is_disabled": 0, "is_reserved": 0, "fusion_lat": 0.0, "lat": 38.93686316666667, "fusion_lon": 0.0, "rental_uris": {"ios": "https://dc.lft.to/lastmile_qr_scan", "android": "https://dc.lft.to/lastmile_qr_scan"}, "lon": -77.03627166666666, "bike_id": "e3c68914241e66bfeda4ca9cc9bb5ba3", "type": "electric_scooter", "name": "e3c68914241e66bfeda4ca9cc9bb5ba3"}, {"is_disabled": 0, "is_reserved": 0, "fusion_lat": 0.0, "lat": 38.936614166666665, "fusion_lon": 0.0, "rental_uris": {"ios": "https://dc.lft.to/lastmile_qr_scan", "android": "https://dc.lft.to/lastmile_qr_scan"}, "lon": -77.06609666666667, "bike_id": "0f9aee1db538fa7daeea642c57d04772", "type": "electric_scooter", "name": "0f9aee1db538fa7daeea642c57d04772"}, {"is_disabled": 0, "is_reserved": 0, "fusion_lat": 0.0, "lat": 38.89517816666667, "fusion_lon": 0.0, "rental_uris": {"ios": "https://dc.lft.to/lastmile_qr_scan", "android": "https://dc.lft.to/lastmile_qr_scan"}, "lon": -77.02293566666667, "bike_id": "7f48934df06e60b5489232c9fb39208d", "type": "electric_scooter", "name": "7f48934df06e60b5489232c9fb39208d"}, {"is_disabled": 0, "is_reserved": 0, "fusion_lat": 0.0, "lat": 38.9202735, "fusion_lon": 0.0, "rental_uris": {"ios": "https://dc.lft.to/lastmile_qr_scan", "android": "https://dc.lft.to/lastmile_qr_scan"}, "lon": -77.03078516666666, "bike_id": "f31726441e7d9422af45b3911d18fde7", "type": "electric_scooter", "name": "f31726441e7d9422af45b3911d18fde7"}, {"is_disabled": 0, "is_reserved": 0, "fusion_lat": 0.0, "lat": 38.901428, "fusion_lon": 0.0, "rental_uris": {"ios": "https://dc.lft.to/lastmile_qr_scan", "android": "https://dc.lft.to/lastmile_qr_scan"}, "lon": -77.032239, "bike_id": "893b958e3d62e45cec2e7772dcf32729", "type": "electric_scooter", "name": "893b958e3d62e45cec2e7772dcf32729"}, {"is_disabled": 0, "is_reserved": 0, "fusion_lat": 0.0, "lat": 38.948965666666666, "fusion_lon": 0.0, "rental_uris": {"ios": "https://dc.lft.to/lastmile_qr_scan", "android": "https://dc.lft.to/lastmile_qr_scan"}, "lon": -76.96379016666667, "bike_id": "ff2e88ef14e810cefde6ee7804bb9640", "type": "electric_bike", "name": "ff2e88ef14e810cefde6ee7804bb9640"}, {"is_disabled": 0, "is_reserved": 0, "fusion_lat": 0.0, "lat": 38.918174666666665, "fusion_lon": 0.0, "rental_uris": {"ios": "https://dc.lft.to/lastmile_qr_scan", "android": "https://dc.lft.to/lastmile_qr_scan"}, "lon": -77.02788866666667, "bike_id": "322f905adc4617e1a11598b097104f43", "type": "electric_scooter", "name": "322f905adc4617e1a11598b097104f43"}, {"is_disabled": 0, "is_reserved": 0, "fusion_lat": 0.0, "lat": 38.887670666666665, "fusion_lon": 0.0, "rental_uris": {"ios": "https://dc.lft.to/lastmile_qr_scan", "android": "https://dc.lft.to/lastmile_qr_scan"}, "lon": -77.01460883333333, "bike_id": "c29a350d647910fc6ca800d2b5e520c9", "type": "electric_scooter", "name": "c29a350d647910fc6ca800d2b5e520c9"}, {"is_disabled": 0, "is_reserved": 0, "fusion_lat": 0.0, "lat": 38.91807566666667, "fusion_lon": 0.0, "rental_uris": {"ios": "https://dc.lft.to/lastmile_qr_scan", "android": "https://dc.lft.to/lastmile_qr_scan"}, "lon": -77.034354, "bike_id": "ed9f8b47525db7a60a785e2271903455", "type": "electric_scooter", "name": "ed9f8b47525db7a60a785e2271903455"}, {"is_disabled": 0, "is_reserved": 0, "fusion_lat": 0.0, "lat": 38.91973733333333, "fusion_lon": 0.0, "rental_uris": {"ios": "https://dc.lft.to/lastmile_qr_scan", "android": "https://dc.lft.to/lastmile_qr_scan"}, "lon": -77.04150966666667, "bike_id": "3dec6603cd5c3c4ce14f4a2386c59b4a", "type": "electric_scooter", "name": "3dec6603cd5c3c4ce14f4a2386c59b4a"}, {"is_disabled": 0, "is_reserved": 0, "fusion_lat": 0.0, "lat": 38.92236616666667, "fusion_lon": 0.0, "rental_uris": {"ios": "https://dc.lft.to/lastmile_qr_scan", "android": "https://dc.lft.to/lastmile_qr_scan"}, "lon": -77.0390165, "bike_id": "e61d8f9c6997afadb32c066c38599c0e", "type": "electric_scooter", "name": "e61d8f9c6997afadb32c066c38599c0e"}, {"is_disabled": 0, "is_reserved": 0, "fusion_lat": 0.0, "lat": 38.93615533333333, "fusion_lon": 0.0, "rental_uris": {"ios": "https://dc.lft.to/lastmile_qr_scan", "android": "https://dc.lft.to/lastmile_qr_scan"}, "lon": -76.94998683333333, "bike_id": "9ae89309d3fca80a6215a839c98ed7c3", "type": "electric_bike", "name": "9ae89309d3fca80a6215a839c98ed7c3"}, {"is_disabled": 0, "is_reserved": 0, "fusion_lat": 0.0, "lat": 38.91089483333333, "fusion_lon": 0.0, "rental_uris": {"ios": "https://dc.lft.to/lastmile_qr_scan", "android": "https://dc.lft.to/lastmile_qr_scan"}, "lon": -77.06550116666666, "bike_id": "55cb08d6e1f9e9d10915aab768ba4fca", "type": "electric_scooter", "name": "55cb08d6e1f9e9d10915aab768ba4fca"},