{"data": {"bikes": [{"rental_uris": {"ios": "https://dc.lft.to/lastmile_qr_scan", "android": "https://dc.lft.to/lastmile_qr_scan"}, "fusion_lon": 0.0, "type": "electric_scooter", "bike_id": "eef4a6b8c35003685c48803a711f55f5", "name": "eef4a6b8c35003685c48803a711f55f5", "lat": 38.92186483333333, "is_disabled": 0, "lon": -76.9969515, "fusion_lat": 0.0, "is_reserved": 0}, {"rental_uris": {"ios": "https://dc.lft.to/lastmile_qr_scan", "android": "https://dc.lft.to/lastmile_qr_scan"}, "fusion_lon": 0.0, "type": "electric_scooter", "bike_id": "ede9cbf58fff4485efc98d65a6ffcc3c", "name": "ede9cbf58fff4485efc98d65a6ffcc3c", "lat": 38.94196683333333, "is_disabled": 0, "lon": -77.02576033333334, "fusion_lat": 0.0, "is_reserved": 0}, {"rental_uris": {"ios": "https://dc.lft.to/lastmile_qr_scan", "android": "https://dc.lft.to/lastmile_qr_scan"}, "fusion_lon": 0.0, "type": "electric_scooter", "bike_id": "34ddabd4aec111a75f325b4bcab81f36", "name": "34ddabd4aec111a75f325b4bcab81f36", "lat": 38.9111915, "is_disabled": 0, "lon": -77.02237283333334, "fusion_lat": 0.0, "is_reserved": 0}, {"rental_uris": {"ios": "https://dc.lft.to/lastmile_qr_scan", "android": "https://dc.lft.to/lastmile_qr_scan"}, "fusion_lon": 0.0, "type": "electric_scooter", "bike_id": "5f256813d9e4de9a8971bbf8a35aa132", "name": "5f256813d9e4de9a8971bbf8a35aa132", "lat": 38.93086066666667, "is_disabled": 0, "lon": -77.02794166666666, "fusion_lat": 0.0, "is_reserved": 0}, {"rental_uris": {"ios": "https://dc.lft.to/lastmile_qr_scan", "android": "https://dc.lft.to/lastmile_qr_scan"}, "fusion_lon": 0.0, "type": "electric_scooter", "bike_id": "ad6309aea75061e84ce486a0887fde79", "name": "ad6309aea75061e84ce486a0887fde79", "lat": 38.914753, "is_disabled": 0, "lon": -77.00344166666666, "fusion_lat": 0.0, "is_reserved": 0}, {"rental_uris": {"ios": "https://dc.lft.to/lastmile_qr_scan", "android": "https://dc.lft.to/lastmile_qr_scan"}, "fusion_lon": 0.0, "type": "electric_scooter", "bike_id": "ae39a02a08aa04057694445485b0eb5f", "name": "ae39a02a08aa04057694445485b0eb5f", "lat": 38.904742666666664, "is_disabled": 0, "lon": -77.04872383333333, "fusion_lat": 0.0, "is_reserved": 0}, {"rental_uris": {"ios": "https://dc.lft.to/lastmile_qr_scan", "android": "https://dc.lft.to/lastmile_qr_scan"}, "fusion_lon": 0.0, "type": "electric_scooter", "bike_id": "d441844c048b6b2ac446a1120a45109d", "name": "d441844c048b6b2ac446a1120a45109d", "lat": 38.87583933333333, "is_disabled": 0, "lon": -77.00609233333333, "fusion_lat": 0.0, "is_reserved": 0}, {"rental_uris": {"ios": "https://dc.lft.to/lastmile_qr_scan", "android": "https://dc.lft.to/lastmile_qr_scan"}, "fusion_lon": 0.0, "type": "electric_bike", "bike_id": "8a88fc7a95859aea02982ba350a8baba", "name": "8a88fc7a95859aea02982ba350a8baba", "lat": 39.010403833333335, "is_disabled": 0, "lon": -76.911196, "fusion_lat": 0.0, "is_reserved": 0}, {"rental_uris": {"ios": "https://dc.lft.to/lastmile_qr_scan", "android": "https://dc.lft.to/lastmile_qr_scan"}, "fusion_lon": 0.0, "type": "electric_scooter", "bike_id": "3f1c3a117978979010b1779119ce2739", "name": "3f1c3a117978979010b1779119ce2739", "lat": 38.931082, "is_disabled": 0, "lon": -77.02404116666666, "fusion_lat": 0.0, "is_reserved": 0}, {"rental_uris": {"ios": "https://dc.lft.to/lastmile_qr_scan", "android": "https://dc.lft.to/lastmile_qr_scan"}, "fusion_lon": 0.0, "type": "electric_scooter", "bike_id": "ad129ee23f9895a5bd557c299a74c826", "name": "ad129ee23f9895a5bd557c299a74c826", "lat": 38.904184, "is_disabled": 0, "lon": -76.99062433333333, "fusion_lat": 0.0, "is_reserved": 0}, {"rental_uris": {"ios": "https://dc.lft.to/lastmile_qr_scan", "android": "https://dc.lft.to/lastmile_qr_scan"}, "fusion_lon": 0.0, "type": "electric_scooter", "bike_id": "05bf2144e3539993cf75f406fc847aa8", "name": "05bf2144e3539993cf75f406fc847aa8", "lat": 38.915923166666666, "is_disabled": 0, "lon": -77.04684583333334, "fusion_lat": 0.0, "is_reserved": 0}, {"rental_uris": {"ios": "https://dc.lft.to/lastmile_qr_scan", "android": "https://dc.lft.to/lastmile_qr_scan"}, "fusion_lon": 0.0, "type": "electric_scooter", "bike_id": "d17abca1bcb669d12aa88421f1b47a7f", "name": "d17abca1bcb669d12aa88421f1b47a7f", "lat": 38.89732883333333, "is_disabled": 0, "lon": -77.046782, "fusion_lat": 0.0, "is_reserved": 0}, {"rental_uris": {"ios": "https://dc.lft.to/lastmile_qr_scan", "android": "https://dc.lft.to/lastmile_qr_scan"}, "fusion_lon": 0.0, "type": "electric_scooter", "bike_id": "c404e281b802b52c024e44c9eef4ca0f", "name": "c404e281b802b52c024e44c9eef4ca0f", "lat": 38.898727666666666, "is_disabled": 0, "lon": -77.0163025, "fusion_lat": 0.0, "is_reserved": 0}, {"rental_uris": {"ios": "https://dc.lft.to/lastmile_qr_scan", "android": "https://dc.lft.to/lastmile_qr_scan"}, "fusion_lon": 0.0, "type": "electric_bike", "bike_id": "408209e5add7c16f1069c139bc36e384", "name": "408209e5add7c16f1069c139bc36e384", "lat": 38.9500055, "is_disabled": 0, "lon": -77.35312933333333, "fusion_lat": 0.0, "is_reserved": 0}, {"rental_uris": {"ios": "https://dc.lft.to/lastmile_qr_scan", "android": "https://dc.lft.to/lastmile_qr_scan"}, "fusion_lon": 0.0, "type": "electric_scooter", "bike_id": "c7a682026f5d820e047818dd8bfbc39f", "name": "c7a682026f5d820e047818dd8bfbc39f", "lat": 38.89837216666667, "is_disabled": 0, "lon": -77.048323, "fusion_lat": 0.0, "is_reserved": 0}, {"rental_uris": {"ios": "https://dc.lft.to/lastmile_qr_scan", "android": "https://dc.lft.to/lastmile_qr_scan"}, "fusion_lon": 0.0, "type": "electric_scooter", "bike_id": "93fdbc0f58983da95e4f7e6655f80874", "name": "93fdbc0f58983da95e4f7e6655f80874", "lat": 38.908206166666666, "is_disabled": 0, "lon": -77.03846816666666, "fusion_lat": 0.0, "is_reserved": 0}, {"rental_uris": {"ios": "https://dc.lft.to/lastmile_qr_scan", "android": "https://dc.lft.to/lastmile_qr_scan"}, "fusion_lon": 0.0, "type": "electric_scooter", "bike_id": "ca88cb39fe1e85c85db9c4ca3b5b4be4", "name": "ca88cb39fe1e85c85db9c4ca3b5b4be4", "lat": 38.9110025, "is_disabled": 0, "lon": -77.03182716666667, "fusion_lat": 0.0, "is_reserved": 0}, {"rental_uris": {"ios": "https://dc.lft.to/lastmile_qr_scan", "android": "https://dc.lft.to/lastmile_qr_scan"}, "fusion_lon": 0.0, "type": "electric_bike", "bike_id": "61b5613a90f4bd3b1280e7f0b9b61291", "name": "61b5613a90f4bd3b1280e7f0b9b61291", "lat": 38.95781816666667, "is_disabled": 0, "lon": -76.9408775, "fusion_lat": 0.0, "is_reserved": 0}, {"rental_uris": {"ios": "https://dc.lft.to/lastmile_qr_scan", "android": "https://dc.lft.to/lastmile_qr_scan"}, "fusion_lon": 0.0, "type": "electric_scooter", "bike_id": "ff0b1eb96c27361fccba87a6be73d49d", "name": "ff0b1eb96c27361fccba87a6be73d49d", "lat": 38.90836133333333, "is_disabled": 0, "lon": -76.99707966666666, "fusion_lat": 0.0, "is_reserved": 0}, {"rental_uris": {"ios": "https://dc.lft.to/lastmile_qr_scan", "android": "https://dc.lft.to/lastmile_qr_scan"}, "fusion_lon": 0.0, "type": "electric_scooter", "bike_id": "306bb74604f34f3a04895a441c372587", "name": "306bb74604f34f3a04895a441c372587", "lat": 38.914149, "is_disabled": 0, "lon": -77.04180733333334, "fusion_lat": 0.0, "is_reserved": 0}, {"rental_uris": {"ios": "https://dc.lft.to/lastmile_qr_scan", "android": "https://dc.lft.to/lastmile_qr_scan"}, "fusion_lon": 0.0, "type": "electric_scooter", "bike_id": "9a72daffed0779fc29c514ffc03db6b4", "name": "9a72daffed0779fc29c514ffc03db6b4", "lat": 38.92099916666667, "is_disabled": 0, "lon": -77.04209916666667, "fusion_lat": 0.0, "is_reserved": 0}, {"rental_uris": {"ios": "https://dc.lft.to/lastmile_qr_scan", "android": "https://dc.lft.to/lastmile_qr_scan"}, "fusion_lon": 0.0, "type": "electric_scooter", "bike_id": "d95982a216093308fd4403ece88dc5ab", "name": "d95982a216093308fd4403ece88dc5ab", "lat": 38.896123833333334, "is_disabled": 0, "lon": -77.04343866666666, "fusion_lat": 0.0, "is_reserved": 0}, {"rental_uris": {"ios": "https://dc.lft.to/lastmile_qr_scan", "android": "https://dc.lft.to/lastmile_qr_scan"}, "fusion_lon": 0.0, "type": "electric_scooter", "bike_id": "ee0c7aff5894b3ebc1c57ea3b8192677", "name": "ee0c7aff5894b3ebc1c57ea3b8192677", "lat": 38.927397666666664, "is_disabled": 0, "lon": -77.01200983333334, "fusion_lat": 0.0, "is_reserved": 0}, {"rental_uris": {"ios": "https://dc.lft.to/lastmile_qr_scan", "android": "https://dc.lft.to/lastmile_qr_scan"}, "fusion_lon": 0.0, "type": "electric_scooter", "bike_id": "6216e760ce316937e7d1e947ed241a8f", "name": "6216e760ce316937e7d1e947ed241a8f", "lat": 38.910117, "is_disabled": 0, "lon": -76.99387033333333, "fusion_lat": 0.0, "is_reserved": 0}, {"rental_uris": {"ios": "https://dc.lft.to/lastmile_qr_scan", "android": "https://dc.lft.to/lastmile_qr_scan"}, "fusion_lon": 0.0, "type": "electric_scooter", "bike_id": "453f75aa64bb12a475f8b2eafa8f2065", "name": "453f75aa64bb12a475f8b2eafa8f2065", "lat": 38.8936315, "is_disabled": 0, "lon": -76.940204, "fusion_lat": 0.0, "is_reserved": 0}, {"rental_uris": {"ios": "https://dc.lft.to/lastmile_qr_scan", "android": "https://dc.lft.to/lastmile_qr_scan"}, "fusion_lon": 0.0, "type": "electric_scooter", "bike_id": "caae94171fc0f3e9f6d3f29626ec597e", "name": "caae94171fc0f3e9f6d3f29626ec597e", "lat": 38.844336166666665, "is_disabled": 0, "lon": -76.99778016666667, "fusion_lat": 0.0, "is_reserved": 0}, {"rental_uris": {"ios": "https://dc.lft.to/lastmile_qr_scan", "android": "https://dc.lft.to/lastmile_qr_scan"}, "fusion_lon": 0.0, "type": "electric_scooter", "bike_id": "4a87b7bff9193aa8c772d2097a5b7b35", "name": "4a87b7bff9193aa8c772d2097a5b7b35", "lat": 38.93751116666667, "is_disabled": 0, "lon": -77.0249555, "fusion_lat": 0.0, "is_reserved": 0}, {"rental_uris": {"ios": "https://dc.lft.to/lastmile_qr_scan", "android": "https://dc.lft.to/lastmile_qr_scan"}, "fusion_lon": 0.0, "type": "electric_scooter", "bike_id": "5e7de380571246fe721f86e9b9468282", "name": "5e7de380571246fe721f86e9b9468282", "lat": 38.90862283333333, "is_disabled": 0, "lon": -77.0269115, "fusion_lat": 0.0, "is_reserved": 0}, {"rental_uris": {"ios": "https://dc.lft.to/lastmile_qr_scan", "android": "https://dc.lft.to/lastmile_qr_scan"}, "fusion_lon": 0.0, "type": "electric_scooter", "bike_id": "50f4e1aa5d55a5867999e97b69f5942b", "name": "50f4e1aa5d55a5867999e97b69f5942b", "lat": 38.92581083333334, "is_disabled": 0, "lon": -77.03212733333334, "fusion_lat": 0.0, "is_reserved": 0}, {"rental_uris": {"ios": "https://dc.lft.to/lastmile_qr_scan", "android": "https://dc.lft.to/lastmile_qr_scan"}, "fusion_lon": 0.0, "type": "electric_scooter", "bike_id": "69b7d0f5c5f889110fb255e890716b5e", "name": "69b7d0f5c5f889110fb255e890716b5e", "lat": 38.905397666666666, "is_disabled": 0, "lon": -77.05707933333333, "fusion_lat": 0.0, "is_reserved": 0}, {"rental_uris": {"ios": "https://dc.lft.to/lastmile_qr_scan", "android": "https://dc.lft.to/lastmile_qr_scan"}, "fusion_lon": 0.0, "type": "electric_scooter", "bike_id": "dfb63842601df86feb6f7c6e92fd6c8a", "name": "dfb63842601df86feb6f7c6e92fd6c8a", "lat": 38.93252433333333, "is_disabled": 0, "lon": -77.0327895, "fusion_lat": 0.0, "is_reserved": 0}, {"rental_uris": {"ios": "https://dc.lft.to/lastmile_qr_scan", "android": "https://dc.lft.to/lastmile_qr_scan"}, "fusion_lon": 0.0, "type": "electric_scooter", "bike_id": "03e6898f4088d7a1890711fadde83325", "name": "03e6898f4088d7a1890711fadde83325", "lat": 38.88586933333333, "is_disabled": 0, "lon": -77.015447, "fusion_lat": 0.0, "is_reserved": 0}, {"rental_uris": {"ios": "https://dc.lft.to/lastmile_qr_scan", "android": "https://dc.lft.to/lastmile_qr_scan"}, "fusion_lon": 0.0, "type": "electric_scooter", "bike_id": "b3cc97205aac4bd447d2dbb0616e06d3", "name": "b3cc97205aac4bd447d2dbb0616e06d3", "lat": 38.924685833333335, "is_disabled": 0, "lon": -77.03061233333334, "fusion_lat": 0.0, "is_reserved": 0}, {"rental_uris": {"ios": "https://dc.lft.to/lastmile_qr_scan", "android": "https://dc.lft.to/lastmile_qr_scan"}, "fusion_lon": 0.0, "type": "electric_bike", "bike_id": "0180bbefe314e2fb1ecb1fcda16fea36", "name": "0180bbefe314e2fb1ecb1fcda16fea36", "lat": 38.906872666666665, "is_disabled": 0, "lon": -76.95190716666667, "fusion_lat": 0.0, "is_reserved": 0}, {"rental_uris": {"ios": "https://dc.lft.to/lastmile_qr_scan", "android": "https://dc.lft.to/lastmile_qr_scan"}, "fusion_lon": 0.0, "type": "electric_scooter", "bike_id": "ff0aaa27ccd0ab26232ad884525641e8", "name": "ff0aaa27ccd0ab26232ad884525641e8", "lat": 38.891993166666666, "is_disabled": 0, "lon": -77.03176033333334, "fusion_lat": 0.0, "is_reserved": 0}, {"rental_uris": {"ios": "https://dc.lft.to/lastmile_qr_scan", "android": "https://dc.lft.to/lastmile_qr_scan"}, "fusion_lon": 0.0, "type": "electric_scooter", "bike_id": "ba77b97ae52fec6fc6d10501b18aa29c", "name": "ba77b97ae52fec6fc6d10501b18aa29c", "lat": 38.915204333333335, "is_disabled": 0, "lon": -77.04606316666667, "fusion_lat": 0.0, "is_reserved": 0}, {"rental_uris": {"ios": "https://dc.lft.to/lastmile_qr_scan", "android": "https://dc.lft.to/lastmile_qr_scan"}, "fusion_lon": 0.0, "type": "electric_scooter", "bike_id": "aae0075771b9db276a76e8deced77385", "name": "aae0075771b9db276a76e8deced77385", "lat": 38.915405166666666, "is_disabled": 0, "lon": -77.0321, "fusion_lat": 0.0, "is_reserved": 0}, {"rental_uris": {"ios": "https://dc.lft.to/lastmile_qr_scan", "android": "https://dc.lft.to/lastmile_qr_scan"}, "fusion_lon": 0.0, "type": "electric_scooter", "bike_id": "af8c080c9651c20e5f61c9fb62b44f06", "name": "af8c080c9651c20e5f61c9fb62b44f06", "lat": 38.92223216666667, "is_disabled": 0, "lon": -77.03313183333333, "fusion_lat": 0.0, "is_reserved": 0}, {"rental_uris": {"ios": "https://dc.lft.to/lastmile_qr_scan", "android": "https://dc.lft.to/lastmile_qr_scan"}, "fusion_lon": 0.0, "type": "electric_bike", "bike_id": "1f4631ca7dcbf8a93707ac6898ef56bf", "name": "1f4631ca7dcbf8a93707ac6898ef56bf", "lat": 38.92439866666667, "is_disabled": 0, "lon": -76.9076065, "fusion_lat": 0.0, "is_reserved": 0}, {"rental_uris": {"ios": "https://dc.lft.to/lastmile_qr_scan", "android": "https://dc.lft.to/lastmile_qr_scan"}, "fusion_lon": 0.0, "type": "electric_scooter", "bike_id": "17b605d6c01df4a49e178e25fef77ff3", "name": "17b605d6c01df4a49e178e25fef77ff3", "lat": 38.90342916666667, "is_disabled": 0, "lon": -77.02611416666667, "fusion_lat": 0.0, "is_reserved": 0}, {"rental_uris": {"ios": "https://dc.lft.to/lastmile_qr_scan", "android": "https://dc.lft.to/lastmile_qr_scan"}, "fusion_lon": 0.0, "type": "electric_scooter", "bike_id": "e3300422d34f1df0c4d5842d0b73fff4", "name": "e3300422d34f1df0c4d5842d0b73fff4", "lat": 38.89540616666667, "is_disabled": 0, "lon": -77.02424583333334, "fusion_lat": 0.0, "is_reserved": 0}, {"rental_uris": {"ios": "https://dc.lft.to/lastmile_qr_scan", "android": "https://dc.lft.to/lastmile_qr_scan"}, "fusion_lon": 0.0, "type": "electric_scooter", "bike_id": "1c9d9d942b011050c4d4abb6075e0939", "name": "1c9d9d942b011050c4d4abb6075e0939", "lat": 38.899803666666664, "is_disabled": 0, "lon": -77.04196716666667, "fusion_lat": 0.0, "is_reserved": 0}, {"rental_uris": {"ios": "https://dc.lft.to/lastmile_qr_scan", "android": "https://dc.lft.to/lastmile_qr_scan"}, "fusion_lon": 0.0, "type": "electric_scooter", "bike_id": "196dfa7959fd02e7d0e0912f56429a83", "name": "196dfa7959fd02e7d0e0912f56429a83", "lat": 38.907006333333335, "is_disabled": 0, "lon": -77.06306183333334, "fusion_lat": 0.0, "is_reserved": 0}, {"rental_uris": {"ios": "https://dc.lft.to/lastmile_qr_scan", "android": "https://dc.lft.to/lastmile_qr_scan"}, "fusion_lon": 0.0, "type": "electric_scooter", "bike_id": "1f3cfcda2fe0a3e09a1db9bd789a0347", "name": "1f3cfcda2fe0a3e09a1db9bd789a0347", "lat": 38.9561205, "is_disabled": 0, "lon": -77.02758516666667, "fusion_lat": 0.0, "is_reserved": 0}, {"rental_uris": {"ios": "https://dc.lft.to/lastmile_qr_scan", "android": "https://dc.lft.to/lastmile_qr_scan"}, "fusion_lon": 0.0, "type": "electric_scooter", "bike_id": "b7a7545e2263a503ed78492aaf229838", "name": "b7a7545e2263a503ed78492aaf229838", "lat": 38.91445433333333, "is_disabled": 0, "lon": -77.00892483333334, "fusion_lat": 0.0, "is_reserved": 0}, {"rental_uris": {"ios": "https://dc.lft.to/lastmile_qr_scan", "android": "https://dc.lft.to/lastmile_qr_scan"}, "fusion_lon": 0.0, "type": "electric_scooter", "bike_id": "1c20f8e0b183bcd37b4a5080aaa32310", "name": "1c20f8e0b183bcd37b4a5080aaa32310", "lat": 38.903768, "is_disabled": 0, "lon": -77.042039, "fusion_lat": 0.0, "is_reserved": 0}, {"rental_uris": {"ios": "https://dc.lft.to/lastmile_qr_scan", "android": "https://dc.lft.to/lastmile_qr_scan"}, "fusion_lon": 0.0, "type": "electric_scooter", "bike_id": "370671012f77c3827c4cde97fa074854", "name": "370671012f77c3827c4cde97fa074854", "lat": 38.915889166666666, "is_disabled": 0, "lon": -77.0468305, "fusion_lat": 0.0, "is_reserved": 0}, {"rental_uris": {"ios": "https://dc.lft.to/lastmile_qr_scan", "android": "https://dc.lft.to/lastmile_qr_scan"}, "fusion_lon": 0.0, "type": "electric_scooter", "bike_id": "ad0ac456cb9656dc94a7c2a030b15fda", "name": "ad0ac456cb9656dc94a7c2a030b15fda", "lat": 38.91961333333333, "is_disabled": 0, "lon": -77.04178766666666, "fusion_lat": 0.0, "is_reserved": 0}, {"rental_uris": {"ios": "https://dc.lft.to/lastmile_qr_scan", "android": "https://dc.lft.to/lastmile_qr_scan"}, "fusion_lon": 0.0, "type": "electric_scooter", "bike_id": "1065d2f02395bbf75caddde20e28d905", "name": "1065d2f02395bbf75caddde20e28d905", "lat": 38.909685, "is_disabled": 0, "lon": -77.02178733333334, "fusion_lat": 0.0, "is_reserved": 0}, {"rental_uris": {"ios": "https://dc.lft.to/lastmile_qr_scan", "android": "https://dc.lft.to/lastmile_qr_scan"}, "fusion_lon": 0.0, "type": "electric_bike", "bike_id": "e25143c4d763e576d26e81f29d034832", "name": "e25143c4d763e576d26e81f29d034832", "lat": 38.8686075, "is_disabled": 0, "lon": -76.91655433333334, "fusion_lat": 0.0, "is_reserved": 0}, {"rental_uris": {"ios": "https://dc.lft.to/lastmile_qr_scan", "android": "https://dc.lft.to/lastmile_qr_scan"}, "fusion_lon": 0.0, "type": "electric_scooter", "bike_id": "7091ec67b16762250ce14dd96ce427e4", "name": "7091ec67b16762250ce14dd96ce427e4", "lat": 38.885015833333334, "is_disabled": 0, "lon": -77.00566133333334, "fusion_lat": 0.0, "is_reserved": 0}, {"rental_uris": {"ios": "https://dc.lft.to/lastmile_qr_scan", "android": "https://dc.lft.to/lastmile_qr_scan"}, "fusion_lon": 0.0, "type": "electric_scooter", "bike_id": "b49fac5b20133fd2d71041280a94550d", "name": "b49fac5b20133fd2d71041280a94550d", "lat": 38.91423483333333, "is_disabled": 0, "lon": -77.03909166666666, "fusion_lat": 0.0, "is_reserved": 0}, {"rental_uris": {"ios": "https://dc.lft.to/lastmile_qr_scan", "android": "https://dc.lft.to/lastmile_qr_scan"}, "fusion_lon": 0.0, "type": "electric_bike", "bike_id": "6b56891d91861e71841b97504bd8e348", "name": "6b56891d91861e71841b97504bd8e348", "lat": 38.931881833333335, "is_disabled": 0, "lon": -77.22938983333333, "fusion_lat": 0.0, "is_reserved": 0}, {"rental_uris": {"ios": "https://dc.lft.to/lastmile_qr_scan", "android": "https://dc.lft.to/lastmile_qr_scan"}, "fusion_lon": 0.0, "type": "electric_scooter", "bike_id": "7e351fee30cce5d3444474fcacb9756e", "name": "7e351fee30cce5d3444474fcacb9756e", "lat": 38.91750783333333, "is_disabled": 0, "lon": -77.02494333333334, "fusion_lat": 0.0, "is_reserved": 0}, {"rental_uris": {"ios": "https://dc.lft.to/lastmile_qr_scan", "android": "https://dc.lft.to/lastmile_qr_scan"}, "fusion_lon": 0.0, "type": "electric_scooter", "bike_id": "ff4e4f207a3d6a1b1e291bbab74eeafb", "name": "ff4e4f207a3d6a1b1e291bbab74eeafb", "lat": 38.90110116666666, "is_disabled": 0, "lon": -77.0322455, "fusion_lat": 0.0, "is_reserved": 0}, {"rental_uris": {"ios": "https://dc.lft.to/lastmile_qr_scan", "android": "https://dc.lft.to/lastmile_qr_scan"}, "fusion_lon": 0.0, "type": "electric_bike", "bike_id": "ae1ea42eeeb19fa4230d58aeedc32570", "name": "ae1ea42eeeb19fa4230d58aeedc32570", "lat": 38.9925395, "is_disabled": 0, "lon": -77.04992766666666, "fusion_lat": 0.0, "is_reserved": 0}, {"rental_uris": {"ios": "https://dc.lft.to/lastmile_qr_scan", "android": "https://dc.lft.to/lastmile_qr_scan"}, "fusion_lon": 0.0, "type": "electric_scooter", "bike_id": "3232629420cae91ce1326cb35550062f", "name": "3232629420cae91ce1326cb35550062f", "lat": 38.9141535, "is_disabled": 0, "lon": -77.04182616666667, "fusion_lat": 0.0, "is_reserved": 0}, {"rental_uris": {"ios": "https://dc.lft.to/lastmile_qr_scan", "android": "https://dc.lft.to/lastmile_qr_scan"}, "fusion_lon": 0.0, "type": "electric_scooter", "bike_id": "1d7f67439dcd84a8acc7f23337ada5ff", "name": "1d7f67439dcd84a8acc7f23337ada5ff", "lat": 38.88746416666667, "is_disabled": 0, "lon": -77.02569016666666, "fusion_lat": 0.0, "is_reserved": 0}, {"rental_uris": {"ios": "https://dc.lft.to/lastmile_qr_scan", "android": "https://dc.lft.to/lastmile_qr_scan"}, "fusion_lon": 0.0, "type": "electric_scooter", "bike_id": "9582170f57c8f2562da3a73e301d2644", "name": "9582170f57c8f2562da3a73e301d2644", "lat": 38.89196033333333, "is_disabled": 0, "lon": -77.00295816666667, "fusion_lat": 0.0, "is_reserved": 0}, {"rental_uris": {"ios": "https://dc.lft.to/lastmile_qr_scan", "android": "https://dc.lft.to/lastmile_qr_scan"}, "fusion_lon": 0.0, "type": "electric_bike", "bike_id": "2c2e2459503792ac2978cbac9eca5ff1", "name": "2c2e2459503792ac2978cbac9eca5ff1", "lat": 38.919382166666665, "is_disabled": 0, "lon": -76.9750545, "fusion_lat": 0.0, "is_reserved": 0}, {"rental_uris": {"ios": "https://dc.lft.to/lastmile_qr_scan", "android": "https://dc.lft.to/lastmile_qr_scan"}, "fusion_lon": 0.0, "type": "electric_scooter", "bike_id": "d04b6df6e23914faf79fd3fa19a837b8", "name": "d04b6df6e23914faf79fd3fa19a837b8", "lat": 38.901080666666665, "is_disabled": 0, "lon": -77.05982233333333, "fusion_lat": 0.0, "is_reserved": 0}, {"rental_uris": {"ios": "https://dc.lft.to/lastmile_qr_scan", "android": "https://dc.lft.to/lastmile_qr_scan"}, "fusion_lon": 0.0, "type": "electric_scooter", "bike_id": "46fa91f4f86f08429cbdc50bb624e7e5", "name": "46fa91f4f86f08429cbdc50bb624e7e5", "lat": 38.88989083333333, "is_disabled": 0, "lon": -77.00334983333333, "fusion_lat": 0.0, "is_reserved": 0}, {"rental_uris": {"ios": "https://dc.lft.to/lastmile_qr_scan", "android": "https://dc.lft.to/lastmile_qr_scan"}, "fusion_lon": 0.0, "type": "electric_scooter", "bike_id": "37facdb7c2b36697be78edd7011ae211", "name": "37facdb7c2b36697be78edd7011ae211", "lat": 38.905006666666665, "is_disabled": 0, "lon": -77.05141083333334, "fusion_lat": 0.0, "is_reserved": 0}, {"rental_uris": {"ios": "https://dc.lft.to/lastmile_qr_scan", "android": "https://dc.lft.to/lastmile_qr_scan"}, "fusion_lon": 0.0, "type": "electric_scooter", "bike_id": "7fdd12cb06429997ac7645140804b992", "name": "7fdd12cb06429997ac7645140804b992", "lat": 38.88518083333334, "is_disabled": 0, "lon": -76.94827066666667, "fusion_lat": 0.0, "is_reserved": 0}, {"rental_uris": {"ios": "https://dc.lft.to/lastmile_qr_scan", "android": "https://dc.lft.to/lastmile_qr_scan"}, "fusion_lon": 0.0, "type": "electric_scooter", "bike_id": "7637d470c5add7932a15a8f12f890aaa", "name": "7637d470c5add7932a15a8f12f890aaa", "lat": 38.943020833333335, "is_disabled": 0, "lon": -77.02763316666666, "fusion_lat": 0.0, "is_reserved": 0}, {"rental_uris": {"ios": "https://dc.lft.to/lastmile_qr_scan", "android": "https://dc.lft.to/lastmile_qr_scan"}, "fusion_lon": 0.0, "type": "electric_scooter", "bike_id": "5f85168a4f6bc2c7558590e56e5fa955", "name": "5f85168a4f6bc2c7558590e56e5fa955", "lat": 38.900248833333336, "is_disabled": 0, "lon": -76.99639183333333, "fusion_lat": 0.0, "is_reserved": 0}, {"rental_uris": {"ios": "https://dc.lft.to/lastmile_qr_scan", "android": "https://dc.lft.to/lastmile_qr_scan"}, "fusion_lon": 0.0, "type": "electric_scooter", "bike_id": "6c320449896eab07f8d530000581152d", "name": "6c320449896eab07f8d530000581152d", "lat": 38.92644283333333, "is_disabled": 0, "lon": -77.03854983333333, "fusion_lat": 0.0, "is_reserved": 0}, {"rental_uris": {"ios": "https://dc.lft.to/lastmile_qr_scan", "android": "https://dc.lft.to/lastmile_qr_scan"}, "fusion_lon": 0.0, "type": "electric_bike", "bike_id": "20b1557ef545dfb5309c1130c832e1f4", "name": "20b1557ef545dfb5309c1130c832e1f4", "lat": 39.00020683333333, "is_disabled": 0, "lon": -76.87281416666667, "fusion_lat": 0.0, "is_reserved": 0}, {"rental_uris": {"ios": "https://dc.lft.to/lastmile_qr_scan", "android": "https://dc.lft.to/lastmile_qr_scan"}, "fusion_lon": 0.0, "type": "electric_scooter", "bike_id": "b8701d5f9deda0d92c53f028a2f884e0", "name": "b8701d5f9deda0d92c53f028a2f884e0", "lat": 38.90393533333334, "is_disabled": 0, "lon": -77.03309416666667, "fusion_lat": 0.0, "is_reserved": 0}, {"rental_uris": {"ios": "https://dc.lft.to/lastmile_qr_scan", "android": "https://dc.lft.to/lastmile_qr_scan"}, "fusion_lon": 0.0, "type": "electric_scooter", "bike_id": "2d454bfb5cd6a5c05e93700244b16fda", "name": "2d454bfb5cd6a5c05e93700244b16fda", "lat": 38.92285966666667, "is_disabled": 0, "lon": -77.072846, "fusion_lat": 0.0, "is_reserved": 0}, {"rental_uris": {"ios": "https://dc.lft.to/lastmile_qr_scan", "android": "https://dc.lft.to/lastmile_qr_scan"}, "fusion_lon": 0.0, "type": "electric_scooter", "bike_id": "a98510b685937f7c77e003b58676e339", "name": "a98510b685937f7c77e003b58676e339", "lat": 38.907759166666665, "is_disabled": 0, "lon": -77.03856233333333, "fusion_lat": 0.0, "is_reserved": 0}, {"rental_uris": {"ios": "https://dc.lft.to/lastmile_qr_scan", "android": "https://dc.lft.to/lastmile_qr_scan"}, "fusion_lon": 0.0, "type": "electric_scooter", "bike_id": "68e9fda5365f1b7a51df76127c92d810", "name": "68e9fda5365f1b7a51df76127c92d810", "lat": 38.897417, "is_disabled": 0, "lon": -77.02155183333333, "fusion_lat": 0.0, "is_reserved": 0}, {"rental_uris": {"ios": "https://dc.lft.to/lastmile_qr_scan", "android": "https://dc.lft.to/lastmile_qr_scan"}, "fusion_lon": 0.0, "type": "electric_bike", "bike_id": "269cf296da9ebe759754a0db4953cd79", "name": "269cf296da9ebe759754a0db4953cd79", "lat": 38.828768833333335, "is_disabled": 0, "lon": -77.11218483333333, "fusion_lat": 0.0, "is_reserved": 0}, {"rental_uris": {"ios": "https://dc.lft.to/lastmile_qr_scan", "android": "https://dc.lft.to/lastmile_qr_scan"}, "fusion_lon": 0.0, "type": "electric_scooter", "bike_id": "eece11a3f2ae2e3cf14f1974816ad510", "name": "eece11a3f2ae2e3cf14f1974816ad510", "lat": 38.89853516666667, "is_disabled": 0, "lon": -77.029915, "fusion_lat": 0.0, "is_reserved": 0}, {"rental_uris": {"ios": "https://dc.lft.to/lastmile_qr_scan", "android": "https://dc.lft.to/lastmile_qr_scan"}, "fusion_lon": 0.0, "type": "electric_scooter", "bike_id": "f632cf796efef65ac9b457fdea668f43", "name": "f632cf796efef65ac9b457fdea668f43", "lat": 38.903000666666664, "is_disabled": 0, "lon": -77.02207983333334, "fusion_lat": 0.0, "is_reserved": 0}, {"rental_uris": {"ios": "https://dc.lft.to/lastmile_qr_scan", "android": "https://dc.lft.to/lastmile_qr_scan"}, "fusion_lon": 0.0, "type": "electric_scooter", "bike_id": "9f408c197d041756a2e91fb2ccec3854", "name": "9f408c197d041756a2e91fb2ccec3854", "lat": 38.90971716666667, "is_disabled": 0, "lon": -77.032134, "fusion_lat": 0.0, "is_reserved": 0}, {"rental_uris": {"ios": "https://dc.lft.to/lastmile_qr_scan", "android": "https://dc.lft.to/lastmile_qr_scan"}, "fusion_lon": 0.0, "type": "electric_scooter", "bike_id": "ea5b7def8b82eaa4a0a346b797cabb9f", "name": "ea5b7def8b82eaa4a0a346b797cabb9f", "lat": 38.91702216666667, "is_disabled": 0, "lon": -77.02838483333333, "fusion_lat": 0.0, "is_reserved": 0}, {"rental_uris": {"ios": "https://dc.lft.to/lastmile_qr_scan", "android": "https://dc.lft.to/lastmile_qr_scan"}, "fusion_lon": 0.0, "type": "electric_scooter", "bike_id": "874e4a0dc124b65e2d982084f88210c5", "name": "874e4a0dc124b65e2d982084f88210c5", "lat": 38.902548833333334, "is_disabled": 0, "lon": -77.06088983333333, "fusion_lat": 0.0, "is_reserved": 0}, {"rental_uris": {"ios": "https://dc.lft.to/lastmile_qr_scan", "android": "https://dc.lft.to/lastmile_qr_scan"}, "fusion_lon": 0.0, "type": "electric_scooter", "bike_id": "c2fb100e968a3d586bc13a0819cef6b9", "name": "c2fb100e968a3d586bc13a0819cef6b9", "lat": 38.905334, "is_disabled": 0, "lon": -77.05974733333333, "fusion_lat": 0.0, "is_reserved": 0}, {"rental_uris": {"ios": "https://dc.lft.to/lastmile_qr_scan", "android": "https://dc.lft.to/lastmile_qr_scan"}, "fusion_lon": 0.0, "type": "electric_scooter", "bike_id": "bab4fce2b7d30b60a1d429530a0f2e90", "name": "bab4fce2b7d30b60a1d429530a0f2e90", "lat": 38.90310983333333, "is_disabled": 0, "lon": -77.023586, "fusion_lat": 0.0, "is_reserved": 0}, {"rental_uris": {"ios": "https://dc.lft.to/lastmile_qr_scan", "android": "https://dc.lft.to/lastmile_qr_scan"}, "fusion_lon": 0.0, "type": "electric_scooter", "bike_id": "bd8dc2738c7d2b95fce1fd6008d820c1", "name": "bd8dc2738c7d2b95fce1fd6008d820c1", "lat": 38.916919666666665, "is_disabled": 0, "lon": -77.04012516666667, "fusion_lat": 0.0, "is_reserved": 0}, {"rental_uris": {"ios": "https://dc.lft.to/lastmile_qr_scan", "android": "https://dc.lft.to/lastmile_qr_scan"}, "fusion_lon": 0.0, "type": "electric_scooter", "bike_id": "04585ae405ba668c75d8158060358080", "name": "04585ae405ba668c75d8158060358080", "lat": 38.918172166666665, "is_disabled": 0, "lon": -77.024771, "fusion_lat": 0.0, "is_reserved": 0}, {"rental_uris": {"ios": "https://dc.lft.to/lastmile_qr_scan", "android": "https://dc.lft.to/lastmile_qr_scan"}, "fusion_lon": 0.0, "type": "electric_bike", "bike_id": "31d5c1e109a9875b3f139b4a305e8266", "name": "31d5c1e109a9875b3f139b4a305e8266", "lat": 38.9462715, "is_disabled": 0, "lon": -76.93413033333333, "fusion_lat": 0.0, "is_reserved": 0}, {"rental_uris": {"ios": "https://dc.lft.to/lastmile_qr_scan", "android": "https://dc.lft.to/lastmile_qr_scan"}, "fusion_lon": 0.0, "type": "electric_scooter", "bike_id": "334832a7c86a97f94e0a0ff51a632a10", "name": "334832a7c86a97f94e0a0ff51a632a10", "lat": 38.932426, "is_disabled": 0, "lon": -77.03412083333333, "fusion_lat": 0.0, "is_reserved": 0}, {"rental_uris": {"ios": "https://dc.lft.to/lastmile_qr_scan", "android": "https://dc.lft.to/lastmile_qr_scan"}, "fusion_lon": 0.0, "type": "electric_scooter", "bike_id": "81564bbfe9fc96319f694473cd6a184d", "name": "81564bbfe9fc96319f694473cd6a184d", "lat": 38.87631916666667, "is_disabled": 0, "lon": -77.012553, "fusion_lat": 0.0, "is_reserved": 0}, {"rental_uris": {"ios": "https://dc.lft.to/lastmile_qr_scan", "android": "https://dc.lft.to/lastmile_qr_scan"}, "fusion_lon": 0.0, "type": "electric_scooter", "bike_id": "9272c492cd9066b15936d31825994c59", "name": "9272c492cd9066b15936d31825994c59", "lat": 38.93102866666667, "is_disabled": 0, "lon": -77.02478666666667, "fusion_lat": 0.0, "is_reserved": 0}, {"rental_uris": {"ios": "https://dc.lft.to/lastmile_qr_scan", "android": "https://dc.lft.to/lastmile_qr_scan"}, "fusion_lon": 0.0, "type": "electric_scooter", "bike_id": "c0ec815f98e9e4d75c9133da7f5b97d0", "name": "c0ec815f98e9e4d75c9133da7f5b97d0", "lat": 38.918892, "is_disabled": 0, "lon": -77.04176333333334, "fusion_lat": 0.0, "is_reserved": 0}, {"rental_uris": {"ios": "https://dc.lft.to/lastmile_qr_scan", "android": "https://dc.lft.to/lastmile_qr_scan"}, "fusion_lon": 0.0, "type": "electric_scooter", "bike_id": "83a6532291e0ba93127b9c9ecc4ab02d", "name": "83a6532291e0ba93127b9c9ecc4ab02d", "lat": 38.904507, "is_disabled": 0, "lon": -77.03845366666667, "fusion_lat": 0.0, "is_reserved": 0}, {"rental_uris": {"ios": "https://dc.lft.to/lastmile_qr_scan", "android": "https://dc.lft.to/lastmile_qr_scan"}, "fusion_lon": 0.0, "type": "electric_scooter", "bike_id": "c1ea301c7a61ff61365d2fd42539ad83", "name": "c1ea301c7a61ff61365d2fd42539ad83", "lat": 38.90519183333333, "is_disabled": 0, "lon": -77.04997633333333, "fusion_lat": 0.0, "is_reserved": 0}, {"rental_uris": {"ios": "https://dc.lft.to/lastmile_qr_scan", "android": "https://dc.lft.to/lastmile_qr_scan"}, "fusion_lon": 0.0, "type": "electric_scooter", "bike_id": "10b6ff8738a4102eeb69471632961d07", "name": "10b6ff8738a4102eeb69471632961d07", "lat": 38.909540166666666, "is_disabled": 0, "lon": -77.0317755, "fusion_lat": 0.0, "is_reserved": 0}, {"rental_uris": {"ios": "https://dc.lft.to/lastmile_qr_scan", "android": "https://dc.lft.to/lastmile_qr_scan"}, "fusion_lon": 0.0, "type": "electric_scooter", "bike_id": "98a7882841ad71251be049ec8683ccac", "name": "98a7882841ad71251be049ec8683ccac", "lat": 38.9051725, "is_disabled": 0, "lon": -77.06145933333333, "fusion_lat": 0.0, "is_reserved": 0}, {"rental_uris": {"ios": "https://dc.lft.to/lastmile_qr_scan", "android": "https://dc.lft.to/lastmile_qr_scan"}, "fusion_lon": 0.0, "type": "electric_scooter", "bike_id": "0bc61bba0168b1a9a265f842120925ba", "name": "0bc61bba0168b1a9a265f842120925ba", "lat": 38.924673, "is_disabled": 0, "lon": -77.02252283333333, "fusion_lat": 0.0, "is_reserved": 0}, {"rental_uris": {"ios": "https://dc.lft.to/lastmile_qr_scan", "android": "https://dc.lft.to/lastmile_qr_scan"}, "fusion_lon": 0.0, "type": "electric_scooter", "bike_id": "42d40364a205e51b1f68b993ae1e1995", "name": "42d40364a205e51b1f68b993ae1e1995", "lat": 38.929710166666666, "is_disabled": 0, "lon": -77.00536483333333, "fusion_lat": 0.0, "is_reserved": 0}, {"rental_uris": {"ios": "https://dc.lft.to/lastmile_qr_scan", "android": "https://dc.lft.to/lastmile_qr_scan"}, "fusion_lon": 0.0, "type": "electric_scooter", "bike_id": "774b4b7a3570c88b5b5c499bd28186b5", "name": "774b4b7a3570c88b5b5c499bd28186b5", "lat": 38.9014, "is_disabled": 0, "lon": -77.0279065, "fusion_lat": 0.0, "is_reserved": 0}, {"rental_uris": {"ios": "https://dc.lft.to/lastmile_qr_scan", "android": "https://dc.lft.to/lastmile_qr_scan"}, "fusion_lon": 0.0, "type": "electric_scooter", "bike_id": "d2af8cb08292364b4d233df261ee53eb", "name": "d2af8cb08292364b4d233df261ee53eb", "lat": 38.9177835, "is_disabled": 0, "lon": -77.01500916666667, "fusion_lat": 0.0, "is_reserved": 0}, {"rental_uris": {"ios": "https://dc.lft.to/lastmile_qr_scan", "android": "https://dc.lft.to/lastmile_qr_scan"}, "fusion_lon": 0.0, "type": "electric_bike", "bike_id": "7be92e147eb1c53cb65913ae36ede68a", "name": "7be92e147eb1c53cb65913ae36ede68a", "lat": 39.058115666666666, "is_disabled": 0, "lon": -77.12626116666667, "fusion_lat": 0.0, "is_reserved": 0}, {"rental_uris": {"ios": "https://dc.lft.to/lastmile_qr_scan", "android": "https://dc.lft.to/lastmile_qr_scan"}, "fusion_lon": 0.0, "type": "electric_scooter", "bike_id": "b286f716ebd6cafa4b2f2749d9d16a9f", "name": "b286f716ebd6cafa4b2f2749d9d16a9f", "lat": 38.89355916666667, "is_disabled": 0, "lon": -77.0033555, "fusion_lat": 0.0, "is_reserved": 0}, {"rental_uris": {"ios": "https://dc.lft.to/lastmile_qr_scan", "android": "https://dc.lft.to/lastmile_qr_scan"}, "fusion_lon": 0.0, "type": "electric_scooter", "bike_id": "826b58f89cb0b64cb7cef5c89e9ffb66", "name": "826b58f89cb0b64cb7cef5c89e9ffb66", "lat": 38.892276833333334, "is_disabled": 0, "lon": -77.031871, "fusion_lat": 0.0, "is_reserved": 0}, {"rental_uris": {"ios": "https://dc.lft.to/lastmile_qr_scan", "android": "https://dc.lft.to/lastmile_qr_scan"}, "fusion_lon": 0.0, "type": "electric_bike", "bike_id": "96452a200297bf3cbc6a6bb79abef382", "name": "96452a200297bf3cbc6a6bb79abef382", "lat": 38.93699483333333, "is_disabled": 0, "lon": -77.0298235, "fusion_lat": 0.0, "is_reserved": 0}, {"rental_uris": {"ios": "https://dc.lft.to/lastmile_qr_scan", "android": "https://dc.lft.to/lastmile_qr_scan"}, "fusion_lon": 0.0, "type": "electric_scooter", "bike_id": "684ef8ebf68855f37e4f61375aff66c2", "name": "684ef8ebf68855f37e4f61375aff66c2", "lat": 38.926116666666665, "is_disabled": 0, "lon": -77.0216325, "fusion_lat": 0.0, "is_reserved": 0}, {"rental_uris": {"ios": "https://dc.lft.to/lastmile_qr_scan", "android": "https://dc.lft.to/lastmile_qr_scan"}, "fusion_lon": 0.0, "type": "electric_bike", "bike_id": "2a1d55fbb0d9a8c85bf45f2e19eee90a", "name": "2a1d55fbb0d9a8c85bf45f2e19eee90a", "lat": 38.845064, "is_disabled": 0, "lon": -76.9720995, "fusion_lat": 0.0, "is_reserved": 0}, {"rental_uris": {"ios": "https://dc.lft.to/lastmile_qr_scan", "android": "https://dc.lft.to/lastmile_qr_scan"}, "fusion_lon": 0.0, "type": "electric_scooter", "bike_id": "d85508a5fe70fcd505a814f399b71097", "name": "d85508a5fe70fcd505a814f399b71097", "lat": 38.897034166666664, "is_disabled": 0, "lon": -77.05023366666667, "fusion_lat": 0.0, "is_reserved": 0}, {"rental_uris": {"ios": "https://dc.lft.to/lastmile_qr_scan", "android": "https://dc.lft.to/lastmile_qr_scan"}, "fusion_lon": 0.0, "type": "electric_scooter", "bike_id": "8f61c9d308fc349355171073d60f6332", "name": "8f61c9d308fc349355171073d60f6332", "lat": 38.91918966666667, "is_disabled": 0, "lon": -77.03593466666666, "fusion_lat": 0.0, "is_reserved": 0}, {"rental_uris": {"ios": "https://dc.lft.to/lastmile_qr_scan", "android": "https://dc.lft.to/lastmile_qr_scan"}, "fusion_lon": 0.0, "type": "electric_scooter", "bike_id": "320d252d2afb7cecd555f0d324726906", "name": "320d252d2afb7cecd555f0d324726906", "lat": 38.91308983333333, "is_disabled": 0, "lon": -77.04163383333334, "fusion_lat": 0.0, "is_reserved": 0}, {"rental_uris": {"ios": "https://dc.lft.to/lastmile_qr_scan", "android": "https://dc.lft.to/lastmile_qr_scan"}, "fusion_lon": 0.0, "type": "electric_scooter", "bike_id": "ecdc1ee1d4d1d26f97bf7c55a6a43515", "name": "ecdc1ee1d4d1d26f97bf7c55a6a43515", "lat": 38.922614833333334, "is_disabled": 0, "lon": -77.04130633333334, "fusion_lat": 0.0, "is_reserved": 0}, {"rental_uris": {"ios": "https://dc.lft.to/lastmile_qr_scan", "android": "https://dc.lft.to/lastmile_qr_scan"}, "fusion_lon": 0.0, "type": "electric_scooter", "bike_id": "7694e37d249a8f0af072bf08e67018ff", "name": "7694e37d249a8f0af072bf08e67018ff", "lat": 38.9512745, "is_disabled": 0, "lon": -77.01398016666667, "fusion_lat": 0.0, "is_reserved": 0}, {"rental_uris": {"ios": "https://dc.lft.to/lastmile_qr_scan", "android": "https://dc.lft.to/lastmile_qr_scan"}, "fusion_lon": 0.0, "type": "electric_scooter", "bike_id": "9c89afdad03363fd4b11a0a796cecfd7", "name": "9c89afdad03363fd4b11a0a796cecfd7", "lat": 38.9086645, "is_disabled": 0, "lon": -77.02691266666666, "fusion_lat": 0.0, "is_reserved": 0}, {"rental_uris": {"ios": "https://dc.lft.to/lastmile_qr_scan", "android": "https://dc.lft.to/lastmile_qr_scan"}, "fusion_lon": 0.0, "type": "electric_bike", "bike_id": "ff916757871190fa0713b500eb30b048", "name": "ff916757871190fa0713b500eb30b048", "lat": 38.88696183333333, "is_disabled": 0, "lon": -76.99683183333333, "fusion_lat": 0.0, "is_reserved": 0}, {"rental_uris": {"ios": "https://dc.lft.to/lastmile_qr_scan", "android": "https://dc.lft.to/lastmile_qr_scan"}, "fusion_lon": 0.0, "type": "electric_bike", "bike_id": "5feac65b219a8680fb79d29c7c0c23eb", "name": "5feac65b219a8680fb79d29c7c0c23eb", "lat": 38.998645, "is_disabled": 0, "lon": -77.02867483333333, "fusion_lat": 0.0, "is_reserved": 0}, {"rental_uris": {"ios": "https://dc.lft.to/lastmile_qr_scan", "android": "https://dc.lft.to/lastmile_qr_scan"}, "fusion_lon": 0.0, "type": "electric_scooter", "bike_id": "974a97c38f9436d8a05abd9d581762e7", "name": "974a97c38f9436d8a05abd9d581762e7", "lat": 38.903141166666664, "is_disabled": 0, "lon": -77.03868266666667, "fusion_lat": 0.0, "is_reserved": 0}, {"rental_uris": {"ios": "https://dc.lft.to/lastmile_qr_scan", "android": "https://dc.lft.to/lastmile_qr_scan"}, "fusion_lon": 0.0, "type": "electric_scooter", "bike_id": "d31f170a9cb9626f2d4b8b3fe0f3b7c2", "name": "d31f170a9cb9626f2d4b8b3fe0f3b7c2", "lat": 38.949822, "is_disabled": 0, "lon": -77.02702433333333, "fusion_lat": 0.0, "is_reserved": 0}, {"rental_uris": {"ios": "https://dc.lft.to/lastmile_qr_scan", "android": "https://dc.lft.to/lastmile_qr_scan"}, "fusion_lon": 0.0, "type": "electric_scooter", "bike_id": "5d8384eb85a5091822f2e8cd5beced92", "name": "5d8384eb85a5091822f2e8cd5beced92", "lat": 38.891701, "is_disabled": 0, "lon": -77.015371, "fusion_lat": 0.0, "is_reserved": 0}, {"rental_uris": {"ios": "https://dc.lft.to/lastmile_qr_scan", "android": "https://dc.lft.to/lastmile_qr_scan"}, "fusion_lon": 0.0, "type": "electric_scooter", "bike_id": "55667764b06a561659a57af645a08c6e", "name": "55667764b06a561659a57af645a08c6e", "lat": 38.89221766666667, "is_disabled": 0, "lon": -77.02259983333333, "fusion_lat": 0.0, "is_reserved": 0}, {"rental_uris": {"ios": "https://dc.lft.to/lastmile_qr_scan", "android": "https://dc.lft.to/lastmile_qr_scan"}, "fusion_lon": 0.0, "type": "electric_scooter", "bike_id": "ea771dfa50783f37385fce70f050491a", "name": "ea771dfa50783f37385fce70f050491a", "lat": 38.909179, "is_disabled": 0, "lon": -77.0318915, "fusion_lat": 0.0, "is_reserved": 0}, {"rental_uris": {"ios": "https://dc.lft.to/lastmile_qr_scan", "android": "https://dc.lft.to/lastmile_qr_scan"}, "fusion_lon": 0.0, "type": "electric_scooter", "bike_id": "aad8bfb787fe63131a4d1862b280bd70", "name": "aad8bfb787fe63131a4d1862b280bd70", "lat": 38.93105, "is_disabled": 0, "lon": -77.04126466666666, "fusion_lat": 0.0, "is_reserved": 0}, {"rental_uris": {"ios": "https://dc.lft.to/lastmile_qr_scan", "android": "https://dc.lft.to/lastmile_qr_scan"}, "fusion_lon": 0.0, "type": "electric_bike", "bike_id": "11cd15190332abeede079e089a77fe85", "name": "11cd15190332abeede079e089a77fe85", "lat": 38.91698366666667, "is_disabled": 0, "lon": -77.095659, "fusion_lat": 0.0, "is_reserved": 0}, {"rental_uris": {"ios": "https://dc.lft.to/lastmile_qr_scan", "android": "https://dc.lft.to/lastmile_qr_scan"}, "fusion_lon": 0.0, "type": "electric_scooter", "bike_id": "ab302907872bca88a1661954c1cdbf8f", "name": "ab302907872bca88a1661954c1cdbf8f", "lat": 38.910315, "is_disabled": 0, "lon": -77.01373083333333, "fusion_lat": 0.0, "is_reserved": 0}, {"rental_uris": {"ios": "https://dc.lft.to/lastmile_qr_scan", "android": "https://dc.lft.to/lastmile_qr_scan"}, "fusion_lon": 0.0, "type": "electric_scooter", "bike_id": "1ee71ec2551cccaa7c24567e637e69c0", "name": "1ee71ec2551cccaa7c24567e637e69c0", "lat": 38.907797, "is_disabled": 0, "lon": -77.04511483333333, "fusion_lat": 0.0, "is_reserved": 0}, {"rental_uris": {"ios": "https://dc.lft.to/lastmile_qr_scan", "android": "https://dc.lft.to/lastmile_qr_scan"}, "fusion_lon": 0.0, "type": "electric_scooter", "bike_id": "86a0e01a3b095a3026cb08de513ff3ef", "name": "86a0e01a3b095a3026cb08de513ff3ef", "lat": 38.89224183333333, "is_disabled": 0, "lon": -77.0318055, "fusion_lat": 0.0, "is_reserved": 0}, {"rental_uris": {"ios": "https://dc.lft.to/lastmile_qr_scan", "android": "https://dc.lft.to/lastmile_qr_scan"}, "fusion_lon": 0.0, "type": "electric_scooter", "bike_id": "8bba7e2c63b31fd0d84aa00d564ea98e", "name": "8bba7e2c63b31fd0d84aa00d564ea98e", "lat": 38.909607, "is_disabled": 0, "lon": -77.04859733333333, "fusion_lat": 0.0, "is_reserved": 0}, {"rental_uris": {"ios": "https://dc.lft.to/lastmile_qr_scan", "android": "https://dc.lft.to/lastmile_qr_scan"}, "fusion_lon": 0.0, "type": "electric_scooter", "bike_id": "92a59c3ded11a3fd522c12910f9fe0b9", "name": "92a59c3ded11a3fd522c12910f9fe0b9", "lat": 38.9060405, "is_disabled": 0, "lon": -77.04333166666666, "fusion_lat": 0.0, "is_reserved": 0}, {"rental_uris": {"ios": "https://dc.lft.to/lastmile_qr_scan", "android": "https://dc.lft.to/lastmile_qr_scan"}, "fusion_lon": 0.0, "type": "electric_scooter", "bike_id": "d0cdacfad4a9f328f316f9ba958b4c2f", "name": "d0cdacfad4a9f328f316f9ba958b4c2f", "lat": 38.93632316666667, "is_disabled": 0, "lon": -77.02693666666667, "fusion_lat": 0.0, "is_reserved": 0}, {"rental_uris": {"ios": "https://dc.lft.to/lastmile_qr_scan", "android": "https://dc.lft.to/lastmile_qr_scan"}, "fusion_lon": 0.0, "type": "electric_scooter", "bike_id": "b5d61491215d7df8769fbc347c238b37", "name": "b5d61491215d7df8769fbc347c238b37", "lat": 38.86593416666667, "is_disabled": 0, "lon": -77.0107105, "fusion_lat": 0.0, "is_reserved": 0}, {"rental_uris": {"ios": "https://dc.lft.to/lastmile_qr_scan", "android": "https://dc.lft.to/lastmile_qr_scan"}, "fusion_lon": 0.0, "type": "electric_scooter", "bike_id": "b7389dd132e00675a6ebf21c93dbec7a", "name": "b7389dd132e00675a6ebf21c93dbec7a", "lat": 38.89876316666667, "is_disabled": 0, "lon": -77.02190933333333, "fusion_lat": 0.0, "is_reserved": 0}, {"rental_uris": {"ios": "https://dc.lft.to/lastmile_qr_scan", "android": "https://dc.lft.to/lastmile_qr_scan"}, "fusion_lon": 0.0, "type": "electric_scooter", "bike_id": "3b6795fb5770073939ec60651238360c", "name": "3b6795fb5770073939ec60651238360c", "lat": 38.86434766666667, "is_disabled": 0, "lon": -76.98996366666667, "fusion_lat": 0.0, "is_reserved": 0}, {"rental_uris": {"ios": "https://dc.lft.to/lastmile_qr_scan", "android": "https://dc.lft.to/lastmile_qr_scan"}, "fusion_lon": 0.0, "type": "electric_bike", "bike_id": "0ad54978fbfcf2c8ca71dd8e84f9202a", "name": "0ad54978fbfcf2c8ca71dd8e84f9202a", "lat": 38.8551165, "is_disabled": 0, "lon": -76.98428533333333, "fusion_lat": 0.0, "is_reserved": 0}, {"rental_uris": {"ios": "https://dc.lft.to/lastmile_qr_scan", "android": "https://dc.lft.to/lastmile_qr_scan"}, "fusion_lon": 0.0, "type": "electric_scooter", "bike_id": "e9b0cfd52f93bf61f5a1f9749dee50f0", "name": "e9b0cfd52f93bf61f5a1f9749dee50f0", "lat": 38.9085375, "is_disabled": 0, "lon": -77.06083466666666, "fusion_lat": 0.0, "is_reserved": 0}, {"rental_uris": {"ios": "https://dc.lft.to/lastmile_qr_scan", "android": "https://dc.lft.to/lastmile_qr_scan"}, "fusion_lon": 0.0, "type": "electric_bike", "bike_id": "cca05af71112a4e7e50f32c1889c6b5c", "name": "cca05af71112a4e7e50f32c1889c6b5c", "lat": 38.993923833333334, "is_disabled": 0, "lon": -77.02402883333333, "fusion_lat": 0.0, "is_reserved": 0}, {"rental_uris": {"ios": "https://dc.lft.to/lastmile_qr_scan", "android": "https://dc.lft.to/lastmile_qr_scan"}, "fusion_lon": 0.0, "type": "electric_scooter", "bike_id": "789a4b1dac9f03dcc67ab5ced5abb5bd", "name": "789a4b1dac9f03dcc67ab5ced5abb5bd", "lat": 38.912507166666664, "is_disabled": 0, "lon": -77.03755116666666, "fusion_lat": 0.0, "is_reserved": 0}, {"rental_uris": {"ios": "https://dc.lft.to/lastmile_qr_scan", "android": "https://dc.lft.to/lastmile_qr_scan"}, "fusion_lon": 0.0, "type": "electric_scooter", "bike_id": "b005c1bdb6aa6c0ef534fdb14101ee37", "name": "b005c1bdb6aa6c0ef534fdb14101ee37", "lat": 38.92891566666667, "is_disabled": 0, "lon": -77.03284916666667, "fusion_lat": 0.0, "is_reserved": 0}, {"rental_uris": {"ios": "https://dc.lft.to/lastmile_qr_scan", "android": "https://dc.lft.to/lastmile_qr_scan"}, "fusion_lon": 0.0, "type": "electric_scooter", "bike_id": "0af60ca693e61b298cea42744d09417e", "name": "0af60ca693e61b298cea42744d09417e", "lat": 38.908483833333335, "is_disabled": 0, "lon": -77.04766566666666, "fusion_lat": 0.0, "is_reserved": 0}, {"rental_uris": {"ios": "https://dc.lft.to/lastmile_qr_scan", "android": "https://dc.lft.to/lastmile_qr_scan"}, "fusion_lon": 0.0, "type": "electric_scooter", "bike_id": "3ba1a0032bbc60e873a34b4207cc9c21", "name": "3ba1a0032bbc60e873a34b4207cc9c21", "lat": 38.896545833333334, "is_disabled": 0, "lon": -77.027203, "fusion_lat": 0.0, "is_reserved": 0}, {"rental_uris": {"ios": "https://dc.lft.to/lastmile_qr_scan", "android": "https://dc.lft.to/lastmile_qr_scan"}, "fusion_lon": 0.0, "type": "electric_scooter", "bike_id": "552e19df451025f59f99decd79f7b4ee", "name": "552e19df451025f59f99decd79f7b4ee", "lat": 38.8984755, "is_disabled": 0, "lon": -76.94631366666667, "fusion_lat": 0.0, "is_reserved": 0}, {"rental_uris": {"ios": "https://dc.lft.to/lastmile_qr_scan", "android": "https://dc.lft.to/lastmile_qr_scan"}, "fusion_lon": 0.0, "type": "electric_scooter", "bike_id": "eb20b585c27dfca9b70bc1f555f4df00", "name": "eb20b585c27dfca9b70bc1f555f4df00", "lat": 38.90475766666667, "is_disabled": 0, "lon": -77.06216683333334, "fusion_lat": 0.0, "is_reserved": 0}, {"rental_uris": {"ios": "https://dc.lft.to/lastmile_qr_scan", "android": "https://dc.lft.to/lastmile_qr_scan"}, "fusion_lon": 0.0, "type": "electric_scooter", "bike_id": "4b83f1a0304f89b090b2b14a31532f05", "name": "4b83f1a0304f89b090b2b14a31532f05", "lat": 38.915335666666664, "is_disabled": 0, "lon": -77.04618083333334, "fusion_lat": 0.0, "is_reserved": 0}, {"rental_uris": {"ios": "https://dc.lft.to/lastmile_qr_scan", "android": "https://dc.lft.to/lastmile_qr_scan"}, "fusion_lon": 0.0, "type": "electric_scooter", "bike_id": "7a11cb1e6824234e66aebdf23dcf76c1", "name": "7a11cb1e6824234e66aebdf23dcf76c1", "lat": 38.922411333333336, "is_disabled": 0, "lon": -77.03080516666667, "fusion_lat": 0.0, "is_reserved": 0}, {"rental_uris": {"ios": "https://dc.lft.to/lastmile_qr_scan", "android": "https://dc.lft.to/lastmile_qr_scan"}, "fusion_lon": 0.0, "type": "electric_scooter", "bike_id": "7c7eb2f16c100eba1b128f4acb528216", "name": "7c7eb2f16c100eba1b128f4acb528216", "lat": 38.89805833333333, "is_disabled": 0, "lon": -77.02919466666667, "fusion_lat": 0.0, "is_reserved": 0}, {"rental_uris": {"ios": "https://dc.lft.to/lastmile_qr_scan", "android": "https://dc.lft.to/lastmile_qr_scan"}, "fusion_lon": 0.0, "type": "electric_scooter", "bike_id": "0b7d91b546939f0a8a8f1a4b1ea3458b", "name": "0b7d91b546939f0a8a8f1a4b1ea3458b", "lat": 38.92576116666667, "is_disabled": 0, "lon": -76.99494633333333, "fusion_lat": 0.0, "is_reserved": 0}, {"rental_uris": {"ios": "https://dc.lft.to/lastmile_qr_scan", "android": "https://dc.lft.to/lastmile_qr_scan"}, "fusion_lon": 0.0, "type": "electric_scooter", "bike_id": "b2e13ba1c8248f6276f99e7bc6802191", "name": "b2e13ba1c8248f6276f99e7bc6802191", "lat": 38.90645466666667, "is_disabled": 0, "lon": -77.00584333333333, "fusion_lat": 0.0, "is_reserved": 0}, {"rental_uris": {"ios": "https://dc.lft.to/lastmile_qr_scan", "android": "https://dc.lft.to/lastmile_qr_scan"}, "fusion_lon": 0.0, "type": "electric_scooter", "bike_id": "176f2976143341df6b440324d8b8e1d2", "name": "176f2976143341df6b440324d8b8e1d2", "lat": 38.89999783333333, "is_disabled": 0, "lon": -76.922312, "fusion_lat": 0.0, "is_reserved": 0}, {"rental_uris": {"ios": "https://dc.lft.to/lastmile_qr_scan", "android": "https://dc.lft.to/lastmile_qr_scan"}, "fusion_lon": 0.0, "type": "electric_scooter", "bike_id": "6122169b2d66109e3a1072b8dcbe3697", "name": "6122169b2d66109e3a1072b8dcbe3697", "lat": 38.899246166666664, "is_disabled": 0, "lon": -77.04019216666667, "fusion_lat": 0.0, "is_reserved": 0}, {"rental_uris": {"ios": "https://dc.lft.to/lastmile_qr_scan", "android": "https://dc.lft.to/lastmile_qr_scan"}, "fusion_lon": 0.0, "type": "electric_scooter", "bike_id": "53d1e12e4490936508a0bb1b62d599ab", "name": "53d1e12e4490936508a0bb1b62d599ab", "lat": 38.883041, "is_disabled": 0, "lon": -76.9428555, "fusion_lat": 0.0, "is_reserved": 0}, {"rental_uris": {"ios": "https://dc.lft.to/lastmile_qr_scan", "android": "https://dc.lft.to/lastmile_qr_scan"}, "fusion_lon": 0.0, "type": "electric_scooter", "bike_id": "5e15fd3eccf306e2f793b4b18c17fdc2", "name": "5e15fd3eccf306e2f793b4b18c17fdc2", "lat": 38.919779166666665, "is_disabled": 0, "lon": -77.04424783333333, "fusion_lat": 0.0, "is_reserved": 0}, {"rental_uris": {"ios": "https://dc.lft.to/lastmile_qr_scan", "android": "https://dc.lft.to/lastmile_qr_scan"}, "fusion_lon": 0.0, "type": "electric_scooter", "bike_id": "90e3ca8c02501c9d23493e6228ec04e7", "name": "90e3ca8c02501c9d23493e6228ec04e7", "lat": 38.886357, "is_disabled": 0, "lon": -77.022505, "fusion_lat": 0.0, "is_reserved": 0}, {"rental_uris": {"ios": "https://dc.lft.to/lastmile_qr_scan", "android": "https://dc.lft.to/lastmile_qr_scan"}, "fusion_lon": 0.0, "type": "electric_scooter", "bike_id": "4ea4d2e7813d2ac489b4d75eb53a885d", "name": "4ea4d2e7813d2ac489b4d75eb53a885d", "lat": 38.86505733333333, "is_disabled": 0, "lon": -76.9900235, "fusion_lat": 0.0, "is_reserved": 0}, {"rental_uris": {"ios": "https://dc.lft.to/lastmile_qr_scan", "android": "https://dc.lft.to/lastmile_qr_scan"}, "fusion_lon": 0.0, "type": "electric_scooter", "bike_id": "765639f175f844654eabbabe6fc632bd", "name": "765639f175f844654eabbabe6fc632bd", "lat": 38.892593, "is_disabled": 0, "lon": -76.94157566666667, "fusion_lat": 0.0, "is_reserved": 0}, {"rental_uris": {"ios": "https://dc.lft.to/lastmile_qr_scan", "android": "https://dc.lft.to/lastmile_qr_scan"}, "fusion_lon": 0.0, "type": "electric_scooter", "bike_id": "27e4bf295839c246ceeec29818dfb28d", "name": "27e4bf295839c246ceeec29818dfb28d", "lat": 38.87629716666667, "is_disabled": 0, "lon": -76.96523666666667, "fusion_lat": 0.0, "is_reserved": 0}, {"rental_uris": {"ios": "https://dc.lft.to/lastmile_qr_scan", "android": "https://dc.lft.to/lastmile_qr_scan"}, "fusion_lon": 0.0, "type": "electric_scooter", "bike_id": "88be93623b0e01320781519dbcccbd56", "name": "88be93623b0e01320781519dbcccbd56", "lat": 38.91746033333333, "is_disabled": 0, "lon": -77.03663816666666, "fusion_lat": 0.0, "is_reserved": 0}, {"rental_uris": {"ios": "https://dc.lft.to/lastmile_qr_scan", "android": "https://dc.lft.to/lastmile_qr_scan"}, "fusion_lon": 0.0, "type": "electric_scooter", "bike_id": "d2667f7ea6290bc4d387029d0a85f7c1", "name": "d2667f7ea6290bc4d387029d0a85f7c1", "lat": 38.909192166666664, "is_disabled": 0, "lon": -77.01528216666667, "fusion_lat": 0.0, "is_reserved": 0}, {"rental_uris": {"ios": "https://dc.lft.to/lastmile_qr_scan", "android": "https://dc.lft.to/lastmile_qr_scan"}, "fusion_lon": 0.0, "type": "electric_scooter", "bike_id": "1f62ba219d6a166813917480664a9a86", "name": "1f62ba219d6a166813917480664a9a86", "lat": 38.91876766666667, "is_disabled": 0, "lon": -77.04185416666667, "fusion_lat": 0.0, "is_reserved": 0}, {"rental_uris": {"ios": "https://dc.lft.to/lastmile_qr_scan", "android": "https://dc.lft.to/lastmile_qr_scan"}, "fusion_lon": 0.0, "type": "electric_scooter", "bike_id": "1534218a08bc4155f1b43a1447623d56", "name": "1534218a08bc4155f1b43a1447623d56", "lat": 38.899169666666666, "is_disabled": 0, "lon": -76.93370166666666, "fusion_lat": 0.0, "is_reserved": 0}, {"rental_uris": {"ios": "https://dc.lft.to/lastmile_qr_scan", "android": "https://dc.lft.to/lastmile_qr_scan"}, "fusion_lon": 0.0, "type": "electric_scooter", "bike_id": "a116fca586568399d7302ae43cc55970", "name": "a116fca586568399d7302ae43cc55970", "lat": 38.897339833333334, "is_disabled": 0, "lon": -77.04679433333334, "fusion_lat": 0.0, "is_reserved": 0}, {"rental_uris": {"ios": "https://dc.lft.to/lastmile_qr_scan", "android": "https://dc.lft.to/lastmile_qr_scan"}, "fusion_lon": 0.0, "type": "electric_scooter", "bike_id": "a5d81b3f6312e5238defd09dd24413ce", "name": "a5d81b3f6312e5238defd09dd24413ce", "lat": 38.93020533333333, "is_disabled": 0, "lon": -77.055553, "fusion_lat": 0.0, "is_reserved": 0}, {"rental_uris": {"ios": "https://dc.lft.to/lastmile_qr_scan", "android": "https://dc.lft.to/lastmile_qr_scan"}, "fusion_lon": 0.0, "type": "electric_scooter", "bike_id": "b79af8a715468f99a27f39e1dfac7ff4", "name": "b79af8a715468f99a27f39e1dfac7ff4", "lat": 38.91050033333333, "is_disabled": 0, "lon": -77.04357966666667, "fusion_lat": 0.0, "is_reserved": 0}, {"rental_uris": {"ios": "https://dc.lft.to/lastmile_qr_scan", "android": "https://dc.lft.to/lastmile_qr_scan"}, "fusion_lon": 0.0, "type": "electric_scooter", "bike_id": "607662b9c05732c8d70b19f1029645af", "name": "607662b9c05732c8d70b19f1029645af", "lat": 38.916818, "is_disabled": 0, "lon": -77.03053333333334, "fusion_lat": 0.0, "is_reserved": 0}, {"rental_uris": {"ios": "https://dc.lft.to/lastmile_qr_scan", "android": "https://dc.lft.to/lastmile_qr_scan"}, "fusion_lon": 0.0, "type": "electric_scooter", "bike_id": "c5f7e942199e638d324d8d7eb138b22a", "name": "c5f7e942199e638d324d8d7eb138b22a", "lat": 38.8998025, "is_disabled": 0, "lon": -77.04194483333333, "fusion_lat": 0.0, "is_reserved": 0}, {"rental_uris": {"ios": "https://dc.lft.to/lastmile_qr_scan", "android": "https://dc.lft.to/lastmile_qr_scan"}, "fusion_lon": 0.0, "type": "electric_scooter", "bike_id": "001a2e14352b2106501a5f2d546e172a", "name": "001a2e14352b2106501a5f2d546e172a", "lat": 38.89835933333333, "is_disabled": 0, "lon": -77.043413, "fusion_lat": 0.0, "is_reserved": 0}, {"rental_uris": {"ios": "https://dc.lft.to/lastmile_qr_scan", "android": "https://dc.lft.to/lastmile_qr_scan"}, "fusion_lon": 0.0, "type": "electric_scooter", "bike_id": "28dba49865ed0b243faff54a2ed2d5c2", "name": "28dba49865ed0b243faff54a2ed2d5c2", "lat": 38.917955, "is_disabled": 0, "lon": -77.03215233333333, "fusion_lat": 0.0, "is_reserved": 0}, {"rental_uris": {"ios": "https://dc.lft.to/lastmile_qr_scan", "android": "https://dc.lft.to/lastmile_qr_scan"}, "fusion_lon": 0.0, "type": "electric_scooter", "bike_id": "f1c98e565cd1f98c97aabd8e629bdfb2", "name": "f1c98e565cd1f98c97aabd8e629bdfb2", "lat": 38.93084016666667, "is_disabled": 0, "lon": -77.02796166666667, "fusion_lat": 0.0, "is_reserved": 0}, {"rental_uris": {"ios": "https://dc.lft.to/lastmile_qr_scan", "android": "https://dc.lft.to/lastmile_qr_scan"}, "fusion_lon": 0.0, "type": "electric_bike", "bike_id": "787d397ebaeff002cae9d91e4e9af702", "name": "787d397ebaeff002cae9d91e4e9af702", "lat": 38.90778616666667, "is_disabled": 0, "lon": -77.07163316666667, "fusion_lat": 0.0, "is_reserved": 0}, {"rental_uris": {"ios": "https://dc.lft.to/lastmile_qr_scan", "android": "https://dc.lft.to/lastmile_qr_scan"}, "fusion_lon": 0.0, "type": "electric_scooter", "bike_id": "050044fbdd7594d7f48b53102396f817", "name": "050044fbdd7594d7f48b53102396f817", "lat": 38.905600666666665, "is_disabled": 0, "lon": -77.00712566666667, "fusion_lat": 0.0, "is_reserved": 0}, {"rental_uris": {"ios": "https://dc.lft.to/lastmile_qr_scan", "android": "https://dc.lft.to/lastmile_qr_scan"}, "fusion_lon": 0.0, "type": "electric_scooter", "bike_id": "91d5653065475470f91fbb2b4eb54748", "name": "91d5653065475470f91fbb2b4eb54748", "lat": 38.86709533333333, "is_disabled": 0, "lon": -76.98729616666667, "fusion_lat": 0.0, "is_reserved": 0}, {"rental_uris": {"ios": "https://dc.lft.to/lastmile_qr_scan", "android": "https://dc.lft.to/lastmile_qr_scan"}, "fusion_lon": 0.0, "type": "electric_scooter", "bike_id": "a1d54a7338b6c3b2259e890763ec12a3", "name": "a1d54a7338b6c3b2259e890763ec12a3", "lat": 38.915135666666664, "is_disabled": 0, "lon": -77.0121395, "fusion_lat": 0.0, "is_reserved": 0}, {"rental_uris": {"ios": "https://dc.lft.to/lastmile_qr_scan", "android": "https://dc.lft.to/lastmile_qr_scan"}, "fusion_lon": 0.0, "type": "electric_scooter", "bike_id": "d02b7118cd54ea77c8676561be79a84d", "name": "d02b7118cd54ea77c8676561be79a84d", "lat": 38.902562333333336, "is_disabled": 0, "lon": -77.02159133333333, "fusion_lat": 0.0, "is_reserved": 0}, {"rental_uris": {"ios": "https://dc.lft.to/lastmile_qr_scan", "android": "https://dc.lft.to/lastmile_qr_scan"}, "fusion_lon": 0.0, "type": "electric_scooter", "bike_id": "1775e3fc11d594bc66afa0daf66b1cf3", "name": "1775e3fc11d594bc66afa0daf66b1cf3", "lat": 38.911084, "is_disabled": 0, "lon": -77.04493333333333, "fusion_lat": 0.0, "is_reserved": 0}, {"rental_uris": {"ios": "https://dc.lft.to/lastmile_qr_scan", "android": "https://dc.lft.to/lastmile_qr_scan"}, "fusion_lon": 0.0, "type": "electric_scooter", "bike_id": "0398e1ea4a6ab96541054d219a075acc", "name": "0398e1ea4a6ab96541054d219a075acc", "lat": 38.898864333333336, "is_disabled": 0, "lon": -77.04181883333334, "fusion_lat": 0.0, "is_reserved": 0}, {"rental_uris": {"ios": "https://dc.lft.to/lastmile_qr_scan", "android": "https://dc.lft.to/lastmile_qr_scan"}, "fusion_lon": 0.0, "type": "electric_scooter", "bike_id": "2f1de500bf06dcbd6caabcfef139e3ed", "name": "2f1de500bf06dcbd6caabcfef139e3ed", "lat": 38.905851166666665, "is_disabled": 0, "lon": -77.023892, "fusion_lat": 0.0, "is_reserved": 0}, {"rental_uris": {"ios": "https://dc.lft.to/lastmile_qr_scan", "android": "https://dc.lft.to/lastmile_qr_scan"}, "fusion_lon": 0.0, "type": "electric_scooter", "bike_id": "fec5f2d782a48ea8a48df2d3d9ed5209", "name": "fec5f2d782a48ea8a48df2d3d9ed5209", "lat": 38.902455, "is_disabled": 0, "lon": -77.03098816666666, "fusion_lat": 0.0, "is_reserved": 0}, {"rental_uris": {"ios": "https://dc.lft.to/lastmile_qr_scan", "android": "https://dc.lft.to/lastmile_qr_scan"}, "fusion_lon": 0.0, "type": "electric_scooter", "bike_id": "d6b5df579f3963b8ce8763966d685f42", "name": "d6b5df579f3963b8ce8763966d685f42", "lat": 38.8850245, "is_disabled": 0, "lon": -77.00562866666667, "fusion_lat": 0.0, "is_reserved": 0}, {"rental_uris": {"ios": "https://dc.lft.to/lastmile_qr_scan", "android": "https://dc.lft.to/lastmile_qr_scan"}, "fusion_lon": 0.0, "type": "electric_bike", "bike_id": "0094be004a7d1a866c6040f35108f315", "name": "0094be004a7d1a866c6040f35108f315", "lat": 39.00384016666667, "is_disabled": 0, "lon": -77.01290866666666, "fusion_lat": 0.0, "is_reserved": 0}, {"rental_uris": {"ios": "https://dc.lft.to/lastmile_qr_scan", "android": "https://dc.lft.to/lastmile_qr_scan"}, "fusion_lon": 0.0, "type": "electric_scooter", "bike_id": "f62a6ab6605824afc4fa8b9ba71c5d47", "name": "f62a6ab6605824afc4fa8b9ba71c5d47", "lat": 38.918156333333336, "is_disabled": 0, "lon": -77.03186, "fusion_lat": 0.0, "is_reserved": 0}, {"rental_uris": {"ios": "https://dc.lft.to/lastmile_qr_scan", "android": "https://dc.lft.to/lastmile_qr_scan"}, "fusion_lon": 0.0, "type": "electric_scooter", "bike_id": "df8251c0ea349117d806a043c03e2a54", "name": "df8251c0ea349117d806a043c03e2a54", "lat": 38.9169395, "is_disabled": 0, "lon": -77.033925, "fusion_lat": 0.0, "is_reserved": 0}, {"rental_uris": {"ios": "https://dc.lft.to/lastmile_qr_scan", "android": "https://dc.lft.to/lastmile_qr_scan"}, "fusion_lon": 0.0, "type": "electric_scooter", "bike_id": "a60113857028004c40d61117696f3e11", "name": "a60113857028004c40d61117696f3e11", "lat": 38.91981233333333, "is_disabled": 0, "lon": -76.9731475, "fusion_lat": 0.0, "is_reserved": 0}, {"rental_uris": {"ios": "https://dc.lft.to/lastmile_qr_scan", "android": "https://dc.lft.to/lastmile_qr_scan"}, "fusion_lon": 0.0, "type": "electric_scooter", "bike_id": "189b62d26f159e4cd249c41c97b5948e", "name": "189b62d26f159e4cd249c41c97b5948e", "lat": 38.867076, "is_disabled": 0, "lon": -76.98730833333333, "fusion_lat": 0.0, "is_reserved": 0}, {"rental_uris": {"ios": "https://dc.lft.to/lastmile_qr_scan", "android": "https://dc.lft.to/lastmile_qr_scan"}, "fusion_lon": 0.0, "type": "electric_scooter", "bike_id": "51e1f029f1f4123f137cdca5bbe364fe", "name": "51e1f029f1f4123f137cdca5bbe364fe", "lat": 38.892212666666666, "is_disabled": 0, "lon": -77.0226265, "fusion_lat": 0.0, "is_reserved": 0}, {"rental_uris": {"ios": "https://dc.lft.to/lastmile_qr_scan", "android": "https://dc.lft.to/lastmile_qr_scan"}, "fusion_lon": 0.0, "type": "electric_scooter", "bike_id": "222e42d86cf890ae855c0101f871a141", "name": "222e42d86cf890ae855c0101f871a141", "lat": 38.92739683333333, "is_disabled": 0, "lon": -77.034727, "fusion_lat": 0.0, "is_reserved": 0}, {"rental_uris": {"ios": "https://dc.lft.to/lastmile_qr_scan", "android": "https://dc.lft.to/lastmile_qr_scan"}, "fusion_lon": 0.0, "type": "electric_scooter", "bike_id": "9467026dc4fd7e2333334ce0d48ffe1b", "name": "9467026dc4fd7e2333334ce0d48ffe1b", "lat": 38.907763333333335, "is_disabled": 0, "lon": -77.0269715, "fusion_lat": 0.0, "is_reserved": 0}, {"rental_uris": {"ios": "https://dc.lft.to/lastmile_qr_scan", "android": "https://dc.lft.to/lastmile_qr_scan"}, "fusion_lon": 0.0, "type": "electric_scooter", "bike_id": "0bdd317e7b12e5cba6b8221d909e2a31", "name": "0bdd317e7b12e5cba6b8221d909e2a31", "lat": 38.87896033333333, "is_disabled": 0, "lon": -76.93524016666667, "fusion_lat": 0.0, "is_reserved": 0}, {"rental_uris": {"ios": "https://dc.lft.to/lastmile_qr_scan", "android": "https://dc.lft.to/lastmile_qr_scan"}, "fusion_lon": 0.0, "type": "electric_scooter", "bike_id": "ac0a6e4f90857465a0cf8d119dd6891b", "name": "ac0a6e4f90857465a0cf8d119dd6891b", "lat": 38.898084, "is_disabled": 0, "lon": -77.0522245, "fusion_lat": 0.0, "is_reserved": 0}, {"rental_uris": {"ios": "https://dc.lft.to/lastmile_qr_scan", "android": "https://dc.lft.to/lastmile_qr_scan"}, "fusion_lon": 0.0, "type": "electric_scooter", "bike_id": "28ce3c88428c89452c1c2df30ef3b2fa", "name": "28ce3c88428c89452c1c2df30ef3b2fa", "lat": 38.911352, "is_disabled": 0, "lon": -77.02191633333334, "fusion_lat": 0.0, "is_reserved": 0}, {"rental_uris": {"ios": "https://dc.lft.to/lastmile_qr_scan", "android": "https://dc.lft.to/lastmile_qr_scan"}, "fusion_lon": 0.0, "type": "electric_scooter", "bike_id": "30a48687b46bb7966ab9bc1ab8d5bd25", "name": "30a48687b46bb7966ab9bc1ab8d5bd25", "lat": 38.8974415, "is_disabled": 0, "lon": -77.000315, "fusion_lat": 0.0, "is_reserved": 0}, {"rental_uris": {"ios": "https://dc.lft.to/lastmile_qr_scan", "android": "https://dc.lft.to/lastmile_qr_scan"}, "fusion_lon": 0.0, "type": "electric_scooter", "bike_id": "d73cac78dd5f90350e48444d89069e06", "name": "d73cac78dd5f90350e48444d89069e06", "lat": 38.90064483333333, "is_disabled": 0, "lon": -76.93382633333333, "fusion_lat": 0.0, "is_reserved": 0}, {"rental_uris": {"ios": "https://dc.lft.to/lastmile_qr_scan", "android": "https://dc.lft.to/lastmile_qr_scan"}, "fusion_lon": 0.0, "type": "electric_scooter", "bike_id": "bb8b0b8a88a79e35b215c27119e07b08", "name": "bb8b0b8a88a79e35b215c27119e07b08", "lat": 38.9101285, "is_disabled": 0, "lon": -77.03184216666666, "fusion_lat": 0.0, "is_reserved": 0}, {"rental_uris": {"ios": "https://dc.lft.to/lastmile_qr_scan", "android": "https://dc.lft.to/lastmile_qr_scan"}, "fusion_lon": 0.0, "type": "electric_scooter", "bike_id": "c05023465eb6c935ffdd210ec454b506", "name": "c05023465eb6c935ffdd210ec454b506", "lat": 38.8936225, "is_disabled": 0, "lon": -77.03975583333333, "fusion_lat": 0.0, "is_reserved": 0}, {"rental_uris": {"ios": "https://dc.lft.to/lastmile_qr_scan", "android": "https://dc.lft.to/lastmile_qr_scan"}, "fusion_lon": 0.0, "type": "electric_bike", "bike_id": "4b83ac6a322912ee08363eb64d8fa4aa", "name": "4b83ac6a322912ee08363eb64d8fa4aa", "lat": 38.97410566666667, "is_disabled": 0, "lon": -77.02497866666667, "fusion_lat": 0.0, "is_reserved": 0}, {"rental_uris": {"ios": "https://dc.lft.to/lastmile_qr_scan", "android": "https://dc.lft.to/lastmile_qr_scan"}, "fusion_lon": 0.0, "type": "electric_scooter", "bike_id": "058c89d2aafb162790e3c4073bf6718a", "name": "058c89d2aafb162790e3c4073bf6718a", "lat": 38.905509333333335, "is_disabled": 0, "lon": -77.04354483333333, "fusion_lat": 0.0, "is_reserved": 0}, {"rental_uris": {"ios": "https://dc.lft.to/lastmile_qr_scan", "android": "https://dc.lft.to/lastmile_qr_scan"}, "fusion_lon": 0.0, "type": "electric_scooter", "bike_id": "150553acfc9bd2ba6c246a053ea25d23", "name": "150553acfc9bd2ba6c246a053ea25d23", "lat": 38.877111666666664, "is_disabled": 0, "lon": -77.00537, "fusion_lat": 0.0, "is_reserved": 0}, {"rental_uris": {"ios": "https://dc.lft.to/lastmile_qr_scan", "android": "https://dc.lft.to/lastmile_qr_scan"}, "fusion_lon": 0.0, "type": "electric_bike", "bike_id": "f1f45296477c98749ffabe76387f8fa3", "name": "f1f45296477c98749ffabe76387f8fa3", "lat": 38.839340666666665, "is_disabled": 0, "lon": -77.07904833333333, "fusion_lat": 0.0, "is_reserved": 0}, {"rental_uris": {"ios": "https://dc.lft.to/lastmile_qr_scan", "android": "https://dc.lft.to/lastmile_qr_scan"}, "fusion_lon": 0.0, "type": "electric_scooter", "bike_id": "869d15715080d6156faf76fc601c9c83", "name": "869d15715080d6156faf76fc601c9c83", "lat": 38.9346375, "is_disabled": 0, "lon": -77.068785, "fusion_lat": 0.0, "is_reserved": 0}, {"rental_uris": {"ios": "https://dc.lft.to/lastmile_qr_scan", "android": "https://dc.lft.to/lastmile_qr_scan"}, "fusion_lon": 0.0, "type": "electric_scooter", "bike_id": "40dbe753151cb326d19bbc1f91ce0535", "name": "40dbe753151cb326d19bbc1f91ce0535", "lat": 38.923314500000004, "is_disabled": 0, "lon": -77.03509983333333, "fusion_lat": 0.0, "is_reserved": 0}, {"rental_uris": {"ios": "https://dc.lft.to/lastmile_qr_scan", "android": "https://dc.lft.to/lastmile_qr_scan"}, "fusion_lon": 0.0, "type": "electric_scooter", "bike_id": "8d0556c7c0e9e142d61582f70be6197b", "name": "8d0556c7c0e9e142d61582f70be6197b", "lat": 38.89866266666667, "is_disabled": 0, "lon": -77.0163025, "fusion_lat": 0.0, "is_reserved": 0}, {"rental_uris": {"ios": "https://dc.lft.to/lastmile_qr_scan", "android": "https://dc.lft.to/lastmile_qr_scan"}, "fusion_lon": 0.0, "type": "electric_scooter", "bike_id": "1c99a32dc2c42f48985687b30cfb5fd4", "name": "1c99a32dc2c42f48985687b30cfb5fd4", "lat": 38.91352066666666, "is_disabled": 0, "lon": -77.0175305, "fusion_lat": 0.0, "is_reserved": 0}, {"rental_uris": {"ios": "https://dc.lft.to/lastmile_qr_scan", "android": "https://dc.lft.to/lastmile_qr_scan"}, "fusion_lon": 0.0, "type": "electric_scooter", "bike_id": "aa4e3860dd7da3cfbb1b24728d65287e", "name": "aa4e3860dd7da3cfbb1b24728d65287e", "lat": 38.917955, "is_disabled": 0, "lon": -77.03474383333334, "fusion_lat": 0.0, "is_reserved": 0}, {"rental_uris": {"ios": "https://dc.lft.to/lastmile_qr_scan", "android": "https://dc.lft.to/lastmile_qr_scan"}, "fusion_lon": 0.0, "type": "electric_scooter", "bike_id": "3dabbc286ca0e47e9bd5ffb7891abe72", "name": "3dabbc286ca0e47e9bd5ffb7891abe72", "lat": 38.877044166666664, "is_disabled": 0, "lon": -77.01730866666666, "fusion_lat": 0.0, "is_reserved": 0}, {"rental_uris": {"ios": "https://dc.lft.to/lastmile_qr_scan", "android": "https://dc.lft.to/lastmile_qr_scan"}, "fusion_lon": 0.0, "type": "electric_scooter", "bike_id": "2ae7eadb7985b8138825255d451f44f0", "name": "2ae7eadb7985b8138825255d451f44f0", "lat": 38.91763383333333, "is_disabled": 0, "lon": -77.02818133333334, "fusion_lat": 0.0, "is_reserved": 0}, {"rental_uris": {"ios": "https://dc.lft.to/lastmile_qr_scan", "android": "https://dc.lft.to/lastmile_qr_scan"}, "fusion_lon": 0.0, "type": "electric_scooter", "bike_id": "ea14055af3cecda9625ac944d02ee99a", "name": "ea14055af3cecda9625ac944d02ee99a", "lat": 38.93224933333333, "is_disabled": 0, "lon": -76.99482883333333, "fusion_lat": 0.0, "is_reserved": 0}, {"rental_uris": {"ios": "https://dc.lft.to/lastmile_qr_scan", "android": "https://dc.lft.to/lastmile_qr_scan"}, "fusion_lon": 0.0, "type": "electric_bike", "bike_id": "b509f252c929e8b0c2d9152e86834934", "name": "b509f252c929e8b0c2d9152e86834934", "lat": 38.812725666666665, "is_disabled": 0, "lon": -77.06172316666667, "fusion_lat": 0.0, "is_reserved": 0}, {"rental_uris": {"ios": "https://dc.lft.to/lastmile_qr_scan", "android": "https://dc.lft.to/lastmile_qr_scan"}, "fusion_lon": 0.0, "type": "electric_scooter", "bike_id": "6ae66f909d07f3c90e0f7fa25d1a22b6", "name": "6ae66f909d07f3c90e0f7fa25d1a22b6", "lat": 38.89751866666667, "is_disabled": 0, "lon": -77.010168, "fusion_lat": 0.0, "is_reserved": 0}, {"rental_uris": {"ios": "https://dc.lft.to/lastmile_qr_scan", "android": "https://dc.lft.to/lastmile_qr_scan"}, "fusion_lon": 0.0, "type": "electric_bike", "bike_id": "faa6230291fa21b19866036814392a3f", "name": "faa6230291fa21b19866036814392a3f", "lat": 38.918716, "is_disabled": 0, "lon": -76.96123833333333, "fusion_lat": 0.0, "is_reserved": 0}, {"rental_uris": {"ios": "https://dc.lft.to/lastmile_qr_scan", "android": "https://dc.lft.to/lastmile_qr_scan"}, "fusion_lon": 0.0, "type": "electric_scooter", "bike_id": "4e1f74809b99aaa865f25954f18fbb35", "name": "4e1f74809b99aaa865f25954f18fbb35", "lat": 38.89936566666667, "is_disabled": 0, "lon": -77.043253, "fusion_lat": 0.0, "is_reserved": 0}, {"rental_uris": {"ios": "https://dc.lft.to/lastmile_qr_scan", "android": "https://dc.lft.to/lastmile_qr_scan"}, "fusion_lon": 0.0, "type": "electric_scooter", "bike_id": "cbaa3ad41c72bcac9ee3a26db5d7cc88", "name": "cbaa3ad41c72bcac9ee3a26db5d7cc88", "lat": 38.905213, "is_disabled": 0, "lon": -77.047384, "fusion_lat": 0.0, "is_reserved": 0}, {"rental_uris": {"ios": "https://dc.lft.to/lastmile_qr_scan", "android": "https://dc.lft.to/lastmile_qr_scan"}, "fusion_lon": 0.0, "type": "electric_scooter", "bike_id": "216bb830888394c38368baee8507a3c2", "name": "216bb830888394c38368baee8507a3c2", "lat": 38.90542833333333, "is_disabled": 0, "lon": -77.02973566666667, "fusion_lat": 0.0, "is_reserved": 0}, {"rental_uris": {"ios": "https://dc.lft.to/lastmile_qr_scan", "android": "https://dc.lft.to/lastmile_qr_scan"}, "fusion_lon": 0.0, "type": "electric_scooter", "bike_id": "136a39cd46f91e0b6f1acec79356aaff", "name": "136a39cd46f91e0b6f1acec79356aaff", "lat": 38.912579, "is_disabled": 0, "lon": -77.03263366666667, "fusion_lat": 0.0, "is_reserved": 0}, {"rental_uris": {"ios": "https://dc.lft.to/lastmile_qr_scan", "android": "https://dc.lft.to/lastmile_qr_scan"}, "fusion_lon": 0.0, "type": "electric_scooter", "bike_id": "43080e2412799dcadbefdac73003028d", "name": "43080e2412799dcadbefdac73003028d", "lat": 38.885063, "is_disabled": 0, "lon": -77.00568183333333, "fusion_lat": 0.0, "is_reserved": 0}, {"rental_uris": {"ios": "https://dc.lft.to/lastmile_qr_scan", "android": "https://dc.lft.to/lastmile_qr_scan"}, "fusion_lon": 0.0, "type": "electric_scooter", "bike_id": "ed3ef4627f8cb42d6889077914fa626d", "name": "ed3ef4627f8cb42d6889077914fa626d", "lat": 38.93250716666667, "is_disabled": 0, "lon": -77.0327275, "fusion_lat": 0.0, "is_reserved": 0}, {"rental_uris": {"ios": "https://dc.lft.to/lastmile_qr_scan", "android": "https://dc.lft.to/lastmile_qr_scan"}, "fusion_lon": 0.0, "type": "electric_scooter", "bike_id": "2b67135b313aff9ecfced92c546161dd", "name": "2b67135b313aff9ecfced92c546161dd", "lat": 38.9156135, "is_disabled": 0, "lon": -77.03267933333333, "fusion_lat": 0.0, "is_reserved": 0}, {"rental_uris": {"ios": "https://dc.lft.to/lastmile_qr_scan", "android": "https://dc.lft.to/lastmile_qr_scan"}, "fusion_lon": 0.0, "type": "electric_scooter", "bike_id": "be21bffc3532309c5dec73a748892f23", "name": "be21bffc3532309c5dec73a748892f23", "lat": 38.900004333333335, "is_disabled": 0, "lon": -76.99348333333333, "fusion_lat": 0.0, "is_reserved": 0}, {"rental_uris": {"ios": "https://dc.lft.to/lastmile_qr_scan", "android": "https://dc.lft.to/lastmile_qr_scan"}, "fusion_lon": 0.0, "type": "electric_scooter", "bike_id": "ec7357ff2b73774a871d3e3134495c4b", "name": "ec7357ff2b73774a871d3e3134495c4b", "lat": 38.8997145, "is_disabled": 0, "lon": -77.0461515, "fusion_lat": 0.0, "is_reserved": 0}, {"rental_uris": {"ios": "https://dc.lft.to/lastmile_qr_scan", "android": "https://dc.lft.to/lastmile_qr_scan"}, "fusion_lon": 0.0, "type": "electric_scooter", "bike_id": "d5f9a24cef9adcc209686eaa4b817a81", "name": "d5f9a24cef9adcc209686eaa4b817a81", "lat": 38.8971865, "is_disabled": 0, "lon": -77.00792316666667, "fusion_lat": 0.0, "is_reserved": 0}, {"rental_uris": {"ios": "https://dc.lft.to/lastmile_qr_scan", "android": "https://dc.lft.to/lastmile_qr_scan"}, "fusion_lon": 0.0, "type": "electric_scooter", "bike_id": "b299b28e67d5c0470bd5d11140f2e9bd", "name": "b299b28e67d5c0470bd5d11140f2e9bd", "lat": 38.86113183333333, "is_disabled": 0, "lon": -76.983684, "fusion_lat": 0.0, "is_reserved": 0}, {"rental_uris": {"ios": "https://dc.lft.to/lastmile_qr_scan", "android": "https://dc.lft.to/lastmile_qr_scan"}, "fusion_lon": 0.0, "type": "electric_scooter", "bike_id": "af283915a45af5805dd350f89a9b291f", "name": "af283915a45af5805dd350f89a9b291f", "lat": 38.896185833333334, "is_disabled": 0, "lon": -76.99632983333333, "fusion_lat": 0.0, "is_reserved": 0}, {"rental_uris": {"ios": "https://dc.lft.to/lastmile_qr_scan", "android": "https://dc.lft.to/lastmile_qr_scan"}, "fusion_lon": 0.0, "type": "electric_scooter", "bike_id": "f31615f6386044efd8a1744047baabcc", "name": "f31615f6386044efd8a1744047baabcc", "lat": 38.920823166666665, "is_disabled": 0, "lon": -77.02514383333333, "fusion_lat": 0.0, "is_reserved": 0}, {"rental_uris": {"ios": "https://dc.lft.to/lastmile_qr_scan", "android": "https://dc.lft.to/lastmile_qr_scan"}, "fusion_lon": 0.0, "type": "electric_scooter", "bike_id": "c06c2d5f28831d3527f849d5db2b4385", "name": "c06c2d5f28831d3527f849d5db2b4385", "lat": 38.90180316666667, "is_disabled": 0, "lon": -76.92831616666666, "fusion_lat": 0.0, "is_reserved": 0}, {"rental_uris": {"ios": "https://dc.lft.to/lastmile_qr_scan", "android": "https://dc.lft.to/lastmile_qr_scan"}, "fusion_lon": 0.0, "type": "electric_scooter", "bike_id": "6c979098463d83eb54d8a91aabe8cb9c", "name": "6c979098463d83eb54d8a91aabe8cb9c", "lat": 38.9225115, "is_disabled": 0, "lon": -77.03084466666667, "fusion_lat": 0.0, "is_reserved": 0}, {"rental_uris": {"ios": "https://dc.lft.to/lastmile_qr_scan", "android": "https://dc.lft.to/lastmile_qr_scan"}, "fusion_lon": 0.0, "type": "electric_scooter", "bike_id": "56439efcc29e59cea91e807eb4c3fd48", "name": "56439efcc29e59cea91e807eb4c3fd48", "lat": 38.903965, "is_disabled": 0, "lon": -77.02807016666667, "fusion_lat": 0.0, "is_reserved": 0}, {"rental_uris": {"ios": "https://dc.lft.to/lastmile_qr_scan", "android": "https://dc.lft.to/lastmile_qr_scan"}, "fusion_lon": 0.0, "type": "electric_scooter", "bike_id": "8b607b1f350ec9616362ad5a7a0ac58b", "name": "8b607b1f350ec9616362ad5a7a0ac58b", "lat": 38.95311616666667, "is_disabled": 0, "lon": -77.0360105, "fusion_lat": 0.0, "is_reserved": 0}, {"rental_uris": {"ios": "https://dc.lft.to/lastmile_qr_scan", "android": "https://dc.lft.to/lastmile_qr_scan"}, "fusion_lon": 0.0, "type": "electric_scooter", "bike_id": "6dbc64a92bb6f2c52e7db46d5af140aa", "name": "6dbc64a92bb6f2c52e7db46d5af140aa", "lat": 38.90810783333333, "is_disabled": 0, "lon": -77.04176933333333, "fusion_lat": 0.0, "is_reserved": 0}, {"rental_uris": {"ios": "https://dc.lft.to/lastmile_qr_scan", "android": "https://dc.lft.to/lastmile_qr_scan"}, "fusion_lon": 0.0, "type": "electric_scooter", "bike_id": "574932269a11c47baceaae3d16e0aa06", "name": "574932269a11c47baceaae3d16e0aa06", "lat": 38.931537166666665, "is_disabled": 0, "lon": -77.03445666666667, "fusion_lat": 0.0, "is_reserved": 0}, {"rental_uris": {"ios": "https://dc.lft.to/lastmile_qr_scan", "android": "https://dc.lft.to/lastmile_qr_scan"}, "fusion_lon": 0.0, "type": "electric_scooter", "bike_id": "7dc495bdd8178d636299d2c11acb0564", "name": "7dc495bdd8178d636299d2c11acb0564", "lat": 38.919139333333334, "is_disabled": 0, "lon": -77.02138266666667, "fusion_lat": 0.0, "is_reserved": 0}, {"rental_uris": {"ios": "https://dc.lft.to/lastmile_qr_scan", "android": "https://dc.lft.to/lastmile_qr_scan"}, "fusion_lon": 0.0, "type": "electric_scooter", "bike_id": "b0f94a92c4d294c8d9f6858472f21ce8", "name": "b0f94a92c4d294c8d9f6858472f21ce8", "lat": 38.89966033333333, "is_disabled": 0, "lon": -77.04614633333334, "fusion_lat": 0.0, "is_reserved": 0}, {"rental_uris": {"ios": "https://dc.lft.to/lastmile_qr_scan", "android": "https://dc.lft.to/lastmile_qr_scan"}, "fusion_lon": 0.0, "type": "electric_bike", "bike_id": "d597a057b5fe9bb4a8d7dff2be767eda", "name": "d597a057b5fe9bb4a8d7dff2be767eda", "lat": 38.8933605, "is_disabled": 0, "lon": -77.12402366666667, "fusion_lat": 0.0, "is_reserved": 0}, {"rental_uris": {"ios": "https://dc.lft.to/lastmile_qr_scan", "android": "https://dc.lft.to/lastmile_qr_scan"}, "fusion_lon": 0.0, "type": "electric_scooter", "bike_id": "72b9fb67222822cb7f3c6acdd89c0835", "name": "72b9fb67222822cb7f3c6acdd89c0835", "lat": 38.876472666666665, "is_disabled": 0, "lon": -77.01565466666666, "fusion_lat": 0.0, "is_reserved": 0}, {"rental_uris": {"ios": "https://dc.lft.to/lastmile_qr_scan", "android": "https://dc.lft.to/lastmile_qr_scan"}, "fusion_lon": 0.0, "type": "electric_scooter", "bike_id": "16578dd70962de4886a2910cdef32fd1", "name": "16578dd70962de4886a2910cdef32fd1", "lat": 38.89846566666667, "is_disabled": 0, "lon": -76.9463295, "fusion_lat": 0.0, "is_reserved": 0}, {"rental_uris": {"ios": "https://dc.lft.to/lastmile_qr_scan", "android": "https://dc.lft.to/lastmile_qr_scan"}, "fusion_lon": 0.0, "type": "electric_scooter", "bike_id": "90cb72a0d66197c84cec49933d61c612", "name": "90cb72a0d66197c84cec49933d61c612", "lat": 38.8930205, "is_disabled": 0, "lon": -77.01216233333334, "fusion_lat": 0.0, "is_reserved": 0}, {"rental_uris": {"ios": "https://dc.lft.to/lastmile_qr_scan", "android": "https://dc.lft.to/lastmile_qr_scan"}, "fusion_lon": 0.0, "type": "electric_scooter", "bike_id": "6fcd35a52bae6e3356ae00495750c1b1", "name": "6fcd35a52bae6e3356ae00495750c1b1", "lat": 38.91994066666667, "is_disabled": 0, "lon": -77.02402416666666, "fusion_lat": 0.0, "is_reserved": 0}, {"rental_uris": {"ios": "https://dc.lft.to/lastmile_qr_scan", "android": "https://dc.lft.to/lastmile_qr_scan"}, "fusion_lon": 0.0, "type": "electric_scooter", "bike_id": "a6921d7cefd64d8565faeeb4b457c754", "name": "a6921d7cefd64d8565faeeb4b457c754", "lat": 38.912182, "is_disabled": 0, "lon": -77.03202883333333, "fusion_lat": 0.0, "is_reserved": 0}, {"rental_uris": {"ios": "https://dc.lft.to/lastmile_qr_scan", "android": "https://dc.lft.to/lastmile_qr_scan"}, "fusion_lon": 0.0, "type": "electric_scooter", "bike_id": "b09e2a055c50fd4e03fa77a08d92c57d", "name": "b09e2a055c50fd4e03fa77a08d92c57d", "lat": 38.9211895, "is_disabled": 0, "lon": -77.046994, "fusion_lat": 0.0, "is_reserved": 0}, {"rental_uris": {"ios": "https://dc.lft.to/lastmile_qr_scan", "android": "https://dc.lft.to/lastmile_qr_scan"}, "fusion_lon": 0.0, "type": "electric_scooter", "bike_id": "cf116dd98618dc03203ee31daec3f960", "name": "cf116dd98618dc03203ee31daec3f960", "lat": 38.90245933333333, "is_disabled": 0, "lon": -77.002114, "fusion_lat": 0.0, "is_reserved": 0}, {"rental_uris": {"ios": "https://dc.lft.to/lastmile_qr_scan", "android": "https://dc.lft.to/lastmile_qr_scan"}, "fusion_lon": 0.0, "type": "electric_scooter", "bike_id": "f774597ddd77dff568bdd9bf2b9e0527", "name": "f774597ddd77dff568bdd9bf2b9e0527", "lat": 38.92100716666667, "is_disabled": 0, "lon": -77.03049966666667, "fusion_lat": 0.0, "is_reserved": 0}, {"rental_uris": {"ios": "https://dc.lft.to/lastmile_qr_scan", "android": "https://dc.lft.to/lastmile_qr_scan"}, "fusion_lon": 0.0, "type": "electric_scooter", "bike_id": "5dba7f2abc2ffb62b93d78e5cdd534a6", "name": "5dba7f2abc2ffb62b93d78e5cdd534a6", "lat": 38.910842333333335, "is_disabled": 0, "lon": -77.0384895, "fusion_lat": 0.0, "is_reserved": 0}, {"rental_uris": {"ios": "https://dc.lft.to/lastmile_qr_scan", "android": "https://dc.lft.to/lastmile_qr_scan"}, "fusion_lon": 0.0, "type": "electric_bike", "bike_id": "78002409b81e9e07884f41650c730776", "name": "78002409b81e9e07884f41650c730776", "lat": 38.9452795, "is_disabled": 0, "lon": -76.98727966666667, "fusion_lat": 0.0, "is_reserved": 0}, {"rental_uris": {"ios": "https://dc.lft.to/lastmile_qr_scan", "android": "https://dc.lft.to/lastmile_qr_scan"}, "fusion_lon": 0.0, "type": "electric_scooter", "bike_id": "17e58693a661dffec6d663b254678752", "name": "17e58693a661dffec6d663b254678752", "lat": 38.911763666666666, "is_disabled": 0, "lon": -77.02699466666667, "fusion_lat": 0.0, "is_reserved": 0}, {"rental_uris": {"ios": "https://dc.lft.to/lastmile_qr_scan", "android": "https://dc.lft.to/lastmile_qr_scan"}, "fusion_lon": 0.0, "type": "electric_scooter", "bike_id": "062746126c323f96c0eefc826f9600b8", "name": "062746126c323f96c0eefc826f9600b8", "lat": 38.93540466666666, "is_disabled": 0, "lon": -77.0581245, "fusion_lat": 0.0, "is_reserved": 0}, {"rental_uris": {"ios": "https://dc.lft.to/lastmile_qr_scan", "android": "https://dc.lft.to/lastmile_qr_scan"}, "fusion_lon": 0.0, "type": "electric_scooter", "bike_id": "e9865b155a2a5b237176ea84aaa8a498", "name": "e9865b155a2a5b237176ea84aaa8a498", "lat": 38.924273166666666, "is_disabled": 0, "lon": -77.04481066666666, "fusion_lat": 0.0, "is_reserved": 0}, {"rental_uris": {"ios": "https://dc.lft.to/lastmile_qr_scan", "android": "https://dc.lft.to/lastmile_qr_scan"}, "fusion_lon": 0.0, "type": "electric_scooter", "bike_id": "f7050428679b685dc9fd8e1901916706", "name": "f7050428679b685dc9fd8e1901916706", "lat": 38.93527133333333, "is_disabled": 0, "lon": -77.03256916666666, "fusion_lat": 0.0, "is_reserved": 0}, {"rental_uris": {"ios": "https://dc.lft.to/lastmile_qr_scan", "android": "https://dc.lft.to/lastmile_qr_scan"}, "fusion_lon": 0.0, "type": "electric_scooter", "bike_id": "b72e49f76ee9a87772fc26bddb68b934", "name": "b72e49f76ee9a87772fc26bddb68b934", "lat": 38.895764666666665, "is_disabled": 0, "lon": -77.0230845, "fusion_lat": 0.0, "is_reserved": 0}, {"rental_uris": {"ios": "https://dc.lft.to/lastmile_qr_scan", "android": "https://dc.lft.to/lastmile_qr_scan"}, "fusion_lon": 0.0, "type": "electric_scooter", "bike_id": "ed02f9cdd95cd4da89d09734ad2ac593", "name": "ed02f9cdd95cd4da89d09734ad2ac593", "lat": 38.914849833333335, "is_disabled": 0, "lon": -77.03236733333334, "fusion_lat": 0.0, "is_reserved": 0}, {"rental_uris": {"ios": "https://dc.lft.to/lastmile_qr_scan", "android": "https://dc.lft.to/lastmile_qr_scan"}, "fusion_lon": 0.0, "type": "electric_scooter", "bike_id": "42e68123483a92d255ce2bbeb8f2504a", "name": "42e68123483a92d255ce2bbeb8f2504a", "lat": 38.91269116666667, "is_disabled": 0, "lon": -77.0414965, "fusion_lat": 0.0, "is_reserved": 0}, {"rental_uris": {"ios": "https://dc.lft.to/lastmile_qr_scan", "android": "https://dc.lft.to/lastmile_qr_scan"}, "fusion_lon": 0.0, "type": "electric_scooter", "bike_id": "3ef9809c54ae41e5355ed818c99bdbc5", "name": "3ef9809c54ae41e5355ed818c99bdbc5", "lat": 38.88499783333334, "is_disabled": 0, "lon": -77.00894483333333, "fusion_lat": 0.0, "is_reserved": 0}, {"rental_uris": {"ios": "https://dc.lft.to/lastmile_qr_scan", "android": "https://dc.lft.to/lastmile_qr_scan"}, "fusion_lon": 0.0, "type": "electric_scooter", "bike_id": "ca6933f87742a000d11faef01b7126dc", "name": "ca6933f87742a000d11faef01b7126dc", "lat": 38.898314, "is_disabled": 0, "lon": -77.02438433333333, "fusion_lat": 0.0, "is_reserved": 0}, {"rental_uris": {"ios": "https://dc.lft.to/lastmile_qr_scan", "android": "https://dc.lft.to/lastmile_qr_scan"}, "fusion_lon": 0.0, "type": "electric_scooter", "bike_id": "f04d9837662929ae23810b337466cb1e", "name": "f04d9837662929ae23810b337466cb1e", "lat": 38.913100666666665, "is_disabled": 0, "lon": -76.98651383333333, "fusion_lat": 0.0, "is_reserved": 0}, {"rental_uris": {"ios": "https://dc.lft.to/lastmile_qr_scan", "android": "https://dc.lft.to/lastmile_qr_scan"}, "fusion_lon": 0.0, "type": "electric_scooter", "bike_id": "889726abbc74f7f9c3db9111a5ba5256", "name": "889726abbc74f7f9c3db9111a5ba5256", "lat": 38.90143366666667, "is_disabled": 0, "lon": -77.0467205, "fusion_lat": 0.0, "is_reserved": 0}, {"rental_uris": {"ios": "https://dc.lft.to/lastmile_qr_scan", "android": "https://dc.lft.to/lastmile_qr_scan"}, "fusion_lon": 0.0, "type": "electric_scooter", "bike_id": "5b8a9d88d861d7f04002956607fb3aff", "name": "5b8a9d88d861d7f04002956607fb3aff", "lat": 38.903438333333334, "is_disabled": 0, "lon": -77.0319755, "fusion_lat": 0.0, "is_reserved": 0}, {"rental_uris": {"ios": "https://dc.lft.to/lastmile_qr_scan", "android": "https://dc.lft.to/lastmile_qr_scan"}, "fusion_lon": 0.0, "type": "electric_scooter", "bike_id": "41e60d68499754ea35f4701a19c2140c", "name": "41e60d68499754ea35f4701a19c2140c", "lat": 38.942016333333335, "is_disabled": 0, "lon": -77.02590783333333, "fusion_lat": 0.0, "is_reserved": 0}, {"rental_uris": {"ios": "https://dc.lft.to/lastmile_qr_scan", "android": "https://dc.lft.to/lastmile_qr_scan"}, "fusion_lon": 0.0, "type": "electric_scooter", "bike_id": "d6bea51b73f565352c291605647ced55", "name": "d6bea51b73f565352c291605647ced55", "lat": 38.902842166666666, "is_disabled": 0, "lon": -77.0333715, "fusion_lat": 0.0, "is_reserved": 0}, {"rental_uris": {"ios": "https://dc.lft.to/lastmile_qr_scan", "android": "https://dc.lft.to/lastmile_qr_scan"}, "fusion_lon": 0.0, "type": "electric_scooter", "bike_id": "5232de596eecb597741a8e3d0b29d60f", "name": "5232de596eecb597741a8e3d0b29d60f", "lat": 38.91739666666667, "is_disabled": 0, "lon": -77.03643983333333, "fusion_lat": 0.0, "is_reserved": 0}, {"rental_uris": {"ios": "https://dc.lft.to/lastmile_qr_scan", "android": "https://dc.lft.to/lastmile_qr_scan"}, "fusion_lon": 0.0, "type": "electric_scooter", "bike_id": "882f2278621bb765d07448a175d18a82", "name": "882f2278621bb765d07448a175d18a82", "lat": 38.90465983333333, "is_disabled": 0, "lon": -77.02821483333334, "fusion_lat": 0.0, "is_reserved": 0}, {"rental_uris": {"ios": "https://dc.lft.to/lastmile_qr_scan", "android": "https://dc.lft.to/lastmile_qr_scan"}, "fusion_lon": 0.0, "type": "electric_scooter", "bike_id": "b2a5f00cf70ebe4727a45b07d157ba46", "name": "b2a5f00cf70ebe4727a45b07d157ba46", "lat": 38.89547566666667, "is_disabled": 0, "lon": -77.00912166666667, "fusion_lat": 0.0, "is_reserved": 0}, {"rental_uris": {"ios": "https://dc.lft.to/lastmile_qr_scan", "android": "https://dc.lft.to/lastmile_qr_scan"}, "fusion_lon": 0.0, "type": "electric_scooter", "bike_id": "945e48fc2b36aea3abef194f7e0a49de", "name": "945e48fc2b36aea3abef194f7e0a49de", "lat": 38.898966, "is_disabled": 0, "lon": -76.99343033333334, "fusion_lat": 0.0, "is_reserved": 0}, {"rental_uris": {"ios": "https://dc.lft.to/lastmile_qr_scan", "android": "https://dc.lft.to/lastmile_qr_scan"}, "fusion_lon": 0.0, "type": "electric_scooter", "bike_id": "3fee7296ce1a8b4c3124f96818206616", "name": "3fee7296ce1a8b4c3124f96818206616", "lat": 38.858070833333336, "is_disabled": 0, "lon": -76.98656683333333, "fusion_lat": 0.0, "is_reserved": 0}, {"rental_uris": {"ios": "https://dc.lft.to/lastmile_qr_scan", "android": "https://dc.lft.to/lastmile_qr_scan"}, "fusion_lon": 0.0, "type": "electric_scooter", "bike_id": "de7ed4499d0d3ea55c4fef49596dccea", "name": "de7ed4499d0d3ea55c4fef49596dccea", "lat": 38.891941833333334, "is_disabled": 0, "lon": -77.00290733333334, "fusion_lat": 0.0, "is_reserved": 0}, {"rental_uris": {"ios": "https://dc.lft.to/lastmile_qr_scan", "android": "https://dc.lft.to/lastmile_qr_scan"}, "fusion_lon": 0.0, "type": "electric_scooter", "bike_id": "8a7809488da9e54751d9a5dc6bc8c204", "name": "8a7809488da9e54751d9a5dc6bc8c204", "lat": 38.9176715, "is_disabled": 0, "lon": -77.03444883333333, "fusion_lat": 0.0, "is_reserved": 0}, {"rental_uris": {"ios": "https://dc.lft.to/lastmile_qr_scan", "android": "https://dc.lft.to/lastmile_qr_scan"}, "fusion_lon": 0.0, "type": "electric_scooter", "bike_id": "630ecb2dc46923fa4d47e17e7cc4c203", "name": "630ecb2dc46923fa4d47e17e7cc4c203", "lat": 38.91041166666667, "is_disabled": 0, "lon": -77.04009133333334, "fusion_lat": 0.0, "is_reserved": 0}, {"rental_uris": {"ios": "https://dc.lft.to/lastmile_qr_scan", "android": "https://dc.lft.to/lastmile_qr_scan"}, "fusion_lon": 0.0, "type": "electric_scooter", "bike_id": "69e76cd67732c6f6bf79c4b541fa0a19", "name": "69e76cd67732c6f6bf79c4b541fa0a19", "lat": 38.9048535, "is_disabled": 0, "lon": -77.02993433333333, "fusion_lat": 0.0, "is_reserved": 0}, {"rental_uris": {"ios": "https://dc.lft.to/lastmile_qr_scan", "android": "https://dc.lft.to/lastmile_qr_scan"}, "fusion_lon": 0.0, "type": "electric_scooter", "bike_id": "9aa00432cd574918a0d604e3d8bdec8d", "name": "9aa00432cd574918a0d604e3d8bdec8d", "lat": 38.90119716666667, "is_disabled": 0, "lon": -77.0436765, "fusion_lat": 0.0, "is_reserved": 0}, {"rental_uris": {"ios": "https://dc.lft.to/lastmile_qr_scan", "android": "https://dc.lft.to/lastmile_qr_scan"}, "fusion_lon": 0.0, "type": "electric_scooter", "bike_id": "e38155172b85ee4366e5a905752e937a", "name": "e38155172b85ee4366e5a905752e937a", "lat": 38.912206166666664, "is_disabled": 0, "lon": -77.02709316666666, "fusion_lat": 0.0, "is_reserved": 0}, {"rental_uris": {"ios": "https://dc.lft.to/lastmile_qr_scan", "android": "https://dc.lft.to/lastmile_qr_scan"}, "fusion_lon": 0.0, "type": "electric_bike", "bike_id": "c0fd50f5cb5404621b3b5c4ab2b9675b", "name": "c0fd50f5cb5404621b3b5c4ab2b9675b", "lat": 38.996699666666665, "is_disabled": 0, "lon": -76.99142716666667, "fusion_lat": 0.0, "is_reserved": 0}, {"rental_uris": {"ios": "https://dc.lft.to/lastmile_qr_scan", "android": "https://dc.lft.to/lastmile_qr_scan"}, "fusion_lon": 0.0, "type": "electric_scooter", "bike_id": "a74bc21d474a25012e8e0aed0ea3f19e", "name": "a74bc21d474a25012e8e0aed0ea3f19e", "lat": 38.90953283333333, "is_disabled": 0, "lon": -77.02715116666667, "fusion_lat": 0.0, "is_reserved": 0}, {"rental_uris": {"ios": "https://dc.lft.to/lastmile_qr_scan", "android": "https://dc.lft.to/lastmile_qr_scan"}, "fusion_lon": 0.0, "type": "electric_scooter", "bike_id": "49d2a57e822d3e8d9b7481aee9b13c31", "name": "49d2a57e822d3e8d9b7481aee9b13c31", "lat": 38.91252, "is_disabled": 0, "lon": -77.0242445, "fusion_lat": 0.0, "is_reserved": 0}, {"rental_uris": {"ios": "https://dc.lft.to/lastmile_qr_scan", "android": "https://dc.lft.to/lastmile_qr_scan"}, "fusion_lon": 0.0, "type": "electric_scooter", "bike_id": "7112bcb23625b5648f870a4c2f33d67b", "name": "7112bcb23625b5648f870a4c2f33d67b", "lat": 38.9020225, "is_disabled": 0, "lon": -77.04794683333333, "fusion_lat": 0.0, "is_reserved": 0}, {"rental_uris": {"ios": "https://dc.lft.to/lastmile_qr_scan", "android": "https://dc.lft.to/lastmile_qr_scan"}, "fusion_lon": 0.0, "type": "electric_scooter", "bike_id": "6d3a4bde65e7b20dd03cfdc7dabf5c17", "name": "6d3a4bde65e7b20dd03cfdc7dabf5c17", "lat": 38.91676983333333, "is_disabled": 0, "lon": -77.01578566666667, "fusion_lat": 0.0, "is_reserved": 0}, {"rental_uris": {"ios": "https://dc.lft.to/lastmile_qr_scan", "android": "https://dc.lft.to/lastmile_qr_scan"}, "fusion_lon": 0.0, "type": "electric_scooter", "bike_id": "958461dbc482b1d537c4ceeae2604dce", "name": "958461dbc482b1d537c4ceeae2604dce", "lat": 38.9110075, "is_disabled": 0, "lon": -77.03179516666667, "fusion_lat": 0.0, "is_reserved": 0}, {"rental_uris": {"ios": "https://dc.lft.to/lastmile_qr_scan", "android": "https://dc.lft.to/lastmile_qr_scan"}, "fusion_lon": 0.0, "type": "electric_scooter", "bike_id": "622b4679251860296f9f6fd8a2abe1ab", "name": "622b4679251860296f9f6fd8a2abe1ab", "lat": 38.875778333333336, "is_disabled": 0, "lon": -77.02080616666667, "fusion_lat": 0.0, "is_reserved": 0}, {"rental_uris": {"ios": "https://dc.lft.to/lastmile_qr_scan", "android": "https://dc.lft.to/lastmile_qr_scan"}, "fusion_lon": 0.0, "type": "electric_scooter", "bike_id": "f69bf9769f75144bb558f85a4b0e90e6", "name": "f69bf9769f75144bb558f85a4b0e90e6", "lat": 38.903519333333335, "is_disabled": 0, "lon": -77.01108, "fusion_lat": 0.0, "is_reserved": 0}, {"rental_uris": {"ios": "https://dc.lft.to/lastmile_qr_scan", "android": "https://dc.lft.to/lastmile_qr_scan"}, "fusion_lon": 0.0, "type": "electric_scooter", "bike_id": "64c27e0666871c166f2e9b3527ab4dde", "name": "64c27e0666871c166f2e9b3527ab4dde", "lat": 38.917061333333336, "is_disabled": 0, "lon": -77.02434233333334, "fusion_lat": 0.0, "is_reserved": 0}, {"rental_uris": {"ios": "https://dc.lft.to/lastmile_qr_scan", "android": "https://dc.lft.to/lastmile_qr_scan"}, "fusion_lon": 0.0, "type": "electric_scooter", "bike_id": "a40c428ba83bdf8dfbb4bbb45841ae07", "name": "a40c428ba83bdf8dfbb4bbb45841ae07", "lat": 38.91342266666667, "is_disabled": 0, "lon": -77.04865633333333, "fusion_lat": 0.0, "is_reserved": 0}, {"rental_uris": {"ios": "https://dc.lft.to/lastmile_qr_scan", "android": "https://dc.lft.to/lastmile_qr_scan"}, "fusion_lon": 0.0, "type": "electric_scooter", "bike_id": "f7ff744759bb5ff8466589e2c7b52f5c", "name": "f7ff744759bb5ff8466589e2c7b52f5c", "lat": 38.912168666666666, "is_disabled": 0, "lon": -77.05119316666666, "fusion_lat": 0.0, "is_reserved": 0}, {"rental_uris": {"ios": "https://dc.lft.to/lastmile_qr_scan", "android": "https://dc.lft.to/lastmile_qr_scan"}, "fusion_lon": 0.0, "type": "electric_bike", "bike_id": "bbf1e572934192750b9745d673538162", "name": "bbf1e572934192750b9745d673538162", "lat": 38.9555065, "is_disabled": 0, "lon": -76.935359, "fusion_lat": 0.0, "is_reserved": 0}, {"rental_uris": {"ios": "https://dc.lft.to/lastmile_qr_scan", "android": "https://dc.lft.to/lastmile_qr_scan"}, "fusion_lon": 0.0, "type": "electric_bike", "bike_id": "3d677ffa064f60d06f7d394616eace09", "name": "3d677ffa064f60d06f7d394616eace09", "lat": 38.82876233333333, "is_disabled": 0, "lon": -77.11220833333333, "fusion_lat": 0.0, "is_reserved": 0}, {"rental_uris": {"ios": "https://dc.lft.to/lastmile_qr_scan", "android": "https://dc.lft.to/lastmile_qr_scan"}, "fusion_lon": 0.0, "type": "electric_scooter", "bike_id": "fec16af7a360149ee406cc1ea1450db8", "name": "fec16af7a360149ee406cc1ea1450db8", "lat": 38.92595883333333, "is_disabled": 0, "lon": -77.05531683333334, "fusion_lat": 0.0, "is_reserved": 0}, {"rental_uris": {"ios": "https://dc.lft.to/lastmile_qr_scan", "android": "https://dc.lft.to/lastmile_qr_scan"}, "fusion_lon": 0.0, "type": "electric_scooter", "bike_id": "f2119f9cf9c2860bad7e33c89195e143", "name": "f2119f9cf9c2860bad7e33c89195e143", "lat": 38.916833833333335, "is_disabled": 0, "lon": -77.03682233333333, "fusion_lat": 0.0, "is_reserved": 0}, {"rental_uris": {"ios": "https://dc.lft.to/lastmile_qr_scan", "android": "https://dc.lft.to/lastmile_qr_scan"}, "fusion_lon": 0.0, "type": "electric_scooter", "bike_id": "a4080b8d8b253816e5a772f2fb59dcbe", "name": "a4080b8d8b253816e5a772f2fb59dcbe", "lat": 38.89949166666667, "is_disabled": 0, "lon": -77.0404985, "fusion_lat": 0.0, "is_reserved": 0}, {"rental_uris": {"ios": "https://dc.lft.to/lastmile_qr_scan", "android": "https://dc.lft.to/lastmile_qr_scan"}, "fusion_lon": 0.0, "type": "electric_scooter", "bike_id": "5d58332c2ae980c423464f5353fe85da", "name": "5d58332c2ae980c423464f5353fe85da", "lat": 38.87785233333334, "is_disabled": 0, "lon": -76.99409766666666, "fusion_lat": 0.0, "is_reserved": 0}, {"rental_uris": {"ios": "https://dc.lft.to/lastmile_qr_scan", "android": "https://dc.lft.to/lastmile_qr_scan"}, "fusion_lon": 0.0, "type": "electric_scooter", "bike_id": "effa95aa28e742c99783cdd267d69e6e", "name": "effa95aa28e742c99783cdd267d69e6e", "lat": 38.89968916666667, "is_disabled": 0, "lon": -76.98018033333334, "fusion_lat": 0.0, "is_reserved": 0}, {"rental_uris": {"ios": "https://dc.lft.to/lastmile_qr_scan", "android": "https://dc.lft.to/lastmile_qr_scan"}, "fusion_lon": 0.0, "type": "electric_scooter", "bike_id": "d6090fddacf9c19090cc02c0d8e5903d", "name": "d6090fddacf9c19090cc02c0d8e5903d", "lat": 38.91885833333333, "is_disabled": 0, "lon": -77.04174866666666, "fusion_lat": 0.0, "is_reserved": 0}, {"rental_uris": {"ios": "https://dc.lft.to/lastmile_qr_scan", "android": "https://dc.lft.to/lastmile_qr_scan"}, "fusion_lon": 0.0, "type": "electric_bike", "bike_id": "ccd4b7f260cf43f3377063cd2b5c384e", "name": "ccd4b7f260cf43f3377063cd2b5c384e", "lat": 38.887686333333335, "is_disabled": 0, "lon": -77.1225735, "fusion_lat": 0.0, "is_reserved": 0}, {"rental_uris": {"ios": "https://dc.lft.to/lastmile_qr_scan", "android": "https://dc.lft.to/lastmile_qr_scan"}, "fusion_lon": 0.0, "type": "electric_scooter", "bike_id": "4e2f524de612068fd180b8b82e8227a4", "name": "4e2f524de612068fd180b8b82e8227a4", "lat": 38.915775, "is_disabled": 0, "lon": -77.03644183333333, "fusion_lat": 0.0, "is_reserved": 0}, {"rental_uris": {"ios": "https://dc.lft.to/lastmile_qr_scan", "android": "https://dc.lft.to/lastmile_qr_scan"}, "fusion_lon": 0.0, "type": "electric_bike", "bike_id": "55be75baac2c5da4bfb4d10ccb8d8243", "name": "55be75baac2c5da4bfb4d10ccb8d8243", "lat": 38.83193966666666, "is_disabled": 0, "lon": -77.07686783333334, "fusion_lat": 0.0, "is_reserved": 0}, {"rental_uris": {"ios": "https://dc.lft.to/lastmile_qr_scan", "android": "https://dc.lft.to/lastmile_qr_scan"}, "fusion_lon": 0.0, "type": "electric_scooter", "bike_id": "89b9520ff6f70bd53cc5bf4bb9a953c4", "name": "89b9520ff6f70bd53cc5bf4bb9a953c4", "lat": 38.91886133333333, "is_disabled": 0, "lon": -77.04156883333333, "fusion_lat": 0.0, "is_reserved": 0}, {"rental_uris": {"ios": "https://dc.lft.to/lastmile_qr_scan", "android": "https://dc.lft.to/lastmile_qr_scan"}, "fusion_lon": 0.0, "type": "electric_scooter", "bike_id": "02042cd7340c2f98f2bb7b242b97be01", "name": "02042cd7340c2f98f2bb7b242b97be01", "lat": 38.91387, "is_disabled": 0, "lon": -77.01704916666667, "fusion_lat": 0.0, "is_reserved": 0}, {"rental_uris": {"ios": "https://dc.lft.to/lastmile_qr_scan", "android": "https://dc.lft.to/lastmile_qr_scan"}, "fusion_lon": 0.0, "type": "electric_scooter", "bike_id": "fda751e356a4a42f496d201112e913fb", "name": "fda751e356a4a42f496d201112e913fb", "lat": 38.903928, "is_disabled": 0, "lon": -77.028116, "fusion_lat": 0.0, "is_reserved": 0}, {"rental_uris": {"ios": "https://dc.lft.to/lastmile_qr_scan", "android": "https://dc.lft.to/lastmile_qr_scan"}, "fusion_lon": 0.0, "type": "electric_scooter", "bike_id": "d959ac841373f9f27884d1d371b0a8a0", "name": "d959ac841373f9f27884d1d371b0a8a0", "lat": 38.905797, "is_disabled": 0, "lon": -77.008891, "fusion_lat": 0.0, "is_reserved": 0},