{"data": {"bikes": [{"is_disabled": 0, "fusion_lat": 0.0, "lat": 38.873947, "type": "electric_scooter", "lon": -77.000875, "is_reserved": 0, "fusion_lon": 0.0, "bike_id": "748ca6b1dd0cf1c0ea54c1743f11a0e2", "name": "748ca6b1dd0cf1c0ea54c1743f11a0e2", "rental_uris": {"ios": "https://dc.lft.to/lastmile_qr_scan", "android": "https://dc.lft.to/lastmile_qr_scan"}}, {"is_disabled": 0, "fusion_lat": 0.0, "lat": 38.90330816666667, "type": "electric_scooter", "lon": -77.051742, "is_reserved": 0, "fusion_lon": 0.0, "bike_id": "d1a4c4a22648b1908a662dbe542e65e6", "name": "d1a4c4a22648b1908a662dbe542e65e6", "rental_uris": {"ios": "https://dc.lft.to/lastmile_qr_scan", "android": "https://dc.lft.to/lastmile_qr_scan"}}, {"is_disabled": 0, "fusion_lat": 0.0, "lat": 38.91792983333333, "type": "electric_scooter", "lon": -77.02317016666667, "is_reserved": 0, "fusion_lon": 0.0, "bike_id": "5de63d23685281b9268783b3b86dff18", "name": "5de63d23685281b9268783b3b86dff18", "rental_uris": {"ios": "https://dc.lft.to/lastmile_qr_scan", "android": "https://dc.lft.to/lastmile_qr_scan"}}, {"is_disabled": 0, "fusion_lat": 0.0, "lat": 38.90401766666667, "type": "electric_scooter", "lon": -77.03210216666666, "is_reserved": 0, "fusion_lon": 0.0, "bike_id": "e9bb124ade703208256418ab51e92d82", "name": "e9bb124ade703208256418ab51e92d82", "rental_uris": {"ios": "https://dc.lft.to/lastmile_qr_scan", "android": "https://dc.lft.to/lastmile_qr_scan"}}, {"is_disabled": 0, "fusion_lat": 0.0, "lat": 38.91674016666666, "type": "electric_scooter", "lon": -77.03688716666667, "is_reserved": 0, "fusion_lon": 0.0, "bike_id": "a3b60429244c68ecbcc371b7c36b80cd", "name": "a3b60429244c68ecbcc371b7c36b80cd", "rental_uris": {"ios": "https://dc.lft.to/lastmile_qr_scan", "android": "https://dc.lft.to/lastmile_qr_scan"}}, {"is_disabled": 0, "fusion_lat": 0.0, "lat": 38.8762695, "type": "electric_scooter", "lon": -76.96531033333333, "is_reserved": 0, "fusion_lon": 0.0, "bike_id": "73bdd3ab2604497e2fcf7562f5a7e683", "name": "73bdd3ab2604497e2fcf7562f5a7e683", "rental_uris": {"ios": "https://dc.lft.to/lastmile_qr_scan", "android": "https://dc.lft.to/lastmile_qr_scan"}}, {"is_disabled": 0, "fusion_lat": 0.0, "lat": 38.899620166666665, "type": "electric_scooter", "lon": -77.02160783333333, "is_reserved": 0, "fusion_lon": 0.0, "bike_id": "50c7a36da18195c55ce38611691ec8fc", "name": "50c7a36da18195c55ce38611691ec8fc", "rental_uris": {"ios": "https://dc.lft.to/lastmile_qr_scan", "android": "https://dc.lft.to/lastmile_qr_scan"}}, {"is_disabled": 0, "fusion_lat": 0.0, "lat": 38.90832416666667, "type": "electric_scooter", "lon": -77.04325866666667, "is_reserved": 0, "fusion_lon": 0.0, "bike_id": "27f2b778b1cb86ce5ddc52bde32e4569", "name": "27f2b778b1cb86ce5ddc52bde32e4569", "rental_uris": {"ios": "https://dc.lft.to/lastmile_qr_scan", "android": "https://dc.lft.to/lastmile_qr_scan"}}, {"is_disabled": 0, "fusion_lat": 0.0, "lat": 38.9218635, "type": "electric_scooter", "lon": -77.03210716666666, "is_reserved": 0, "fusion_lon": 0.0, "bike_id": "6fc17a48a94f8e94d0ec231b55185011", "name": "6fc17a48a94f8e94d0ec231b55185011", "rental_uris": {"ios": "https://dc.lft.to/lastmile_qr_scan", "android": "https://dc.lft.to/lastmile_qr_scan"}}, {"is_disabled": 0, "fusion_lat": 0.0, "lat": 38.89324966666667, "type": "electric_scooter", "lon": -76.92994033333333, "is_reserved": 0, "fusion_lon": 0.0, "bike_id": "df0e9ef9cde7c9178dc937a612a441b0", "name": "df0e9ef9cde7c9178dc937a612a441b0", "rental_uris": {"ios": "https://dc.lft.to/lastmile_qr_scan", "android": "https://dc.lft.to/lastmile_qr_scan"}}, {"is_disabled": 0, "fusion_lat": 0.0, "lat": 38.90517916666667, "type": "electric_scooter", "lon": -76.9884715, "is_reserved": 0, "fusion_lon": 0.0, "bike_id": "810a06194e5b06fdec5fc3e44e725609", "name": "810a06194e5b06fdec5fc3e44e725609", "rental_uris": {"ios": "https://dc.lft.to/lastmile_qr_scan", "android": "https://dc.lft.to/lastmile_qr_scan"}}, {"is_disabled": 0, "fusion_lat": 0.0, "lat": 38.90507733333333, "type": "electric_scooter", "lon": -77.0513905, "is_reserved": 0, "fusion_lon": 0.0, "bike_id": "1c169b355731d55c99bf69d2312265c9", "name": "1c169b355731d55c99bf69d2312265c9", "rental_uris": {"ios": "https://dc.lft.to/lastmile_qr_scan", "android": "https://dc.lft.to/lastmile_qr_scan"}}, {"is_disabled": 0, "fusion_lat": 0.0, "lat": 38.92503883333333, "type": "electric_scooter", "lon": -77.03885333333334, "is_reserved": 0, "fusion_lon": 0.0, "bike_id": "1678a82a7b19504fa504cf16f4b51c11", "name": "1678a82a7b19504fa504cf16f4b51c11", "rental_uris": {"ios": "https://dc.lft.to/lastmile_qr_scan", "android": "https://dc.lft.to/lastmile_qr_scan"}}, {"is_disabled": 0, "fusion_lat": 0.0, "lat": 38.8987745, "type": "electric_scooter", "lon": -76.93187033333334, "is_reserved": 0, "fusion_lon": 0.0, "bike_id": "27f51bc7b4c41e8fa7b48f4a30b19c32", "name": "27f51bc7b4c41e8fa7b48f4a30b19c32", "rental_uris": {"ios": "https://dc.lft.to/lastmile_qr_scan", "android": "https://dc.lft.to/lastmile_qr_scan"}}, {"is_disabled": 0, "fusion_lat": 0.0, "lat": 38.87966466666666, "type": "electric_bike", "lon": -77.01014816666667, "is_reserved": 0, "fusion_lon": 0.0, "bike_id": "27c877fad6c06cd550fbd1f9398c7492", "name": "27c877fad6c06cd550fbd1f9398c7492", "rental_uris": {"ios": "https://dc.lft.to/lastmile_qr_scan", "android": "https://dc.lft.to/lastmile_qr_scan"}}, {"is_disabled": 0, "fusion_lat": 0.0, "lat": 38.899975, "type": "electric_scooter", "lon": -77.02684816666667, "is_reserved": 0, "fusion_lon": 0.0, "bike_id": "7dc60edaa96eb8f807de6f722ba2d7c8", "name": "7dc60edaa96eb8f807de6f722ba2d7c8", "rental_uris": {"ios": "https://dc.lft.to/lastmile_qr_scan", "android": "https://dc.lft.to/lastmile_qr_scan"}}, {"is_disabled": 0, "fusion_lat": 0.0, "lat": 38.97088766666667, "type": "electric_bike", "lon": -77.06967633333333, "is_reserved": 0, "fusion_lon": 0.0, "bike_id": "0a40835e64f2147e4b08aebd6edad842", "name": "0a40835e64f2147e4b08aebd6edad842", "rental_uris": {"ios": "https://dc.lft.to/lastmile_qr_scan", "android": "https://dc.lft.to/lastmile_qr_scan"}}, {"is_disabled": 0, "fusion_lat": 0.0, "lat": 38.925873, "type": "electric_scooter", "lon": -77.00484733333333, "is_reserved": 0, "fusion_lon": 0.0, "bike_id": "b25d307828b205869469751fb1329fe2", "name": "b25d307828b205869469751fb1329fe2", "rental_uris": {"ios": "https://dc.lft.to/lastmile_qr_scan", "android": "https://dc.lft.to/lastmile_qr_scan"}}, {"is_disabled": 0, "fusion_lat": 0.0, "lat": 38.900493166666664, "type": "electric_scooter", "lon": -77.00198566666667, "is_reserved": 0, "fusion_lon": 0.0, "bike_id": "d310d8fa080a9bef6a1d75af1c074839", "name": "d310d8fa080a9bef6a1d75af1c074839", "rental_uris": {"ios": "https://dc.lft.to/lastmile_qr_scan", "android": "https://dc.lft.to/lastmile_qr_scan"}}, {"is_disabled": 0, "fusion_lat": 0.0, "lat": 38.915448166666664, "type": "electric_scooter", "lon": -77.04879133333333, "is_reserved": 0, "fusion_lon": 0.0, "bike_id": "b933ab0d60b085ac0ae137bccfbefd62", "name": "b933ab0d60b085ac0ae137bccfbefd62", "rental_uris": {"ios": "https://dc.lft.to/lastmile_qr_scan", "android": "https://dc.lft.to/lastmile_qr_scan"}}, {"is_disabled": 0, "fusion_lat": 0.0, "lat": 38.884934666666666, "type": "electric_scooter", "lon": -77.01555483333334, "is_reserved": 0, "fusion_lon": 0.0, "bike_id": "4f27f05835127c82030497dcc02a4dce", "name": "4f27f05835127c82030497dcc02a4dce", "rental_uris": {"ios": "https://dc.lft.to/lastmile_qr_scan", "android": "https://dc.lft.to/lastmile_qr_scan"}}, {"is_disabled": 0, "fusion_lat": 0.0, "lat": 38.903091833333335, "type": "electric_scooter", "lon": -76.97803183333333, "is_reserved": 0, "fusion_lon": 0.0, "bike_id": "94b38491d5d0e362fc1f52d013d05d75", "name": "94b38491d5d0e362fc1f52d013d05d75", "rental_uris": {"ios": "https://dc.lft.to/lastmile_qr_scan", "android": "https://dc.lft.to/lastmile_qr_scan"}}, {"is_disabled": 0, "fusion_lat": 0.0, "lat": 38.9214885, "type": "electric_scooter", "lon": -77.03867016666666, "is_reserved": 0, "fusion_lon": 0.0, "bike_id": "e54bfa5455ea7c7ac5f77b384d2c6d5d", "name": "e54bfa5455ea7c7ac5f77b384d2c6d5d", "rental_uris": {"ios": "https://dc.lft.to/lastmile_qr_scan", "android": "https://dc.lft.to/lastmile_qr_scan"}}, {"is_disabled": 0, "fusion_lat": 0.0, "lat": 38.892442333333335, "type": "electric_scooter", "lon": -76.943152, "is_reserved": 0, "fusion_lon": 0.0, "bike_id": "0fa7f7498f08ebaa36818f3159d50e29", "name": "0fa7f7498f08ebaa36818f3159d50e29", "rental_uris": {"ios": "https://dc.lft.to/lastmile_qr_scan", "android": "https://dc.lft.to/lastmile_qr_scan"}}, {"is_disabled": 0, "fusion_lat": 0.0, "lat": 38.901377333333336, "type": "electric_scooter", "lon": -76.99806966666667, "is_reserved": 0, "fusion_lon": 0.0, "bike_id": "39a038be89ecbbe1c8717f7c72712496", "name": "39a038be89ecbbe1c8717f7c72712496", "rental_uris": {"ios": "https://dc.lft.to/lastmile_qr_scan", "android": "https://dc.lft.to/lastmile_qr_scan"}}, {"is_disabled": 0, "fusion_lat": 0.0, "lat": 38.91615983333333, "type": "electric_scooter", "lon": -77.02713416666667, "is_reserved": 0, "fusion_lon": 0.0, "bike_id": "cb4c1792a363fad4c33befeb8f39a606", "name": "cb4c1792a363fad4c33befeb8f39a606", "rental_uris": {"ios": "https://dc.lft.to/lastmile_qr_scan", "android": "https://dc.lft.to/lastmile_qr_scan"}}, {"is_disabled": 0, "fusion_lat": 0.0, "lat": 38.91268866666667, "type": "electric_scooter", "lon": -77.04170533333334, "is_reserved": 0, "fusion_lon": 0.0, "bike_id": "e26ff6a37b9c7f5673d673ac4d01b41e", "name": "e26ff6a37b9c7f5673d673ac4d01b41e", "rental_uris": {"ios": "https://dc.lft.to/lastmile_qr_scan", "android": "https://dc.lft.to/lastmile_qr_scan"}}, {"is_disabled": 0, "fusion_lat": 0.0, "lat": 38.938280666666664, "type": "electric_bike", "lon": -77.03293966666666, "is_reserved": 0, "fusion_lon": 0.0, "bike_id": "c687a08f52a2445b49c44845087c6ac8", "name": "c687a08f52a2445b49c44845087c6ac8", "rental_uris": {"ios": "https://dc.lft.to/lastmile_qr_scan", "android": "https://dc.lft.to/lastmile_qr_scan"}}, {"is_disabled": 0, "fusion_lat": 0.0, "lat": 38.90850983333333, "type": "electric_scooter", "lon": -77.02461533333333, "is_reserved": 0, "fusion_lon": 0.0, "bike_id": "936f57566d9c3727b1bbc91c10fc7ab1", "name": "936f57566d9c3727b1bbc91c10fc7ab1", "rental_uris": {"ios": "https://dc.lft.to/lastmile_qr_scan", "android": "https://dc.lft.to/lastmile_qr_scan"}}, {"is_disabled": 0, "fusion_lat": 0.0, "lat": 38.871450833333334, "type": "electric_bike", "lon": -76.9366885, "is_reserved": 0, "fusion_lon": 0.0, "bike_id": "1728d9a461544328521fab35f05d92ef", "name": "1728d9a461544328521fab35f05d92ef", "rental_uris": {"ios": "https://dc.lft.to/lastmile_qr_scan", "android": "https://dc.lft.to/lastmile_qr_scan"}}, {"is_disabled": 0, "fusion_lat": 0.0, "lat": 38.896182, "type": "electric_scooter", "lon": -76.99421733333334, "is_reserved": 0, "fusion_lon": 0.0, "bike_id": "ea74277e6a0db9e99501cf2cd1827fcf", "name": "ea74277e6a0db9e99501cf2cd1827fcf", "rental_uris": {"ios": "https://dc.lft.to/lastmile_qr_scan", "android": "https://dc.lft.to/lastmile_qr_scan"}}, {"is_disabled": 0, "fusion_lat": 0.0, "lat": 38.94800016666667, "type": "electric_bike", "lon": -77.00813516666666, "is_reserved": 0, "fusion_lon": 0.0, "bike_id": "503763f1747b3cc1959876bd2c4e85d7", "name": "503763f1747b3cc1959876bd2c4e85d7", "rental_uris": {"ios": "https://dc.lft.to/lastmile_qr_scan", "android": "https://dc.lft.to/lastmile_qr_scan"}}, {"is_disabled": 0, "fusion_lat": 0.0, "lat": 38.953487833333334, "type": "electric_bike", "lon": -76.98084816666666, "is_reserved": 0, "fusion_lon": 0.0, "bike_id": "f615bb132bb1728b7df73fc3a8c83c91", "name": "f615bb132bb1728b7df73fc3a8c83c91", "rental_uris": {"ios": "https://dc.lft.to/lastmile_qr_scan", "android": "https://dc.lft.to/lastmile_qr_scan"}}, {"is_disabled": 0, "fusion_lat": 0.0, "lat": 38.924967, "type": "electric_scooter", "lon": -77.021597, "is_reserved": 0, "fusion_lon": 0.0, "bike_id": "03a365874b146254f1299222179322ef", "name": "03a365874b146254f1299222179322ef", "rental_uris": {"ios": "https://dc.lft.to/lastmile_qr_scan", "android": "https://dc.lft.to/lastmile_qr_scan"}}, {"is_disabled": 0, "fusion_lat": 0.0, "lat": 38.90012466666667, "type": "electric_scooter", "lon": -77.00593533333333, "is_reserved": 0, "fusion_lon": 0.0, "bike_id": "d25f671513c3e3408611173cc700cb98", "name": "d25f671513c3e3408611173cc700cb98", "rental_uris": {"ios": "https://dc.lft.to/lastmile_qr_scan", "android": "https://dc.lft.to/lastmile_qr_scan"}}, {"is_disabled": 0, "fusion_lat": 0.0, "lat": 38.901591833333335, "type": "electric_scooter", "lon": -77.025472, "is_reserved": 0, "fusion_lon": 0.0, "bike_id": "38295c02afb7511de94fd39ef96dec55", "name": "38295c02afb7511de94fd39ef96dec55", "rental_uris": {"ios": "https://dc.lft.to/lastmile_qr_scan", "android": "https://dc.lft.to/lastmile_qr_scan"}}, {"is_disabled": 0, "fusion_lat": 0.0, "lat": 38.883131666666664, "type": "electric_scooter", "lon": -77.00939033333333, "is_reserved": 0, "fusion_lon": 0.0, "bike_id": "78e9eb7d390356d6815e5a804d5b2baa", "name": "78e9eb7d390356d6815e5a804d5b2baa", "rental_uris": {"ios": "https://dc.lft.to/lastmile_qr_scan", "android": "https://dc.lft.to/lastmile_qr_scan"}}, {"is_disabled": 0, "fusion_lat": 0.0, "lat": 38.922889, "type": "electric_scooter", "lon": -77.031986, "is_reserved": 0, "fusion_lon": 0.0, "bike_id": "cf09718a760a548a356f83cc29503578", "name": "cf09718a760a548a356f83cc29503578", "rental_uris": {"ios": "https://dc.lft.to/lastmile_qr_scan", "android": "https://dc.lft.to/lastmile_qr_scan"}}, {"is_disabled": 0, "fusion_lat": 0.0, "lat": 38.875444333333334, "type": "electric_scooter", "lon": -77.00062466666667, "is_reserved": 0, "fusion_lon": 0.0, "bike_id": "1dac2306e81ccda7e7454983e2ac30a9", "name": "1dac2306e81ccda7e7454983e2ac30a9", "rental_uris": {"ios": "https://dc.lft.to/lastmile_qr_scan", "android": "https://dc.lft.to/lastmile_qr_scan"}}, {"is_disabled": 0, "fusion_lat": 0.0, "lat": 38.899138, "type": "electric_scooter", "lon": -77.03309083333333, "is_reserved": 0, "fusion_lon": 0.0, "bike_id": "b8e23525f1e4288ccbe78345ec4e8144", "name": "b8e23525f1e4288ccbe78345ec4e8144", "rental_uris": {"ios": "https://dc.lft.to/lastmile_qr_scan", "android": "https://dc.lft.to/lastmile_qr_scan"}}, {"is_disabled": 0, "fusion_lat": 0.0, "lat": 38.9489315, "type": "electric_bike", "lon": -76.9638005, "is_reserved": 0, "fusion_lon": 0.0, "bike_id": "f6a12e0db267cd3b46f20cfe01ef6f5c", "name": "f6a12e0db267cd3b46f20cfe01ef6f5c", "rental_uris": {"ios": "https://dc.lft.to/lastmile_qr_scan", "android": "https://dc.lft.to/lastmile_qr_scan"}}, {"is_disabled": 0, "fusion_lat": 0.0, "lat": 38.91878416666667, "type": "electric_scooter", "lon": -76.9654495, "is_reserved": 0, "fusion_lon": 0.0, "bike_id": "c801e13f6ea667d52f8f47e128a3688a", "name": "c801e13f6ea667d52f8f47e128a3688a", "rental_uris": {"ios": "https://dc.lft.to/lastmile_qr_scan", "android": "https://dc.lft.to/lastmile_qr_scan"}}, {"is_disabled": 0, "fusion_lat": 0.0, "lat": 38.90384266666667, "type": "electric_scooter", "lon": -77.03923916666666, "is_reserved": 0, "fusion_lon": 0.0, "bike_id": "ded87236b8bab2cd51bc8f7bc0111613", "name": "ded87236b8bab2cd51bc8f7bc0111613", "rental_uris": {"ios": "https://dc.lft.to/lastmile_qr_scan", "android": "https://dc.lft.to/lastmile_qr_scan"}}, {"is_disabled": 0, "fusion_lat": 0.0, "lat": 38.9304435, "type": "electric_scooter", "lon": -77.03226516666666, "is_reserved": 0, "fusion_lon": 0.0, "bike_id": "9b3cd818d4654d5c15451aa5634b63d6", "name": "9b3cd818d4654d5c15451aa5634b63d6", "rental_uris": {"ios": "https://dc.lft.to/lastmile_qr_scan", "android": "https://dc.lft.to/lastmile_qr_scan"}}, {"is_disabled": 0, "fusion_lat": 0.0, "lat": 38.890396, "type": "electric_scooter", "lon": -76.940787, "is_reserved": 0, "fusion_lon": 0.0, "bike_id": "a2c078a05f7e311be24b70c969e3736a", "name": "a2c078a05f7e311be24b70c969e3736a", "rental_uris": {"ios": "https://dc.lft.to/lastmile_qr_scan", "android": "https://dc.lft.to/lastmile_qr_scan"}}, {"is_disabled": 0, "fusion_lat": 0.0, "lat": 38.87548616666667, "type": "electric_scooter", "lon": -76.96492416666666, "is_reserved": 0, "fusion_lon": 0.0, "bike_id": "9cfab0afd0c3be83859552027d3243ef", "name": "9cfab0afd0c3be83859552027d3243ef", "rental_uris": {"ios": "https://dc.lft.to/lastmile_qr_scan", "android": "https://dc.lft.to/lastmile_qr_scan"}}, {"is_disabled": 0, "fusion_lat": 0.0, "lat": 38.908004, "type": "electric_scooter", "lon": -77.03482, "is_reserved": 0, "fusion_lon": 0.0, "bike_id": "e4070f125c7810ce4522a28dc5b790f3", "name": "e4070f125c7810ce4522a28dc5b790f3", "rental_uris": {"ios": "https://dc.lft.to/lastmile_qr_scan", "android": "https://dc.lft.to/lastmile_qr_scan"}}, {"is_disabled": 0, "fusion_lat": 0.0, "lat": 38.91587, "type": "electric_scooter", "lon": -77.04523583333334, "is_reserved": 0, "fusion_lon": 0.0, "bike_id": "facf97c2f67828ac742acda92b278a12", "name": "facf97c2f67828ac742acda92b278a12", "rental_uris": {"ios": "https://dc.lft.to/lastmile_qr_scan", "android": "https://dc.lft.to/lastmile_qr_scan"}}, {"is_disabled": 0, "fusion_lat": 0.0, "lat": 38.902474, "type": "electric_scooter", "lon": -77.017382, "is_reserved": 0, "fusion_lon": 0.0, "bike_id": "ce03350fe30ed5741a135a0b2bfe6145", "name": "ce03350fe30ed5741a135a0b2bfe6145", "rental_uris": {"ios": "https://dc.lft.to/lastmile_qr_scan", "android": "https://dc.lft.to/lastmile_qr_scan"}}, {"is_disabled": 0, "fusion_lat": 0.0, "lat": 38.90672583333333, "type": "electric_scooter", "lon": -76.98782516666667, "is_reserved": 0, "fusion_lon": 0.0, "bike_id": "53851d1b7c9c5f746bc6fbe9474155ce", "name": "53851d1b7c9c5f746bc6fbe9474155ce", "rental_uris": {"ios": "https://dc.lft.to/lastmile_qr_scan", "android": "https://dc.lft.to/lastmile_qr_scan"}}, {"is_disabled": 0, "fusion_lat": 0.0, "lat": 38.92471316666666, "type": "electric_scooter", "lon": -77.03778983333333, "is_reserved": 0, "fusion_lon": 0.0, "bike_id": "b02fad83e35645d1694b045b6735f3f7", "name": "b02fad83e35645d1694b045b6735f3f7", "rental_uris": {"ios": "https://dc.lft.to/lastmile_qr_scan", "android": "https://dc.lft.to/lastmile_qr_scan"}}, {"is_disabled": 0, "fusion_lat": 0.0, "lat": 38.899966666666664, "type": "electric_scooter", "lon": -77.0523835, "is_reserved": 0, "fusion_lon": 0.0, "bike_id": "7500d2bf6640ea4816140dd86b224265", "name": "7500d2bf6640ea4816140dd86b224265", "rental_uris": {"ios": "https://dc.lft.to/lastmile_qr_scan", "android": "https://dc.lft.to/lastmile_qr_scan"}}, {"is_disabled": 0, "fusion_lat": 0.0, "lat": 38.95900666666667, "type": "electric_bike", "lon": -76.9250385, "is_reserved": 0, "fusion_lon": 0.0, "bike_id": "a0652749fd1797c84c566ca2fd2d48eb", "name": "a0652749fd1797c84c566ca2fd2d48eb", "rental_uris": {"ios": "https://dc.lft.to/lastmile_qr_scan", "android": "https://dc.lft.to/lastmile_qr_scan"}}, {"is_disabled": 0, "fusion_lat": 0.0, "lat": 38.90255583333333, "type": "electric_scooter", "lon": -77.05327116666666, "is_reserved": 0, "fusion_lon": 0.0, "bike_id": "43fdd025939d48f6135af22b8a7c0b54", "name": "43fdd025939d48f6135af22b8a7c0b54", "rental_uris": {"ios": "https://dc.lft.to/lastmile_qr_scan", "android": "https://dc.lft.to/lastmile_qr_scan"}}, {"is_disabled": 0, "fusion_lat": 0.0, "lat": 38.89511916666667, "type": "electric_scooter", "lon": -77.04862066666666, "is_reserved": 0, "fusion_lon": 0.0, "bike_id": "2f812bc40763b05186e0c677ee1d89e2", "name": "2f812bc40763b05186e0c677ee1d89e2", "rental_uris": {"ios": "https://dc.lft.to/lastmile_qr_scan", "android": "https://dc.lft.to/lastmile_qr_scan"}}, {"is_disabled": 0, "fusion_lat": 0.0, "lat": 38.905626833333336, "type": "electric_scooter", "lon": -76.98147316666666, "is_reserved": 0, "fusion_lon": 0.0, "bike_id": "50058425025e13cff0125218d7f25e27", "name": "50058425025e13cff0125218d7f25e27", "rental_uris": {"ios": "https://dc.lft.to/lastmile_qr_scan", "android": "https://dc.lft.to/lastmile_qr_scan"}}, {"is_disabled": 0, "fusion_lat": 0.0, "lat": 38.910344333333335, "type": "electric_scooter", "lon": -77.04397033333333, "is_reserved": 0, "fusion_lon": 0.0, "bike_id": "02bb7b8488c6a75efa3fdc84bad57238", "name": "02bb7b8488c6a75efa3fdc84bad57238", "rental_uris": {"ios": "https://dc.lft.to/lastmile_qr_scan", "android": "https://dc.lft.to/lastmile_qr_scan"}}, {"is_disabled": 0, "fusion_lat": 0.0, "lat": 38.93090733333333, "type": "electric_scooter", "lon": -77.03670033333333, "is_reserved": 0, "fusion_lon": 0.0, "bike_id": "bce59436b57e2b7d37bc70613c5c9762", "name": "bce59436b57e2b7d37bc70613c5c9762", "rental_uris": {"ios": "https://dc.lft.to/lastmile_qr_scan", "android": "https://dc.lft.to/lastmile_qr_scan"}}, {"is_disabled": 0, "fusion_lat": 0.0, "lat": 38.905596333333335, "type": "electric_scooter", "lon": -77.0435665, "is_reserved": 0, "fusion_lon": 0.0, "bike_id": "6be9f576b44efdddbd23f93b323b753c", "name": "6be9f576b44efdddbd23f93b323b753c", "rental_uris": {"ios": "https://dc.lft.to/lastmile_qr_scan", "android": "https://dc.lft.to/lastmile_qr_scan"}}, {"is_disabled": 0, "fusion_lat": 0.0, "lat": 38.9084085, "type": "electric_scooter", "lon": -77.03297533333334, "is_reserved": 0, "fusion_lon": 0.0, "bike_id": "bb1b77e54e708028457c6d1090ffb49c", "name": "bb1b77e54e708028457c6d1090ffb49c", "rental_uris": {"ios": "https://dc.lft.to/lastmile_qr_scan", "android": "https://dc.lft.to/lastmile_qr_scan"}}, {"is_disabled": 0, "fusion_lat": 0.0, "lat": 38.84571283333333, "type": "electric_bike", "lon": -77.09624283333333, "is_reserved": 0, "fusion_lon": 0.0, "bike_id": "d6d7354d74e3edec647927f90af6f44b", "name": "d6d7354d74e3edec647927f90af6f44b", "rental_uris": {"ios": "https://dc.lft.to/lastmile_qr_scan", "android": "https://dc.lft.to/lastmile_qr_scan"}}, {"is_disabled": 0, "fusion_lat": 0.0, "lat": 38.9013565, "type": "electric_scooter", "lon": -77.04192133333333, "is_reserved": 0, "fusion_lon": 0.0, "bike_id": "7a3f542e8922ea29eb7c03bb0fe307bb", "name": "7a3f542e8922ea29eb7c03bb0fe307bb", "rental_uris": {"ios": "https://dc.lft.to/lastmile_qr_scan", "android": "https://dc.lft.to/lastmile_qr_scan"}}, {"is_disabled": 0, "fusion_lat": 0.0, "lat": 38.87155383333333, "type": "electric_scooter", "lon": -77.0135485, "is_reserved": 0, "fusion_lon": 0.0, "bike_id": "a784fc8ecea2100626077e33a4ccadbc", "name": "a784fc8ecea2100626077e33a4ccadbc", "rental_uris": {"ios": "https://dc.lft.to/lastmile_qr_scan", "android": "https://dc.lft.to/lastmile_qr_scan"}}, {"is_disabled": 0, "fusion_lat": 0.0, "lat": 38.90376283333333, "type": "electric_scooter", "lon": -77.0534355, "is_reserved": 0, "fusion_lon": 0.0, "bike_id": "5cb7c20663696e9bf6fa2d2426ba50a5", "name": "5cb7c20663696e9bf6fa2d2426ba50a5", "rental_uris": {"ios": "https://dc.lft.to/lastmile_qr_scan", "android": "https://dc.lft.to/lastmile_qr_scan"}}, {"is_disabled": 0, "fusion_lat": 0.0, "lat": 38.92409383333333, "type": "electric_bike", "lon": -77.20818216666666, "is_reserved": 0, "fusion_lon": 0.0, "bike_id": "d07b1e2f947e57c433490278fae34aa5", "name": "d07b1e2f947e57c433490278fae34aa5", "rental_uris": {"ios": "https://dc.lft.to/lastmile_qr_scan", "android": "https://dc.lft.to/lastmile_qr_scan"}}, {"is_disabled": 0, "fusion_lat": 0.0, "lat": 38.892201166666666, "type": "electric_scooter", "lon": -77.02225683333333, "is_reserved": 0, "fusion_lon": 0.0, "bike_id": "b40d6569c7df10b5ffdf735845479921", "name": "b40d6569c7df10b5ffdf735845479921", "rental_uris": {"ios": "https://dc.lft.to/lastmile_qr_scan", "android": "https://dc.lft.to/lastmile_qr_scan"}}, {"is_disabled": 0, "fusion_lat": 0.0, "lat": 38.90344666666667, "type": "electric_scooter", "lon": -77.0658, "is_reserved": 0, "fusion_lon": 0.0, "bike_id": "5e901c175c221e8e00b5a1d752bc6710", "name": "5e901c175c221e8e00b5a1d752bc6710", "rental_uris": {"ios": "https://dc.lft.to/lastmile_qr_scan", "android": "https://dc.lft.to/lastmile_qr_scan"}}, {"is_disabled": 0, "fusion_lat": 0.0, "lat": 38.90029583333333, "type": "electric_scooter", "lon": -76.9986165, "is_reserved": 0, "fusion_lon": 0.0, "bike_id": "962b816b9edb805282b54325418e3301", "name": "962b816b9edb805282b54325418e3301", "rental_uris": {"ios": "https://dc.lft.to/lastmile_qr_scan", "android": "https://dc.lft.to/lastmile_qr_scan"}}, {"is_disabled": 0, "fusion_lat": 0.0, "lat": 38.92675966666667, "type": "electric_scooter", "lon": -77.015195, "is_reserved": 0, "fusion_lon": 0.0, "bike_id": "ed1489126862855cf548cfbbe8d51902", "name": "ed1489126862855cf548cfbbe8d51902", "rental_uris": {"ios": "https://dc.lft.to/lastmile_qr_scan", "android": "https://dc.lft.to/lastmile_qr_scan"}}, {"is_disabled": 0, "fusion_lat": 0.0, "lat": 38.909153333333336, "type": "electric_scooter", "lon": -76.99267866666666, "is_reserved": 0, "fusion_lon": 0.0, "bike_id": "03dd36e098588950cf4f6fabc42208de", "name": "03dd36e098588950cf4f6fabc42208de", "rental_uris": {"ios": "https://dc.lft.to/lastmile_qr_scan", "android": "https://dc.lft.to/lastmile_qr_scan"}}, {"is_disabled": 0, "fusion_lat": 0.0, "lat": 38.9179325, "type": "electric_scooter", "lon": -77.0342495, "is_reserved": 0, "fusion_lon": 0.0, "bike_id": "747d727a543a5bbe2d6084bbce1544b2", "name": "747d727a543a5bbe2d6084bbce1544b2", "rental_uris": {"ios": "https://dc.lft.to/lastmile_qr_scan", "android": "https://dc.lft.to/lastmile_qr_scan"}}, {"is_disabled": 0, "fusion_lat": 0.0, "lat": 38.9172625, "type": "electric_scooter", "lon": -77.03665216666667, "is_reserved": 0, "fusion_lon": 0.0, "bike_id": "512c543ceac41d134b6271ec2929f063", "name": "512c543ceac41d134b6271ec2929f063", "rental_uris": {"ios": "https://dc.lft.to/lastmile_qr_scan", "android": "https://dc.lft.to/lastmile_qr_scan"}}, {"is_disabled": 0, "fusion_lat": 0.0, "lat": 38.917305, "type": "electric_scooter", "lon": -77.03659783333333, "is_reserved": 0, "fusion_lon": 0.0, "bike_id": "9c85e0bf9ae7b360e804d1256cf4d979", "name": "9c85e0bf9ae7b360e804d1256cf4d979", "rental_uris": {"ios": "https://dc.lft.to/lastmile_qr_scan", "android": "https://dc.lft.to/lastmile_qr_scan"}}, {"is_disabled": 0, "fusion_lat": 0.0, "lat": 38.9404305, "type": "electric_scooter", "lon": -77.02982616666667, "is_reserved": 0, "fusion_lon": 0.0, "bike_id": "0bdf5d38706189dadb10b35c5c03f67c", "name": "0bdf5d38706189dadb10b35c5c03f67c", "rental_uris": {"ios": "https://dc.lft.to/lastmile_qr_scan", "android": "https://dc.lft.to/lastmile_qr_scan"}}, {"is_disabled": 0, "fusion_lat": 0.0, "lat": 38.85320983333333, "type": "electric_scooter", "lon": -76.98005133333334, "is_reserved": 0, "fusion_lon": 0.0, "bike_id": "1e8dc9665bf94d55c576e0653946d378", "name": "1e8dc9665bf94d55c576e0653946d378", "rental_uris": {"ios": "https://dc.lft.to/lastmile_qr_scan", "android": "https://dc.lft.to/lastmile_qr_scan"}}, {"is_disabled": 0, "fusion_lat": 0.0, "lat": 38.9147745, "type": "electric_scooter", "lon": -77.0094475, "is_reserved": 0, "fusion_lon": 0.0, "bike_id": "996a540c296f26ebb4214b0d180ff5ca", "name": "996a540c296f26ebb4214b0d180ff5ca", "rental_uris": {"ios": "https://dc.lft.to/lastmile_qr_scan", "android": "https://dc.lft.to/lastmile_qr_scan"}}, {"is_disabled": 0, "fusion_lat": 0.0, "lat": 38.90849, "type": "electric_scooter", "lon": -77.04462733333334, "is_reserved": 0, "fusion_lon": 0.0, "bike_id": "0305095b4e1e6cd61ddc611fdb09ba98", "name": "0305095b4e1e6cd61ddc611fdb09ba98", "rental_uris": {"ios": "https://dc.lft.to/lastmile_qr_scan", "android": "https://dc.lft.to/lastmile_qr_scan"}}, {"is_disabled": 0, "fusion_lat": 0.0, "lat": 38.92253733333333, "type": "electric_scooter", "lon": -77.04133466666667, "is_reserved": 0, "fusion_lon": 0.0, "bike_id": "8c111f9a367cb4489fcabc6480b5def3", "name": "8c111f9a367cb4489fcabc6480b5def3", "rental_uris": {"ios": "https://dc.lft.to/lastmile_qr_scan", "android": "https://dc.lft.to/lastmile_qr_scan"}}, {"is_disabled": 0, "fusion_lat": 0.0, "lat": 38.872266, "type": "electric_scooter", "lon": -77.01212433333333, "is_reserved": 0, "fusion_lon": 0.0, "bike_id": "118502f55388adea6547d776bb5d0559", "name": "118502f55388adea6547d776bb5d0559", "rental_uris": {"ios": "https://dc.lft.to/lastmile_qr_scan", "android": "https://dc.lft.to/lastmile_qr_scan"}}, {"is_disabled": 0, "fusion_lat": 0.0, "lat": 38.9032225, "type": "electric_scooter", "lon": -76.97302883333333, "is_reserved": 0, "fusion_lon": 0.0, "bike_id": "fd3483271e8243b2a4957ead17cd4ee5", "name": "fd3483271e8243b2a4957ead17cd4ee5", "rental_uris": {"ios": "https://dc.lft.to/lastmile_qr_scan", "android": "https://dc.lft.to/lastmile_qr_scan"}}, {"is_disabled": 0, "fusion_lat": 0.0, "lat": 38.93095616666667, "type": "electric_scooter", "lon": -77.02404683333333, "is_reserved": 0, "fusion_lon": 0.0, "bike_id": "a9746bd033357bae1b2b42b8810cbe02", "name": "a9746bd033357bae1b2b42b8810cbe02", "rental_uris": {"ios": "https://dc.lft.to/lastmile_qr_scan", "android": "https://dc.lft.to/lastmile_qr_scan"}}, {"is_disabled": 0, "fusion_lat": 0.0, "lat": 38.89604333333333, "type": "electric_scooter", "lon": -77.0424015, "is_reserved": 0, "fusion_lon": 0.0, "bike_id": "f17437366af7f3e69e09ba16414c10c4", "name": "f17437366af7f3e69e09ba16414c10c4", "rental_uris": {"ios": "https://dc.lft.to/lastmile_qr_scan", "android": "https://dc.lft.to/lastmile_qr_scan"}}, {"is_disabled": 0, "fusion_lat": 0.0, "lat": 38.89910166666667, "type": "electric_scooter", "lon": -77.00355866666666, "is_reserved": 0, "fusion_lon": 0.0, "bike_id": "4747d641fd1cb0e9c986306b3d0e2c6b", "name": "4747d641fd1cb0e9c986306b3d0e2c6b", "rental_uris": {"ios": "https://dc.lft.to/lastmile_qr_scan", "android": "https://dc.lft.to/lastmile_qr_scan"}}, {"is_disabled": 0, "fusion_lat": 0.0, "lat": 38.9003125, "type": "electric_scooter", "lon": -77.00200916666667, "is_reserved": 0, "fusion_lon": 0.0, "bike_id": "9949c0d1e47b4ba9d85858b758bf6f10", "name": "9949c0d1e47b4ba9d85858b758bf6f10", "rental_uris": {"ios": "https://dc.lft.to/lastmile_qr_scan", "android": "https://dc.lft.to/lastmile_qr_scan"}}, {"is_disabled": 0, "fusion_lat": 0.0, "lat": 38.905774, "type": "electric_scooter", "lon": -77.02210766666667, "is_reserved": 0, "fusion_lon": 0.0, "bike_id": "f0720574b985c3b813cd358f845c0d2e", "name": "f0720574b985c3b813cd358f845c0d2e", "rental_uris": {"ios": "https://dc.lft.to/lastmile_qr_scan", "android": "https://dc.lft.to/lastmile_qr_scan"}}, {"is_disabled": 0, "fusion_lat": 0.0, "lat": 38.91902533333333, "type": "electric_scooter", "lon": -77.04111716666667, "is_reserved": 0, "fusion_lon": 0.0, "bike_id": "735346ca367716e08b8ff14b9632a674", "name": "735346ca367716e08b8ff14b9632a674", "rental_uris": {"ios": "https://dc.lft.to/lastmile_qr_scan", "android": "https://dc.lft.to/lastmile_qr_scan"}}, {"is_disabled": 0, "fusion_lat": 0.0, "lat": 38.93317483333333, "type": "electric_scooter", "lon": -77.03287483333334, "is_reserved": 0, "fusion_lon": 0.0, "bike_id": "9fe8a140433c73bd3fa124ea4f069fa1", "name": "9fe8a140433c73bd3fa124ea4f069fa1", "rental_uris": {"ios": "https://dc.lft.to/lastmile_qr_scan", "android": "https://dc.lft.to/lastmile_qr_scan"}}, {"is_disabled": 0, "fusion_lat": 0.0, "lat": 38.961441666666666, "type": "electric_scooter", "lon": -76.9977545, "is_reserved": 0, "fusion_lon": 0.0, "bike_id": "706eb5afdb97bf8772a3b7f10bc92b6c", "name": "706eb5afdb97bf8772a3b7f10bc92b6c", "rental_uris": {"ios": "https://dc.lft.to/lastmile_qr_scan", "android": "https://dc.lft.to/lastmile_qr_scan"}}, {"is_disabled": 0, "fusion_lat": 0.0, "lat": 38.933932666666664, "type": "electric_scooter", "lon": -77.02064016666667, "is_reserved": 0, "fusion_lon": 0.0, "bike_id": "d7c255703c218cc0e46c3531fc0ba45a", "name": "d7c255703c218cc0e46c3531fc0ba45a", "rental_uris": {"ios": "https://dc.lft.to/lastmile_qr_scan", "android": "https://dc.lft.to/lastmile_qr_scan"}}, {"is_disabled": 0, "fusion_lat": 0.0, "lat": 38.887769, "type": "electric_scooter", "lon": -76.95536416666667, "is_reserved": 0, "fusion_lon": 0.0, "bike_id": "089f1adf9f58b48e9e54304336c83dd0", "name": "089f1adf9f58b48e9e54304336c83dd0", "rental_uris": {"ios": "https://dc.lft.to/lastmile_qr_scan", "android": "https://dc.lft.to/lastmile_qr_scan"}}, {"is_disabled": 0, "fusion_lat": 0.0, "lat": 38.82871466666667, "type": "electric_bike", "lon": -77.11221316666666, "is_reserved": 0, "fusion_lon": 0.0, "bike_id": "f1d3544d72bd61c0f6f1332ee47f3606", "name": "f1d3544d72bd61c0f6f1332ee47f3606", "rental_uris": {"ios": "https://dc.lft.to/lastmile_qr_scan", "android": "https://dc.lft.to/lastmile_qr_scan"}}, {"is_disabled": 0, "fusion_lat": 0.0, "lat": 38.9054925, "type": "electric_scooter", "lon": -77.039839, "is_reserved": 0, "fusion_lon": 0.0, "bike_id": "de78b1a0aeda1b97ae72952bae50eb23", "name": "de78b1a0aeda1b97ae72952bae50eb23", "rental_uris": {"ios": "https://dc.lft.to/lastmile_qr_scan", "android": "https://dc.lft.to/lastmile_qr_scan"}}, {"is_disabled": 0, "fusion_lat": 0.0, "lat": 38.91758433333333, "type": "electric_scooter", "lon": -77.03996866666667, "is_reserved": 0, "fusion_lon": 0.0, "bike_id": "763eafc28fdf020c545ad22bf65afaa2", "name": "763eafc28fdf020c545ad22bf65afaa2", "rental_uris": {"ios": "https://dc.lft.to/lastmile_qr_scan", "android": "https://dc.lft.to/lastmile_qr_scan"}}, {"is_disabled": 0, "fusion_lat": 0.0, "lat": 38.8924455, "type": "electric_scooter", "lon": -77.03963116666667, "is_reserved": 0, "fusion_lon": 0.0, "bike_id": "f1191ab11a4d691ddbff2f8b7c18a96b", "name": "f1191ab11a4d691ddbff2f8b7c18a96b", "rental_uris": {"ios": "https://dc.lft.to/lastmile_qr_scan", "android": "https://dc.lft.to/lastmile_qr_scan"}}, {"is_disabled": 0, "fusion_lat": 0.0, "lat": 38.90319933333333, "type": "electric_scooter", "lon": -77.0432665, "is_reserved": 0, "fusion_lon": 0.0, "bike_id": "7230859b2927de67ea80bb80d5f93abe", "name": "7230859b2927de67ea80bb80d5f93abe", "rental_uris": {"ios": "https://dc.lft.to/lastmile_qr_scan", "android": "https://dc.lft.to/lastmile_qr_scan"}}, {"is_disabled": 0, "fusion_lat": 0.0, "lat": 38.99071716666667, "type": "electric_bike", "lon": -76.87470216666667, "is_reserved": 0, "fusion_lon": 0.0, "bike_id": "68a1c1cb0ca6caa1442b9001c9b24901", "name": "68a1c1cb0ca6caa1442b9001c9b24901", "rental_uris": {"ios": "https://dc.lft.to/lastmile_qr_scan", "android": "https://dc.lft.to/lastmile_qr_scan"}}, {"is_disabled": 0, "fusion_lat": 0.0, "lat": 38.88397583333333, "type": "electric_scooter", "lon": -77.01544583333333, "is_reserved": 0, "fusion_lon": 0.0, "bike_id": "3860ff18f4a58970f3a8c31e3e11a0f4", "name": "3860ff18f4a58970f3a8c31e3e11a0f4", "rental_uris": {"ios": "https://dc.lft.to/lastmile_qr_scan", "android": "https://dc.lft.to/lastmile_qr_scan"}}, {"is_disabled": 0, "fusion_lat": 0.0, "lat": 38.93632383333333, "type": "electric_scooter", "lon": -77.036658, "is_reserved": 0, "fusion_lon": 0.0, "bike_id": "ed87d29bb4b8239ae6304f4f13648653", "name": "ed87d29bb4b8239ae6304f4f13648653", "rental_uris": {"ios": "https://dc.lft.to/lastmile_qr_scan", "android": "https://dc.lft.to/lastmile_qr_scan"}}, {"is_disabled": 0, "fusion_lat": 0.0, "lat": 38.900892999999996, "type": "electric_scooter", "lon": -76.98340383333333, "is_reserved": 0, "fusion_lon": 0.0, "bike_id": "117c44eccfa1ed32e72cf51dfe5e9df8", "name": "117c44eccfa1ed32e72cf51dfe5e9df8", "rental_uris": {"ios": "https://dc.lft.to/lastmile_qr_scan", "android": "https://dc.lft.to/lastmile_qr_scan"}}, {"is_disabled": 0, "fusion_lat": 0.0, "lat": 38.902620166666665, "type": "electric_scooter", "lon": -77.02655366666667, "is_reserved": 0, "fusion_lon": 0.0, "bike_id": "9db1c7ce4c9f2ee22587ed1ecb1fd5d3", "name": "9db1c7ce4c9f2ee22587ed1ecb1fd5d3", "rental_uris": {"ios": "https://dc.lft.to/lastmile_qr_scan", "android": "https://dc.lft.to/lastmile_qr_scan"}}, {"is_disabled": 0, "fusion_lat": 0.0, "lat": 38.914167666666664, "type": "electric_scooter", "lon": -77.04540366666667, "is_reserved": 0, "fusion_lon": 0.0, "bike_id": "da10446426c93dc384a0a97727aba7a9", "name": "da10446426c93dc384a0a97727aba7a9", "rental_uris": {"ios": "https://dc.lft.to/lastmile_qr_scan", "android": "https://dc.lft.to/lastmile_qr_scan"}}, {"is_disabled": 0, "fusion_lat": 0.0, "lat": 38.876664166666664, "type": "electric_scooter", "lon": -77.00434233333333, "is_reserved": 0, "fusion_lon": 0.0, "bike_id": "77c41059f8fe3c11fdd6ac6752976526", "name": "77c41059f8fe3c11fdd6ac6752976526", "rental_uris": {"ios": "https://dc.lft.to/lastmile_qr_scan", "android": "https://dc.lft.to/lastmile_qr_scan"}}, {"is_disabled": 0, "fusion_lat": 0.0, "lat": 38.898288666666666, "type": "electric_scooter", "lon": -77.050341, "is_reserved": 0, "fusion_lon": 0.0, "bike_id": "cd4cd9bc972226dc2034edcce735de8b", "name": "cd4cd9bc972226dc2034edcce735de8b", "rental_uris": {"ios": "https://dc.lft.to/lastmile_qr_scan", "android": "https://dc.lft.to/lastmile_qr_scan"}}, {"is_disabled": 0, "fusion_lat": 0.0, "lat": 38.90215966666667, "type": "electric_bike", "lon": -76.95049583333333, "is_reserved": 0, "fusion_lon": 0.0, "bike_id": "ba06b11f855d76e1d08884229b561ea1", "name": "ba06b11f855d76e1d08884229b561ea1", "rental_uris": {"ios": "https://dc.lft.to/lastmile_qr_scan", "android": "https://dc.lft.to/lastmile_qr_scan"}}, {"is_disabled": 0, "fusion_lat": 0.0, "lat": 38.932407, "type": "electric_scooter", "lon": -77.0328865, "is_reserved": 0, "fusion_lon": 0.0, "bike_id": "bb24c2155fe9bb33421c5d032ab1af5b", "name": "bb24c2155fe9bb33421c5d032ab1af5b", "rental_uris": {"ios": "https://dc.lft.to/lastmile_qr_scan", "android": "https://dc.lft.to/lastmile_qr_scan"}}, {"is_disabled": 0, "fusion_lat": 0.0, "lat": 38.922055666666665, "type": "electric_scooter", "lon": -77.0402465, "is_reserved": 0, "fusion_lon": 0.0, "bike_id": "385b8c257536e10a4c1d702427e68b3c", "name": "385b8c257536e10a4c1d702427e68b3c", "rental_uris": {"ios": "https://dc.lft.to/lastmile_qr_scan", "android": "https://dc.lft.to/lastmile_qr_scan"}}, {"is_disabled": 0, "fusion_lat": 0.0, "lat": 38.9312775, "type": "electric_scooter", "lon": -77.05622316666667, "is_reserved": 0, "fusion_lon": 0.0, "bike_id": "5e1b60df9096b30996edc919320ccd05", "name": "5e1b60df9096b30996edc919320ccd05", "rental_uris": {"ios": "https://dc.lft.to/lastmile_qr_scan", "android": "https://dc.lft.to/lastmile_qr_scan"}}, {"is_disabled": 0, "fusion_lat": 0.0, "lat": 38.903774166666665, "type": "electric_scooter", "lon": -77.04277116666667, "is_reserved": 0, "fusion_lon": 0.0, "bike_id": "54661c65857c6e8b1a0354f6b4e5b751", "name": "54661c65857c6e8b1a0354f6b4e5b751", "rental_uris": {"ios": "https://dc.lft.to/lastmile_qr_scan", "android": "https://dc.lft.to/lastmile_qr_scan"}}, {"is_disabled": 0, "fusion_lat": 0.0, "lat": 38.91961533333333, "type": "electric_scooter", "lon": -77.02713816666666, "is_reserved": 0, "fusion_lon": 0.0, "bike_id": "aee927279143764ca9a42c681fb2c56f", "name": "aee927279143764ca9a42c681fb2c56f", "rental_uris": {"ios": "https://dc.lft.to/lastmile_qr_scan", "android": "https://dc.lft.to/lastmile_qr_scan"}}, {"is_disabled": 0, "fusion_lat": 0.0, "lat": 38.908415833333336, "type": "electric_scooter", "lon": -77.02699916666667, "is_reserved": 0, "fusion_lon": 0.0, "bike_id": "1de9731f6f3af1c4ba5ec3b084870c0f", "name": "1de9731f6f3af1c4ba5ec3b084870c0f", "rental_uris": {"ios": "https://dc.lft.to/lastmile_qr_scan", "android": "https://dc.lft.to/lastmile_qr_scan"}}, {"is_disabled": 0, "fusion_lat": 0.0, "lat": 38.866628666666664, "type": "electric_scooter", "lon": -76.9890995, "is_reserved": 0, "fusion_lon": 0.0, "bike_id": "5245f5e7be892e16a34fc59f03272ce4", "name": "5245f5e7be892e16a34fc59f03272ce4", "rental_uris": {"ios": "https://dc.lft.to/lastmile_qr_scan", "android": "https://dc.lft.to/lastmile_qr_scan"}}, {"is_disabled": 0, "fusion_lat": 0.0, "lat": 38.925552333333336, "type": "electric_scooter", "lon": -77.052685, "is_reserved": 0, "fusion_lon": 0.0, "bike_id": "c0177f089e7575192966763d2d690320", "name": "c0177f089e7575192966763d2d690320", "rental_uris": {"ios": "https://dc.lft.to/lastmile_qr_scan", "android": "https://dc.lft.to/lastmile_qr_scan"}}, {"is_disabled": 0, "fusion_lat": 0.0, "lat": 38.946292666666665, "type": "electric_scooter", "lon": -77.01844433333333, "is_reserved": 0, "fusion_lon": 0.0, "bike_id": "39951a0c6db336b98f8df5bf7c27014b", "name": "39951a0c6db336b98f8df5bf7c27014b", "rental_uris": {"ios": "https://dc.lft.to/lastmile_qr_scan", "android": "https://dc.lft.to/lastmile_qr_scan"}}, {"is_disabled": 0, "fusion_lat": 0.0, "lat": 38.865229, "type": "electric_scooter", "lon": -76.99033833333333, "is_reserved": 0, "fusion_lon": 0.0, "bike_id": "b9e171628a6abc4166f3dc09d9cef004", "name": "b9e171628a6abc4166f3dc09d9cef004", "rental_uris": {"ios": "https://dc.lft.to/lastmile_qr_scan", "android": "https://dc.lft.to/lastmile_qr_scan"}}, {"is_disabled": 0, "fusion_lat": 0.0, "lat": 38.838113166666666, "type": "electric_bike", "lon": -77.09523866666666, "is_reserved": 0, "fusion_lon": 0.0, "bike_id": "ee772211816dee6d5b29e76cc0712447", "name": "ee772211816dee6d5b29e76cc0712447", "rental_uris": {"ios": "https://dc.lft.to/lastmile_qr_scan", "android": "https://dc.lft.to/lastmile_qr_scan"}}, {"is_disabled": 0, "fusion_lat": 0.0, "lat": 38.8973575, "type": "electric_scooter", "lon": -76.93842783333334, "is_reserved": 0, "fusion_lon": 0.0, "bike_id": "ffa0321b4a9597d8c6d3fc7214f791fd", "name": "ffa0321b4a9597d8c6d3fc7214f791fd", "rental_uris": {"ios": "https://dc.lft.to/lastmile_qr_scan", "android": "https://dc.lft.to/lastmile_qr_scan"}}, {"is_disabled": 0, "fusion_lat": 0.0, "lat": 38.838691, "type": "electric_bike", "lon": -76.99700633333333, "is_reserved": 0, "fusion_lon": 0.0, "bike_id": "6aa5a3d483efc1295214a8ed793afd80", "name": "6aa5a3d483efc1295214a8ed793afd80", "rental_uris": {"ios": "https://dc.lft.to/lastmile_qr_scan", "android": "https://dc.lft.to/lastmile_qr_scan"}}, {"is_disabled": 0, "fusion_lat": 0.0, "lat": 38.914551333333335, "type": "electric_scooter", "lon": -76.98424866666667, "is_reserved": 0, "fusion_lon": 0.0, "bike_id": "dd32a0c7930a7bfedffbb16524b3e895", "name": "dd32a0c7930a7bfedffbb16524b3e895", "rental_uris": {"ios": "https://dc.lft.to/lastmile_qr_scan", "android": "https://dc.lft.to/lastmile_qr_scan"}}, {"is_disabled": 0, "fusion_lat": 0.0, "lat": 38.900309, "type": "electric_scooter", "lon": -76.99866016666667, "is_reserved": 0, "fusion_lon": 0.0, "bike_id": "c9c616902818ed7739b4f4bcbdd60fca", "name": "c9c616902818ed7739b4f4bcbdd60fca", "rental_uris": {"ios": "https://dc.lft.to/lastmile_qr_scan", "android": "https://dc.lft.to/lastmile_qr_scan"}}, {"is_disabled": 0, "fusion_lat": 0.0, "lat": 38.92119316666667, "type": "electric_scooter", "lon": -77.045796, "is_reserved": 0, "fusion_lon": 0.0, "bike_id": "12172bb26a20850161f0c1cb1f401daa", "name": "12172bb26a20850161f0c1cb1f401daa", "rental_uris": {"ios": "https://dc.lft.to/lastmile_qr_scan", "android": "https://dc.lft.to/lastmile_qr_scan"}}, {"is_disabled": 0, "fusion_lat": 0.0, "lat": 38.8762725, "type": "electric_scooter", "lon": -76.96530333333334, "is_reserved": 0, "fusion_lon": 0.0, "bike_id": "e7914a10c41840978fb36a30f4fa5d63", "name": "e7914a10c41840978fb36a30f4fa5d63", "rental_uris": {"ios": "https://dc.lft.to/lastmile_qr_scan", "android": "https://dc.lft.to/lastmile_qr_scan"}}, {"is_disabled": 0, "fusion_lat": 0.0, "lat": 38.912662833333336, "type": "electric_scooter", "lon": -77.03394266666666, "is_reserved": 0, "fusion_lon": 0.0, "bike_id": "70f558b21043499a325842963f934ff0", "name": "70f558b21043499a325842963f934ff0", "rental_uris": {"ios": "https://dc.lft.to/lastmile_qr_scan", "android": "https://dc.lft.to/lastmile_qr_scan"}}, {"is_disabled": 0, "fusion_lat": 0.0, "lat": 38.89477433333333, "type": "electric_scooter", "lon": -77.02180066666666, "is_reserved": 0, "fusion_lon": 0.0, "bike_id": "f3ad9d3ffb277267ae1ced0cde973e8c", "name": "f3ad9d3ffb277267ae1ced0cde973e8c", "rental_uris": {"ios": "https://dc.lft.to/lastmile_qr_scan", "android": "https://dc.lft.to/lastmile_qr_scan"}}, {"is_disabled": 0, "fusion_lat": 0.0, "lat": 38.8762795, "type": "electric_scooter", "lon": -76.96527783333333, "is_reserved": 0, "fusion_lon": 0.0, "bike_id": "73ece8adb38a592a2ac1f035e3afaa98", "name": "73ece8adb38a592a2ac1f035e3afaa98", "rental_uris": {"ios": "https://dc.lft.to/lastmile_qr_scan", "android": "https://dc.lft.to/lastmile_qr_scan"}}, {"is_disabled": 0, "fusion_lat": 0.0, "lat": 38.941733, "type": "electric_scooter", "lon": -77.02500516666667, "is_reserved": 0, "fusion_lon": 0.0, "bike_id": "9f16cfe6e1566b2fc4d402f437673899", "name": "9f16cfe6e1566b2fc4d402f437673899", "rental_uris": {"ios": "https://dc.lft.to/lastmile_qr_scan", "android": "https://dc.lft.to/lastmile_qr_scan"}}, {"is_disabled": 0, "fusion_lat": 0.0, "lat": 38.90271166666667, "type": "electric_scooter", "lon": -77.033725, "is_reserved": 0, "fusion_lon": 0.0, "bike_id": "b5a8268cb2b2b8936e8826a8a5684669", "name": "b5a8268cb2b2b8936e8826a8a5684669", "rental_uris": {"ios": "https://dc.lft.to/lastmile_qr_scan", "android": "https://dc.lft.to/lastmile_qr_scan"}}, {"is_disabled": 0, "fusion_lat": 0.0, "lat": 38.842919, "type": "electric_scooter", "lon": -76.999465, "is_reserved": 0, "fusion_lon": 0.0, "bike_id": "a7ac5b3f07ac306c287e5d7078aeabb0", "name": "a7ac5b3f07ac306c287e5d7078aeabb0", "rental_uris": {"ios": "https://dc.lft.to/lastmile_qr_scan", "android": "https://dc.lft.to/lastmile_qr_scan"}}, {"is_disabled": 0, "fusion_lat": 0.0, "lat": 38.897085, "type": "electric_scooter", "lon": -77.02666616666667, "is_reserved": 0, "fusion_lon": 0.0, "bike_id": "37941b9a4eec2c4737bf5ba15ead9478", "name": "37941b9a4eec2c4737bf5ba15ead9478", "rental_uris": {"ios": "https://dc.lft.to/lastmile_qr_scan", "android": "https://dc.lft.to/lastmile_qr_scan"}}, {"is_disabled": 0, "fusion_lat": 0.0, "lat": 38.93318466666667, "type": "electric_scooter", "lon": -77.0328665, "is_reserved": 0, "fusion_lon": 0.0, "bike_id": "0ee9474666d85bf3aa57b1e10a4b173c", "name": "0ee9474666d85bf3aa57b1e10a4b173c", "rental_uris": {"ios": "https://dc.lft.to/lastmile_qr_scan", "android": "https://dc.lft.to/lastmile_qr_scan"}}, {"is_disabled": 0, "fusion_lat": 0.0, "lat": 38.902554333333335, "type": "electric_scooter", "lon": -77.0176485, "is_reserved": 0, "fusion_lon": 0.0, "bike_id": "14bcc5157840710c974015a4f139f0d5", "name": "14bcc5157840710c974015a4f139f0d5", "rental_uris": {"ios": "https://dc.lft.to/lastmile_qr_scan", "android": "https://dc.lft.to/lastmile_qr_scan"}}, {"is_disabled": 0, "fusion_lat": 0.0, "lat": 38.857166166666666, "type": "electric_scooter", "lon": -76.98098483333334, "is_reserved": 0, "fusion_lon": 0.0, "bike_id": "11b13d40d8106f733c64e797d5f9dde9", "name": "11b13d40d8106f733c64e797d5f9dde9", "rental_uris": {"ios": "https://dc.lft.to/lastmile_qr_scan", "android": "https://dc.lft.to/lastmile_qr_scan"}}, {"is_disabled": 0, "fusion_lat": 0.0, "lat": 38.917840166666664, "type": "electric_scooter", "lon": -77.03669166666667, "is_reserved": 0, "fusion_lon": 0.0, "bike_id": "494e3484ffc3d0ae936b3432ae7c179b", "name": "494e3484ffc3d0ae936b3432ae7c179b", "rental_uris": {"ios": "https://dc.lft.to/lastmile_qr_scan", "android": "https://dc.lft.to/lastmile_qr_scan"}}, {"is_disabled": 0, "fusion_lat": 0.0, "lat": 38.8937325, "type": "electric_scooter", "lon": -76.9495515, "is_reserved": 0, "fusion_lon": 0.0, "bike_id": "abfc107edac329e93c623f6d6f01fa80", "name": "abfc107edac329e93c623f6d6f01fa80", "rental_uris": {"ios": "https://dc.lft.to/lastmile_qr_scan", "android": "https://dc.lft.to/lastmile_qr_scan"}}, {"is_disabled": 0, "fusion_lat": 0.0, "lat": 38.92916, "type": "electric_scooter", "lon": -77.03184816666666, "is_reserved": 0, "fusion_lon": 0.0, "bike_id": "932d48981464f3883dfc7ad29163f104", "name": "932d48981464f3883dfc7ad29163f104", "rental_uris": {"ios": "https://dc.lft.to/lastmile_qr_scan", "android": "https://dc.lft.to/lastmile_qr_scan"}}, {"is_disabled": 0, "fusion_lat": 0.0, "lat": 38.92846983333333, "type": "electric_scooter", "lon": -77.05428466666666, "is_reserved": 0, "fusion_lon": 0.0, "bike_id": "eed4971d60febe8a091efcca33ef652e", "name": "eed4971d60febe8a091efcca33ef652e", "rental_uris": {"ios": "https://dc.lft.to/lastmile_qr_scan", "android": "https://dc.lft.to/lastmile_qr_scan"}}, {"is_disabled": 0, "fusion_lat": 0.0, "lat": 38.93241283333333, "type": "electric_scooter", "lon": -77.03290766666667, "is_reserved": 0, "fusion_lon": 0.0, "bike_id": "8e3bc1d54d5d329771c797280fc204e5", "name": "8e3bc1d54d5d329771c797280fc204e5", "rental_uris": {"ios": "https://dc.lft.to/lastmile_qr_scan", "android": "https://dc.lft.to/lastmile_qr_scan"}}, {"is_disabled": 0, "fusion_lat": 0.0, "lat": 38.871872833333335, "type": "electric_bike", "lon": -77.08410416666666, "is_reserved": 0, "fusion_lon": 0.0, "bike_id": "fee0f039181e078fbda4ee8ae9bf8d0d", "name": "fee0f039181e078fbda4ee8ae9bf8d0d", "rental_uris": {"ios": "https://dc.lft.to/lastmile_qr_scan", "android": "https://dc.lft.to/lastmile_qr_scan"}}, {"is_disabled": 0, "fusion_lat": 0.0, "lat": 38.932819, "type": "electric_scooter", "lon": -77.039739, "is_reserved": 0, "fusion_lon": 0.0, "bike_id": "166251d99434c7e87a75516a5fffd910", "name": "166251d99434c7e87a75516a5fffd910", "rental_uris": {"ios": "https://dc.lft.to/lastmile_qr_scan", "android": "https://dc.lft.to/lastmile_qr_scan"}}, {"is_disabled": 0, "fusion_lat": 0.0, "lat": 38.909692666666665, "type": "electric_scooter", "lon": -77.040518, "is_reserved": 0, "fusion_lon": 0.0, "bike_id": "21727b4a1567cc0439de64107561534d", "name": "21727b4a1567cc0439de64107561534d", "rental_uris": {"ios": "https://dc.lft.to/lastmile_qr_scan", "android": "https://dc.lft.to/lastmile_qr_scan"}}, {"is_disabled": 0, "fusion_lat": 0.0, "lat": 38.898394, "type": "electric_scooter", "lon": -77.0333045, "is_reserved": 0, "fusion_lon": 0.0, "bike_id": "f20588b811ddd7848f42a1b223731f1d", "name": "f20588b811ddd7848f42a1b223731f1d", "rental_uris": {"ios": "https://dc.lft.to/lastmile_qr_scan", "android": "https://dc.lft.to/lastmile_qr_scan"}}, {"is_disabled": 0, "fusion_lat": 0.0, "lat": 38.91110066666667, "type": "electric_scooter", "lon": -77.0484195, "is_reserved": 0, "fusion_lon": 0.0, "bike_id": "1051becd1cfe9f5b4dcd404dc7f152ac", "name": "1051becd1cfe9f5b4dcd404dc7f152ac", "rental_uris": {"ios": "https://dc.lft.to/lastmile_qr_scan", "android": "https://dc.lft.to/lastmile_qr_scan"}}, {"is_disabled": 0, "fusion_lat": 0.0, "lat": 38.89622266666667, "type": "electric_scooter", "lon": -76.99847, "is_reserved": 0, "fusion_lon": 0.0, "bike_id": "7f8d0cd69a87fd9f1225604e4b22d036", "name": "7f8d0cd69a87fd9f1225604e4b22d036", "rental_uris": {"ios": "https://dc.lft.to/lastmile_qr_scan", "android": "https://dc.lft.to/lastmile_qr_scan"}}, {"is_disabled": 0, "fusion_lat": 0.0, "lat": 38.894974500000004, "type": "electric_scooter", "lon": -77.022934, "is_reserved": 0, "fusion_lon": 0.0, "bike_id": "042a8206d93ba6b10d143424b59bae87", "name": "042a8206d93ba6b10d143424b59bae87", "rental_uris": {"ios": "https://dc.lft.to/lastmile_qr_scan", "android": "https://dc.lft.to/lastmile_qr_scan"}}, {"is_disabled": 0, "fusion_lat": 0.0, "lat": 38.9056945, "type": "electric_scooter", "lon": -77.03074683333334, "is_reserved": 0, "fusion_lon": 0.0, "bike_id": "4165e0cdd5e5049d2992dc98335e1ece", "name": "4165e0cdd5e5049d2992dc98335e1ece", "rental_uris": {"ios": "https://dc.lft.to/lastmile_qr_scan", "android": "https://dc.lft.to/lastmile_qr_scan"}}, {"is_disabled": 0, "fusion_lat": 0.0, "lat": 38.892251, "type": "electric_scooter", "lon": -77.04641033333333, "is_reserved": 0, "fusion_lon": 0.0, "bike_id": "feb01b992bff6da384efbdd34006b4ab", "name": "feb01b992bff6da384efbdd34006b4ab", "rental_uris": {"ios": "https://dc.lft.to/lastmile_qr_scan", "android": "https://dc.lft.to/lastmile_qr_scan"}}, {"is_disabled": 0, "fusion_lat": 0.0, "lat": 38.9271865, "type": "electric_scooter", "lon": -77.02079983333333, "is_reserved": 0, "fusion_lon": 0.0, "bike_id": "b6365783de95a6b6053e3cbe7f657111", "name": "b6365783de95a6b6053e3cbe7f657111", "rental_uris": {"ios": "https://dc.lft.to/lastmile_qr_scan", "android": "https://dc.lft.to/lastmile_qr_scan"}}, {"is_disabled": 0, "fusion_lat": 0.0, "lat": 38.869041333333335, "type": "electric_bike", "lon": -77.1318325, "is_reserved": 0, "fusion_lon": 0.0, "bike_id": "f64e8d0802a4989d83c7313d4e7af626", "name": "f64e8d0802a4989d83c7313d4e7af626", "rental_uris": {"ios": "https://dc.lft.to/lastmile_qr_scan", "android": "https://dc.lft.to/lastmile_qr_scan"}}, {"is_disabled": 0, "fusion_lat": 0.0, "lat": 38.93239583333333, "type": "electric_scooter", "lon": -77.03110966666667, "is_reserved": 0, "fusion_lon": 0.0, "bike_id": "ca7b709a23388a34a8b064eb049ecde0", "name": "ca7b709a23388a34a8b064eb049ecde0", "rental_uris": {"ios": "https://dc.lft.to/lastmile_qr_scan", "android": "https://dc.lft.to/lastmile_qr_scan"}}, {"is_disabled": 0, "fusion_lat": 0.0, "lat": 38.819961, "type": "electric_bike", "lon": -76.9981255, "is_reserved": 0, "fusion_lon": 0.0, "bike_id": "812c144a66292b4c08b8c50a25bf64ec", "name": "812c144a66292b4c08b8c50a25bf64ec", "rental_uris": {"ios": "https://dc.lft.to/lastmile_qr_scan", "android": "https://dc.lft.to/lastmile_qr_scan"}}, {"is_disabled": 0, "fusion_lat": 0.0, "lat": 38.94146, "type": "electric_scooter", "lon": -77.029862, "is_reserved": 0, "fusion_lon": 0.0, "bike_id": "213eb710d4eaab7a92187183b67f9ece", "name": "213eb710d4eaab7a92187183b67f9ece", "rental_uris": {"ios": "https://dc.lft.to/lastmile_qr_scan", "android": "https://dc.lft.to/lastmile_qr_scan"}}, {"is_disabled": 0, "fusion_lat": 0.0, "lat": 38.927681, "type": "electric_scooter", "lon": -77.02711683333334, "is_reserved": 0, "fusion_lon": 0.0, "bike_id": "d5702e2cb5038a6d609551325e90364f", "name": "d5702e2cb5038a6d609551325e90364f", "rental_uris": {"ios": "https://dc.lft.to/lastmile_qr_scan", "android": "https://dc.lft.to/lastmile_qr_scan"}}, {"is_disabled": 0, "fusion_lat": 0.0, "lat": 38.89909883333333, "type": "electric_scooter", "lon": -77.033352, "is_reserved": 0, "fusion_lon": 0.0, "bike_id": "3d87a85be1ea696b53733e0395fc276c", "name": "3d87a85be1ea696b53733e0395fc276c", "rental_uris": {"ios": "https://dc.lft.to/lastmile_qr_scan", "android": "https://dc.lft.to/lastmile_qr_scan"}}, {"is_disabled": 0, "fusion_lat": 0.0, "lat": 38.89221216666667, "type": "electric_scooter", "lon": -77.04639266666666, "is_reserved": 0, "fusion_lon": 0.0, "bike_id": "3c793b51bb9d57f1e9b2486a7229d502", "name": "3c793b51bb9d57f1e9b2486a7229d502", "rental_uris": {"ios": "https://dc.lft.to/lastmile_qr_scan", "android": "https://dc.lft.to/lastmile_qr_scan"}}, {"is_disabled": 0, "fusion_lat": 0.0, "lat": 38.88198033333333, "type": "electric_scooter", "lon": -77.00600983333334, "is_reserved": 0, "fusion_lon": 0.0, "bike_id": "6720b5b875415e31cd9f7ea6ddf74f18", "name": "6720b5b875415e31cd9f7ea6ddf74f18", "rental_uris": {"ios": "https://dc.lft.to/lastmile_qr_scan", "android": "https://dc.lft.to/lastmile_qr_scan"}}, {"is_disabled": 0, "fusion_lat": 0.0, "lat": 38.9462405, "type": "electric_scooter", "lon": -77.02515583333333, "is_reserved": 0, "fusion_lon": 0.0, "bike_id": "2fbe6f8a5d01b79335c3bc788f357e88", "name": "2fbe6f8a5d01b79335c3bc788f357e88", "rental_uris": {"ios": "https://dc.lft.to/lastmile_qr_scan", "android": "https://dc.lft.to/lastmile_qr_scan"}}, {"is_disabled": 0, "fusion_lat": 0.0, "lat": 38.914752666666665, "type": "electric_bike", "lon": -76.98373583333333, "is_reserved": 0, "fusion_lon": 0.0, "bike_id": "42e8765e0ff5173d59312065eeb0cc0f", "name": "42e8765e0ff5173d59312065eeb0cc0f", "rental_uris": {"ios": "https://dc.lft.to/lastmile_qr_scan", "android": "https://dc.lft.to/lastmile_qr_scan"}}, {"is_disabled": 0, "fusion_lat": 0.0, "lat": 38.89978816666667, "type": "electric_scooter", "lon": -77.04789, "is_reserved": 0, "fusion_lon": 0.0, "bike_id": "4af73206e429394e0878a73c66a383b5", "name": "4af73206e429394e0878a73c66a383b5", "rental_uris": {"ios": "https://dc.lft.to/lastmile_qr_scan", "android": "https://dc.lft.to/lastmile_qr_scan"}}, {"is_disabled": 0, "fusion_lat": 0.0, "lat": 38.94334766666667, "type": "electric_scooter", "lon": -77.03261616666667, "is_reserved": 0, "fusion_lon": 0.0, "bike_id": "e32ca96de6a2fcdef677de3874501d01", "name": "e32ca96de6a2fcdef677de3874501d01", "rental_uris": {"ios": "https://dc.lft.to/lastmile_qr_scan", "android": "https://dc.lft.to/lastmile_qr_scan"}}, {"is_disabled": 0, "fusion_lat": 0.0, "lat": 38.92690266666666, "type": "electric_scooter", "lon": -77.0957025, "is_reserved": 0, "fusion_lon": 0.0, "bike_id": "1d0611d2196408217326c1df24d43322", "name": "1d0611d2196408217326c1df24d43322", "rental_uris": {"ios": "https://dc.lft.to/lastmile_qr_scan", "android": "https://dc.lft.to/lastmile_qr_scan"}}, {"is_disabled": 0, "fusion_lat": 0.0, "lat": 38.892311166666666, "type": "electric_scooter", "lon": -77.02208283333333, "is_reserved": 0, "fusion_lon": 0.0, "bike_id": "c63a8ad584b4c374976b9396a4821af6", "name": "c63a8ad584b4c374976b9396a4821af6", "rental_uris": {"ios": "https://dc.lft.to/lastmile_qr_scan", "android": "https://dc.lft.to/lastmile_qr_scan"}}, {"is_disabled": 0, "fusion_lat": 0.0, "lat": 38.913377833333335, "type": "electric_scooter", "lon": -77.010701, "is_reserved": 0, "fusion_lon": 0.0, "bike_id": "0652844cf76a7e780be63e9fdcb22a45", "name": "0652844cf76a7e780be63e9fdcb22a45", "rental_uris": {"ios": "https://dc.lft.to/lastmile_qr_scan", "android": "https://dc.lft.to/lastmile_qr_scan"}}, {"is_disabled": 0, "fusion_lat": 0.0, "lat": 38.93149283333333, "type": "electric_scooter", "lon": -77.03836783333334, "is_reserved": 0, "fusion_lon": 0.0, "bike_id": "d30516a9d9309631914b4ad1dfa604b7", "name": "d30516a9d9309631914b4ad1dfa604b7", "rental_uris": {"ios": "https://dc.lft.to/lastmile_qr_scan", "android": "https://dc.lft.to/lastmile_qr_scan"}}, {"is_disabled": 0, "fusion_lat": 0.0, "lat": 38.8919675, "type": "electric_scooter", "lon": -77.02383466666667, "is_reserved": 0, "fusion_lon": 0.0, "bike_id": "baf198ce50f0651e326edab83774651d", "name": "baf198ce50f0651e326edab83774651d", "rental_uris": {"ios": "https://dc.lft.to/lastmile_qr_scan", "android": "https://dc.lft.to/lastmile_qr_scan"}}, {"is_disabled": 0, "fusion_lat": 0.0, "lat": 38.936173, "type": "electric_scooter", "lon": -77.0572445, "is_reserved": 0, "fusion_lon": 0.0, "bike_id": "46a477ec5b2f96871eb203b0323decda", "name": "46a477ec5b2f96871eb203b0323decda", "rental_uris": {"ios": "https://dc.lft.to/lastmile_qr_scan", "android": "https://dc.lft.to/lastmile_qr_scan"}}, {"is_disabled": 0, "fusion_lat": 0.0, "lat": 38.922337, "type": "electric_scooter", "lon": -77.0334825, "is_reserved": 0, "fusion_lon": 0.0, "bike_id": "17a9c11015f0cc8b04ab6acc6ba6399f", "name": "17a9c11015f0cc8b04ab6acc6ba6399f", "rental_uris": {"ios": "https://dc.lft.to/lastmile_qr_scan", "android": "https://dc.lft.to/lastmile_qr_scan"}}, {"is_disabled": 0, "fusion_lat": 0.0, "lat": 38.92967, "type": "electric_scooter", "lon": -77.02827283333333, "is_reserved": 0, "fusion_lon": 0.0, "bike_id": "b03e54e3b18b941d9ce814bf6799c6ba", "name": "b03e54e3b18b941d9ce814bf6799c6ba", "rental_uris": {"ios": "https://dc.lft.to/lastmile_qr_scan", "android": "https://dc.lft.to/lastmile_qr_scan"}}, {"is_disabled": 0, "fusion_lat": 0.0, "lat": 38.907137666666664, "type": "electric_scooter", "lon": -77.04370366666667, "is_reserved": 0, "fusion_lon": 0.0, "bike_id": "4c3db21adbfb441b9f017eaa38eb81ad", "name": "4c3db21adbfb441b9f017eaa38eb81ad", "rental_uris": {"ios": "https://dc.lft.to/lastmile_qr_scan", "android": "https://dc.lft.to/lastmile_qr_scan"}}, {"is_disabled": 0, "fusion_lat": 0.0, "lat": 38.905688833333336, "type": "electric_scooter", "lon": -77.038343, "is_reserved": 0, "fusion_lon": 0.0, "bike_id": "c517484dc0ea491b18acf1afb0df9a48", "name": "c517484dc0ea491b18acf1afb0df9a48", "rental_uris": {"ios": "https://dc.lft.to/lastmile_qr_scan", "android": "https://dc.lft.to/lastmile_qr_scan"}}, {"is_disabled": 0, "fusion_lat": 0.0, "lat": 38.90419883333333, "type": "electric_scooter", "lon": -77.04323816666667, "is_reserved": 0, "fusion_lon": 0.0, "bike_id": "d10243cc584b285b1f308b23e5826120", "name": "d10243cc584b285b1f308b23e5826120", "rental_uris": {"ios": "https://dc.lft.to/lastmile_qr_scan", "android": "https://dc.lft.to/lastmile_qr_scan"}}, {"is_disabled": 0, "fusion_lat": 0.0, "lat": 38.8970355, "type": "electric_scooter", "lon": -76.9177325, "is_reserved": 0, "fusion_lon": 0.0, "bike_id": "be25935ffacfed29b9281f39c6477ac4", "name": "be25935ffacfed29b9281f39c6477ac4", "rental_uris": {"ios": "https://dc.lft.to/lastmile_qr_scan", "android": "https://dc.lft.to/lastmile_qr_scan"}}, {"is_disabled": 0, "fusion_lat": 0.0, "lat": 38.880844, "type": "electric_bike", "lon": -77.08629916666666, "is_reserved": 0, "fusion_lon": 0.0, "bike_id": "31f405cdecc7fa48f46b04dd83c2ddc3", "name": "31f405cdecc7fa48f46b04dd83c2ddc3", "rental_uris": {"ios": "https://dc.lft.to/lastmile_qr_scan", "android": "https://dc.lft.to/lastmile_qr_scan"}}, {"is_disabled": 0, "fusion_lat": 0.0, "lat": 38.90466416666667, "type": "electric_scooter", "lon": -77.043375, "is_reserved": 0, "fusion_lon": 0.0, "bike_id": "d050806c6af33ec325e88ba70d557a2d", "name": "d050806c6af33ec325e88ba70d557a2d", "rental_uris": {"ios": "https://dc.lft.to/lastmile_qr_scan", "android": "https://dc.lft.to/lastmile_qr_scan"}}, {"is_disabled": 0, "fusion_lat": 0.0, "lat": 38.827277333333335, "type": "electric_bike", "lon": -77.008666, "is_reserved": 0, "fusion_lon": 0.0, "bike_id": "9747269255ab9b0d6ab8c9810f4b44e8", "name": "9747269255ab9b0d6ab8c9810f4b44e8", "rental_uris": {"ios": "https://dc.lft.to/lastmile_qr_scan", "android": "https://dc.lft.to/lastmile_qr_scan"}}, {"is_disabled": 0, "fusion_lat": 0.0, "lat": 38.88479383333333, "type": "electric_scooter", "lon": -77.03356633333334, "is_reserved": 0, "fusion_lon": 0.0, "bike_id": "041cbd02f18026cb133b331a606292ad", "name": "041cbd02f18026cb133b331a606292ad", "rental_uris": {"ios": "https://dc.lft.to/lastmile_qr_scan", "android": "https://dc.lft.to/lastmile_qr_scan"}}, {"is_disabled": 0, "fusion_lat": 0.0, "lat": 38.88011866666667, "type": "electric_scooter", "lon": -76.93136, "is_reserved": 0, "fusion_lon": 0.0, "bike_id": "2eecdf3d130488d452044425da4cd031", "name": "2eecdf3d130488d452044425da4cd031", "rental_uris": {"ios": "https://dc.lft.to/lastmile_qr_scan", "android": "https://dc.lft.to/lastmile_qr_scan"}}, {"is_disabled": 0, "fusion_lat": 0.0, "lat": 38.884716166666664, "type": "electric_scooter", "lon": -77.02346716666666, "is_reserved": 0, "fusion_lon": 0.0, "bike_id": "6f21413d1cacf39830a5e5e530131a1d", "name": "6f21413d1cacf39830a5e5e530131a1d", "rental_uris": {"ios": "https://dc.lft.to/lastmile_qr_scan", "android": "https://dc.lft.to/lastmile_qr_scan"}}, {"is_disabled": 0, "fusion_lat": 0.0, "lat": 38.925197833333335, "type": "electric_scooter", "lon": -77.0513335, "is_reserved": 0, "fusion_lon": 0.0, "bike_id": "679b97bbe497c8d31bb8b7f02ec79aa1", "name": "679b97bbe497c8d31bb8b7f02ec79aa1", "rental_uris": {"ios": "https://dc.lft.to/lastmile_qr_scan", "android": "https://dc.lft.to/lastmile_qr_scan"}}, {"is_disabled": 0, "fusion_lat": 0.0, "lat": 38.902368, "type": "electric_scooter", "lon": -77.00199633333334, "is_reserved": 0, "fusion_lon": 0.0, "bike_id": "0ae57b5da129909a38400a9f225288e5", "name": "0ae57b5da129909a38400a9f225288e5", "rental_uris": {"ios": "https://dc.lft.to/lastmile_qr_scan", "android": "https://dc.lft.to/lastmile_qr_scan"}}, {"is_disabled": 0, "fusion_lat": 0.0, "lat": 38.918792833333335, "type": "electric_scooter", "lon": -77.01593233333334, "is_reserved": 0, "fusion_lon": 0.0, "bike_id": "43cb12cd72cd9eea75ec4e9438429c41", "name": "43cb12cd72cd9eea75ec4e9438429c41", "rental_uris": {"ios": "https://dc.lft.to/lastmile_qr_scan", "android": "https://dc.lft.to/lastmile_qr_scan"}}, {"is_disabled": 0, "fusion_lat": 0.0, "lat": 38.892414333333335, "type": "electric_scooter", "lon": -77.03961266666667, "is_reserved": 0, "fusion_lon": 0.0, "bike_id": "018c5343f16c37d4263646d428dad0e7", "name": "018c5343f16c37d4263646d428dad0e7", "rental_uris": {"ios": "https://dc.lft.to/lastmile_qr_scan", "android": "https://dc.lft.to/lastmile_qr_scan"}}, {"is_disabled": 0, "fusion_lat": 0.0, "lat": 38.924873, "type": "electric_scooter", "lon": -77.052496, "is_reserved": 0, "fusion_lon": 0.0, "bike_id": "dd6f17642ba0a82fcfd4de26b9546d8d", "name": "dd6f17642ba0a82fcfd4de26b9546d8d", "rental_uris": {"ios": "https://dc.lft.to/lastmile_qr_scan", "android": "https://dc.lft.to/lastmile_qr_scan"}}, {"is_disabled": 0, "fusion_lat": 0.0, "lat": 38.87173933333333, "type": "electric_scooter", "lon": -77.00626116666666, "is_reserved": 0, "fusion_lon": 0.0, "bike_id": "6e2f9c05d7810de7a84aa86c9fa7ec4f", "name": "6e2f9c05d7810de7a84aa86c9fa7ec4f", "rental_uris": {"ios": "https://dc.lft.to/lastmile_qr_scan", "android": "https://dc.lft.to/lastmile_qr_scan"}}, {"is_disabled": 0, "fusion_lat": 0.0, "lat": 38.92073766666667, "type": "electric_scooter", "lon": -77.04692333333334, "is_reserved": 0, "fusion_lon": 0.0, "bike_id": "a4d7f7026285887ece914cf80dac3907", "name": "a4d7f7026285887ece914cf80dac3907", "rental_uris": {"ios": "https://dc.lft.to/lastmile_qr_scan", "android": "https://dc.lft.to/lastmile_qr_scan"}}, {"is_disabled": 0, "fusion_lat": 0.0, "lat": 38.922255, "type": "electric_scooter", "lon": -77.04381616666667, "is_reserved": 0, "fusion_lon": 0.0, "bike_id": "29ce176c3692fce1870f4e5f6344c9f4", "name": "29ce176c3692fce1870f4e5f6344c9f4", "rental_uris": {"ios": "https://dc.lft.to/lastmile_qr_scan", "android": "https://dc.lft.to/lastmile_qr_scan"}}, {"is_disabled": 0, "fusion_lat": 0.0, "lat": 38.895504333333335, "type": "electric_scooter", "lon": -76.93381566666666, "is_reserved": 0, "fusion_lon": 0.0, "bike_id": "2f365cc14aa2fb63747a5bf815d5b618", "name": "2f365cc14aa2fb63747a5bf815d5b618", "rental_uris": {"ios": "https://dc.lft.to/lastmile_qr_scan", "android": "https://dc.lft.to/lastmile_qr_scan"}}, {"is_disabled": 0, "fusion_lat": 0.0, "lat": 38.90117033333333, "type": "electric_scooter", "lon": -77.04356433333334, "is_reserved": 0, "fusion_lon": 0.0, "bike_id": "6a621feda3d2ef71d8678e09d7b12709", "name": "6a621feda3d2ef71d8678e09d7b12709", "rental_uris": {"ios": "https://dc.lft.to/lastmile_qr_scan", "android": "https://dc.lft.to/lastmile_qr_scan"}}, {"is_disabled": 0, "fusion_lat": 0.0, "lat": 38.91373433333333, "type": "electric_scooter", "lon": -77.02001566666667, "is_reserved": 0, "fusion_lon": 0.0, "bike_id": "a88b7af275d6363a55ea4c5f5ec965fe", "name": "a88b7af275d6363a55ea4c5f5ec965fe", "rental_uris": {"ios": "https://dc.lft.to/lastmile_qr_scan", "android": "https://dc.lft.to/lastmile_qr_scan"}}, {"is_disabled": 0, "fusion_lat": 0.0, "lat": 38.900407333333334, "type": "electric_scooter", "lon": -76.9884855, "is_reserved": 0, "fusion_lon": 0.0, "bike_id": "f3c5d95d00eaa34ee2551f94777498af", "name": "f3c5d95d00eaa34ee2551f94777498af", "rental_uris": {"ios": "https://dc.lft.to/lastmile_qr_scan", "android": "https://dc.lft.to/lastmile_qr_scan"}}, {"is_disabled": 0, "fusion_lat": 0.0, "lat": 38.88653266666667, "type": "electric_scooter", "lon": -77.0338385, "is_reserved": 0, "fusion_lon": 0.0, "bike_id": "4577141b1e2e579b6b12d9ed44a1b209", "name": "4577141b1e2e579b6b12d9ed44a1b209", "rental_uris": {"ios": "https://dc.lft.to/lastmile_qr_scan", "android": "https://dc.lft.to/lastmile_qr_scan"}}, {"is_disabled": 0, "fusion_lat": 0.0, "lat": 38.84619416666666, "type": "electric_bike", "lon": -76.97827583333333, "is_reserved": 0, "fusion_lon": 0.0, "bike_id": "b19d26687efa94026b3c4d76a7a70d2c", "name": "b19d26687efa94026b3c4d76a7a70d2c", "rental_uris": {"ios": "https://dc.lft.to/lastmile_qr_scan", "android": "https://dc.lft.to/lastmile_qr_scan"}}, {"is_disabled": 0, "fusion_lat": 0.0, "lat": 38.89619966666667, "type": "electric_scooter", "lon": -77.04052833333333, "is_reserved": 0, "fusion_lon": 0.0, "bike_id": "15d9a5048759c50920b10714d8e8e89f", "name": "15d9a5048759c50920b10714d8e8e89f", "rental_uris": {"ios": "https://dc.lft.to/lastmile_qr_scan", "android": "https://dc.lft.to/lastmile_qr_scan"}}, {"is_disabled": 0, "fusion_lat": 0.0, "lat": 38.9127145, "type": "electric_scooter", "lon": -77.02245183333334, "is_reserved": 0, "fusion_lon": 0.0, "bike_id": "f18c39aa7633a45005d17fd984d41bc5", "name": "f18c39aa7633a45005d17fd984d41bc5", "rental_uris": {"ios": "https://dc.lft.to/lastmile_qr_scan", "android": "https://dc.lft.to/lastmile_qr_scan"}}, {"is_disabled": 0, "fusion_lat": 0.0, "lat": 38.92496833333333, "type": "electric_scooter", "lon": -77.0215035, "is_reserved": 0, "fusion_lon": 0.0, "bike_id": "b7f304a7421b2083e8b333cc8afb5b34", "name": "b7f304a7421b2083e8b333cc8afb5b34", "rental_uris": {"ios": "https://dc.lft.to/lastmile_qr_scan", "android": "https://dc.lft.to/lastmile_qr_scan"}}, {"is_disabled": 0, "fusion_lat": 0.0, "lat": 38.90375983333333, "type": "electric_scooter", "lon": -77.039115, "is_reserved": 0, "fusion_lon": 0.0, "bike_id": "0b93a892d4e4d90e753fb3359f4c7d43", "name": "0b93a892d4e4d90e753fb3359f4c7d43", "rental_uris": {"ios": "https://dc.lft.to/lastmile_qr_scan", "android": "https://dc.lft.to/lastmile_qr_scan"}}, {"is_disabled": 0, "fusion_lat": 0.0, "lat": 38.90909883333333, "type": "electric_scooter", "lon": -76.99962383333333, "is_reserved": 0, "fusion_lon": 0.0, "bike_id": "b9e221c68da2c4bbd1704187550961c6", "name": "b9e221c68da2c4bbd1704187550961c6", "rental_uris": {"ios": "https://dc.lft.to/lastmile_qr_scan", "android": "https://dc.lft.to/lastmile_qr_scan"}}, {"is_disabled": 0, "fusion_lat": 0.0, "lat": 38.907793, "type": "electric_scooter", "lon": -77.03476133333334, "is_reserved": 0, "fusion_lon": 0.0, "bike_id": "f34ef061ae48d8d87e01d04bbd1933b1", "name": "f34ef061ae48d8d87e01d04bbd1933b1", "rental_uris": {"ios": "https://dc.lft.to/lastmile_qr_scan", "android": "https://dc.lft.to/lastmile_qr_scan"}}, {"is_disabled": 0, "fusion_lat": 0.0, "lat": 39.0581085, "type": "electric_bike", "lon": -77.12625, "is_reserved": 0, "fusion_lon": 0.0, "bike_id": "ab134d708f32505311dfa4e8c37e8d45", "name": "ab134d708f32505311dfa4e8c37e8d45", "rental_uris": {"ios": "https://dc.lft.to/lastmile_qr_scan", "android": "https://dc.lft.to/lastmile_qr_scan"}}, {"is_disabled": 0, "fusion_lat": 0.0, "lat": 38.90124483333334, "type": "electric_scooter", "lon": -76.99660966666667, "is_reserved": 0, "fusion_lon": 0.0, "bike_id": "58cf6f05beaf76fb1565757c1f2c78cc", "name": "58cf6f05beaf76fb1565757c1f2c78cc", "rental_uris": {"ios": "https://dc.lft.to/lastmile_qr_scan", "android": "https://dc.lft.to/lastmile_qr_scan"}}, {"is_disabled": 0, "fusion_lat": 0.0, "lat": 38.953494, "type": "electric_bike", "lon": -76.98086116666667, "is_reserved": 0, "fusion_lon": 0.0, "bike_id": "3f3eb17b1429b2ba4fbe8e4387101648", "name": "3f3eb17b1429b2ba4fbe8e4387101648", "rental_uris": {"ios": "https://dc.lft.to/lastmile_qr_scan", "android": "https://dc.lft.to/lastmile_qr_scan"}}, {"is_disabled": 0, "fusion_lat": 0.0, "lat": 38.84611983333333, "type": "electric_bike", "lon": -76.96901183333334, "is_reserved": 0, "fusion_lon": 0.0, "bike_id": "4911932869b827396fad12afee1cb806", "name": "4911932869b827396fad12afee1cb806", "rental_uris": {"ios": "https://dc.lft.to/lastmile_qr_scan", "android": "https://dc.lft.to/lastmile_qr_scan"}}, {"is_disabled": 0, "fusion_lat": 0.0, "lat": 38.89555983333333, "type": "electric_scooter", "lon": -76.930432, "is_reserved": 0, "fusion_lon": 0.0, "bike_id": "f6bcab3132682aa9d5e90b9b944fb9de", "name": "f6bcab3132682aa9d5e90b9b944fb9de", "rental_uris": {"ios": "https://dc.lft.to/lastmile_qr_scan", "android": "https://dc.lft.to/lastmile_qr_scan"}}, {"is_disabled": 0, "fusion_lat": 0.0, "lat": 38.91403316666667, "type": "electric_scooter", "lon": -77.03155466666666, "is_reserved": 0, "fusion_lon": 0.0, "bike_id": "9166ff3e08d2ff0666253ae2c2339fcb", "name": "9166ff3e08d2ff0666253ae2c2339fcb", "rental_uris": {"ios": "https://dc.lft.to/lastmile_qr_scan", "android": "https://dc.lft.to/lastmile_qr_scan"}}, {"is_disabled": 0, "fusion_lat": 0.0, "lat": 38.86058166666667, "type": "electric_bike", "lon": -77.05640333333334, "is_reserved": 0, "fusion_lon": 0.0, "bike_id": "d5942aca0edf9fd524c00fa34ac4fa1e", "name": "d5942aca0edf9fd524c00fa34ac4fa1e", "rental_uris": {"ios": "https://dc.lft.to/lastmile_qr_scan", "android": "https://dc.lft.to/lastmile_qr_scan"}}, {"is_disabled": 0, "fusion_lat": 0.0, "lat": 38.81330233333333, "type": "electric_bike", "lon": -77.05096066666667, "is_reserved": 0, "fusion_lon": 0.0, "bike_id": "057df7547b1af82db822c2ecd4d670f6", "name": "057df7547b1af82db822c2ecd4d670f6", "rental_uris": {"ios": "https://dc.lft.to/lastmile_qr_scan", "android": "https://dc.lft.to/lastmile_qr_scan"}}, {"is_disabled": 0, "fusion_lat": 0.0, "lat": 38.9290155, "type": "electric_scooter", "lon": -77.03295816666666, "is_reserved": 0, "fusion_lon": 0.0, "bike_id": "03a5cc35754e5179c12a959426908156", "name": "03a5cc35754e5179c12a959426908156", "rental_uris": {"ios": "https://dc.lft.to/lastmile_qr_scan", "android": "https://dc.lft.to/lastmile_qr_scan"}}, {"is_disabled": 0, "fusion_lat": 0.0, "lat": 38.91982733333333, "type": "electric_scooter", "lon": -77.04165666666667, "is_reserved": 0, "fusion_lon": 0.0, "bike_id": "f0172e1e1e35e6f303b0d1757941e866", "name": "f0172e1e1e35e6f303b0d1757941e866", "rental_uris": {"ios": "https://dc.lft.to/lastmile_qr_scan", "android": "https://dc.lft.to/lastmile_qr_scan"}}, {"is_disabled": 0, "fusion_lat": 0.0, "lat": 38.919851666666666, "type": "electric_scooter", "lon": -76.973054, "is_reserved": 0, "fusion_lon": 0.0, "bike_id": "ac138ec8c8d5152321b715bdea8dc971", "name": "ac138ec8c8d5152321b715bdea8dc971", "rental_uris": {"ios": "https://dc.lft.to/lastmile_qr_scan", "android": "https://dc.lft.to/lastmile_qr_scan"}}, {"is_disabled": 0, "fusion_lat": 0.0, "lat": 38.95071, "type": "electric_bike", "lon": -77.012031, "is_reserved": 0, "fusion_lon": 0.0, "bike_id": "69557b0408180a12e7fed19222deb97a", "name": "69557b0408180a12e7fed19222deb97a", "rental_uris": {"ios": "https://dc.lft.to/lastmile_qr_scan", "android": "https://dc.lft.to/lastmile_qr_scan"}}, {"is_disabled": 0, "fusion_lat": 0.0, "lat": 38.90081133333333, "type": "electric_scooter", "lon": -77.04796516666667, "is_reserved": 0, "fusion_lon": 0.0, "bike_id": "74f9c0cfc5d6fc62bdd25fd67ca4924c", "name": "74f9c0cfc5d6fc62bdd25fd67ca4924c", "rental_uris": {"ios": "https://dc.lft.to/lastmile_qr_scan", "android": "https://dc.lft.to/lastmile_qr_scan"}}, {"is_disabled": 0, "fusion_lat": 0.0, "lat": 38.900649666666666, "type": "electric_scooter", "lon": -77.00769016666666, "is_reserved": 0, "fusion_lon": 0.0, "bike_id": "71ee2c55388aa64ad1a2925909d30edf", "name": "71ee2c55388aa64ad1a2925909d30edf", "rental_uris": {"ios": "https://dc.lft.to/lastmile_qr_scan", "android": "https://dc.lft.to/lastmile_qr_scan"}}, {"is_disabled": 0, "fusion_lat": 0.0, "lat": 38.82783033333333, "type": "electric_bike", "lon": -77.0091835, "is_reserved": 0, "fusion_lon": 0.0, "bike_id": "5f7b70b08ffeeadc0ab521d4f7b08366", "name": "5f7b70b08ffeeadc0ab521d4f7b08366", "rental_uris": {"ios": "https://dc.lft.to/lastmile_qr_scan", "android": "https://dc.lft.to/lastmile_qr_scan"}}, {"is_disabled": 0, "fusion_lat": 0.0, "lat": 38.80444033333333, "type": "electric_bike", "lon": -77.04233933333333, "is_reserved": 0, "fusion_lon": 0.0, "bike_id": "8c030934469572d2e37819f8b68d6ebb", "name": "8c030934469572d2e37819f8b68d6ebb", "rental_uris": {"ios": "https://dc.lft.to/lastmile_qr_scan", "android": "https://dc.lft.to/lastmile_qr_scan"}}, {"is_disabled": 0, "fusion_lat": 0.0, "lat": 38.9210695, "type": "electric_scooter", "lon": -77.0422915, "is_reserved": 0, "fusion_lon": 0.0, "bike_id": "70c9b60d23d17e4833441d23d377b757", "name": "70c9b60d23d17e4833441d23d377b757", "rental_uris": {"ios": "https://dc.lft.to/lastmile_qr_scan", "android": "https://dc.lft.to/lastmile_qr_scan"}}, {"is_disabled": 0, "fusion_lat": 0.0, "lat": 38.88270033333333, "type": "electric_scooter", "lon": -76.9958255, "is_reserved": 0, "fusion_lon": 0.0, "bike_id": "0be0fc30af9790a7f0bb504898bf510f", "name": "0be0fc30af9790a7f0bb504898bf510f", "rental_uris": {"ios": "https://dc.lft.to/lastmile_qr_scan", "android": "https://dc.lft.to/lastmile_qr_scan"}}, {"is_disabled": 0, "fusion_lat": 0.0, "lat": 38.98430483333333, "type": "electric_scooter", "lon": -77.02676483333333, "is_reserved": 0, "fusion_lon": 0.0, "bike_id": "53375dca3a74bb2d2e971c2101751d96", "name": "53375dca3a74bb2d2e971c2101751d96", "rental_uris": {"ios": "https://dc.lft.to/lastmile_qr_scan", "android": "https://dc.lft.to/lastmile_qr_scan"}}, {"is_disabled": 0, "fusion_lat": 0.0, "lat": 38.932405833333334, "type": "electric_scooter", "lon": -77.038652, "is_reserved": 0, "fusion_lon": 0.0, "bike_id": "e30b1c114b61f98045698c51f0b99bc3", "name": "e30b1c114b61f98045698c51f0b99bc3", "rental_uris": {"ios": "https://dc.lft.to/lastmile_qr_scan", "android": "https://dc.lft.to/lastmile_qr_scan"}}, {"is_disabled": 0, "fusion_lat": 0.0, "lat": 38.964888, "type": "electric_bike", "lon": -77.08769966666667, "is_reserved": 0, "fusion_lon": 0.0, "bike_id": "919a879e0e141067ae02535840bdac68", "name": "919a879e0e141067ae02535840bdac68", "rental_uris": {"ios": "https://dc.lft.to/lastmile_qr_scan", "android": "https://dc.lft.to/lastmile_qr_scan"}}, {"is_disabled": 0, "fusion_lat": 0.0, "lat": 38.96606833333333, "type": "electric_scooter", "lon": -77.02324, "is_reserved": 0, "fusion_lon": 0.0, "bike_id": "0f074952fb542c4a9b346b5871835dae", "name": "0f074952fb542c4a9b346b5871835dae", "rental_uris": {"ios": "https://dc.lft.to/lastmile_qr_scan", "android": "https://dc.lft.to/lastmile_qr_scan"}}, {"is_disabled": 0, "fusion_lat": 0.0, "lat": 38.911069833333336, "type": "electric_scooter", "lon": -77.0483705, "is_reserved": 0, "fusion_lon": 0.0, "bike_id": "40034ed3fc947ee623189b3053073f5e", "name": "40034ed3fc947ee623189b3053073f5e", "rental_uris": {"ios": "https://dc.lft.to/lastmile_qr_scan", "android": "https://dc.lft.to/lastmile_qr_scan"}}, {"is_disabled": 0, "fusion_lat": 0.0, "lat": 38.890140333333335, "type": "electric_scooter", "lon": -76.93746183333333, "is_reserved": 0, "fusion_lon": 0.0, "bike_id": "ffadfd00ca5436cb57314e9ec6c683c8", "name": "ffadfd00ca5436cb57314e9ec6c683c8", "rental_uris": {"ios": "https://dc.lft.to/lastmile_qr_scan", "android": "https://dc.lft.to/lastmile_qr_scan"}}, {"is_disabled": 0, "fusion_lat": 0.0, "lat": 38.95262133333333, "type": "electric_bike", "lon": -77.06983383333333, "is_reserved": 0, "fusion_lon": 0.0, "bike_id": "f07e13f417fb78d01250015ee3ca2d6e", "name": "f07e13f417fb78d01250015ee3ca2d6e", "rental_uris": {"ios": "https://dc.lft.to/lastmile_qr_scan", "android": "https://dc.lft.to/lastmile_qr_scan"}}, {"is_disabled": 0, "fusion_lat": 0.0, "lat": 38.92600383333333, "type": "electric_scooter", "lon": -77.05694733333333, "is_reserved": 0, "fusion_lon": 0.0, "bike_id": "14b31d70ded59cfb203443ebe3b20fa1", "name": "14b31d70ded59cfb203443ebe3b20fa1", "rental_uris": {"ios": "https://dc.lft.to/lastmile_qr_scan", "android": "https://dc.lft.to/lastmile_qr_scan"}}, {"is_disabled": 0, "fusion_lat": 0.0, "lat": 38.898951833333335, "type": "electric_scooter", "lon": -77.00733783333334, "is_reserved": 0, "fusion_lon": 0.0, "bike_id": "84985fcbf4095476440c61c4dc684e4e", "name": "84985fcbf4095476440c61c4dc684e4e", "rental_uris": {"ios": "https://dc.lft.to/lastmile_qr_scan", "android": "https://dc.lft.to/lastmile_qr_scan"}}, {"is_disabled": 0, "fusion_lat": 0.0, "lat": 38.82081866666667, "type": "electric_bike", "lon": -77.053645, "is_reserved": 0, "fusion_lon": 0.0, "bike_id": "3a7f8bf76de296e3e78e2b5a623f3cd3", "name": "3a7f8bf76de296e3e78e2b5a623f3cd3", "rental_uris": {"ios": "https://dc.lft.to/lastmile_qr_scan", "android": "https://dc.lft.to/lastmile_qr_scan"}}, {"is_disabled": 0, "fusion_lat": 0.0, "lat": 38.91820033333333, "type": "electric_scooter", "lon": -77.03528916666667, "is_reserved": 0, "fusion_lon": 0.0, "bike_id": "4ea8dc0c82efb503b2f445eda682ce02", "name": "4ea8dc0c82efb503b2f445eda682ce02", "rental_uris": {"ios": "https://dc.lft.to/lastmile_qr_scan", "android": "https://dc.lft.to/lastmile_qr_scan"}}, {"is_disabled": 0, "fusion_lat": 0.0, "lat": 38.923216333333336, "type": "electric_scooter", "lon": -77.03896516666667, "is_reserved": 0, "fusion_lon": 0.0, "bike_id": "cd1766d9b774097b164a3e354a0a3091", "name": "cd1766d9b774097b164a3e354a0a3091", "rental_uris": {"ios": "https://dc.lft.to/lastmile_qr_scan", "android": "https://dc.lft.to/lastmile_qr_scan"}}, {"is_disabled": 0, "fusion_lat": 0.0, "lat": 38.9508365, "type": "electric_scooter", "lon": -77.028317, "is_reserved": 0, "fusion_lon": 0.0, "bike_id": "01709c35fd7cc51d1c8c72ed4258eb99", "name": "01709c35fd7cc51d1c8c72ed4258eb99", "rental_uris": {"ios": "https://dc.lft.to/lastmile_qr_scan", "android": "https://dc.lft.to/lastmile_qr_scan"}}, {"is_disabled": 0, "fusion_lat": 0.0, "lat": 38.90972133333333, "type": "electric_scooter", "lon": -77.03870716666667, "is_reserved": 0, "fusion_lon": 0.0, "bike_id": "fa1d739cbf82567259350c58d30560bb", "name": "fa1d739cbf82567259350c58d30560bb", "rental_uris": {"ios": "https://dc.lft.to/lastmile_qr_scan", "android": "https://dc.lft.to/lastmile_qr_scan"}}, {"is_disabled": 0, "fusion_lat": 0.0, "lat": 38.94084266666667, "type": "electric_scooter", "lon": -77.027216, "is_reserved": 0, "fusion_lon": 0.0, "bike_id": "9ab0bd8e3ad4a76246acbd815544fd07", "name": "9ab0bd8e3ad4a76246acbd815544fd07", "rental_uris": {"ios": "https://dc.lft.to/lastmile_qr_scan", "android": "https://dc.lft.to/lastmile_qr_scan"}}, {"is_disabled": 0, "fusion_lat": 0.0, "lat": 38.919571, "type": "electric_scooter", "lon": -77.032111, "is_reserved": 0, "fusion_lon": 0.0, "bike_id": "dd6fb6231da9072578665374eeb68a71", "name": "dd6fb6231da9072578665374eeb68a71", "rental_uris": {"ios": "https://dc.lft.to/lastmile_qr_scan", "android": "https://dc.lft.to/lastmile_qr_scan"}}, {"is_disabled": 0, "fusion_lat": 0.0, "lat": 38.90670466666667, "type": "electric_scooter", "lon": -77.0271955, "is_reserved": 0, "fusion_lon": 0.0, "bike_id": "78ec6190450eccf6a92be2182e4fbffa", "name": "78ec6190450eccf6a92be2182e4fbffa", "rental_uris": {"ios": "https://dc.lft.to/lastmile_qr_scan", "android": "https://dc.lft.to/lastmile_qr_scan"}}, {"is_disabled": 0, "fusion_lat": 0.0, "lat": 38.91922016666667, "type": "electric_scooter", "lon": -77.03422916666666, "is_reserved": 0, "fusion_lon": 0.0, "bike_id": "684cd9e786c6b9f2fcc7a12c68942869", "name": "684cd9e786c6b9f2fcc7a12c68942869", "rental_uris": {"ios": "https://dc.lft.to/lastmile_qr_scan", "android": "https://dc.lft.to/lastmile_qr_scan"}}, {"is_disabled": 0, "fusion_lat": 0.0, "lat": 38.935341666666666, "type": "electric_scooter", "lon": -77.02355383333334, "is_reserved": 0, "fusion_lon": 0.0, "bike_id": "8d38782307afd67d0f5c35c7187796d3", "name": "8d38782307afd67d0f5c35c7187796d3", "rental_uris": {"ios": "https://dc.lft.to/lastmile_qr_scan", "android": "https://dc.lft.to/lastmile_qr_scan"}}, {"is_disabled": 0, "fusion_lat": 0.0, "lat": 38.93765916666667, "type": "electric_scooter", "lon": -77.0211815, "is_reserved": 0, "fusion_lon": 0.0, "bike_id": "d5b443b2da9de3d0d32027dc342de6b4", "name": "d5b443b2da9de3d0d32027dc342de6b4", "rental_uris": {"ios": "https://dc.lft.to/lastmile_qr_scan", "android": "https://dc.lft.to/lastmile_qr_scan"}}, {"is_disabled": 0, "fusion_lat": 0.0, "lat": 38.9195025, "type": "electric_scooter", "lon": -77.03203716666667, "is_reserved": 0, "fusion_lon": 0.0, "bike_id": "4e4bbaee29bbb1f45eb8242a6a5789ee", "name": "4e4bbaee29bbb1f45eb8242a6a5789ee", "rental_uris": {"ios": "https://dc.lft.to/lastmile_qr_scan", "android": "https://dc.lft.to/lastmile_qr_scan"}}, {"is_disabled": 0, "fusion_lat": 0.0, "lat": 38.907922, "type": "electric_scooter", "lon": -77.044792, "is_reserved": 0, "fusion_lon": 0.0, "bike_id": "026e99997a89ceeab6719571e6d7c0a3", "name": "026e99997a89ceeab6719571e6d7c0a3", "rental_uris": {"ios": "https://dc.lft.to/lastmile_qr_scan", "android": "https://dc.lft.to/lastmile_qr_scan"}}, {"is_disabled": 0, "fusion_lat": 0.0, "lat": 38.92638133333333, "type": "electric_scooter", "lon": -77.01339716666666, "is_reserved": 0, "fusion_lon": 0.0, "bike_id": "2573fd4405802adc9a892e526c56f369", "name": "2573fd4405802adc9a892e526c56f369", "rental_uris": {"ios": "https://dc.lft.to/lastmile_qr_scan", "android": "https://dc.lft.to/lastmile_qr_scan"}}, {"is_disabled": 0, "fusion_lat": 0.0, "lat": 38.944256, "type": "electric_scooter", "lon": -76.9919855, "is_reserved": 0, "fusion_lon": 0.0, "bike_id": "bc582de372db47155818b413f58c4cb9", "name": "bc582de372db47155818b413f58c4cb9", "rental_uris": {"ios": "https://dc.lft.to/lastmile_qr_scan", "android": "https://dc.lft.to/lastmile_qr_scan"}}, {"is_disabled": 0, "fusion_lat": 0.0, "lat": 38.905652, "type": "electric_scooter", "lon": -77.0410935, "is_reserved": 0, "fusion_lon": 0.0, "bike_id": "77971c8f1f3ef25a16830dd7da8061eb", "name": "77971c8f1f3ef25a16830dd7da8061eb", "rental_uris": {"ios": "https://dc.lft.to/lastmile_qr_scan", "android": "https://dc.lft.to/lastmile_qr_scan"}}, {"is_disabled": 0, "fusion_lat": 0.0, "lat": 38.9210915, "type": "electric_scooter", "lon": -77.0438815, "is_reserved": 0, "fusion_lon": 0.0, "bike_id": "ef168f61688c6fcd79c5ee2d546d5e18", "name": "ef168f61688c6fcd79c5ee2d546d5e18", "rental_uris": {"ios": "https://dc.lft.to/lastmile_qr_scan", "android": "https://dc.lft.to/lastmile_qr_scan"}}, {"is_disabled": 0, "fusion_lat": 0.0, "lat": 38.89499283333333, "type": "electric_scooter", "lon": -77.0229975, "is_reserved": 0, "fusion_lon": 0.0, "bike_id": "196a1f9ff0956bd2d35b4d943107da0d", "name": "196a1f9ff0956bd2d35b4d943107da0d", "rental_uris": {"ios": "https://dc.lft.to/lastmile_qr_scan", "android": "https://dc.lft.to/lastmile_qr_scan"}}, {"is_disabled": 0, "fusion_lat": 0.0, "lat": 38.93472583333333, "type": "electric_scooter", "lon": -77.01932583333334, "is_reserved": 0, "fusion_lon": 0.0, "bike_id": "288aee7dbc9b9583e7f826f08ee43305", "name": "288aee7dbc9b9583e7f826f08ee43305", "rental_uris": {"ios": "https://dc.lft.to/lastmile_qr_scan", "android": "https://dc.lft.to/lastmile_qr_scan"}}, {"is_disabled": 0, "fusion_lat": 0.0, "lat": 38.897042666666664, "type": "electric_scooter", "lon": -77.02661483333333, "is_reserved": 0, "fusion_lon": 0.0, "bike_id": "555b01feb0b08f298139b95070ff3dc4", "name": "555b01feb0b08f298139b95070ff3dc4", "rental_uris": {"ios": "https://dc.lft.to/lastmile_qr_scan", "android": "https://dc.lft.to/lastmile_qr_scan"}}, {"is_disabled": 0, "fusion_lat": 0.0, "lat": 38.90284116666667, "type": "electric_scooter", "lon": -77.03841416666667, "is_reserved": 0, "fusion_lon": 0.0, "bike_id": "b59995d9035a953d1e80fc85e53953c7", "name": "b59995d9035a953d1e80fc85e53953c7", "rental_uris": {"ios": "https://dc.lft.to/lastmile_qr_scan", "android": "https://dc.lft.to/lastmile_qr_scan"}}, {"is_disabled": 0, "fusion_lat": 0.0, "lat": 38.88502183333333, "type": "electric_scooter", "lon": -77.005671, "is_reserved": 0, "fusion_lon": 0.0, "bike_id": "3f6c317456daa2be845c5bbaed0ae70d", "name": "3f6c317456daa2be845c5bbaed0ae70d", "rental_uris": {"ios": "https://dc.lft.to/lastmile_qr_scan", "android": "https://dc.lft.to/lastmile_qr_scan"}}, {"is_disabled": 0, "fusion_lat": 0.0, "lat": 38.89220133333333, "type": "electric_scooter", "lon": -77.02224283333334, "is_reserved": 0, "fusion_lon": 0.0, "bike_id": "ffeb1a9472b06eda906f0ec98bc17ed9", "name": "ffeb1a9472b06eda906f0ec98bc17ed9", "rental_uris": {"ios": "https://dc.lft.to/lastmile_qr_scan", "android": "https://dc.lft.to/lastmile_qr_scan"}}, {"is_disabled": 0, "fusion_lat": 0.0, "lat": 38.927248, "type": "electric_scooter", "lon": -77.03979266666667, "is_reserved": 0, "fusion_lon": 0.0, "bike_id": "0f5c740c54d3e3637bb6c380382f6714", "name": "0f5c740c54d3e3637bb6c380382f6714", "rental_uris": {"ios": "https://dc.lft.to/lastmile_qr_scan", "android": "https://dc.lft.to/lastmile_qr_scan"}}, {"is_disabled": 0, "fusion_lat": 0.0, "lat": 38.89341616666667, "type": "electric_scooter", "lon": -76.94935083333333, "is_reserved": 0, "fusion_lon": 0.0, "bike_id": "075663b03ad588c31093cebee675d666", "name": "075663b03ad588c31093cebee675d666", "rental_uris": {"ios": "https://dc.lft.to/lastmile_qr_scan", "android": "https://dc.lft.to/lastmile_qr_scan"}}, {"is_disabled": 0, "fusion_lat": 0.0, "lat": 38.88124333333333, "type": "electric_scooter", "lon": -77.00100233333333, "is_reserved": 0, "fusion_lon": 0.0, "bike_id": "2622ed3dd8bb8e1a445183a266ba62ba", "name": "2622ed3dd8bb8e1a445183a266ba62ba", "rental_uris": {"ios": "https://dc.lft.to/lastmile_qr_scan", "android": "https://dc.lft.to/lastmile_qr_scan"}}, {"is_disabled": 0, "fusion_lat": 0.0, "lat": 38.965567666666665, "type": "electric_bike", "lon": -77.02305716666666, "is_reserved": 0, "fusion_lon": 0.0, "bike_id": "0e73919444879cff5b000325185646b2", "name": "0e73919444879cff5b000325185646b2", "rental_uris": {"ios": "https://dc.lft.to/lastmile_qr_scan", "android": "https://dc.lft.to/lastmile_qr_scan"}}, {"is_disabled": 0, "fusion_lat": 0.0, "lat": 38.87374066666667, "type": "electric_bike", "lon": -77.117981, "is_reserved": 0, "fusion_lon": 0.0, "bike_id": "aa3959d8daa5436947edc1ecef9c16d5", "name": "aa3959d8daa5436947edc1ecef9c16d5", "rental_uris": {"ios": "https://dc.lft.to/lastmile_qr_scan", "android": "https://dc.lft.to/lastmile_qr_scan"}}, {"is_disabled": 0, "fusion_lat": 0.0, "lat": 38.91947733333333, "type": "electric_scooter", "lon": -77.04154316666667, "is_reserved": 0, "fusion_lon": 0.0, "bike_id": "3df34390a182b7c77a42edaeb6370789", "name": "3df34390a182b7c77a42edaeb6370789", "rental_uris": {"ios": "https://dc.lft.to/lastmile_qr_scan", "android": "https://dc.lft.to/lastmile_qr_scan"}}, {"is_disabled": 0, "fusion_lat": 0.0, "lat": 38.93793766666667, "type": "electric_scooter", "lon": -77.06006533333333, "is_reserved": 0, "fusion_lon": 0.0, "bike_id": "126cf46ad89575668974c07897474ae3", "name": "126cf46ad89575668974c07897474ae3", "rental_uris": {"ios": "https://dc.lft.to/lastmile_qr_scan", "android": "https://dc.lft.to/lastmile_qr_scan"}}, {"is_disabled": 0, "fusion_lat": 0.0, "lat": 38.922803, "type": "electric_scooter", "lon": -77.04144983333333, "is_reserved": 0, "fusion_lon": 0.0, "bike_id": "74639a4dbea828e0503b79850824f572", "name": "74639a4dbea828e0503b79850824f572", "rental_uris": {"ios": "https://dc.lft.to/lastmile_qr_scan", "android": "https://dc.lft.to/lastmile_qr_scan"}}, {"is_disabled": 0, "fusion_lat": 0.0, "lat": 38.9124675, "type": "electric_scooter", "lon": -77.0222675, "is_reserved": 0, "fusion_lon": 0.0, "bike_id": "733cee20afa5f0ef15d4fa66d23a965b", "name": "733cee20afa5f0ef15d4fa66d23a965b", "rental_uris": {"ios": "https://dc.lft.to/lastmile_qr_scan", "android": "https://dc.lft.to/lastmile_qr_scan"}}, {"is_disabled": 0, "fusion_lat": 0.0, "lat": 38.933616666666666, "type": "electric_scooter", "lon": -77.0345005, "is_reserved": 0, "fusion_lon": 0.0, "bike_id": "0e6ecb2951c51ed068d26fa97737d3fd", "name": "0e6ecb2951c51ed068d26fa97737d3fd", "rental_uris": {"ios": "https://dc.lft.to/lastmile_qr_scan", "android": "https://dc.lft.to/lastmile_qr_scan"}}, {"is_disabled": 0, "fusion_lat": 0.0, "lat": 38.91693216666667, "type": "electric_scooter", "lon": -77.01234066666666, "is_reserved": 0, "fusion_lon": 0.0, "bike_id": "7c68a1feadaac400c0464fee56c1e744", "name": "7c68a1feadaac400c0464fee56c1e744", "rental_uris": {"ios": "https://dc.lft.to/lastmile_qr_scan", "android": "https://dc.lft.to/lastmile_qr_scan"}}, {"is_disabled": 0, "fusion_lat": 0.0, "lat": 38.91331183333333, "type": "electric_scooter", "lon": -77.04815283333333, "is_reserved": 0, "fusion_lon": 0.0, "bike_id": "e14fd6915e1c20061aaefdb098b7ebec", "name": "e14fd6915e1c20061aaefdb098b7ebec", "rental_uris": {"ios": "https://dc.lft.to/lastmile_qr_scan", "android": "https://dc.lft.to/lastmile_qr_scan"}}, {"is_disabled": 0, "fusion_lat": 0.0, "lat": 38.89797683333333, "type": "electric_scooter", "lon": -77.0190435, "is_reserved": 0, "fusion_lon": 0.0, "bike_id": "aa271c6306ce9855761e38b8ab04c2ba", "name": "aa271c6306ce9855761e38b8ab04c2ba", "rental_uris": {"ios": "https://dc.lft.to/lastmile_qr_scan", "android": "https://dc.lft.to/lastmile_qr_scan"}}, {"is_disabled": 0, "fusion_lat": 0.0, "lat": 38.91305466666667, "type": "electric_bike", "lon": -77.0829255, "is_reserved": 0, "fusion_lon": 0.0, "bike_id": "352ed959a5626c4b5c11d656f6dee64e", "name": "352ed959a5626c4b5c11d656f6dee64e", "rental_uris": {"ios": "https://dc.lft.to/lastmile_qr_scan", "android": "https://dc.lft.to/lastmile_qr_scan"}}, {"is_disabled": 0, "fusion_lat": 0.0, "lat": 38.87918916666667, "type": "electric_scooter", "lon": -76.99252033333333, "is_reserved": 0, "fusion_lon": 0.0, "bike_id": "3a7862ebefe4e3298cd355b1cc133005", "name": "3a7862ebefe4e3298cd355b1cc133005", "rental_uris": {"ios": "https://dc.lft.to/lastmile_qr_scan", "android": "https://dc.lft.to/lastmile_qr_scan"}}, {"is_disabled": 0, "fusion_lat": 0.0, "lat": 38.9325185, "type": "electric_scooter", "lon": -77.03286333333334, "is_reserved": 0, "fusion_lon": 0.0, "bike_id": "ea331417a0c3ca958ec3232b3638b9b1", "name": "ea331417a0c3ca958ec3232b3638b9b1", "rental_uris": {"ios": "https://dc.lft.to/lastmile_qr_scan", "android": "https://dc.lft.to/lastmile_qr_scan"}}, {"is_disabled": 0, "fusion_lat": 0.0, "lat": 38.908135333333334, "type": "electric_scooter", "lon": -76.99856066666666, "is_reserved": 0, "fusion_lon": 0.0, "bike_id": "9ef4f38f3f07be2215100caa57390091", "name": "9ef4f38f3f07be2215100caa57390091", "rental_uris": {"ios": "https://dc.lft.to/lastmile_qr_scan", "android": "https://dc.lft.to/lastmile_qr_scan"}}, {"is_disabled": 0, "fusion_lat": 0.0, "lat": 38.8995355, "type": "electric_scooter", "lon": -77.05176266666666, "is_reserved": 0, "fusion_lon": 0.0, "bike_id": "7dce4006e5d365db036f628c8bae15dc", "name": "7dce4006e5d365db036f628c8bae15dc", "rental_uris": {"ios": "https://dc.lft.to/lastmile_qr_scan", "android": "https://dc.lft.to/lastmile_qr_scan"}}, {"is_disabled": 0, "fusion_lat": 0.0, "lat": 38.905736833333336, "type": "electric_scooter", "lon": -77.029905, "is_reserved": 0, "fusion_lon": 0.0, "bike_id": "921385bc54a76b2357b87ce28bffab17", "name": "921385bc54a76b2357b87ce28bffab17", "rental_uris": {"ios": "https://dc.lft.to/lastmile_qr_scan", "android": "https://dc.lft.to/lastmile_qr_scan"}}, {"is_disabled": 0, "fusion_lat": 0.0, "lat": 38.822584166666665, "type": "electric_bike", "lon": -77.00562, "is_reserved": 0, "fusion_lon": 0.0, "bike_id": "6597ccefe94b0e23d5fd193adf898470", "name": "6597ccefe94b0e23d5fd193adf898470", "rental_uris": {"ios": "https://dc.lft.to/lastmile_qr_scan", "android": "https://dc.lft.to/lastmile_qr_scan"}}, {"is_disabled": 0, "fusion_lat": 0.0, "lat": 38.90815116666667, "type": "electric_scooter", "lon": -77.04353083333334, "is_reserved": 0, "fusion_lon": 0.0, "bike_id": "f506f34267360e54650f34dc158c06f5", "name": "f506f34267360e54650f34dc158c06f5", "rental_uris": {"ios": "https://dc.lft.to/lastmile_qr_scan", "android": "https://dc.lft.to/lastmile_qr_scan"}}, {"is_disabled": 0, "fusion_lat": 0.0, "lat": 38.8921645, "type": "electric_scooter", "lon": -77.02644466666666, "is_reserved": 0, "fusion_lon": 0.0, "bike_id": "87f0d815a29e4deb4799db555d41db3e", "name": "87f0d815a29e4deb4799db555d41db3e", "rental_uris": {"ios": "https://dc.lft.to/lastmile_qr_scan", "android": "https://dc.lft.to/lastmile_qr_scan"}}, {"is_disabled": 0, "fusion_lat": 0.0, "lat": 38.9261065, "type": "electric_scooter", "lon": -77.03775516666667, "is_reserved": 0, "fusion_lon": 0.0, "bike_id": "2ccb57bf2e74b4d76900cb7ef2440a43", "name": "2ccb57bf2e74b4d76900cb7ef2440a43", "rental_uris": {"ios": "https://dc.lft.to/lastmile_qr_scan", "android": "https://dc.lft.to/lastmile_qr_scan"}}, {"is_disabled": 0, "fusion_lat": 0.0, "lat": 38.8926205, "type": "electric_scooter", "lon": -76.94158, "is_reserved": 0, "fusion_lon": 0.0, "bike_id": "16c3a3ca08850f02c5a898dd5ab0621d", "name": "16c3a3ca08850f02c5a898dd5ab0621d", "rental_uris": {"ios": "https://dc.lft.to/lastmile_qr_scan", "android": "https://dc.lft.to/lastmile_qr_scan"}}, {"is_disabled": 0, "fusion_lat": 0.0, "lat": 38.89737866666667, "type": "electric_scooter", "lon": -77.0468385, "is_reserved": 0, "fusion_lon": 0.0, "bike_id": "6c00c939555539b1c53b97964845de27", "name": "6c00c939555539b1c53b97964845de27", "rental_uris": {"ios": "https://dc.lft.to/lastmile_qr_scan", "android": "https://dc.lft.to/lastmile_qr_scan"}}, {"is_disabled": 0, "fusion_lat": 0.0, "lat": 38.89222566666667, "type": "electric_scooter", "lon": -77.0465495, "is_reserved": 0, "fusion_lon": 0.0, "bike_id": "cd31c627167d1e2b4e0df9ef5916ddcd", "name": "cd31c627167d1e2b4e0df9ef5916ddcd", "rental_uris": {"ios": "https://dc.lft.to/lastmile_qr_scan", "android": "https://dc.lft.to/lastmile_qr_scan"}}, {"is_disabled": 0, "fusion_lat": 0.0, "lat": 38.91412366666667, "type": "electric_scooter", "lon": -77.0128165, "is_reserved": 0, "fusion_lon": 0.0, "bike_id": "ade9494d33e577e46c0791aaee6bc8e9", "name": "ade9494d33e577e46c0791aaee6bc8e9", "rental_uris": {"ios": "https://dc.lft.to/lastmile_qr_scan", "android": "https://dc.lft.to/lastmile_qr_scan"}}, {"is_disabled": 0, "fusion_lat": 0.0, "lat": 38.9233275, "type": "electric_scooter", "lon": -77.03581033333333, "is_reserved": 0, "fusion_lon": 0.0, "bike_id": "eef4e2bd90d8daa5cbefd42601f57d42", "name": "eef4e2bd90d8daa5cbefd42601f57d42", "rental_uris": {"ios": "https://dc.lft.to/lastmile_qr_scan", "android": "https://dc.lft.to/lastmile_qr_scan"}}, {"is_disabled": 0, "fusion_lat": 0.0, "lat": 38.9225245, "type": "electric_scooter", "lon": -77.03407833333333, "is_reserved": 0, "fusion_lon": 0.0, "bike_id": "4339beb32dc18b02344407fdec1c5eb9", "name": "4339beb32dc18b02344407fdec1c5eb9", "rental_uris": {"ios": "https://dc.lft.to/lastmile_qr_scan", "android": "https://dc.lft.to/lastmile_qr_scan"}}, {"is_disabled": 0, "fusion_lat": 0.0, "lat": 38.874750666666664, "type": "electric_scooter", "lon": -77.0107185, "is_reserved": 0, "fusion_lon": 0.0, "bike_id": "748579ada88abc73f9af5d52816e5030", "name": "748579ada88abc73f9af5d52816e5030", "rental_uris": {"ios": "https://dc.lft.to/lastmile_qr_scan", "android": "https://dc.lft.to/lastmile_qr_scan"}}, {"is_disabled": 0, "fusion_lat": 0.0, "lat": 38.89609383333333, "type": "electric_scooter", "lon": -77.04506166666667, "is_reserved": 0, "fusion_lon": 0.0, "bike_id": "285cb6c66765cae92d1270dc930c4437", "name": "285cb6c66765cae92d1270dc930c4437", "rental_uris": {"ios": "https://dc.lft.to/lastmile_qr_scan", "android": "https://dc.lft.to/lastmile_qr_scan"}}, {"is_disabled": 0, "fusion_lat": 0.0, "lat": 38.864309666666664, "type": "electric_scooter", "lon": -76.97374783333333, "is_reserved": 0, "fusion_lon": 0.0, "bike_id": "ccb5875fc75cc0abc94f4d8a19b00c17", "name": "ccb5875fc75cc0abc94f4d8a19b00c17", "rental_uris": {"ios": "https://dc.lft.to/lastmile_qr_scan", "android": "https://dc.lft.to/lastmile_qr_scan"}}, {"is_disabled": 0, "fusion_lat": 0.0, "lat": 38.894541, "type": "electric_bike", "lon": -76.97034466666666, "is_reserved": 0, "fusion_lon": 0.0, "bike_id": "39993d95486a578de87cb4c5b514d6c8", "name": "39993d95486a578de87cb4c5b514d6c8", "rental_uris": {"ios": "https://dc.lft.to/lastmile_qr_scan", "android": "https://dc.lft.to/lastmile_qr_scan"}}, {"is_disabled": 0, "fusion_lat": 0.0, "lat": 38.87673266666667, "type": "electric_scooter", "lon": -77.0043765, "is_reserved": 0, "fusion_lon": 0.0, "bike_id": "62a2007d034587eec13818a06cfb78fa", "name": "62a2007d034587eec13818a06cfb78fa", "rental_uris": {"ios": "https://dc.lft.to/lastmile_qr_scan", "android": "https://dc.lft.to/lastmile_qr_scan"}}, {"is_disabled": 0, "fusion_lat": 0.0, "lat": 38.86616633333333, "type": "electric_scooter", "lon": -76.98673616666666, "is_reserved": 0, "fusion_lon": 0.0, "bike_id": "6c0e083eba6dbb5dc16de48d9113b01b", "name": "6c0e083eba6dbb5dc16de48d9113b01b", "rental_uris": {"ios": "https://dc.lft.to/lastmile_qr_scan", "android": "https://dc.lft.to/lastmile_qr_scan"}}, {"is_disabled": 0, "fusion_lat": 0.0, "lat": 38.904491, "type": "electric_scooter", "lon": -77.0592615, "is_reserved": 0, "fusion_lon": 0.0, "bike_id": "a43056ac37d341a3d2915aa30afb27f9", "name": "a43056ac37d341a3d2915aa30afb27f9", "rental_uris": {"ios": "https://dc.lft.to/lastmile_qr_scan", "android": "https://dc.lft.to/lastmile_qr_scan"}},