{"data": {"bikes": [{"name": "c9369afcf34df87cbd1f54e63da97544", "fusion_lon": 0.0, "lat": 38.92285016666666, "is_reserved": 0, "type": "electric_scooter", "bike_id": "c9369afcf34df87cbd1f54e63da97544", "is_disabled": 0, "rental_uris": {"android": "https://dc.lft.to/lastmile_qr_scan", "ios": "https://dc.lft.to/lastmile_qr_scan"}, "lon": -77.01839666666666, "fusion_lat": 0.0}, {"name": "401add67b0746761f5e5da1a8e5bd8c2", "fusion_lon": 0.0, "lat": 38.930079, "is_reserved": 0, "type": "electric_scooter", "bike_id": "401add67b0746761f5e5da1a8e5bd8c2", "is_disabled": 0, "rental_uris": {"android": "https://dc.lft.to/lastmile_qr_scan", "ios": "https://dc.lft.to/lastmile_qr_scan"}, "lon": -77.02110416666666, "fusion_lat": 0.0}, {"name": "ce01e4a8495e67299e29f281c911ae84", "fusion_lon": 0.0, "lat": 38.920706833333334, "is_reserved": 0, "type": "electric_scooter", "bike_id": "ce01e4a8495e67299e29f281c911ae84", "is_disabled": 0, "rental_uris": {"android": "https://dc.lft.to/lastmile_qr_scan", "ios": "https://dc.lft.to/lastmile_qr_scan"}, "lon": -77.02409716666666, "fusion_lat": 0.0}, {"name": "1d80ec97241ad9a8b4dfb2887c0649fb", "fusion_lon": 0.0, "lat": 38.9096575, "is_reserved": 0, "type": "electric_scooter", "bike_id": "1d80ec97241ad9a8b4dfb2887c0649fb", "is_disabled": 0, "rental_uris": {"android": "https://dc.lft.to/lastmile_qr_scan", "ios": "https://dc.lft.to/lastmile_qr_scan"}, "lon": -77.03592366666666, "fusion_lat": 0.0}, {"name": "a940ed3864db0722194146426583c76a", "fusion_lon": 0.0, "lat": 38.86514016666667, "is_reserved": 0, "type": "electric_scooter", "bike_id": "a940ed3864db0722194146426583c76a", "is_disabled": 0, "rental_uris": {"android": "https://dc.lft.to/lastmile_qr_scan", "ios": "https://dc.lft.to/lastmile_qr_scan"}, "lon": -76.990178, "fusion_lat": 0.0}, {"name": "ad61024d67a04fd74ad45a27c792540e", "fusion_lon": 0.0, "lat": 38.904404666666665, "is_reserved": 0, "type": "electric_scooter", "bike_id": "ad61024d67a04fd74ad45a27c792540e", "is_disabled": 0, "rental_uris": {"android": "https://dc.lft.to/lastmile_qr_scan", "ios": "https://dc.lft.to/lastmile_qr_scan"}, "lon": -76.98003366666667, "fusion_lat": 0.0}, {"name": "80e21bf5786923d0ed6f6f5898920552", "fusion_lon": 0.0, "lat": 38.91563133333333, "is_reserved": 0, "type": "electric_scooter", "bike_id": "80e21bf5786923d0ed6f6f5898920552", "is_disabled": 0, "rental_uris": {"android": "https://dc.lft.to/lastmile_qr_scan", "ios": "https://dc.lft.to/lastmile_qr_scan"}, "lon": -77.0376385, "fusion_lat": 0.0}, {"name": "d2f4f45aa59897aac99f0c77226c45d1", "fusion_lon": 0.0, "lat": 38.898506, "is_reserved": 0, "type": "electric_scooter", "bike_id": "d2f4f45aa59897aac99f0c77226c45d1", "is_disabled": 0, "rental_uris": {"android": "https://dc.lft.to/lastmile_qr_scan", "ios": "https://dc.lft.to/lastmile_qr_scan"}, "lon": -77.0239395, "fusion_lat": 0.0}, {"name": "6c4a9e3d1625c3828f2b10690c1aaa3f", "fusion_lon": 0.0, "lat": 38.9030625, "is_reserved": 0, "type": "electric_scooter", "bike_id": "6c4a9e3d1625c3828f2b10690c1aaa3f", "is_disabled": 0, "rental_uris": {"android": "https://dc.lft.to/lastmile_qr_scan", "ios": "https://dc.lft.to/lastmile_qr_scan"}, "lon": -77.0381675, "fusion_lat": 0.0}, {"name": "3dbe0dcac252c53f85ffe6a53a01ac4a", "fusion_lon": 0.0, "lat": 38.8853265, "is_reserved": 0, "type": "electric_scooter", "bike_id": "3dbe0dcac252c53f85ffe6a53a01ac4a", "is_disabled": 0, "rental_uris": {"android": "https://dc.lft.to/lastmile_qr_scan", "ios": "https://dc.lft.to/lastmile_qr_scan"}, "lon": -76.998269, "fusion_lat": 0.0}, {"name": "7d82d08da740b955d249563ac47127c5", "fusion_lon": 0.0, "lat": 38.928641166666665, "is_reserved": 0, "type": "electric_scooter", "bike_id": "7d82d08da740b955d249563ac47127c5", "is_disabled": 0, "rental_uris": {"android": "https://dc.lft.to/lastmile_qr_scan", "ios": "https://dc.lft.to/lastmile_qr_scan"}, "lon": -77.03302566666666, "fusion_lat": 0.0}, {"name": "3c040997c0a25bfeddacb2747ea428e8", "fusion_lon": 0.0, "lat": 38.90029883333333, "is_reserved": 0, "type": "electric_scooter", "bike_id": "3c040997c0a25bfeddacb2747ea428e8", "is_disabled": 0, "rental_uris": {"android": "https://dc.lft.to/lastmile_qr_scan", "ios": "https://dc.lft.to/lastmile_qr_scan"}, "lon": -77.04333866666667, "fusion_lat": 0.0}, {"name": "fd674a40b1640a4cf0b137cb6834b418", "fusion_lon": 0.0, "lat": 38.93079266666667, "is_reserved": 0, "type": "electric_scooter", "bike_id": "fd674a40b1640a4cf0b137cb6834b418", "is_disabled": 0, "rental_uris": {"android": "https://dc.lft.to/lastmile_qr_scan", "ios": "https://dc.lft.to/lastmile_qr_scan"}, "lon": -77.02791333333333, "fusion_lat": 0.0}, {"name": "b4cd9c89b77b79f316a3364ef4afdae3", "fusion_lon": 0.0, "lat": 38.96786733333333, "is_reserved": 0, "type": "electric_bike", "bike_id": "b4cd9c89b77b79f316a3364ef4afdae3", "is_disabled": 0, "rental_uris": {"android": "https://dc.lft.to/lastmile_qr_scan", "ios": "https://dc.lft.to/lastmile_qr_scan"}, "lon": -77.00037566666667, "fusion_lat": 0.0}, {"name": "86ded99bebd4ae8ba572fb7e2ac60e45", "fusion_lon": 0.0, "lat": 38.92175066666667, "is_reserved": 0, "type": "electric_scooter", "bike_id": "86ded99bebd4ae8ba572fb7e2ac60e45", "is_disabled": 0, "rental_uris": {"android": "https://dc.lft.to/lastmile_qr_scan", "ios": "https://dc.lft.to/lastmile_qr_scan"}, "lon": -77.03848466666666, "fusion_lat": 0.0}, {"name": "048628f9027527ded102244828b6d69e", "fusion_lon": 0.0, "lat": 38.88747383333333, "is_reserved": 0, "type": "electric_scooter", "bike_id": "048628f9027527ded102244828b6d69e", "is_disabled": 0, "rental_uris": {"android": "https://dc.lft.to/lastmile_qr_scan", "ios": "https://dc.lft.to/lastmile_qr_scan"}, "lon": -77.0284465, "fusion_lat": 0.0}, {"name": "be28480c5abf9a018c6d906f09b38296", "fusion_lon": 0.0, "lat": 38.92691283333333, "is_reserved": 0, "type": "electric_scooter", "bike_id": "be28480c5abf9a018c6d906f09b38296", "is_disabled": 0, "rental_uris": {"android": "https://dc.lft.to/lastmile_qr_scan", "ios": "https://dc.lft.to/lastmile_qr_scan"}, "lon": -77.02099066666666, "fusion_lat": 0.0}, {"name": "06f6eec483f54e54a9682e041063d8e8", "fusion_lon": 0.0, "lat": 38.9126595, "is_reserved": 0, "type": "electric_scooter", "bike_id": "06f6eec483f54e54a9682e041063d8e8", "is_disabled": 0, "rental_uris": {"android": "https://dc.lft.to/lastmile_qr_scan", "ios": "https://dc.lft.to/lastmile_qr_scan"}, "lon": -77.03826083333334, "fusion_lat": 0.0}, {"name": "7e394099014552f45eac93179107ab1c", "fusion_lon": 0.0, "lat": 38.92032016666667, "is_reserved": 0, "type": "electric_scooter", "bike_id": "7e394099014552f45eac93179107ab1c", "is_disabled": 0, "rental_uris": {"android": "https://dc.lft.to/lastmile_qr_scan", "ios": "https://dc.lft.to/lastmile_qr_scan"}, "lon": -77.031494, "fusion_lat": 0.0}, {"name": "4e13899f3a1c8cd671d2471865812800", "fusion_lon": 0.0, "lat": 38.922152833333335, "is_reserved": 0, "type": "electric_scooter", "bike_id": "4e13899f3a1c8cd671d2471865812800", "is_disabled": 0, "rental_uris": {"android": "https://dc.lft.to/lastmile_qr_scan", "ios": "https://dc.lft.to/lastmile_qr_scan"}, "lon": -76.98746016666666, "fusion_lat": 0.0}, {"name": "b94be0c8d6dd46948c59609cdd56ce6d", "fusion_lon": 0.0, "lat": 38.89289633333333, "is_reserved": 0, "type": "electric_bike", "bike_id": "b94be0c8d6dd46948c59609cdd56ce6d", "is_disabled": 0, "rental_uris": {"android": "https://dc.lft.to/lastmile_qr_scan", "ios": "https://dc.lft.to/lastmile_qr_scan"}, "lon": -76.97617733333334, "fusion_lat": 0.0}, {"name": "64e22487a92dee510eac0c6e8f7aac38", "fusion_lon": 0.0, "lat": 38.9010105, "is_reserved": 0, "type": "electric_scooter", "bike_id": "64e22487a92dee510eac0c6e8f7aac38", "is_disabled": 0, "rental_uris": {"android": "https://dc.lft.to/lastmile_qr_scan", "ios": "https://dc.lft.to/lastmile_qr_scan"}, "lon": -77.04997816666666, "fusion_lat": 0.0}, {"name": "243885e724200aa52eca01a90f0b1649", "fusion_lon": 0.0, "lat": 38.9180475, "is_reserved": 0, "type": "electric_scooter", "bike_id": "243885e724200aa52eca01a90f0b1649", "is_disabled": 0, "rental_uris": {"android": "https://dc.lft.to/lastmile_qr_scan", "ios": "https://dc.lft.to/lastmile_qr_scan"}, "lon": -77.034456, "fusion_lat": 0.0}, {"name": "347e140e1f95261c7d25c34665996612", "fusion_lon": 0.0, "lat": 38.91126116666667, "is_reserved": 0, "type": "electric_scooter", "bike_id": "347e140e1f95261c7d25c34665996612", "is_disabled": 0, "rental_uris": {"android": "https://dc.lft.to/lastmile_qr_scan", "ios": "https://dc.lft.to/lastmile_qr_scan"}, "lon": -77.0653555, "fusion_lat": 0.0}, {"name": "206ba91f0df3dfc30b03f732cd35c227", "fusion_lon": 0.0, "lat": 38.915682333333336, "is_reserved": 0, "type": "electric_scooter", "bike_id": "206ba91f0df3dfc30b03f732cd35c227", "is_disabled": 0, "rental_uris": {"android": "https://dc.lft.to/lastmile_qr_scan", "ios": "https://dc.lft.to/lastmile_qr_scan"}, "lon": -77.042861, "fusion_lat": 0.0}, {"name": "f9e964aa2b3c174d28913d058913b038", "fusion_lon": 0.0, "lat": 38.91768116666667, "is_reserved": 0, "type": "electric_scooter", "bike_id": "f9e964aa2b3c174d28913d058913b038", "is_disabled": 0, "rental_uris": {"android": "https://dc.lft.to/lastmile_qr_scan", "ios": "https://dc.lft.to/lastmile_qr_scan"}, "lon": -77.0150605, "fusion_lat": 0.0}, {"name": "42fa82162f27d71482eac61dc747edea", "fusion_lon": 0.0, "lat": 38.884874333333336, "is_reserved": 0, "type": "electric_scooter", "bike_id": "42fa82162f27d71482eac61dc747edea", "is_disabled": 0, "rental_uris": {"android": "https://dc.lft.to/lastmile_qr_scan", "ios": "https://dc.lft.to/lastmile_qr_scan"}, "lon": -77.0071275, "fusion_lat": 0.0}, {"name": "bfc4e148ef7ae79c4f2897ab2646122f", "fusion_lon": 0.0, "lat": 38.914028, "is_reserved": 0, "type": "electric_scooter", "bike_id": "bfc4e148ef7ae79c4f2897ab2646122f", "is_disabled": 0, "rental_uris": {"android": "https://dc.lft.to/lastmile_qr_scan", "ios": "https://dc.lft.to/lastmile_qr_scan"}, "lon": -77.0019195, "fusion_lat": 0.0}, {"name": "234c19230a3e6fe1389fd7c3c1e1840d", "fusion_lon": 0.0, "lat": 38.92457533333334, "is_reserved": 0, "type": "electric_scooter", "bike_id": "234c19230a3e6fe1389fd7c3c1e1840d", "is_disabled": 0, "rental_uris": {"android": "https://dc.lft.to/lastmile_qr_scan", "ios": "https://dc.lft.to/lastmile_qr_scan"}, "lon": -77.027163, "fusion_lat": 0.0}, {"name": "0ee5b2c287f4956fd9480579b439a191", "fusion_lon": 0.0, "lat": 38.922346166666664, "is_reserved": 0, "type": "electric_scooter", "bike_id": "0ee5b2c287f4956fd9480579b439a191", "is_disabled": 0, "rental_uris": {"android": "https://dc.lft.to/lastmile_qr_scan", "ios": "https://dc.lft.to/lastmile_qr_scan"}, "lon": -77.04495933333334, "fusion_lat": 0.0}, {"name": "c016d9327a401e46133d2bea86667bd9", "fusion_lon": 0.0, "lat": 38.84423683333333, "is_reserved": 0, "type": "electric_scooter", "bike_id": "c016d9327a401e46133d2bea86667bd9", "is_disabled": 0, "rental_uris": {"android": "https://dc.lft.to/lastmile_qr_scan", "ios": "https://dc.lft.to/lastmile_qr_scan"}, "lon": -76.99783316666667, "fusion_lat": 0.0}, {"name": "12eac542a063b7a63584febd1c3d3e32", "fusion_lon": 0.0, "lat": 38.90898383333333, "is_reserved": 0, "type": "electric_scooter", "bike_id": "12eac542a063b7a63584febd1c3d3e32", "is_disabled": 0, "rental_uris": {"android": "https://dc.lft.to/lastmile_qr_scan", "ios": "https://dc.lft.to/lastmile_qr_scan"}, "lon": -77.07283333333334, "fusion_lat": 0.0}, {"name": "d50a1660067ddb6f2695c99647e25966", "fusion_lon": 0.0, "lat": 38.902826166666664, "is_reserved": 0, "type": "electric_scooter", "bike_id": "d50a1660067ddb6f2695c99647e25966", "is_disabled": 0, "rental_uris": {"android": "https://dc.lft.to/lastmile_qr_scan", "ios": "https://dc.lft.to/lastmile_qr_scan"}, "lon": -77.0580235, "fusion_lat": 0.0}, {"name": "826dd718b005046be0604152f946f597", "fusion_lon": 0.0, "lat": 38.921147500000004, "is_reserved": 0, "type": "electric_scooter", "bike_id": "826dd718b005046be0604152f946f597", "is_disabled": 0, "rental_uris": {"android": "https://dc.lft.to/lastmile_qr_scan", "ios": "https://dc.lft.to/lastmile_qr_scan"}, "lon": -77.04427933333334, "fusion_lat": 0.0}, {"name": "3e67273ef7751b7e9e21e44d331ef657", "fusion_lon": 0.0, "lat": 38.910506833333336, "is_reserved": 0, "type": "electric_scooter", "bike_id": "3e67273ef7751b7e9e21e44d331ef657", "is_disabled": 0, "rental_uris": {"android": "https://dc.lft.to/lastmile_qr_scan", "ios": "https://dc.lft.to/lastmile_qr_scan"}, "lon": -77.0409815, "fusion_lat": 0.0}, {"name": "b4ab6a62860a83d267fbf2340a01b72f", "fusion_lon": 0.0, "lat": 38.909778, "is_reserved": 0, "type": "electric_scooter", "bike_id": "b4ab6a62860a83d267fbf2340a01b72f", "is_disabled": 0, "rental_uris": {"android": "https://dc.lft.to/lastmile_qr_scan", "ios": "https://dc.lft.to/lastmile_qr_scan"}, "lon": -77.04800766666666, "fusion_lat": 0.0}, {"name": "2e4a07865e9b50efed7937579823b3b7", "fusion_lon": 0.0, "lat": 38.923739166666664, "is_reserved": 0, "type": "electric_scooter", "bike_id": "2e4a07865e9b50efed7937579823b3b7", "is_disabled": 0, "rental_uris": {"android": "https://dc.lft.to/lastmile_qr_scan", "ios": "https://dc.lft.to/lastmile_qr_scan"}, "lon": -77.01892733333334, "fusion_lat": 0.0}, {"name": "ae6985ef46e33d4bc5f390f3298cdbb8", "fusion_lon": 0.0, "lat": 39.05786783333333, "is_reserved": 0, "type": "electric_bike", "bike_id": "ae6985ef46e33d4bc5f390f3298cdbb8", "is_disabled": 0, "rental_uris": {"android": "https://dc.lft.to/lastmile_qr_scan", "ios": "https://dc.lft.to/lastmile_qr_scan"}, "lon": -77.15015216666667, "fusion_lat": 0.0}, {"name": "1ee15df363a637459adb455b5edec9dd", "fusion_lon": 0.0, "lat": 38.93676333333333, "is_reserved": 0, "type": "electric_scooter", "bike_id": "1ee15df363a637459adb455b5edec9dd", "is_disabled": 0, "rental_uris": {"android": "https://dc.lft.to/lastmile_qr_scan", "ios": "https://dc.lft.to/lastmile_qr_scan"}, "lon": -77.03273283333333, "fusion_lat": 0.0}, {"name": "251ced8c581ebf6724f651671c0bc90b", "fusion_lon": 0.0, "lat": 38.90058, "is_reserved": 0, "type": "electric_scooter", "bike_id": "251ced8c581ebf6724f651671c0bc90b", "is_disabled": 0, "rental_uris": {"android": "https://dc.lft.to/lastmile_qr_scan", "ios": "https://dc.lft.to/lastmile_qr_scan"}, "lon": -76.934743, "fusion_lat": 0.0}, {"name": "609154f4fa903c6b1aa9d11180247be9", "fusion_lon": 0.0, "lat": 38.85692816666667, "is_reserved": 0, "type": "electric_scooter", "bike_id": "609154f4fa903c6b1aa9d11180247be9", "is_disabled": 0, "rental_uris": {"android": "https://dc.lft.to/lastmile_qr_scan", "ios": "https://dc.lft.to/lastmile_qr_scan"}, "lon": -76.98970233333333, "fusion_lat": 0.0}, {"name": "01049b4d9f3e357daff1533f5f7b8b94", "fusion_lon": 0.0, "lat": 38.923223666666665, "is_reserved": 0, "type": "electric_scooter", "bike_id": "01049b4d9f3e357daff1533f5f7b8b94", "is_disabled": 0, "rental_uris": {"android": "https://dc.lft.to/lastmile_qr_scan", "ios": "https://dc.lft.to/lastmile_qr_scan"}, "lon": -77.0213715, "fusion_lat": 0.0}, {"name": "1c6faa78e68dc8fa767ac16622780f17", "fusion_lon": 0.0, "lat": 38.930056, "is_reserved": 0, "type": "electric_scooter", "bike_id": "1c6faa78e68dc8fa767ac16622780f17", "is_disabled": 0, "rental_uris": {"android": "https://dc.lft.to/lastmile_qr_scan", "ios": "https://dc.lft.to/lastmile_qr_scan"}, "lon": -77.014295, "fusion_lat": 0.0}, {"name": "4d01f41b8a4991361f1f80ebed5f7ba7", "fusion_lon": 0.0, "lat": 38.83733766666667, "is_reserved": 0, "type": "electric_bike", "bike_id": "4d01f41b8a4991361f1f80ebed5f7ba7", "is_disabled": 0, "rental_uris": {"android": "https://dc.lft.to/lastmile_qr_scan", "ios": "https://dc.lft.to/lastmile_qr_scan"}, "lon": -77.095469, "fusion_lat": 0.0}, {"name": "62b72f160e6ed88b7e8c7c26943bcc76", "fusion_lon": 0.0, "lat": 38.9065475, "is_reserved": 0, "type": "electric_scooter", "bike_id": "62b72f160e6ed88b7e8c7c26943bcc76", "is_disabled": 0, "rental_uris": {"android": "https://dc.lft.to/lastmile_qr_scan", "ios": "https://dc.lft.to/lastmile_qr_scan"}, "lon": -77.0113815, "fusion_lat": 0.0}, {"name": "91b05c3eb82e326ca3c49794f4d037a7", "fusion_lon": 0.0, "lat": 38.916852666666664, "is_reserved": 0, "type": "electric_scooter", "bike_id": "91b05c3eb82e326ca3c49794f4d037a7", "is_disabled": 0, "rental_uris": {"android": "https://dc.lft.to/lastmile_qr_scan", "ios": "https://dc.lft.to/lastmile_qr_scan"}, "lon": -77.01577016666667, "fusion_lat": 0.0}, {"name": "a58b0e98169577f94e0b09b03523e895", "fusion_lon": 0.0, "lat": 38.90068933333333, "is_reserved": 0, "type": "electric_scooter", "bike_id": "a58b0e98169577f94e0b09b03523e895", "is_disabled": 0, "rental_uris": {"android": "https://dc.lft.to/lastmile_qr_scan", "ios": "https://dc.lft.to/lastmile_qr_scan"}, "lon": -76.988197, "fusion_lat": 0.0}, {"name": "c71c846a0bdc61514aa95d7ae2444a33", "fusion_lon": 0.0, "lat": 38.91286133333333, "is_reserved": 0, "type": "electric_scooter", "bike_id": "c71c846a0bdc61514aa95d7ae2444a33", "is_disabled": 0, "rental_uris": {"android": "https://dc.lft.to/lastmile_qr_scan", "ios": "https://dc.lft.to/lastmile_qr_scan"}, "lon": -77.03871566666666, "fusion_lat": 0.0}, {"name": "2b5a6d56b16f9e905114fdf2832c17a7", "fusion_lon": 0.0, "lat": 38.90702983333333, "is_reserved": 0, "type": "electric_scooter", "bike_id": "2b5a6d56b16f9e905114fdf2832c17a7", "is_disabled": 0, "rental_uris": {"android": "https://dc.lft.to/lastmile_qr_scan", "ios": "https://dc.lft.to/lastmile_qr_scan"}, "lon": -76.986938, "fusion_lat": 0.0}, {"name": "745e009ef7d0680fa816bae4514bbeca", "fusion_lon": 0.0, "lat": 38.91412416666667, "is_reserved": 0, "type": "electric_scooter", "bike_id": "745e009ef7d0680fa816bae4514bbeca", "is_disabled": 0, "rental_uris": {"android": "https://dc.lft.to/lastmile_qr_scan", "ios": "https://dc.lft.to/lastmile_qr_scan"}, "lon": -77.04912883333333, "fusion_lat": 0.0}, {"name": "3f92ccdc695afbd1d64755bc3c7d03c9", "fusion_lon": 0.0, "lat": 38.95754916666667, "is_reserved": 0, "type": "electric_bike", "bike_id": "3f92ccdc695afbd1d64755bc3c7d03c9", "is_disabled": 0, "rental_uris": {"android": "https://dc.lft.to/lastmile_qr_scan", "ios": "https://dc.lft.to/lastmile_qr_scan"}, "lon": -77.02057516666666, "fusion_lat": 0.0}, {"name": "67c6dd86b93c1f7a9dec91d7eb56fa89", "fusion_lon": 0.0, "lat": 38.902440166666665, "is_reserved": 0, "type": "electric_scooter", "bike_id": "67c6dd86b93c1f7a9dec91d7eb56fa89", "is_disabled": 0, "rental_uris": {"android": "https://dc.lft.to/lastmile_qr_scan", "ios": "https://dc.lft.to/lastmile_qr_scan"}, "lon": -77.00195083333334, "fusion_lat": 0.0}, {"name": "e69e74c24a50995c7f9250b04ce9a64f", "fusion_lon": 0.0, "lat": 38.874797, "is_reserved": 0, "type": "electric_bike", "bike_id": "e69e74c24a50995c7f9250b04ce9a64f", "is_disabled": 0, "rental_uris": {"android": "https://dc.lft.to/lastmile_qr_scan", "ios": "https://dc.lft.to/lastmile_qr_scan"}, "lon": -76.9653485, "fusion_lat": 0.0}, {"name": "45ecd23ff68bdb14262aaef31f8d4037", "fusion_lon": 0.0, "lat": 38.90168, "is_reserved": 0, "type": "electric_scooter", "bike_id": "45ecd23ff68bdb14262aaef31f8d4037", "is_disabled": 0, "rental_uris": {"android": "https://dc.lft.to/lastmile_qr_scan", "ios": "https://dc.lft.to/lastmile_qr_scan"}, "lon": -76.93025033333333, "fusion_lat": 0.0}, {"name": "b30dc5a07cd44b63802739011c452d29", "fusion_lon": 0.0, "lat": 38.87470966666667, "is_reserved": 0, "type": "electric_scooter", "bike_id": "b30dc5a07cd44b63802739011c452d29", "is_disabled": 0, "rental_uris": {"android": "https://dc.lft.to/lastmile_qr_scan", "ios": "https://dc.lft.to/lastmile_qr_scan"}, "lon": -77.00557866666666, "fusion_lat": 0.0}, {"name": "f3eb5be2b36effde1d1d2d84ea260f17", "fusion_lon": 0.0, "lat": 38.91326266666667, "is_reserved": 0, "type": "electric_scooter", "bike_id": "f3eb5be2b36effde1d1d2d84ea260f17", "is_disabled": 0, "rental_uris": {"android": "https://dc.lft.to/lastmile_qr_scan", "ios": "https://dc.lft.to/lastmile_qr_scan"}, "lon": -77.03170883333334, "fusion_lat": 0.0}, {"name": "36e32d7e559f612cc5664f75d10e9f4b", "fusion_lon": 0.0, "lat": 38.881312333333334, "is_reserved": 0, "type": "electric_scooter", "bike_id": "36e32d7e559f612cc5664f75d10e9f4b", "is_disabled": 0, "rental_uris": {"android": "https://dc.lft.to/lastmile_qr_scan", "ios": "https://dc.lft.to/lastmile_qr_scan"}, "lon": -77.01644283333333, "fusion_lat": 0.0}, {"name": "955a54ef30a2689d5f4ea169b909146b", "fusion_lon": 0.0, "lat": 38.9133595, "is_reserved": 0, "type": "electric_scooter", "bike_id": "955a54ef30a2689d5f4ea169b909146b", "is_disabled": 0, "rental_uris": {"android": "https://dc.lft.to/lastmile_qr_scan", "ios": "https://dc.lft.to/lastmile_qr_scan"}, "lon": -77.03178233333334, "fusion_lat": 0.0}, {"name": "6a8f553ee6db6f2597142d3e43791378", "fusion_lon": 0.0, "lat": 38.92410616666667, "is_reserved": 0, "type": "electric_scooter", "bike_id": "6a8f553ee6db6f2597142d3e43791378", "is_disabled": 0, "rental_uris": {"android": "https://dc.lft.to/lastmile_qr_scan", "ios": "https://dc.lft.to/lastmile_qr_scan"}, "lon": -77.0506675, "fusion_lat": 0.0}, {"name": "19d5713639c9f487b01de24cb60ec065", "fusion_lon": 0.0, "lat": 38.922293, "is_reserved": 0, "type": "electric_scooter", "bike_id": "19d5713639c9f487b01de24cb60ec065", "is_disabled": 0, "rental_uris": {"android": "https://dc.lft.to/lastmile_qr_scan", "ios": "https://dc.lft.to/lastmile_qr_scan"}, "lon": -77.02334633333334, "fusion_lat": 0.0}, {"name": "663593f8adfb80096d5f0d4f45e2acb9", "fusion_lon": 0.0, "lat": 38.9143005, "is_reserved": 0, "type": "electric_scooter", "bike_id": "663593f8adfb80096d5f0d4f45e2acb9", "is_disabled": 0, "rental_uris": {"android": "https://dc.lft.to/lastmile_qr_scan", "ios": "https://dc.lft.to/lastmile_qr_scan"}, "lon": -77.044841, "fusion_lat": 0.0}, {"name": "5239c269c3fa5287fea329af711f6eb5", "fusion_lon": 0.0, "lat": 38.905475333333335, "is_reserved": 0, "type": "electric_scooter", "bike_id": "5239c269c3fa5287fea329af711f6eb5", "is_disabled": 0, "rental_uris": {"android": "https://dc.lft.to/lastmile_qr_scan", "ios": "https://dc.lft.to/lastmile_qr_scan"}, "lon": -77.0466425, "fusion_lat": 0.0}, {"name": "e17e02f29d919a197b7a726119c4c6ea", "fusion_lon": 0.0, "lat": 38.917100833333336, "is_reserved": 0, "type": "electric_scooter", "bike_id": "e17e02f29d919a197b7a726119c4c6ea", "is_disabled": 0, "rental_uris": {"android": "https://dc.lft.to/lastmile_qr_scan", "ios": "https://dc.lft.to/lastmile_qr_scan"}, "lon": -77.03476133333334, "fusion_lat": 0.0}, {"name": "8d1753080fb0d336870e1b746e6f9901", "fusion_lon": 0.0, "lat": 38.870077, "is_reserved": 0, "type": "electric_bike", "bike_id": "8d1753080fb0d336870e1b746e6f9901", "is_disabled": 0, "rental_uris": {"android": "https://dc.lft.to/lastmile_qr_scan", "ios": "https://dc.lft.to/lastmile_qr_scan"}, "lon": -77.23001916666666, "fusion_lat": 0.0}, {"name": "6d07a64bd6c13e2c88ada15eec8546e0", "fusion_lon": 0.0, "lat": 38.9198875, "is_reserved": 0, "type": "electric_scooter", "bike_id": "6d07a64bd6c13e2c88ada15eec8546e0", "is_disabled": 0, "rental_uris": {"android": "https://dc.lft.to/lastmile_qr_scan", "ios": "https://dc.lft.to/lastmile_qr_scan"}, "lon": -77.0320325, "fusion_lat": 0.0}, {"name": "0035a79460fa741b3df16aa52d0e7bb5", "fusion_lon": 0.0, "lat": 38.8876415, "is_reserved": 0, "type": "electric_scooter", "bike_id": "0035a79460fa741b3df16aa52d0e7bb5", "is_disabled": 0, "rental_uris": {"android": "https://dc.lft.to/lastmile_qr_scan", "ios": "https://dc.lft.to/lastmile_qr_scan"}, "lon": -76.95593816666667, "fusion_lat": 0.0}, {"name": "bba856ee098c06a025746342d34830c3", "fusion_lon": 0.0, "lat": 39.024335, "is_reserved": 0, "type": "electric_bike", "bike_id": "bba856ee098c06a025746342d34830c3", "is_disabled": 0, "rental_uris": {"android": "https://dc.lft.to/lastmile_qr_scan", "ios": "https://dc.lft.to/lastmile_qr_scan"}, "lon": -77.13102016666667, "fusion_lat": 0.0}, {"name": "756d86ad8815529b27aa86cbeec1212a", "fusion_lon": 0.0, "lat": 38.91995216666667, "is_reserved": 0, "type": "electric_scooter", "bike_id": "756d86ad8815529b27aa86cbeec1212a", "is_disabled": 0, "rental_uris": {"android": "https://dc.lft.to/lastmile_qr_scan", "ios": "https://dc.lft.to/lastmile_qr_scan"}, "lon": -77.03206, "fusion_lat": 0.0}, {"name": "0610833eda92da8e7337cd9b372ebefd", "fusion_lon": 0.0, "lat": 38.90277733333333, "is_reserved": 0, "type": "electric_scooter", "bike_id": "0610833eda92da8e7337cd9b372ebefd", "is_disabled": 0, "rental_uris": {"android": "https://dc.lft.to/lastmile_qr_scan", "ios": "https://dc.lft.to/lastmile_qr_scan"}, "lon": -77.01779016666667, "fusion_lat": 0.0}, {"name": "dc45fc22840163b8d6cbc14769b7103d", "fusion_lon": 0.0, "lat": 38.863931, "is_reserved": 0, "type": "electric_scooter", "bike_id": "dc45fc22840163b8d6cbc14769b7103d", "is_disabled": 0, "rental_uris": {"android": "https://dc.lft.to/lastmile_qr_scan", "ios": "https://dc.lft.to/lastmile_qr_scan"}, "lon": -76.97458683333333, "fusion_lat": 0.0}, {"name": "254df2240a3a8ccc51de92ee58a67270", "fusion_lon": 0.0, "lat": 38.90568, "is_reserved": 0, "type": "electric_scooter", "bike_id": "254df2240a3a8ccc51de92ee58a67270", "is_disabled": 0, "rental_uris": {"android": "https://dc.lft.to/lastmile_qr_scan", "ios": "https://dc.lft.to/lastmile_qr_scan"}, "lon": -77.0450055, "fusion_lat": 0.0}, {"name": "7cdf43f445c39f363bf3ab88abc3b696", "fusion_lon": 0.0, "lat": 38.947815166666665, "is_reserved": 0, "type": "electric_bike", "bike_id": "7cdf43f445c39f363bf3ab88abc3b696", "is_disabled": 0, "rental_uris": {"android": "https://dc.lft.to/lastmile_qr_scan", "ios": "https://dc.lft.to/lastmile_qr_scan"}, "lon": -76.97215766666666, "fusion_lat": 0.0}, {"name": "942a3ac40012cd220698f1413829662f", "fusion_lon": 0.0, "lat": 38.920938166666666, "is_reserved": 0, "type": "electric_scooter", "bike_id": "942a3ac40012cd220698f1413829662f", "is_disabled": 0, "rental_uris": {"android": "https://dc.lft.to/lastmile_qr_scan", "ios": "https://dc.lft.to/lastmile_qr_scan"}, "lon": -77.02429316666667, "fusion_lat": 0.0}, {"name": "3aaafcb1277a6fc9fa801b1bd6fc1987", "fusion_lon": 0.0, "lat": 38.923874833333336, "is_reserved": 0, "type": "electric_scooter", "bike_id": "3aaafcb1277a6fc9fa801b1bd6fc1987", "is_disabled": 0, "rental_uris": {"android": "https://dc.lft.to/lastmile_qr_scan", "ios": "https://dc.lft.to/lastmile_qr_scan"}, "lon": -77.036639, "fusion_lat": 0.0}, {"name": "6774ca00a2eeaf84acc1eb778dcd44e1", "fusion_lon": 0.0, "lat": 38.9244245, "is_reserved": 0, "type": "electric_scooter", "bike_id": "6774ca00a2eeaf84acc1eb778dcd44e1", "is_disabled": 0, "rental_uris": {"android": "https://dc.lft.to/lastmile_qr_scan", "ios": "https://dc.lft.to/lastmile_qr_scan"}, "lon": -77.04102866666666, "fusion_lat": 0.0}, {"name": "0bb1b1d4c97998e643e6230ace63afb8", "fusion_lon": 0.0, "lat": 38.8721315, "is_reserved": 0, "type": "electric_scooter", "bike_id": "0bb1b1d4c97998e643e6230ace63afb8", "is_disabled": 0, "rental_uris": {"android": "https://dc.lft.to/lastmile_qr_scan", "ios": "https://dc.lft.to/lastmile_qr_scan"}, "lon": -77.01638333333334, "fusion_lat": 0.0}, {"name": "92982371a3ccdffe2e88c5c0356a1e6e", "fusion_lon": 0.0, "lat": 38.900238333333334, "is_reserved": 0, "type": "electric_scooter", "bike_id": "92982371a3ccdffe2e88c5c0356a1e6e", "is_disabled": 0, "rental_uris": {"android": "https://dc.lft.to/lastmile_qr_scan", "ios": "https://dc.lft.to/lastmile_qr_scan"}, "lon": -77.00701683333334, "fusion_lat": 0.0}, {"name": "ca9178e7be75ca07941ba2b6afda2d86", "fusion_lon": 0.0, "lat": 38.90262, "is_reserved": 0, "type": "electric_scooter", "bike_id": "ca9178e7be75ca07941ba2b6afda2d86", "is_disabled": 0, "rental_uris": {"android": "https://dc.lft.to/lastmile_qr_scan", "ios": "https://dc.lft.to/lastmile_qr_scan"}, "lon": -77.01753616666667, "fusion_lat": 0.0}, {"name": "7fe7b84c1d8109224cdfbb2f2d86b9c1", "fusion_lon": 0.0, "lat": 38.9191715, "is_reserved": 0, "type": "electric_scooter", "bike_id": "7fe7b84c1d8109224cdfbb2f2d86b9c1", "is_disabled": 0, "rental_uris": {"android": "https://dc.lft.to/lastmile_qr_scan", "ios": "https://dc.lft.to/lastmile_qr_scan"}, "lon": -77.02615416666667, "fusion_lat": 0.0}, {"name": "b4cdcb8441d6369afc50b05d3bc7140f", "fusion_lon": 0.0, "lat": 38.901765166666664, "is_reserved": 0, "type": "electric_scooter", "bike_id": "b4cdcb8441d6369afc50b05d3bc7140f", "is_disabled": 0, "rental_uris": {"android": "https://dc.lft.to/lastmile_qr_scan", "ios": "https://dc.lft.to/lastmile_qr_scan"}, "lon": -77.02489816666667, "fusion_lat": 0.0}, {"name": "8699b92d1210c921cbe480bbcee6723d", "fusion_lon": 0.0, "lat": 38.906325, "is_reserved": 0, "type": "electric_scooter", "bike_id": "8699b92d1210c921cbe480bbcee6723d", "is_disabled": 0, "rental_uris": {"android": "https://dc.lft.to/lastmile_qr_scan", "ios": "https://dc.lft.to/lastmile_qr_scan"}, "lon": -77.06910416666666, "fusion_lat": 0.0}, {"name": "66ffe290efa197ce831bc0d484f4babe", "fusion_lon": 0.0, "lat": 38.905888, "is_reserved": 0, "type": "electric_scooter", "bike_id": "66ffe290efa197ce831bc0d484f4babe", "is_disabled": 0, "rental_uris": {"android": "https://dc.lft.to/lastmile_qr_scan", "ios": "https://dc.lft.to/lastmile_qr_scan"}, "lon": -77.0072875, "fusion_lat": 0.0}, {"name": "aa4f345e814354d6ede97c9bec846c62", "fusion_lon": 0.0, "lat": 38.908245, "is_reserved": 0, "type": "electric_scooter", "bike_id": "aa4f345e814354d6ede97c9bec846c62", "is_disabled": 0, "rental_uris": {"android": "https://dc.lft.to/lastmile_qr_scan", "ios": "https://dc.lft.to/lastmile_qr_scan"}, "lon": -76.94158866666666, "fusion_lat": 0.0}, {"name": "1e0d32b82fff49f0b0cb00031505f234", "fusion_lon": 0.0, "lat": 38.92863066666666, "is_reserved": 0, "type": "electric_scooter", "bike_id": "1e0d32b82fff49f0b0cb00031505f234", "is_disabled": 0, "rental_uris": {"android": "https://dc.lft.to/lastmile_qr_scan", "ios": "https://dc.lft.to/lastmile_qr_scan"}, "lon": -77.03497816666666, "fusion_lat": 0.0}, {"name": "7c4e0e2b63d2d4f3a3bf880b172f133f", "fusion_lon": 0.0, "lat": 38.964645166666664, "is_reserved": 0, "type": "electric_bike", "bike_id": "7c4e0e2b63d2d4f3a3bf880b172f133f", "is_disabled": 0, "rental_uris": {"android": "https://dc.lft.to/lastmile_qr_scan", "ios": "https://dc.lft.to/lastmile_qr_scan"}, "lon": -77.03564266666666, "fusion_lat": 0.0}, {"name": "0b76b0c514502d8a039ea21f21924a07", "fusion_lon": 0.0, "lat": 38.900157, "is_reserved": 0, "type": "electric_scooter", "bike_id": "0b76b0c514502d8a039ea21f21924a07", "is_disabled": 0, "rental_uris": {"android": "https://dc.lft.to/lastmile_qr_scan", "ios": "https://dc.lft.to/lastmile_qr_scan"}, "lon": -77.007139, "fusion_lat": 0.0}, {"name": "b65eb7ab641c4937de5587ff08a5338d", "fusion_lon": 0.0, "lat": 38.913755, "is_reserved": 0, "type": "electric_scooter", "bike_id": "b65eb7ab641c4937de5587ff08a5338d", "is_disabled": 0, "rental_uris": {"android": "https://dc.lft.to/lastmile_qr_scan", "ios": "https://dc.lft.to/lastmile_qr_scan"}, "lon": -77.04139033333334, "fusion_lat": 0.0}, {"name": "15b541b067f3942b24bf4c6b6684c9fc", "fusion_lon": 0.0, "lat": 38.920273, "is_reserved": 0, "type": "electric_scooter", "bike_id": "15b541b067f3942b24bf4c6b6684c9fc", "is_disabled": 0, "rental_uris": {"android": "https://dc.lft.to/lastmile_qr_scan", "ios": "https://dc.lft.to/lastmile_qr_scan"}, "lon": -77.01142216666666, "fusion_lat": 0.0}, {"name": "7bbfdbc90df3c2e60d8f537a55f6c93c", "fusion_lon": 0.0, "lat": 38.9008555, "is_reserved": 0, "type": "electric_scooter", "bike_id": "7bbfdbc90df3c2e60d8f537a55f6c93c", "is_disabled": 0, "rental_uris": {"android": "https://dc.lft.to/lastmile_qr_scan", "ios": "https://dc.lft.to/lastmile_qr_scan"}, "lon": -77.04764216666666, "fusion_lat": 0.0}, {"name": "d59a1bd487f05d622b2ec781e53e7a1a", "fusion_lon": 0.0, "lat": 38.90151783333334, "is_reserved": 0, "type": "electric_scooter", "bike_id": "d59a1bd487f05d622b2ec781e53e7a1a", "is_disabled": 0, "rental_uris": {"android": "https://dc.lft.to/lastmile_qr_scan", "ios": "https://dc.lft.to/lastmile_qr_scan"}, "lon": -77.060075, "fusion_lat": 0.0}, {"name": "e347a4f46692413e39c6995cf872da97", "fusion_lon": 0.0, "lat": 38.903908, "is_reserved": 0, "type": "electric_scooter", "bike_id": "e347a4f46692413e39c6995cf872da97", "is_disabled": 0, "rental_uris": {"android": "https://dc.lft.to/lastmile_qr_scan", "ios": "https://dc.lft.to/lastmile_qr_scan"}, "lon": -77.038449, "fusion_lat": 0.0}, {"name": "9b7c2fb799fdcf2632fdb89ebebb6cc6", "fusion_lon": 0.0, "lat": 38.927224, "is_reserved": 0, "type": "electric_scooter", "bike_id": "9b7c2fb799fdcf2632fdb89ebebb6cc6", "is_disabled": 0, "rental_uris": {"android": "https://dc.lft.to/lastmile_qr_scan", "ios": "https://dc.lft.to/lastmile_qr_scan"}, "lon": -77.03993566666666, "fusion_lat": 0.0}, {"name": "8a4c4d386f5d93528443f3ecf04e91f3", "fusion_lon": 0.0, "lat": 38.9293025, "is_reserved": 0, "type": "electric_bike", "bike_id": "8a4c4d386f5d93528443f3ecf04e91f3", "is_disabled": 0, "rental_uris": {"android": "https://dc.lft.to/lastmile_qr_scan", "ios": "https://dc.lft.to/lastmile_qr_scan"}, "lon": -77.02775733333333, "fusion_lat": 0.0}, {"name": "d71622f0712bd9f997e5c81a019d59a2", "fusion_lon": 0.0, "lat": 38.872771166666666, "is_reserved": 0, "type": "electric_bike", "bike_id": "d71622f0712bd9f997e5c81a019d59a2", "is_disabled": 0, "rental_uris": {"android": "https://dc.lft.to/lastmile_qr_scan", "ios": "https://dc.lft.to/lastmile_qr_scan"}, "lon": -77.233306, "fusion_lat": 0.0}, {"name": "c5e284ba0d22f973ee077d050bbd7557", "fusion_lon": 0.0, "lat": 38.89719433333333, "is_reserved": 0, "type": "electric_scooter", "bike_id": "c5e284ba0d22f973ee077d050bbd7557", "is_disabled": 0, "rental_uris": {"android": "https://dc.lft.to/lastmile_qr_scan", "ios": "https://dc.lft.to/lastmile_qr_scan"}, "lon": -77.007804, "fusion_lat": 0.0}, {"name": "3021c671e8955abf61e999aa63446678", "fusion_lon": 0.0, "lat": 38.91976116666667, "is_reserved": 0, "type": "electric_scooter", "bike_id": "3021c671e8955abf61e999aa63446678", "is_disabled": 0, "rental_uris": {"android": "https://dc.lft.to/lastmile_qr_scan", "ios": "https://dc.lft.to/lastmile_qr_scan"}, "lon": -77.0238035, "fusion_lat": 0.0}, {"name": "98ceb18f7a459dc8d68c53a967e2470e", "fusion_lon": 0.0, "lat": 38.92162833333333, "is_reserved": 0, "type": "electric_scooter", "bike_id": "98ceb18f7a459dc8d68c53a967e2470e", "is_disabled": 0, "rental_uris": {"android": "https://dc.lft.to/lastmile_qr_scan", "ios": "https://dc.lft.to/lastmile_qr_scan"}, "lon": -77.03511766666666, "fusion_lat": 0.0}, {"name": "fead1d8cb541527aab7a3b5252fb93ab", "fusion_lon": 0.0, "lat": 38.865170666666664, "is_reserved": 0, "type": "electric_bike", "bike_id": "fead1d8cb541527aab7a3b5252fb93ab", "is_disabled": 0, "rental_uris": {"android": "https://dc.lft.to/lastmile_qr_scan", "ios": "https://dc.lft.to/lastmile_qr_scan"}, "lon": -76.97334116666667, "fusion_lat": 0.0}, {"name": "02d35c1645e5c77efa4be3ed57c709ff", "fusion_lon": 0.0, "lat": 38.91140883333333, "is_reserved": 0, "type": "electric_scooter", "bike_id": "02d35c1645e5c77efa4be3ed57c709ff", "is_disabled": 0, "rental_uris": {"android": "https://dc.lft.to/lastmile_qr_scan", "ios": "https://dc.lft.to/lastmile_qr_scan"}, "lon": -77.02387116666667, "fusion_lat": 0.0}, {"name": "896207784fbf7a64b9ca7c2225558a42", "fusion_lon": 0.0, "lat": 38.913747666666666, "is_reserved": 0, "type": "electric_scooter", "bike_id": "896207784fbf7a64b9ca7c2225558a42", "is_disabled": 0, "rental_uris": {"android": "https://dc.lft.to/lastmile_qr_scan", "ios": "https://dc.lft.to/lastmile_qr_scan"}, "lon": -77.014242, "fusion_lat": 0.0}, {"name": "c277a98e7f8d938c6e18be4f9dff8b33", "fusion_lon": 0.0, "lat": 38.906855166666666, "is_reserved": 0, "type": "electric_scooter", "bike_id": "c277a98e7f8d938c6e18be4f9dff8b33", "is_disabled": 0, "rental_uris": {"android": "https://dc.lft.to/lastmile_qr_scan", "ios": "https://dc.lft.to/lastmile_qr_scan"}, "lon": -77.035015, "fusion_lat": 0.0}, {"name": "1e7b11500a3def9f282895733f1b747a", "fusion_lon": 0.0, "lat": 38.903733333333335, "is_reserved": 0, "type": "electric_scooter", "bike_id": "1e7b11500a3def9f282895733f1b747a", "is_disabled": 0, "rental_uris": {"android": "https://dc.lft.to/lastmile_qr_scan", "ios": "https://dc.lft.to/lastmile_qr_scan"}, "lon": -77.029526, "fusion_lat": 0.0}, {"name": "d25d1d0d961ac5512db9c53be327bbcf", "fusion_lon": 0.0, "lat": 38.8985555, "is_reserved": 0, "type": "electric_scooter", "bike_id": "d25d1d0d961ac5512db9c53be327bbcf", "is_disabled": 0, "rental_uris": {"android": "https://dc.lft.to/lastmile_qr_scan", "ios": "https://dc.lft.to/lastmile_qr_scan"}, "lon": -76.9903405, "fusion_lat": 0.0}, {"name": "36e32c04b979d275f528fb85a63b6116", "fusion_lon": 0.0, "lat": 38.91957166666667, "is_reserved": 0, "type": "electric_scooter", "bike_id": "36e32c04b979d275f528fb85a63b6116", "is_disabled": 0, "rental_uris": {"android": "https://dc.lft.to/lastmile_qr_scan", "ios": "https://dc.lft.to/lastmile_qr_scan"}, "lon": -77.02347866666666, "fusion_lat": 0.0}, {"name": "27211a6909e501c561be38fab64c104f", "fusion_lon": 0.0, "lat": 38.91738483333334, "is_reserved": 0, "type": "electric_scooter", "bike_id": "27211a6909e501c561be38fab64c104f", "is_disabled": 0, "rental_uris": {"android": "https://dc.lft.to/lastmile_qr_scan", "ios": "https://dc.lft.to/lastmile_qr_scan"}, "lon": -77.0363925, "fusion_lat": 0.0}, {"name": "4d899e11162f9a02d5404ab93a3fab8c", "fusion_lon": 0.0, "lat": 38.926772666666665, "is_reserved": 0, "type": "electric_scooter", "bike_id": "4d899e11162f9a02d5404ab93a3fab8c", "is_disabled": 0, "rental_uris": {"android": "https://dc.lft.to/lastmile_qr_scan", "ios": "https://dc.lft.to/lastmile_qr_scan"}, "lon": -76.99561566666667, "fusion_lat": 0.0}, {"name": "bc7c61712fad4f506b8d43cdd680cd9e", "fusion_lon": 0.0, "lat": 38.90173033333333, "is_reserved": 0, "type": "electric_scooter", "bike_id": "bc7c61712fad4f506b8d43cdd680cd9e", "is_disabled": 0, "rental_uris": {"android": "https://dc.lft.to/lastmile_qr_scan", "ios": "https://dc.lft.to/lastmile_qr_scan"}, "lon": -76.98303883333334, "fusion_lat": 0.0}, {"name": "7965f2e265a039ded3f79314fc5b427f", "fusion_lon": 0.0, "lat": 38.887441333333335, "is_reserved": 0, "type": "electric_scooter", "bike_id": "7965f2e265a039ded3f79314fc5b427f", "is_disabled": 0, "rental_uris": {"android": "https://dc.lft.to/lastmile_qr_scan", "ios": "https://dc.lft.to/lastmile_qr_scan"}, "lon": -77.027261, "fusion_lat": 0.0}, {"name": "1d94d3690f496269048cb89e0a348242", "fusion_lon": 0.0, "lat": 38.915540666666665, "is_reserved": 0, "type": "electric_scooter", "bike_id": "1d94d3690f496269048cb89e0a348242", "is_disabled": 0, "rental_uris": {"android": "https://dc.lft.to/lastmile_qr_scan", "ios": "https://dc.lft.to/lastmile_qr_scan"}, "lon": -77.02441383333333, "fusion_lat": 0.0}, {"name": "b07810054c0b88ba49f4704a2cd62fba", "fusion_lon": 0.0, "lat": 38.917184, "is_reserved": 0, "type": "electric_scooter", "bike_id": "b07810054c0b88ba49f4704a2cd62fba", "is_disabled": 0, "rental_uris": {"android": "https://dc.lft.to/lastmile_qr_scan", "ios": "https://dc.lft.to/lastmile_qr_scan"}, "lon": -77.01208, "fusion_lat": 0.0}, {"name": "5ac1f92d1a5521922543902af190005f", "fusion_lon": 0.0, "lat": 38.887284, "is_reserved": 0, "type": "electric_scooter", "bike_id": "5ac1f92d1a5521922543902af190005f", "is_disabled": 0, "rental_uris": {"android": "https://dc.lft.to/lastmile_qr_scan", "ios": "https://dc.lft.to/lastmile_qr_scan"}, "lon": -77.028264, "fusion_lat": 0.0}, {"name": "109ce9517a6bfa4886678e37d04785ce", "fusion_lon": 0.0, "lat": 38.86946533333333, "is_reserved": 0, "type": "electric_scooter", "bike_id": "109ce9517a6bfa4886678e37d04785ce", "is_disabled": 0, "rental_uris": {"android": "https://dc.lft.to/lastmile_qr_scan", "ios": "https://dc.lft.to/lastmile_qr_scan"}, "lon": -76.98178266666666, "fusion_lat": 0.0}, {"name": "6413f06e207e0e5964b86b170318bac2", "fusion_lon": 0.0, "lat": 38.90607583333333, "is_reserved": 0, "type": "electric_scooter", "bike_id": "6413f06e207e0e5964b86b170318bac2", "is_disabled": 0, "rental_uris": {"android": "https://dc.lft.to/lastmile_qr_scan", "ios": "https://dc.lft.to/lastmile_qr_scan"}, "lon": -77.05688766666667, "fusion_lat": 0.0}, {"name": "98a9a473d27d68f6bd8686ceb0f6a4b0", "fusion_lon": 0.0, "lat": 38.88512516666667, "is_reserved": 0, "type": "electric_scooter", "bike_id": "98a9a473d27d68f6bd8686ceb0f6a4b0", "is_disabled": 0, "rental_uris": {"android": "https://dc.lft.to/lastmile_qr_scan", "ios": "https://dc.lft.to/lastmile_qr_scan"}, "lon": -77.0056415, "fusion_lat": 0.0}, {"name": "27a84d2bd8e9919331bb974ed58fbdf9", "fusion_lon": 0.0, "lat": 38.92396166666666, "is_reserved": 0, "type": "electric_scooter", "bike_id": "27a84d2bd8e9919331bb974ed58fbdf9", "is_disabled": 0, "rental_uris": {"android": "https://dc.lft.to/lastmile_qr_scan", "ios": "https://dc.lft.to/lastmile_qr_scan"}, "lon": -77.02152633333333, "fusion_lat": 0.0}, {"name": "b9be44a8a16a020555a4af713313b436", "fusion_lon": 0.0, "lat": 38.916133333333335, "is_reserved": 0, "type": "electric_scooter", "bike_id": "b9be44a8a16a020555a4af713313b436", "is_disabled": 0, "rental_uris": {"android": "https://dc.lft.to/lastmile_qr_scan", "ios": "https://dc.lft.to/lastmile_qr_scan"}, "lon": -77.04850816666666, "fusion_lat": 0.0}, {"name": "953cf794c6b92ccb79b00a8d8a7ba0d4", "fusion_lon": 0.0, "lat": 38.9101395, "is_reserved": 0, "type": "electric_bike", "bike_id": "953cf794c6b92ccb79b00a8d8a7ba0d4", "is_disabled": 0, "rental_uris": {"android": "https://dc.lft.to/lastmile_qr_scan", "ios": "https://dc.lft.to/lastmile_qr_scan"}, "lon": -77.22798516666667, "fusion_lat": 0.0}, {"name": "a2e35c79c6cb0890fb6f394374a433e4", "fusion_lon": 0.0, "lat": 38.89321783333333, "is_reserved": 0, "type": "electric_scooter", "bike_id": "a2e35c79c6cb0890fb6f394374a433e4", "is_disabled": 0, "rental_uris": {"android": "https://dc.lft.to/lastmile_qr_scan", "ios": "https://dc.lft.to/lastmile_qr_scan"}, "lon": -77.04878266666667, "fusion_lat": 0.0}, {"name": "e366475b48a3d082617557981fcdb796", "fusion_lon": 0.0, "lat": 38.9231135, "is_reserved": 0, "type": "electric_scooter", "bike_id": "e366475b48a3d082617557981fcdb796", "is_disabled": 0, "rental_uris": {"android": "https://dc.lft.to/lastmile_qr_scan", "ios": "https://dc.lft.to/lastmile_qr_scan"}, "lon": -77.02768433333334, "fusion_lat": 0.0}, {"name": "33604217129486bb63bb4e08deade6ab", "fusion_lon": 0.0, "lat": 38.872776, "is_reserved": 0, "type": "electric_bike", "bike_id": "33604217129486bb63bb4e08deade6ab", "is_disabled": 0, "rental_uris": {"android": "https://dc.lft.to/lastmile_qr_scan", "ios": "https://dc.lft.to/lastmile_qr_scan"}, "lon": -77.23317383333334, "fusion_lat": 0.0}, {"name": "fd0c36e849d9a5e2d7e2216c7df69718", "fusion_lon": 0.0, "lat": 38.94201483333333, "is_reserved": 0, "type": "electric_scooter", "bike_id": "fd0c36e849d9a5e2d7e2216c7df69718", "is_disabled": 0, "rental_uris": {"android": "https://dc.lft.to/lastmile_qr_scan", "ios": "https://dc.lft.to/lastmile_qr_scan"}, "lon": -77.02517033333334, "fusion_lat": 0.0}, {"name": "98d8d19929f4b676068f3c45be226b1e", "fusion_lon": 0.0, "lat": 38.876341833333335, "is_reserved": 0, "type": "electric_scooter", "bike_id": "98d8d19929f4b676068f3c45be226b1e", "is_disabled": 0, "rental_uris": {"android": "https://dc.lft.to/lastmile_qr_scan", "ios": "https://dc.lft.to/lastmile_qr_scan"}, "lon": -77.00072666666667, "fusion_lat": 0.0}, {"name": "36f5eeacdad0fdccd0c8832f3652c896", "fusion_lon": 0.0, "lat": 38.89826866666667, "is_reserved": 0, "type": "electric_scooter", "bike_id": "36f5eeacdad0fdccd0c8832f3652c896", "is_disabled": 0, "rental_uris": {"android": "https://dc.lft.to/lastmile_qr_scan", "ios": "https://dc.lft.to/lastmile_qr_scan"}, "lon": -77.03332916666666, "fusion_lat": 0.0}, {"name": "471d1c397f56edae6a10fdace67b91ed", "fusion_lon": 0.0, "lat": 38.86350383333333, "is_reserved": 0, "type": "electric_scooter", "bike_id": "471d1c397f56edae6a10fdace67b91ed", "is_disabled": 0, "rental_uris": {"android": "https://dc.lft.to/lastmile_qr_scan", "ios": "https://dc.lft.to/lastmile_qr_scan"}, "lon": -76.98700933333333, "fusion_lat": 0.0}, {"name": "30c3c8dbad8d4a492d6c11dbb14800c5", "fusion_lon": 0.0, "lat": 38.880596, "is_reserved": 0, "type": "electric_bike", "bike_id": "30c3c8dbad8d4a492d6c11dbb14800c5", "is_disabled": 0, "rental_uris": {"android": "https://dc.lft.to/lastmile_qr_scan", "ios": "https://dc.lft.to/lastmile_qr_scan"}, "lon": -76.96234366666667, "fusion_lat": 0.0}, {"name": "4d98d94d157fd080bf632402e2867fda", "fusion_lon": 0.0, "lat": 38.900208, "is_reserved": 0, "type": "electric_scooter", "bike_id": "4d98d94d157fd080bf632402e2867fda", "is_disabled": 0, "rental_uris": {"android": "https://dc.lft.to/lastmile_qr_scan", "ios": "https://dc.lft.to/lastmile_qr_scan"}, "lon": -77.0118995, "fusion_lat": 0.0}, {"name": "b123118ac90a31836d5494ae96028d5c", "fusion_lon": 0.0, "lat": 38.9150235, "is_reserved": 0, "type": "electric_scooter", "bike_id": "b123118ac90a31836d5494ae96028d5c", "is_disabled": 0, "rental_uris": {"android": "https://dc.lft.to/lastmile_qr_scan", "ios": "https://dc.lft.to/lastmile_qr_scan"}, "lon": -77.03211733333333, "fusion_lat": 0.0}, {"name": "77e565a95f257cb032ab73baf2b0780f", "fusion_lon": 0.0, "lat": 38.922606333333334, "is_reserved": 0, "type": "electric_scooter", "bike_id": "77e565a95f257cb032ab73baf2b0780f", "is_disabled": 0, "rental_uris": {"android": "https://dc.lft.to/lastmile_qr_scan", "ios": "https://dc.lft.to/lastmile_qr_scan"}, "lon": -77.07326916666666, "fusion_lat": 0.0}, {"name": "d44e68653445ff69b959270bd770ec87", "fusion_lon": 0.0, "lat": 38.958734166666666, "is_reserved": 0, "type": "electric_bike", "bike_id": "d44e68653445ff69b959270bd770ec87", "is_disabled": 0, "rental_uris": {"android": "https://dc.lft.to/lastmile_qr_scan", "ios": "https://dc.lft.to/lastmile_qr_scan"}, "lon": -77.0014575, "fusion_lat": 0.0}, {"name": "3ef9ea529bc34a453c336925875edb96", "fusion_lon": 0.0, "lat": 38.91768583333333, "is_reserved": 0, "type": "electric_scooter", "bike_id": "3ef9ea529bc34a453c336925875edb96", "is_disabled": 0, "rental_uris": {"android": "https://dc.lft.to/lastmile_qr_scan", "ios": "https://dc.lft.to/lastmile_qr_scan"}, "lon": -77.04060133333333, "fusion_lat": 0.0}, {"name": "08cf93160b8d884936e3414fe6f896c0", "fusion_lon": 0.0, "lat": 38.91550633333333, "is_reserved": 0, "type": "electric_scooter", "bike_id": "08cf93160b8d884936e3414fe6f896c0", "is_disabled": 0, "rental_uris": {"android": "https://dc.lft.to/lastmile_qr_scan", "ios": "https://dc.lft.to/lastmile_qr_scan"}, "lon": -77.04128816666666, "fusion_lat": 0.0}, {"name": "39c18f90984d54f1ea2433b7f0a0f7ce", "fusion_lon": 0.0, "lat": 38.86186983333333, "is_reserved": 0, "type": "electric_scooter", "bike_id": "39c18f90984d54f1ea2433b7f0a0f7ce", "is_disabled": 0, "rental_uris": {"android": "https://dc.lft.to/lastmile_qr_scan", "ios": "https://dc.lft.to/lastmile_qr_scan"}, "lon": -77.08836166666667, "fusion_lat": 0.0}, {"name": "f0b2a7964925ed0b26b64aec2dea4e4f", "fusion_lon": 0.0, "lat": 38.93224333333333, "is_reserved": 0, "type": "electric_bike", "bike_id": "f0b2a7964925ed0b26b64aec2dea4e4f", "is_disabled": 0, "rental_uris": {"android": "https://dc.lft.to/lastmile_qr_scan", "ios": "https://dc.lft.to/lastmile_qr_scan"}, "lon": -77.18123016666667, "fusion_lat": 0.0}, {"name": "ac89da9b58e691627f4eda87fb327af3", "fusion_lon": 0.0, "lat": 38.89607483333333, "is_reserved": 0, "type": "electric_scooter", "bike_id": "ac89da9b58e691627f4eda87fb327af3", "is_disabled": 0, "rental_uris": {"android": "https://dc.lft.to/lastmile_qr_scan", "ios": "https://dc.lft.to/lastmile_qr_scan"}, "lon": -77.05440483333334, "fusion_lat": 0.0}, {"name": "5aa0dbb35ad0c9fe44173968c14102b4", "fusion_lon": 0.0, "lat": 38.9131695, "is_reserved": 0, "type": "electric_scooter", "bike_id": "5aa0dbb35ad0c9fe44173968c14102b4", "is_disabled": 0, "rental_uris": {"android": "https://dc.lft.to/lastmile_qr_scan", "ios": "https://dc.lft.to/lastmile_qr_scan"}, "lon": -77.06246833333333, "fusion_lat": 0.0}, {"name": "999003e859e74406278863a1ce753e45", "fusion_lon": 0.0, "lat": 38.876333833333334, "is_reserved": 0, "type": "electric_scooter", "bike_id": "999003e859e74406278863a1ce753e45", "is_disabled": 0, "rental_uris": {"android": "https://dc.lft.to/lastmile_qr_scan", "ios": "https://dc.lft.to/lastmile_qr_scan"}, "lon": -77.00465033333333, "fusion_lat": 0.0}, {"name": "379f989c902fac47f3e90773a11dd75c", "fusion_lon": 0.0, "lat": 38.95188016666667, "is_reserved": 0, "type": "electric_scooter", "bike_id": "379f989c902fac47f3e90773a11dd75c", "is_disabled": 0, "rental_uris": {"android": "https://dc.lft.to/lastmile_qr_scan", "ios": "https://dc.lft.to/lastmile_qr_scan"}, "lon": -77.02612516666667, "fusion_lat": 0.0}, {"name": "ed907a5c46a4e78981245fcdfb393ed4", "fusion_lon": 0.0, "lat": 38.9167795, "is_reserved": 0, "type": "electric_scooter", "bike_id": "ed907a5c46a4e78981245fcdfb393ed4", "is_disabled": 0, "rental_uris": {"android": "https://dc.lft.to/lastmile_qr_scan", "ios": "https://dc.lft.to/lastmile_qr_scan"}, "lon": -77.02690966666667, "fusion_lat": 0.0}, {"name": "34567ee1c250864f31212eea01f0da26", "fusion_lon": 0.0, "lat": 38.953570666666664, "is_reserved": 0, "type": "electric_bike", "bike_id": "34567ee1c250864f31212eea01f0da26", "is_disabled": 0, "rental_uris": {"android": "https://dc.lft.to/lastmile_qr_scan", "ios": "https://dc.lft.to/lastmile_qr_scan"}, "lon": -76.98091966666667, "fusion_lat": 0.0}, {"name": "bd043fc19d061f7671427f5107b7c28f", "fusion_lon": 0.0, "lat": 38.92371583333333, "is_reserved": 0, "type": "electric_scooter", "bike_id": "bd043fc19d061f7671427f5107b7c28f", "is_disabled": 0, "rental_uris": {"android": "https://dc.lft.to/lastmile_qr_scan", "ios": "https://dc.lft.to/lastmile_qr_scan"}, "lon": -77.03535833333333, "fusion_lat": 0.0}, {"name": "974fecaaaccaeb72cffe40918323c263", "fusion_lon": 0.0, "lat": 38.91905216666667, "is_reserved": 0, "type": "electric_scooter", "bike_id": "974fecaaaccaeb72cffe40918323c263", "is_disabled": 0, "rental_uris": {"android": "https://dc.lft.to/lastmile_qr_scan", "ios": "https://dc.lft.to/lastmile_qr_scan"}, "lon": -77.01538133333334, "fusion_lat": 0.0}, {"name": "da62055f043251ab8d0eeaae04c23f2c", "fusion_lon": 0.0, "lat": 38.93852733333333, "is_reserved": 0, "type": "electric_scooter", "bike_id": "da62055f043251ab8d0eeaae04c23f2c", "is_disabled": 0, "rental_uris": {"android": "https://dc.lft.to/lastmile_qr_scan", "ios": "https://dc.lft.to/lastmile_qr_scan"}, "lon": -77.025925, "fusion_lat": 0.0}, {"name": "4dae619bfef6477f3c257ee92f90db59", "fusion_lon": 0.0, "lat": 38.9050985, "is_reserved": 0, "type": "electric_scooter", "bike_id": "4dae619bfef6477f3c257ee92f90db59", "is_disabled": 0, "rental_uris": {"android": "https://dc.lft.to/lastmile_qr_scan", "ios": "https://dc.lft.to/lastmile_qr_scan"}, "lon": -77.07017233333333, "fusion_lat": 0.0}, {"name": "01d4b3f43e9ead9e109482b287ff7aad", "fusion_lon": 0.0, "lat": 38.962961166666666, "is_reserved": 0, "type": "electric_bike", "bike_id": "01d4b3f43e9ead9e109482b287ff7aad", "is_disabled": 0, "rental_uris": {"android": "https://dc.lft.to/lastmile_qr_scan", "ios": "https://dc.lft.to/lastmile_qr_scan"}, "lon": -77.01108183333334, "fusion_lat": 0.0}, {"name": "b610d9b624e623c9d9f3cc72e044b3d0", "fusion_lon": 0.0, "lat": 38.963265166666666, "is_reserved": 0, "type": "electric_bike", "bike_id": "b610d9b624e623c9d9f3cc72e044b3d0", "is_disabled": 0, "rental_uris": {"android": "https://dc.lft.to/lastmile_qr_scan", "ios": "https://dc.lft.to/lastmile_qr_scan"}, "lon": -76.97361533333333, "fusion_lat": 0.0}, {"name": "9f80c37eb67533ece373990437e854af", "fusion_lon": 0.0, "lat": 38.932261833333335, "is_reserved": 0, "type": "electric_scooter", "bike_id": "9f80c37eb67533ece373990437e854af", "is_disabled": 0, "rental_uris": {"android": "https://dc.lft.to/lastmile_qr_scan", "ios": "https://dc.lft.to/lastmile_qr_scan"}, "lon": -77.038686, "fusion_lat": 0.0}, {"name": "ff3a2ad81cf584f5e70bd115cd2d8b24", "fusion_lon": 0.0, "lat": 38.91813366666667, "is_reserved": 0, "type": "electric_scooter", "bike_id": "ff3a2ad81cf584f5e70bd115cd2d8b24", "is_disabled": 0, "rental_uris": {"android": "https://dc.lft.to/lastmile_qr_scan", "ios": "https://dc.lft.to/lastmile_qr_scan"}, "lon": -77.0896115, "fusion_lat": 0.0}, {"name": "b6019ca31b32256131bee6d5459eb9b3", "fusion_lon": 0.0, "lat": 38.904792666666665, "is_reserved": 0, "type": "electric_scooter", "bike_id": "b6019ca31b32256131bee6d5459eb9b3", "is_disabled": 0, "rental_uris": {"android": "https://dc.lft.to/lastmile_qr_scan", "ios": "https://dc.lft.to/lastmile_qr_scan"}, "lon": -77.04189966666667, "fusion_lat": 0.0}, {"name": "854c1607bd48f01566b693dd29d6bafc", "fusion_lon": 0.0, "lat": 38.9304165, "is_reserved": 0, "type": "electric_scooter", "bike_id": "854c1607bd48f01566b693dd29d6bafc", "is_disabled": 0, "rental_uris": {"android": "https://dc.lft.to/lastmile_qr_scan", "ios": "https://dc.lft.to/lastmile_qr_scan"}, "lon": -77.0122875, "fusion_lat": 0.0}, {"name": "3a36caba500abe2f2392e1ad37ed8ee2", "fusion_lon": 0.0, "lat": 38.8960315, "is_reserved": 0, "type": "electric_scooter", "bike_id": "3a36caba500abe2f2392e1ad37ed8ee2", "is_disabled": 0, "rental_uris": {"android": "https://dc.lft.to/lastmile_qr_scan", "ios": "https://dc.lft.to/lastmile_qr_scan"}, "lon": -77.02217983333334, "fusion_lat": 0.0}, {"name": "0176d0eef310cfb1d519caa6340f84bb", "fusion_lon": 0.0, "lat": 38.91737366666667, "is_reserved": 0, "type": "electric_scooter", "bike_id": "0176d0eef310cfb1d519caa6340f84bb", "is_disabled": 0, "rental_uris": {"android": "https://dc.lft.to/lastmile_qr_scan", "ios": "https://dc.lft.to/lastmile_qr_scan"}, "lon": -77.034447, "fusion_lat": 0.0}, {"name": "00ebc5d74c9ceb79d950a66d47a458e5", "fusion_lon": 0.0, "lat": 38.914719833333336, "is_reserved": 0, "type": "electric_scooter", "bike_id": "00ebc5d74c9ceb79d950a66d47a458e5", "is_disabled": 0, "rental_uris": {"android": "https://dc.lft.to/lastmile_qr_scan", "ios": "https://dc.lft.to/lastmile_qr_scan"}, "lon": -77.03185316666666, "fusion_lat": 0.0}, {"name": "f4ee65e699bf4a73277078a9dcdc87c3", "fusion_lon": 0.0, "lat": 38.9127225, "is_reserved": 0, "type": "electric_scooter", "bike_id": "f4ee65e699bf4a73277078a9dcdc87c3", "is_disabled": 0, "rental_uris": {"android": "https://dc.lft.to/lastmile_qr_scan", "ios": "https://dc.lft.to/lastmile_qr_scan"}, "lon": -77.02227416666666, "fusion_lat": 0.0}, {"name": "3b900e8d5ac3249fec672df1c0121212", "fusion_lon": 0.0, "lat": 38.866805, "is_reserved": 0, "type": "electric_scooter", "bike_id": "3b900e8d5ac3249fec672df1c0121212", "is_disabled": 0, "rental_uris": {"android": "https://dc.lft.to/lastmile_qr_scan", "ios": "https://dc.lft.to/lastmile_qr_scan"}, "lon": -76.98567316666667, "fusion_lat": 0.0}, {"name": "9c7ea2611e131a1723dd890f065f55bb", "fusion_lon": 0.0, "lat": 38.86373566666666, "is_reserved": 0, "type": "electric_scooter", "bike_id": "9c7ea2611e131a1723dd890f065f55bb", "is_disabled": 0, "rental_uris": {"android": "https://dc.lft.to/lastmile_qr_scan", "ios": "https://dc.lft.to/lastmile_qr_scan"}, "lon": -76.990629, "fusion_lat": 0.0}, {"name": "4222affb4400df3079893f339feb2f73", "fusion_lon": 0.0, "lat": 38.91188533333333, "is_reserved": 0, "type": "electric_scooter", "bike_id": "4222affb4400df3079893f339feb2f73", "is_disabled": 0, "rental_uris": {"android": "https://dc.lft.to/lastmile_qr_scan", "ios": "https://dc.lft.to/lastmile_qr_scan"}, "lon": -77.03840783333334, "fusion_lat": 0.0}, {"name": "9381f06fce1700d573b1a649e561d906", "fusion_lon": 0.0, "lat": 38.90571083333333, "is_reserved": 0, "type": "electric_scooter", "bike_id": "9381f06fce1700d573b1a649e561d906", "is_disabled": 0, "rental_uris": {"android": "https://dc.lft.to/lastmile_qr_scan", "ios": "https://dc.lft.to/lastmile_qr_scan"}, "lon": -77.02757416666667, "fusion_lat": 0.0}, {"name": "c1ba74215d74fb12f783743d765c432b", "fusion_lon": 0.0, "lat": 38.9131225, "is_reserved": 0, "type": "electric_bike", "bike_id": "c1ba74215d74fb12f783743d765c432b", "is_disabled": 0, "rental_uris": {"android": "https://dc.lft.to/lastmile_qr_scan", "ios": "https://dc.lft.to/lastmile_qr_scan"}, "lon": -77.22302516666667, "fusion_lat": 0.0}, {"name": "3be294b644acd8dacb55c93661ff73ba", "fusion_lon": 0.0, "lat": 38.91411733333333, "is_reserved": 0, "type": "electric_scooter", "bike_id": "3be294b644acd8dacb55c93661ff73ba", "is_disabled": 0, "rental_uris": {"android": "https://dc.lft.to/lastmile_qr_scan", "ios": "https://dc.lft.to/lastmile_qr_scan"}, "lon": -77.04216783333334, "fusion_lat": 0.0}, {"name": "c70c2b0619244cb705016127b11dfa81", "fusion_lon": 0.0, "lat": 38.91919766666667, "is_reserved": 0, "type": "electric_scooter", "bike_id": "c70c2b0619244cb705016127b11dfa81", "is_disabled": 0, "rental_uris": {"android": "https://dc.lft.to/lastmile_qr_scan", "ios": "https://dc.lft.to/lastmile_qr_scan"}, "lon": -77.04247866666667, "fusion_lat": 0.0}, {"name": "24d95fd5bb313445c0660c8e461f019e", "fusion_lon": 0.0, "lat": 38.888660333333334, "is_reserved": 0, "type": "electric_scooter", "bike_id": "24d95fd5bb313445c0660c8e461f019e", "is_disabled": 0, "rental_uris": {"android": "https://dc.lft.to/lastmile_qr_scan", "ios": "https://dc.lft.to/lastmile_qr_scan"}, "lon": -76.99029983333334, "fusion_lat": 0.0}, {"name": "2c35a441eff9ec84b98b7b1983b6abb3", "fusion_lon": 0.0, "lat": 38.91319216666667, "is_reserved": 0, "type": "electric_scooter", "bike_id": "2c35a441eff9ec84b98b7b1983b6abb3", "is_disabled": 0, "rental_uris": {"android": "https://dc.lft.to/lastmile_qr_scan", "ios": "https://dc.lft.to/lastmile_qr_scan"}, "lon": -77.01512233333334, "fusion_lat": 0.0}, {"name": "90a05b1a2ac2e83db9224e44ec237c90", "fusion_lon": 0.0, "lat": 38.94172716666667, "is_reserved": 0, "type": "electric_scooter", "bike_id": "90a05b1a2ac2e83db9224e44ec237c90", "is_disabled": 0, "rental_uris": {"android": "https://dc.lft.to/lastmile_qr_scan", "ios": "https://dc.lft.to/lastmile_qr_scan"}, "lon": -77.025573, "fusion_lat": 0.0}, {"name": "aa6eab9d266668cc9da3dc70248adc45", "fusion_lon": 0.0, "lat": 38.93184133333333, "is_reserved": 0, "type": "electric_scooter", "bike_id": "aa6eab9d266668cc9da3dc70248adc45", "is_disabled": 0, "rental_uris": {"android": "https://dc.lft.to/lastmile_qr_scan", "ios": "https://dc.lft.to/lastmile_qr_scan"}, "lon": -77.03879733333333, "fusion_lat": 0.0}, {"name": "aaa62bbb81b5e083dbe2d305a7fa8cdf", "fusion_lon": 0.0, "lat": 38.91710966666667, "is_reserved": 0, "type": "electric_scooter", "bike_id": "aaa62bbb81b5e083dbe2d305a7fa8cdf", "is_disabled": 0, "rental_uris": {"android": "https://dc.lft.to/lastmile_qr_scan", "ios": "https://dc.lft.to/lastmile_qr_scan"}, "lon": -77.03173, "fusion_lat": 0.0}, {"name": "b2c48d3f5c89ae94d8227375c762ba8c", "fusion_lon": 0.0, "lat": 38.929356, "is_reserved": 0, "type": "electric_scooter", "bike_id": "b2c48d3f5c89ae94d8227375c762ba8c", "is_disabled": 0, "rental_uris": {"android": "https://dc.lft.to/lastmile_qr_scan", "ios": "https://dc.lft.to/lastmile_qr_scan"}, "lon": -77.02322033333333, "fusion_lat": 0.0}, {"name": "23429d5d5b20d4df00ccdf3542bab563", "fusion_lon": 0.0, "lat": 38.900863, "is_reserved": 0, "type": "electric_scooter", "bike_id": "23429d5d5b20d4df00ccdf3542bab563", "is_disabled": 0, "rental_uris": {"android": "https://dc.lft.to/lastmile_qr_scan", "ios": "https://dc.lft.to/lastmile_qr_scan"}, "lon": -77.01249733333333, "fusion_lat": 0.0}, {"name": "2b44927ccc967288c11b14d3e2dc5b16", "fusion_lon": 0.0, "lat": 38.9184475, "is_reserved": 0, "type": "electric_scooter", "bike_id": "2b44927ccc967288c11b14d3e2dc5b16", "is_disabled": 0, "rental_uris": {"android": "https://dc.lft.to/lastmile_qr_scan", "ios": "https://dc.lft.to/lastmile_qr_scan"}, "lon": -77.02314583333333, "fusion_lat": 0.0}, {"name": "e979c632c0e1ecdbbb824d51e317d5b4", "fusion_lon": 0.0, "lat": 38.8608375, "is_reserved": 0, "type": "electric_scooter", "bike_id": "e979c632c0e1ecdbbb824d51e317d5b4", "is_disabled": 0, "rental_uris": {"android": "https://dc.lft.to/lastmile_qr_scan", "ios": "https://dc.lft.to/lastmile_qr_scan"}, "lon": -76.96864333333333, "fusion_lat": 0.0}, {"name": "eed2c38732fda73a7885585be46af141", "fusion_lon": 0.0, "lat": 38.922331166666666, "is_reserved": 0, "type": "electric_scooter", "bike_id": "eed2c38732fda73a7885585be46af141", "is_disabled": 0, "rental_uris": {"android": "https://dc.lft.to/lastmile_qr_scan", "ios": "https://dc.lft.to/lastmile_qr_scan"}, "lon": -77.035229, "fusion_lat": 0.0}, {"name": "0bf4f74bb612ab39d39bae7ba178bfbd", "fusion_lon": 0.0, "lat": 38.875801333333335, "is_reserved": 0, "type": "electric_scooter", "bike_id": "0bf4f74bb612ab39d39bae7ba178bfbd", "is_disabled": 0, "rental_uris": {"android": "https://dc.lft.to/lastmile_qr_scan", "ios": "https://dc.lft.to/lastmile_qr_scan"}, "lon": -77.00633883333333, "fusion_lat": 0.0}, {"name": "229e4d3e47a6164d6aea846e7b3af574", "fusion_lon": 0.0, "lat": 38.87470966666667, "is_reserved": 0, "type": "electric_scooter", "bike_id": "229e4d3e47a6164d6aea846e7b3af574", "is_disabled": 0, "rental_uris": {"android": "https://dc.lft.to/lastmile_qr_scan", "ios": "https://dc.lft.to/lastmile_qr_scan"}, "lon": -77.0159605, "fusion_lat": 0.0}, {"name": "70e7587235610d0a1b705fda6609b09c", "fusion_lon": 0.0, "lat": 38.9238335, "is_reserved": 0, "type": "electric_scooter", "bike_id": "70e7587235610d0a1b705fda6609b09c", "is_disabled": 0, "rental_uris": {"android": "https://dc.lft.to/lastmile_qr_scan", "ios": "https://dc.lft.to/lastmile_qr_scan"}, "lon": -77.05182566666667, "fusion_lat": 0.0}, {"name": "950525c4faae5c98da3c53298e003550", "fusion_lon": 0.0, "lat": 38.90048633333333, "is_reserved": 0, "type": "electric_scooter", "bike_id": "950525c4faae5c98da3c53298e003550", "is_disabled": 0, "rental_uris": {"android": "https://dc.lft.to/lastmile_qr_scan", "ios": "https://dc.lft.to/lastmile_qr_scan"}, "lon": -77.02170966666667, "fusion_lat": 0.0}, {"name": "a9cde4a05bda1ce447319bc5110075d7", "fusion_lon": 0.0, "lat": 38.873446666666666, "is_reserved": 0, "type": "electric_scooter", "bike_id": "a9cde4a05bda1ce447319bc5110075d7", "is_disabled": 0, "rental_uris": {"android": "https://dc.lft.to/lastmile_qr_scan", "ios": "https://dc.lft.to/lastmile_qr_scan"}, "lon": -77.00261033333334, "fusion_lat": 0.0}, {"name": "017e1a1ba9bf434d5b542fd1e271e700", "fusion_lon": 0.0, "lat": 38.933719333333336, "is_reserved": 0, "type": "electric_scooter", "bike_id": "017e1a1ba9bf434d5b542fd1e271e700", "is_disabled": 0, "rental_uris": {"android": "https://dc.lft.to/lastmile_qr_scan", "ios": "https://dc.lft.to/lastmile_qr_scan"}, "lon": -77.02685183333334, "fusion_lat": 0.0}, {"name": "e04f191a56fd3df19b0683950e6bee52", "fusion_lon": 0.0, "lat": 38.8962885, "is_reserved": 0, "type": "electric_scooter", "bike_id": "e04f191a56fd3df19b0683950e6bee52", "is_disabled": 0, "rental_uris": {"android": "https://dc.lft.to/lastmile_qr_scan", "ios": "https://dc.lft.to/lastmile_qr_scan"}, "lon": -77.02592583333333, "fusion_lat": 0.0}, {"name": "d07772f9c1d9fbfcc1418d01bc94e0bf", "fusion_lon": 0.0, "lat": 38.91239383333333, "is_reserved": 0, "type": "electric_scooter", "bike_id": "d07772f9c1d9fbfcc1418d01bc94e0bf", "is_disabled": 0, "rental_uris": {"android": "https://dc.lft.to/lastmile_qr_scan", "ios": "https://dc.lft.to/lastmile_qr_scan"}, "lon": -77.03415783333334, "fusion_lat": 0.0}, {"name": "f5138efad6f35bc3e11fb809805053c3", "fusion_lon": 0.0, "lat": 38.905059, "is_reserved": 0, "type": "electric_scooter", "bike_id": "f5138efad6f35bc3e11fb809805053c3", "is_disabled": 0, "rental_uris": {"android": "https://dc.lft.to/lastmile_qr_scan", "ios": "https://dc.lft.to/lastmile_qr_scan"}, "lon": -77.0383695, "fusion_lat": 0.0}, {"name": "839ba9f1d90744c68ed984b5544289bb", "fusion_lon": 0.0, "lat": 38.911122, "is_reserved": 0, "type": "electric_scooter", "bike_id": "839ba9f1d90744c68ed984b5544289bb", "is_disabled": 0, "rental_uris": {"android": "https://dc.lft.to/lastmile_qr_scan", "ios": "https://dc.lft.to/lastmile_qr_scan"}, "lon": -77.03774433333334, "fusion_lat": 0.0}, {"name": "d612b94c4e2f4d6c05284fc3d3908b50", "fusion_lon": 0.0, "lat": 38.915556, "is_reserved": 0, "type": "electric_scooter", "bike_id": "d612b94c4e2f4d6c05284fc3d3908b50", "is_disabled": 0, "rental_uris": {"android": "https://dc.lft.to/lastmile_qr_scan", "ios": "https://dc.lft.to/lastmile_qr_scan"}, "lon": -77.02556933333334, "fusion_lat": 0.0}, {"name": "07d1858a81e1658b59f1caf7daf8df2b", "fusion_lon": 0.0, "lat": 38.9207145, "is_reserved": 0, "type": "electric_scooter", "bike_id": "07d1858a81e1658b59f1caf7daf8df2b", "is_disabled": 0, "rental_uris": {"android": "https://dc.lft.to/lastmile_qr_scan", "ios": "https://dc.lft.to/lastmile_qr_scan"}, "lon": -77.03219466666667, "fusion_lat": 0.0}, {"name": "702cd2a0db0e8c2ac46bee6a19c34d8d", "fusion_lon": 0.0, "lat": 38.93715566666667, "is_reserved": 0, "type": "electric_scooter", "bike_id": "702cd2a0db0e8c2ac46bee6a19c34d8d", "is_disabled": 0, "rental_uris": {"android": "https://dc.lft.to/lastmile_qr_scan", "ios": "https://dc.lft.to/lastmile_qr_scan"}, "lon": -77.03273866666666, "fusion_lat": 0.0}, {"name": "05ceb7b8983571e5bfaccd20234ae386", "fusion_lon": 0.0, "lat": 38.939570333333336, "is_reserved": 0, "type": "electric_scooter", "bike_id": "05ceb7b8983571e5bfaccd20234ae386", "is_disabled": 0, "rental_uris": {"android": "https://dc.lft.to/lastmile_qr_scan", "ios": "https://dc.lft.to/lastmile_qr_scan"}, "lon": -77.02745883333333, "fusion_lat": 0.0}, {"name": "5085506a441ac5c9dc8fb2c9c6c5e404", "fusion_lon": 0.0, "lat": 38.915196333333334, "is_reserved": 0, "type": "electric_scooter", "bike_id": "5085506a441ac5c9dc8fb2c9c6c5e404", "is_disabled": 0, "rental_uris": {"android": "https://dc.lft.to/lastmile_qr_scan", "ios": "https://dc.lft.to/lastmile_qr_scan"}, "lon": -77.01219716666667, "fusion_lat": 0.0}, {"name": "ffebfab23131a26c8c9e2ac50504f87d", "fusion_lon": 0.0, "lat": 38.885938333333335, "is_reserved": 0, "type": "electric_scooter", "bike_id": "ffebfab23131a26c8c9e2ac50504f87d", "is_disabled": 0, "rental_uris": {"android": "https://dc.lft.to/lastmile_qr_scan", "ios": "https://dc.lft.to/lastmile_qr_scan"}, "lon": -76.9961995, "fusion_lat": 0.0}, {"name": "816d1aa43f1985f4906d5234971acc04", "fusion_lon": 0.0, "lat": 38.93533866666667, "is_reserved": 0, "type": "electric_scooter", "bike_id": "816d1aa43f1985f4906d5234971acc04", "is_disabled": 0, "rental_uris": {"android": "https://dc.lft.to/lastmile_qr_scan", "ios": "https://dc.lft.to/lastmile_qr_scan"}, "lon": -77.057488, "fusion_lat": 0.0}, {"name": "08b4e7d5a45dd39fb38a9e6f2eb648f0", "fusion_lon": 0.0, "lat": 38.911987833333335, "is_reserved": 0, "type": "electric_scooter", "bike_id": "08b4e7d5a45dd39fb38a9e6f2eb648f0", "is_disabled": 0, "rental_uris": {"android": "https://dc.lft.to/lastmile_qr_scan", "ios": "https://dc.lft.to/lastmile_qr_scan"}, "lon": -77.04520333333333, "fusion_lat": 0.0}, {"name": "d3a3e8423dab3eeaf5a473751de24f60", "fusion_lon": 0.0, "lat": 38.931659333333336, "is_reserved": 0, "type": "electric_scooter", "bike_id": "d3a3e8423dab3eeaf5a473751de24f60", "is_disabled": 0, "rental_uris": {"android": "https://dc.lft.to/lastmile_qr_scan", "ios": "https://dc.lft.to/lastmile_qr_scan"}, "lon": -77.056027, "fusion_lat": 0.0}, {"name": "3d50e27866ae4393d069084328db6f56", "fusion_lon": 0.0, "lat": 38.892203333333335, "is_reserved": 0, "type": "electric_scooter", "bike_id": "3d50e27866ae4393d069084328db6f56", "is_disabled": 0, "rental_uris": {"android": "https://dc.lft.to/lastmile_qr_scan", "ios": "https://dc.lft.to/lastmile_qr_scan"}, "lon": -77.04260383333333, "fusion_lat": 0.0}, {"name": "f652af6282d4af7bf23f42c840654b4e", "fusion_lon": 0.0, "lat": 38.877985333333335, "is_reserved": 0, "type": "electric_scooter", "bike_id": "f652af6282d4af7bf23f42c840654b4e", "is_disabled": 0, "rental_uris": {"android": "https://dc.lft.to/lastmile_qr_scan", "ios": "https://dc.lft.to/lastmile_qr_scan"}, "lon": -76.93088033333333, "fusion_lat": 0.0}, {"name": "611acce0cd1c10c75cfa633bb5b3c7da", "fusion_lon": 0.0, "lat": 38.917398, "is_reserved": 0, "type": "electric_scooter", "bike_id": "611acce0cd1c10c75cfa633bb5b3c7da", "is_disabled": 0, "rental_uris": {"android": "https://dc.lft.to/lastmile_qr_scan", "ios": "https://dc.lft.to/lastmile_qr_scan"}, "lon": -77.03641266666666, "fusion_lat": 0.0}, {"name": "72570f7241e53dfb67f8fbeef4b93241", "fusion_lon": 0.0, "lat": 38.94430033333333, "is_reserved": 0, "type": "electric_scooter", "bike_id": "72570f7241e53dfb67f8fbeef4b93241", "is_disabled": 0, "rental_uris": {"android": "https://dc.lft.to/lastmile_qr_scan", "ios": "https://dc.lft.to/lastmile_qr_scan"}, "lon": -77.06352183333334, "fusion_lat": 0.0}, {"name": "7bdf71a130fa9b749e20a0092773bed5", "fusion_lon": 0.0, "lat": 38.925850833333335, "is_reserved": 0, "type": "electric_scooter", "bike_id": "7bdf71a130fa9b749e20a0092773bed5", "is_disabled": 0, "rental_uris": {"android": "https://dc.lft.to/lastmile_qr_scan", "ios": "https://dc.lft.to/lastmile_qr_scan"}, "lon": -77.04412683333334, "fusion_lat": 0.0}, {"name": "fd76279c19133da15335d23d0a77ec6b", "fusion_lon": 0.0, "lat": 38.9172755, "is_reserved": 0, "type": "electric_scooter", "bike_id": "fd76279c19133da15335d23d0a77ec6b", "is_disabled": 0, "rental_uris": {"android": "https://dc.lft.to/lastmile_qr_scan", "ios": "https://dc.lft.to/lastmile_qr_scan"}, "lon": -77.02976266666667, "fusion_lat": 0.0}, {"name": "603e4c061b5e4c7ef7f1ca9d557b7abb", "fusion_lon": 0.0, "lat": 38.93098633333334, "is_reserved": 0, "type": "electric_scooter", "bike_id": "603e4c061b5e4c7ef7f1ca9d557b7abb", "is_disabled": 0, "rental_uris": {"android": "https://dc.lft.to/lastmile_qr_scan", "ios": "https://dc.lft.to/lastmile_qr_scan"}, "lon": -77.02660033333333, "fusion_lat": 0.0}, {"name": "da082cd35963d672b893adbd2730cbe0", "fusion_lon": 0.0, "lat": 38.919503166666665, "is_reserved": 0, "type": "electric_scooter", "bike_id": "da082cd35963d672b893adbd2730cbe0", "is_disabled": 0, "rental_uris": {"android": "https://dc.lft.to/lastmile_qr_scan", "ios": "https://dc.lft.to/lastmile_qr_scan"}, "lon": -77.045645, "fusion_lat": 0.0}, {"name": "d7e29cd2031a51e6ea3e3b20b8df105b", "fusion_lon": 0.0, "lat": 38.905575666666664, "is_reserved": 0, "type": "electric_scooter", "bike_id": "d7e29cd2031a51e6ea3e3b20b8df105b", "is_disabled": 0, "rental_uris": {"android": "https://dc.lft.to/lastmile_qr_scan", "ios": "https://dc.lft.to/lastmile_qr_scan"}, "lon": -77.00581933333333, "fusion_lat": 0.0}, {"name": "c6c30027580c1f069d698cc6212f6093", "fusion_lon": 0.0, "lat": 38.85445133333333, "is_reserved": 0, "type": "electric_scooter", "bike_id": "c6c30027580c1f069d698cc6212f6093", "is_disabled": 0, "rental_uris": {"android": "https://dc.lft.to/lastmile_qr_scan", "ios": "https://dc.lft.to/lastmile_qr_scan"}, "lon": -76.986066, "fusion_lat": 0.0}, {"name": "629fd8ccd6720126fc718378085cad06", "fusion_lon": 0.0, "lat": 38.91573533333333, "is_reserved": 0, "type": "electric_scooter", "bike_id": "629fd8ccd6720126fc718378085cad06", "is_disabled": 0, "rental_uris": {"android": "https://dc.lft.to/lastmile_qr_scan", "ios": "https://dc.lft.to/lastmile_qr_scan"}, "lon": -77.012503, "fusion_lat": 0.0}, {"name": "756faaeeb35950cd91118a358e94a22b", "fusion_lon": 0.0, "lat": 39.05632266666667, "is_reserved": 0, "type": "electric_bike", "bike_id": "756faaeeb35950cd91118a358e94a22b", "is_disabled": 0, "rental_uris": {"android": "https://dc.lft.to/lastmile_qr_scan", "ios": "https://dc.lft.to/lastmile_qr_scan"}, "lon": -77.1252715, "fusion_lat": 0.0}, {"name": "ba63d26293d94950716662799ed6bdc4", "fusion_lon": 0.0, "lat": 38.89221233333333, "is_reserved": 0, "type": "electric_scooter", "bike_id": "ba63d26293d94950716662799ed6bdc4", "is_disabled": 0, "rental_uris": {"android": "https://dc.lft.to/lastmile_qr_scan", "ios": "https://dc.lft.to/lastmile_qr_scan"}, "lon": -77.046841, "fusion_lat": 0.0}, {"name": "5edaa2099329be38440b33e40f1dc536", "fusion_lon": 0.0, "lat": 38.906698, "is_reserved": 0, "type": "electric_scooter", "bike_id": "5edaa2099329be38440b33e40f1dc536", "is_disabled": 0, "rental_uris": {"android": "https://dc.lft.to/lastmile_qr_scan", "ios": "https://dc.lft.to/lastmile_qr_scan"}, "lon": -77.0719225, "fusion_lat": 0.0}, {"name": "6bdf439fe272b08473c54abacee79465", "fusion_lon": 0.0, "lat": 38.93709916666667, "is_reserved": 0, "type": "electric_scooter", "bike_id": "6bdf439fe272b08473c54abacee79465", "is_disabled": 0, "rental_uris": {"android": "https://dc.lft.to/lastmile_qr_scan", "ios": "https://dc.lft.to/lastmile_qr_scan"}, "lon": -77.06103, "fusion_lat": 0.0}, {"name": "880646f56ce081039a056dad2935dd80", "fusion_lon": 0.0, "lat": 38.90969033333333, "is_reserved": 0, "type": "electric_scooter", "bike_id": "880646f56ce081039a056dad2935dd80", "is_disabled": 0, "rental_uris": {"android": "https://dc.lft.to/lastmile_qr_scan", "ios": "https://dc.lft.to/lastmile_qr_scan"}, "lon": -77.00938466666666, "fusion_lat": 0.0}, {"name": "8809770b284346885900e6dbab03b919", "fusion_lon": 0.0, "lat": 38.9118125, "is_reserved": 0, "type": "electric_scooter", "bike_id": "8809770b284346885900e6dbab03b919", "is_disabled": 0, "rental_uris": {"android": "https://dc.lft.to/lastmile_qr_scan", "ios": "https://dc.lft.to/lastmile_qr_scan"}, "lon": -77.0351075, "fusion_lat": 0.0}, {"name": "9e3416f9b3665aba8188563cc067e019", "fusion_lon": 0.0, "lat": 38.9322745, "is_reserved": 0, "type": "electric_scooter", "bike_id": "9e3416f9b3665aba8188563cc067e019", "is_disabled": 0, "rental_uris": {"android": "https://dc.lft.to/lastmile_qr_scan", "ios": "https://dc.lft.to/lastmile_qr_scan"}, "lon": -76.99611033333333, "fusion_lat": 0.0}, {"name": "ea3b377e64e19bae6d19cfbb3c910e33", "fusion_lon": 0.0, "lat": 38.923127666666666, "is_reserved": 0, "type": "electric_scooter", "bike_id": "ea3b377e64e19bae6d19cfbb3c910e33", "is_disabled": 0, "rental_uris": {"android": "https://dc.lft.to/lastmile_qr_scan", "ios": "https://dc.lft.to/lastmile_qr_scan"}, "lon": -77.029635, "fusion_lat": 0.0}, {"name": "14815b83fdb66b424156beb746697883", "fusion_lon": 0.0, "lat": 38.966224833333335, "is_reserved": 0, "type": "electric_scooter", "bike_id": "14815b83fdb66b424156beb746697883", "is_disabled": 0, "rental_uris": {"android": "https://dc.lft.to/lastmile_qr_scan", "ios": "https://dc.lft.to/lastmile_qr_scan"}, "lon": -77.02243966666667, "fusion_lat": 0.0}, {"name": "007673a08efd67d1a55e949ef054a584", "fusion_lon": 0.0, "lat": 38.89220266666667, "is_reserved": 0, "type": "electric_scooter", "bike_id": "007673a08efd67d1a55e949ef054a584", "is_disabled": 0, "rental_uris": {"android": "https://dc.lft.to/lastmile_qr_scan", "ios": "https://dc.lft.to/lastmile_qr_scan"}, "lon": -77.043079, "fusion_lat": 0.0}, {"name": "eb9f21d20a4c2e675c3e688acd805338", "fusion_lon": 0.0, "lat": 38.91417583333333, "is_reserved": 0, "type": "electric_scooter", "bike_id": "eb9f21d20a4c2e675c3e688acd805338", "is_disabled": 0, "rental_uris": {"android": "https://dc.lft.to/lastmile_qr_scan", "ios": "https://dc.lft.to/lastmile_qr_scan"}, "lon": -77.02249, "fusion_lat": 0.0}, {"name": "c11f7cb2d6655dd8629b350e188ad721", "fusion_lon": 0.0, "lat": 38.916998166666666, "is_reserved": 0, "type": "electric_scooter", "bike_id": "c11f7cb2d6655dd8629b350e188ad721", "is_disabled": 0, "rental_uris": {"android": "https://dc.lft.to/lastmile_qr_scan", "ios": "https://dc.lft.to/lastmile_qr_scan"}, "lon": -77.04044883333333, "fusion_lat": 0.0}, {"name": "a2c55c44c00f3fefaee1d9fd83a333f4", "fusion_lon": 0.0, "lat": 38.92324516666667, "is_reserved": 0, "type": "electric_scooter", "bike_id": "a2c55c44c00f3fefaee1d9fd83a333f4", "is_disabled": 0, "rental_uris": {"android": "https://dc.lft.to/lastmile_qr_scan", "ios": "https://dc.lft.to/lastmile_qr_scan"}, "lon": -77.07323866666667, "fusion_lat": 0.0}, {"name": "f17fbbe73ff1a5df49c56d6ba483234e", "fusion_lon": 0.0, "lat": 38.933955166666664, "is_reserved": 0, "type": "electric_scooter", "bike_id": "f17fbbe73ff1a5df49c56d6ba483234e", "is_disabled": 0, "rental_uris": {"android": "https://dc.lft.to/lastmile_qr_scan", "ios": "https://dc.lft.to/lastmile_qr_scan"}, "lon": -77.0273965, "fusion_lat": 0.0}, {"name": "79fbe38d40a58f97d51191b6782b0e1f", "fusion_lon": 0.0, "lat": 38.90240333333333, "is_reserved": 0, "type": "electric_scooter", "bike_id": "79fbe38d40a58f97d51191b6782b0e1f", "is_disabled": 0, "rental_uris": {"android": "https://dc.lft.to/lastmile_qr_scan", "ios": "https://dc.lft.to/lastmile_qr_scan"}, "lon": -76.98928533333333, "fusion_lat": 0.0}, {"name": "d4ff8017d36789483124f28a529725be", "fusion_lon": 0.0, "lat": 38.871136, "is_reserved": 0, "type": "electric_scooter", "bike_id": "d4ff8017d36789483124f28a529725be", "is_disabled": 0, "rental_uris": {"android": "https://dc.lft.to/lastmile_qr_scan", "ios": "https://dc.lft.to/lastmile_qr_scan"}, "lon": -77.00750133333334, "fusion_lat": 0.0}, {"name": "ca7b6ac8502522b0603827e927b4eedb", "fusion_lon": 0.0, "lat": 38.907997, "is_reserved": 0, "type": "electric_scooter", "bike_id": "ca7b6ac8502522b0603827e927b4eedb", "is_disabled": 0, "rental_uris": {"android": "https://dc.lft.to/lastmile_qr_scan", "ios": "https://dc.lft.to/lastmile_qr_scan"}, "lon": -77.03130516666667, "fusion_lat": 0.0}, {"name": "e00ce487a319efed202bdea9fb1f82e7", "fusion_lon": 0.0, "lat": 38.911004166666665, "is_reserved": 0, "type": "electric_scooter", "bike_id": "e00ce487a319efed202bdea9fb1f82e7", "is_disabled": 0, "rental_uris": {"android": "https://dc.lft.to/lastmile_qr_scan", "ios": "https://dc.lft.to/lastmile_qr_scan"}, "lon": -77.0420975, "fusion_lat": 0.0}, {"name": "6b2ed004614021b38bb3fb4641bca9a9", "fusion_lon": 0.0, "lat": 38.884872, "is_reserved": 0, "type": "electric_scooter", "bike_id": "6b2ed004614021b38bb3fb4641bca9a9", "is_disabled": 0, "rental_uris": {"android": "https://dc.lft.to/lastmile_qr_scan", "ios": "https://dc.lft.to/lastmile_qr_scan"}, "lon": -77.00712466666667, "fusion_lat": 0.0}, {"name": "1b203c271cdf6befd6841e6126ea45c7", "fusion_lon": 0.0, "lat": 38.91361083333334, "is_reserved": 0, "type": "electric_scooter", "bike_id": "1b203c271cdf6befd6841e6126ea45c7", "is_disabled": 0, "rental_uris": {"android": "https://dc.lft.to/lastmile_qr_scan", "ios": "https://dc.lft.to/lastmile_qr_scan"}, "lon": -77.0162835, "fusion_lat": 0.0}, {"name": "3baa1de84fed203cea137c572c2c13c9", "fusion_lon": 0.0, "lat": 38.91716366666667, "is_reserved": 0, "type": "electric_scooter", "bike_id": "3baa1de84fed203cea137c572c2c13c9", "is_disabled": 0, "rental_uris": {"android": "https://dc.lft.to/lastmile_qr_scan", "ios": "https://dc.lft.to/lastmile_qr_scan"}, "lon": -77.0258995, "fusion_lat": 0.0}, {"name": "02f818f0a2dd7a7af4ce6678d0d9bad0", "fusion_lon": 0.0, "lat": 38.937599666666664, "is_reserved": 0, "type": "electric_scooter", "bike_id": "02f818f0a2dd7a7af4ce6678d0d9bad0", "is_disabled": 0, "rental_uris": {"android": "https://dc.lft.to/lastmile_qr_scan", "ios": "https://dc.lft.to/lastmile_qr_scan"}, "lon": -77.025484, "fusion_lat": 0.0}, {"name": "eef53f848471a99afdb64a6c04dfead8", "fusion_lon": 0.0, "lat": 38.903765166666666, "is_reserved": 0, "type": "electric_scooter", "bike_id": "eef53f848471a99afdb64a6c04dfead8", "is_disabled": 0, "rental_uris": {"android": "https://dc.lft.to/lastmile_qr_scan", "ios": "https://dc.lft.to/lastmile_qr_scan"}, "lon": -77.01743683333333, "fusion_lat": 0.0}, {"name": "fc4d82be15d57ab85fc63e1d5288c76c", "fusion_lon": 0.0, "lat": 38.90011633333334, "is_reserved": 0, "type": "electric_scooter", "bike_id": "fc4d82be15d57ab85fc63e1d5288c76c", "is_disabled": 0, "rental_uris": {"android": "https://dc.lft.to/lastmile_qr_scan", "ios": "https://dc.lft.to/lastmile_qr_scan"}, "lon": -77.00305283333333, "fusion_lat": 0.0}, {"name": "bc93aabcc3b3ce49f24ecdc232b2dc25", "fusion_lon": 0.0, "lat": 38.9089295, "is_reserved": 0, "type": "electric_scooter", "bike_id": "bc93aabcc3b3ce49f24ecdc232b2dc25", "is_disabled": 0, "rental_uris": {"android": "https://dc.lft.to/lastmile_qr_scan", "ios": "https://dc.lft.to/lastmile_qr_scan"}, "lon": -77.03146166666667, "fusion_lat": 0.0}, {"name": "47d115051c87828fcacb8f7e74371a9f", "fusion_lon": 0.0, "lat": 38.907213166666665, "is_reserved": 0, "type": "electric_scooter", "bike_id": "47d115051c87828fcacb8f7e74371a9f", "is_disabled": 0, "rental_uris": {"android": "https://dc.lft.to/lastmile_qr_scan", "ios": "https://dc.lft.to/lastmile_qr_scan"}, "lon": -77.02946233333333, "fusion_lat": 0.0}, {"name": "849a063c29d4d9535db92c487c9f8e1c", "fusion_lon": 0.0, "lat": 38.892210166666665, "is_reserved": 0, "type": "electric_scooter", "bike_id": "849a063c29d4d9535db92c487c9f8e1c", "is_disabled": 0, "rental_uris": {"android": "https://dc.lft.to/lastmile_qr_scan", "ios": "https://dc.lft.to/lastmile_qr_scan"}, "lon": -77.03221066666667, "fusion_lat": 0.0}, {"name": "d176d9efdd55b2ae7f22f12f2ea23449", "fusion_lon": 0.0, "lat": 38.9166575, "is_reserved": 0, "type": "electric_scooter", "bike_id": "d176d9efdd55b2ae7f22f12f2ea23449", "is_disabled": 0, "rental_uris": {"android": "https://dc.lft.to/lastmile_qr_scan", "ios": "https://dc.lft.to/lastmile_qr_scan"}, "lon": -77.029696, "fusion_lat": 0.0}, {"name": "6579378e037ee3d5676ce02733cdb1bf", "fusion_lon": 0.0, "lat": 38.8931865, "is_reserved": 0, "type": "electric_scooter", "bike_id": "6579378e037ee3d5676ce02733cdb1bf", "is_disabled": 0, "rental_uris": {"android": "https://dc.lft.to/lastmile_qr_scan", "ios": "https://dc.lft.to/lastmile_qr_scan"}, "lon": -77.04882416666666, "fusion_lat": 0.0}, {"name": "c94ab8c584ce7eedd0cdbe76815d1ef1", "fusion_lon": 0.0, "lat": 38.95150366666667, "is_reserved": 0, "type": "electric_scooter", "bike_id": "c94ab8c584ce7eedd0cdbe76815d1ef1", "is_disabled": 0, "rental_uris": {"android": "https://dc.lft.to/lastmile_qr_scan", "ios": "https://dc.lft.to/lastmile_qr_scan"}, "lon": -77.018641, "fusion_lat": 0.0}, {"name": "e41b8d53681e7c1867ccbc89a0f4e01c", "fusion_lon": 0.0, "lat": 38.923309333333336, "is_reserved": 0, "type": "electric_scooter", "bike_id": "e41b8d53681e7c1867ccbc89a0f4e01c", "is_disabled": 0, "rental_uris": {"android": "https://dc.lft.to/lastmile_qr_scan", "ios": "https://dc.lft.to/lastmile_qr_scan"}, "lon": -77.05677466666667, "fusion_lat": 0.0}, {"name": "c8df26cbfe8f3eac51c835effa9aba4a", "fusion_lon": 0.0, "lat": 38.90548883333334, "is_reserved": 0, "type": "electric_scooter", "bike_id": "c8df26cbfe8f3eac51c835effa9aba4a", "is_disabled": 0, "rental_uris": {"android": "https://dc.lft.to/lastmile_qr_scan", "ios": "https://dc.lft.to/lastmile_qr_scan"}, "lon": -77.04495216666666, "fusion_lat": 0.0}, {"name": "d899e1c367f9a64df7c1409a15a4d945", "fusion_lon": 0.0, "lat": 38.92657366666667, "is_reserved": 0, "type": "electric_scooter", "bike_id": "d899e1c367f9a64df7c1409a15a4d945", "is_disabled": 0, "rental_uris": {"android": "https://dc.lft.to/lastmile_qr_scan", "ios": "https://dc.lft.to/lastmile_qr_scan"}, "lon": -77.04135516666666, "fusion_lat": 0.0}, {"name": "77a0d6c57c46880ba22d97de98472f13", "fusion_lon": 0.0, "lat": 38.880817, "is_reserved": 0, "type": "electric_scooter", "bike_id": "77a0d6c57c46880ba22d97de98472f13", "is_disabled": 0, "rental_uris": {"android": "https://dc.lft.to/lastmile_qr_scan", "ios": "https://dc.lft.to/lastmile_qr_scan"}, "lon": -76.98503966666667, "fusion_lat": 0.0}, {"name": "14d9b80f839a6af4b3cc1419fde4d969", "fusion_lon": 0.0, "lat": 38.91662016666667, "is_reserved": 0, "type": "electric_scooter", "bike_id": "14d9b80f839a6af4b3cc1419fde4d969", "is_disabled": 0, "rental_uris": {"android": "https://dc.lft.to/lastmile_qr_scan", "ios": "https://dc.lft.to/lastmile_qr_scan"}, "lon": -77.02964833333333, "fusion_lat": 0.0}, {"name": "6193d4cf8ce78f2d8dc196b43b05e23d", "fusion_lon": 0.0, "lat": 38.90012516666667, "is_reserved": 0, "type": "electric_scooter", "bike_id": "6193d4cf8ce78f2d8dc196b43b05e23d", "is_disabled": 0, "rental_uris": {"android": "https://dc.lft.to/lastmile_qr_scan", "ios": "https://dc.lft.to/lastmile_qr_scan"}, "lon": -76.99891816666667, "fusion_lat": 0.0}, {"name": "d38bbe42872369ed02cb5aaffa51d4ba", "fusion_lon": 0.0, "lat": 38.918968166666666, "is_reserved": 0, "type": "electric_scooter", "bike_id": "d38bbe42872369ed02cb5aaffa51d4ba", "is_disabled": 0, "rental_uris": {"android": "https://dc.lft.to/lastmile_qr_scan", "ios": "https://dc.lft.to/lastmile_qr_scan"}, "lon": -77.034527, "fusion_lat": 0.0}, {"name": "5123d1ba3f48d5d3ad15f8038bd282d4", "fusion_lon": 0.0, "lat": 38.91708283333333, "is_reserved": 0, "type": "electric_scooter", "bike_id": "5123d1ba3f48d5d3ad15f8038bd282d4", "is_disabled": 0, "rental_uris": {"android": "https://dc.lft.to/lastmile_qr_scan", "ios": "https://dc.lft.to/lastmile_qr_scan"}, "lon": -77.03328, "fusion_lat": 0.0}, {"name": "fe3a7e5bbfbc2955af029634aa9c49fa", "fusion_lon": 0.0, "lat": 38.892302, "is_reserved": 0, "type": "electric_scooter", "bike_id": "fe3a7e5bbfbc2955af029634aa9c49fa", "is_disabled": 0, "rental_uris": {"android": "https://dc.lft.to/lastmile_qr_scan", "ios": "https://dc.lft.to/lastmile_qr_scan"}, "lon": -77.04654766666667, "fusion_lat": 0.0}, {"name": "dee39d8e85c7432d82b43eadb766bd58", "fusion_lon": 0.0, "lat": 38.901861833333335, "is_reserved": 0, "type": "electric_scooter", "bike_id": "dee39d8e85c7432d82b43eadb766bd58", "is_disabled": 0, "rental_uris": {"android": "https://dc.lft.to/lastmile_qr_scan", "ios": "https://dc.lft.to/lastmile_qr_scan"}, "lon": -76.93367633333334, "fusion_lat": 0.0}, {"name": "92b7d92acc501387128771ce528bd891", "fusion_lon": 0.0, "lat": 38.90246283333333, "is_reserved": 0, "type": "electric_scooter", "bike_id": "92b7d92acc501387128771ce528bd891", "is_disabled": 0, "rental_uris": {"android": "https://dc.lft.to/lastmile_qr_scan", "ios": "https://dc.lft.to/lastmile_qr_scan"}, "lon": -77.01685, "fusion_lat": 0.0}, {"name": "9dec3d2d8298419cf974adb4a2997291", "fusion_lon": 0.0, "lat": 38.908856666666665, "is_reserved": 0, "type": "electric_scooter", "bike_id": "9dec3d2d8298419cf974adb4a2997291", "is_disabled": 0, "rental_uris": {"android": "https://dc.lft.to/lastmile_qr_scan", "ios": "https://dc.lft.to/lastmile_qr_scan"}, "lon": -76.99846333333333, "fusion_lat": 0.0}, {"name": "a1e1e418fadd8f0b8a7f881d69b6b553", "fusion_lon": 0.0, "lat": 38.8757495, "is_reserved": 0, "type": "electric_scooter", "bike_id": "a1e1e418fadd8f0b8a7f881d69b6b553", "is_disabled": 0, "rental_uris": {"android": "https://dc.lft.to/lastmile_qr_scan", "ios": "https://dc.lft.to/lastmile_qr_scan"}, "lon": -77.00607466666666, "fusion_lat": 0.0}, {"name": "e5d8d66291801536455c8afcbc5b108b", "fusion_lon": 0.0, "lat": 38.937702333333334, "is_reserved": 0, "type": "electric_scooter", "bike_id": "e5d8d66291801536455c8afcbc5b108b", "is_disabled": 0, "rental_uris": {"android": "https://dc.lft.to/lastmile_qr_scan", "ios": "https://dc.lft.to/lastmile_qr_scan"}, "lon": -77.02456433333333, "fusion_lat": 0.0}, {"name": "3db0dad13425c65aa92d24c96af0b21c", "fusion_lon": 0.0, "lat": 38.905855333333335, "is_reserved": 0, "type": "electric_scooter", "bike_id": "3db0dad13425c65aa92d24c96af0b21c", "is_disabled": 0, "rental_uris": {"android": "https://dc.lft.to/lastmile_qr_scan", "ios": "https://dc.lft.to/lastmile_qr_scan"}, "lon": -77.02216766666666, "fusion_lat": 0.0}, {"name": "c9c0d3945e000025bedacd4fcaab90d2", "fusion_lon": 0.0, "lat": 38.89866466666667, "is_reserved": 0, "type": "electric_scooter", "bike_id": "c9c0d3945e000025bedacd4fcaab90d2", "is_disabled": 0, "rental_uris": {"android": "https://dc.lft.to/lastmile_qr_scan", "ios": "https://dc.lft.to/lastmile_qr_scan"}, "lon": -76.9466145, "fusion_lat": 0.0}, {"name": "0c5fbb635f7091f9f0063b3424aa30a1", "fusion_lon": 0.0, "lat": 38.9236435, "is_reserved": 0, "type": "electric_scooter", "bike_id": "0c5fbb635f7091f9f0063b3424aa30a1", "is_disabled": 0, "rental_uris": {"android": "https://dc.lft.to/lastmile_qr_scan", "ios": "https://dc.lft.to/lastmile_qr_scan"}, "lon": -77.01952416666667, "fusion_lat": 0.0}, {"name": "f075b1e27d8af3d68216ffb0eee63b97", "fusion_lon": 0.0, "lat": 38.9431885, "is_reserved": 0, "type": "electric_scooter", "bike_id": "f075b1e27d8af3d68216ffb0eee63b97", "is_disabled": 0, "rental_uris": {"android": "https://dc.lft.to/lastmile_qr_scan", "ios": "https://dc.lft.to/lastmile_qr_scan"}, "lon": -77.0613885, "fusion_lat": 0.0}, {"name": "28cc162fdcd788d9292e18c4c3d3c765", "fusion_lon": 0.0, "lat": 38.872081, "is_reserved": 0, "type": "electric_scooter", "bike_id": "28cc162fdcd788d9292e18c4c3d3c765", "is_disabled": 0, "rental_uris": {"android": "https://dc.lft.to/lastmile_qr_scan", "ios": "https://dc.lft.to/lastmile_qr_scan"}, "lon": -76.9783575, "fusion_lat": 0.0}, {"name": "268f3fc4fa3e5412455d2ce010cbf6b1", "fusion_lon": 0.0, "lat": 38.94203816666667, "is_reserved": 0, "type": "electric_scooter", "bike_id": "268f3fc4fa3e5412455d2ce010cbf6b1", "is_disabled": 0, "rental_uris": {"android": "https://dc.lft.to/lastmile_qr_scan", "ios": "https://dc.lft.to/lastmile_qr_scan"}, "lon": -77.02513166666667, "fusion_lat": 0.0}, {"name": "2608a9ba5c434c058f2df665ffcaa3e2", "fusion_lon": 0.0, "lat": 38.89296083333333, "is_reserved": 0, "type": "electric_scooter", "bike_id": "2608a9ba5c434c058f2df665ffcaa3e2", "is_disabled": 0, "rental_uris": {"android": "https://dc.lft.to/lastmile_qr_scan", "ios": "https://dc.lft.to/lastmile_qr_scan"}, "lon": -76.92917183333333, "fusion_lat": 0.0}, {"name": "027c14f4128dca275a8d6ce1adde12af", "fusion_lon": 0.0, "lat": 38.88507033333333, "is_reserved": 0, "type": "electric_scooter", "bike_id": "027c14f4128dca275a8d6ce1adde12af", "is_disabled": 0, "rental_uris": {"android": "https://dc.lft.to/lastmile_qr_scan", "ios": "https://dc.lft.to/lastmile_qr_scan"}, "lon": -76.99842016666666, "fusion_lat": 0.0}, {"name": "4582121ed874ded75bd7424781cf4120", "fusion_lon": 0.0, "lat": 38.90962016666667, "is_reserved": 0, "type": "electric_scooter", "bike_id": "4582121ed874ded75bd7424781cf4120", "is_disabled": 0, "rental_uris": {"android": "https://dc.lft.to/lastmile_qr_scan", "ios": "https://dc.lft.to/lastmile_qr_scan"}, "lon": -77.03301083333334, "fusion_lat": 0.0}, {"name": "4691749b4df8f08e78dd0e83b0ce376f", "fusion_lon": 0.0, "lat": 38.920748833333334, "is_reserved": 0, "type": "electric_scooter", "bike_id": "4691749b4df8f08e78dd0e83b0ce376f", "is_disabled": 0, "rental_uris": {"android": "https://dc.lft.to/lastmile_qr_scan", "ios": "https://dc.lft.to/lastmile_qr_scan"}, "lon": -77.03216066666667, "fusion_lat": 0.0}, {"name": "097e413aae23f05d70f7a42480093f3b", "fusion_lon": 0.0, "lat": 38.916786333333334, "is_reserved": 0, "type": "electric_scooter", "bike_id": "097e413aae23f05d70f7a42480093f3b", "is_disabled": 0, "rental_uris": {"android": "https://dc.lft.to/lastmile_qr_scan", "ios": "https://dc.lft.to/lastmile_qr_scan"}, "lon": -77.0296555, "fusion_lat": 0.0}, {"name": "891813ff8d5cd17f9891d92c55c5d49e", "fusion_lon": 0.0, "lat": 38.912391666666664, "is_reserved": 0, "type": "electric_scooter", "bike_id": "891813ff8d5cd17f9891d92c55c5d49e", "is_disabled": 0, "rental_uris": {"android": "https://dc.lft.to/lastmile_qr_scan", "ios": "https://dc.lft.to/lastmile_qr_scan"}, "lon": -77.03411316666667, "fusion_lat": 0.0}, {"name": "c9b61a09b7f4ddf1849bbd9aa5c4b98e", "fusion_lon": 0.0, "lat": 38.9078595, "is_reserved": 0, "type": "electric_scooter", "bike_id": "c9b61a09b7f4ddf1849bbd9aa5c4b98e", "is_disabled": 0, "rental_uris": {"android": "https://dc.lft.to/lastmile_qr_scan", "ios": "https://dc.lft.to/lastmile_qr_scan"}, "lon": -77.00970633333333, "fusion_lat": 0.0}, {"name": "2432ddf0cdbb389445c1e6e5e26a7a10", "fusion_lon": 0.0, "lat": 38.905629833333336, "is_reserved": 0, "type": "electric_scooter", "bike_id": "2432ddf0cdbb389445c1e6e5e26a7a10", "is_disabled": 0, "rental_uris": {"android": "https://dc.lft.to/lastmile_qr_scan", "ios": "https://dc.lft.to/lastmile_qr_scan"}, "lon": -77.03993883333334, "fusion_lat": 0.0}, {"name": "549074700e868fb849d0d94c8a6b4bdb", "fusion_lon": 0.0, "lat": 38.906198333333336, "is_reserved": 0, "type": "electric_bike", "bike_id": "549074700e868fb849d0d94c8a6b4bdb", "is_disabled": 0, "rental_uris": {"android": "https://dc.lft.to/lastmile_qr_scan", "ios": "https://dc.lft.to/lastmile_qr_scan"}, "lon": -76.9861055, "fusion_lat": 0.0}, {"name": "5fac89889c9820f707c5960a8ed5ff3c", "fusion_lon": 0.0, "lat": 38.90659483333334, "is_reserved": 0, "type": "electric_scooter", "bike_id": "5fac89889c9820f707c5960a8ed5ff3c", "is_disabled": 0, "rental_uris": {"android": "https://dc.lft.to/lastmile_qr_scan", "ios": "https://dc.lft.to/lastmile_qr_scan"}, "lon": -77.0352425, "fusion_lat": 0.0}, {"name": "868b63605c627d6136518bd03d697c57", "fusion_lon": 0.0, "lat": 38.978784833333336, "is_reserved": 0, "type": "electric_bike", "bike_id": "868b63605c627d6136518bd03d697c57", "is_disabled": 0, "rental_uris": {"android": "https://dc.lft.to/lastmile_qr_scan", "ios": "https://dc.lft.to/lastmile_qr_scan"}, "lon": -77.06024233333333, "fusion_lat": 0.0}, {"name": "65dc5954fb406324316a20e00f699f37", "fusion_lon": 0.0, "lat": 38.924806333333336, "is_reserved": 0, "type": "electric_scooter", "bike_id": "65dc5954fb406324316a20e00f699f37", "is_disabled": 0, "rental_uris": {"android": "https://dc.lft.to/lastmile_qr_scan", "ios": "https://dc.lft.to/lastmile_qr_scan"}, "lon": -77.0213765, "fusion_lat": 0.0}, {"name": "c1edf5165941e14c7cec18e932163f57", "fusion_lon": 0.0, "lat": 38.89341666666667, "is_reserved": 0, "type": "electric_scooter", "bike_id": "c1edf5165941e14c7cec18e932163f57", "is_disabled": 0, "rental_uris": {"android": "https://dc.lft.to/lastmile_qr_scan", "ios": "https://dc.lft.to/lastmile_qr_scan"}, "lon": -77.01219083333334, "fusion_lat": 0.0}, {"name": "5997e9a05dbe895d64de1f32d90a7e95", "fusion_lon": 0.0, "lat": 38.88205766666667, "is_reserved": 0, "type": "electric_scooter", "bike_id": "5997e9a05dbe895d64de1f32d90a7e95", "is_disabled": 0, "rental_uris": {"android": "https://dc.lft.to/lastmile_qr_scan", "ios": "https://dc.lft.to/lastmile_qr_scan"}, "lon": -76.9891745, "fusion_lat": 0.0}, {"name": "9706273351cf081076dc9911c0e7cc9a", "fusion_lon": 0.0, "lat": 38.9184085, "is_reserved": 0, "type": "electric_scooter", "bike_id": "9706273351cf081076dc9911c0e7cc9a", "is_disabled": 0, "rental_uris": {"android": "https://dc.lft.to/lastmile_qr_scan", "ios": "https://dc.lft.to/lastmile_qr_scan"}, "lon": -77.02304416666666, "fusion_lat": 0.0}, {"name": "9347c67536b7e42bb7f7dfe95d82830d", "fusion_lon": 0.0, "lat": 38.9086955, "is_reserved": 0, "type": "electric_bike", "bike_id": "9347c67536b7e42bb7f7dfe95d82830d", "is_disabled": 0, "rental_uris": {"android": "https://dc.lft.to/lastmile_qr_scan", "ios": "https://dc.lft.to/lastmile_qr_scan"}, "lon": -76.98540483333333, "fusion_lat": 0.0}, {"name": "36ecbf7a01484ce27456bdb192582925", "fusion_lon": 0.0, "lat": 38.87698133333333, "is_reserved": 0, "type": "electric_scooter", "bike_id": "36ecbf7a01484ce27456bdb192582925", "is_disabled": 0, "rental_uris": {"android": "https://dc.lft.to/lastmile_qr_scan", "ios": "https://dc.lft.to/lastmile_qr_scan"}, "lon": -77.0039585, "fusion_lat": 0.0}, {"name": "87a3cbba7695f2a8b6fe57caf008d1f4", "fusion_lon": 0.0, "lat": 38.865044833333336, "is_reserved": 0, "type": "electric_scooter", "bike_id": "87a3cbba7695f2a8b6fe57caf008d1f4", "is_disabled": 0, "rental_uris": {"android": "https://dc.lft.to/lastmile_qr_scan", "ios": "https://dc.lft.to/lastmile_qr_scan"}, "lon": -76.990025, "fusion_lat": 0.0}, {"name": "b2522e8084d72b9a87b73cb2a2574c73", "fusion_lon": 0.0, "lat": 38.899155, "is_reserved": 0, "type": "electric_scooter", "bike_id": "b2522e8084d72b9a87b73cb2a2574c73", "is_disabled": 0, "rental_uris": {"android": "https://dc.lft.to/lastmile_qr_scan", "ios": "https://dc.lft.to/lastmile_qr_scan"}, "lon": -76.93367483333333, "fusion_lat": 0.0}, {"name": "ec7a071c1df32129302bc5202eb5ede8", "fusion_lon": 0.0, "lat": 38.90091266666667, "is_reserved": 0, "type": "electric_scooter", "bike_id": "ec7a071c1df32129302bc5202eb5ede8", "is_disabled": 0, "rental_uris": {"android": "https://dc.lft.to/lastmile_qr_scan", "ios": "https://dc.lft.to/lastmile_qr_scan"}, "lon": -76.9764485, "fusion_lat": 0.0}, {"name": "847d49f5c89e7c6d3e241a7f5966560f", "fusion_lon": 0.0, "lat": 38.918133, "is_reserved": 0, "type": "electric_scooter", "bike_id": "847d49f5c89e7c6d3e241a7f5966560f", "is_disabled": 0, "rental_uris": {"android": "https://dc.lft.to/lastmile_qr_scan", "ios": "https://dc.lft.to/lastmile_qr_scan"}, "lon": -77.0400155, "fusion_lat": 0.0}, {"name": "5c6518b40720016fa26e28511e630d46", "fusion_lon": 0.0, "lat": 38.923602833333334, "is_reserved": 0, "type": "electric_scooter", "bike_id": "5c6518b40720016fa26e28511e630d46", "is_disabled": 0, "rental_uris": {"android": "https://dc.lft.to/lastmile_qr_scan", "ios": "https://dc.lft.to/lastmile_qr_scan"}, "lon": -77.041241, "fusion_lat": 0.0}, {"name": "bbbbbbd06606d0b3d21b9a7a108152be", "fusion_lon": 0.0, "lat": 38.85920733333333, "is_reserved": 0, "type": "electric_scooter", "bike_id": "bbbbbbd06606d0b3d21b9a7a108152be", "is_disabled": 0, "rental_uris": {"android": "https://dc.lft.to/lastmile_qr_scan", "ios": "https://dc.lft.to/lastmile_qr_scan"}, "lon": -76.9897755, "fusion_lat": 0.0}, {"name": "8f2ad68e8e0b1597781bf006a00e9009", "fusion_lon": 0.0, "lat": 38.90810916666667, "is_reserved": 0, "type": "electric_scooter", "bike_id": "8f2ad68e8e0b1597781bf006a00e9009", "is_disabled": 0, "rental_uris": {"android": "https://dc.lft.to/lastmile_qr_scan", "ios": "https://dc.lft.to/lastmile_qr_scan"}, "lon": -77.08424916666667, "fusion_lat": 0.0}, {"name": "267f88308531b02382ea185b9bd81a26", "fusion_lon": 0.0, "lat": 38.90774866666667, "is_reserved": 0, "type": "electric_scooter", "bike_id": "267f88308531b02382ea185b9bd81a26", "is_disabled": 0, "rental_uris": {"android": "https://dc.lft.to/lastmile_qr_scan", "ios": "https://dc.lft.to/lastmile_qr_scan"}, "lon": -77.0121085, "fusion_lat": 0.0}, {"name": "5135ebb47a763a651d052141a0f99024", "fusion_lon": 0.0, "lat": 38.921209, "is_reserved": 0, "type": "electric_scooter", "bike_id": "5135ebb47a763a651d052141a0f99024", "is_disabled": 0, "rental_uris": {"android": "https://dc.lft.to/lastmile_qr_scan", "ios": "https://dc.lft.to/lastmile_qr_scan"}, "lon": -77.03662033333333, "fusion_lat": 0.0}, {"name": "660a5c0bd9abf5913f4ad370d050e220", "fusion_lon": 0.0, "lat": 38.926986166666666, "is_reserved": 0, "type": "electric_scooter", "bike_id": "660a5c0bd9abf5913f4ad370d050e220", "is_disabled": 0, "rental_uris": {"android": "https://dc.lft.to/lastmile_qr_scan", "ios": "https://dc.lft.to/lastmile_qr_scan"}, "lon": -77.021305, "fusion_lat": 0.0}, {"name": "c6b23651a644af11e43cca4a0628395a", "fusion_lon": 0.0, "lat": 38.91004216666666, "is_reserved": 0, "type": "electric_scooter", "bike_id": "c6b23651a644af11e43cca4a0628395a", "is_disabled": 0, "rental_uris": {"android": "https://dc.lft.to/lastmile_qr_scan", "ios": "https://dc.lft.to/lastmile_qr_scan"}, "lon": -77.04008066666667, "fusion_lat": 0.0}, {"name": "d233cf974b97f80384cf328dece115e2", "fusion_lon": 0.0, "lat": 38.829475, "is_reserved": 0, "type": "electric_bike", "bike_id": "d233cf974b97f80384cf328dece115e2", "is_disabled": 0, "rental_uris": {"android": "https://dc.lft.to/lastmile_qr_scan", "ios": "https://dc.lft.to/lastmile_qr_scan"}, "lon": -77.12359, "fusion_lat": 0.0}, {"name": "c69d407340bf1595cbbfacdc49dc75ea", "fusion_lon": 0.0, "lat": 38.933149666666665, "is_reserved": 0, "type": "electric_bike", "bike_id": "c69d407340bf1595cbbfacdc49dc75ea", "is_disabled": 0, "rental_uris": {"android": "https://dc.lft.to/lastmile_qr_scan", "ios": "https://dc.lft.to/lastmile_qr_scan"}, "lon": -77.032087, "fusion_lat": 0.0}, {"name": "380d43a6d7d02481c8c882d27632cc47", "fusion_lon": 0.0, "lat": 38.92145516666667, "is_reserved": 0, "type": "electric_scooter", "bike_id": "380d43a6d7d02481c8c882d27632cc47", "is_disabled": 0, "rental_uris": {"android": "https://dc.lft.to/lastmile_qr_scan", "ios": "https://dc.lft.to/lastmile_qr_scan"}, "lon": -77.04331316666666, "fusion_lat": 0.0}, {"name": "83d1af230af04d1161e334aa8c51f03e", "fusion_lon": 0.0, "lat": 38.9204635, "is_reserved": 0, "type": "electric_scooter", "bike_id": "83d1af230af04d1161e334aa8c51f03e", "is_disabled": 0, "rental_uris": {"android": "https://dc.lft.to/lastmile_qr_scan", "ios": "https://dc.lft.to/lastmile_qr_scan"}, "lon": -76.989467, "fusion_lat": 0.0},