{"data": {"bikes": [{"type": "electric_scooter", "name": "a5d5ab3119e62aa362ee601e0546484b", "fusion_lat": 0.0, "fusion_lon": 0.0, "lon": -76.99792366666667, "is_disabled": 0, "bike_id": "a5d5ab3119e62aa362ee601e0546484b", "is_reserved": 0, "rental_uris": {"android": "https://dc.lft.to/lastmile_qr_scan", "ios": "https://dc.lft.to/lastmile_qr_scan"}, "lat": 38.87636233333333}, {"type": "electric_scooter", "name": "b39a4b168cf7d543246e136d689c745a", "fusion_lat": 0.0, "fusion_lon": 0.0, "lon": -77.02699833333334, "is_disabled": 0, "bike_id": "b39a4b168cf7d543246e136d689c745a", "is_reserved": 0, "rental_uris": {"android": "https://dc.lft.to/lastmile_qr_scan", "ios": "https://dc.lft.to/lastmile_qr_scan"}, "lat": 38.90839616666667}, {"type": "electric_scooter", "name": "bda4a532a14ce88581ab26f358e6116a", "fusion_lat": 0.0, "fusion_lon": 0.0, "lon": -76.975652, "is_disabled": 0, "bike_id": "bda4a532a14ce88581ab26f358e6116a", "is_reserved": 0, "rental_uris": {"android": "https://dc.lft.to/lastmile_qr_scan", "ios": "https://dc.lft.to/lastmile_qr_scan"}, "lat": 38.9442205}, {"type": "electric_scooter", "name": "705c72842df054ca88cbc01ddd53d718", "fusion_lat": 0.0, "fusion_lon": 0.0, "lon": -76.94931883333334, "is_disabled": 0, "bike_id": "705c72842df054ca88cbc01ddd53d718", "is_reserved": 0, "rental_uris": {"android": "https://dc.lft.to/lastmile_qr_scan", "ios": "https://dc.lft.to/lastmile_qr_scan"}, "lat": 38.89530533333333}, {"type": "electric_scooter", "name": "f6c39a206a5637dcf065b60aaac8f2ba", "fusion_lat": 0.0, "fusion_lon": 0.0, "lon": -77.00344833333334, "is_disabled": 0, "bike_id": "f6c39a206a5637dcf065b60aaac8f2ba", "is_reserved": 0, "rental_uris": {"android": "https://dc.lft.to/lastmile_qr_scan", "ios": "https://dc.lft.to/lastmile_qr_scan"}, "lat": 38.910858166666664}, {"type": "electric_scooter", "name": "8907b344d883df7ebc7a9289aa7d22e0", "fusion_lat": 0.0, "fusion_lon": 0.0, "lon": -77.04609533333333, "is_disabled": 0, "bike_id": "8907b344d883df7ebc7a9289aa7d22e0", "is_reserved": 0, "rental_uris": {"android": "https://dc.lft.to/lastmile_qr_scan", "ios": "https://dc.lft.to/lastmile_qr_scan"}, "lat": 38.91526416666667}, {"type": "electric_scooter", "name": "f60c0a295fd2faaa5a0165d21fdd9251", "fusion_lat": 0.0, "fusion_lon": 0.0, "lon": -77.07338666666666, "is_disabled": 0, "bike_id": "f60c0a295fd2faaa5a0165d21fdd9251", "is_reserved": 0, "rental_uris": {"android": "https://dc.lft.to/lastmile_qr_scan", "ios": "https://dc.lft.to/lastmile_qr_scan"}, "lat": 38.960891}, {"type": "electric_scooter", "name": "6eebe92b3d43a9e67bcd7395c3263d17", "fusion_lat": 0.0, "fusion_lon": 0.0, "lon": -77.06077133333334, "is_disabled": 0, "bike_id": "6eebe92b3d43a9e67bcd7395c3263d17", "is_reserved": 0, "rental_uris": {"android": "https://dc.lft.to/lastmile_qr_scan", "ios": "https://dc.lft.to/lastmile_qr_scan"}, "lat": 38.940576666666665}, {"type": "electric_scooter", "name": "034bcb1d5ddda67d98bb6d981500d31c", "fusion_lat": 0.0, "fusion_lon": 0.0, "lon": -77.03573666666666, "is_disabled": 0, "bike_id": "034bcb1d5ddda67d98bb6d981500d31c", "is_reserved": 0, "rental_uris": {"android": "https://dc.lft.to/lastmile_qr_scan", "ios": "https://dc.lft.to/lastmile_qr_scan"}, "lat": 38.927547833333335}, {"type": "electric_scooter", "name": "e771b04dc27999466c9cf52eba88212d", "fusion_lat": 0.0, "fusion_lon": 0.0, "lon": -77.05370316666666, "is_disabled": 0, "bike_id": "e771b04dc27999466c9cf52eba88212d", "is_reserved": 0, "rental_uris": {"android": "https://dc.lft.to/lastmile_qr_scan", "ios": "https://dc.lft.to/lastmile_qr_scan"}, "lat": 38.903761333333335}, {"type": "electric_scooter", "name": "7f593086c07c0bab9fdf26a491b42b20", "fusion_lat": 0.0, "fusion_lon": 0.0, "lon": -77.02181483333334, "is_disabled": 0, "bike_id": "7f593086c07c0bab9fdf26a491b42b20", "is_reserved": 0, "rental_uris": {"android": "https://dc.lft.to/lastmile_qr_scan", "ios": "https://dc.lft.to/lastmile_qr_scan"}, "lat": 38.90545633333333}, {"type": "electric_bike", "name": "5c9684cf3679169ff40898ff7c7b5429", "fusion_lat": 0.0, "fusion_lon": 0.0, "lon": -76.95794133333334, "is_disabled": 0, "bike_id": "5c9684cf3679169ff40898ff7c7b5429", "is_reserved": 0, "rental_uris": {"android": "https://dc.lft.to/lastmile_qr_scan", "ios": "https://dc.lft.to/lastmile_qr_scan"}, "lat": 38.98042233333334}, {"type": "electric_bike", "name": "9d0f3724b94ec5ac65b190bd42dcd0de", "fusion_lat": 0.0, "fusion_lon": 0.0, "lon": -76.9917545, "is_disabled": 0, "bike_id": "9d0f3724b94ec5ac65b190bd42dcd0de", "is_reserved": 0, "rental_uris": {"android": "https://dc.lft.to/lastmile_qr_scan", "ios": "https://dc.lft.to/lastmile_qr_scan"}, "lat": 38.960769}, {"type": "electric_scooter", "name": "511f7385c038028ce3fd3862e3477d86", "fusion_lat": 0.0, "fusion_lon": 0.0, "lon": -77.03122066666667, "is_disabled": 0, "bike_id": "511f7385c038028ce3fd3862e3477d86", "is_reserved": 0, "rental_uris": {"android": "https://dc.lft.to/lastmile_qr_scan", "ios": "https://dc.lft.to/lastmile_qr_scan"}, "lat": 38.92305616666667}, {"type": "electric_bike", "name": "85dd8e161b920bb198bc5af762e63d11", "fusion_lat": 0.0, "fusion_lon": 0.0, "lon": -77.0013675, "is_disabled": 0, "bike_id": "85dd8e161b920bb198bc5af762e63d11", "is_reserved": 0, "rental_uris": {"android": "https://dc.lft.to/lastmile_qr_scan", "ios": "https://dc.lft.to/lastmile_qr_scan"}, "lat": 38.994960666666664}, {"type": "electric_scooter", "name": "84cb016beeb45445a85a52a0a42fbc0a", "fusion_lat": 0.0, "fusion_lon": 0.0, "lon": -77.045715, "is_disabled": 0, "bike_id": "84cb016beeb45445a85a52a0a42fbc0a", "is_reserved": 0, "rental_uris": {"android": "https://dc.lft.to/lastmile_qr_scan", "ios": "https://dc.lft.to/lastmile_qr_scan"}, "lat": 38.9038755}, {"type": "electric_scooter", "name": "fa9fd3fa0341f74121e77c1f40619a71", "fusion_lat": 0.0, "fusion_lon": 0.0, "lon": -77.053259, "is_disabled": 0, "bike_id": "fa9fd3fa0341f74121e77c1f40619a71", "is_reserved": 0, "rental_uris": {"android": "https://dc.lft.to/lastmile_qr_scan", "ios": "https://dc.lft.to/lastmile_qr_scan"}, "lat": 38.90455266666667}, {"type": "electric_bike", "name": "546b38b4e066039cce102b7d17d50251", "fusion_lat": 0.0, "fusion_lon": 0.0, "lon": -77.00706366666667, "is_disabled": 0, "bike_id": "546b38b4e066039cce102b7d17d50251", "is_reserved": 0, "rental_uris": {"android": "https://dc.lft.to/lastmile_qr_scan", "ios": "https://dc.lft.to/lastmile_qr_scan"}, "lat": 38.952407666666666}, {"type": "electric_scooter", "name": "338a3c9347c72228a485a1f9dab623b1", "fusion_lat": 0.0, "fusion_lon": 0.0, "lon": -77.0194935, "is_disabled": 0, "bike_id": "338a3c9347c72228a485a1f9dab623b1", "is_reserved": 0, "rental_uris": {"android": "https://dc.lft.to/lastmile_qr_scan", "ios": "https://dc.lft.to/lastmile_qr_scan"}, "lat": 38.922567}, {"type": "electric_scooter", "name": "6b842e4834a83c53e84b7a8007109ce8", "fusion_lat": 0.0, "fusion_lon": 0.0, "lon": -76.99871766666666, "is_disabled": 0, "bike_id": "6b842e4834a83c53e84b7a8007109ce8", "is_reserved": 0, "rental_uris": {"android": "https://dc.lft.to/lastmile_qr_scan", "ios": "https://dc.lft.to/lastmile_qr_scan"}, "lat": 38.900292}, {"type": "electric_scooter", "name": "bf21d8be4a9e0446a4369ff539b713fe", "fusion_lat": 0.0, "fusion_lon": 0.0, "lon": -77.024553, "is_disabled": 0, "bike_id": "bf21d8be4a9e0446a4369ff539b713fe", "is_reserved": 0, "rental_uris": {"android": "https://dc.lft.to/lastmile_qr_scan", "ios": "https://dc.lft.to/lastmile_qr_scan"}, "lat": 38.915144166666664}, {"type": "electric_scooter", "name": "b5bbfd0bcb5a91fce0a750d520f2d5fa", "fusion_lat": 0.0, "fusion_lon": 0.0, "lon": -77.00059883333333, "is_disabled": 0, "bike_id": "b5bbfd0bcb5a91fce0a750d520f2d5fa", "is_reserved": 0, "rental_uris": {"android": "https://dc.lft.to/lastmile_qr_scan", "ios": "https://dc.lft.to/lastmile_qr_scan"}, "lat": 38.8787825}, {"type": "electric_scooter", "name": "690029c5d7dba7b5b41748a13e42cbf2", "fusion_lat": 0.0, "fusion_lon": 0.0, "lon": -77.03657483333333, "is_disabled": 0, "bike_id": "690029c5d7dba7b5b41748a13e42cbf2", "is_reserved": 0, "rental_uris": {"android": "https://dc.lft.to/lastmile_qr_scan", "ios": "https://dc.lft.to/lastmile_qr_scan"}, "lat": 38.9029005}, {"type": "electric_scooter", "name": "56a9bcce7dd7673c295fdf03716aa353", "fusion_lat": 0.0, "fusion_lon": 0.0, "lon": -77.00267133333334, "is_disabled": 0, "bike_id": "56a9bcce7dd7673c295fdf03716aa353", "is_reserved": 0, "rental_uris": {"android": "https://dc.lft.to/lastmile_qr_scan", "ios": "https://dc.lft.to/lastmile_qr_scan"}, "lat": 38.905846333333336}, {"type": "electric_scooter", "name": "eb2bf9990160521b648062c043e069d2", "fusion_lat": 0.0, "fusion_lon": 0.0, "lon": -77.0262675, "is_disabled": 0, "bike_id": "eb2bf9990160521b648062c043e069d2", "is_reserved": 0, "rental_uris": {"android": "https://dc.lft.to/lastmile_qr_scan", "ios": "https://dc.lft.to/lastmile_qr_scan"}, "lat": 38.938621}, {"type": "electric_scooter", "name": "a1bc3e63663d6a4b2091c162cdf86db6", "fusion_lat": 0.0, "fusion_lon": 0.0, "lon": -77.02216783333333, "is_disabled": 0, "bike_id": "a1bc3e63663d6a4b2091c162cdf86db6", "is_reserved": 0, "rental_uris": {"android": "https://dc.lft.to/lastmile_qr_scan", "ios": "https://dc.lft.to/lastmile_qr_scan"}, "lat": 38.9247485}, {"type": "electric_bike", "name": "9da1c03999cba836b92a4bc819e5a79a", "fusion_lat": 0.0, "fusion_lon": 0.0, "lon": -77.04990516666666, "is_disabled": 0, "bike_id": "9da1c03999cba836b92a4bc819e5a79a", "is_reserved": 0, "rental_uris": {"android": "https://dc.lft.to/lastmile_qr_scan", "ios": "https://dc.lft.to/lastmile_qr_scan"}, "lat": 38.805287}, {"type": "electric_scooter", "name": "267b9a64676df9b6fc9ee0a55bb94fdb", "fusion_lat": 0.0, "fusion_lon": 0.0, "lon": -77.04646416666667, "is_disabled": 0, "bike_id": "267b9a64676df9b6fc9ee0a55bb94fdb", "is_reserved": 0, "rental_uris": {"android": "https://dc.lft.to/lastmile_qr_scan", "ios": "https://dc.lft.to/lastmile_qr_scan"}, "lat": 38.906723666666664}, {"type": "electric_scooter", "name": "b1d8a17e6488d54480bdaea616894130", "fusion_lat": 0.0, "fusion_lon": 0.0, "lon": -76.99766016666666, "is_disabled": 0, "bike_id": "b1d8a17e6488d54480bdaea616894130", "is_reserved": 0, "rental_uris": {"android": "https://dc.lft.to/lastmile_qr_scan", "ios": "https://dc.lft.to/lastmile_qr_scan"}, "lat": 38.911132}, {"type": "electric_scooter", "name": "a290a962139a023e6dddbf4ea5a290f4", "fusion_lat": 0.0, "fusion_lon": 0.0, "lon": -77.02092116666667, "is_disabled": 0, "bike_id": "a290a962139a023e6dddbf4ea5a290f4", "is_reserved": 0, "rental_uris": {"android": "https://dc.lft.to/lastmile_qr_scan", "ios": "https://dc.lft.to/lastmile_qr_scan"}, "lat": 38.895930166666666}, {"type": "electric_scooter", "name": "c857a3c10acf86617da7dfe7d8555afb", "fusion_lat": 0.0, "fusion_lon": 0.0, "lon": -77.04339866666666, "is_disabled": 0, "bike_id": "c857a3c10acf86617da7dfe7d8555afb", "is_reserved": 0, "rental_uris": {"android": "https://dc.lft.to/lastmile_qr_scan", "ios": "https://dc.lft.to/lastmile_qr_scan"}, "lat": 38.90414783333333}, {"type": "electric_bike", "name": "bdf2b0de47d8bf526c1be44e06ae2769", "fusion_lat": 0.0, "fusion_lon": 0.0, "lon": -76.9631945, "is_disabled": 0, "bike_id": "bdf2b0de47d8bf526c1be44e06ae2769", "is_reserved": 0, "rental_uris": {"android": "https://dc.lft.to/lastmile_qr_scan", "ios": "https://dc.lft.to/lastmile_qr_scan"}, "lat": 38.9389515}, {"type": "electric_scooter", "name": "81cc346c96004c0a26c82e0f55be166f", "fusion_lat": 0.0, "fusion_lon": 0.0, "lon": -77.05986483333334, "is_disabled": 0, "bike_id": "81cc346c96004c0a26c82e0f55be166f", "is_reserved": 0, "rental_uris": {"android": "https://dc.lft.to/lastmile_qr_scan", "ios": "https://dc.lft.to/lastmile_qr_scan"}, "lat": 38.901887333333335}, {"type": "electric_scooter", "name": "1dbd597bf310effe30c7995d4890db09", "fusion_lat": 0.0, "fusion_lon": 0.0, "lon": -77.02074866666666, "is_disabled": 0, "bike_id": "1dbd597bf310effe30c7995d4890db09", "is_reserved": 0, "rental_uris": {"android": "https://dc.lft.to/lastmile_qr_scan", "ios": "https://dc.lft.to/lastmile_qr_scan"}, "lat": 38.930186166666665}, {"type": "electric_scooter", "name": "31b73efb9b800e6adf1897e37e9d80a1", "fusion_lat": 0.0, "fusion_lon": 0.0, "lon": -77.049957, "is_disabled": 0, "bike_id": "31b73efb9b800e6adf1897e37e9d80a1", "is_reserved": 0, "rental_uris": {"android": "https://dc.lft.to/lastmile_qr_scan", "ios": "https://dc.lft.to/lastmile_qr_scan"}, "lat": 38.901321}, {"type": "electric_scooter", "name": "f8e01a08a07df593e3855ede2cd3bb0f", "fusion_lat": 0.0, "fusion_lon": 0.0, "lon": -76.99030583333334, "is_disabled": 0, "bike_id": "f8e01a08a07df593e3855ede2cd3bb0f", "is_reserved": 0, "rental_uris": {"android": "https://dc.lft.to/lastmile_qr_scan", "ios": "https://dc.lft.to/lastmile_qr_scan"}, "lat": 38.888677}, {"type": "electric_scooter", "name": "273338c736006f32e6bb86ecbc3c303a", "fusion_lat": 0.0, "fusion_lon": 0.0, "lon": -77.018571, "is_disabled": 0, "bike_id": "273338c736006f32e6bb86ecbc3c303a", "is_reserved": 0, "rental_uris": {"android": "https://dc.lft.to/lastmile_qr_scan", "ios": "https://dc.lft.to/lastmile_qr_scan"}, "lat": 38.949201333333335}, {"type": "electric_scooter", "name": "b4297efe4124d41090186ab6fd93b268", "fusion_lat": 0.0, "fusion_lon": 0.0, "lon": -77.01379233333333, "is_disabled": 0, "bike_id": "b4297efe4124d41090186ab6fd93b268", "is_reserved": 0, "rental_uris": {"android": "https://dc.lft.to/lastmile_qr_scan", "ios": "https://dc.lft.to/lastmile_qr_scan"}, "lat": 38.875983166666664}, {"type": "electric_scooter", "name": "7125db4159ddfcddbbaed9e4abf2f9ad", "fusion_lat": 0.0, "fusion_lon": 0.0, "lon": -76.99836966666666, "is_disabled": 0, "bike_id": "7125db4159ddfcddbbaed9e4abf2f9ad", "is_reserved": 0, "rental_uris": {"android": "https://dc.lft.to/lastmile_qr_scan", "ios": "https://dc.lft.to/lastmile_qr_scan"}, "lat": 38.900590333333334}, {"type": "electric_bike", "name": "3545cecc238bba42e9cd4fbb0b2cc9d6", "fusion_lat": 0.0, "fusion_lon": 0.0, "lon": -77.0037525, "is_disabled": 0, "bike_id": "3545cecc238bba42e9cd4fbb0b2cc9d6", "is_reserved": 0, "rental_uris": {"android": "https://dc.lft.to/lastmile_qr_scan", "ios": "https://dc.lft.to/lastmile_qr_scan"}, "lat": 38.83600533333333}, {"type": "electric_scooter", "name": "79080bda44bb7d13bd924e18e2b47cba", "fusion_lat": 0.0, "fusion_lon": 0.0, "lon": -77.03728083333333, "is_disabled": 0, "bike_id": "79080bda44bb7d13bd924e18e2b47cba", "is_reserved": 0, "rental_uris": {"android": "https://dc.lft.to/lastmile_qr_scan", "ios": "https://dc.lft.to/lastmile_qr_scan"}, "lat": 38.9202215}, {"type": "electric_bike", "name": "9bf5172c418ce6c0810eed6038006923", "fusion_lat": 0.0, "fusion_lon": 0.0, "lon": -77.0024495, "is_disabled": 0, "bike_id": "9bf5172c418ce6c0810eed6038006923", "is_reserved": 0, "rental_uris": {"android": "https://dc.lft.to/lastmile_qr_scan", "ios": "https://dc.lft.to/lastmile_qr_scan"}, "lat": 38.83839}, {"type": "electric_scooter", "name": "255f817b1bbb862dd3d213e66541b0b2", "fusion_lat": 0.0, "fusion_lon": 0.0, "lon": -77.03642366666666, "is_disabled": 0, "bike_id": "255f817b1bbb862dd3d213e66541b0b2", "is_reserved": 0, "rental_uris": {"android": "https://dc.lft.to/lastmile_qr_scan", "ios": "https://dc.lft.to/lastmile_qr_scan"}, "lat": 38.917406666666665}, {"type": "electric_scooter", "name": "d17c7c9eecc9b0cb03e3e060c4967bea", "fusion_lat": 0.0, "fusion_lon": 0.0, "lon": -76.994958, "is_disabled": 0, "bike_id": "d17c7c9eecc9b0cb03e3e060c4967bea", "is_reserved": 0, "rental_uris": {"android": "https://dc.lft.to/lastmile_qr_scan", "ios": "https://dc.lft.to/lastmile_qr_scan"}, "lat": 38.92579683333334}, {"type": "electric_scooter", "name": "c113a60faa2992e3f9a7c7cd93937742", "fusion_lat": 0.0, "fusion_lon": 0.0, "lon": -77.02820683333333, "is_disabled": 0, "bike_id": "c113a60faa2992e3f9a7c7cd93937742", "is_reserved": 0, "rental_uris": {"android": "https://dc.lft.to/lastmile_qr_scan", "ios": "https://dc.lft.to/lastmile_qr_scan"}, "lat": 38.89945216666667}, {"type": "electric_scooter", "name": "18d10589730e8b936145667274cf0143", "fusion_lat": 0.0, "fusion_lon": 0.0, "lon": -77.03752, "is_disabled": 0, "bike_id": "18d10589730e8b936145667274cf0143", "is_reserved": 0, "rental_uris": {"android": "https://dc.lft.to/lastmile_qr_scan", "ios": "https://dc.lft.to/lastmile_qr_scan"}, "lat": 38.906799666666664}, {"type": "electric_scooter", "name": "bca8e3a70c9a499d108266edd9d9029a", "fusion_lat": 0.0, "fusion_lon": 0.0, "lon": -77.03528483333334, "is_disabled": 0, "bike_id": "bca8e3a70c9a499d108266edd9d9029a", "is_reserved": 0, "rental_uris": {"android": "https://dc.lft.to/lastmile_qr_scan", "ios": "https://dc.lft.to/lastmile_qr_scan"}, "lat": 38.90279183333333}, {"type": "electric_scooter", "name": "47e04b17e122fb0a2386feae8abbff76", "fusion_lat": 0.0, "fusion_lon": 0.0, "lon": -77.038332, "is_disabled": 0, "bike_id": "47e04b17e122fb0a2386feae8abbff76", "is_reserved": 0, "rental_uris": {"android": "https://dc.lft.to/lastmile_qr_scan", "ios": "https://dc.lft.to/lastmile_qr_scan"}, "lat": 38.903996}, {"type": "electric_scooter", "name": "f423be2dcb6ee93e1f3f0be715a9a770", "fusion_lat": 0.0, "fusion_lon": 0.0, "lon": -77.0006455, "is_disabled": 0, "bike_id": "f423be2dcb6ee93e1f3f0be715a9a770", "is_reserved": 0, "rental_uris": {"android": "https://dc.lft.to/lastmile_qr_scan", "ios": "https://dc.lft.to/lastmile_qr_scan"}, "lat": 38.881175666666664}, {"type": "electric_scooter", "name": "b2d4084eddc47e6e8e2cec8270c2c705", "fusion_lat": 0.0, "fusion_lon": 0.0, "lon": -77.0258005, "is_disabled": 0, "bike_id": "b2d4084eddc47e6e8e2cec8270c2c705", "is_reserved": 0, "rental_uris": {"android": "https://dc.lft.to/lastmile_qr_scan", "ios": "https://dc.lft.to/lastmile_qr_scan"}, "lat": 38.925146166666664}, {"type": "electric_scooter", "name": "2fe034549da891005b6be9ba0a1437fd", "fusion_lat": 0.0, "fusion_lon": 0.0, "lon": -77.02322516666666, "is_disabled": 0, "bike_id": "2fe034549da891005b6be9ba0a1437fd", "is_reserved": 0, "rental_uris": {"android": "https://dc.lft.to/lastmile_qr_scan", "ios": "https://dc.lft.to/lastmile_qr_scan"}, "lat": 38.930564833333335}, {"type": "electric_scooter", "name": "57f7ffb6a8445c9ddfbbcc6645ce94e1", "fusion_lat": 0.0, "fusion_lon": 0.0, "lon": -77.03443666666666, "is_disabled": 0, "bike_id": "57f7ffb6a8445c9ddfbbcc6645ce94e1", "is_reserved": 0, "rental_uris": {"android": "https://dc.lft.to/lastmile_qr_scan", "ios": "https://dc.lft.to/lastmile_qr_scan"}, "lat": 38.9205055}, {"type": "electric_scooter", "name": "82e12a03884ed8d212e0838f937213f8", "fusion_lat": 0.0, "fusion_lon": 0.0, "lon": -76.9995995, "is_disabled": 0, "bike_id": "82e12a03884ed8d212e0838f937213f8", "is_reserved": 0, "rental_uris": {"android": "https://dc.lft.to/lastmile_qr_scan", "ios": "https://dc.lft.to/lastmile_qr_scan"}, "lat": 38.901062833333334}, {"type": "electric_scooter", "name": "68ef2b92c6175f6bdef25bcf969d6435", "fusion_lat": 0.0, "fusion_lon": 0.0, "lon": -77.04132266666667, "is_disabled": 0, "bike_id": "68ef2b92c6175f6bdef25bcf969d6435", "is_reserved": 0, "rental_uris": {"android": "https://dc.lft.to/lastmile_qr_scan", "ios": "https://dc.lft.to/lastmile_qr_scan"}, "lat": 38.9306855}, {"type": "electric_scooter", "name": "19a84597deb471dd77ee8cf857d40435", "fusion_lat": 0.0, "fusion_lon": 0.0, "lon": -77.02352483333334, "is_disabled": 0, "bike_id": "19a84597deb471dd77ee8cf857d40435", "is_reserved": 0, "rental_uris": {"android": "https://dc.lft.to/lastmile_qr_scan", "ios": "https://dc.lft.to/lastmile_qr_scan"}, "lat": 38.935311}, {"type": "electric_scooter", "name": "40e5432b237a4c2b2900f2dad256cfcb", "fusion_lat": 0.0, "fusion_lon": 0.0, "lon": -77.04531833333333, "is_disabled": 0, "bike_id": "40e5432b237a4c2b2900f2dad256cfcb", "is_reserved": 0, "rental_uris": {"android": "https://dc.lft.to/lastmile_qr_scan", "ios": "https://dc.lft.to/lastmile_qr_scan"}, "lat": 38.911114833333336}, {"type": "electric_scooter", "name": "6c68a4b6482be1994cb02fb6dd59c18b", "fusion_lat": 0.0, "fusion_lon": 0.0, "lon": -77.04557616666666, "is_disabled": 0, "bike_id": "6c68a4b6482be1994cb02fb6dd59c18b", "is_reserved": 0, "rental_uris": {"android": "https://dc.lft.to/lastmile_qr_scan", "ios": "https://dc.lft.to/lastmile_qr_scan"}, "lat": 38.900756}, {"type": "electric_scooter", "name": "37d6851aeb1fb758ede49fe60c4b0d0c", "fusion_lat": 0.0, "fusion_lon": 0.0, "lon": -77.0271, "is_disabled": 0, "bike_id": "37d6851aeb1fb758ede49fe60c4b0d0c", "is_reserved": 0, "rental_uris": {"android": "https://dc.lft.to/lastmile_qr_scan", "ios": "https://dc.lft.to/lastmile_qr_scan"}, "lat": 38.92652733333333}, {"type": "electric_bike", "name": "27f1c6b923148d94b38e15f00adccbcf", "fusion_lat": 0.0, "fusion_lon": 0.0, "lon": -77.01355, "is_disabled": 0, "bike_id": "27f1c6b923148d94b38e15f00adccbcf", "is_reserved": 0, "rental_uris": {"android": "https://dc.lft.to/lastmile_qr_scan", "ios": "https://dc.lft.to/lastmile_qr_scan"}, "lat": 38.96158633333334}, {"type": "electric_scooter", "name": "0c91d7b710ea0ea93d023890e99512e0", "fusion_lat": 0.0, "fusion_lon": 0.0, "lon": -77.01563416666667, "is_disabled": 0, "bike_id": "0c91d7b710ea0ea93d023890e99512e0", "is_reserved": 0, "rental_uris": {"android": "https://dc.lft.to/lastmile_qr_scan", "ios": "https://dc.lft.to/lastmile_qr_scan"}, "lat": 38.876253}, {"type": "electric_scooter", "name": "7a286590f369f13a2d2b6e0058169d7f", "fusion_lat": 0.0, "fusion_lon": 0.0, "lon": -77.02205533333333, "is_disabled": 0, "bike_id": "7a286590f369f13a2d2b6e0058169d7f", "is_reserved": 0, "rental_uris": {"android": "https://dc.lft.to/lastmile_qr_scan", "ios": "https://dc.lft.to/lastmile_qr_scan"}, "lat": 38.892306833333336}, {"type": "electric_scooter", "name": "22e0250e51b79c6237f152dc65afd9ef", "fusion_lat": 0.0, "fusion_lon": 0.0, "lon": -77.0246855, "is_disabled": 0, "bike_id": "22e0250e51b79c6237f152dc65afd9ef", "is_reserved": 0, "rental_uris": {"android": "https://dc.lft.to/lastmile_qr_scan", "ios": "https://dc.lft.to/lastmile_qr_scan"}, "lat": 38.919284166666664}, {"type": "electric_scooter", "name": "85978ca41fc385c12321f89f0e827724", "fusion_lat": 0.0, "fusion_lon": 0.0, "lon": -77.00990966666667, "is_disabled": 0, "bike_id": "85978ca41fc385c12321f89f0e827724", "is_reserved": 0, "rental_uris": {"android": "https://dc.lft.to/lastmile_qr_scan", "ios": "https://dc.lft.to/lastmile_qr_scan"}, "lat": 38.872951}, {"type": "electric_scooter", "name": "2b1c854922a7cab5c63e3b139d11a207", "fusion_lat": 0.0, "fusion_lon": 0.0, "lon": -77.0415625, "is_disabled": 0, "bike_id": "2b1c854922a7cab5c63e3b139d11a207", "is_reserved": 0, "rental_uris": {"android": "https://dc.lft.to/lastmile_qr_scan", "ios": "https://dc.lft.to/lastmile_qr_scan"}, "lat": 38.90739583333333}, {"type": "electric_bike", "name": "4fd21ee7d4b2d84292fafb015c1e6852", "fusion_lat": 0.0, "fusion_lon": 0.0, "lon": -77.00001833333333, "is_disabled": 0, "bike_id": "4fd21ee7d4b2d84292fafb015c1e6852", "is_reserved": 0, "rental_uris": {"android": "https://dc.lft.to/lastmile_qr_scan", "ios": "https://dc.lft.to/lastmile_qr_scan"}, "lat": 38.92389416666666}, {"type": "electric_bike", "name": "b054914dbaf8981e90d946a69572e9a2", "fusion_lat": 0.0, "fusion_lon": 0.0, "lon": -76.9416355, "is_disabled": 0, "bike_id": "b054914dbaf8981e90d946a69572e9a2", "is_reserved": 0, "rental_uris": {"android": "https://dc.lft.to/lastmile_qr_scan", "ios": "https://dc.lft.to/lastmile_qr_scan"}, "lat": 38.86549}, {"type": "electric_scooter", "name": "affa6e08b8072b079cba3cf67ed30b67", "fusion_lat": 0.0, "fusion_lon": 0.0, "lon": -77.03218816666667, "is_disabled": 0, "bike_id": "affa6e08b8072b079cba3cf67ed30b67", "is_reserved": 0, "rental_uris": {"android": "https://dc.lft.to/lastmile_qr_scan", "ios": "https://dc.lft.to/lastmile_qr_scan"}, "lat": 38.91673466666667}, {"type": "electric_scooter", "name": "7f058cece565ab4a01e51595793006f9", "fusion_lat": 0.0, "fusion_lon": 0.0, "lon": -77.03263366666667, "is_disabled": 0, "bike_id": "7f058cece565ab4a01e51595793006f9", "is_reserved": 0, "rental_uris": {"android": "https://dc.lft.to/lastmile_qr_scan", "ios": "https://dc.lft.to/lastmile_qr_scan"}, "lat": 38.93309516666667}, {"type": "electric_scooter", "name": "3025a67640ea50674e457a4e4da78c4c", "fusion_lat": 0.0, "fusion_lon": 0.0, "lon": -77.03441183333334, "is_disabled": 0, "bike_id": "3025a67640ea50674e457a4e4da78c4c", "is_reserved": 0, "rental_uris": {"android": "https://dc.lft.to/lastmile_qr_scan", "ios": "https://dc.lft.to/lastmile_qr_scan"}, "lat": 38.92215733333333}, {"type": "electric_bike", "name": "7fba98c44ed335dd4ddca54eb069c87e", "fusion_lat": 0.0, "fusion_lon": 0.0, "lon": -77.10619283333334, "is_disabled": 0, "bike_id": "7fba98c44ed335dd4ddca54eb069c87e", "is_reserved": 0, "rental_uris": {"android": "https://dc.lft.to/lastmile_qr_scan", "ios": "https://dc.lft.to/lastmile_qr_scan"}, "lat": 38.837243666666666}, {"type": "electric_scooter", "name": "a36e017b49bc72b99f4ba0c7be45b526", "fusion_lat": 0.0, "fusion_lon": 0.0, "lon": -77.018395, "is_disabled": 0, "bike_id": "a36e017b49bc72b99f4ba0c7be45b526", "is_reserved": 0, "rental_uris": {"android": "https://dc.lft.to/lastmile_qr_scan", "ios": "https://dc.lft.to/lastmile_qr_scan"}, "lat": 38.90959433333333}, {"type": "electric_scooter", "name": "6a80a0dea48a1382e326962e58eeaad7", "fusion_lat": 0.0, "fusion_lon": 0.0, "lon": -77.03663966666667, "is_disabled": 0, "bike_id": "6a80a0dea48a1382e326962e58eeaad7", "is_reserved": 0, "rental_uris": {"android": "https://dc.lft.to/lastmile_qr_scan", "ios": "https://dc.lft.to/lastmile_qr_scan"}, "lat": 38.92121316666667}, {"type": "electric_scooter", "name": "54d38b33fcd5f7dca41a970aa3985c81", "fusion_lat": 0.0, "fusion_lon": 0.0, "lon": -77.03441583333333, "is_disabled": 0, "bike_id": "54d38b33fcd5f7dca41a970aa3985c81", "is_reserved": 0, "rental_uris": {"android": "https://dc.lft.to/lastmile_qr_scan", "ios": "https://dc.lft.to/lastmile_qr_scan"}, "lat": 38.90797466666667}, {"type": "electric_scooter", "name": "a1de3f62b736eede726a63c81b2409cb", "fusion_lat": 0.0, "fusion_lon": 0.0, "lon": -77.005893, "is_disabled": 0, "bike_id": "a1de3f62b736eede726a63c81b2409cb", "is_reserved": 0, "rental_uris": {"android": "https://dc.lft.to/lastmile_qr_scan", "ios": "https://dc.lft.to/lastmile_qr_scan"}, "lat": 38.905538166666666}, {"type": "electric_scooter", "name": "c6d93478c5592dc0ba4303341a98d99a", "fusion_lat": 0.0, "fusion_lon": 0.0, "lon": -77.04356166666666, "is_disabled": 0, "bike_id": "c6d93478c5592dc0ba4303341a98d99a", "is_reserved": 0, "rental_uris": {"android": "https://dc.lft.to/lastmile_qr_scan", "ios": "https://dc.lft.to/lastmile_qr_scan"}, "lat": 38.90124516666667}, {"type": "electric_scooter", "name": "19ac675965fa8624ce6d04f33db0e854", "fusion_lat": 0.0, "fusion_lon": 0.0, "lon": -77.050253, "is_disabled": 0, "bike_id": "19ac675965fa8624ce6d04f33db0e854", "is_reserved": 0, "rental_uris": {"android": "https://dc.lft.to/lastmile_qr_scan", "ios": "https://dc.lft.to/lastmile_qr_scan"}, "lat": 38.89655583333333}, {"type": "electric_scooter", "name": "59d9c0cf57a61aa3e78b5be062cd9f06", "fusion_lat": 0.0, "fusion_lon": 0.0, "lon": -77.04010166666667, "is_disabled": 0, "bike_id": "59d9c0cf57a61aa3e78b5be062cd9f06", "is_reserved": 0, "rental_uris": {"android": "https://dc.lft.to/lastmile_qr_scan", "ios": "https://dc.lft.to/lastmile_qr_scan"}, "lat": 38.90723933333334}, {"type": "electric_scooter", "name": "d2b68a9321546eec35b05b541a0c6fa0", "fusion_lat": 0.0, "fusion_lon": 0.0, "lon": -77.02888416666667, "is_disabled": 0, "bike_id": "d2b68a9321546eec35b05b541a0c6fa0", "is_reserved": 0, "rental_uris": {"android": "https://dc.lft.to/lastmile_qr_scan", "ios": "https://dc.lft.to/lastmile_qr_scan"}, "lat": 38.936026166666664}, {"type": "electric_scooter", "name": "406fc34b23a92e7f58dd436b7777ad62", "fusion_lat": 0.0, "fusion_lon": 0.0, "lon": -77.04132566666667, "is_disabled": 0, "bike_id": "406fc34b23a92e7f58dd436b7777ad62", "is_reserved": 0, "rental_uris": {"android": "https://dc.lft.to/lastmile_qr_scan", "ios": "https://dc.lft.to/lastmile_qr_scan"}, "lat": 38.92253783333334}, {"type": "electric_scooter", "name": "5fa65354e36515edd42c3bcb9afbfe9b", "fusion_lat": 0.0, "fusion_lon": 0.0, "lon": -77.03573366666667, "is_disabled": 0, "bike_id": "5fa65354e36515edd42c3bcb9afbfe9b", "is_reserved": 0, "rental_uris": {"android": "https://dc.lft.to/lastmile_qr_scan", "ios": "https://dc.lft.to/lastmile_qr_scan"}, "lat": 38.908163}, {"type": "electric_scooter", "name": "a747bad533586047992cce495ba80f91", "fusion_lat": 0.0, "fusion_lon": 0.0, "lon": -77.012053, "is_disabled": 0, "bike_id": "a747bad533586047992cce495ba80f91", "is_reserved": 0, "rental_uris": {"android": "https://dc.lft.to/lastmile_qr_scan", "ios": "https://dc.lft.to/lastmile_qr_scan"}, "lat": 38.91554266666667}, {"type": "electric_scooter", "name": "789a2ec50a0dae78609d83103e805a7e", "fusion_lat": 0.0, "fusion_lon": 0.0, "lon": -77.01186966666667, "is_disabled": 0, "bike_id": "789a2ec50a0dae78609d83103e805a7e", "is_reserved": 0, "rental_uris": {"android": "https://dc.lft.to/lastmile_qr_scan", "ios": "https://dc.lft.to/lastmile_qr_scan"}, "lat": 38.900285333333336}, {"type": "electric_scooter", "name": "fe038ee124d10869c8135389511d450c", "fusion_lat": 0.0, "fusion_lon": 0.0, "lon": -77.0057465, "is_disabled": 0, "bike_id": "fe038ee124d10869c8135389511d450c", "is_reserved": 0, "rental_uris": {"android": "https://dc.lft.to/lastmile_qr_scan", "ios": "https://dc.lft.to/lastmile_qr_scan"}, "lat": 38.902452833333335}, {"type": "electric_scooter", "name": "f127042c7b74d528309aa71ec37e43e0", "fusion_lat": 0.0, "fusion_lon": 0.0, "lon": -77.02689383333333, "is_disabled": 0, "bike_id": "f127042c7b74d528309aa71ec37e43e0", "is_reserved": 0, "rental_uris": {"android": "https://dc.lft.to/lastmile_qr_scan", "ios": "https://dc.lft.to/lastmile_qr_scan"}, "lat": 38.90871766666667}, {"type": "electric_bike", "name": "94ed283c8dd7d2ce7fc05c3b7d51f735", "fusion_lat": 0.0, "fusion_lon": 0.0, "lon": -76.97701783333333, "is_disabled": 0, "bike_id": "94ed283c8dd7d2ce7fc05c3b7d51f735", "is_reserved": 0, "rental_uris": {"android": "https://dc.lft.to/lastmile_qr_scan", "ios": "https://dc.lft.to/lastmile_qr_scan"}, "lat": 38.82205883333334}, {"type": "electric_scooter", "name": "fa074f8074e73ac70e732f59903ae95a", "fusion_lat": 0.0, "fusion_lon": 0.0, "lon": -77.050265, "is_disabled": 0, "bike_id": "fa074f8074e73ac70e732f59903ae95a", "is_reserved": 0, "rental_uris": {"android": "https://dc.lft.to/lastmile_qr_scan", "ios": "https://dc.lft.to/lastmile_qr_scan"}, "lat": 38.90535083333333}, {"type": "electric_scooter", "name": "e47d12f6b2cb2449a32972a7dfc7e958", "fusion_lat": 0.0, "fusion_lon": 0.0, "lon": -77.02840833333333, "is_disabled": 0, "bike_id": "e47d12f6b2cb2449a32972a7dfc7e958", "is_reserved": 0, "rental_uris": {"android": "https://dc.lft.to/lastmile_qr_scan", "ios": "https://dc.lft.to/lastmile_qr_scan"}, "lat": 38.93059616666667}, {"type": "electric_scooter", "name": "5e647bbe1e039c46aafaf3f7c2af050b", "fusion_lat": 0.0, "fusion_lon": 0.0, "lon": -76.99732433333334, "is_disabled": 0, "bike_id": "5e647bbe1e039c46aafaf3f7c2af050b", "is_reserved": 0, "rental_uris": {"android": "https://dc.lft.to/lastmile_qr_scan", "ios": "https://dc.lft.to/lastmile_qr_scan"}, "lat": 38.920428333333334}, {"type": "electric_scooter", "name": "ddf80a7f5859565c89a2e37b21f82bca", "fusion_lat": 0.0, "fusion_lon": 0.0, "lon": -76.9352585, "is_disabled": 0, "bike_id": "ddf80a7f5859565c89a2e37b21f82bca", "is_reserved": 0, "rental_uris": {"android": "https://dc.lft.to/lastmile_qr_scan", "ios": "https://dc.lft.to/lastmile_qr_scan"}, "lat": 38.878950833333334}, {"type": "electric_bike", "name": "1cf5129d3edd45d63c9389a5b42ad567", "fusion_lat": 0.0, "fusion_lon": 0.0, "lon": -77.08320083333334, "is_disabled": 0, "bike_id": "1cf5129d3edd45d63c9389a5b42ad567", "is_reserved": 0, "rental_uris": {"android": "https://dc.lft.to/lastmile_qr_scan", "ios": "https://dc.lft.to/lastmile_qr_scan"}, "lat": 38.8544415}, {"type": "electric_bike", "name": "38f0d998b47b1fd6991c8e8f05dc6e88", "fusion_lat": 0.0, "fusion_lon": 0.0, "lon": -76.99698883333333, "is_disabled": 0, "bike_id": "38f0d998b47b1fd6991c8e8f05dc6e88", "is_reserved": 0, "rental_uris": {"android": "https://dc.lft.to/lastmile_qr_scan", "ios": "https://dc.lft.to/lastmile_qr_scan"}, "lat": 38.838683333333336}, {"type": "electric_scooter", "name": "14f5c14f3d661df8825485fdf211f89c", "fusion_lat": 0.0, "fusion_lon": 0.0, "lon": -77.041709, "is_disabled": 0, "bike_id": "14f5c14f3d661df8825485fdf211f89c", "is_reserved": 0, "rental_uris": {"android": "https://dc.lft.to/lastmile_qr_scan", "ios": "https://dc.lft.to/lastmile_qr_scan"}, "lat": 38.91815166666667}, {"type": "electric_scooter", "name": "f1142d652755b6c920c8d153b23ff8ec", "fusion_lat": 0.0, "fusion_lon": 0.0, "lon": -77.0234005, "is_disabled": 0, "bike_id": "f1142d652755b6c920c8d153b23ff8ec", "is_reserved": 0, "rental_uris": {"android": "https://dc.lft.to/lastmile_qr_scan", "ios": "https://dc.lft.to/lastmile_qr_scan"}, "lat": 38.945002}, {"type": "electric_scooter", "name": "815b75f27b8770322eec570fbbe27ef9", "fusion_lat": 0.0, "fusion_lon": 0.0, "lon": -77.010791, "is_disabled": 0, "bike_id": "815b75f27b8770322eec570fbbe27ef9", "is_reserved": 0, "rental_uris": {"android": "https://dc.lft.to/lastmile_qr_scan", "ios": "https://dc.lft.to/lastmile_qr_scan"}, "lat": 38.90847616666667}, {"type": "electric_scooter", "name": "548d0db611717dc3a4e115c99e8cdb32", "fusion_lat": 0.0, "fusion_lon": 0.0, "lon": -77.02863766666667, "is_disabled": 0, "bike_id": "548d0db611717dc3a4e115c99e8cdb32", "is_reserved": 0, "rental_uris": {"android": "https://dc.lft.to/lastmile_qr_scan", "ios": "https://dc.lft.to/lastmile_qr_scan"}, "lat": 38.913576166666665}, {"type": "electric_scooter", "name": "1ea147951e828d78d0e723433f8a5270", "fusion_lat": 0.0, "fusion_lon": 0.0, "lon": -77.04033683333333, "is_disabled": 0, "bike_id": "1ea147951e828d78d0e723433f8a5270", "is_reserved": 0, "rental_uris": {"android": "https://dc.lft.to/lastmile_qr_scan", "ios": "https://dc.lft.to/lastmile_qr_scan"}, "lat": 38.91189266666667}, {"type": "electric_bike", "name": "ad3e218fb58945ebbf263b0ed6614534", "fusion_lat": 0.0, "fusion_lon": 0.0, "lon": -76.99278183333334, "is_disabled": 0, "bike_id": "ad3e218fb58945ebbf263b0ed6614534", "is_reserved": 0, "rental_uris": {"android": "https://dc.lft.to/lastmile_qr_scan", "ios": "https://dc.lft.to/lastmile_qr_scan"}, "lat": 38.9725685}, {"type": "electric_scooter", "name": "5e4382378b24483176ac9f466eefc957", "fusion_lat": 0.0, "fusion_lon": 0.0, "lon": -77.05199933333333, "is_disabled": 0, "bike_id": "5e4382378b24483176ac9f466eefc957", "is_reserved": 0, "rental_uris": {"android": "https://dc.lft.to/lastmile_qr_scan", "ios": "https://dc.lft.to/lastmile_qr_scan"}, "lat": 38.924617}, {"type": "electric_scooter", "name": "e9961dc92441697bbabd3dddbad4b691", "fusion_lat": 0.0, "fusion_lon": 0.0, "lon": -77.03463633333334, "is_disabled": 0, "bike_id": "e9961dc92441697bbabd3dddbad4b691", "is_reserved": 0, "rental_uris": {"android": "https://dc.lft.to/lastmile_qr_scan", "ios": "https://dc.lft.to/lastmile_qr_scan"}, "lat": 38.90561833333334}, {"type": "electric_scooter", "name": "f8d0cd0d61383575ecfa43c62592160d", "fusion_lat": 0.0, "fusion_lon": 0.0, "lon": -77.0053995, "is_disabled": 0, "bike_id": "f8d0cd0d61383575ecfa43c62592160d", "is_reserved": 0, "rental_uris": {"android": "https://dc.lft.to/lastmile_qr_scan", "ios": "https://dc.lft.to/lastmile_qr_scan"}, "lat": 38.87469816666667}, {"type": "electric_scooter", "name": "e2c0aea2c67a9973772c6ef5eda242bf", "fusion_lat": 0.0, "fusion_lon": 0.0, "lon": -77.0262885, "is_disabled": 0, "bike_id": "e2c0aea2c67a9973772c6ef5eda242bf", "is_reserved": 0, "rental_uris": {"android": "https://dc.lft.to/lastmile_qr_scan", "ios": "https://dc.lft.to/lastmile_qr_scan"}, "lat": 38.90233516666667}, {"type": "electric_scooter", "name": "f183a910ba32dd7f62b8995dc35660e0", "fusion_lat": 0.0, "fusion_lon": 0.0, "lon": -77.040504, "is_disabled": 0, "bike_id": "f183a910ba32dd7f62b8995dc35660e0", "is_reserved": 0, "rental_uris": {"android": "https://dc.lft.to/lastmile_qr_scan", "ios": "https://dc.lft.to/lastmile_qr_scan"}, "lat": 38.905907666666664}, {"type": "electric_scooter", "name": "05b42292bd4e6c0126315905da122a89", "fusion_lat": 0.0, "fusion_lon": 0.0, "lon": -77.00018833333333, "is_disabled": 0, "bike_id": "05b42292bd4e6c0126315905da122a89", "is_reserved": 0, "rental_uris": {"android": "https://dc.lft.to/lastmile_qr_scan", "ios": "https://dc.lft.to/lastmile_qr_scan"}, "lat": 38.873982}, {"type": "electric_scooter", "name": "bb535fe18c110733ddefc4cc3966edaf", "fusion_lat": 0.0, "fusion_lon": 0.0, "lon": -77.0327215, "is_disabled": 0, "bike_id": "bb535fe18c110733ddefc4cc3966edaf", "is_reserved": 0, "rental_uris": {"android": "https://dc.lft.to/lastmile_qr_scan", "ios": "https://dc.lft.to/lastmile_qr_scan"}, "lat": 38.931456833333336}, {"type": "electric_scooter", "name": "cdb4bb7c7dfc29e0c5ea9fc9a54e8eee", "fusion_lat": 0.0, "fusion_lon": 0.0, "lon": -77.01386916666667, "is_disabled": 0, "bike_id": "cdb4bb7c7dfc29e0c5ea9fc9a54e8eee", "is_reserved": 0, "rental_uris": {"android": "https://dc.lft.to/lastmile_qr_scan", "ios": "https://dc.lft.to/lastmile_qr_scan"}, "lat": 38.91103116666667}, {"type": "electric_scooter", "name": "3ee4fef44005bb8ee2d1c0069538cf94", "fusion_lat": 0.0, "fusion_lon": 0.0, "lon": -77.03215033333333, "is_disabled": 0, "bike_id": "3ee4fef44005bb8ee2d1c0069538cf94", "is_reserved": 0, "rental_uris": {"android": "https://dc.lft.to/lastmile_qr_scan", "ios": "https://dc.lft.to/lastmile_qr_scan"}, "lat": 38.920762333333336}, {"type": "electric_bike", "name": "d75678d89c7a3eafcc3d29657ad233ad", "fusion_lat": 0.0, "fusion_lon": 0.0, "lon": -77.0464525, "is_disabled": 0, "bike_id": "d75678d89c7a3eafcc3d29657ad233ad", "is_reserved": 0, "rental_uris": {"android": "https://dc.lft.to/lastmile_qr_scan", "ios": "https://dc.lft.to/lastmile_qr_scan"}, "lat": 38.815423333333335}, {"type": "electric_scooter", "name": "6a602b205c404d0d8e4f1c065036a10f", "fusion_lat": 0.0, "fusion_lon": 0.0, "lon": -77.02254866666667, "is_disabled": 0, "bike_id": "6a602b205c404d0d8e4f1c065036a10f", "is_reserved": 0, "rental_uris": {"android": "https://dc.lft.to/lastmile_qr_scan", "ios": "https://dc.lft.to/lastmile_qr_scan"}, "lat": 38.9000235}, {"type": "electric_scooter", "name": "d0917e81576851cd402a1479ef654792", "fusion_lat": 0.0, "fusion_lon": 0.0, "lon": -76.98801233333333, "is_disabled": 0, "bike_id": "d0917e81576851cd402a1479ef654792", "is_reserved": 0, "rental_uris": {"android": "https://dc.lft.to/lastmile_qr_scan", "ios": "https://dc.lft.to/lastmile_qr_scan"}, "lat": 38.89360683333334}, {"type": "electric_bike", "name": "beb07412ab6b549149070db2ace91b59", "fusion_lat": 0.0, "fusion_lon": 0.0, "lon": -76.9525005, "is_disabled": 0, "bike_id": "beb07412ab6b549149070db2ace91b59", "is_reserved": 0, "rental_uris": {"android": "https://dc.lft.to/lastmile_qr_scan", "ios": "https://dc.lft.to/lastmile_qr_scan"}, "lat": 38.906983}, {"type": "electric_scooter", "name": "53af6bafd95a0af5f0940b530ca44f37", "fusion_lat": 0.0, "fusion_lon": 0.0, "lon": -76.979599, "is_disabled": 0, "bike_id": "53af6bafd95a0af5f0940b530ca44f37", "is_reserved": 0, "rental_uris": {"android": "https://dc.lft.to/lastmile_qr_scan", "ios": "https://dc.lft.to/lastmile_qr_scan"}, "lat": 38.8978895}, {"type": "electric_scooter", "name": "d2b821640eab75b977ca919e9d23bfac", "fusion_lat": 0.0, "fusion_lon": 0.0, "lon": -76.98336866666666, "is_disabled": 0, "bike_id": "d2b821640eab75b977ca919e9d23bfac", "is_reserved": 0, "rental_uris": {"android": "https://dc.lft.to/lastmile_qr_scan", "ios": "https://dc.lft.to/lastmile_qr_scan"}, "lat": 38.89545233333333}, {"type": "electric_bike", "name": "68872ac8c6fa777673c3f5600062146c", "fusion_lat": 0.0, "fusion_lon": 0.0, "lon": -77.12977716666667, "is_disabled": 0, "bike_id": "68872ac8c6fa777673c3f5600062146c", "is_reserved": 0, "rental_uris": {"android": "https://dc.lft.to/lastmile_qr_scan", "ios": "https://dc.lft.to/lastmile_qr_scan"}, "lat": 38.79982716666667}, {"type": "electric_scooter", "name": "61781f49bd01cbecc9f5867559edc24c", "fusion_lat": 0.0, "fusion_lon": 0.0, "lon": -77.03223683333333, "is_disabled": 0, "bike_id": "61781f49bd01cbecc9f5867559edc24c", "is_reserved": 0, "rental_uris": {"android": "https://dc.lft.to/lastmile_qr_scan", "ios": "https://dc.lft.to/lastmile_qr_scan"}, "lat": 38.9255005}, {"type": "electric_scooter", "name": "98b728094dd9ba086bfa899e63240f42", "fusion_lat": 0.0, "fusion_lon": 0.0, "lon": -76.935912, "is_disabled": 0, "bike_id": "98b728094dd9ba086bfa899e63240f42", "is_reserved": 0, "rental_uris": {"android": "https://dc.lft.to/lastmile_qr_scan", "ios": "https://dc.lft.to/lastmile_qr_scan"}, "lat": 38.90946183333333}, {"type": "electric_scooter", "name": "e1749a4705b6e44a08cd647000352edf", "fusion_lat": 0.0, "fusion_lon": 0.0, "lon": -77.03206333333333, "is_disabled": 0, "bike_id": "e1749a4705b6e44a08cd647000352edf", "is_reserved": 0, "rental_uris": {"android": "https://dc.lft.to/lastmile_qr_scan", "ios": "https://dc.lft.to/lastmile_qr_scan"}, "lat": 38.918374166666666}, {"type": "electric_scooter", "name": "cdc162d4c9c9dd00906c9190c340afae", "fusion_lat": 0.0, "fusion_lon": 0.0, "lon": -76.99946933333334, "is_disabled": 0, "bike_id": "cdc162d4c9c9dd00906c9190c340afae", "is_reserved": 0, "rental_uris": {"android": "https://dc.lft.to/lastmile_qr_scan", "ios": "https://dc.lft.to/lastmile_qr_scan"}, "lat": 38.890852333333335}, {"type": "electric_scooter", "name": "04b50ff49a6d887ba1970731449a48ec", "fusion_lat": 0.0, "fusion_lon": 0.0, "lon": -77.00156633333333, "is_disabled": 0, "bike_id": "04b50ff49a6d887ba1970731449a48ec", "is_reserved": 0, "rental_uris": {"android": "https://dc.lft.to/lastmile_qr_scan", "ios": "https://dc.lft.to/lastmile_qr_scan"}, "lat": 38.82133866666667}, {"type": "electric_scooter", "name": "f5219bbdab1a9f79def12f05a68748cf", "fusion_lat": 0.0, "fusion_lon": 0.0, "lon": -77.01670716666666, "is_disabled": 0, "bike_id": "f5219bbdab1a9f79def12f05a68748cf", "is_reserved": 0, "rental_uris": {"android": "https://dc.lft.to/lastmile_qr_scan", "ios": "https://dc.lft.to/lastmile_qr_scan"}, "lat": 38.9204445}, {"type": "electric_scooter", "name": "323e32fe6d928c3366cd4b7a7303bf6a", "fusion_lat": 0.0, "fusion_lon": 0.0, "lon": -77.027821, "is_disabled": 0, "bike_id": "323e32fe6d928c3366cd4b7a7303bf6a", "is_reserved": 0, "rental_uris": {"android": "https://dc.lft.to/lastmile_qr_scan", "ios": "https://dc.lft.to/lastmile_qr_scan"}, "lat": 38.898340833333336}, {"type": "electric_scooter", "name": "595a41647f42cc3a8e75414079e2dab0", "fusion_lat": 0.0, "fusion_lon": 0.0, "lon": -77.01908333333333, "is_disabled": 0, "bike_id": "595a41647f42cc3a8e75414079e2dab0", "is_reserved": 0, "rental_uris": {"android": "https://dc.lft.to/lastmile_qr_scan", "ios": "https://dc.lft.to/lastmile_qr_scan"}, "lat": 38.895141}, {"type": "electric_bike", "name": "35cf97c6c52adaa29391003387ab0418", "fusion_lat": 0.0, "fusion_lon": 0.0, "lon": -77.08564116666666, "is_disabled": 0, "bike_id": "35cf97c6c52adaa29391003387ab0418", "is_reserved": 0, "rental_uris": {"android": "https://dc.lft.to/lastmile_qr_scan", "ios": "https://dc.lft.to/lastmile_qr_scan"}, "lat": 38.933172666666664}, {"type": "electric_scooter", "name": "3bae3e72cde56e31f3528697f07d9b91", "fusion_lat": 0.0, "fusion_lon": 0.0, "lon": -77.01725666666667, "is_disabled": 0, "bike_id": "3bae3e72cde56e31f3528697f07d9b91", "is_reserved": 0, "rental_uris": {"android": "https://dc.lft.to/lastmile_qr_scan", "ios": "https://dc.lft.to/lastmile_qr_scan"}, "lat": 38.892287333333336}, {"type": "electric_scooter", "name": "b8fcacf92c5d551a4e3dd9c134284945", "fusion_lat": 0.0, "fusion_lon": 0.0, "lon": -77.03065766666667, "is_disabled": 0, "bike_id": "b8fcacf92c5d551a4e3dd9c134284945", "is_reserved": 0, "rental_uris": {"android": "https://dc.lft.to/lastmile_qr_scan", "ios": "https://dc.lft.to/lastmile_qr_scan"}, "lat": 38.89835466666667}, {"type": "electric_scooter", "name": "6c62a4a39720ba8a061ee2de5e135b6e", "fusion_lat": 0.0, "fusion_lon": 0.0, "lon": -77.06428116666666, "is_disabled": 0, "bike_id": "6c62a4a39720ba8a061ee2de5e135b6e", "is_reserved": 0, "rental_uris": {"android": "https://dc.lft.to/lastmile_qr_scan", "ios": "https://dc.lft.to/lastmile_qr_scan"}, "lat": 38.93561666666667}, {"type": "electric_bike", "name": "b87f85a19d1078cb0bace6dafbe715c3", "fusion_lat": 0.0, "fusion_lon": 0.0, "lon": -76.95159733333334, "is_disabled": 0, "bike_id": "b87f85a19d1078cb0bace6dafbe715c3", "is_reserved": 0, "rental_uris": {"android": "https://dc.lft.to/lastmile_qr_scan", "ios": "https://dc.lft.to/lastmile_qr_scan"}, "lat": 39.08438}, {"type": "electric_scooter", "name": "d6d7e68c975cc152e4a6d90f485b29db", "fusion_lat": 0.0, "fusion_lon": 0.0, "lon": -77.04155316666667, "is_disabled": 0, "bike_id": "d6d7e68c975cc152e4a6d90f485b29db", "is_reserved": 0, "rental_uris": {"android": "https://dc.lft.to/lastmile_qr_scan", "ios": "https://dc.lft.to/lastmile_qr_scan"}, "lat": 38.9154395}, {"type": "electric_scooter", "name": "db1b0dc8b999337571e290f2e91d099d", "fusion_lat": 0.0, "fusion_lon": 0.0, "lon": -76.9903345, "is_disabled": 0, "bike_id": "db1b0dc8b999337571e290f2e91d099d", "is_reserved": 0, "rental_uris": {"android": "https://dc.lft.to/lastmile_qr_scan", "ios": "https://dc.lft.to/lastmile_qr_scan"}, "lat": 38.8913245}, {"type": "electric_scooter", "name": "2879731a802afcd160d848a68874fb67", "fusion_lat": 0.0, "fusion_lon": 0.0, "lon": -77.02889666666667, "is_disabled": 0, "bike_id": "2879731a802afcd160d848a68874fb67", "is_reserved": 0, "rental_uris": {"android": "https://dc.lft.to/lastmile_qr_scan", "ios": "https://dc.lft.to/lastmile_qr_scan"}, "lat": 38.93158866666667}, {"type": "electric_scooter", "name": "106eb7daa7a485503862456978d13aa3", "fusion_lat": 0.0, "fusion_lon": 0.0, "lon": -77.02595366666667, "is_disabled": 0, "bike_id": "106eb7daa7a485503862456978d13aa3", "is_reserved": 0, "rental_uris": {"android": "https://dc.lft.to/lastmile_qr_scan", "ios": "https://dc.lft.to/lastmile_qr_scan"}, "lat": 38.9168945}, {"type": "electric_scooter", "name": "ef45a657d4b61407a183c3517e2f8689", "fusion_lat": 0.0, "fusion_lon": 0.0, "lon": -77.0047925, "is_disabled": 0, "bike_id": "ef45a657d4b61407a183c3517e2f8689", "is_reserved": 0, "rental_uris": {"android": "https://dc.lft.to/lastmile_qr_scan", "ios": "https://dc.lft.to/lastmile_qr_scan"}, "lat": 38.874544666666665}, {"type": "electric_scooter", "name": "34d52ef3d0e44bc70414eec3483cc977", "fusion_lat": 0.0, "fusion_lon": 0.0, "lon": -77.039958, "is_disabled": 0, "bike_id": "34d52ef3d0e44bc70414eec3483cc977", "is_reserved": 0, "rental_uris": {"android": "https://dc.lft.to/lastmile_qr_scan", "ios": "https://dc.lft.to/lastmile_qr_scan"}, "lat": 38.93402566666666}, {"type": "electric_bike", "name": "7e9a29da33ab51c826b174ed8103a4df", "fusion_lat": 0.0, "fusion_lon": 0.0, "lon": -77.07636716666667, "is_disabled": 0, "bike_id": "7e9a29da33ab51c826b174ed8103a4df", "is_reserved": 0, "rental_uris": {"android": "https://dc.lft.to/lastmile_qr_scan", "ios": "https://dc.lft.to/lastmile_qr_scan"}, "lat": 38.9061245}, {"type": "electric_scooter", "name": "03d551214db9b21539855acc6b088e14", "fusion_lat": 0.0, "fusion_lon": 0.0, "lon": -77.0395585, "is_disabled": 0, "bike_id": "03d551214db9b21539855acc6b088e14", "is_reserved": 0, "rental_uris": {"android": "https://dc.lft.to/lastmile_qr_scan", "ios": "https://dc.lft.to/lastmile_qr_scan"}, "lat": 38.89245183333333}, {"type": "electric_scooter", "name": "c542c44fefa94bdf243a810bba9644e5", "fusion_lat": 0.0, "fusion_lon": 0.0, "lon": -77.01948533333334, "is_disabled": 0, "bike_id": "c542c44fefa94bdf243a810bba9644e5", "is_reserved": 0, "rental_uris": {"android": "https://dc.lft.to/lastmile_qr_scan", "ios": "https://dc.lft.to/lastmile_qr_scan"}, "lat": 38.923297833333336}, {"type": "electric_scooter", "name": "56d872d70513c524ce1bb5a21cb5b949", "fusion_lat": 0.0, "fusion_lon": 0.0, "lon": -77.04882866666667, "is_disabled": 0, "bike_id": "56d872d70513c524ce1bb5a21cb5b949", "is_reserved": 0, "rental_uris": {"android": "https://dc.lft.to/lastmile_qr_scan", "ios": "https://dc.lft.to/lastmile_qr_scan"}, "lat": 38.9006885}, {"type": "electric_scooter", "name": "0e3631d6dd1fe5a2dcd39cd9b2b15872", "fusion_lat": 0.0, "fusion_lon": 0.0, "lon": -77.022123, "is_disabled": 0, "bike_id": "0e3631d6dd1fe5a2dcd39cd9b2b15872", "is_reserved": 0, "rental_uris": {"android": "https://dc.lft.to/lastmile_qr_scan", "ios": "https://dc.lft.to/lastmile_qr_scan"}, "lat": 38.8977725}, {"type": "electric_scooter", "name": "d96cbce7deda4b54cf73dcb9cd7ce2bb", "fusion_lat": 0.0, "fusion_lon": 0.0, "lon": -77.03855416666667, "is_disabled": 0, "bike_id": "d96cbce7deda4b54cf73dcb9cd7ce2bb", "is_reserved": 0, "rental_uris": {"android": "https://dc.lft.to/lastmile_qr_scan", "ios": "https://dc.lft.to/lastmile_qr_scan"}, "lat": 38.919623}, {"type": "electric_scooter", "name": "a53f7ba6af034b9777494183e136ce75", "fusion_lat": 0.0, "fusion_lon": 0.0, "lon": -76.94702333333333, "is_disabled": 0, "bike_id": "a53f7ba6af034b9777494183e136ce75", "is_reserved": 0, "rental_uris": {"android": "https://dc.lft.to/lastmile_qr_scan", "ios": "https://dc.lft.to/lastmile_qr_scan"}, "lat": 38.89730016666667}, {"type": "electric_scooter", "name": "544812b991f4c3c2054fd4777f5d4d40", "fusion_lat": 0.0, "fusion_lon": 0.0, "lon": -77.03805666666666, "is_disabled": 0, "bike_id": "544812b991f4c3c2054fd4777f5d4d40", "is_reserved": 0, "rental_uris": {"android": "https://dc.lft.to/lastmile_qr_scan", "ios": "https://dc.lft.to/lastmile_qr_scan"}, "lat": 38.91038066666667}, {"type": "electric_scooter", "name": "af59231ffb4f6dae919fb1ecbb55aaa8", "fusion_lat": 0.0, "fusion_lon": 0.0, "lon": -77.031936, "is_disabled": 0, "bike_id": "af59231ffb4f6dae919fb1ecbb55aaa8", "is_reserved": 0, "rental_uris": {"android": "https://dc.lft.to/lastmile_qr_scan", "ios": "https://dc.lft.to/lastmile_qr_scan"}, "lat": 38.91810666666667}, {"type": "electric_scooter", "name": "d5f25a615b9af7125fe2b1d9087a2134", "fusion_lat": 0.0, "fusion_lon": 0.0, "lon": -77.03197366666667, "is_disabled": 0, "bike_id": "d5f25a615b9af7125fe2b1d9087a2134", "is_reserved": 0, "rental_uris": {"android": "https://dc.lft.to/lastmile_qr_scan", "ios": "https://dc.lft.to/lastmile_qr_scan"}, "lat": 38.91842366666667}, {"type": "electric_bike", "name": "023076e506e51228f42bbcc3f3f95df0", "fusion_lat": 0.0, "fusion_lon": 0.0, "lon": -77.0901405, "is_disabled": 0, "bike_id": "023076e506e51228f42bbcc3f3f95df0", "is_reserved": 0, "rental_uris": {"android": "https://dc.lft.to/lastmile_qr_scan", "ios": "https://dc.lft.to/lastmile_qr_scan"}, "lat": 38.926434}, {"type": "electric_scooter", "name": "2d339f64550604028767abb895bdc38c", "fusion_lat": 0.0, "fusion_lon": 0.0, "lon": -76.99567166666667, "is_disabled": 0, "bike_id": "2d339f64550604028767abb895bdc38c", "is_reserved": 0, "rental_uris": {"android": "https://dc.lft.to/lastmile_qr_scan", "ios": "https://dc.lft.to/lastmile_qr_scan"}, "lat": 38.920200666666666}, {"type": "electric_scooter", "name": "0ab2c812b9b797ed6b9c6fed718a1ea7", "fusion_lat": 0.0, "fusion_lon": 0.0, "lon": -77.04177133333333, "is_disabled": 0, "bike_id": "0ab2c812b9b797ed6b9c6fed718a1ea7", "is_reserved": 0, "rental_uris": {"android": "https://dc.lft.to/lastmile_qr_scan", "ios": "https://dc.lft.to/lastmile_qr_scan"}, "lat": 38.917220666666665}, {"type": "electric_scooter", "name": "336e71968f488d04b77f9e006460f3d7", "fusion_lat": 0.0, "fusion_lon": 0.0, "lon": -76.98854466666667, "is_disabled": 0, "bike_id": "336e71968f488d04b77f9e006460f3d7", "is_reserved": 0, "rental_uris": {"android": "https://dc.lft.to/lastmile_qr_scan", "ios": "https://dc.lft.to/lastmile_qr_scan"}, "lat": 38.891658}, {"type": "electric_bike", "name": "d2cd46edb651c26de908ceb66841f27d", "fusion_lat": 0.0, "fusion_lon": 0.0, "lon": -77.1273115, "is_disabled": 0, "bike_id": "d2cd46edb651c26de908ceb66841f27d", "is_reserved": 0, "rental_uris": {"android": "https://dc.lft.to/lastmile_qr_scan", "ios": "https://dc.lft.to/lastmile_qr_scan"}, "lat": 38.8955915}, {"type": "electric_scooter", "name": "9cb7953095dd879842abc6e960ac489e", "fusion_lat": 0.0, "fusion_lon": 0.0, "lon": -77.022022, "is_disabled": 0, "bike_id": "9cb7953095dd879842abc6e960ac489e", "is_reserved": 0, "rental_uris": {"android": "https://dc.lft.to/lastmile_qr_scan", "ios": "https://dc.lft.to/lastmile_qr_scan"}, "lat": 38.910499}, {"type": "electric_scooter", "name": "6e3c3ba05c365094e17870ea536a1d7d", "fusion_lat": 0.0, "fusion_lon": 0.0, "lon": -77.027878, "is_disabled": 0, "bike_id": "6e3c3ba05c365094e17870ea536a1d7d", "is_reserved": 0, "rental_uris": {"android": "https://dc.lft.to/lastmile_qr_scan", "ios": "https://dc.lft.to/lastmile_qr_scan"}, "lat": 38.93185783333333}, {"type": "electric_scooter", "name": "62fadd1cea991c010626376016af580b", "fusion_lat": 0.0, "fusion_lon": 0.0, "lon": -77.02570983333334, "is_disabled": 0, "bike_id": "62fadd1cea991c010626376016af580b", "is_reserved": 0, "rental_uris": {"android": "https://dc.lft.to/lastmile_qr_scan", "ios": "https://dc.lft.to/lastmile_qr_scan"}, "lat": 38.89574233333333}, {"type": "electric_scooter", "name": "23cb4b4e7a55b0a47d13844cb32366d4", "fusion_lat": 0.0, "fusion_lon": 0.0, "lon": -76.95740833333333, "is_disabled": 0, "bike_id": "23cb4b4e7a55b0a47d13844cb32366d4", "is_reserved": 0, "rental_uris": {"android": "https://dc.lft.to/lastmile_qr_scan", "ios": "https://dc.lft.to/lastmile_qr_scan"}, "lat": 38.88387}, {"type": "electric_scooter", "name": "23217a1389e27e4cf4bebbf2ed84488d", "fusion_lat": 0.0, "fusion_lon": 0.0, "lon": -77.04003533333334, "is_disabled": 0, "bike_id": "23217a1389e27e4cf4bebbf2ed84488d", "is_reserved": 0, "rental_uris": {"android": "https://dc.lft.to/lastmile_qr_scan", "ios": "https://dc.lft.to/lastmile_qr_scan"}, "lat": 38.905723}, {"type": "electric_scooter", "name": "2f02d58c1ae19133b12737e85e26576c", "fusion_lat": 0.0, "fusion_lon": 0.0, "lon": -77.01800266666666, "is_disabled": 0, "bike_id": "2f02d58c1ae19133b12737e85e26576c", "is_reserved": 0, "rental_uris": {"android": "https://dc.lft.to/lastmile_qr_scan", "ios": "https://dc.lft.to/lastmile_qr_scan"}, "lat": 38.9194015}, {"type": "electric_scooter", "name": "343868b842a12c89819a57e453711e63", "fusion_lat": 0.0, "fusion_lon": 0.0, "lon": -77.005905, "is_disabled": 0, "bike_id": "343868b842a12c89819a57e453711e63", "is_reserved": 0, "rental_uris": {"android": "https://dc.lft.to/lastmile_qr_scan", "ios": "https://dc.lft.to/lastmile_qr_scan"}, "lat": 38.905577666666666}, {"type": "electric_bike", "name": "756e9a006c1f144171ea918b47a4524f", "fusion_lat": 0.0, "fusion_lon": 0.0, "lon": -76.95698266666666, "is_disabled": 0, "bike_id": "756e9a006c1f144171ea918b47a4524f", "is_reserved": 0, "rental_uris": {"android": "https://dc.lft.to/lastmile_qr_scan", "ios": "https://dc.lft.to/lastmile_qr_scan"}, "lat": 38.850904666666665}, {"type": "electric_scooter", "name": "fe60d1dbfad047f54d9b59e14bd8b27b", "fusion_lat": 0.0, "fusion_lon": 0.0, "lon": -77.02578, "is_disabled": 0, "bike_id": "fe60d1dbfad047f54d9b59e14bd8b27b", "is_reserved": 0, "rental_uris": {"android": "https://dc.lft.to/lastmile_qr_scan", "ios": "https://dc.lft.to/lastmile_qr_scan"}, "lat": 38.90134033333333}, {"type": "electric_scooter", "name": "da7f6373d2dc266e80af0f33f233a46c", "fusion_lat": 0.0, "fusion_lon": 0.0, "lon": -77.02294733333333, "is_disabled": 0, "bike_id": "da7f6373d2dc266e80af0f33f233a46c", "is_reserved": 0, "rental_uris": {"android": "https://dc.lft.to/lastmile_qr_scan", "ios": "https://dc.lft.to/lastmile_qr_scan"}, "lat": 38.9169965}, {"type": "electric_scooter", "name": "2267c3eb1181c79ba57d5592e2fa982e", "fusion_lat": 0.0, "fusion_lon": 0.0, "lon": -77.01466566666667, "is_disabled": 0, "bike_id": "2267c3eb1181c79ba57d5592e2fa982e", "is_reserved": 0, "rental_uris": {"android": "https://dc.lft.to/lastmile_qr_scan", "ios": "https://dc.lft.to/lastmile_qr_scan"}, "lat": 38.91753116666667}, {"type": "electric_scooter", "name": "5604d895db4c592eb75eb9555bfa5389", "fusion_lat": 0.0, "fusion_lon": 0.0, "lon": -77.02968733333333, "is_disabled": 0, "bike_id": "5604d895db4c592eb75eb9555bfa5389", "is_reserved": 0, "rental_uris": {"android": "https://dc.lft.to/lastmile_qr_scan", "ios": "https://dc.lft.to/lastmile_qr_scan"}, "lat": 38.931930333333334}, {"type": "electric_scooter", "name": "32aad5e8c8d77dfd3c9df5349ccf3c08", "fusion_lat": 0.0, "fusion_lon": 0.0, "lon": -77.0075845, "is_disabled": 0, "bike_id": "32aad5e8c8d77dfd3c9df5349ccf3c08", "is_reserved": 0, "rental_uris": {"android": "https://dc.lft.to/lastmile_qr_scan", "ios": "https://dc.lft.to/lastmile_qr_scan"}, "lat": 38.904678833333335}, {"type": "electric_scooter", "name": "c36957c261414242c33f17702c3ae71d", "fusion_lat": 0.0, "fusion_lon": 0.0, "lon": -76.99033116666666, "is_disabled": 0, "bike_id": "c36957c261414242c33f17702c3ae71d", "is_reserved": 0, "rental_uris": {"android": "https://dc.lft.to/lastmile_qr_scan", "ios": "https://dc.lft.to/lastmile_qr_scan"}, "lat": 38.88870983333333}, {"type": "electric_scooter", "name": "c0555e44307b8de0630bdfcc79c62c74", "fusion_lat": 0.0, "fusion_lon": 0.0, "lon": -77.0628665, "is_disabled": 0, "bike_id": "c0555e44307b8de0630bdfcc79c62c74", "is_reserved": 0, "rental_uris": {"android": "https://dc.lft.to/lastmile_qr_scan", "ios": "https://dc.lft.to/lastmile_qr_scan"}, "lat": 38.904553666666665}, {"type": "electric_scooter", "name": "13eedec5c4169cdf91bca1e0ea503800", "fusion_lat": 0.0, "fusion_lon": 0.0, "lon": -77.03660683333334, "is_disabled": 0, "bike_id": "13eedec5c4169cdf91bca1e0ea503800", "is_reserved": 0, "rental_uris": {"android": "https://dc.lft.to/lastmile_qr_scan", "ios": "https://dc.lft.to/lastmile_qr_scan"}, "lat": 38.92091933333333}, {"type": "electric_scooter", "name": "112be7b178a56eaff865189f4118ae11", "fusion_lat": 0.0, "fusion_lon": 0.0, "lon": -77.0039105, "is_disabled": 0, "bike_id": "112be7b178a56eaff865189f4118ae11", "is_reserved": 0, "rental_uris": {"android": "https://dc.lft.to/lastmile_qr_scan", "ios": "https://dc.lft.to/lastmile_qr_scan"}, "lat": 38.8760755}, {"type": "electric_scooter", "name": "e39585d7e33f3fd3b1f5a9d7e9b4a9da", "fusion_lat": 0.0, "fusion_lon": 0.0, "lon": -77.01643483333334, "is_disabled": 0, "bike_id": "e39585d7e33f3fd3b1f5a9d7e9b4a9da", "is_reserved": 0, "rental_uris": {"android": "https://dc.lft.to/lastmile_qr_scan", "ios": "https://dc.lft.to/lastmile_qr_scan"}, "lat": 38.9158915}, {"type": "electric_scooter", "name": "5709dd7167ff68b313a13003e3536032", "fusion_lat": 0.0, "fusion_lon": 0.0, "lon": -77.00483633333333, "is_disabled": 0, "bike_id": "5709dd7167ff68b313a13003e3536032", "is_reserved": 0, "rental_uris": {"android": "https://dc.lft.to/lastmile_qr_scan", "ios": "https://dc.lft.to/lastmile_qr_scan"}, "lat": 38.874587}, {"type": "electric_scooter", "name": "ecab4e687915adbb94ad264994793901", "fusion_lat": 0.0, "fusion_lon": 0.0, "lon": -77.042106, "is_disabled": 0, "bike_id": "ecab4e687915adbb94ad264994793901", "is_reserved": 0, "rental_uris": {"android": "https://dc.lft.to/lastmile_qr_scan", "ios": "https://dc.lft.to/lastmile_qr_scan"}, "lat": 38.91118933333333}, {"type": "electric_scooter", "name": "738590ccd89d06bd39ea813853fcef1a", "fusion_lat": 0.0, "fusion_lon": 0.0, "lon": -77.02340766666667, "is_disabled": 0, "bike_id": "738590ccd89d06bd39ea813853fcef1a", "is_reserved": 0, "rental_uris": {"android": "https://dc.lft.to/lastmile_qr_scan", "ios": "https://dc.lft.to/lastmile_qr_scan"}, "lat": 38.881374}, {"type": "electric_scooter", "name": "d022d8492c25249b0e305c7abada99b0", "fusion_lat": 0.0, "fusion_lon": 0.0, "lon": -77.02734866666667, "is_disabled": 0, "bike_id": "d022d8492c25249b0e305c7abada99b0", "is_reserved": 0, "rental_uris": {"android": "https://dc.lft.to/lastmile_qr_scan", "ios": "https://dc.lft.to/lastmile_qr_scan"}, "lat": 38.9247855}, {"type": "electric_bike", "name": "6b313ba6d84c80c05992792f48887712", "fusion_lat": 0.0, "fusion_lon": 0.0, "lon": -76.98181, "is_disabled": 0, "bike_id": "6b313ba6d84c80c05992792f48887712", "is_reserved": 0, "rental_uris": {"android": "https://dc.lft.to/lastmile_qr_scan", "ios": "https://dc.lft.to/lastmile_qr_scan"}, "lat": 38.88405083333333}, {"type": "electric_scooter", "name": "9e9396bbf37dd124b827b6d972c0bbf7", "fusion_lat": 0.0, "fusion_lon": 0.0, "lon": -77.01351716666667, "is_disabled": 0, "bike_id": "9e9396bbf37dd124b827b6d972c0bbf7", "is_reserved": 0, "rental_uris": {"android": "https://dc.lft.to/lastmile_qr_scan", "ios": "https://dc.lft.to/lastmile_qr_scan"}, "lat": 38.892233}, {"type": "electric_scooter", "name": "516e8f6357438034742618355e99b2b8", "fusion_lat": 0.0, "fusion_lon": 0.0, "lon": -77.03547, "is_disabled": 0, "bike_id": "516e8f6357438034742618355e99b2b8", "is_reserved": 0, "rental_uris": {"android": "https://dc.lft.to/lastmile_qr_scan", "ios": "https://dc.lft.to/lastmile_qr_scan"}, "lat": 38.917145166666664}, {"type": "electric_scooter", "name": "ab76ebaf9fb88a76edc842e3e25e2548", "fusion_lat": 0.0, "fusion_lon": 0.0, "lon": -77.02020866666666, "is_disabled": 0, "bike_id": "ab76ebaf9fb88a76edc842e3e25e2548", "is_reserved": 0, "rental_uris": {"android": "https://dc.lft.to/lastmile_qr_scan", "ios": "https://dc.lft.to/lastmile_qr_scan"}, "lat": 38.89885183333333}, {"type": "electric_scooter", "name": "beb0d99e9a3cd4b22aca9f61e7899f6f", "fusion_lat": 0.0, "fusion_lon": 0.0, "lon": -77.04154183333333, "is_disabled": 0, "bike_id": "beb0d99e9a3cd4b22aca9f61e7899f6f", "is_reserved": 0, "rental_uris": {"android": "https://dc.lft.to/lastmile_qr_scan", "ios": "https://dc.lft.to/lastmile_qr_scan"}, "lat": 38.9154415}, {"type": "electric_scooter", "name": "bbb1e09ba27c0c6e9c5297167c5321c9", "fusion_lat": 0.0, "fusion_lon": 0.0, "lon": -77.02475883333334, "is_disabled": 0, "bike_id": "bbb1e09ba27c0c6e9c5297167c5321c9", "is_reserved": 0, "rental_uris": {"android": "https://dc.lft.to/lastmile_qr_scan", "ios": "https://dc.lft.to/lastmile_qr_scan"}, "lat": 38.91813833333333}, {"type": "electric_scooter", "name": "279c06b7e06d9a0e6f3c2aeac8a1fcc6", "fusion_lat": 0.0, "fusion_lon": 0.0, "lon": -77.0252155, "is_disabled": 0, "bike_id": "279c06b7e06d9a0e6f3c2aeac8a1fcc6", "is_reserved": 0, "rental_uris": {"android": "https://dc.lft.to/lastmile_qr_scan", "ios": "https://dc.lft.to/lastmile_qr_scan"}, "lat": 38.92069383333333}, {"type": "electric_scooter", "name": "0d7f8db5c2ffa2b7168f36c054d79719", "fusion_lat": 0.0, "fusion_lon": 0.0, "lon": -77.0117935, "is_disabled": 0, "bike_id": "0d7f8db5c2ffa2b7168f36c054d79719", "is_reserved": 0, "rental_uris": {"android": "https://dc.lft.to/lastmile_qr_scan", "ios": "https://dc.lft.to/lastmile_qr_scan"}, "lat": 38.900218333333335}, {"type": "electric_scooter", "name": "7390f9617803d447574326d4a383e223", "fusion_lat": 0.0, "fusion_lon": 0.0, "lon": -77.01408533333333, "is_disabled": 0, "bike_id": "7390f9617803d447574326d4a383e223", "is_reserved": 0, "rental_uris": {"android": "https://dc.lft.to/lastmile_qr_scan", "ios": "https://dc.lft.to/lastmile_qr_scan"}, "lat": 38.92818716666667}, {"type": "electric_bike", "name": "48a2d9d6c6c82d3ed4b8ab1c9f5bcd15", "fusion_lat": 0.0, "fusion_lon": 0.0, "lon": -77.083188, "is_disabled": 0, "bike_id": "48a2d9d6c6c82d3ed4b8ab1c9f5bcd15", "is_reserved": 0, "rental_uris": {"android": "https://dc.lft.to/lastmile_qr_scan", "ios": "https://dc.lft.to/lastmile_qr_scan"}, "lat": 38.933489}, {"type": "electric_scooter", "name": "ba338e5f862697291201f32526bb85f1", "fusion_lat": 0.0, "fusion_lon": 0.0, "lon": -77.01815116666667, "is_disabled": 0, "bike_id": "ba338e5f862697291201f32526bb85f1", "is_reserved": 0, "rental_uris": {"android": "https://dc.lft.to/lastmile_qr_scan", "ios": "https://dc.lft.to/lastmile_qr_scan"}, "lat": 38.91404}, {"type": "electric_scooter", "name": "058191bbfbb96496e97fe10165fe38f1", "fusion_lat": 0.0, "fusion_lon": 0.0, "lon": -77.02255, "is_disabled": 0, "bike_id": "058191bbfbb96496e97fe10165fe38f1", "is_reserved": 0, "rental_uris": {"android": "https://dc.lft.to/lastmile_qr_scan", "ios": "https://dc.lft.to/lastmile_qr_scan"}, "lat": 38.893647333333334}, {"type": "electric_scooter", "name": "b228c994118b1eb14b80ce6e698b8194", "fusion_lat": 0.0, "fusion_lon": 0.0, "lon": -76.9881955, "is_disabled": 0, "bike_id": "b228c994118b1eb14b80ce6e698b8194", "is_reserved": 0, "rental_uris": {"android": "https://dc.lft.to/lastmile_qr_scan", "ios": "https://dc.lft.to/lastmile_qr_scan"}, "lat": 38.90039866666667}, {"type": "electric_scooter", "name": "4a667405dbce327a012d9e700dd5504a", "fusion_lat": 0.0, "fusion_lon": 0.0, "lon": -77.0133775, "is_disabled": 0, "bike_id": "4a667405dbce327a012d9e700dd5504a", "is_reserved": 0, "rental_uris": {"android": "https://dc.lft.to/lastmile_qr_scan", "ios": "https://dc.lft.to/lastmile_qr_scan"}, "lat": 38.881212833333336}, {"type": "electric_scooter", "name": "fef03acab47fbd083d53bd8ab663289c", "fusion_lat": 0.0, "fusion_lon": 0.0, "lon": -77.0329195, "is_disabled": 0, "bike_id": "fef03acab47fbd083d53bd8ab663289c", "is_reserved": 0, "rental_uris": {"android": "https://dc.lft.to/lastmile_qr_scan", "ios": "https://dc.lft.to/lastmile_qr_scan"}, "lat": 38.924574}, {"type": "electric_scooter", "name": "c406668b75880e43e36fab034a1293d6", "fusion_lat": 0.0, "fusion_lon": 0.0, "lon": -77.038645, "is_disabled": 0, "bike_id": "c406668b75880e43e36fab034a1293d6", "is_reserved": 0, "rental_uris": {"android": "https://dc.lft.to/lastmile_qr_scan", "ios": "https://dc.lft.to/lastmile_qr_scan"}, "lat": 38.909696333333336}, {"type": "electric_scooter", "name": "e1eac05ee592666d8a3330714969252d", "fusion_lat": 0.0, "fusion_lon": 0.0, "lon": -77.022797, "is_disabled": 0, "bike_id": "e1eac05ee592666d8a3330714969252d", "is_reserved": 0, "rental_uris": {"android": "https://dc.lft.to/lastmile_qr_scan", "ios": "https://dc.lft.to/lastmile_qr_scan"}, "lat": 38.926895}, {"type": "electric_scooter", "name": "998f650a0ec95f350d2c92589227bf36", "fusion_lat": 0.0, "fusion_lon": 0.0, "lon": -77.03783516666667, "is_disabled": 0, "bike_id": "998f650a0ec95f350d2c92589227bf36", "is_reserved": 0, "rental_uris": {"android": "https://dc.lft.to/lastmile_qr_scan", "ios": "https://dc.lft.to/lastmile_qr_scan"}, "lat": 38.907263}, {"type": "electric_scooter", "name": "9e05e403a8d5b79cb19e12e966306131", "fusion_lat": 0.0, "fusion_lon": 0.0, "lon": -77.0250365, "is_disabled": 0, "bike_id": "9e05e403a8d5b79cb19e12e966306131", "is_reserved": 0, "rental_uris": {"android": "https://dc.lft.to/lastmile_qr_scan", "ios": "https://dc.lft.to/lastmile_qr_scan"}, "lat": 38.91806966666667}, {"type": "electric_scooter", "name": "8851631d2448ca33cd327dc338625674", "fusion_lat": 0.0, "fusion_lon": 0.0, "lon": -77.05597883333333, "is_disabled": 0, "bike_id": "8851631d2448ca33cd327dc338625674", "is_reserved": 0, "rental_uris": {"android": "https://dc.lft.to/lastmile_qr_scan", "ios": "https://dc.lft.to/lastmile_qr_scan"}, "lat": 38.8942165}, {"type": "electric_scooter", "name": "f1f554e38451c5f8b76185a3313d0fd1", "fusion_lat": 0.0, "fusion_lon": 0.0, "lon": -76.96547316666667, "is_disabled": 0, "bike_id": "f1f554e38451c5f8b76185a3313d0fd1", "is_reserved": 0, "rental_uris": {"android": "https://dc.lft.to/lastmile_qr_scan", "ios": "https://dc.lft.to/lastmile_qr_scan"}, "lat": 38.91847516666667}, {"type": "electric_scooter", "name": "a9919a163a0f3acfc42e9aefb725454a", "fusion_lat": 0.0, "fusion_lon": 0.0, "lon": -77.03451833333334, "is_disabled": 0, "bike_id": "a9919a163a0f3acfc42e9aefb725454a", "is_reserved": 0, "rental_uris": {"android": "https://dc.lft.to/lastmile_qr_scan", "ios": "https://dc.lft.to/lastmile_qr_scan"}, "lat": 38.90270366666667}, {"type": "electric_scooter", "name": "2ed50f0e9d1a3ee70f2d6885a80afd76", "fusion_lat": 0.0, "fusion_lon": 0.0, "lon": -77.03520716666667, "is_disabled": 0, "bike_id": "2ed50f0e9d1a3ee70f2d6885a80afd76", "is_reserved": 0, "rental_uris": {"android": "https://dc.lft.to/lastmile_qr_scan", "ios": "https://dc.lft.to/lastmile_qr_scan"}, "lat": 38.934600333333336}, {"type": "electric_scooter", "name": "c1543a7d5ee7d133628a017ba270e68a", "fusion_lat": 0.0, "fusion_lon": 0.0, "lon": -77.0257765, "is_disabled": 0, "bike_id": "c1543a7d5ee7d133628a017ba270e68a", "is_reserved": 0, "rental_uris": {"android": "https://dc.lft.to/lastmile_qr_scan", "ios": "https://dc.lft.to/lastmile_qr_scan"}, "lat": 38.92514583333333}, {"type": "electric_scooter", "name": "1b77617d2cb600120a1c98e76c0ee9a9", "fusion_lat": 0.0, "fusion_lon": 0.0, "lon": -77.04619033333333, "is_disabled": 0, "bike_id": "1b77617d2cb600120a1c98e76c0ee9a9", "is_reserved": 0, "rental_uris": {"android": "https://dc.lft.to/lastmile_qr_scan", "ios": "https://dc.lft.to/lastmile_qr_scan"}, "lat": 38.90275783333333}, {"type": "electric_scooter", "name": "e73056d6c4e83d4b7237676d3b6886c1", "fusion_lat": 0.0, "fusion_lon": 0.0, "lon": -77.03437283333334, "is_disabled": 0, "bike_id": "e73056d6c4e83d4b7237676d3b6886c1", "is_reserved": 0, "rental_uris": {"android": "https://dc.lft.to/lastmile_qr_scan", "ios": "https://dc.lft.to/lastmile_qr_scan"}, "lat": 38.9273685}, {"type": "electric_scooter", "name": "61fa3e699cc3af4081917ce053274e71", "fusion_lat": 0.0, "fusion_lon": 0.0, "lon": -77.0513825, "is_disabled": 0, "bike_id": "61fa3e699cc3af4081917ce053274e71", "is_reserved": 0, "rental_uris": {"android": "https://dc.lft.to/lastmile_qr_scan", "ios": "https://dc.lft.to/lastmile_qr_scan"}, "lat": 38.9053785}, {"type": "electric_scooter", "name": "caacd38a2fe1dd9967a75c12031584ed", "fusion_lat": 0.0, "fusion_lon": 0.0, "lon": -77.024848, "is_disabled": 0, "bike_id": "caacd38a2fe1dd9967a75c12031584ed", "is_reserved": 0, "rental_uris": {"android": "https://dc.lft.to/lastmile_qr_scan", "ios": "https://dc.lft.to/lastmile_qr_scan"}, "lat": 38.94182416666666}, {"type": "electric_bike", "name": "bda63ff51fd795862cc5aef5696f2284", "fusion_lat": 0.0, "fusion_lon": 0.0, "lon": -76.9907025, "is_disabled": 0, "bike_id": "bda63ff51fd795862cc5aef5696f2284", "is_reserved": 0, "rental_uris": {"android": "https://dc.lft.to/lastmile_qr_scan", "ios": "https://dc.lft.to/lastmile_qr_scan"}, "lat": 38.89814583333333}, {"type": "electric_scooter", "name": "c12358d39c8e2bfc5d0e060b04f1e392", "fusion_lat": 0.0, "fusion_lon": 0.0, "lon": -77.03834366666666, "is_disabled": 0, "bike_id": "c12358d39c8e2bfc5d0e060b04f1e392", "is_reserved": 0, "rental_uris": {"android": "https://dc.lft.to/lastmile_qr_scan", "ios": "https://dc.lft.to/lastmile_qr_scan"}, "lat": 38.903370333333335}, {"type": "electric_scooter", "name": "387fb5f8cc25337c2fc1e001abb100e4", "fusion_lat": 0.0, "fusion_lon": 0.0, "lon": -77.051685, "is_disabled": 0, "bike_id": "387fb5f8cc25337c2fc1e001abb100e4", "is_reserved": 0, "rental_uris": {"android": "https://dc.lft.to/lastmile_qr_scan", "ios": "https://dc.lft.to/lastmile_qr_scan"}, "lat": 38.90318216666667}, {"type": "electric_scooter", "name": "54187af0b7c6868aad118a95b3f8cf73", "fusion_lat": 0.0, "fusion_lon": 0.0, "lon": -77.03455633333333, "is_disabled": 0, "bike_id": "54187af0b7c6868aad118a95b3f8cf73", "is_reserved": 0, "rental_uris": {"android": "https://dc.lft.to/lastmile_qr_scan", "ios": "https://dc.lft.to/lastmile_qr_scan"}, "lat": 38.908265166666666}, {"type": "electric_scooter", "name": "bf2ff66ee2503b0cfe15a58a6dd2c594", "fusion_lat": 0.0, "fusion_lon": 0.0, "lon": -77.028017, "is_disabled": 0, "bike_id": "bf2ff66ee2503b0cfe15a58a6dd2c594", "is_reserved": 0, "rental_uris": {"android": "https://dc.lft.to/lastmile_qr_scan", "ios": "https://dc.lft.to/lastmile_qr_scan"}, "lat": 38.90735016666667}, {"type": "electric_scooter", "name": "40729d977cc176e0dbb809a8d5cc9c12", "fusion_lat": 0.0, "fusion_lon": 0.0, "lon": -77.01351716666667, "is_disabled": 0, "bike_id": "40729d977cc176e0dbb809a8d5cc9c12", "is_reserved": 0, "rental_uris": {"android": "https://dc.lft.to/lastmile_qr_scan", "ios": "https://dc.lft.to/lastmile_qr_scan"}, "lat": 38.899387833333336}, {"type": "electric_scooter", "name": "f7eea744f581af593581d97a3fd0fea9", "fusion_lat": 0.0, "fusion_lon": 0.0, "lon": -77.0230665, "is_disabled": 0, "bike_id": "f7eea744f581af593581d97a3fd0fea9", "is_reserved": 0, "rental_uris": {"android": "https://dc.lft.to/lastmile_qr_scan", "ios": "https://dc.lft.to/lastmile_qr_scan"}, "lat": 38.894721}, {"type": "electric_scooter", "name": "ce160a80f6b735e143a770e8bd4b5813", "fusion_lat": 0.0, "fusion_lon": 0.0, "lon": -77.025774, "is_disabled": 0, "bike_id": "ce160a80f6b735e143a770e8bd4b5813", "is_reserved": 0, "rental_uris": {"android": "https://dc.lft.to/lastmile_qr_scan", "ios": "https://dc.lft.to/lastmile_qr_scan"}, "lat": 38.925230666666664}, {"type": "electric_scooter", "name": "b0866a7d60177431eb2c497388b69364", "fusion_lat": 0.0, "fusion_lon": 0.0, "lon": -77.00762566666667, "is_disabled": 0, "bike_id": "b0866a7d60177431eb2c497388b69364", "is_reserved": 0, "rental_uris": {"android": "https://dc.lft.to/lastmile_qr_scan", "ios": "https://dc.lft.to/lastmile_qr_scan"}, "lat": 38.90735683333333}, {"type": "electric_bike", "name": "0236631483e5db67358d1e877d1ae5be", "fusion_lat": 0.0, "fusion_lon": 0.0, "lon": -77.03758616666667, "is_disabled": 0, "bike_id": "0236631483e5db67358d1e877d1ae5be", "is_reserved": 0, "rental_uris": {"android": "https://dc.lft.to/lastmile_qr_scan", "ios": "https://dc.lft.to/lastmile_qr_scan"}, "lat": 38.93969516666667}, {"type": "electric_scooter", "name": "059f9c462fbc3025e0199aaf462103b6", "fusion_lat": 0.0, "fusion_lon": 0.0, "lon": -77.00549233333334, "is_disabled": 0, "bike_id": "059f9c462fbc3025e0199aaf462103b6", "is_reserved": 0, "rental_uris": {"android": "https://dc.lft.to/lastmile_qr_scan", "ios": "https://dc.lft.to/lastmile_qr_scan"}, "lat": 38.905627}, {"type": "electric_scooter", "name": "4cd2bdf8ab5dcd6487ef642388af2d96", "fusion_lat": 0.0, "fusion_lon": 0.0, "lon": -77.0313535, "is_disabled": 0, "bike_id": "4cd2bdf8ab5dcd6487ef642388af2d96", "is_reserved": 0, "rental_uris": {"android": "https://dc.lft.to/lastmile_qr_scan", "ios": "https://dc.lft.to/lastmile_qr_scan"}, "lat": 38.923824333333336}, {"type": "electric_scooter", "name": "77a99a3c65016750f01593fc944d1803", "fusion_lat": 0.0, "fusion_lon": 0.0, "lon": -77.02299766666667, "is_disabled": 0, "bike_id": "77a99a3c65016750f01593fc944d1803", "is_reserved": 0, "rental_uris": {"android": "https://dc.lft.to/lastmile_qr_scan", "ios": "https://dc.lft.to/lastmile_qr_scan"}, "lat": 38.916234833333334}, {"type": "electric_scooter", "name": "a0389a5baf3855ef7fe5430fb65d742b", "fusion_lat": 0.0, "fusion_lon": 0.0, "lon": -77.018675, "is_disabled": 0, "bike_id": "a0389a5baf3855ef7fe5430fb65d742b", "is_reserved": 0, "rental_uris": {"android": "https://dc.lft.to/lastmile_qr_scan", "ios": "https://dc.lft.to/lastmile_qr_scan"}, "lat": 38.951528}, {"type": "electric_scooter", "name": "b3cca812372c5363021062f87708cfd0", "fusion_lat": 0.0, "fusion_lon": 0.0, "lon": -77.02647616666667, "is_disabled": 0, "bike_id": "b3cca812372c5363021062f87708cfd0", "is_reserved": 0, "rental_uris": {"android": "https://dc.lft.to/lastmile_qr_scan", "ios": "https://dc.lft.to/lastmile_qr_scan"}, "lat": 38.93099483333334}, {"type": "electric_scooter", "name": "fed597036cc550005282cd200213da91", "fusion_lat": 0.0, "fusion_lon": 0.0, "lon": -77.03887983333334, "is_disabled": 0, "bike_id": "fed597036cc550005282cd200213da91", "is_reserved": 0, "rental_uris": {"android": "https://dc.lft.to/lastmile_qr_scan", "ios": "https://dc.lft.to/lastmile_qr_scan"}, "lat": 38.901232}, {"type": "electric_scooter", "name": "ea3b8b54896af7a7e39a58e7b882b348", "fusion_lat": 0.0, "fusion_lon": 0.0, "lon": -77.05174466666666, "is_disabled": 0, "bike_id": "ea3b8b54896af7a7e39a58e7b882b348", "is_reserved": 0, "rental_uris": {"android": "https://dc.lft.to/lastmile_qr_scan", "ios": "https://dc.lft.to/lastmile_qr_scan"}, "lat": 38.902602}, {"type": "electric_scooter", "name": "592956969d6e75baadf91e8ac3ef9316", "fusion_lat": 0.0, "fusion_lon": 0.0, "lon": -77.02404466666667, "is_disabled": 0, "bike_id": "592956969d6e75baadf91e8ac3ef9316", "is_reserved": 0, "rental_uris": {"android": "https://dc.lft.to/lastmile_qr_scan", "ios": "https://dc.lft.to/lastmile_qr_scan"}, "lat": 38.917157333333336}, {"type": "electric_scooter", "name": "b6f5174f48ccec7b176cd4e9c1a532da", "fusion_lat": 0.0, "fusion_lon": 0.0, "lon": -77.0382775, "is_disabled": 0, "bike_id": "b6f5174f48ccec7b176cd4e9c1a532da", "is_reserved": 0, "rental_uris": {"android": "https://dc.lft.to/lastmile_qr_scan", "ios": "https://dc.lft.to/lastmile_qr_scan"}, "lat": 38.907222166666664}, {"type": "electric_scooter", "name": "84ee4aa5b335b08a950fbb77b7a2b1f5", "fusion_lat": 0.0, "fusion_lon": 0.0, "lon": -77.00741516666666, "is_disabled": 0, "bike_id": "84ee4aa5b335b08a950fbb77b7a2b1f5", "is_reserved": 0, "rental_uris": {"android": "https://dc.lft.to/lastmile_qr_scan", "ios": "https://dc.lft.to/lastmile_qr_scan"}, "lat": 38.9252365}, {"type": "electric_scooter", "name": "1b7dadcff9472577c74a3428216caf70", "fusion_lat": 0.0, "fusion_lon": 0.0, "lon": -77.04877983333333, "is_disabled": 0, "bike_id": "1b7dadcff9472577c74a3428216caf70", "is_reserved": 0, "rental_uris": {"android": "https://dc.lft.to/lastmile_qr_scan", "ios": "https://dc.lft.to/lastmile_qr_scan"}, "lat": 38.916169833333335}, {"type": "electric_scooter", "name": "764a45215b761d561ab402fcd1ebfa52", "fusion_lat": 0.0, "fusion_lon": 0.0, "lon": -77.027318, "is_disabled": 0, "bike_id": "764a45215b761d561ab402fcd1ebfa52", "is_reserved": 0, "rental_uris": {"android": "https://dc.lft.to/lastmile_qr_scan", "ios": "https://dc.lft.to/lastmile_qr_scan"}, "lat": 38.923857166666664}, {"type": "electric_scooter", "name": "4e46699fdeafdab6b43e6c74a1c06979", "fusion_lat": 0.0, "fusion_lon": 0.0, "lon": -77.024757, "is_disabled": 0, "bike_id": "4e46699fdeafdab6b43e6c74a1c06979", "is_reserved": 0, "rental_uris": {"android": "https://dc.lft.to/lastmile_qr_scan", "ios": "https://dc.lft.to/lastmile_qr_scan"}, "lat": 38.93853333333333}, {"type": "electric_scooter", "name": "695aa890f0456e84a9c56848c23ce002", "fusion_lat": 0.0, "fusion_lon": 0.0, "lon": -77.0321545, "is_disabled": 0, "bike_id": "695aa890f0456e84a9c56848c23ce002", "is_reserved": 0, "rental_uris": {"android": "https://dc.lft.to/lastmile_qr_scan", "ios": "https://dc.lft.to/lastmile_qr_scan"}, "lat": 38.8847095}, {"type": "electric_scooter", "name": "7c582cb196446917a7dae1012b8f514b", "fusion_lat": 0.0, "fusion_lon": 0.0, "lon": -77.02064066666667, "is_disabled": 0, "bike_id": "7c582cb196446917a7dae1012b8f514b", "is_reserved": 0, "rental_uris": {"android": "https://dc.lft.to/lastmile_qr_scan", "ios": "https://dc.lft.to/lastmile_qr_scan"}, "lat": 38.908467}, {"type": "electric_scooter", "name": "01f7ee5ef0c1a8d8f7dbd15a24ea45be", "fusion_lat": 0.0, "fusion_lon": 0.0, "lon": -77.0318365, "is_disabled": 0, "bike_id": "01f7ee5ef0c1a8d8f7dbd15a24ea45be", "is_reserved": 0, "rental_uris": {"android": "https://dc.lft.to/lastmile_qr_scan", "ios": "https://dc.lft.to/lastmile_qr_scan"}, "lat": 38.914171833333334}, {"type": "electric_scooter", "name": "e24822a475490ea87d6611503da21993", "fusion_lat": 0.0, "fusion_lon": 0.0, "lon": -77.005306, "is_disabled": 0, "bike_id": "e24822a475490ea87d6611503da21993", "is_reserved": 0, "rental_uris": {"android": "https://dc.lft.to/lastmile_qr_scan", "ios": "https://dc.lft.to/lastmile_qr_scan"}, "lat": 38.87468283333333}, {"type": "electric_scooter", "name": "ee1390080cb175cdff28f89870e7798f", "fusion_lat": 0.0, "fusion_lon": 0.0, "lon": -77.02809416666666, "is_disabled": 0, "bike_id": "ee1390080cb175cdff28f89870e7798f", "is_reserved": 0, "rental_uris": {"android": "https://dc.lft.to/lastmile_qr_scan", "ios": "https://dc.lft.to/lastmile_qr_scan"}, "lat": 38.930813}, {"type": "electric_scooter", "name": "4a6b2f925099884ba22e2418d6f62a84", "fusion_lat": 0.0, "fusion_lon": 0.0, "lon": -77.04278866666667, "is_disabled": 0, "bike_id": "4a6b2f925099884ba22e2418d6f62a84", "is_reserved": 0, "rental_uris": {"android": "https://dc.lft.to/lastmile_qr_scan", "ios": "https://dc.lft.to/lastmile_qr_scan"}, "lat": 38.922780833333334}, {"type": "electric_scooter", "name": "bce75336d7276ec990b41baacdc5bb44", "fusion_lat": 0.0, "fusion_lon": 0.0, "lon": -77.00832783333334, "is_disabled": 0, "bike_id": "bce75336d7276ec990b41baacdc5bb44", "is_reserved": 0, "rental_uris": {"android": "https://dc.lft.to/lastmile_qr_scan", "ios": "https://dc.lft.to/lastmile_qr_scan"}, "lat": 38.91374033333334}, {"type": "electric_bike", "name": "f7719ca1687fd1458883b55eb33137b6", "fusion_lat": 0.0, "fusion_lon": 0.0, "lon": -76.90738316666666, "is_disabled": 0, "bike_id": "f7719ca1687fd1458883b55eb33137b6", "is_reserved": 0, "rental_uris": {"android": "https://dc.lft.to/lastmile_qr_scan", "ios": "https://dc.lft.to/lastmile_qr_scan"}, "lat": 38.89620516666667}, {"type": "electric_scooter", "name": "242b712c808e09ef084b9467365687dd", "fusion_lat": 0.0, "fusion_lon": 0.0, "lon": -77.02710733333333, "is_disabled": 0, "bike_id": "242b712c808e09ef084b9467365687dd", "is_reserved": 0, "rental_uris": {"android": "https://dc.lft.to/lastmile_qr_scan", "ios": "https://dc.lft.to/lastmile_qr_scan"}, "lat": 38.916534}, {"type": "electric_scooter", "name": "2481f59ef3cf7add1073eb3197e26005", "fusion_lat": 0.0, "fusion_lon": 0.0, "lon": -77.00484033333333, "is_disabled": 0, "bike_id": "2481f59ef3cf7add1073eb3197e26005", "is_reserved": 0, "rental_uris": {"android": "https://dc.lft.to/lastmile_qr_scan", "ios": "https://dc.lft.to/lastmile_qr_scan"}, "lat": 38.8745845}, {"type": "electric_scooter", "name": "4ec6d20b35fbdbaa199d583870ec0450", "fusion_lat": 0.0, "fusion_lon": 0.0, "lon": -77.03364333333333, "is_disabled": 0, "bike_id": "4ec6d20b35fbdbaa199d583870ec0450", "is_reserved": 0, "rental_uris": {"android": "https://dc.lft.to/lastmile_qr_scan", "ios": "https://dc.lft.to/lastmile_qr_scan"}, "lat": 38.92440966666667}, {"type": "electric_scooter", "name": "acb77aac9190854dc6a78b7963806591", "fusion_lat": 0.0, "fusion_lon": 0.0, "lon": -77.0347215, "is_disabled": 0, "bike_id": "acb77aac9190854dc6a78b7963806591", "is_reserved": 0, "rental_uris": {"android": "https://dc.lft.to/lastmile_qr_scan", "ios": "https://dc.lft.to/lastmile_qr_scan"}, "lat": 38.928809}, {"type": "electric_scooter", "name": "e3ef2fa3dccabff33481b25063d99978", "fusion_lat": 0.0, "fusion_lon": 0.0, "lon": -77.017633, "is_disabled": 0, "bike_id": "e3ef2fa3dccabff33481b25063d99978", "is_reserved": 0, "rental_uris": {"android": "https://dc.lft.to/lastmile_qr_scan", "ios": "https://dc.lft.to/lastmile_qr_scan"}, "lat": 38.8768065}, {"type": "electric_scooter", "name": "ebfd2785d879719f8f1043e8c2eafd76", "fusion_lat": 0.0, "fusion_lon": 0.0, "lon": -77.03092316666667, "is_disabled": 0, "bike_id": "ebfd2785d879719f8f1043e8c2eafd76", "is_reserved": 0, "rental_uris": {"android": "https://dc.lft.to/lastmile_qr_scan", "ios": "https://dc.lft.to/lastmile_qr_scan"}, "lat": 38.9092945}, {"type": "electric_bike", "name": "fae2725259d22a21bb6eda6fd01150dd", "fusion_lat": 0.0, "fusion_lon": 0.0, "lon": -77.0265385, "is_disabled": 0, "bike_id": "fae2725259d22a21bb6eda6fd01150dd", "is_reserved": 0, "rental_uris": {"android": "https://dc.lft.to/lastmile_qr_scan", "ios": "https://dc.lft.to/lastmile_qr_scan"}, "lat": 38.988201833333335}, {"type": "electric_bike", "name": "5aaf4afe2b0a576762a812d5b895c3c9", "fusion_lat": 0.0, "fusion_lon": 0.0, "lon": -76.93804616666667, "is_disabled": 0, "bike_id": "5aaf4afe2b0a576762a812d5b895c3c9", "is_reserved": 0, "rental_uris": {"android": "https://dc.lft.to/lastmile_qr_scan", "ios": "https://dc.lft.to/lastmile_qr_scan"}, "lat": 38.97971416666667}, {"type": "electric_scooter", "name": "6bd893661b6f8dfd090d2ed488e9fe93", "fusion_lat": 0.0, "fusion_lon": 0.0, "lon": -77.03729033333333, "is_disabled": 0, "bike_id": "6bd893661b6f8dfd090d2ed488e9fe93", "is_reserved": 0, "rental_uris": {"android": "https://dc.lft.to/lastmile_qr_scan", "ios": "https://dc.lft.to/lastmile_qr_scan"}, "lat": 38.920305}, {"type": "electric_scooter", "name": "f444d835191a03f99dfbb20004945b9d", "fusion_lat": 0.0, "fusion_lon": 0.0, "lon": -77.03852416666666, "is_disabled": 0, "bike_id": "f444d835191a03f99dfbb20004945b9d", "is_reserved": 0, "rental_uris": {"android": "https://dc.lft.to/lastmile_qr_scan", "ios": "https://dc.lft.to/lastmile_qr_scan"}, "lat": 38.916666166666666}, {"type": "electric_scooter", "name": "727a6b47e96102bd2b097bc76bf91269", "fusion_lat": 0.0, "fusion_lon": 0.0, "lon": -77.0319845, "is_disabled": 0, "bike_id": "727a6b47e96102bd2b097bc76bf91269", "is_reserved": 0, "rental_uris": {"android": "https://dc.lft.to/lastmile_qr_scan", "ios": "https://dc.lft.to/lastmile_qr_scan"}, "lat": 38.901129833333336}, {"type": "electric_scooter", "name": "4e3963c200f784f199bdb5eb39f6b383", "fusion_lat": 0.0, "fusion_lon": 0.0, "lon": -77.0396375, "is_disabled": 0, "bike_id": "4e3963c200f784f199bdb5eb39f6b383", "is_reserved": 0, "rental_uris": {"android": "https://dc.lft.to/lastmile_qr_scan", "ios": "https://dc.lft.to/lastmile_qr_scan"}, "lat": 38.931507}, {"type": "electric_scooter", "name": "815978a71f82b81c644238aa9ad837f1", "fusion_lat": 0.0, "fusion_lon": 0.0, "lon": -77.032992, "is_disabled": 0, "bike_id": "815978a71f82b81c644238aa9ad837f1", "is_reserved": 0, "rental_uris": {"android": "https://dc.lft.to/lastmile_qr_scan", "ios": "https://dc.lft.to/lastmile_qr_scan"}, "lat": 38.899049833333336}, {"type": "electric_scooter", "name": "a2937c7140b9bb90773cf7b62d3ac8a9", "fusion_lat": 0.0, "fusion_lon": 0.0, "lon": -76.9935945, "is_disabled": 0, "bike_id": "a2937c7140b9bb90773cf7b62d3ac8a9", "is_reserved": 0, "rental_uris": {"android": "https://dc.lft.to/lastmile_qr_scan", "ios": "https://dc.lft.to/lastmile_qr_scan"}, "lat": 38.877810333333336}, {"type": "electric_scooter", "name": "c4d3481400895f2148bdf69d417161a4", "fusion_lat": 0.0, "fusion_lon": 0.0, "lon": -77.047499, "is_disabled": 0, "bike_id": "c4d3481400895f2148bdf69d417161a4", "is_reserved": 0, "rental_uris": {"android": "https://dc.lft.to/lastmile_qr_scan", "ios": "https://dc.lft.to/lastmile_qr_scan"}, "lat": 38.90526633333333}, {"type": "electric_scooter", "name": "66e692537de14c2f3266b3b6f5fdc4a6", "fusion_lat": 0.0, "fusion_lon": 0.0, "lon": -77.02309183333334, "is_disabled": 0, "bike_id": "66e692537de14c2f3266b3b6f5fdc4a6", "is_reserved": 0, "rental_uris": {"android": "https://dc.lft.to/lastmile_qr_scan", "ios": "https://dc.lft.to/lastmile_qr_scan"}, "lat": 38.917774666666666}, {"type": "electric_scooter", "name": "431b30b181a4ec1e5796e2340d1bdfbc", "fusion_lat": 0.0, "fusion_lon": 0.0, "lon": -77.0236455, "is_disabled": 0, "bike_id": "431b30b181a4ec1e5796e2340d1bdfbc", "is_reserved": 0, "rental_uris": {"android": "https://dc.lft.to/lastmile_qr_scan", "ios": "https://dc.lft.to/lastmile_qr_scan"}, "lat": 38.90959383333333}, {"type": "electric_scooter", "name": "db25dafbb7e56192a935581b70e10775", "fusion_lat": 0.0, "fusion_lon": 0.0, "lon": -76.98083666666666, "is_disabled": 0, "bike_id": "db25dafbb7e56192a935581b70e10775", "is_reserved": 0, "rental_uris": {"android": "https://dc.lft.to/lastmile_qr_scan", "ios": "https://dc.lft.to/lastmile_qr_scan"}, "lat": 38.904124333333336}, {"type": "electric_scooter", "name": "4ed268821e8915229dda3b34b212f10d", "fusion_lat": 0.0, "fusion_lon": 0.0, "lon": -77.0390005, "is_disabled": 0, "bike_id": "4ed268821e8915229dda3b34b212f10d", "is_reserved": 0, "rental_uris": {"android": "https://dc.lft.to/lastmile_qr_scan", "ios": "https://dc.lft.to/lastmile_qr_scan"}, "lat": 38.92218416666667}, {"type": "electric_scooter", "name": "8cf523c96bf380d8101f0b097b3b98fb", "fusion_lat": 0.0, "fusion_lon": 0.0, "lon": -76.99839416666667, "is_disabled": 0, "bike_id": "8cf523c96bf380d8101f0b097b3b98fb", "is_reserved": 0, "rental_uris": {"android": "https://dc.lft.to/lastmile_qr_scan", "ios": "https://dc.lft.to/lastmile_qr_scan"}, "lat": 38.9004925}, {"type": "electric_scooter", "name": "c2ba41a608daf39c6462249ba5f3decc", "fusion_lat": 0.0, "fusion_lon": 0.0, "lon": -77.07309583333333, "is_disabled": 0, "bike_id": "c2ba41a608daf39c6462249ba5f3decc", "is_reserved": 0, "rental_uris": {"android": "https://dc.lft.to/lastmile_qr_scan", "ios": "https://dc.lft.to/lastmile_qr_scan"}, "lat": 38.92318233333334}, {"type": "electric_scooter", "name": "1d53cdaff1b4b629547e17d78a612837", "fusion_lat": 0.0, "fusion_lon": 0.0, "lon": -77.02486066666667, "is_disabled": 0, "bike_id": "1d53cdaff1b4b629547e17d78a612837", "is_reserved": 0, "rental_uris": {"android": "https://dc.lft.to/lastmile_qr_scan", "ios": "https://dc.lft.to/lastmile_qr_scan"}, "lat": 38.941859666666666}, {"type": "electric_scooter", "name": "90fd224388580fa0f2459b35c7f6641f", "fusion_lat": 0.0, "fusion_lon": 0.0, "lon": -77.02176033333333, "is_disabled": 0, "bike_id": "90fd224388580fa0f2459b35c7f6641f", "is_reserved": 0, "rental_uris": {"android": "https://dc.lft.to/lastmile_qr_scan", "ios": "https://dc.lft.to/lastmile_qr_scan"}, "lat": 38.901854666666665}, {"type": "electric_scooter", "name": "ed840bfea951c601c7c0707382cdfa46", "fusion_lat": 0.0, "fusion_lon": 0.0, "lon": -77.034825, "is_disabled": 0, "bike_id": "ed840bfea951c601c7c0707382cdfa46", "is_reserved": 0, "rental_uris": {"android": "https://dc.lft.to/lastmile_qr_scan", "ios": "https://dc.lft.to/lastmile_qr_scan"}, "lat": 38.92883466666667}, {"type": "electric_scooter", "name": "7f27fd83447e14d663f3cf7e5941794c", "fusion_lat": 0.0, "fusion_lon": 0.0, "lon": -77.0327165, "is_disabled": 0, "bike_id": "7f27fd83447e14d663f3cf7e5941794c", "is_reserved": 0, "rental_uris": {"android": "https://dc.lft.to/lastmile_qr_scan", "ios": "https://dc.lft.to/lastmile_qr_scan"}, "lat": 38.93323083333333}, {"type": "electric_bike", "name": "36e5ef41ab8b3058147a5079e96176b9", "fusion_lat": 0.0, "fusion_lon": 0.0, "lon": -77.0955455, "is_disabled": 0, "bike_id": "36e5ef41ab8b3058147a5079e96176b9", "is_reserved": 0, "rental_uris": {"android": "https://dc.lft.to/lastmile_qr_scan", "ios": "https://dc.lft.to/lastmile_qr_scan"}, "lat": 38.85874966666667}, {"type": "electric_scooter", "name": "8aad031524051d45abfc11d594159d29", "fusion_lat": 0.0, "fusion_lon": 0.0, "lon": -77.02779016666666, "is_disabled": 0, "bike_id": "8aad031524051d45abfc11d594159d29", "is_reserved": 0, "rental_uris": {"android": "https://dc.lft.to/lastmile_qr_scan", "ios": "https://dc.lft.to/lastmile_qr_scan"}, "lat": 38.965829666666664}, {"type": "electric_scooter", "name": "eef544c3b58af9f62faba8ad38e5fb4e", "fusion_lat": 0.0, "fusion_lon": 0.0, "lon": -77.035074, "is_disabled": 0, "bike_id": "eef544c3b58af9f62faba8ad38e5fb4e", "is_reserved": 0, "rental_uris": {"android": "https://dc.lft.to/lastmile_qr_scan", "ios": "https://dc.lft.to/lastmile_qr_scan"}, "lat": 38.921542333333335}, {"type": "electric_scooter", "name": "9c24fb1517cbc6c96c528f7f1054ef90", "fusion_lat": 0.0, "fusion_lon": 0.0, "lon": -77.0437285, "is_disabled": 0, "bike_id": "9c24fb1517cbc6c96c528f7f1054ef90", "is_reserved": 0, "rental_uris": {"android": "https://dc.lft.to/lastmile_qr_scan", "ios": "https://dc.lft.to/lastmile_qr_scan"}, "lat": 38.9046975}, {"type": "electric_scooter", "name": "086c4ff6015e70b9ef22b42ddc76fa9b", "fusion_lat": 0.0, "fusion_lon": 0.0, "lon": -77.02278566666666, "is_disabled": 0, "bike_id": "086c4ff6015e70b9ef22b42ddc76fa9b", "is_reserved": 0, "rental_uris": {"android": "https://dc.lft.to/lastmile_qr_scan", "ios": "https://dc.lft.to/lastmile_qr_scan"}, "lat": 38.92688366666667}, {"type": "electric_scooter", "name": "170d1d22ae0e1348615dc6a485253131", "fusion_lat": 0.0, "fusion_lon": 0.0, "lon": -77.02303183333333, "is_disabled": 0, "bike_id": "170d1d22ae0e1348615dc6a485253131", "is_reserved": 0, "rental_uris": {"android": "https://dc.lft.to/lastmile_qr_scan", "ios": "https://dc.lft.to/lastmile_qr_scan"}, "lat": 38.92081616666667}, {"type": "electric_scooter", "name": "57fd681979016650d42f333aa2418658", "fusion_lat": 0.0, "fusion_lon": 0.0, "lon": -77.01333683333333, "is_disabled": 0, "bike_id": "57fd681979016650d42f333aa2418658", "is_reserved": 0, "rental_uris": {"android": "https://dc.lft.to/lastmile_qr_scan", "ios": "https://dc.lft.to/lastmile_qr_scan"}, "lat": 38.88118166666667}, {"type": "electric_scooter", "name": "7717436d8f5dfeebd0ff3a1aaa99a1bf", "fusion_lat": 0.0, "fusion_lon": 0.0, "lon": -77.03969066666667, "is_disabled": 0, "bike_id": "7717436d8f5dfeebd0ff3a1aaa99a1bf", "is_reserved": 0, "rental_uris": {"android": "https://dc.lft.to/lastmile_qr_scan", "ios": "https://dc.lft.to/lastmile_qr_scan"}, "lat": 38.898982}, {"type": "electric_scooter", "name": "5367eb8bd921534533559beccacb1c5c", "fusion_lat": 0.0, "fusion_lon": 0.0, "lon": -77.02566283333333, "is_disabled": 0, "bike_id": "5367eb8bd921534533559beccacb1c5c", "is_reserved": 0, "rental_uris": {"android": "https://dc.lft.to/lastmile_qr_scan", "ios": "https://dc.lft.to/lastmile_qr_scan"}, "lat": 38.9419575}, {"type": "electric_scooter", "name": "eefd36f08938c660c73b3ce020badf95", "fusion_lat": 0.0, "fusion_lon": 0.0, "lon": -76.980343, "is_disabled": 0, "bike_id": "eefd36f08938c660c73b3ce020badf95", "is_reserved": 0, "rental_uris": {"android": "https://dc.lft.to/lastmile_qr_scan", "ios": "https://dc.lft.to/lastmile_qr_scan"}, "lat": 38.9078645}, {"type": "electric_scooter", "name": "447793245cd3c59bb53e2404d93b634b", "fusion_lat": 0.0, "fusion_lon": 0.0, "lon": -77.0319965, "is_disabled": 0, "bike_id": "447793245cd3c59bb53e2404d93b634b", "is_reserved": 0, "rental_uris": {"android": "https://dc.lft.to/lastmile_qr_scan", "ios": "https://dc.lft.to/lastmile_qr_scan"}, "lat": 38.919275166666665}, {"type": "electric_scooter", "name": "7ff1a46a0ee0c1ef7cfba6592873f1a4", "fusion_lat": 0.0, "fusion_lon": 0.0, "lon": -76.92891466666667, "is_disabled": 0, "bike_id": "7ff1a46a0ee0c1ef7cfba6592873f1a4", "is_reserved": 0, "rental_uris": {"android": "https://dc.lft.to/lastmile_qr_scan", "ios": "https://dc.lft.to/lastmile_qr_scan"}, "lat": 38.879447}, {"type": "electric_scooter", "name": "338f899a28767ad6603378529d15601b", "fusion_lat": 0.0, "fusion_lon": 0.0, "lon": -77.05151233333333, "is_disabled": 0, "bike_id": "338f899a28767ad6603378529d15601b", "is_reserved": 0, "rental_uris": {"android": "https://dc.lft.to/lastmile_qr_scan", "ios": "https://dc.lft.to/lastmile_qr_scan"}, "lat": 38.898522166666666}, {"type": "electric_scooter", "name": "71b452d3e29b36265a322d9920508243", "fusion_lat": 0.0, "fusion_lon": 0.0, "lon": -77.03449483333333, "is_disabled": 0, "bike_id": "71b452d3e29b36265a322d9920508243", "is_reserved": 0, "rental_uris": {"android": "https://dc.lft.to/lastmile_qr_scan", "ios": "https://dc.lft.to/lastmile_qr_scan"}, "lat": 38.906331333333334}, {"type": "electric_scooter", "name": "7004a726fdc00971d69ad7cc552c454f", "fusion_lat": 0.0, "fusion_lon": 0.0, "lon": -77.03935733333333, "is_disabled": 0, "bike_id": "7004a726fdc00971d69ad7cc552c454f", "is_reserved": 0, "rental_uris": {"android": "https://dc.lft.to/lastmile_qr_scan", "ios": "https://dc.lft.to/lastmile_qr_scan"}, "lat": 38.89844683333333}, {"type": "electric_scooter", "name": "e5e4d8e1cc2c63b555ed10fb978a8c1f", "fusion_lat": 0.0, "fusion_lon": 0.0, "lon": -77.0636175, "is_disabled": 0, "bike_id": "e5e4d8e1cc2c63b555ed10fb978a8c1f", "is_reserved": 0, "rental_uris": {"android": "https://dc.lft.to/lastmile_qr_scan", "ios": "https://dc.lft.to/lastmile_qr_scan"}, "lat": 38.9201795}, {"type": "electric_scooter", "name": "4b4e6b373fcddac8f2ba2366034118f9", "fusion_lat": 0.0, "fusion_lon": 0.0, "lon": -77.00054433333334, "is_disabled": 0, "bike_id": "4b4e6b373fcddac8f2ba2366034118f9", "is_reserved": 0, "rental_uris": {"android": "https://dc.lft.to/lastmile_qr_scan", "ios": "https://dc.lft.to/lastmile_qr_scan"}, "lat": 38.873778}, {"type": "electric_scooter", "name": "7ce3e9937b71f518565655623a4bf1a1", "fusion_lat": 0.0, "fusion_lon": 0.0, "lon": -77.0319535, "is_disabled": 0, "bike_id": "7ce3e9937b71f518565655623a4bf1a1", "is_reserved": 0, "rental_uris": {"android": "https://dc.lft.to/lastmile_qr_scan", "ios": "https://dc.lft.to/lastmile_qr_scan"}, "lat": 38.9072265}, {"type": "electric_scooter", "name": "d590c8855dd421fcd5d730ab78db8ec5", "fusion_lat": 0.0, "fusion_lon": 0.0, "lon": -76.98371766666666, "is_disabled": 0, "bike_id": "d590c8855dd421fcd5d730ab78db8ec5", "is_reserved": 0, "rental_uris": {"android": "https://dc.lft.to/lastmile_qr_scan", "ios": "https://dc.lft.to/lastmile_qr_scan"}, "lat": 38.89263666666667}, {"type": "electric_bike", "name": "a82e0e6b79d1825243e2dde1798ba797", "fusion_lat": 0.0, "fusion_lon": 0.0, "lon": -76.96052483333334, "is_disabled": 0, "bike_id": "a82e0e6b79d1825243e2dde1798ba797", "is_reserved": 0, "rental_uris": {"android": "https://dc.lft.to/lastmile_qr_scan", "ios": "https://dc.lft.to/lastmile_qr_scan"}, "lat": 38.884035}, {"type": "electric_scooter", "name": "8f4c3c5c7b7b7dc170b804c2525360c4", "fusion_lat": 0.0, "fusion_lon": 0.0, "lon": -76.998417, "is_disabled": 0, "bike_id": "8f4c3c5c7b7b7dc170b804c2525360c4", "is_reserved": 0, "rental_uris": {"android": "https://dc.lft.to/lastmile_qr_scan", "ios": "https://dc.lft.to/lastmile_qr_scan"}, "lat": 38.9005935}, {"type": "electric_bike", "name": "7813a841d22d1d6427b88b77331f0550", "fusion_lat": 0.0, "fusion_lon": 0.0, "lon": -77.0782405, "is_disabled": 0, "bike_id": "7813a841d22d1d6427b88b77331f0550", "is_reserved": 0, "rental_uris": {"android": "https://dc.lft.to/lastmile_qr_scan", "ios": "https://dc.lft.to/lastmile_qr_scan"}, "lat": 38.8952045}, {"type": "electric_scooter", "name": "a7701641b0ad71d6f4110bdfae1c55f7", "fusion_lat": 0.0, "fusion_lon": 0.0, "lon": -77.000394, "is_disabled": 0, "bike_id": "a7701641b0ad71d6f4110bdfae1c55f7", "is_reserved": 0, "rental_uris": {"android": "https://dc.lft.to/lastmile_qr_scan", "ios": "https://dc.lft.to/lastmile_qr_scan"}, "lat": 38.90009516666667}, {"type": "electric_scooter", "name": "eb77da4bde8bc98342c0e27be8581b8b", "fusion_lat": 0.0, "fusion_lon": 0.0, "lon": -76.98496283333333, "is_disabled": 0, "bike_id": "eb77da4bde8bc98342c0e27be8581b8b", "is_reserved": 0, "rental_uris": {"android": "https://dc.lft.to/lastmile_qr_scan", "ios": "https://dc.lft.to/lastmile_qr_scan"}, "lat": 38.903612}, {"type": "electric_scooter", "name": "1d53dadbd9c642f88d9b8912f80d35ee", "fusion_lat": 0.0, "fusion_lon": 0.0, "lon": -77.02347616666667, "is_disabled": 0, "bike_id": "1d53dadbd9c642f88d9b8912f80d35ee", "is_reserved": 0, "rental_uris": {"android": "https://dc.lft.to/lastmile_qr_scan", "ios": "https://dc.lft.to/lastmile_qr_scan"}, "lat": 38.941951833333334}, {"type": "electric_scooter", "name": "fdb04ee1f916a85dcf5b7b6662e4801a", "fusion_lat": 0.0, "fusion_lon": 0.0, "lon": -77.0051605, "is_disabled": 0, "bike_id": "fdb04ee1f916a85dcf5b7b6662e4801a", "is_reserved": 0, "rental_uris": {"android": "https://dc.lft.to/lastmile_qr_scan", "ios": "https://dc.lft.to/lastmile_qr_scan"}, "lat": 38.89675583333333}, {"type": "electric_scooter", "name": "1a31bc9a81c736b60df049b453f2c052", "fusion_lat": 0.0, "fusion_lon": 0.0, "lon": -77.0230345, "is_disabled": 0, "bike_id": "1a31bc9a81c736b60df049b453f2c052", "is_reserved": 0, "rental_uris": {"android": "https://dc.lft.to/lastmile_qr_scan", "ios": "https://dc.lft.to/lastmile_qr_scan"}, "lat": 38.9161855}, {"type": "electric_scooter", "name": "ac1e01917e8c6c923912dba4d420aac8", "fusion_lat": 0.0, "fusion_lon": 0.0, "lon": -77.0292935, "is_disabled": 0, "bike_id": "ac1e01917e8c6c923912dba4d420aac8", "is_reserved": 0, "rental_uris": {"android": "https://dc.lft.to/lastmile_qr_scan", "ios": "https://dc.lft.to/lastmile_qr_scan"}, "lat": 38.89833633333333}, {"type": "electric_scooter", "name": "27def59cd5198b8b1bab05d116ba5c8a", "fusion_lat": 0.0, "fusion_lon": 0.0, "lon": -77.0081915, "is_disabled": 0, "bike_id": "27def59cd5198b8b1bab05d116ba5c8a", "is_reserved": 0, "rental_uris": {"android": "https://dc.lft.to/lastmile_qr_scan", "ios": "https://dc.lft.to/lastmile_qr_scan"}, "lat": 38.915625666666664}, {"type": "electric_scooter", "name": "a6def4aaa2cefb3b892f7f2dbb0620a5", "fusion_lat": 0.0, "fusion_lon": 0.0, "lon": -77.0342655, "is_disabled": 0, "bike_id": "a6def4aaa2cefb3b892f7f2dbb0620a5", "is_reserved": 0, "rental_uris": {"android": "https://dc.lft.to/lastmile_qr_scan", "ios": "https://dc.lft.to/lastmile_qr_scan"}, "lat": 38.914036833333334},