{"data": {"bikes": [{"fusion_lon": 0.0, "lat": 38.89609933333333, "lon": -77.050794, "bike_id": "904cddfe79d2156dd5dedf1da39d4667", "rental_uris": {"android": "https://dc.lft.to/lastmile_qr_scan", "ios": "https://dc.lft.to/lastmile_qr_scan"}, "fusion_lat": 0.0, "name": "904cddfe79d2156dd5dedf1da39d4667", "is_reserved": 0, "is_disabled": 0, "type": "electric_scooter"}, {"fusion_lon": 0.0, "lat": 38.89587616666667, "lon": -77.01628933333333, "bike_id": "8d3958cf6652e16fdba8f83dd44dd141", "rental_uris": {"android": "https://dc.lft.to/lastmile_qr_scan", "ios": "https://dc.lft.to/lastmile_qr_scan"}, "fusion_lat": 0.0, "name": "8d3958cf6652e16fdba8f83dd44dd141", "is_reserved": 0, "is_disabled": 0, "type": "electric_scooter"}, {"fusion_lon": 0.0, "lat": 38.89258, "lon": -77.00216733333333, "bike_id": "496785488cf5df0ff97a5159941b4884", "rental_uris": {"android": "https://dc.lft.to/lastmile_qr_scan", "ios": "https://dc.lft.to/lastmile_qr_scan"}, "fusion_lat": 0.0, "name": "496785488cf5df0ff97a5159941b4884", "is_reserved": 0, "is_disabled": 0, "type": "electric_scooter"}, {"fusion_lon": 0.0, "lat": 38.933019333333334, "lon": -77.023734, "bike_id": "6f3b3062344af065084fbf0e7a1ea76d", "rental_uris": {"android": "https://dc.lft.to/lastmile_qr_scan", "ios": "https://dc.lft.to/lastmile_qr_scan"}, "fusion_lat": 0.0, "name": "6f3b3062344af065084fbf0e7a1ea76d", "is_reserved": 0, "is_disabled": 0, "type": "electric_scooter"}, {"fusion_lon": 0.0, "lat": 38.854404333333335, "lon": -77.08319516666667, "bike_id": "95eba0d84d9767451dc3f373d284c994", "rental_uris": {"android": "https://dc.lft.to/lastmile_qr_scan", "ios": "https://dc.lft.to/lastmile_qr_scan"}, "fusion_lat": 0.0, "name": "95eba0d84d9767451dc3f373d284c994", "is_reserved": 0, "is_disabled": 0, "type": "electric_bike"}, {"fusion_lon": 0.0, "lat": 38.90379733333333, "lon": -77.03643233333334, "bike_id": "8df756dd6e2f4fd4c28cdb997143f3c0", "rental_uris": {"android": "https://dc.lft.to/lastmile_qr_scan", "ios": "https://dc.lft.to/lastmile_qr_scan"}, "fusion_lat": 0.0, "name": "8df756dd6e2f4fd4c28cdb997143f3c0", "is_reserved": 0, "is_disabled": 0, "type": "electric_scooter"}, {"fusion_lon": 0.0, "lat": 38.93813016666667, "lon": -77.10185133333333, "bike_id": "1c8f64de55f4aa2da0a6dfeb8a3e5a2e", "rental_uris": {"android": "https://dc.lft.to/lastmile_qr_scan", "ios": "https://dc.lft.to/lastmile_qr_scan"}, "fusion_lat": 0.0, "name": "1c8f64de55f4aa2da0a6dfeb8a3e5a2e", "is_reserved": 0, "is_disabled": 0, "type": "electric_bike"}, {"fusion_lon": 0.0, "lat": 38.9141625, "lon": -77.0428275, "bike_id": "63a3a6ed813e0a662de4dff143626524", "rental_uris": {"android": "https://dc.lft.to/lastmile_qr_scan", "ios": "https://dc.lft.to/lastmile_qr_scan"}, "fusion_lat": 0.0, "name": "63a3a6ed813e0a662de4dff143626524", "is_reserved": 0, "is_disabled": 0, "type": "electric_scooter"}, {"fusion_lon": 0.0, "lat": 38.928436, "lon": -77.01397033333333, "bike_id": "2db43438796ef9e1031a98b3841d8faf", "rental_uris": {"android": "https://dc.lft.to/lastmile_qr_scan", "ios": "https://dc.lft.to/lastmile_qr_scan"}, "fusion_lat": 0.0, "name": "2db43438796ef9e1031a98b3841d8faf", "is_reserved": 0, "is_disabled": 0, "type": "electric_scooter"}, {"fusion_lon": 0.0, "lat": 38.895470833333334, "lon": -77.009245, "bike_id": "55df875a36aacf97493b2103360c00c7", "rental_uris": {"android": "https://dc.lft.to/lastmile_qr_scan", "ios": "https://dc.lft.to/lastmile_qr_scan"}, "fusion_lat": 0.0, "name": "55df875a36aacf97493b2103360c00c7", "is_reserved": 0, "is_disabled": 0, "type": "electric_scooter"}, {"fusion_lon": 0.0, "lat": 38.8687205, "lon": -76.98669633333333, "bike_id": "4a0f71513d161407d6de9bb753623479", "rental_uris": {"android": "https://dc.lft.to/lastmile_qr_scan", "ios": "https://dc.lft.to/lastmile_qr_scan"}, "fusion_lat": 0.0, "name": "4a0f71513d161407d6de9bb753623479", "is_reserved": 0, "is_disabled": 0, "type": "electric_scooter"}, {"fusion_lon": 0.0, "lat": 38.9269, "lon": -77.02277633333334, "bike_id": "aebfed99a9cfb93831bf46c33620aeef", "rental_uris": {"android": "https://dc.lft.to/lastmile_qr_scan", "ios": "https://dc.lft.to/lastmile_qr_scan"}, "fusion_lat": 0.0, "name": "aebfed99a9cfb93831bf46c33620aeef", "is_reserved": 0, "is_disabled": 0, "type": "electric_scooter"}, {"fusion_lon": 0.0, "lat": 38.9013655, "lon": -77.044781, "bike_id": "e456fb8c53c9f9e761debb67524465d0", "rental_uris": {"android": "https://dc.lft.to/lastmile_qr_scan", "ios": "https://dc.lft.to/lastmile_qr_scan"}, "fusion_lat": 0.0, "name": "e456fb8c53c9f9e761debb67524465d0", "is_reserved": 0, "is_disabled": 0, "type": "electric_scooter"}, {"fusion_lon": 0.0, "lat": 38.90132416666667, "lon": -77.03112633333333, "bike_id": "f85eb7c948e2722b0c6223820b567fe7", "rental_uris": {"android": "https://dc.lft.to/lastmile_qr_scan", "ios": "https://dc.lft.to/lastmile_qr_scan"}, "fusion_lat": 0.0, "name": "f85eb7c948e2722b0c6223820b567fe7", "is_reserved": 0, "is_disabled": 0, "type": "electric_scooter"}, {"fusion_lon": 0.0, "lat": 38.922366333333336, "lon": -77.02122083333333, "bike_id": "5024a18bbb9e27c05fb5bc19f8839e01", "rental_uris": {"android": "https://dc.lft.to/lastmile_qr_scan", "ios": "https://dc.lft.to/lastmile_qr_scan"}, "fusion_lat": 0.0, "name": "5024a18bbb9e27c05fb5bc19f8839e01", "is_reserved": 0, "is_disabled": 0, "type": "electric_scooter"}, {"fusion_lon": 0.0, "lat": 38.895506166666664, "lon": -77.04671983333333, "bike_id": "f3d3d75d71aad6be1cb0d38a81c50c72", "rental_uris": {"android": "https://dc.lft.to/lastmile_qr_scan", "ios": "https://dc.lft.to/lastmile_qr_scan"}, "fusion_lat": 0.0, "name": "f3d3d75d71aad6be1cb0d38a81c50c72", "is_reserved": 0, "is_disabled": 0, "type": "electric_scooter"}, {"fusion_lon": 0.0, "lat": 38.930188, "lon": -77.06198166666667, "bike_id": "b779f2b4f64591c9de354e9326a2f541", "rental_uris": {"android": "https://dc.lft.to/lastmile_qr_scan", "ios": "https://dc.lft.to/lastmile_qr_scan"}, "fusion_lat": 0.0, "name": "b779f2b4f64591c9de354e9326a2f541", "is_reserved": 0, "is_disabled": 0, "type": "electric_scooter"}, {"fusion_lon": 0.0, "lat": 38.8766085, "lon": -77.0117265, "bike_id": "99fa92793bd03387802cff237259bbb3", "rental_uris": {"android": "https://dc.lft.to/lastmile_qr_scan", "ios": "https://dc.lft.to/lastmile_qr_scan"}, "fusion_lat": 0.0, "name": "99fa92793bd03387802cff237259bbb3", "is_reserved": 0, "is_disabled": 0, "type": "electric_scooter"}, {"fusion_lon": 0.0, "lat": 38.91093816666667, "lon": -77.0448425, "bike_id": "e040be2f1be032d84e2385b8eb09bb18", "rental_uris": {"android": "https://dc.lft.to/lastmile_qr_scan", "ios": "https://dc.lft.to/lastmile_qr_scan"}, "fusion_lat": 0.0, "name": "e040be2f1be032d84e2385b8eb09bb18", "is_reserved": 0, "is_disabled": 0, "type": "electric_scooter"}, {"fusion_lon": 0.0, "lat": 38.89358, "lon": -77.04617783333333, "bike_id": "d863b085a5b048bec564d7a704fc3121", "rental_uris": {"android": "https://dc.lft.to/lastmile_qr_scan", "ios": "https://dc.lft.to/lastmile_qr_scan"}, "fusion_lat": 0.0, "name": "d863b085a5b048bec564d7a704fc3121", "is_reserved": 0, "is_disabled": 0, "type": "electric_scooter"}, {"fusion_lon": 0.0, "lat": 38.926364, "lon": -77.03854433333333, "bike_id": "9c36d86a9d7845831279b343f69b1e19", "rental_uris": {"android": "https://dc.lft.to/lastmile_qr_scan", "ios": "https://dc.lft.to/lastmile_qr_scan"}, "fusion_lat": 0.0, "name": "9c36d86a9d7845831279b343f69b1e19", "is_reserved": 0, "is_disabled": 0, "type": "electric_scooter"}, {"fusion_lon": 0.0, "lat": 38.8971745, "lon": -77.02695666666666, "bike_id": "cd2e1a25edb85cb2d7fe6ccf36b92808", "rental_uris": {"android": "https://dc.lft.to/lastmile_qr_scan", "ios": "https://dc.lft.to/lastmile_qr_scan"}, "fusion_lat": 0.0, "name": "cd2e1a25edb85cb2d7fe6ccf36b92808", "is_reserved": 0, "is_disabled": 0, "type": "electric_scooter"}, {"fusion_lon": 0.0, "lat": 38.89703216666667, "lon": -76.93916066666667, "bike_id": "a9622485598e6abaaae6b491e9d94a98", "rental_uris": {"android": "https://dc.lft.to/lastmile_qr_scan", "ios": "https://dc.lft.to/lastmile_qr_scan"}, "fusion_lat": 0.0, "name": "a9622485598e6abaaae6b491e9d94a98", "is_reserved": 0, "is_disabled": 0, "type": "electric_scooter"}, {"fusion_lon": 0.0, "lat": 38.9226225, "lon": -77.01891366666666, "bike_id": "6be8ed6fbe28c20e11e8f03f1802c2e9", "rental_uris": {"android": "https://dc.lft.to/lastmile_qr_scan", "ios": "https://dc.lft.to/lastmile_qr_scan"}, "fusion_lat": 0.0, "name": "6be8ed6fbe28c20e11e8f03f1802c2e9", "is_reserved": 0, "is_disabled": 0, "type": "electric_scooter"}, {"fusion_lon": 0.0, "lat": 38.912090166666665, "lon": -77.021945, "bike_id": "002f4ba327309e2f80f5234a08a40a98", "rental_uris": {"android": "https://dc.lft.to/lastmile_qr_scan", "ios": "https://dc.lft.to/lastmile_qr_scan"}, "fusion_lat": 0.0, "name": "002f4ba327309e2f80f5234a08a40a98", "is_reserved": 0, "is_disabled": 0, "type": "electric_scooter"}, {"fusion_lon": 0.0, "lat": 38.9601835, "lon": -77.00290266666667, "bike_id": "5e2aec90276dc65dd3e369ff297f3d42", "rental_uris": {"android": "https://dc.lft.to/lastmile_qr_scan", "ios": "https://dc.lft.to/lastmile_qr_scan"}, "fusion_lat": 0.0, "name": "5e2aec90276dc65dd3e369ff297f3d42", "is_reserved": 0, "is_disabled": 0, "type": "electric_bike"}, {"fusion_lon": 0.0, "lat": 38.9027795, "lon": -77.03265483333334, "bike_id": "87b3e20ebd8cd89cf9bbf37d14701df3", "rental_uris": {"android": "https://dc.lft.to/lastmile_qr_scan", "ios": "https://dc.lft.to/lastmile_qr_scan"}, "fusion_lat": 0.0, "name": "87b3e20ebd8cd89cf9bbf37d14701df3", "is_reserved": 0, "is_disabled": 0, "type": "electric_scooter"}, {"fusion_lon": 0.0, "lat": 38.91067416666667, "lon": -77.00918283333333, "bike_id": "de0a8864b203067b61aa45fb89e06518", "rental_uris": {"android": "https://dc.lft.to/lastmile_qr_scan", "ios": "https://dc.lft.to/lastmile_qr_scan"}, "fusion_lat": 0.0, "name": "de0a8864b203067b61aa45fb89e06518", "is_reserved": 0, "is_disabled": 0, "type": "electric_scooter"}, {"fusion_lon": 0.0, "lat": 38.903749, "lon": -77.03858883333334, "bike_id": "9f170800d8512c23223c4e6393a35c6d", "rental_uris": {"android": "https://dc.lft.to/lastmile_qr_scan", "ios": "https://dc.lft.to/lastmile_qr_scan"}, "fusion_lat": 0.0, "name": "9f170800d8512c23223c4e6393a35c6d", "is_reserved": 0, "is_disabled": 0, "type": "electric_scooter"}, {"fusion_lon": 0.0, "lat": 38.885237000000004, "lon": -77.01134716666667, "bike_id": "317bee3838aa4d00f96d96daf85f72a6", "rental_uris": {"android": "https://dc.lft.to/lastmile_qr_scan", "ios": "https://dc.lft.to/lastmile_qr_scan"}, "fusion_lat": 0.0, "name": "317bee3838aa4d00f96d96daf85f72a6", "is_reserved": 0, "is_disabled": 0, "type": "electric_scooter"}, {"fusion_lon": 0.0, "lat": 38.9528335, "lon": -77.036337, "bike_id": "12dfc40238ad5850821279e2dd8c998f", "rental_uris": {"android": "https://dc.lft.to/lastmile_qr_scan", "ios": "https://dc.lft.to/lastmile_qr_scan"}, "fusion_lat": 0.0, "name": "12dfc40238ad5850821279e2dd8c998f", "is_reserved": 0, "is_disabled": 0, "type": "electric_scooter"}, {"fusion_lon": 0.0, "lat": 38.89506883333333, "lon": -76.94887533333333, "bike_id": "5601917703a4eba4183c486f2cef17bd", "rental_uris": {"android": "https://dc.lft.to/lastmile_qr_scan", "ios": "https://dc.lft.to/lastmile_qr_scan"}, "fusion_lat": 0.0, "name": "5601917703a4eba4183c486f2cef17bd", "is_reserved": 0, "is_disabled": 0, "type": "electric_scooter"}, {"fusion_lon": 0.0, "lat": 38.9246595, "lon": -77.057525, "bike_id": "f5c525dce6d2596452d0671928cf4106", "rental_uris": {"android": "https://dc.lft.to/lastmile_qr_scan", "ios": "https://dc.lft.to/lastmile_qr_scan"}, "fusion_lat": 0.0, "name": "f5c525dce6d2596452d0671928cf4106", "is_reserved": 0, "is_disabled": 0, "type": "electric_scooter"}, {"fusion_lon": 0.0, "lat": 38.88815366666667, "lon": -76.97705733333333, "bike_id": "eab192de4bed0cdd953a661b311d43c9", "rental_uris": {"android": "https://dc.lft.to/lastmile_qr_scan", "ios": "https://dc.lft.to/lastmile_qr_scan"}, "fusion_lat": 0.0, "name": "eab192de4bed0cdd953a661b311d43c9", "is_reserved": 0, "is_disabled": 0, "type": "electric_scooter"}, {"fusion_lon": 0.0, "lat": 38.922568, "lon": -77.02978566666667, "bike_id": "72474670e7208d19ffaf2946a4ef58fa", "rental_uris": {"android": "https://dc.lft.to/lastmile_qr_scan", "ios": "https://dc.lft.to/lastmile_qr_scan"}, "fusion_lat": 0.0, "name": "72474670e7208d19ffaf2946a4ef58fa", "is_reserved": 0, "is_disabled": 0, "type": "electric_scooter"}, {"fusion_lon": 0.0, "lat": 38.905537, "lon": -77.0059835, "bike_id": "d86d90324654fb6201f19336362946dc", "rental_uris": {"android": "https://dc.lft.to/lastmile_qr_scan", "ios": "https://dc.lft.to/lastmile_qr_scan"}, "fusion_lat": 0.0, "name": "d86d90324654fb6201f19336362946dc", "is_reserved": 0, "is_disabled": 0, "type": "electric_scooter"}, {"fusion_lon": 0.0, "lat": 38.90356883333333, "lon": -77.03678016666667, "bike_id": "1330fc85ab54716b939cffa89a6dcd5f", "rental_uris": {"android": "https://dc.lft.to/lastmile_qr_scan", "ios": "https://dc.lft.to/lastmile_qr_scan"}, "fusion_lat": 0.0, "name": "1330fc85ab54716b939cffa89a6dcd5f", "is_reserved": 0, "is_disabled": 0, "type": "electric_scooter"}, {"fusion_lon": 0.0, "lat": 38.900025, "lon": -77.0220365, "bike_id": "207f9dea3fba76385a89dc60a12220ca", "rental_uris": {"android": "https://dc.lft.to/lastmile_qr_scan", "ios": "https://dc.lft.to/lastmile_qr_scan"}, "fusion_lat": 0.0, "name": "207f9dea3fba76385a89dc60a12220ca", "is_reserved": 0, "is_disabled": 0, "type": "electric_scooter"}, {"fusion_lon": 0.0, "lat": 38.9418165, "lon": -77.03099183333333, "bike_id": "7ac25018612b5e2b7cdc8cdb94b46169", "rental_uris": {"android": "https://dc.lft.to/lastmile_qr_scan", "ios": "https://dc.lft.to/lastmile_qr_scan"}, "fusion_lat": 0.0, "name": "7ac25018612b5e2b7cdc8cdb94b46169", "is_reserved": 0, "is_disabled": 0, "type": "electric_scooter"}, {"fusion_lon": 0.0, "lat": 38.896785333333334, "lon": -76.93669366666667, "bike_id": "c5cfa4031f3c206bb0728a961c1e1590", "rental_uris": {"android": "https://dc.lft.to/lastmile_qr_scan", "ios": "https://dc.lft.to/lastmile_qr_scan"}, "fusion_lat": 0.0, "name": "c5cfa4031f3c206bb0728a961c1e1590", "is_reserved": 0, "is_disabled": 0, "type": "electric_scooter"}, {"fusion_lon": 0.0, "lat": 38.92402083333333, "lon": -76.995951, "bike_id": "bc7b445453c3788687d85b53da41bb4d", "rental_uris": {"android": "https://dc.lft.to/lastmile_qr_scan", "ios": "https://dc.lft.to/lastmile_qr_scan"}, "fusion_lat": 0.0, "name": "bc7b445453c3788687d85b53da41bb4d", "is_reserved": 0, "is_disabled": 0, "type": "electric_scooter"}, {"fusion_lon": 0.0, "lat": 38.86563566666667, "lon": -76.97836316666667, "bike_id": "9e1a4cb47a193dd305da657785b4b833", "rental_uris": {"android": "https://dc.lft.to/lastmile_qr_scan", "ios": "https://dc.lft.to/lastmile_qr_scan"}, "fusion_lat": 0.0, "name": "9e1a4cb47a193dd305da657785b4b833", "is_reserved": 0, "is_disabled": 0, "type": "electric_scooter"}, {"fusion_lon": 0.0, "lat": 38.91549583333333, "lon": -77.00724233333334, "bike_id": "b523956e77ff3e04bd43889201070ce2", "rental_uris": {"android": "https://dc.lft.to/lastmile_qr_scan", "ios": "https://dc.lft.to/lastmile_qr_scan"}, "fusion_lat": 0.0, "name": "b523956e77ff3e04bd43889201070ce2", "is_reserved": 0, "is_disabled": 0, "type": "electric_scooter"}, {"fusion_lon": 0.0, "lat": 38.887049833333336, "lon": -76.98343783333334, "bike_id": "55f89df1d311d172ec16e9aee35887b4", "rental_uris": {"android": "https://dc.lft.to/lastmile_qr_scan", "ios": "https://dc.lft.to/lastmile_qr_scan"}, "fusion_lat": 0.0, "name": "55f89df1d311d172ec16e9aee35887b4", "is_reserved": 0, "is_disabled": 0, "type": "electric_scooter"}, {"fusion_lon": 0.0, "lat": 38.911173166666664, "lon": -77.04430816666667, "bike_id": "3ff2256b1b4193cabbf198fcadf98684", "rental_uris": {"android": "https://dc.lft.to/lastmile_qr_scan", "ios": "https://dc.lft.to/lastmile_qr_scan"}, "fusion_lat": 0.0, "name": "3ff2256b1b4193cabbf198fcadf98684", "is_reserved": 0, "is_disabled": 0, "type": "electric_scooter"}, {"fusion_lon": 0.0, "lat": 38.90730383333333, "lon": -77.04230216666667, "bike_id": "46e2b3c0292bfd599686e3a027bce604", "rental_uris": {"android": "https://dc.lft.to/lastmile_qr_scan", "ios": "https://dc.lft.to/lastmile_qr_scan"}, "fusion_lat": 0.0, "name": "46e2b3c0292bfd599686e3a027bce604", "is_reserved": 0, "is_disabled": 0, "type": "electric_scooter"}, {"fusion_lon": 0.0, "lat": 38.88021533333333, "lon": -76.9432935, "bike_id": "04f914a1327567fea8ad1533feb93340", "rental_uris": {"android": "https://dc.lft.to/lastmile_qr_scan", "ios": "https://dc.lft.to/lastmile_qr_scan"}, "fusion_lat": 0.0, "name": "04f914a1327567fea8ad1533feb93340", "is_reserved": 0, "is_disabled": 0, "type": "electric_scooter"}, {"fusion_lon": 0.0, "lat": 38.803802166666664, "lon": -76.98816866666667, "bike_id": "57a66e0b0611e5ba8a9cac76b464682b", "rental_uris": {"android": "https://dc.lft.to/lastmile_qr_scan", "ios": "https://dc.lft.to/lastmile_qr_scan"}, "fusion_lat": 0.0, "name": "57a66e0b0611e5ba8a9cac76b464682b", "is_reserved": 0, "is_disabled": 0, "type": "electric_bike"}, {"fusion_lon": 0.0, "lat": 38.96389666666666, "lon": -77.027776, "bike_id": "c4fb98c7bf4b0e04eb2abebdb3ba6cf7", "rental_uris": {"android": "https://dc.lft.to/lastmile_qr_scan", "ios": "https://dc.lft.to/lastmile_qr_scan"}, "fusion_lat": 0.0, "name": "c4fb98c7bf4b0e04eb2abebdb3ba6cf7", "is_reserved": 0, "is_disabled": 0, "type": "electric_scooter"}, {"fusion_lon": 0.0, "lat": 38.916869166666665, "lon": -77.04596216666667, "bike_id": "716cff95dfbc6b2648de6cd135510906", "rental_uris": {"android": "https://dc.lft.to/lastmile_qr_scan", "ios": "https://dc.lft.to/lastmile_qr_scan"}, "fusion_lat": 0.0, "name": "716cff95dfbc6b2648de6cd135510906", "is_reserved": 0, "is_disabled": 0, "type": "electric_scooter"}, {"fusion_lon": 0.0, "lat": 38.910894166666665, "lon": -77.04407183333333, "bike_id": "38457dce26c5b721a9369cee71c30a3c", "rental_uris": {"android": "https://dc.lft.to/lastmile_qr_scan", "ios": "https://dc.lft.to/lastmile_qr_scan"}, "fusion_lat": 0.0, "name": "38457dce26c5b721a9369cee71c30a3c", "is_reserved": 0, "is_disabled": 0, "type": "electric_scooter"}, {"fusion_lon": 0.0, "lat": 38.897412333333335, "lon": -77.04100933333334, "bike_id": "cb7f9da8c08652da56ae261ee746f473", "rental_uris": {"android": "https://dc.lft.to/lastmile_qr_scan", "ios": "https://dc.lft.to/lastmile_qr_scan"}, "fusion_lat": 0.0, "name": "cb7f9da8c08652da56ae261ee746f473", "is_reserved": 0, "is_disabled": 0, "type": "electric_scooter"}, {"fusion_lon": 0.0, "lat": 38.847106333333336, "lon": -76.96816333333334, "bike_id": "d6e710acd675a1203328e97d32c0dd3b", "rental_uris": {"android": "https://dc.lft.to/lastmile_qr_scan", "ios": "https://dc.lft.to/lastmile_qr_scan"}, "fusion_lat": 0.0, "name": "d6e710acd675a1203328e97d32c0dd3b", "is_reserved": 0, "is_disabled": 0, "type": "electric_scooter"}, {"fusion_lon": 0.0, "lat": 38.917057666666665, "lon": -77.04232916666666, "bike_id": "e15cd09148254c98affa4a0e8ca579ad", "rental_uris": {"android": "https://dc.lft.to/lastmile_qr_scan", "ios": "https://dc.lft.to/lastmile_qr_scan"}, "fusion_lat": 0.0, "name": "e15cd09148254c98affa4a0e8ca579ad", "is_reserved": 0, "is_disabled": 0, "type": "electric_scooter"}, {"fusion_lon": 0.0, "lat": 38.90024833333333, "lon": -76.98840583333333, "bike_id": "21d51bcf8c5e6fe9f4fe54fcb1490a65", "rental_uris": {"android": "https://dc.lft.to/lastmile_qr_scan", "ios": "https://dc.lft.to/lastmile_qr_scan"}, "fusion_lat": 0.0, "name": "21d51bcf8c5e6fe9f4fe54fcb1490a65", "is_reserved": 0, "is_disabled": 0, "type": "electric_scooter"}, {"fusion_lon": 0.0, "lat": 38.9325265, "lon": -77.03281033333333, "bike_id": "e0966a4f5cdceb73907738838f8f6853", "rental_uris": {"android": "https://dc.lft.to/lastmile_qr_scan", "ios": "https://dc.lft.to/lastmile_qr_scan"}, "fusion_lat": 0.0, "name": "e0966a4f5cdceb73907738838f8f6853", "is_reserved": 0, "is_disabled": 0, "type": "electric_scooter"}, {"fusion_lon": 0.0, "lat": 38.8987995, "lon": -77.03272433333333, "bike_id": "3be0240ff99cc1b39846ffd1d8eee8e9", "rental_uris": {"android": "https://dc.lft.to/lastmile_qr_scan", "ios": "https://dc.lft.to/lastmile_qr_scan"}, "fusion_lat": 0.0, "name": "3be0240ff99cc1b39846ffd1d8eee8e9", "is_reserved": 0, "is_disabled": 0, "type": "electric_scooter"}, {"fusion_lon": 0.0, "lat": 38.80676866666667, "lon": -77.13371883333333, "bike_id": "65dccd5a1216875218d4faeb2114cf4f", "rental_uris": {"android": "https://dc.lft.to/lastmile_qr_scan", "ios": "https://dc.lft.to/lastmile_qr_scan"}, "fusion_lat": 0.0, "name": "65dccd5a1216875218d4faeb2114cf4f", "is_reserved": 0, "is_disabled": 0, "type": "electric_bike"}, {"fusion_lon": 0.0, "lat": 39.074647666666664, "lon": -77.11532166666667, "bike_id": "a89e7d3ba2ef5fc2a3c8e9b489cb287f", "rental_uris": {"android": "https://dc.lft.to/lastmile_qr_scan", "ios": "https://dc.lft.to/lastmile_qr_scan"}, "fusion_lat": 0.0, "name": "a89e7d3ba2ef5fc2a3c8e9b489cb287f", "is_reserved": 0, "is_disabled": 0, "type": "electric_bike"}, {"fusion_lon": 0.0, "lat": 38.922531166666666, "lon": -77.0195395, "bike_id": "a74d6f460448f33b04a728aaa17824f4", "rental_uris": {"android": "https://dc.lft.to/lastmile_qr_scan", "ios": "https://dc.lft.to/lastmile_qr_scan"}, "fusion_lat": 0.0, "name": "a74d6f460448f33b04a728aaa17824f4", "is_reserved": 0, "is_disabled": 0, "type": "electric_scooter"}, {"fusion_lon": 0.0, "lat": 38.91924083333333, "lon": -77.00999333333333, "bike_id": "7d55d9ce29c182ba62466a48b7f9f628", "rental_uris": {"android": "https://dc.lft.to/lastmile_qr_scan", "ios": "https://dc.lft.to/lastmile_qr_scan"}, "fusion_lat": 0.0, "name": "7d55d9ce29c182ba62466a48b7f9f628", "is_reserved": 0, "is_disabled": 0, "type": "electric_scooter"}, {"fusion_lon": 0.0, "lat": 38.883943333333335, "lon": -76.93042283333334, "bike_id": "d4d20866ca4dc6533ae3e191bf1fffab", "rental_uris": {"android": "https://dc.lft.to/lastmile_qr_scan", "ios": "https://dc.lft.to/lastmile_qr_scan"}, "fusion_lat": 0.0, "name": "d4d20866ca4dc6533ae3e191bf1fffab", "is_reserved": 0, "is_disabled": 0, "type": "electric_scooter"}, {"fusion_lon": 0.0, "lat": 38.91508733333333, "lon": -77.02194783333333, "bike_id": "fa4db2fc1a57e6dba457328f9d443191", "rental_uris": {"android": "https://dc.lft.to/lastmile_qr_scan", "ios": "https://dc.lft.to/lastmile_qr_scan"}, "fusion_lat": 0.0, "name": "fa4db2fc1a57e6dba457328f9d443191", "is_reserved": 0, "is_disabled": 0, "type": "electric_scooter"}, {"fusion_lon": 0.0, "lat": 38.91852766666667, "lon": -77.02530116666667, "bike_id": "688cf26cf710da9f9ae759401b775731", "rental_uris": {"android": "https://dc.lft.to/lastmile_qr_scan", "ios": "https://dc.lft.to/lastmile_qr_scan"}, "fusion_lat": 0.0, "name": "688cf26cf710da9f9ae759401b775731", "is_reserved": 0, "is_disabled": 0, "type": "electric_scooter"}, {"fusion_lon": 0.0, "lat": 38.9194835, "lon": -77.0218495, "bike_id": "d983d14898c40916ebe42011a58c8bd9", "rental_uris": {"android": "https://dc.lft.to/lastmile_qr_scan", "ios": "https://dc.lft.to/lastmile_qr_scan"}, "fusion_lat": 0.0, "name": "d983d14898c40916ebe42011a58c8bd9", "is_reserved": 0, "is_disabled": 0, "type": "electric_scooter"}, {"fusion_lon": 0.0, "lat": 38.945357, "lon": -77.34458033333334, "bike_id": "654701eb0db9f3be272b62f2450c1898", "rental_uris": {"android": "https://dc.lft.to/lastmile_qr_scan", "ios": "https://dc.lft.to/lastmile_qr_scan"}, "fusion_lat": 0.0, "name": "654701eb0db9f3be272b62f2450c1898", "is_reserved": 0, "is_disabled": 0, "type": "electric_bike"}, {"fusion_lon": 0.0, "lat": 38.92140916666666, "lon": -77.02089116666667, "bike_id": "d980b751e90a18d4940306e2039456c8", "rental_uris": {"android": "https://dc.lft.to/lastmile_qr_scan", "ios": "https://dc.lft.to/lastmile_qr_scan"}, "fusion_lat": 0.0, "name": "d980b751e90a18d4940306e2039456c8", "is_reserved": 0, "is_disabled": 0, "type": "electric_scooter"}, {"fusion_lon": 0.0, "lat": 38.920727666666664, "lon": -77.023915, "bike_id": "6911ba5189366838d3b207f732aca654", "rental_uris": {"android": "https://dc.lft.to/lastmile_qr_scan", "ios": "https://dc.lft.to/lastmile_qr_scan"}, "fusion_lat": 0.0, "name": "6911ba5189366838d3b207f732aca654", "is_reserved": 0, "is_disabled": 0, "type": "electric_scooter"}, {"fusion_lon": 0.0, "lat": 38.924496833333336, "lon": -77.02169183333334, "bike_id": "e0297cd131c6792f2c7d11802dfc1533", "rental_uris": {"android": "https://dc.lft.to/lastmile_qr_scan", "ios": "https://dc.lft.to/lastmile_qr_scan"}, "fusion_lat": 0.0, "name": "e0297cd131c6792f2c7d11802dfc1533", "is_reserved": 0, "is_disabled": 0, "type": "electric_scooter"}, {"fusion_lon": 0.0, "lat": 38.9213, "lon": -77.01166216666667, "bike_id": "706b36dfb7774187135de421306711a4", "rental_uris": {"android": "https://dc.lft.to/lastmile_qr_scan", "ios": "https://dc.lft.to/lastmile_qr_scan"}, "fusion_lat": 0.0, "name": "706b36dfb7774187135de421306711a4", "is_reserved": 0, "is_disabled": 0, "type": "electric_scooter"}, {"fusion_lon": 0.0, "lat": 39.08430933333333, "lon": -76.9514035, "bike_id": "3e2309f6198b34c63b85a8bad0232097", "rental_uris": {"android": "https://dc.lft.to/lastmile_qr_scan", "ios": "https://dc.lft.to/lastmile_qr_scan"}, "fusion_lat": 0.0, "name": "3e2309f6198b34c63b85a8bad0232097", "is_reserved": 0, "is_disabled": 0, "type": "electric_bike"}, {"fusion_lon": 0.0, "lat": 38.88658683333333, "lon": -76.9367685, "bike_id": "06d52b8fb51e9c2c373bf4dbb12b4e03", "rental_uris": {"android": "https://dc.lft.to/lastmile_qr_scan", "ios": "https://dc.lft.to/lastmile_qr_scan"}, "fusion_lat": 0.0, "name": "06d52b8fb51e9c2c373bf4dbb12b4e03", "is_reserved": 0, "is_disabled": 0, "type": "electric_scooter"}, {"fusion_lon": 0.0, "lat": 38.907446166666666, "lon": -77.0077985, "bike_id": "f7b1da1a1235beccf9b5b3b49008bab5", "rental_uris": {"android": "https://dc.lft.to/lastmile_qr_scan", "ios": "https://dc.lft.to/lastmile_qr_scan"}, "fusion_lat": 0.0, "name": "f7b1da1a1235beccf9b5b3b49008bab5", "is_reserved": 0, "is_disabled": 0, "type": "electric_scooter"}, {"fusion_lon": 0.0, "lat": 38.91717083333333, "lon": -77.06829033333334, "bike_id": "d114dcb8b2254aca92c153db0e93ed1a", "rental_uris": {"android": "https://dc.lft.to/lastmile_qr_scan", "ios": "https://dc.lft.to/lastmile_qr_scan"}, "fusion_lat": 0.0, "name": "d114dcb8b2254aca92c153db0e93ed1a", "is_reserved": 0, "is_disabled": 0, "type": "electric_scooter"}, {"fusion_lon": 0.0, "lat": 38.924681166666666, "lon": -77.0221775, "bike_id": "07c72dd9e18dece0bee5dfd2825285fe", "rental_uris": {"android": "https://dc.lft.to/lastmile_qr_scan", "ios": "https://dc.lft.to/lastmile_qr_scan"}, "fusion_lat": 0.0, "name": "07c72dd9e18dece0bee5dfd2825285fe", "is_reserved": 0, "is_disabled": 0, "type": "electric_scooter"}, {"fusion_lon": 0.0, "lat": 38.910325666666665, "lon": -77.06501516666667, "bike_id": "bd352430f7c778ac60827ef4ce0fac5f", "rental_uris": {"android": "https://dc.lft.to/lastmile_qr_scan", "ios": "https://dc.lft.to/lastmile_qr_scan"}, "fusion_lat": 0.0, "name": "bd352430f7c778ac60827ef4ce0fac5f", "is_reserved": 0, "is_disabled": 0, "type": "electric_scooter"}, {"fusion_lon": 0.0, "lat": 38.907245, "lon": -77.01096783333334, "bike_id": "53a9a37712904ca7985337d233d59762", "rental_uris": {"android": "https://dc.lft.to/lastmile_qr_scan", "ios": "https://dc.lft.to/lastmile_qr_scan"}, "fusion_lat": 0.0, "name": "53a9a37712904ca7985337d233d59762", "is_reserved": 0, "is_disabled": 0, "type": "electric_scooter"}, {"fusion_lon": 0.0, "lat": 38.93151366666667, "lon": -77.03662266666667, "bike_id": "d37db45f1fdd8e15d50dde748a9c28e6", "rental_uris": {"android": "https://dc.lft.to/lastmile_qr_scan", "ios": "https://dc.lft.to/lastmile_qr_scan"}, "fusion_lat": 0.0, "name": "d37db45f1fdd8e15d50dde748a9c28e6", "is_reserved": 0, "is_disabled": 0, "type": "electric_scooter"}, {"fusion_lon": 0.0, "lat": 38.92431083333334, "lon": -77.05214783333334, "bike_id": "c8ebe6bab0ec59c4d1a079aec6d18009", "rental_uris": {"android": "https://dc.lft.to/lastmile_qr_scan", "ios": "https://dc.lft.to/lastmile_qr_scan"}, "fusion_lat": 0.0, "name": "c8ebe6bab0ec59c4d1a079aec6d18009", "is_reserved": 0, "is_disabled": 0, "type": "electric_scooter"}, {"fusion_lon": 0.0, "lat": 38.89255383333333, "lon": -77.0022085, "bike_id": "1bfcb79474d33f41fcbeb43d3f43e895", "rental_uris": {"android": "https://dc.lft.to/lastmile_qr_scan", "ios": "https://dc.lft.to/lastmile_qr_scan"}, "fusion_lat": 0.0, "name": "1bfcb79474d33f41fcbeb43d3f43e895", "is_reserved": 0, "is_disabled": 0, "type": "electric_scooter"}, {"fusion_lon": 0.0, "lat": 38.928291, "lon": -76.99586183333334, "bike_id": "5dff5dccece5ae1ca1003ecc20b6bd79", "rental_uris": {"android": "https://dc.lft.to/lastmile_qr_scan", "ios": "https://dc.lft.to/lastmile_qr_scan"}, "fusion_lat": 0.0, "name": "5dff5dccece5ae1ca1003ecc20b6bd79", "is_reserved": 0, "is_disabled": 0, "type": "electric_scooter"}, {"fusion_lon": 0.0, "lat": 38.881176333333336, "lon": -76.99301733333333, "bike_id": "256211a657ea5ce3950344c23e8ed069", "rental_uris": {"android": "https://dc.lft.to/lastmile_qr_scan", "ios": "https://dc.lft.to/lastmile_qr_scan"}, "fusion_lat": 0.0, "name": "256211a657ea5ce3950344c23e8ed069", "is_reserved": 0, "is_disabled": 0, "type": "electric_scooter"}, {"fusion_lon": 0.0, "lat": 38.878590833333334, "lon": -76.99165333333333, "bike_id": "cec975d5d1765d98979abbd1d4fdf3f6", "rental_uris": {"android": "https://dc.lft.to/lastmile_qr_scan", "ios": "https://dc.lft.to/lastmile_qr_scan"}, "fusion_lat": 0.0, "name": "cec975d5d1765d98979abbd1d4fdf3f6", "is_reserved": 0, "is_disabled": 0, "type": "electric_scooter"}, {"fusion_lon": 0.0, "lat": 38.900445166666664, "lon": -77.0258725, "bike_id": "ed397759b4831984b8068df92ca1d895", "rental_uris": {"android": "https://dc.lft.to/lastmile_qr_scan", "ios": "https://dc.lft.to/lastmile_qr_scan"}, "fusion_lat": 0.0, "name": "ed397759b4831984b8068df92ca1d895", "is_reserved": 0, "is_disabled": 0, "type": "electric_scooter"}, {"fusion_lon": 0.0, "lat": 38.91100566666667, "lon": -77.04374416666667, "bike_id": "d3d75218ce7a931205faeb5862ce3703", "rental_uris": {"android": "https://dc.lft.to/lastmile_qr_scan", "ios": "https://dc.lft.to/lastmile_qr_scan"}, "fusion_lat": 0.0, "name": "d3d75218ce7a931205faeb5862ce3703", "is_reserved": 0, "is_disabled": 0, "type": "electric_scooter"}, {"fusion_lon": 0.0, "lat": 38.898741, "lon": -77.03276516666666, "bike_id": "22e7db18c7f52c7564014b26a15e337f", "rental_uris": {"android": "https://dc.lft.to/lastmile_qr_scan", "ios": "https://dc.lft.to/lastmile_qr_scan"}, "fusion_lat": 0.0, "name": "22e7db18c7f52c7564014b26a15e337f", "is_reserved": 0, "is_disabled": 0, "type": "electric_scooter"}, {"fusion_lon": 0.0, "lat": 38.932431, "lon": -77.029425, "bike_id": "7d14455958e68d234cf3e9c75a13fefa", "rental_uris": {"android": "https://dc.lft.to/lastmile_qr_scan", "ios": "https://dc.lft.to/lastmile_qr_scan"}, "fusion_lat": 0.0, "name": "7d14455958e68d234cf3e9c75a13fefa", "is_reserved": 0, "is_disabled": 0, "type": "electric_scooter"}, {"fusion_lon": 0.0, "lat": 38.9006555, "lon": -76.92747583333333, "bike_id": "430c3b3898f823c4fa05593c78bd5102", "rental_uris": {"android": "https://dc.lft.to/lastmile_qr_scan", "ios": "https://dc.lft.to/lastmile_qr_scan"}, "fusion_lat": 0.0, "name": "430c3b3898f823c4fa05593c78bd5102", "is_reserved": 0, "is_disabled": 0, "type": "electric_scooter"}, {"fusion_lon": 0.0, "lat": 38.88116083333333, "lon": -76.9934975, "bike_id": "2eaf7862fc64e0cdf380090689b8702c", "rental_uris": {"android": "https://dc.lft.to/lastmile_qr_scan", "ios": "https://dc.lft.to/lastmile_qr_scan"}, "fusion_lat": 0.0, "name": "2eaf7862fc64e0cdf380090689b8702c", "is_reserved": 0, "is_disabled": 0, "type": "electric_scooter"}, {"fusion_lon": 0.0, "lat": 38.9352625, "lon": -77.0349875, "bike_id": "7f696a2bdb77b30b1e0128b208c7e73e", "rental_uris": {"android": "https://dc.lft.to/lastmile_qr_scan", "ios": "https://dc.lft.to/lastmile_qr_scan"}, "fusion_lat": 0.0, "name": "7f696a2bdb77b30b1e0128b208c7e73e", "is_reserved": 0, "is_disabled": 0, "type": "electric_scooter"}, {"fusion_lon": 0.0, "lat": 38.917502666666664, "lon": -77.0211065, "bike_id": "4f1841bf7e99496ee1a80fd370e5e8de", "rental_uris": {"android": "https://dc.lft.to/lastmile_qr_scan", "ios": "https://dc.lft.to/lastmile_qr_scan"}, "fusion_lat": 0.0, "name": "4f1841bf7e99496ee1a80fd370e5e8de", "is_reserved": 0, "is_disabled": 0, "type": "electric_scooter"}, {"fusion_lon": 0.0, "lat": 38.911056, "lon": -77.02236666666667, "bike_id": "b3a7ce0202b72f3a4d826bee87de17d7", "rental_uris": {"android": "https://dc.lft.to/lastmile_qr_scan", "ios": "https://dc.lft.to/lastmile_qr_scan"}, "fusion_lat": 0.0, "name": "b3a7ce0202b72f3a4d826bee87de17d7", "is_reserved": 0, "is_disabled": 0, "type": "electric_scooter"}, {"fusion_lon": 0.0, "lat": 38.9256485, "lon": -76.9996195, "bike_id": "2fccbea145dba53510ba1af962a9d398", "rental_uris": {"android": "https://dc.lft.to/lastmile_qr_scan", "ios": "https://dc.lft.to/lastmile_qr_scan"}, "fusion_lat": 0.0, "name": "2fccbea145dba53510ba1af962a9d398", "is_reserved": 0, "is_disabled": 0, "type": "electric_scooter"}, {"fusion_lon": 0.0, "lat": 38.866958, "lon": -76.986036, "bike_id": "96787d45e21ae167ac50337fea50b2e5", "rental_uris": {"android": "https://dc.lft.to/lastmile_qr_scan", "ios": "https://dc.lft.to/lastmile_qr_scan"}, "fusion_lat": 0.0, "name": "96787d45e21ae167ac50337fea50b2e5", "is_reserved": 0, "is_disabled": 0, "type": "electric_scooter"}, {"fusion_lon": 0.0, "lat": 38.930590333333335, "lon": -77.02335033333334, "bike_id": "744cdd80ebb691c75c5f26b37759be10", "rental_uris": {"android": "https://dc.lft.to/lastmile_qr_scan", "ios": "https://dc.lft.to/lastmile_qr_scan"}, "fusion_lat": 0.0, "name": "744cdd80ebb691c75c5f26b37759be10", "is_reserved": 0, "is_disabled": 0, "type": "electric_scooter"}, {"fusion_lon": 0.0, "lat": 38.913986666666666, "lon": -77.04888533333333, "bike_id": "df38a091261d0453de13d9be6018357b", "rental_uris": {"android": "https://dc.lft.to/lastmile_qr_scan", "ios": "https://dc.lft.to/lastmile_qr_scan"}, "fusion_lat": 0.0, "name": "df38a091261d0453de13d9be6018357b", "is_reserved": 0, "is_disabled": 0, "type": "electric_scooter"}, {"fusion_lon": 0.0, "lat": 38.909574666666664, "lon": -77.03434133333333, "bike_id": "7d699b68b34f41fe8a457f9bfd4adb39", "rental_uris": {"android": "https://dc.lft.to/lastmile_qr_scan", "ios": "https://dc.lft.to/lastmile_qr_scan"}, "fusion_lat": 0.0, "name": "7d699b68b34f41fe8a457f9bfd4adb39", "is_reserved": 0, "is_disabled": 0, "type": "electric_scooter"}, {"fusion_lon": 0.0, "lat": 38.90300466666667, "lon": -77.0434075, "bike_id": "98850aa96a998b8b470c6490968d82c9", "rental_uris": {"android": "https://dc.lft.to/lastmile_qr_scan", "ios": "https://dc.lft.to/lastmile_qr_scan"}, "fusion_lat": 0.0, "name": "98850aa96a998b8b470c6490968d82c9", "is_reserved": 0, "is_disabled": 0, "type": "electric_scooter"}, {"fusion_lon": 0.0, "lat": 38.903862, "lon": -77.03638466666666, "bike_id": "fb49cfc7b1a9d56a231c3a5fef625f1b", "rental_uris": {"android": "https://dc.lft.to/lastmile_qr_scan", "ios": "https://dc.lft.to/lastmile_qr_scan"}, "fusion_lat": 0.0, "name": "fb49cfc7b1a9d56a231c3a5fef625f1b", "is_reserved": 0, "is_disabled": 0, "type": "electric_scooter"}, {"fusion_lon": 0.0, "lat": 38.901493333333335, "lon": -77.02181983333334, "bike_id": "bca08281155c324ec7ff11f2db36456c", "rental_uris": {"android": "https://dc.lft.to/lastmile_qr_scan", "ios": "https://dc.lft.to/lastmile_qr_scan"}, "fusion_lat": 0.0, "name": "bca08281155c324ec7ff11f2db36456c", "is_reserved": 0, "is_disabled": 0, "type": "electric_scooter"}, {"fusion_lon": 0.0, "lat": 38.902199333333336, "lon": -76.93181433333334, "bike_id": "55b64bafd7f44cc638c4318e99140ec1", "rental_uris": {"android": "https://dc.lft.to/lastmile_qr_scan", "ios": "https://dc.lft.to/lastmile_qr_scan"}, "fusion_lat": 0.0, "name": "55b64bafd7f44cc638c4318e99140ec1", "is_reserved": 0, "is_disabled": 0, "type": "electric_bike"}, {"fusion_lon": 0.0, "lat": 38.88711083333333, "lon": -76.99613916666667, "bike_id": "0f93d9c7cf6623758f0741865e14f369", "rental_uris": {"android": "https://dc.lft.to/lastmile_qr_scan", "ios": "https://dc.lft.to/lastmile_qr_scan"}, "fusion_lat": 0.0, "name": "0f93d9c7cf6623758f0741865e14f369", "is_reserved": 0, "is_disabled": 0, "type": "electric_scooter"}, {"fusion_lon": 0.0, "lat": 38.918654833333335, "lon": -77.04839433333333, "bike_id": "cbcd0c307c2a5ef33fe8be376fde7323", "rental_uris": {"android": "https://dc.lft.to/lastmile_qr_scan", "ios": "https://dc.lft.to/lastmile_qr_scan"}, "fusion_lat": 0.0, "name": "cbcd0c307c2a5ef33fe8be376fde7323", "is_reserved": 0, "is_disabled": 0, "type": "electric_scooter"}, {"fusion_lon": 0.0, "lat": 38.91404216666667, "lon": -77.03263583333333, "bike_id": "caf78afec639bd9d3ce9a01b1e791f7d", "rental_uris": {"android": "https://dc.lft.to/lastmile_qr_scan", "ios": "https://dc.lft.to/lastmile_qr_scan"}, "fusion_lat": 0.0, "name": "caf78afec639bd9d3ce9a01b1e791f7d", "is_reserved": 0, "is_disabled": 0, "type": "electric_scooter"}, {"fusion_lon": 0.0, "lat": 38.89469233333333, "lon": -76.99715483333334, "bike_id": "0dd24a2e6666cce033da264fa451424e", "rental_uris": {"android": "https://dc.lft.to/lastmile_qr_scan", "ios": "https://dc.lft.to/lastmile_qr_scan"}, "fusion_lat": 0.0, "name": "0dd24a2e6666cce033da264fa451424e", "is_reserved": 0, "is_disabled": 0, "type": "electric_scooter"}, {"fusion_lon": 0.0, "lat": 38.85257516666667, "lon": -77.05313633333333, "bike_id": "029b0c53930916a15d84608957b5eeff", "rental_uris": {"android": "https://dc.lft.to/lastmile_qr_scan", "ios": "https://dc.lft.to/lastmile_qr_scan"}, "fusion_lat": 0.0, "name": "029b0c53930916a15d84608957b5eeff", "is_reserved": 0, "is_disabled": 0, "type": "electric_bike"}, {"fusion_lon": 0.0, "lat": 38.9057015, "lon": -77.0349255, "bike_id": "c35afab3cd85291cf315149b165dbad8", "rental_uris": {"android": "https://dc.lft.to/lastmile_qr_scan", "ios": "https://dc.lft.to/lastmile_qr_scan"}, "fusion_lat": 0.0, "name": "c35afab3cd85291cf315149b165dbad8", "is_reserved": 0, "is_disabled": 0, "type": "electric_scooter"}, {"fusion_lon": 0.0, "lat": 38.9096645, "lon": -76.98429766666666, "bike_id": "0c6df124d942353a9705d4ddd7c40d78", "rental_uris": {"android": "https://dc.lft.to/lastmile_qr_scan", "ios": "https://dc.lft.to/lastmile_qr_scan"}, "fusion_lat": 0.0, "name": "0c6df124d942353a9705d4ddd7c40d78", "is_reserved": 0, "is_disabled": 0, "type": "electric_scooter"}, {"fusion_lon": 0.0, "lat": 38.8987955, "lon": -76.98680616666667, "bike_id": "3cbc7e51f21a144f6fd5bc052ddac085", "rental_uris": {"android": "https://dc.lft.to/lastmile_qr_scan", "ios": "https://dc.lft.to/lastmile_qr_scan"}, "fusion_lat": 0.0, "name": "3cbc7e51f21a144f6fd5bc052ddac085", "is_reserved": 0, "is_disabled": 0, "type": "electric_scooter"}, {"fusion_lon": 0.0, "lat": 38.90666266666667, "lon": -77.04296783333334, "bike_id": "c5dde7a68df199f1e6e2922e68556d98", "rental_uris": {"android": "https://dc.lft.to/lastmile_qr_scan", "ios": "https://dc.lft.to/lastmile_qr_scan"}, "fusion_lat": 0.0, "name": "c5dde7a68df199f1e6e2922e68556d98", "is_reserved": 0, "is_disabled": 0, "type": "electric_scooter"}, {"fusion_lon": 0.0, "lat": 38.912301666666664, "lon": -77.06587466666667, "bike_id": "4941d6076b198a5fec08a03313c957b0", "rental_uris": {"android": "https://dc.lft.to/lastmile_qr_scan", "ios": "https://dc.lft.to/lastmile_qr_scan"}, "fusion_lat": 0.0, "name": "4941d6076b198a5fec08a03313c957b0", "is_reserved": 0, "is_disabled": 0, "type": "electric_scooter"}, {"fusion_lon": 0.0, "lat": 38.9331855, "lon": -77.02932283333334, "bike_id": "eb8f0a318b0a349943d89751553c3fd3", "rental_uris": {"android": "https://dc.lft.to/lastmile_qr_scan", "ios": "https://dc.lft.to/lastmile_qr_scan"}, "fusion_lat": 0.0, "name": "eb8f0a318b0a349943d89751553c3fd3", "is_reserved": 0, "is_disabled": 0, "type": "electric_scooter"}, {"fusion_lon": 0.0, "lat": 38.945025666666666, "lon": -77.03430333333333, "bike_id": "8e6d58430ca0645636ef4d54386edd58", "rental_uris": {"android": "https://dc.lft.to/lastmile_qr_scan", "ios": "https://dc.lft.to/lastmile_qr_scan"}, "fusion_lat": 0.0, "name": "8e6d58430ca0645636ef4d54386edd58", "is_reserved": 0, "is_disabled": 0, "type": "electric_scooter"}, {"fusion_lon": 0.0, "lat": 38.89639066666667, "lon": -77.0405915, "bike_id": "a348d421fc376bc6b00385e62e7e9d96", "rental_uris": {"android": "https://dc.lft.to/lastmile_qr_scan", "ios": "https://dc.lft.to/lastmile_qr_scan"}, "fusion_lat": 0.0, "name": "a348d421fc376bc6b00385e62e7e9d96", "is_reserved": 0, "is_disabled": 0, "type": "electric_scooter"}, {"fusion_lon": 0.0, "lat": 38.92817333333333, "lon": -77.02281316666667, "bike_id": "1a6090e49718395ca4e5cd0539d50527", "rental_uris": {"android": "https://dc.lft.to/lastmile_qr_scan", "ios": "https://dc.lft.to/lastmile_qr_scan"}, "fusion_lat": 0.0, "name": "1a6090e49718395ca4e5cd0539d50527", "is_reserved": 0, "is_disabled": 0, "type": "electric_scooter"}, {"fusion_lon": 0.0, "lat": 38.933521, "lon": -77.085745, "bike_id": "c20d27fd01fa74f2c9249e05e88cd000", "rental_uris": {"android": "https://dc.lft.to/lastmile_qr_scan", "ios": "https://dc.lft.to/lastmile_qr_scan"}, "fusion_lat": 0.0, "name": "c20d27fd01fa74f2c9249e05e88cd000", "is_reserved": 0, "is_disabled": 0, "type": "electric_scooter"}, {"fusion_lon": 0.0, "lat": 38.902993, "lon": -77.0505115, "bike_id": "d8f396bb4c01a55f56816b293e6f3364", "rental_uris": {"android": "https://dc.lft.to/lastmile_qr_scan", "ios": "https://dc.lft.to/lastmile_qr_scan"}, "fusion_lat": 0.0, "name": "d8f396bb4c01a55f56816b293e6f3364", "is_reserved": 0, "is_disabled": 0, "type": "electric_scooter"}, {"fusion_lon": 0.0, "lat": 38.90444183333334, "lon": -77.05331033333333, "bike_id": "259d0bb0366b5eaac32ccdb3cf6f39c5", "rental_uris": {"android": "https://dc.lft.to/lastmile_qr_scan", "ios": "https://dc.lft.to/lastmile_qr_scan"}, "fusion_lat": 0.0, "name": "259d0bb0366b5eaac32ccdb3cf6f39c5", "is_reserved": 0, "is_disabled": 0, "type": "electric_scooter"}, {"fusion_lon": 0.0, "lat": 38.92881233333333, "lon": -77.03477, "bike_id": "76e2247619ab2d3de1f97bf6389010de", "rental_uris": {"android": "https://dc.lft.to/lastmile_qr_scan", "ios": "https://dc.lft.to/lastmile_qr_scan"}, "fusion_lat": 0.0, "name": "76e2247619ab2d3de1f97bf6389010de", "is_reserved": 0, "is_disabled": 0, "type": "electric_scooter"}, {"fusion_lon": 0.0, "lat": 38.89217516666667, "lon": -77.03135666666667, "bike_id": "7f7bb0a355734c734d91416c54017dde", "rental_uris": {"android": "https://dc.lft.to/lastmile_qr_scan", "ios": "https://dc.lft.to/lastmile_qr_scan"}, "fusion_lat": 0.0, "name": "7f7bb0a355734c734d91416c54017dde", "is_reserved": 0, "is_disabled": 0, "type": "electric_scooter"}, {"fusion_lon": 0.0, "lat": 38.940924333333335, "lon": -77.02978033333333, "bike_id": "431537f72e7d2fba2d9defc629933ac4", "rental_uris": {"android": "https://dc.lft.to/lastmile_qr_scan", "ios": "https://dc.lft.to/lastmile_qr_scan"}, "fusion_lat": 0.0, "name": "431537f72e7d2fba2d9defc629933ac4", "is_reserved": 0, "is_disabled": 0, "type": "electric_scooter"}, {"fusion_lon": 0.0, "lat": 38.928489166666665, "lon": -77.0543235, "bike_id": "04daf445e05bf9a1b758958160bedb35", "rental_uris": {"android": "https://dc.lft.to/lastmile_qr_scan", "ios": "https://dc.lft.to/lastmile_qr_scan"}, "fusion_lat": 0.0, "name": "04daf445e05bf9a1b758958160bedb35", "is_reserved": 0, "is_disabled": 0, "type": "electric_scooter"}, {"fusion_lon": 0.0, "lat": 38.93061333333333, "lon": -77.03945733333333, "bike_id": "7b398001bc860d04ed9629b1270a5848", "rental_uris": {"android": "https://dc.lft.to/lastmile_qr_scan", "ios": "https://dc.lft.to/lastmile_qr_scan"}, "fusion_lat": 0.0, "name": "7b398001bc860d04ed9629b1270a5848", "is_reserved": 0, "is_disabled": 0, "type": "electric_scooter"}, {"fusion_lon": 0.0, "lat": 38.894875166666665, "lon": -77.02119216666667, "bike_id": "453a161b6c9c549ddb588ac8298872fe", "rental_uris": {"android": "https://dc.lft.to/lastmile_qr_scan", "ios": "https://dc.lft.to/lastmile_qr_scan"}, "fusion_lat": 0.0, "name": "453a161b6c9c549ddb588ac8298872fe", "is_reserved": 0, "is_disabled": 0, "type": "electric_scooter"}, {"fusion_lon": 0.0, "lat": 38.946123, "lon": -77.08022783333334, "bike_id": "d2792f0f5a09454dda054f58092ed3e3", "rental_uris": {"android": "https://dc.lft.to/lastmile_qr_scan", "ios": "https://dc.lft.to/lastmile_qr_scan"}, "fusion_lat": 0.0, "name": "d2792f0f5a09454dda054f58092ed3e3", "is_reserved": 0, "is_disabled": 0, "type": "electric_scooter"}, {"fusion_lon": 0.0, "lat": 38.8812445, "lon": -77.00450183333334, "bike_id": "e42589b545a29dfd09b4696d5d337fb9", "rental_uris": {"android": "https://dc.lft.to/lastmile_qr_scan", "ios": "https://dc.lft.to/lastmile_qr_scan"}, "fusion_lat": 0.0, "name": "e42589b545a29dfd09b4696d5d337fb9", "is_reserved": 0, "is_disabled": 0, "type": "electric_scooter"}, {"fusion_lon": 0.0, "lat": 38.900781333333335, "lon": -77.04663266666667, "bike_id": "68111199adb0bb407155839a51883f5c", "rental_uris": {"android": "https://dc.lft.to/lastmile_qr_scan", "ios": "https://dc.lft.to/lastmile_qr_scan"}, "fusion_lat": 0.0, "name": "68111199adb0bb407155839a51883f5c", "is_reserved": 0, "is_disabled": 0, "type": "electric_scooter"}, {"fusion_lon": 0.0, "lat": 38.956287333333336, "lon": -77.033098, "bike_id": "54f72cf167de5297ccaaf5beff209e81", "rental_uris": {"android": "https://dc.lft.to/lastmile_qr_scan", "ios": "https://dc.lft.to/lastmile_qr_scan"}, "fusion_lat": 0.0, "name": "54f72cf167de5297ccaaf5beff209e81", "is_reserved": 0, "is_disabled": 0, "type": "electric_scooter"}, {"fusion_lon": 0.0, "lat": 38.8936055, "lon": -77.00343883333333, "bike_id": "de80b5c9e2077a4d468e225bf47e4a5a", "rental_uris": {"android": "https://dc.lft.to/lastmile_qr_scan", "ios": "https://dc.lft.to/lastmile_qr_scan"}, "fusion_lat": 0.0, "name": "de80b5c9e2077a4d468e225bf47e4a5a", "is_reserved": 0, "is_disabled": 0, "type": "electric_scooter"}, {"fusion_lon": 0.0, "lat": 38.91059383333333, "lon": -77.054777, "bike_id": "d265b493a6ea9d182a249129114a6fa2", "rental_uris": {"android": "https://dc.lft.to/lastmile_qr_scan", "ios": "https://dc.lft.to/lastmile_qr_scan"}, "fusion_lat": 0.0, "name": "d265b493a6ea9d182a249129114a6fa2", "is_reserved": 0, "is_disabled": 0, "type": "electric_scooter"}, {"fusion_lon": 0.0, "lat": 38.93059683333333, "lon": -77.0233825, "bike_id": "148213b2e7ccb798a585a6365c8f8818", "rental_uris": {"android": "https://dc.lft.to/lastmile_qr_scan", "ios": "https://dc.lft.to/lastmile_qr_scan"}, "fusion_lat": 0.0, "name": "148213b2e7ccb798a585a6365c8f8818", "is_reserved": 0, "is_disabled": 0, "type": "electric_scooter"}, {"fusion_lon": 0.0, "lat": 38.903393333333334, "lon": -76.97577616666666, "bike_id": "1f01767a9620ce66dd76d87fd518d368", "rental_uris": {"android": "https://dc.lft.to/lastmile_qr_scan", "ios": "https://dc.lft.to/lastmile_qr_scan"}, "fusion_lat": 0.0, "name": "1f01767a9620ce66dd76d87fd518d368", "is_reserved": 0, "is_disabled": 0, "type": "electric_scooter"}, {"fusion_lon": 0.0, "lat": 38.88493183333333, "lon": -77.008951, "bike_id": "f3b252e04bc04ef1ed7fc587cd6a4e82", "rental_uris": {"android": "https://dc.lft.to/lastmile_qr_scan", "ios": "https://dc.lft.to/lastmile_qr_scan"}, "fusion_lat": 0.0, "name": "f3b252e04bc04ef1ed7fc587cd6a4e82", "is_reserved": 0, "is_disabled": 0, "type": "electric_scooter"}, {"fusion_lon": 0.0, "lat": 38.89574483333333, "lon": -77.00615116666667, "bike_id": "7965934825b5b7124dbbacb7f1d2e93c", "rental_uris": {"android": "https://dc.lft.to/lastmile_qr_scan", "ios": "https://dc.lft.to/lastmile_qr_scan"}, "fusion_lat": 0.0, "name": "7965934825b5b7124dbbacb7f1d2e93c", "is_reserved": 0, "is_disabled": 0, "type": "electric_scooter"}, {"fusion_lon": 0.0, "lat": 38.89469166666667, "lon": -76.99710783333333, "bike_id": "be16bde9ebbdbb0099163048efb84b38", "rental_uris": {"android": "https://dc.lft.to/lastmile_qr_scan", "ios": "https://dc.lft.to/lastmile_qr_scan"}, "fusion_lat": 0.0, "name": "be16bde9ebbdbb0099163048efb84b38", "is_reserved": 0, "is_disabled": 0, "type": "electric_scooter"}, {"fusion_lon": 0.0, "lat": 38.83743883333333, "lon": -76.99863216666667, "bike_id": "408a645d794d92d92a3e89b43fa4b2c2", "rental_uris": {"android": "https://dc.lft.to/lastmile_qr_scan", "ios": "https://dc.lft.to/lastmile_qr_scan"}, "fusion_lat": 0.0, "name": "408a645d794d92d92a3e89b43fa4b2c2", "is_reserved": 0, "is_disabled": 0, "type": "electric_scooter"}, {"fusion_lon": 0.0, "lat": 39.00380883333333, "lon": -77.013006, "bike_id": "6c61819118c60f598e962336289e7a59", "rental_uris": {"android": "https://dc.lft.to/lastmile_qr_scan", "ios": "https://dc.lft.to/lastmile_qr_scan"}, "fusion_lat": 0.0, "name": "6c61819118c60f598e962336289e7a59", "is_reserved": 0, "is_disabled": 0, "type": "electric_bike"}, {"fusion_lon": 0.0, "lat": 38.963777, "lon": -76.9352315, "bike_id": "5e226583ad87611ac69e79dced30e76d", "rental_uris": {"android": "https://dc.lft.to/lastmile_qr_scan", "ios": "https://dc.lft.to/lastmile_qr_scan"}, "fusion_lat": 0.0, "name": "5e226583ad87611ac69e79dced30e76d", "is_reserved": 0, "is_disabled": 0, "type": "electric_bike"}, {"fusion_lon": 0.0, "lat": 38.914229666666664, "lon": -77.028195, "bike_id": "1b62374979d17b346da116d5fe218b3f", "rental_uris": {"android": "https://dc.lft.to/lastmile_qr_scan", "ios": "https://dc.lft.to/lastmile_qr_scan"}, "fusion_lat": 0.0, "name": "1b62374979d17b346da116d5fe218b3f", "is_reserved": 0, "is_disabled": 0, "type": "electric_scooter"}, {"fusion_lon": 0.0, "lat": 38.894847166666665, "lon": -76.94894516666666, "bike_id": "4feb657ee78f1c0f5e6932e24d264d94", "rental_uris": {"android": "https://dc.lft.to/lastmile_qr_scan", "ios": "https://dc.lft.to/lastmile_qr_scan"}, "fusion_lat": 0.0, "name": "4feb657ee78f1c0f5e6932e24d264d94", "is_reserved": 0, "is_disabled": 0, "type": "electric_scooter"}, {"fusion_lon": 0.0, "lat": 38.93141116666666, "lon": -77.03831966666667, "bike_id": "c78f9bfb6969095a3d33a25b1dc60d8e", "rental_uris": {"android": "https://dc.lft.to/lastmile_qr_scan", "ios": "https://dc.lft.to/lastmile_qr_scan"}, "fusion_lat": 0.0, "name": "c78f9bfb6969095a3d33a25b1dc60d8e", "is_reserved": 0, "is_disabled": 0, "type": "electric_scooter"}, {"fusion_lon": 0.0, "lat": 38.883684333333335, "lon": -76.99521366666667, "bike_id": "84f0a3f9293d0a3de824c14fb071b4a7", "rental_uris": {"android": "https://dc.lft.to/lastmile_qr_scan", "ios": "https://dc.lft.to/lastmile_qr_scan"}, "fusion_lat": 0.0, "name": "84f0a3f9293d0a3de824c14fb071b4a7", "is_reserved": 0, "is_disabled": 0, "type": "electric_scooter"}, {"fusion_lon": 0.0, "lat": 38.90259966666667, "lon": -77.03133316666667, "bike_id": "83d47015c12002c3e16224f62504d9f2", "rental_uris": {"android": "https://dc.lft.to/lastmile_qr_scan", "ios": "https://dc.lft.to/lastmile_qr_scan"}, "fusion_lat": 0.0, "name": "83d47015c12002c3e16224f62504d9f2", "is_reserved": 0, "is_disabled": 0, "type": "electric_scooter"}, {"fusion_lon": 0.0, "lat": 38.917653333333334, "lon": -77.04065716666666, "bike_id": "2c90913fb798da9463d704848adbe1d9", "rental_uris": {"android": "https://dc.lft.to/lastmile_qr_scan", "ios": "https://dc.lft.to/lastmile_qr_scan"}, "fusion_lat": 0.0, "name": "2c90913fb798da9463d704848adbe1d9", "is_reserved": 0, "is_disabled": 0, "type": "electric_scooter"}, {"fusion_lon": 0.0, "lat": 38.879426, "lon": -76.98384733333333, "bike_id": "7e59cb4b31e7a3abe85bf6cc35beaaca", "rental_uris": {"android": "https://dc.lft.to/lastmile_qr_scan", "ios": "https://dc.lft.to/lastmile_qr_scan"}, "fusion_lat": 0.0, "name": "7e59cb4b31e7a3abe85bf6cc35beaaca", "is_reserved": 0, "is_disabled": 0, "type": "electric_scooter"}, {"fusion_lon": 0.0, "lat": 38.8945515, "lon": -77.03380483333333, "bike_id": "227ab1b1456e99e5c2d9f46c0fdc1d90", "rental_uris": {"android": "https://dc.lft.to/lastmile_qr_scan", "ios": "https://dc.lft.to/lastmile_qr_scan"}, "fusion_lat": 0.0, "name": "227ab1b1456e99e5c2d9f46c0fdc1d90", "is_reserved": 0, "is_disabled": 0, "type": "electric_scooter"}, {"fusion_lon": 0.0, "lat": 38.84062433333333, "lon": -76.97595166666666, "bike_id": "dd9e7b366eeb5fa51032618b5b4b1bbc", "rental_uris": {"android": "https://dc.lft.to/lastmile_qr_scan", "ios": "https://dc.lft.to/lastmile_qr_scan"}, "fusion_lat": 0.0, "name": "dd9e7b366eeb5fa51032618b5b4b1bbc", "is_reserved": 0, "is_disabled": 0, "type": "electric_bike"}, {"fusion_lon": 0.0, "lat": 38.928659833333334, "lon": -77.01263083333333, "bike_id": "9d20da8746c496e865a44b881e6aacca", "rental_uris": {"android": "https://dc.lft.to/lastmile_qr_scan", "ios": "https://dc.lft.to/lastmile_qr_scan"}, "fusion_lat": 0.0, "name": "9d20da8746c496e865a44b881e6aacca", "is_reserved": 0, "is_disabled": 0, "type": "electric_bike"}, {"fusion_lon": 0.0, "lat": 38.9136425, "lon": -77.09194483333333, "bike_id": "35f7af0e98ef454c31b60db07bbd6e9c", "rental_uris": {"android": "https://dc.lft.to/lastmile_qr_scan", "ios": "https://dc.lft.to/lastmile_qr_scan"}, "fusion_lat": 0.0, "name": "35f7af0e98ef454c31b60db07bbd6e9c", "is_reserved": 0, "is_disabled": 0, "type": "electric_scooter"}, {"fusion_lon": 0.0, "lat": 38.895765833333336, "lon": -77.02671883333333, "bike_id": "35fc51d83b4170807a6eeb21dbf77645", "rental_uris": {"android": "https://dc.lft.to/lastmile_qr_scan", "ios": "https://dc.lft.to/lastmile_qr_scan"}, "fusion_lat": 0.0, "name": "35fc51d83b4170807a6eeb21dbf77645", "is_reserved": 0, "is_disabled": 0, "type": "electric_scooter"}, {"fusion_lon": 0.0, "lat": 38.899721666666665, "lon": -77.0419795, "bike_id": "28b7913b4b1dc3775d42edcaadb13fd7", "rental_uris": {"android": "https://dc.lft.to/lastmile_qr_scan", "ios": "https://dc.lft.to/lastmile_qr_scan"}, "fusion_lat": 0.0, "name": "28b7913b4b1dc3775d42edcaadb13fd7", "is_reserved": 0, "is_disabled": 0, "type": "electric_scooter"}, {"fusion_lon": 0.0, "lat": 38.9225255, "lon": -77.03063183333333, "bike_id": "1143951916caebbaa0bd2502ed3a7c05", "rental_uris": {"android": "https://dc.lft.to/lastmile_qr_scan", "ios": "https://dc.lft.to/lastmile_qr_scan"}, "fusion_lat": 0.0, "name": "1143951916caebbaa0bd2502ed3a7c05", "is_reserved": 0, "is_disabled": 0, "type": "electric_scooter"}, {"fusion_lon": 0.0, "lat": 38.90426466666667, "lon": -77.025115, "bike_id": "a2c976cb9462d2f6f74241e0ce332cf9", "rental_uris": {"android": "https://dc.lft.to/lastmile_qr_scan", "ios": "https://dc.lft.to/lastmile_qr_scan"}, "fusion_lat": 0.0, "name": "a2c976cb9462d2f6f74241e0ce332cf9", "is_reserved": 0, "is_disabled": 0, "type": "electric_scooter"}, {"fusion_lon": 0.0, "lat": 38.923125666666664, "lon": -77.01962183333333, "bike_id": "71ea01e07951c9790412d272636af01e", "rental_uris": {"android": "https://dc.lft.to/lastmile_qr_scan", "ios": "https://dc.lft.to/lastmile_qr_scan"}, "fusion_lat": 0.0, "name": "71ea01e07951c9790412d272636af01e", "is_reserved": 0, "is_disabled": 0, "type": "electric_scooter"}, {"fusion_lon": 0.0, "lat": 38.90418533333333, "lon": -77.03245316666667, "bike_id": "6fd46c59c0a674b98529d606097e99cb", "rental_uris": {"android": "https://dc.lft.to/lastmile_qr_scan", "ios": "https://dc.lft.to/lastmile_qr_scan"}, "fusion_lat": 0.0, "name": "6fd46c59c0a674b98529d606097e99cb", "is_reserved": 0, "is_disabled": 0, "type": "electric_scooter"}, {"fusion_lon": 0.0, "lat": 38.9171115, "lon": -77.0296105, "bike_id": "37eb7a3abe4ec461e6bb8054a54fe5ef", "rental_uris": {"android": "https://dc.lft.to/lastmile_qr_scan", "ios": "https://dc.lft.to/lastmile_qr_scan"}, "fusion_lat": 0.0, "name": "37eb7a3abe4ec461e6bb8054a54fe5ef", "is_reserved": 0, "is_disabled": 0, "type": "electric_scooter"}, {"fusion_lon": 0.0, "lat": 38.901124833333334, "lon": -77.02177166666667, "bike_id": "7c87bc1e8ae059eb817cda8d8402389d", "rental_uris": {"android": "https://dc.lft.to/lastmile_qr_scan", "ios": "https://dc.lft.to/lastmile_qr_scan"}, "fusion_lat": 0.0, "name": "7c87bc1e8ae059eb817cda8d8402389d", "is_reserved": 0, "is_disabled": 0, "type": "electric_scooter"}, {"fusion_lon": 0.0, "lat": 38.937621166666666, "lon": -77.0326505, "bike_id": "a53ce49859b33b2609ddfb557c63a36c", "rental_uris": {"android": "https://dc.lft.to/lastmile_qr_scan", "ios": "https://dc.lft.to/lastmile_qr_scan"}, "fusion_lat": 0.0, "name": "a53ce49859b33b2609ddfb557c63a36c", "is_reserved": 0, "is_disabled": 0, "type": "electric_scooter"}, {"fusion_lon": 0.0, "lat": 38.89628183333333, "lon": -77.02383583333334, "bike_id": "14912b9447bea97d89df2e1f37d79acc", "rental_uris": {"android": "https://dc.lft.to/lastmile_qr_scan", "ios": "https://dc.lft.to/lastmile_qr_scan"}, "fusion_lat": 0.0, "name": "14912b9447bea97d89df2e1f37d79acc", "is_reserved": 0, "is_disabled": 0, "type": "electric_scooter"}, {"fusion_lon": 0.0, "lat": 38.923367666666664, "lon": -77.05682416666667, "bike_id": "1b2ad5da993438b8c25e2afaa0f33dbf", "rental_uris": {"android": "https://dc.lft.to/lastmile_qr_scan", "ios": "https://dc.lft.to/lastmile_qr_scan"}, "fusion_lat": 0.0, "name": "1b2ad5da993438b8c25e2afaa0f33dbf", "is_reserved": 0, "is_disabled": 0, "type": "electric_scooter"}, {"fusion_lon": 0.0, "lat": 38.90946916666667, "lon": -77.02385716666667, "bike_id": "1f46ec779e76ffc9d89566125f831834", "rental_uris": {"android": "https://dc.lft.to/lastmile_qr_scan", "ios": "https://dc.lft.to/lastmile_qr_scan"}, "fusion_lat": 0.0, "name": "1f46ec779e76ffc9d89566125f831834", "is_reserved": 0, "is_disabled": 0, "type": "electric_scooter"}, {"fusion_lon": 0.0, "lat": 38.894908666666666, "lon": -77.022938, "bike_id": "022e07b64c2512fa7f72e48a370c1c2e", "rental_uris": {"android": "https://dc.lft.to/lastmile_qr_scan", "ios": "https://dc.lft.to/lastmile_qr_scan"}, "fusion_lat": 0.0, "name": "022e07b64c2512fa7f72e48a370c1c2e", "is_reserved": 0, "is_disabled": 0, "type": "electric_scooter"}, {"fusion_lon": 0.0, "lat": 38.92819383333333, "lon": -77.02280166666667, "bike_id": "42314726a94662743f8477c4c93399f9", "rental_uris": {"android": "https://dc.lft.to/lastmile_qr_scan", "ios": "https://dc.lft.to/lastmile_qr_scan"}, "fusion_lat": 0.0, "name": "42314726a94662743f8477c4c93399f9", "is_reserved": 0, "is_disabled": 0, "type": "electric_scooter"}, {"fusion_lon": 0.0, "lat": 38.903725, "lon": -77.03595383333334, "bike_id": "ca87258f2b85264e8b49fea62cb5f3f4", "rental_uris": {"android": "https://dc.lft.to/lastmile_qr_scan", "ios": "https://dc.lft.to/lastmile_qr_scan"}, "fusion_lat": 0.0, "name": "ca87258f2b85264e8b49fea62cb5f3f4", "is_reserved": 0, "is_disabled": 0, "type": "electric_scooter"}, {"fusion_lon": 0.0, "lat": 38.902533, "lon": -77.03039166666667, "bike_id": "7deb15fe5c22cef7fb2207c8a3a41450", "rental_uris": {"android": "https://dc.lft.to/lastmile_qr_scan", "ios": "https://dc.lft.to/lastmile_qr_scan"}, "fusion_lat": 0.0, "name": "7deb15fe5c22cef7fb2207c8a3a41450", "is_reserved": 0, "is_disabled": 0, "type": "electric_scooter"}, {"fusion_lon": 0.0, "lat": 38.923929, "lon": -77.03411533333333, "bike_id": "c7df0394738f6da720a7edcbef16c792", "rental_uris": {"android": "https://dc.lft.to/lastmile_qr_scan", "ios": "https://dc.lft.to/lastmile_qr_scan"}, "fusion_lat": 0.0, "name": "c7df0394738f6da720a7edcbef16c792", "is_reserved": 0, "is_disabled": 0, "type": "electric_scooter"}, {"fusion_lon": 0.0, "lat": 38.93246333333333, "lon": -77.03848733333334, "bike_id": "2da339e55d0ecd51caa0813ed3cb1cd3", "rental_uris": {"android": "https://dc.lft.to/lastmile_qr_scan", "ios": "https://dc.lft.to/lastmile_qr_scan"}, "fusion_lat": 0.0, "name": "2da339e55d0ecd51caa0813ed3cb1cd3", "is_reserved": 0, "is_disabled": 0, "type": "electric_scooter"}, {"fusion_lon": 0.0, "lat": 38.870533, "lon": -77.110481, "bike_id": "8a58c96d9b05b24bb5e35cf65648a075", "rental_uris": {"android": "https://dc.lft.to/lastmile_qr_scan", "ios": "https://dc.lft.to/lastmile_qr_scan"}, "fusion_lat": 0.0, "name": "8a58c96d9b05b24bb5e35cf65648a075", "is_reserved": 0, "is_disabled": 0, "type": "electric_bike"}, {"fusion_lon": 0.0, "lat": 38.926817, "lon": -77.02970133333334, "bike_id": "bfdc236806e985733b941c248cc06898", "rental_uris": {"android": "https://dc.lft.to/lastmile_qr_scan", "ios": "https://dc.lft.to/lastmile_qr_scan"}, "fusion_lat": 0.0, "name": "bfdc236806e985733b941c248cc06898", "is_reserved": 0, "is_disabled": 0, "type": "electric_scooter"}, {"fusion_lon": 0.0, "lat": 38.87488333333334, "lon": -76.99797216666667, "bike_id": "af3eb3e80061da97897825061c6060fb", "rental_uris": {"android": "https://dc.lft.to/lastmile_qr_scan", "ios": "https://dc.lft.to/lastmile_qr_scan"}, "fusion_lat": 0.0, "name": "af3eb3e80061da97897825061c6060fb", "is_reserved": 0, "is_disabled": 0, "type": "electric_scooter"}, {"fusion_lon": 0.0, "lat": 38.91707266666667, "lon": -77.03727733333334, "bike_id": "0f25734ceba8291441f05e1fdc0b02e9", "rental_uris": {"android": "https://dc.lft.to/lastmile_qr_scan", "ios": "https://dc.lft.to/lastmile_qr_scan"}, "fusion_lat": 0.0, "name": "0f25734ceba8291441f05e1fdc0b02e9", "is_reserved": 0, "is_disabled": 0, "type": "electric_scooter"}, {"fusion_lon": 0.0, "lat": 38.926, "lon": -77.02151716666667, "bike_id": "45518e0e04aa7d06982753606d412dd6", "rental_uris": {"android": "https://dc.lft.to/lastmile_qr_scan", "ios": "https://dc.lft.to/lastmile_qr_scan"}, "fusion_lat": 0.0, "name": "45518e0e04aa7d06982753606d412dd6", "is_reserved": 0, "is_disabled": 0, "type": "electric_scooter"}, {"fusion_lon": 0.0, "lat": 38.903923666666664, "lon": -77.04330516666667, "bike_id": "e72252f51f548f5418ab7b63bfbaa4ef", "rental_uris": {"android": "https://dc.lft.to/lastmile_qr_scan", "ios": "https://dc.lft.to/lastmile_qr_scan"}, "fusion_lat": 0.0, "name": "e72252f51f548f5418ab7b63bfbaa4ef", "is_reserved": 0, "is_disabled": 0, "type": "electric_scooter"}, {"fusion_lon": 0.0, "lat": 38.964058, "lon": -77.03289816666667, "bike_id": "7d03c4708926819bf23b72cc13b34893", "rental_uris": {"android": "https://dc.lft.to/lastmile_qr_scan", "ios": "https://dc.lft.to/lastmile_qr_scan"}, "fusion_lat": 0.0, "name": "7d03c4708926819bf23b72cc13b34893", "is_reserved": 0, "is_disabled": 0, "type": "electric_scooter"}, {"fusion_lon": 0.0, "lat": 38.9067135, "lon": -77.0344235, "bike_id": "15f9dac4bc57bac71837a572cb273f67", "rental_uris": {"android": "https://dc.lft.to/lastmile_qr_scan", "ios": "https://dc.lft.to/lastmile_qr_scan"}, "fusion_lat": 0.0, "name": "15f9dac4bc57bac71837a572cb273f67", "is_reserved": 0, "is_disabled": 0, "type": "electric_scooter"}, {"fusion_lon": 0.0, "lat": 38.899727166666665, "lon": -77.00948433333333, "bike_id": "f437192356c7b196c521abfc5118b8bd", "rental_uris": {"android": "https://dc.lft.to/lastmile_qr_scan", "ios": "https://dc.lft.to/lastmile_qr_scan"}, "fusion_lat": 0.0, "name": "f437192356c7b196c521abfc5118b8bd", "is_reserved": 0, "is_disabled": 0, "type": "electric_scooter"}, {"fusion_lon": 0.0, "lat": 38.919812666666665, "lon": -77.03265866666666, "bike_id": "4570c0d5c33e242e0b0fe2051542ec61", "rental_uris": {"android": "https://dc.lft.to/lastmile_qr_scan", "ios": "https://dc.lft.to/lastmile_qr_scan"}, "fusion_lat": 0.0, "name": "4570c0d5c33e242e0b0fe2051542ec61", "is_reserved": 0, "is_disabled": 0, "type": "electric_scooter"}, {"fusion_lon": 0.0, "lat": 38.92260516666666, "lon": -77.02440683333333, "bike_id": "85672c0272ad2b3645b3a7b20c2d0106", "rental_uris": {"android": "https://dc.lft.to/lastmile_qr_scan", "ios": "https://dc.lft.to/lastmile_qr_scan"}, "fusion_lat": 0.0, "name": "85672c0272ad2b3645b3a7b20c2d0106", "is_reserved": 0, "is_disabled": 0, "type": "electric_scooter"}, {"fusion_lon": 0.0, "lat": 38.902696666666664, "lon": -77.04609866666667, "bike_id": "481b238e9b8614b71f2ff06c1d77858a", "rental_uris": {"android": "https://dc.lft.to/lastmile_qr_scan", "ios": "https://dc.lft.to/lastmile_qr_scan"}, "fusion_lat": 0.0, "name": "481b238e9b8614b71f2ff06c1d77858a", "is_reserved": 0, "is_disabled": 0, "type": "electric_scooter"}, {"fusion_lon": 0.0, "lat": 38.893567166666664, "lon": -77.00346766666667, "bike_id": "47deac4ec2ea9ca8129f6a4cda4ca673", "rental_uris": {"android": "https://dc.lft.to/lastmile_qr_scan", "ios": "https://dc.lft.to/lastmile_qr_scan"}, "fusion_lat": 0.0, "name": "47deac4ec2ea9ca8129f6a4cda4ca673", "is_reserved": 0, "is_disabled": 0, "type": "electric_scooter"}, {"fusion_lon": 0.0, "lat": 38.909676, "lon": -77.08831033333334, "bike_id": "8e3d695f55cb2fb33a185e9aa5dd10b9", "rental_uris": {"android": "https://dc.lft.to/lastmile_qr_scan", "ios": "https://dc.lft.to/lastmile_qr_scan"}, "fusion_lat": 0.0, "name": "8e3d695f55cb2fb33a185e9aa5dd10b9", "is_reserved": 0, "is_disabled": 0, "type": "electric_bike"}, {"fusion_lon": 0.0, "lat": 38.88690616666667, "lon": -76.976429, "bike_id": "c0b3397d0e934cd9df460cede27be3a4", "rental_uris": {"android": "https://dc.lft.to/lastmile_qr_scan", "ios": "https://dc.lft.to/lastmile_qr_scan"}, "fusion_lat": 0.0, "name": "c0b3397d0e934cd9df460cede27be3a4", "is_reserved": 0, "is_disabled": 0, "type": "electric_scooter"}, {"fusion_lon": 0.0, "lat": 38.927843833333334, "lon": -77.0533505, "bike_id": "e458952fba4c609dd6fd9cae2d04cfb5", "rental_uris": {"android": "https://dc.lft.to/lastmile_qr_scan", "ios": "https://dc.lft.to/lastmile_qr_scan"}, "fusion_lat": 0.0, "name": "e458952fba4c609dd6fd9cae2d04cfb5", "is_reserved": 0, "is_disabled": 0, "type": "electric_scooter"}, {"fusion_lon": 0.0, "lat": 38.91535833333333, "lon": -77.044587, "bike_id": "1cd274adc4ff2a91b22f5de36294eee9", "rental_uris": {"android": "https://dc.lft.to/lastmile_qr_scan", "ios": "https://dc.lft.to/lastmile_qr_scan"}, "fusion_lat": 0.0, "name": "1cd274adc4ff2a91b22f5de36294eee9", "is_reserved": 0, "is_disabled": 0, "type": "electric_scooter"}, {"fusion_lon": 0.0, "lat": 38.94438316666667, "lon": -77.0291355, "bike_id": "4c5c234264dccda5d8f8df79bc9ff1a8", "rental_uris": {"android": "https://dc.lft.to/lastmile_qr_scan", "ios": "https://dc.lft.to/lastmile_qr_scan"}, "fusion_lat": 0.0, "name": "4c5c234264dccda5d8f8df79bc9ff1a8", "is_reserved": 0, "is_disabled": 0, "type": "electric_scooter"}, {"fusion_lon": 0.0, "lat": 38.89655116666667, "lon": -77.0402165, "bike_id": "bb941dc8b6bbc7489167739d2b2303e0", "rental_uris": {"android": "https://dc.lft.to/lastmile_qr_scan", "ios": "https://dc.lft.to/lastmile_qr_scan"}, "fusion_lat": 0.0, "name": "bb941dc8b6bbc7489167739d2b2303e0", "is_reserved": 0, "is_disabled": 0, "type": "electric_scooter"}, {"fusion_lon": 0.0, "lat": 38.90258016666667, "lon": -77.0291275, "bike_id": "2222db50965cb576a639ad01e48ddc37", "rental_uris": {"android": "https://dc.lft.to/lastmile_qr_scan", "ios": "https://dc.lft.to/lastmile_qr_scan"}, "fusion_lat": 0.0, "name": "2222db50965cb576a639ad01e48ddc37", "is_reserved": 0, "is_disabled": 0, "type": "electric_scooter"}, {"fusion_lon": 0.0, "lat": 38.92234783333333, "lon": -77.028565, "bike_id": "c7e8f858e81e9e91dc6def2af2aafd49", "rental_uris": {"android": "https://dc.lft.to/lastmile_qr_scan", "ios": "https://dc.lft.to/lastmile_qr_scan"}, "fusion_lat": 0.0, "name": "c7e8f858e81e9e91dc6def2af2aafd49", "is_reserved": 0, "is_disabled": 0, "type": "electric_scooter"}, {"fusion_lon": 0.0, "lat": 38.90766816666667, "lon": -77.03773733333334, "bike_id": "997770d199ab45338e2d4d539e434daa", "rental_uris": {"android": "https://dc.lft.to/lastmile_qr_scan", "ios": "https://dc.lft.to/lastmile_qr_scan"}, "fusion_lat": 0.0, "name": "997770d199ab45338e2d4d539e434daa", "is_reserved": 0, "is_disabled": 0, "type": "electric_scooter"}, {"fusion_lon": 0.0, "lat": 38.912567, "lon": -76.97212133333333, "bike_id": "8a8843b0f0c50488170621a58145e3fe", "rental_uris": {"android": "https://dc.lft.to/lastmile_qr_scan", "ios": "https://dc.lft.to/lastmile_qr_scan"}, "fusion_lat": 0.0, "name": "8a8843b0f0c50488170621a58145e3fe", "is_reserved": 0, "is_disabled": 0, "type": "electric_scooter"}, {"fusion_lon": 0.0, "lat": 38.92676316666667, "lon": -77.01575333333334, "bike_id": "4b2af2e0305b838c74e608abbc93b858", "rental_uris": {"android": "https://dc.lft.to/lastmile_qr_scan", "ios": "https://dc.lft.to/lastmile_qr_scan"}, "fusion_lat": 0.0, "name": "4b2af2e0305b838c74e608abbc93b858", "is_reserved": 0, "is_disabled": 0, "type": "electric_scooter"}, {"fusion_lon": 0.0, "lat": 38.92782416666667, "lon": -77.02570233333333, "bike_id": "2817ee218fb8319f7b4b148980df2365", "rental_uris": {"android": "https://dc.lft.to/lastmile_qr_scan", "ios": "https://dc.lft.to/lastmile_qr_scan"}, "fusion_lat": 0.0, "name": "2817ee218fb8319f7b4b148980df2365", "is_reserved": 0, "is_disabled": 0, "type": "electric_scooter"}, {"fusion_lon": 0.0, "lat": 38.902561, "lon": -77.0307925, "bike_id": "a5b004a738c072d8293a985e0312e71c", "rental_uris": {"android": "https://dc.lft.to/lastmile_qr_scan", "ios": "https://dc.lft.to/lastmile_qr_scan"}, "fusion_lat": 0.0, "name": "a5b004a738c072d8293a985e0312e71c", "is_reserved": 0, "is_disabled": 0, "type": "electric_scooter"}, {"fusion_lon": 0.0, "lat": 38.909804333333334, "lon": -77.02200016666667, "bike_id": "aa0f6733cc2fadd0df729c1e76aa72b8", "rental_uris": {"android": "https://dc.lft.to/lastmile_qr_scan", "ios": "https://dc.lft.to/lastmile_qr_scan"}, "fusion_lat": 0.0, "name": "aa0f6733cc2fadd0df729c1e76aa72b8", "is_reserved": 0, "is_disabled": 0, "type": "electric_scooter"}, {"fusion_lon": 0.0, "lat": 38.899105666666664, "lon": -77.04578316666667, "bike_id": "95e255176c4102c8093e12a078df17a9", "rental_uris": {"android": "https://dc.lft.to/lastmile_qr_scan", "ios": "https://dc.lft.to/lastmile_qr_scan"}, "fusion_lat": 0.0, "name": "95e255176c4102c8093e12a078df17a9", "is_reserved": 0, "is_disabled": 0, "type": "electric_scooter"}, {"fusion_lon": 0.0, "lat": 38.8922195, "lon": -77.0216145, "bike_id": "deb6d102385c303d4819c7132827f306", "rental_uris": {"android": "https://dc.lft.to/lastmile_qr_scan", "ios": "https://dc.lft.to/lastmile_qr_scan"}, "fusion_lat": 0.0, "name": "deb6d102385c303d4819c7132827f306", "is_reserved": 0, "is_disabled": 0, "type": "electric_scooter"}, {"fusion_lon": 0.0, "lat": 38.894396666666665, "lon": -77.02404683333333, "bike_id": "a50a15864afd3af8e4a99b4fba17e771", "rental_uris": {"android": "https://dc.lft.to/lastmile_qr_scan", "ios": "https://dc.lft.to/lastmile_qr_scan"}, "fusion_lat": 0.0, "name": "a50a15864afd3af8e4a99b4fba17e771", "is_reserved": 0, "is_disabled": 0, "type": "electric_scooter"}, {"fusion_lon": 0.0, "lat": 38.89941966666667, "lon": -76.99731516666667, "bike_id": "f069784bc12a216abf4156a69acc466a", "rental_uris": {"android": "https://dc.lft.to/lastmile_qr_scan", "ios": "https://dc.lft.to/lastmile_qr_scan"}, "fusion_lat": 0.0, "name": "f069784bc12a216abf4156a69acc466a", "is_reserved": 0, "is_disabled": 0, "type": "electric_scooter"}, {"fusion_lon": 0.0, "lat": 38.92673533333333, "lon": -77.02582683333333, "bike_id": "cce671640ec8d50770186c18e3bcc502", "rental_uris": {"android": "https://dc.lft.to/lastmile_qr_scan", "ios": "https://dc.lft.to/lastmile_qr_scan"}, "fusion_lat": 0.0, "name": "cce671640ec8d50770186c18e3bcc502", "is_reserved": 0, "is_disabled": 0, "type": "electric_scooter"}, {"fusion_lon": 0.0, "lat": 38.89847816666666, "lon": -77.0286785, "bike_id": "f87bebb6c08fe314e7bcaa801fbc2f0f", "rental_uris": {"android": "https://dc.lft.to/lastmile_qr_scan", "ios": "https://dc.lft.to/lastmile_qr_scan"}, "fusion_lat": 0.0, "name": "f87bebb6c08fe314e7bcaa801fbc2f0f", "is_reserved": 0, "is_disabled": 0, "type": "electric_scooter"}, {"fusion_lon": 0.0, "lat": 38.92132433333333, "lon": -77.018037, "bike_id": "4954cdc5db2d2efa9dda36620d77676a", "rental_uris": {"android": "https://dc.lft.to/lastmile_qr_scan", "ios": "https://dc.lft.to/lastmile_qr_scan"}, "fusion_lat": 0.0, "name": "4954cdc5db2d2efa9dda36620d77676a", "is_reserved": 0, "is_disabled": 0, "type": "electric_scooter"}, {"fusion_lon": 0.0, "lat": 38.8803675, "lon": -76.92725516666667, "bike_id": "fa89fc1db9adefd0310b21f608ce6170", "rental_uris": {"android": "https://dc.lft.to/lastmile_qr_scan", "ios": "https://dc.lft.to/lastmile_qr_scan"}, "fusion_lat": 0.0, "name": "fa89fc1db9adefd0310b21f608ce6170", "is_reserved": 0, "is_disabled": 0, "type": "electric_scooter"}, {"fusion_lon": 0.0, "lat": 38.90714583333333, "lon": -77.0354375, "bike_id": "d95207e06904b501c7461c8fd5537c52", "rental_uris": {"android": "https://dc.lft.to/lastmile_qr_scan", "ios": "https://dc.lft.to/lastmile_qr_scan"}, "fusion_lat": 0.0, "name": "d95207e06904b501c7461c8fd5537c52", "is_reserved": 0, "is_disabled": 0, "type": "electric_scooter"}, {"fusion_lon": 0.0, "lat": 38.92234033333333, "lon": -77.03664966666666, "bike_id": "c7e31db23728f2f0dbd5def97dfc6a99", "rental_uris": {"android": "https://dc.lft.to/lastmile_qr_scan", "ios": "https://dc.lft.to/lastmile_qr_scan"}, "fusion_lat": 0.0, "name": "c7e31db23728f2f0dbd5def97dfc6a99", "is_reserved": 0, "is_disabled": 0, "type": "electric_scooter"}, {"fusion_lon": 0.0, "lat": 38.901129, "lon": -77.03184033333334, "bike_id": "e7fc325aada88e1a50fbacf74d77368b", "rental_uris": {"android": "https://dc.lft.to/lastmile_qr_scan", "ios": "https://dc.lft.to/lastmile_qr_scan"}, "fusion_lat": 0.0, "name": "e7fc325aada88e1a50fbacf74d77368b", "is_reserved": 0, "is_disabled": 0, "type": "electric_scooter"}, {"fusion_lon": 0.0, "lat": 38.85711, "lon": -76.98133616666667, "bike_id": "6da2f9f504c63c56a8ffe4a94f853736", "rental_uris": {"android": "https://dc.lft.to/lastmile_qr_scan", "ios": "https://dc.lft.to/lastmile_qr_scan"}, "fusion_lat": 0.0, "name": "6da2f9f504c63c56a8ffe4a94f853736", "is_reserved": 0, "is_disabled": 0, "type": "electric_scooter"}, {"fusion_lon": 0.0, "lat": 38.9234055, "lon": -77.019066, "bike_id": "74dbf27fde23a2b84cbfbc0948859723", "rental_uris": {"android": "https://dc.lft.to/lastmile_qr_scan", "ios": "https://dc.lft.to/lastmile_qr_scan"}, "fusion_lat": 0.0, "name": "74dbf27fde23a2b84cbfbc0948859723", "is_reserved": 0, "is_disabled": 0, "type": "electric_scooter"}, {"fusion_lon": 0.0, "lat": 38.86209983333333, "lon": -76.994874, "bike_id": "dbfbf2c634c9d8ace88dd8a3a13a282f", "rental_uris": {"android": "https://dc.lft.to/lastmile_qr_scan", "ios": "https://dc.lft.to/lastmile_qr_scan"}, "fusion_lat": 0.0, "name": "dbfbf2c634c9d8ace88dd8a3a13a282f", "is_reserved": 0, "is_disabled": 0, "type": "electric_scooter"}, {"fusion_lon": 0.0, "lat": 38.895693666666666, "lon": -76.994073, "bike_id": "12ecada0949e1a152a80c697d8663c4e", "rental_uris": {"android": "https://dc.lft.to/lastmile_qr_scan", "ios": "https://dc.lft.to/lastmile_qr_scan"}, "fusion_lat": 0.0, "name": "12ecada0949e1a152a80c697d8663c4e", "is_reserved": 0, "is_disabled": 0, "type": "electric_scooter"}, {"fusion_lon": 0.0, "lat": 38.9003725, "lon": -76.99835083333333, "bike_id": "d385aaa6774e45ef14a8a2fd6acfe3b2", "rental_uris": {"android": "https://dc.lft.to/lastmile_qr_scan", "ios": "https://dc.lft.to/lastmile_qr_scan"}, "fusion_lat": 0.0, "name": "d385aaa6774e45ef14a8a2fd6acfe3b2", "is_reserved": 0, "is_disabled": 0, "type": "electric_scooter"}, {"fusion_lon": 0.0, "lat": 38.924204333333336, "lon": -77.01952733333333, "bike_id": "7b897bcb75e9ffc1d0f98ddcd6f19a64", "rental_uris": {"android": "https://dc.lft.to/lastmile_qr_scan", "ios": "https://dc.lft.to/lastmile_qr_scan"}, "fusion_lat": 0.0, "name": "7b897bcb75e9ffc1d0f98ddcd6f19a64", "is_reserved": 0, "is_disabled": 0, "type": "electric_scooter"}, {"fusion_lon": 0.0, "lat": 38.90547216666667, "lon": -77.04763866666667, "bike_id": "9bc9663ef04f0a3870781444648b7072", "rental_uris": {"android": "https://dc.lft.to/lastmile_qr_scan", "ios": "https://dc.lft.to/lastmile_qr_scan"}, "fusion_lat": 0.0, "name": "9bc9663ef04f0a3870781444648b7072", "is_reserved": 0, "is_disabled": 0, "type": "electric_scooter"}, {"fusion_lon": 0.0, "lat": 38.89471783333333, "lon": -77.0202335, "bike_id": "7688c118ba9fc70a61330da0f3e749be", "rental_uris": {"android": "https://dc.lft.to/lastmile_qr_scan", "ios": "https://dc.lft.to/lastmile_qr_scan"}, "fusion_lat": 0.0, "name": "7688c118ba9fc70a61330da0f3e749be", "is_reserved": 0, "is_disabled": 0, "type": "electric_scooter"}, {"fusion_lon": 0.0, "lat": 38.92889066666667, "lon": -77.03257516666666, "bike_id": "a27b126af22384b61949fb81f9723ba8", "rental_uris": {"android": "https://dc.lft.to/lastmile_qr_scan", "ios": "https://dc.lft.to/lastmile_qr_scan"}, "fusion_lat": 0.0, "name": "a27b126af22384b61949fb81f9723ba8", "is_reserved": 0, "is_disabled": 0, "type": "electric_scooter"}, {"fusion_lon": 0.0, "lat": 38.91730316666667, "lon": -77.0251925, "bike_id": "2cfc7faa87937b3e2e39a5e1cc95a7ae", "rental_uris": {"android": "https://dc.lft.to/lastmile_qr_scan", "ios": "https://dc.lft.to/lastmile_qr_scan"}, "fusion_lat": 0.0, "name": "2cfc7faa87937b3e2e39a5e1cc95a7ae", "is_reserved": 0, "is_disabled": 0, "type": "electric_scooter"}, {"fusion_lon": 0.0, "lat": 38.924924, "lon": -77.03932633333334, "bike_id": "2ab35d2544c75213b23c9d44943bdfbc", "rental_uris": {"android": "https://dc.lft.to/lastmile_qr_scan", "ios": "https://dc.lft.to/lastmile_qr_scan"}, "fusion_lat": 0.0, "name": "2ab35d2544c75213b23c9d44943bdfbc", "is_reserved": 0, "is_disabled": 0, "type": "electric_scooter"}, {"fusion_lon": 0.0, "lat": 38.91802, "lon": -77.01340433333333, "bike_id": "40f183043aab963b5ab58fa21372b5a1", "rental_uris": {"android": "https://dc.lft.to/lastmile_qr_scan", "ios": "https://dc.lft.to/lastmile_qr_scan"}, "fusion_lat": 0.0, "name": "40f183043aab963b5ab58fa21372b5a1", "is_reserved": 0, "is_disabled": 0, "type": "electric_scooter"}, {"fusion_lon": 0.0, "lat": 38.90575116666667, "lon": -77.02980066666667, "bike_id": "313161973c9c3189ac94704cc343dcc2", "rental_uris": {"android": "https://dc.lft.to/lastmile_qr_scan", "ios": "https://dc.lft.to/lastmile_qr_scan"}, "fusion_lat": 0.0, "name": "313161973c9c3189ac94704cc343dcc2", "is_reserved": 0, "is_disabled": 0, "type": "electric_scooter"}, {"fusion_lon": 0.0, "lat": 38.9015375, "lon": -77.0489615, "bike_id": "2cfb5e7445e4a90563e44f3a45bf90fd", "rental_uris": {"android": "https://dc.lft.to/lastmile_qr_scan", "ios": "https://dc.lft.to/lastmile_qr_scan"}, "fusion_lat": 0.0, "name": "2cfb5e7445e4a90563e44f3a45bf90fd", "is_reserved": 0, "is_disabled": 0, "type": "electric_scooter"}, {"fusion_lon": 0.0, "lat": 38.92409966666666, "lon": -77.0230225, "bike_id": "32fdbb13145a239e3d50beba6a7b5c16", "rental_uris": {"android": "https://dc.lft.to/lastmile_qr_scan", "ios": "https://dc.lft.to/lastmile_qr_scan"}, "fusion_lat": 0.0, "name": "32fdbb13145a239e3d50beba6a7b5c16", "is_reserved": 0, "is_disabled": 0, "type": "electric_scooter"}, {"fusion_lon": 0.0, "lat": 38.901839, "lon": -76.93007066666667, "bike_id": "ce94d9d49e0467bdfc2c83be55664b32", "rental_uris": {"android": "https://dc.lft.to/lastmile_qr_scan", "ios": "https://dc.lft.to/lastmile_qr_scan"}, "fusion_lat": 0.0, "name": "ce94d9d49e0467bdfc2c83be55664b32", "is_reserved": 0, "is_disabled": 0, "type": "electric_scooter"}, {"fusion_lon": 0.0, "lat": 38.92556833333333, "lon": -77.0228825, "bike_id": "615490bced053df3b68dee5fe5394b8f", "rental_uris": {"android": "https://dc.lft.to/lastmile_qr_scan", "ios": "https://dc.lft.to/lastmile_qr_scan"}, "fusion_lat": 0.0, "name": "615490bced053df3b68dee5fe5394b8f", "is_reserved": 0, "is_disabled": 0, "type": "electric_scooter"}, {"fusion_lon": 0.0, "lat": 38.9072455, "lon": -77.00164016666666, "bike_id": "7cfb6d8a86916a0087b1582652d5fc06", "rental_uris": {"android": "https://dc.lft.to/lastmile_qr_scan", "ios": "https://dc.lft.to/lastmile_qr_scan"}, "fusion_lat": 0.0, "name": "7cfb6d8a86916a0087b1582652d5fc06", "is_reserved": 0, "is_disabled": 0, "type": "electric_scooter"}, {"fusion_lon": 0.0, "lat": 38.89918733333333, "lon": -77.0293895, "bike_id": "94006382ed4a1612ee27065bb7467d87", "rental_uris": {"android": "https://dc.lft.to/lastmile_qr_scan", "ios": "https://dc.lft.to/lastmile_qr_scan"}, "fusion_lat": 0.0, "name": "94006382ed4a1612ee27065bb7467d87", "is_reserved": 0, "is_disabled": 0, "type": "electric_scooter"}, {"fusion_lon": 0.0, "lat": 38.8984455, "lon": -77.02937033333333, "bike_id": "b9496900b40b58e602463d0bfc54f7d4", "rental_uris": {"android": "https://dc.lft.to/lastmile_qr_scan", "ios": "https://dc.lft.to/lastmile_qr_scan"}, "fusion_lat": 0.0, "name": "b9496900b40b58e602463d0bfc54f7d4", "is_reserved": 0, "is_disabled": 0, "type": "electric_scooter"}, {"fusion_lon": 0.0, "lat": 38.923668, "lon": -77.03644933333334, "bike_id": "371d573dcebf8394b542edb7fb3922f8", "rental_uris": {"android": "https://dc.lft.to/lastmile_qr_scan", "ios": "https://dc.lft.to/lastmile_qr_scan"}, "fusion_lat": 0.0, "name": "371d573dcebf8394b542edb7fb3922f8", "is_reserved": 0, "is_disabled": 0, "type": "electric_scooter"}, {"fusion_lon": 0.0, "lat": 38.89970533333333, "lon": -77.03081116666667, "bike_id": "3d95115d53d32b1960a5392819e30ecd", "rental_uris": {"android": "https://dc.lft.to/lastmile_qr_scan", "ios": "https://dc.lft.to/lastmile_qr_scan"}, "fusion_lat": 0.0, "name": "3d95115d53d32b1960a5392819e30ecd", "is_reserved": 0, "is_disabled": 0, "type": "electric_scooter"}, {"fusion_lon": 0.0, "lat": 38.89827616666667, "lon": -77.050316, "bike_id": "9e916c07bbffe407bcd543a92793bbc9", "rental_uris": {"android": "https://dc.lft.to/lastmile_qr_scan", "ios": "https://dc.lft.to/lastmile_qr_scan"}, "fusion_lat": 0.0, "name": "9e916c07bbffe407bcd543a92793bbc9", "is_reserved": 0, "is_disabled": 0, "type": "electric_scooter"}, {"fusion_lon": 0.0, "lat": 38.897720166666666, "lon": -77.02196533333333, "bike_id": "5683dff8631a934d87ec0450a292102e", "rental_uris": {"android": "https://dc.lft.to/lastmile_qr_scan", "ios": "https://dc.lft.to/lastmile_qr_scan"}, "fusion_lat": 0.0, "name": "5683dff8631a934d87ec0450a292102e", "is_reserved": 0, "is_disabled": 0, "type": "electric_scooter"}, {"fusion_lon": 0.0, "lat": 38.91643283333333, "lon": -77.06951616666667, "bike_id": "ab1b501704d228ebd21fbe4adf3d962d", "rental_uris": {"android": "https://dc.lft.to/lastmile_qr_scan", "ios": "https://dc.lft.to/lastmile_qr_scan"}, "fusion_lat": 0.0, "name": "ab1b501704d228ebd21fbe4adf3d962d", "is_reserved": 0, "is_disabled": 0, "type": "electric_scooter"}, {"fusion_lon": 0.0, "lat": 38.9180255, "lon": -77.03561166666667, "bike_id": "1f4e22448cfeffe9af1f1e90e1adeb7c", "rental_uris": {"android": "https://dc.lft.to/lastmile_qr_scan", "ios": "https://dc.lft.to/lastmile_qr_scan"}, "fusion_lat": 0.0, "name": "1f4e22448cfeffe9af1f1e90e1adeb7c", "is_reserved": 0, "is_disabled": 0, "type": "electric_scooter"}, {"fusion_lon": 0.0, "lat": 38.921499833333336, "lon": -77.020985, "bike_id": "e4e935db5407d0257dd08b203c54e660", "rental_uris": {"android": "https://dc.lft.to/lastmile_qr_scan", "ios": "https://dc.lft.to/lastmile_qr_scan"}, "fusion_lat": 0.0, "name": "e4e935db5407d0257dd08b203c54e660", "is_reserved": 0, "is_disabled": 0, "type": "electric_scooter"}, {"fusion_lon": 0.0, "lat": 38.898850833333334, "lon": -76.9800155, "bike_id": "7c20b80c87f627f2eee57fb66882daca", "rental_uris": {"android": "https://dc.lft.to/lastmile_qr_scan", "ios": "https://dc.lft.to/lastmile_qr_scan"}, "fusion_lat": 0.0, "name": "7c20b80c87f627f2eee57fb66882daca", "is_reserved": 0, "is_disabled": 0, "type": "electric_scooter"}, {"fusion_lon": 0.0, "lat": 38.93483916666667, "lon": -77.07284516666667, "bike_id": "d805b3725d4e9aa0e927debea8190a90", "rental_uris": {"android": "https://dc.lft.to/lastmile_qr_scan", "ios": "https://dc.lft.to/lastmile_qr_scan"}, "fusion_lat": 0.0, "name": "d805b3725d4e9aa0e927debea8190a90", "is_reserved": 0, "is_disabled": 0, "type": "electric_scooter"}, {"fusion_lon": 0.0, "lat": 38.9233665, "lon": -77.02151966666666, "bike_id": "e8e8aa6c35b14f59fe7a19ae8684d1b6", "rental_uris": {"android": "https://dc.lft.to/lastmile_qr_scan", "ios": "https://dc.lft.to/lastmile_qr_scan"}, "fusion_lat": 0.0, "name": "e8e8aa6c35b14f59fe7a19ae8684d1b6", "is_reserved": 0, "is_disabled": 0, "type": "electric_scooter"}, {"fusion_lon": 0.0, "lat": 38.922626666666666, "lon": -76.99771216666667, "bike_id": "0d1a9c72b0baf7e050834dae6cb8401e", "rental_uris": {"android": "https://dc.lft.to/lastmile_qr_scan", "ios": "https://dc.lft.to/lastmile_qr_scan"}, "fusion_lat": 0.0, "name": "0d1a9c72b0baf7e050834dae6cb8401e", "is_reserved": 0, "is_disabled": 0, "type": "electric_scooter"}, {"fusion_lon": 0.0, "lat": 38.9245865, "lon": -76.99915266666666, "bike_id": "ea6558a636e8407368290307869bfee6", "rental_uris": {"android": "https://dc.lft.to/lastmile_qr_scan", "ios": "https://dc.lft.to/lastmile_qr_scan"}, "fusion_lat": 0.0, "name": "ea6558a636e8407368290307869bfee6", "is_reserved": 0, "is_disabled": 0, "type": "electric_scooter"}, {"fusion_lon": 0.0, "lat": 38.914533666666664, "lon": -77.041599, "bike_id": "2950b01dea48266c71fb45e55b07ec0e", "rental_uris": {"android": "https://dc.lft.to/lastmile_qr_scan", "ios": "https://dc.lft.to/lastmile_qr_scan"}, "fusion_lat": 0.0, "name": "2950b01dea48266c71fb45e55b07ec0e", "is_reserved": 0, "is_disabled": 0, "type": "electric_scooter"}, {"fusion_lon": 0.0, "lat": 38.89835816666667, "lon": -77.02772566666667, "bike_id": "e14fb3618be151311a5f88dccb7c114c", "rental_uris": {"android": "https://dc.lft.to/lastmile_qr_scan", "ios": "https://dc.lft.to/lastmile_qr_scan"}, "fusion_lat": 0.0, "name": "e14fb3618be151311a5f88dccb7c114c", "is_reserved": 0, "is_disabled": 0, "type": "electric_scooter"}, {"fusion_lon": 0.0, "lat": 38.89824616666667, "lon": -77.03141366666667, "bike_id": "2bd1f84aafc7ac8a21d6af416172d245", "rental_uris": {"android": "https://dc.lft.to/lastmile_qr_scan", "ios": "https://dc.lft.to/lastmile_qr_scan"}, "fusion_lat": 0.0, "name": "2bd1f84aafc7ac8a21d6af416172d245", "is_reserved": 0, "is_disabled": 0, "type": "electric_scooter"}, {"fusion_lon": 0.0, "lat": 38.91549783333333, "lon": -77.012124, "bike_id": "1c6fc2f0ed3653262fd001378e646c39", "rental_uris": {"android": "https://dc.lft.to/lastmile_qr_scan", "ios": "https://dc.lft.to/lastmile_qr_scan"}, "fusion_lat": 0.0, "name": "1c6fc2f0ed3653262fd001378e646c39", "is_reserved": 0, "is_disabled": 0, "type": "electric_scooter"}, {"fusion_lon": 0.0, "lat": 38.926655, "lon": -77.05441683333333, "bike_id": "377aa8e4835ebbc81073dd8135126a08", "rental_uris": {"android": "https://dc.lft.to/lastmile_qr_scan", "ios": "https://dc.lft.to/lastmile_qr_scan"}, "fusion_lat": 0.0, "name": "377aa8e4835ebbc81073dd8135126a08", "is_reserved": 0, "is_disabled": 0, "type": "electric_scooter"}, {"fusion_lon": 0.0, "lat": 38.90705883333333, "lon": -76.98697416666667, "bike_id": "00b3f5007184f075286ad8a541107d18", "rental_uris": {"android": "https://dc.lft.to/lastmile_qr_scan", "ios": "https://dc.lft.to/lastmile_qr_scan"}, "fusion_lat": 0.0, "name": "00b3f5007184f075286ad8a541107d18", "is_reserved": 0, "is_disabled": 0, "type": "electric_scooter"}, {"fusion_lon": 0.0, "lat": 38.864859, "lon": -76.97750883333333, "bike_id": "d9d15072b5ce8835951060c85d73e9db", "rental_uris": {"android": "https://dc.lft.to/lastmile_qr_scan", "ios": "https://dc.lft.to/lastmile_qr_scan"}, "fusion_lat": 0.0, "name": "d9d15072b5ce8835951060c85d73e9db", "is_reserved": 0, "is_disabled": 0, "type": "electric_bike"}, {"fusion_lon": 0.0, "lat": 38.91998, "lon": -76.9840075, "bike_id": "b3b740a600224e977e3b4eb522b454f1", "rental_uris": {"android": "https://dc.lft.to/lastmile_qr_scan", "ios": "https://dc.lft.to/lastmile_qr_scan"}, "fusion_lat": 0.0, "name": "b3b740a600224e977e3b4eb522b454f1", "is_reserved": 0, "is_disabled": 0, "type": "electric_scooter"}, {"fusion_lon": 0.0, "lat": 38.892206, "lon": -77.043677, "bike_id": "dd194510e369f03762567a1a3a0c90b0", "rental_uris": {"android": "https://dc.lft.to/lastmile_qr_scan", "ios": "https://dc.lft.to/lastmile_qr_scan"}, "fusion_lat": 0.0, "name": "dd194510e369f03762567a1a3a0c90b0", "is_reserved": 0, "is_disabled": 0, "type": "electric_scooter"}, {"fusion_lon": 0.0, "lat": 38.9156505, "lon": -77.03187616666666, "bike_id": "47a84500f45e159758079a346c8fd508", "rental_uris": {"android": "https://dc.lft.to/lastmile_qr_scan", "ios": "https://dc.lft.to/lastmile_qr_scan"}, "fusion_lat": 0.0, "name": "47a84500f45e159758079a346c8fd508", "is_reserved": 0, "is_disabled": 0, "type": "electric_scooter"}, {"fusion_lon": 0.0, "lat": 38.85436083333333, "lon": -76.97164683333334, "bike_id": "af35d555493854f3bb85cb490d8317cf", "rental_uris": {"android": "https://dc.lft.to/lastmile_qr_scan", "ios": "https://dc.lft.to/lastmile_qr_scan"}, "fusion_lat": 0.0, "name": "af35d555493854f3bb85cb490d8317cf", "is_reserved": 0, "is_disabled": 0, "type": "electric_scooter"}, {"fusion_lon": 0.0, "lat": 38.91942933333333, "lon": -77.03200933333333, "bike_id": "df4d15ea3fe04bc75045dcde75524740", "rental_uris": {"android": "https://dc.lft.to/lastmile_qr_scan", "ios": "https://dc.lft.to/lastmile_qr_scan"}, "fusion_lat": 0.0, "name": "df4d15ea3fe04bc75045dcde75524740", "is_reserved": 0, "is_disabled": 0, "type": "electric_scooter"}, {"fusion_lon": 0.0, "lat": 38.91683116666667, "lon": -77.0319665, "bike_id": "a1ec66d435b73dd686460084c821ffcd", "rental_uris": {"android": "https://dc.lft.to/lastmile_qr_scan", "ios": "https://dc.lft.to/lastmile_qr_scan"}, "fusion_lat": 0.0, "name": "a1ec66d435b73dd686460084c821ffcd", "is_reserved": 0, "is_disabled": 0, "type": "electric_scooter"}, {"fusion_lon": 0.0, "lat": 38.90168933333333, "lon": -76.97695333333333, "bike_id": "538b80cee5c75b3477be6e58a238bc19", "rental_uris": {"android": "https://dc.lft.to/lastmile_qr_scan", "ios": "https://dc.lft.to/lastmile_qr_scan"}, "fusion_lat": 0.0, "name": "538b80cee5c75b3477be6e58a238bc19", "is_reserved": 0, "is_disabled": 0, "type": "electric_bike"}, {"fusion_lon": 0.0, "lat": 38.899855, "lon": -77.020863, "bike_id": "403982217a7ee2079dc298e66754e406", "rental_uris": {"android": "https://dc.lft.to/lastmile_qr_scan", "ios": "https://dc.lft.to/lastmile_qr_scan"}, "fusion_lat": 0.0, "name": "403982217a7ee2079dc298e66754e406", "is_reserved": 0, "is_disabled": 0, "type": "electric_scooter"}, {"fusion_lon": 0.0, "lat": 38.905592166666665, "lon": -77.00606433333333, "bike_id": "0861c01928268b3fa74fe1aa1df8d424", "rental_uris": {"android": "https://dc.lft.to/lastmile_qr_scan", "ios": "https://dc.lft.to/lastmile_qr_scan"}, "fusion_lat": 0.0, "name": "0861c01928268b3fa74fe1aa1df8d424", "is_reserved": 0, "is_disabled": 0, "type": "electric_scooter"}, {"fusion_lon": 0.0, "lat": 38.9037485, "lon": -77.042229, "bike_id": "615838269e5376ad51b1c20f002eab34", "rental_uris": {"android": "https://dc.lft.to/lastmile_qr_scan", "ios": "https://dc.lft.to/lastmile_qr_scan"}, "fusion_lat": 0.0, "name": "615838269e5376ad51b1c20f002eab34", "is_reserved": 0, "is_disabled": 0, "type": "electric_scooter"}, {"fusion_lon": 0.0, "lat": 38.90387583333333, "lon": -77.06301016666667, "bike_id": "fcc1c7a2b3820fd08a9e69a4744bf7e3", "rental_uris": {"android": "https://dc.lft.to/lastmile_qr_scan", "ios": "https://dc.lft.to/lastmile_qr_scan"}, "fusion_lat": 0.0, "name": "fcc1c7a2b3820fd08a9e69a4744bf7e3", "is_reserved": 0, "is_disabled": 0, "type": "electric_scooter"}, {"fusion_lon": 0.0, "lat": 38.90027583333333, "lon": -77.01186616666666, "bike_id": "714d87498d4643fffc41d1cf2535ecec", "rental_uris": {"android": "https://dc.lft.to/lastmile_qr_scan", "ios": "https://dc.lft.to/lastmile_qr_scan"}, "fusion_lat": 0.0, "name": "714d87498d4643fffc41d1cf2535ecec", "is_reserved": 0, "is_disabled": 0, "type": "electric_scooter"}, {"fusion_lon": 0.0, "lat": 38.92476766666667, "lon": -77.02231433333333, "bike_id": "e4a6fe20e0d4597ef934ef25d162496b", "rental_uris": {"android": "https://dc.lft.to/lastmile_qr_scan", "ios": "https://dc.lft.to/lastmile_qr_scan"}, "fusion_lat": 0.0, "name": "e4a6fe20e0d4597ef934ef25d162496b", "is_reserved": 0, "is_disabled": 0, "type": "electric_scooter"}, {"fusion_lon": 0.0, "lat": 38.93209933333333, "lon": -77.03861783333333, "bike_id": "f4cf43b8cca49a43ee4f87d9e82e7bb6", "rental_uris": {"android": "https://dc.lft.to/lastmile_qr_scan", "ios": "https://dc.lft.to/lastmile_qr_scan"}, "fusion_lat": 0.0, "name": "f4cf43b8cca49a43ee4f87d9e82e7bb6", "is_reserved": 0, "is_disabled": 0, "type": "electric_scooter"}, {"fusion_lon": 0.0, "lat": 38.93693583333334, "lon": -77.05599183333334, "bike_id": "52091a08de789b26a68ec7814b312034", "rental_uris": {"android": "https://dc.lft.to/lastmile_qr_scan", "ios": "https://dc.lft.to/lastmile_qr_scan"}, "fusion_lat": 0.0, "name": "52091a08de789b26a68ec7814b312034", "is_reserved": 0, "is_disabled": 0, "type": "electric_scooter"}, {"fusion_lon": 0.0, "lat": 38.922441, "lon": -77.03148466666667, "bike_id": "5f18f3e4e29624b58c9e8aea995df472", "rental_uris": {"android": "https://dc.lft.to/lastmile_qr_scan", "ios": "https://dc.lft.to/lastmile_qr_scan"}, "fusion_lat": 0.0, "name": "5f18f3e4e29624b58c9e8aea995df472", "is_reserved": 0, "is_disabled": 0, "type": "electric_scooter"}, {"fusion_lon": 0.0, "lat": 38.927561833333336, "lon": -77.03217, "bike_id": "a4db99776627102b87dd256071aeff7e", "rental_uris": {"android": "https://dc.lft.to/lastmile_qr_scan", "ios": "https://dc.lft.to/lastmile_qr_scan"}, "fusion_lat": 0.0, "name": "a4db99776627102b87dd256071aeff7e", "is_reserved": 0, "is_disabled": 0, "type": "electric_scooter"}, {"fusion_lon": 0.0, "lat": 38.92094083333333, "lon": -77.03653583333333, "bike_id": "4078da58a81761a25257278202740832", "rental_uris": {"android": "https://dc.lft.to/lastmile_qr_scan", "ios": "https://dc.lft.to/lastmile_qr_scan"}, "fusion_lat": 0.0, "name": "4078da58a81761a25257278202740832", "is_reserved": 0, "is_disabled": 0, "type": "electric_scooter"}, {"fusion_lon": 0.0, "lat": 38.879227, "lon": -77.02383566666667, "bike_id": "79f77c9f30354a8c005f4ce631dd65fd", "rental_uris": {"android": "https://dc.lft.to/lastmile_qr_scan", "ios": "https://dc.lft.to/lastmile_qr_scan"}, "fusion_lat": 0.0, "name": "79f77c9f30354a8c005f4ce631dd65fd", "is_reserved": 0, "is_disabled": 0, "type": "electric_scooter"}, {"fusion_lon": 0.0, "lat": 38.887749, "lon": -76.93260516666666, "bike_id": "86b7e33c0764b263c75cd20ae22434c5", "rental_uris": {"android": "https://dc.lft.to/lastmile_qr_scan", "ios": "https://dc.lft.to/lastmile_qr_scan"}, "fusion_lat": 0.0, "name": "86b7e33c0764b263c75cd20ae22434c5", "is_reserved": 0, "is_disabled": 0, "type": "electric_scooter"}, {"fusion_lon": 0.0, "lat": 38.8993905, "lon": -77.04860716666667, "bike_id": "ae2702fe7416fc6d7ccb214e3b2bef09", "rental_uris": {"android": "https://dc.lft.to/lastmile_qr_scan", "ios": "https://dc.lft.to/lastmile_qr_scan"}, "fusion_lat": 0.0, "name": "ae2702fe7416fc6d7ccb214e3b2bef09", "is_reserved": 0, "is_disabled": 0, "type": "electric_scooter"}, {"fusion_lon": 0.0, "lat": 38.89884683333333, "lon": -77.02971083333334, "bike_id": "3395df3c1e721fd1744d88fd851da5f3", "rental_uris": {"android": "https://dc.lft.to/lastmile_qr_scan", "ios": "https://dc.lft.to/lastmile_qr_scan"}, "fusion_lat": 0.0, "name": "3395df3c1e721fd1744d88fd851da5f3", "is_reserved": 0, "is_disabled": 0, "type": "electric_scooter"}, {"fusion_lon": 0.0, "lat": 38.89883966666667, "lon": -76.9317995, "bike_id": "7a04d9ac96cc56365b876be4448a8ea1", "rental_uris": {"android": "https://dc.lft.to/lastmile_qr_scan", "ios": "https://dc.lft.to/lastmile_qr_scan"}, "fusion_lat": 0.0, "name": "7a04d9ac96cc56365b876be4448a8ea1", "is_reserved": 0, "is_disabled": 0, "type": "electric_scooter"}, {"fusion_lon": 0.0, "lat": 38.92470016666667, "lon": -77.03942683333334, "bike_id": "9c1064d6c9c76f9f3a4e5fff9bc74a35", "rental_uris": {"android": "https://dc.lft.to/lastmile_qr_scan", "ios": "https://dc.lft.to/lastmile_qr_scan"}, "fusion_lat": 0.0, "name": "9c1064d6c9c76f9f3a4e5fff9bc74a35", "is_reserved": 0, "is_disabled": 0, "type": "electric_scooter"}, {"fusion_lon": 0.0, "lat": 38.907674666666665, "lon": -77.03765516666667, "bike_id": "4c7de64aecaddd7af88bd4806f590507", "rental_uris": {"android": "https://dc.lft.to/lastmile_qr_scan", "ios": "https://dc.lft.to/lastmile_qr_scan"}, "fusion_lat": 0.0, "name": "4c7de64aecaddd7af88bd4806f590507", "is_reserved": 0, "is_disabled": 0, "type": "electric_scooter"}, {"fusion_lon": 0.0, "lat": 38.9072255, "lon": -77.0335815, "bike_id": "02081c34d4b88cec150f7c72bd85f10e", "rental_uris": {"android": "https://dc.lft.to/lastmile_qr_scan", "ios": "https://dc.lft.to/lastmile_qr_scan"}, "fusion_lat": 0.0, "name": "02081c34d4b88cec150f7c72bd85f10e", "is_reserved": 0, "is_disabled": 0, "type": "electric_scooter"}, {"fusion_lon": 0.0, "lat": 38.9235165, "lon": -77.0543, "bike_id": "a5374cf841e3e0ce24c553499a7f4e96", "rental_uris": {"android": "https://dc.lft.to/lastmile_qr_scan", "ios": "https://dc.lft.to/lastmile_qr_scan"}, "fusion_lat": 0.0, "name": "a5374cf841e3e0ce24c553499a7f4e96", "is_reserved": 0, "is_disabled": 0, "type": "electric_scooter"}, {"fusion_lon": 0.0, "lat": 38.912606, "lon": -77.03344366666667, "bike_id": "afea432c469c7914c1507e7bb0582e08", "rental_uris": {"android": "https://dc.lft.to/lastmile_qr_scan", "ios": "https://dc.lft.to/lastmile_qr_scan"}, "fusion_lat": 0.0, "name": "afea432c469c7914c1507e7bb0582e08", "is_reserved": 0, "is_disabled": 0, "type": "electric_scooter"}, {"fusion_lon": 0.0, "lat": 38.9110265, "lon": -77.00370533333333, "bike_id": "972f6b51f5f41e8a1b5e5bea680fd207", "rental_uris": {"android": "https://dc.lft.to/lastmile_qr_scan", "ios": "https://dc.lft.to/lastmile_qr_scan"}, "fusion_lat": 0.0, "name": "972f6b51f5f41e8a1b5e5bea680fd207", "is_reserved": 0, "is_disabled": 0, "type": "electric_scooter"}, {"fusion_lon": 0.0, "lat": 38.922861166666664, "lon": -77.04222266666666, "bike_id": "bf88f166d92f95ce44ece5df64e8f065", "rental_uris": {"android": "https://dc.lft.to/lastmile_qr_scan", "ios": "https://dc.lft.to/lastmile_qr_scan"}, "fusion_lat": 0.0, "name": "bf88f166d92f95ce44ece5df64e8f065", "is_reserved": 0, "is_disabled": 0, "type": "electric_scooter"}, {"fusion_lon": 0.0, "lat": 38.902848, "lon": -77.032108, "bike_id": "ae00adde3b3f4f04f84a1c1e17b15800", "rental_uris": {"android": "https://dc.lft.to/lastmile_qr_scan", "ios": "https://dc.lft.to/lastmile_qr_scan"}, "fusion_lat": 0.0, "name": "ae00adde3b3f4f04f84a1c1e17b15800", "is_reserved": 0, "is_disabled": 0, "type": "electric_scooter"}, {"fusion_lon": 0.0, "lat": 38.92670866666667, "lon": -77.0278205, "bike_id": "2614902439159917e622bb6fb8039dca", "rental_uris": {"android": "https://dc.lft.to/lastmile_qr_scan", "ios": "https://dc.lft.to/lastmile_qr_scan"}, "fusion_lat": 0.0, "name": "2614902439159917e622bb6fb8039dca", "is_reserved": 0, "is_disabled": 0, "type": "electric_scooter"}, {"fusion_lon": 0.0, "lat": 38.876964666666666, "lon": -77.01765483333334, "bike_id": "b5e2a5fa36b83c673d44093349146527", "rental_uris": {"android": "https://dc.lft.to/lastmile_qr_scan", "ios": "https://dc.lft.to/lastmile_qr_scan"}, "fusion_lat": 0.0, "name": "b5e2a5fa36b83c673d44093349146527", "is_reserved": 0, "is_disabled": 0, "type": "electric_scooter"}, {"fusion_lon": 0.0, "lat": 38.9098075, "lon": -77.064921, "bike_id": "c9c4cb6397535fbafd407f0a2f0401bd", "rental_uris": {"android": "https://dc.lft.to/lastmile_qr_scan", "ios": "https://dc.lft.to/lastmile_qr_scan"}, "fusion_lat": 0.0, "name": "c9c4cb6397535fbafd407f0a2f0401bd", "is_reserved": 0, "is_disabled": 0, "type": "electric_bike"}, {"fusion_lon": 0.0, "lat": 38.924712, "lon": -77.03830466666666, "bike_id": "f547fd2a243aeb2927b4ec168b5ff57b", "rental_uris": {"android": "https://dc.lft.to/lastmile_qr_scan", "ios": "https://dc.lft.to/lastmile_qr_scan"}, "fusion_lat": 0.0, "name": "f547fd2a243aeb2927b4ec168b5ff57b", "is_reserved": 0, "is_disabled": 0, "type": "electric_scooter"}, {"fusion_lon": 0.0, "lat": 38.89877333333333, "lon": -76.98838683333334, "bike_id": "32ae446bece7a4591b376070c7fd7117", "rental_uris": {"android": "https://dc.lft.to/lastmile_qr_scan", "ios": "https://dc.lft.to/lastmile_qr_scan"}, "fusion_lat": 0.0, "name": "32ae446bece7a4591b376070c7fd7117", "is_reserved": 0, "is_disabled": 0, "type": "electric_scooter"}, {"fusion_lon": 0.0, "lat": 38.90098116666667, "lon": -76.98106183333333, "bike_id": "77ffd7a269243ea07a744f8ddf0a72b8", "rental_uris": {"android": "https://dc.lft.to/lastmile_qr_scan", "ios": "https://dc.lft.to/lastmile_qr_scan"}, "fusion_lat": 0.0, "name": "77ffd7a269243ea07a744f8ddf0a72b8", "is_reserved": 0, "is_disabled": 0, "type": "electric_scooter"}, {"fusion_lon": 0.0, "lat": 38.91181866666667, "lon": -77.06092516666666, "bike_id": "e9eaaca30bef6943613c1d6f52fef8ab", "rental_uris": {"android": "https://dc.lft.to/lastmile_qr_scan", "ios": "https://dc.lft.to/lastmile_qr_scan"}, "fusion_lat": 0.0, "name": "e9eaaca30bef6943613c1d6f52fef8ab", "is_reserved": 0, "is_disabled": 0, "type": "electric_scooter"},