{"data": {"bikes": [{"is_reserved": 0, "is_disabled": 0, "fusion_lat": 0.0, "name": "d4ba2f7b3de621b4b761709eeb871938", "lat": 38.94216616666667, "lon": -77.01884383333334, "bike_id": "d4ba2f7b3de621b4b761709eeb871938", "rental_uris": {"ios": "https://dc.lft.to/lastmile_qr_scan", "android": "https://dc.lft.to/lastmile_qr_scan"}, "type": "electric_scooter", "fusion_lon": 0.0}, {"is_reserved": 0, "is_disabled": 0, "fusion_lat": 0.0, "name": "9e89e74eecae5eea160b1e1f3c7d70c5", "lat": 38.89922516666667, "lon": -77.039778, "bike_id": "9e89e74eecae5eea160b1e1f3c7d70c5", "rental_uris": {"ios": "https://dc.lft.to/lastmile_qr_scan", "android": "https://dc.lft.to/lastmile_qr_scan"}, "type": "electric_scooter", "fusion_lon": 0.0}, {"is_reserved": 0, "is_disabled": 0, "fusion_lat": 0.0, "name": "f24e42ba59aa5f307ff5232d7c0e93f1", "lat": 38.915279, "lon": -77.02184766666667, "bike_id": "f24e42ba59aa5f307ff5232d7c0e93f1", "rental_uris": {"ios": "https://dc.lft.to/lastmile_qr_scan", "android": "https://dc.lft.to/lastmile_qr_scan"}, "type": "electric_scooter", "fusion_lon": 0.0}, {"is_reserved": 0, "is_disabled": 0, "fusion_lat": 0.0, "name": "60b9febc3331cbab4e3b1fb86cd62b87", "lat": 38.898446666666665, "lon": -77.04674166666666, "bike_id": "60b9febc3331cbab4e3b1fb86cd62b87", "rental_uris": {"ios": "https://dc.lft.to/lastmile_qr_scan", "android": "https://dc.lft.to/lastmile_qr_scan"}, "type": "electric_scooter", "fusion_lon": 0.0}, {"is_reserved": 0, "is_disabled": 0, "fusion_lat": 0.0, "name": "45782ea4eb3cb21e82c8c344cfc1f21c", "lat": 38.92335166666667, "lon": -77.028122, "bike_id": "45782ea4eb3cb21e82c8c344cfc1f21c", "rental_uris": {"ios": "https://dc.lft.to/lastmile_qr_scan", "android": "https://dc.lft.to/lastmile_qr_scan"}, "type": "electric_scooter", "fusion_lon": 0.0}, {"is_reserved": 0, "is_disabled": 0, "fusion_lat": 0.0, "name": "5831d27b2054e044a44426b2120d3fe0", "lat": 38.9741285, "lon": -76.98419716666666, "bike_id": "5831d27b2054e044a44426b2120d3fe0", "rental_uris": {"ios": "https://dc.lft.to/lastmile_qr_scan", "android": "https://dc.lft.to/lastmile_qr_scan"}, "type": "electric_bike", "fusion_lon": 0.0}, {"is_reserved": 0, "is_disabled": 0, "fusion_lat": 0.0, "name": "62165b7582c1266a8dd4715d8e476942", "lat": 38.90471216666667, "lon": -77.05331783333334, "bike_id": "62165b7582c1266a8dd4715d8e476942", "rental_uris": {"ios": "https://dc.lft.to/lastmile_qr_scan", "android": "https://dc.lft.to/lastmile_qr_scan"}, "type": "electric_scooter", "fusion_lon": 0.0}, {"is_reserved": 0, "is_disabled": 0, "fusion_lat": 0.0, "name": "7a55ad40e0793ec7bb620b689eeea206", "lat": 38.91626983333333, "lon": -77.00501683333333, "bike_id": "7a55ad40e0793ec7bb620b689eeea206", "rental_uris": {"ios": "https://dc.lft.to/lastmile_qr_scan", "android": "https://dc.lft.to/lastmile_qr_scan"}, "type": "electric_scooter", "fusion_lon": 0.0}, {"is_reserved": 0, "is_disabled": 0, "fusion_lat": 0.0, "name": "b3763921169a85e7f1fb17cf3b091fa6", "lat": 38.94737466666667, "lon": -77.019383, "bike_id": "b3763921169a85e7f1fb17cf3b091fa6", "rental_uris": {"ios": "https://dc.lft.to/lastmile_qr_scan", "android": "https://dc.lft.to/lastmile_qr_scan"}, "type": "electric_scooter", "fusion_lon": 0.0}, {"is_reserved": 0, "is_disabled": 0, "fusion_lat": 0.0, "name": "6d87ba996d9e36f83a97ed74033c7bc1", "lat": 38.91709916666667, "lon": -77.03866683333334, "bike_id": "6d87ba996d9e36f83a97ed74033c7bc1", "rental_uris": {"ios": "https://dc.lft.to/lastmile_qr_scan", "android": "https://dc.lft.to/lastmile_qr_scan"}, "type": "electric_scooter", "fusion_lon": 0.0}, {"is_reserved": 0, "is_disabled": 0, "fusion_lat": 0.0, "name": "babbf88358b49bf2bc79b2b1a9bbeec7", "lat": 38.903464, "lon": -76.97492383333334, "bike_id": "babbf88358b49bf2bc79b2b1a9bbeec7", "rental_uris": {"ios": "https://dc.lft.to/lastmile_qr_scan", "android": "https://dc.lft.to/lastmile_qr_scan"}, "type": "electric_scooter", "fusion_lon": 0.0}, {"is_reserved": 0, "is_disabled": 0, "fusion_lat": 0.0, "name": "b13a354d5e7382a0b1ff234205c67b17", "lat": 38.92501133333333, "lon": -77.02164683333334, "bike_id": "b13a354d5e7382a0b1ff234205c67b17", "rental_uris": {"ios": "https://dc.lft.to/lastmile_qr_scan", "android": "https://dc.lft.to/lastmile_qr_scan"}, "type": "electric_scooter", "fusion_lon": 0.0}, {"is_reserved": 0, "is_disabled": 0, "fusion_lat": 0.0, "name": "c96213f150862a6cd22d5275dc64dec0", "lat": 38.92394733333333, "lon": -77.03407316666667, "bike_id": "c96213f150862a6cd22d5275dc64dec0", "rental_uris": {"ios": "https://dc.lft.to/lastmile_qr_scan", "android": "https://dc.lft.to/lastmile_qr_scan"}, "type": "electric_scooter", "fusion_lon": 0.0}, {"is_reserved": 0, "is_disabled": 0, "fusion_lat": 0.0, "name": "86d8647e9f930a2a5056d1793f9af8f1", "lat": 38.92654516666666, "lon": -77.090279, "bike_id": "86d8647e9f930a2a5056d1793f9af8f1", "rental_uris": {"ios": "https://dc.lft.to/lastmile_qr_scan", "android": "https://dc.lft.to/lastmile_qr_scan"}, "type": "electric_bike", "fusion_lon": 0.0}, {"is_reserved": 0, "is_disabled": 0, "fusion_lat": 0.0, "name": "bf9fd46a0d55e3216e08a61063211e41", "lat": 38.9142615, "lon": -76.98441166666667, "bike_id": "bf9fd46a0d55e3216e08a61063211e41", "rental_uris": {"ios": "https://dc.lft.to/lastmile_qr_scan", "android": "https://dc.lft.to/lastmile_qr_scan"}, "type": "electric_scooter", "fusion_lon": 0.0}, {"is_reserved": 0, "is_disabled": 0, "fusion_lat": 0.0, "name": "74d3d318c44cd3abbe4daaf536d76a67", "lat": 38.89921316666667, "lon": -77.0035415, "bike_id": "74d3d318c44cd3abbe4daaf536d76a67", "rental_uris": {"ios": "https://dc.lft.to/lastmile_qr_scan", "android": "https://dc.lft.to/lastmile_qr_scan"}, "type": "electric_scooter", "fusion_lon": 0.0}, {"is_reserved": 0, "is_disabled": 0, "fusion_lat": 0.0, "name": "cc2d6b22eb4081182895f526663c6d22", "lat": 38.92234766666667, "lon": -77.02828983333333, "bike_id": "cc2d6b22eb4081182895f526663c6d22", "rental_uris": {"ios": "https://dc.lft.to/lastmile_qr_scan", "android": "https://dc.lft.to/lastmile_qr_scan"}, "type": "electric_scooter", "fusion_lon": 0.0}, {"is_reserved": 0, "is_disabled": 0, "fusion_lat": 0.0, "name": "89e96895bf1ae2c87ee872808a7e59a9", "lat": 38.9673335, "lon": -77.08912133333334, "bike_id": "89e96895bf1ae2c87ee872808a7e59a9", "rental_uris": {"ios": "https://dc.lft.to/lastmile_qr_scan", "android": "https://dc.lft.to/lastmile_qr_scan"}, "type": "electric_bike", "fusion_lon": 0.0}, {"is_reserved": 0, "is_disabled": 0, "fusion_lat": 0.0, "name": "dfefd7dbbb0c312e8c1c8477dd4b3bbb", "lat": 38.91749683333333, "lon": -77.0280535, "bike_id": "dfefd7dbbb0c312e8c1c8477dd4b3bbb", "rental_uris": {"ios": "https://dc.lft.to/lastmile_qr_scan", "android": "https://dc.lft.to/lastmile_qr_scan"}, "type": "electric_scooter", "fusion_lon": 0.0}, {"is_reserved": 0, "is_disabled": 0, "fusion_lat": 0.0, "name": "8e3fa3dd58e775facff04d230293d633", "lat": 38.93333116666667, "lon": -77.02910783333333, "bike_id": "8e3fa3dd58e775facff04d230293d633", "rental_uris": {"ios": "https://dc.lft.to/lastmile_qr_scan", "android": "https://dc.lft.to/lastmile_qr_scan"}, "type": "electric_scooter", "fusion_lon": 0.0}, {"is_reserved": 0, "is_disabled": 0, "fusion_lat": 0.0, "name": "5180fd9d1f67e4b8633de5cf401a417a", "lat": 38.920574333333334, "lon": -77.0229895, "bike_id": "5180fd9d1f67e4b8633de5cf401a417a", "rental_uris": {"ios": "https://dc.lft.to/lastmile_qr_scan", "android": "https://dc.lft.to/lastmile_qr_scan"}, "type": "electric_scooter", "fusion_lon": 0.0}, {"is_reserved": 0, "is_disabled": 0, "fusion_lat": 0.0, "name": "433f8d1b6b4e747e9c83ce428a31df7d", "lat": 38.86372333333333, "lon": -76.970069, "bike_id": "433f8d1b6b4e747e9c83ce428a31df7d", "rental_uris": {"ios": "https://dc.lft.to/lastmile_qr_scan", "android": "https://dc.lft.to/lastmile_qr_scan"}, "type": "electric_bike", "fusion_lon": 0.0}, {"is_reserved": 0, "is_disabled": 0, "fusion_lat": 0.0, "name": "68e694f82546022beefcd0514f790e5c", "lat": 38.88766833333333, "lon": -77.00045666666666, "bike_id": "68e694f82546022beefcd0514f790e5c", "rental_uris": {"ios": "https://dc.lft.to/lastmile_qr_scan", "android": "https://dc.lft.to/lastmile_qr_scan"}, "type": "electric_scooter", "fusion_lon": 0.0}, {"is_reserved": 0, "is_disabled": 0, "fusion_lat": 0.0, "name": "a11dedd751bc2edc8c45b9ae54713f97", "lat": 38.950761666666665, "lon": -77.06659533333334, "bike_id": "a11dedd751bc2edc8c45b9ae54713f97", "rental_uris": {"ios": "https://dc.lft.to/lastmile_qr_scan", "android": "https://dc.lft.to/lastmile_qr_scan"}, "type": "electric_bike", "fusion_lon": 0.0}, {"is_reserved": 0, "is_disabled": 0, "fusion_lat": 0.0, "name": "5e0524ad1a5b0fce83671da4f3accb59", "lat": 38.89575833333333, "lon": -77.030149, "bike_id": "5e0524ad1a5b0fce83671da4f3accb59", "rental_uris": {"ios": "https://dc.lft.to/lastmile_qr_scan", "android": "https://dc.lft.to/lastmile_qr_scan"}, "type": "electric_scooter", "fusion_lon": 0.0}, {"is_reserved": 0, "is_disabled": 0, "fusion_lat": 0.0, "name": "08e674b9921943397526f0137c6f8659", "lat": 38.918774666666664, "lon": -76.96432566666667, "bike_id": "08e674b9921943397526f0137c6f8659", "rental_uris": {"ios": "https://dc.lft.to/lastmile_qr_scan", "android": "https://dc.lft.to/lastmile_qr_scan"}, "type": "electric_bike", "fusion_lon": 0.0}, {"is_reserved": 0, "is_disabled": 0, "fusion_lat": 0.0, "name": "4f6acee4a68d38c0fba05805981ad910", "lat": 38.92022383333333, "lon": -77.04200766666666, "bike_id": "4f6acee4a68d38c0fba05805981ad910", "rental_uris": {"ios": "https://dc.lft.to/lastmile_qr_scan", "android": "https://dc.lft.to/lastmile_qr_scan"}, "type": "electric_scooter", "fusion_lon": 0.0}, {"is_reserved": 0, "is_disabled": 0, "fusion_lat": 0.0, "name": "cbdeccd6a4bfc1ddf4d87bc50f37dd19", "lat": 38.8876995, "lon": -76.97735283333333, "bike_id": "cbdeccd6a4bfc1ddf4d87bc50f37dd19", "rental_uris": {"ios": "https://dc.lft.to/lastmile_qr_scan", "android": "https://dc.lft.to/lastmile_qr_scan"}, "type": "electric_scooter", "fusion_lon": 0.0}, {"is_reserved": 0, "is_disabled": 0, "fusion_lat": 0.0, "name": "25e303d535d6cbd8047136411de594e5", "lat": 38.90005883333333, "lon": -76.99621366666666, "bike_id": "25e303d535d6cbd8047136411de594e5", "rental_uris": {"ios": "https://dc.lft.to/lastmile_qr_scan", "android": "https://dc.lft.to/lastmile_qr_scan"}, "type": "electric_scooter", "fusion_lon": 0.0}, {"is_reserved": 0, "is_disabled": 0, "fusion_lat": 0.0, "name": "ea65216e52a2ca0d407cfe19fe3ab502", "lat": 38.8565, "lon": -77.08529583333333, "bike_id": "ea65216e52a2ca0d407cfe19fe3ab502", "rental_uris": {"ios": "https://dc.lft.to/lastmile_qr_scan", "android": "https://dc.lft.to/lastmile_qr_scan"}, "type": "electric_bike", "fusion_lon": 0.0}, {"is_reserved": 0, "is_disabled": 0, "fusion_lat": 0.0, "name": "9849f335d10d0cf434b67b37cb4467f9", "lat": 38.900620833333335, "lon": -77.01389433333334, "bike_id": "9849f335d10d0cf434b67b37cb4467f9", "rental_uris": {"ios": "https://dc.lft.to/lastmile_qr_scan", "android": "https://dc.lft.to/lastmile_qr_scan"}, "type": "electric_scooter", "fusion_lon": 0.0}, {"is_reserved": 0, "is_disabled": 0, "fusion_lat": 0.0, "name": "a38daa7197ee5e0d59bf2d35d35dba6a", "lat": 38.90859116666667, "lon": -77.04528, "bike_id": "a38daa7197ee5e0d59bf2d35d35dba6a", "rental_uris": {"ios": "https://dc.lft.to/lastmile_qr_scan", "android": "https://dc.lft.to/lastmile_qr_scan"}, "type": "electric_scooter", "fusion_lon": 0.0}, {"is_reserved": 0, "is_disabled": 0, "fusion_lat": 0.0, "name": "3fd56c060257f96303305ea63764c0ea", "lat": 38.9192655, "lon": -77.02987316666666, "bike_id": "3fd56c060257f96303305ea63764c0ea", "rental_uris": {"ios": "https://dc.lft.to/lastmile_qr_scan", "android": "https://dc.lft.to/lastmile_qr_scan"}, "type": "electric_scooter", "fusion_lon": 0.0}, {"is_reserved": 0, "is_disabled": 0, "fusion_lat": 0.0, "name": "4af9e0bd1c26ff894ef41ba795a0e2ae", "lat": 38.86562516666667, "lon": -76.97481033333334, "bike_id": "4af9e0bd1c26ff894ef41ba795a0e2ae", "rental_uris": {"ios": "https://dc.lft.to/lastmile_qr_scan", "android": "https://dc.lft.to/lastmile_qr_scan"}, "type": "electric_bike", "fusion_lon": 0.0}, {"is_reserved": 0, "is_disabled": 0, "fusion_lat": 0.0, "name": "15ec7746e9383182b9f304ca9a70658b", "lat": 38.907551, "lon": -77.04557233333334, "bike_id": "15ec7746e9383182b9f304ca9a70658b", "rental_uris": {"ios": "https://dc.lft.to/lastmile_qr_scan", "android": "https://dc.lft.to/lastmile_qr_scan"}, "type": "electric_scooter", "fusion_lon": 0.0}, {"is_reserved": 0, "is_disabled": 0, "fusion_lat": 0.0, "name": "1f69df19f7e09cb60654c056de44cd8c", "lat": 38.91677583333333, "lon": -77.029598, "bike_id": "1f69df19f7e09cb60654c056de44cd8c", "rental_uris": {"ios": "https://dc.lft.to/lastmile_qr_scan", "android": "https://dc.lft.to/lastmile_qr_scan"}, "type": "electric_scooter", "fusion_lon": 0.0}, {"is_reserved": 0, "is_disabled": 0, "fusion_lat": 0.0, "name": "23fe188a4b7b543a7a9fb92303bdbbec", "lat": 38.916063, "lon": -77.01211016666667, "bike_id": "23fe188a4b7b543a7a9fb92303bdbbec", "rental_uris": {"ios": "https://dc.lft.to/lastmile_qr_scan", "android": "https://dc.lft.to/lastmile_qr_scan"}, "type": "electric_scooter", "fusion_lon": 0.0}, {"is_reserved": 0, "is_disabled": 0, "fusion_lat": 0.0, "name": "b4fdfd85fc6805f4e558c836427637d0", "lat": 38.90698833333333, "lon": -77.021783, "bike_id": "b4fdfd85fc6805f4e558c836427637d0", "rental_uris": {"ios": "https://dc.lft.to/lastmile_qr_scan", "android": "https://dc.lft.to/lastmile_qr_scan"}, "type": "electric_scooter", "fusion_lon": 0.0}, {"is_reserved": 0, "is_disabled": 0, "fusion_lat": 0.0, "name": "ae103dcc664ef4fe35cb4dc85d112e9c", "lat": 38.885138166666664, "lon": -77.00568683333333, "bike_id": "ae103dcc664ef4fe35cb4dc85d112e9c", "rental_uris": {"ios": "https://dc.lft.to/lastmile_qr_scan", "android": "https://dc.lft.to/lastmile_qr_scan"}, "type": "electric_scooter", "fusion_lon": 0.0}, {"is_reserved": 0, "is_disabled": 0, "fusion_lat": 0.0, "name": "03a23da42a4f2d4c9913e9d12dd99e2a", "lat": 38.927833666666665, "lon": -77.0211975, "bike_id": "03a23da42a4f2d4c9913e9d12dd99e2a", "rental_uris": {"ios": "https://dc.lft.to/lastmile_qr_scan", "android": "https://dc.lft.to/lastmile_qr_scan"}, "type": "electric_scooter", "fusion_lon": 0.0}, {"is_reserved": 0, "is_disabled": 0, "fusion_lat": 0.0, "name": "1250c0218909168a63a5f681fc6cc82d", "lat": 38.94409533333334, "lon": -77.021894, "bike_id": "1250c0218909168a63a5f681fc6cc82d", "rental_uris": {"ios": "https://dc.lft.to/lastmile_qr_scan", "android": "https://dc.lft.to/lastmile_qr_scan"}, "type": "electric_bike", "fusion_lon": 0.0}, {"is_reserved": 0, "is_disabled": 0, "fusion_lat": 0.0, "name": "a448d5a3bc5c809c1d38975d8d14ae7d", "lat": 38.92885, "lon": -77.03865933333333, "bike_id": "a448d5a3bc5c809c1d38975d8d14ae7d", "rental_uris": {"ios": "https://dc.lft.to/lastmile_qr_scan", "android": "https://dc.lft.to/lastmile_qr_scan"}, "type": "electric_scooter", "fusion_lon": 0.0}, {"is_reserved": 0, "is_disabled": 0, "fusion_lat": 0.0, "name": "a7b9ccfbbc0c175b53072091560eb3a1", "lat": 38.90220933333333, "lon": -77.02373633333333, "bike_id": "a7b9ccfbbc0c175b53072091560eb3a1", "rental_uris": {"ios": "https://dc.lft.to/lastmile_qr_scan", "android": "https://dc.lft.to/lastmile_qr_scan"}, "type": "electric_scooter", "fusion_lon": 0.0}, {"is_reserved": 0, "is_disabled": 0, "fusion_lat": 0.0, "name": "53a40401035a25c96531ad8d350a62e6", "lat": 38.92147466666667, "lon": -77.028527, "bike_id": "53a40401035a25c96531ad8d350a62e6", "rental_uris": {"ios": "https://dc.lft.to/lastmile_qr_scan", "android": "https://dc.lft.to/lastmile_qr_scan"}, "type": "electric_scooter", "fusion_lon": 0.0}, {"is_reserved": 0, "is_disabled": 0, "fusion_lat": 0.0, "name": "f2f3c1958c5479c5813108dabf57caf2", "lat": 38.87601766666667, "lon": -77.0472645, "bike_id": "f2f3c1958c5479c5813108dabf57caf2", "rental_uris": {"ios": "https://dc.lft.to/lastmile_qr_scan", "android": "https://dc.lft.to/lastmile_qr_scan"}, "type": "electric_bike", "fusion_lon": 0.0}, {"is_reserved": 0, "is_disabled": 0, "fusion_lat": 0.0, "name": "631e9ab6c96bce8a0e7c7c30335c15b6", "lat": 38.883851, "lon": -77.04608466666667, "bike_id": "631e9ab6c96bce8a0e7c7c30335c15b6", "rental_uris": {"ios": "https://dc.lft.to/lastmile_qr_scan", "android": "https://dc.lft.to/lastmile_qr_scan"}, "type": "electric_scooter", "fusion_lon": 0.0}, {"is_reserved": 0, "is_disabled": 0, "fusion_lat": 0.0, "name": "68991ca233bb73be305170bceaca4c7a", "lat": 38.92177, "lon": -77.02545066666667, "bike_id": "68991ca233bb73be305170bceaca4c7a", "rental_uris": {"ios": "https://dc.lft.to/lastmile_qr_scan", "android": "https://dc.lft.to/lastmile_qr_scan"}, "type": "electric_scooter", "fusion_lon": 0.0}, {"is_reserved": 0, "is_disabled": 0, "fusion_lat": 0.0, "name": "66beffa1781014fdab151c330204f3ce", "lat": 38.9329345, "lon": -77.0231725, "bike_id": "66beffa1781014fdab151c330204f3ce", "rental_uris": {"ios": "https://dc.lft.to/lastmile_qr_scan", "android": "https://dc.lft.to/lastmile_qr_scan"}, "type": "electric_scooter", "fusion_lon": 0.0}, {"is_reserved": 0, "is_disabled": 0, "fusion_lat": 0.0, "name": "a1000f204ffa518d8615530b3a6b1e97", "lat": 38.99842266666667, "lon": -76.99678466666667, "bike_id": "a1000f204ffa518d8615530b3a6b1e97", "rental_uris": {"ios": "https://dc.lft.to/lastmile_qr_scan", "android": "https://dc.lft.to/lastmile_qr_scan"}, "type": "electric_bike", "fusion_lon": 0.0}, {"is_reserved": 0, "is_disabled": 0, "fusion_lat": 0.0, "name": "46e5824e350814cc7d8f46fe6309f18f", "lat": 38.85629216666667, "lon": -76.990766, "bike_id": "46e5824e350814cc7d8f46fe6309f18f", "rental_uris": {"ios": "https://dc.lft.to/lastmile_qr_scan", "android": "https://dc.lft.to/lastmile_qr_scan"}, "type": "electric_scooter", "fusion_lon": 0.0}, {"is_reserved": 0, "is_disabled": 0, "fusion_lat": 0.0, "name": "e518d7708422722e5241163d4feac718", "lat": 38.921935833333336, "lon": -77.04315266666667, "bike_id": "e518d7708422722e5241163d4feac718", "rental_uris": {"ios": "https://dc.lft.to/lastmile_qr_scan", "android": "https://dc.lft.to/lastmile_qr_scan"}, "type": "electric_scooter", "fusion_lon": 0.0}, {"is_reserved": 0, "is_disabled": 0, "fusion_lat": 0.0, "name": "aa6ac461ac041aa151ff7883f60547eb", "lat": 38.9182775, "lon": -77.03977, "bike_id": "aa6ac461ac041aa151ff7883f60547eb", "rental_uris": {"ios": "https://dc.lft.to/lastmile_qr_scan", "android": "https://dc.lft.to/lastmile_qr_scan"}, "type": "electric_scooter", "fusion_lon": 0.0}, {"is_reserved": 0, "is_disabled": 0, "fusion_lat": 0.0, "name": "e884539e1351888b8163eae06f0e2a45", "lat": 38.8921005, "lon": -76.96117083333333, "bike_id": "e884539e1351888b8163eae06f0e2a45", "rental_uris": {"ios": "https://dc.lft.to/lastmile_qr_scan", "android": "https://dc.lft.to/lastmile_qr_scan"}, "type": "electric_scooter", "fusion_lon": 0.0}, {"is_reserved": 0, "is_disabled": 0, "fusion_lat": 0.0, "name": "5e0af8c9c585b7dea5d7ce3351eef06c", "lat": 38.90386383333333, "lon": -77.04832833333333, "bike_id": "5e0af8c9c585b7dea5d7ce3351eef06c", "rental_uris": {"ios": "https://dc.lft.to/lastmile_qr_scan", "android": "https://dc.lft.to/lastmile_qr_scan"}, "type": "electric_scooter", "fusion_lon": 0.0}, {"is_reserved": 0, "is_disabled": 0, "fusion_lat": 0.0, "name": "a8e8ee2218a87d8ebd0d049de129c667", "lat": 38.8909355, "lon": -76.98820466666666, "bike_id": "a8e8ee2218a87d8ebd0d049de129c667", "rental_uris": {"ios": "https://dc.lft.to/lastmile_qr_scan", "android": "https://dc.lft.to/lastmile_qr_scan"}, "type": "electric_scooter", "fusion_lon": 0.0}, {"is_reserved": 0, "is_disabled": 0, "fusion_lat": 0.0, "name": "55c6cb73df8ed5f35f1da631506074a7", "lat": 38.9125855, "lon": -76.98356583333333, "bike_id": "55c6cb73df8ed5f35f1da631506074a7", "rental_uris": {"ios": "https://dc.lft.to/lastmile_qr_scan", "android": "https://dc.lft.to/lastmile_qr_scan"}, "type": "electric_scooter", "fusion_lon": 0.0}, {"is_reserved": 0, "is_disabled": 0, "fusion_lat": 0.0, "name": "6b1febbe56027daddef24fe6edc950e3", "lat": 38.886318833333334, "lon": -76.98181916666667, "bike_id": "6b1febbe56027daddef24fe6edc950e3", "rental_uris": {"ios": "https://dc.lft.to/lastmile_qr_scan", "android": "https://dc.lft.to/lastmile_qr_scan"}, "type": "electric_scooter", "fusion_lon": 0.0}, {"is_reserved": 0, "is_disabled": 0, "fusion_lat": 0.0, "name": "c0c4145b4fe2ed9ae00ce0d25187ac55", "lat": 38.918153333333336, "lon": -77.03731166666667, "bike_id": "c0c4145b4fe2ed9ae00ce0d25187ac55", "rental_uris": {"ios": "https://dc.lft.to/lastmile_qr_scan", "android": "https://dc.lft.to/lastmile_qr_scan"}, "type": "electric_scooter", "fusion_lon": 0.0}, {"is_reserved": 0, "is_disabled": 0, "fusion_lat": 0.0, "name": "54c89a958af1aeb74036fb2b67aebf4a", "lat": 38.91582866666667, "lon": -76.98412166666667, "bike_id": "54c89a958af1aeb74036fb2b67aebf4a", "rental_uris": {"ios": "https://dc.lft.to/lastmile_qr_scan", "android": "https://dc.lft.to/lastmile_qr_scan"}, "type": "electric_scooter", "fusion_lon": 0.0}, {"is_reserved": 0, "is_disabled": 0, "fusion_lat": 0.0, "name": "d91d7c9b5cf069769f5909ea743356ff", "lat": 38.91668633333333, "lon": -77.04212033333333, "bike_id": "d91d7c9b5cf069769f5909ea743356ff", "rental_uris": {"ios": "https://dc.lft.to/lastmile_qr_scan", "android": "https://dc.lft.to/lastmile_qr_scan"}, "type": "electric_scooter", "fusion_lon": 0.0}, {"is_reserved": 0, "is_disabled": 0, "fusion_lat": 0.0, "name": "77371d4cd47d47213e54f0879cb289fa", "lat": 38.92422333333333, "lon": -77.0213055, "bike_id": "77371d4cd47d47213e54f0879cb289fa", "rental_uris": {"ios": "https://dc.lft.to/lastmile_qr_scan", "android": "https://dc.lft.to/lastmile_qr_scan"}, "type": "electric_scooter", "fusion_lon": 0.0}, {"is_reserved": 0, "is_disabled": 0, "fusion_lat": 0.0, "name": "1b3d239da034d68f6f8abd4b8eab0749", "lat": 38.901340833333336, "lon": -77.0314385, "bike_id": "1b3d239da034d68f6f8abd4b8eab0749", "rental_uris": {"ios": "https://dc.lft.to/lastmile_qr_scan", "android": "https://dc.lft.to/lastmile_qr_scan"}, "type": "electric_scooter", "fusion_lon": 0.0}, {"is_reserved": 0, "is_disabled": 0, "fusion_lat": 0.0, "name": "349febce96b613d34f264e21606daea1", "lat": 38.846771833333335, "lon": -77.139451, "bike_id": "349febce96b613d34f264e21606daea1", "rental_uris": {"ios": "https://dc.lft.to/lastmile_qr_scan", "android": "https://dc.lft.to/lastmile_qr_scan"}, "type": "electric_bike", "fusion_lon": 0.0}, {"is_reserved": 0, "is_disabled": 0, "fusion_lat": 0.0, "name": "41af5723d620b34ed9c534e423099a8c", "lat": 38.87633966666667, "lon": -77.0095355, "bike_id": "41af5723d620b34ed9c534e423099a8c", "rental_uris": {"ios": "https://dc.lft.to/lastmile_qr_scan", "android": "https://dc.lft.to/lastmile_qr_scan"}, "type": "electric_scooter", "fusion_lon": 0.0}, {"is_reserved": 0, "is_disabled": 0, "fusion_lat": 0.0, "name": "1cedf2f3a7d86bba589cb31289cf4ce5", "lat": 38.91865033333333, "lon": -77.01563766666666, "bike_id": "1cedf2f3a7d86bba589cb31289cf4ce5", "rental_uris": {"ios": "https://dc.lft.to/lastmile_qr_scan", "android": "https://dc.lft.to/lastmile_qr_scan"}, "type": "electric_scooter", "fusion_lon": 0.0}, {"is_reserved": 0, "is_disabled": 0, "fusion_lat": 0.0, "name": "379dcf0841e176fee4530a8304a0e134", "lat": 38.917101, "lon": -77.032266, "bike_id": "379dcf0841e176fee4530a8304a0e134", "rental_uris": {"ios": "https://dc.lft.to/lastmile_qr_scan", "android": "https://dc.lft.to/lastmile_qr_scan"}, "type": "electric_scooter", "fusion_lon": 0.0}, {"is_reserved": 0, "is_disabled": 0, "fusion_lat": 0.0, "name": "da88d6818e14639d0a1498d2214053a5", "lat": 38.909586833333336, "lon": -77.049442, "bike_id": "da88d6818e14639d0a1498d2214053a5", "rental_uris": {"ios": "https://dc.lft.to/lastmile_qr_scan", "android": "https://dc.lft.to/lastmile_qr_scan"}, "type": "electric_scooter", "fusion_lon": 0.0}, {"is_reserved": 0, "is_disabled": 0, "fusion_lat": 0.0, "name": "ed9e03aff64960331c9494de49cd9c48", "lat": 38.9240575, "lon": -77.020118, "bike_id": "ed9e03aff64960331c9494de49cd9c48", "rental_uris": {"ios": "https://dc.lft.to/lastmile_qr_scan", "android": "https://dc.lft.to/lastmile_qr_scan"}, "type": "electric_scooter", "fusion_lon": 0.0}, {"is_reserved": 0, "is_disabled": 0, "fusion_lat": 0.0, "name": "297f0c4b54d8760563fe67e39ea734f3", "lat": 38.91112066666667, "lon": -77.03367866666666, "bike_id": "297f0c4b54d8760563fe67e39ea734f3", "rental_uris": {"ios": "https://dc.lft.to/lastmile_qr_scan", "android": "https://dc.lft.to/lastmile_qr_scan"}, "type": "electric_scooter", "fusion_lon": 0.0}, {"is_reserved": 0, "is_disabled": 0, "fusion_lat": 0.0, "name": "d4c15c6ab0b2ebecf6fecc9ecb99f6ea", "lat": 38.95752066666667, "lon": -77.022116, "bike_id": "d4c15c6ab0b2ebecf6fecc9ecb99f6ea", "rental_uris": {"ios": "https://dc.lft.to/lastmile_qr_scan", "android": "https://dc.lft.to/lastmile_qr_scan"}, "type": "electric_scooter", "fusion_lon": 0.0}, {"is_reserved": 0, "is_disabled": 0, "fusion_lat": 0.0, "name": "1a1572cff960d7688f3d413c00f39de5", "lat": 38.90463033333333, "lon": -77.05335916666667, "bike_id": "1a1572cff960d7688f3d413c00f39de5", "rental_uris": {"ios": "https://dc.lft.to/lastmile_qr_scan", "android": "https://dc.lft.to/lastmile_qr_scan"}, "type": "electric_scooter", "fusion_lon": 0.0}, {"is_reserved": 0, "is_disabled": 0, "fusion_lat": 0.0, "name": "2d8939cb9fb15f686bdc385c0caded5d", "lat": 38.8962245, "lon": -76.90746133333333, "bike_id": "2d8939cb9fb15f686bdc385c0caded5d", "rental_uris": {"ios": "https://dc.lft.to/lastmile_qr_scan", "android": "https://dc.lft.to/lastmile_qr_scan"}, "type": "electric_bike", "fusion_lon": 0.0}, {"is_reserved": 0, "is_disabled": 0, "fusion_lat": 0.0, "name": "8bec1985eaddd70ecd3f9ed1c86b73f8", "lat": 38.90170416666667, "lon": -77.0223105, "bike_id": "8bec1985eaddd70ecd3f9ed1c86b73f8", "rental_uris": {"ios": "https://dc.lft.to/lastmile_qr_scan", "android": "https://dc.lft.to/lastmile_qr_scan"}, "type": "electric_scooter", "fusion_lon": 0.0}, {"is_reserved": 0, "is_disabled": 0, "fusion_lat": 0.0, "name": "cdd63bf9d8acd43312c6d6c7b6782672", "lat": 38.90107533333333, "lon": -77.02223066666667, "bike_id": "cdd63bf9d8acd43312c6d6c7b6782672", "rental_uris": {"ios": "https://dc.lft.to/lastmile_qr_scan", "android": "https://dc.lft.to/lastmile_qr_scan"}, "type": "electric_scooter", "fusion_lon": 0.0}, {"is_reserved": 0, "is_disabled": 0, "fusion_lat": 0.0, "name": "07f5a09bacb8cd73384d0a3e8556d123", "lat": 38.88517316666667, "lon": -76.9244125, "bike_id": "07f5a09bacb8cd73384d0a3e8556d123", "rental_uris": {"ios": "https://dc.lft.to/lastmile_qr_scan", "android": "https://dc.lft.to/lastmile_qr_scan"}, "type": "electric_scooter", "fusion_lon": 0.0}, {"is_reserved": 0, "is_disabled": 0, "fusion_lat": 0.0, "name": "4188bbd6446e6e7d42b8e8c5b9c6a98c", "lat": 38.8853405, "lon": -76.98061083333333, "bike_id": "4188bbd6446e6e7d42b8e8c5b9c6a98c", "rental_uris": {"ios": "https://dc.lft.to/lastmile_qr_scan", "android": "https://dc.lft.to/lastmile_qr_scan"}, "type": "electric_scooter", "fusion_lon": 0.0}, {"is_reserved": 0, "is_disabled": 0, "fusion_lat": 0.0, "name": "605544c7852cc9c165ad379f7c230e6a", "lat": 38.9025235, "lon": -76.97699516666667, "bike_id": "605544c7852cc9c165ad379f7c230e6a", "rental_uris": {"ios": "https://dc.lft.to/lastmile_qr_scan", "android": "https://dc.lft.to/lastmile_qr_scan"}, "type": "electric_scooter", "fusion_lon": 0.0}, {"is_reserved": 0, "is_disabled": 0, "fusion_lat": 0.0, "name": "df51e247a37adae1c7b5a6498f8fcdd4", "lat": 38.935423166666666, "lon": -77.034908, "bike_id": "df51e247a37adae1c7b5a6498f8fcdd4", "rental_uris": {"ios": "https://dc.lft.to/lastmile_qr_scan", "android": "https://dc.lft.to/lastmile_qr_scan"}, "type": "electric_scooter", "fusion_lon": 0.0}, {"is_reserved": 0, "is_disabled": 0, "fusion_lat": 0.0, "name": "271b7a843e6b95772c3e84e985f05e59", "lat": 38.8986795, "lon": -77.02405083333333, "bike_id": "271b7a843e6b95772c3e84e985f05e59", "rental_uris": {"ios": "https://dc.lft.to/lastmile_qr_scan", "android": "https://dc.lft.to/lastmile_qr_scan"}, "type": "electric_scooter", "fusion_lon": 0.0}, {"is_reserved": 0, "is_disabled": 0, "fusion_lat": 0.0, "name": "82fcd42b77ef420d9bdad9e090510c5e", "lat": 38.924528, "lon": -77.039646, "bike_id": "82fcd42b77ef420d9bdad9e090510c5e", "rental_uris": {"ios": "https://dc.lft.to/lastmile_qr_scan", "android": "https://dc.lft.to/lastmile_qr_scan"}, "type": "electric_scooter", "fusion_lon": 0.0}, {"is_reserved": 0, "is_disabled": 0, "fusion_lat": 0.0, "name": "d558ba1c5c55b58d93ef241ac9332baf", "lat": 38.925430166666665, "lon": -77.03865883333333, "bike_id": "d558ba1c5c55b58d93ef241ac9332baf", "rental_uris": {"ios": "https://dc.lft.to/lastmile_qr_scan", "android": "https://dc.lft.to/lastmile_qr_scan"}, "type": "electric_scooter", "fusion_lon": 0.0}, {"is_reserved": 0, "is_disabled": 0, "fusion_lat": 0.0, "name": "0ccda51ad6df480e1b26d0874a480da6", "lat": 38.87736733333333, "lon": -77.01058566666667, "bike_id": "0ccda51ad6df480e1b26d0874a480da6", "rental_uris": {"ios": "https://dc.lft.to/lastmile_qr_scan", "android": "https://dc.lft.to/lastmile_qr_scan"}, "type": "electric_scooter", "fusion_lon": 0.0}, {"is_reserved": 0, "is_disabled": 0, "fusion_lat": 0.0, "name": "63068b9209688e38c2218f2f53693eb3", "lat": 38.90027383333333, "lon": -76.99194383333334, "bike_id": "63068b9209688e38c2218f2f53693eb3", "rental_uris": {"ios": "https://dc.lft.to/lastmile_qr_scan", "android": "https://dc.lft.to/lastmile_qr_scan"}, "type": "electric_scooter", "fusion_lon": 0.0}, {"is_reserved": 0, "is_disabled": 0, "fusion_lat": 0.0, "name": "7f34a14e19f93d888c28f805be675f2a", "lat": 38.901756166666665, "lon": -76.92948516666667, "bike_id": "7f34a14e19f93d888c28f805be675f2a", "rental_uris": {"ios": "https://dc.lft.to/lastmile_qr_scan", "android": "https://dc.lft.to/lastmile_qr_scan"}, "type": "electric_scooter", "fusion_lon": 0.0}, {"is_reserved": 0, "is_disabled": 0, "fusion_lat": 0.0, "name": "1afedcd9d2ad4c8ba3ffbd695244525b", "lat": 38.903961, "lon": -77.03797066666667, "bike_id": "1afedcd9d2ad4c8ba3ffbd695244525b", "rental_uris": {"ios": "https://dc.lft.to/lastmile_qr_scan", "android": "https://dc.lft.to/lastmile_qr_scan"}, "type": "electric_scooter", "fusion_lon": 0.0}, {"is_reserved": 0, "is_disabled": 0, "fusion_lat": 0.0, "name": "b9427ef9d44b8b900aef707e195db374", "lat": 38.9048155, "lon": -77.04866316666667, "bike_id": "b9427ef9d44b8b900aef707e195db374", "rental_uris": {"ios": "https://dc.lft.to/lastmile_qr_scan", "android": "https://dc.lft.to/lastmile_qr_scan"}, "type": "electric_scooter", "fusion_lon": 0.0}, {"is_reserved": 0, "is_disabled": 0, "fusion_lat": 0.0, "name": "63a5aaa17de603ae07a36a73d0f90f42", "lat": 38.91951566666667, "lon": -77.04785983333333, "bike_id": "63a5aaa17de603ae07a36a73d0f90f42", "rental_uris": {"ios": "https://dc.lft.to/lastmile_qr_scan", "android": "https://dc.lft.to/lastmile_qr_scan"}, "type": "electric_scooter", "fusion_lon": 0.0}, {"is_reserved": 0, "is_disabled": 0, "fusion_lat": 0.0, "name": "7eb7493e73e8d661e4c1af9deae2f88e", "lat": 38.924268166666664, "lon": -77.04044166666667, "bike_id": "7eb7493e73e8d661e4c1af9deae2f88e", "rental_uris": {"ios": "https://dc.lft.to/lastmile_qr_scan", "android": "https://dc.lft.to/lastmile_qr_scan"}, "type": "electric_scooter", "fusion_lon": 0.0}, {"is_reserved": 0, "is_disabled": 0, "fusion_lat": 0.0, "name": "3f22d5824839ad2d033209e9305b80fd", "lat": 38.916904333333335, "lon": -77.02898616666667, "bike_id": "3f22d5824839ad2d033209e9305b80fd", "rental_uris": {"ios": "https://dc.lft.to/lastmile_qr_scan", "android": "https://dc.lft.to/lastmile_qr_scan"}, "type": "electric_scooter", "fusion_lon": 0.0}, {"is_reserved": 0, "is_disabled": 0, "fusion_lat": 0.0, "name": "0fdbb1fb966853f0c3b5b3091121ca5e", "lat": 38.90957, "lon": -77.012777, "bike_id": "0fdbb1fb966853f0c3b5b3091121ca5e", "rental_uris": {"ios": "https://dc.lft.to/lastmile_qr_scan", "android": "https://dc.lft.to/lastmile_qr_scan"}, "type": "electric_scooter", "fusion_lon": 0.0}, {"is_reserved": 0, "is_disabled": 0, "fusion_lat": 0.0, "name": "340331c2e486166068703610919c30da", "lat": 38.90748283333333, "lon": -77.000948, "bike_id": "340331c2e486166068703610919c30da", "rental_uris": {"ios": "https://dc.lft.to/lastmile_qr_scan", "android": "https://dc.lft.to/lastmile_qr_scan"}, "type": "electric_scooter", "fusion_lon": 0.0}, {"is_reserved": 0, "is_disabled": 0, "fusion_lat": 0.0, "name": "c641923411e9c3ae49b16bb27e5dbbec", "lat": 38.88879333333333, "lon": -77.00174716666666, "bike_id": "c641923411e9c3ae49b16bb27e5dbbec", "rental_uris": {"ios": "https://dc.lft.to/lastmile_qr_scan", "android": "https://dc.lft.to/lastmile_qr_scan"}, "type": "electric_scooter", "fusion_lon": 0.0}, {"is_reserved": 0, "is_disabled": 0, "fusion_lat": 0.0, "name": "03d8c708411f028de76e5020b6d0ccd2", "lat": 38.91981883333333, "lon": -77.02371383333333, "bike_id": "03d8c708411f028de76e5020b6d0ccd2", "rental_uris": {"ios": "https://dc.lft.to/lastmile_qr_scan", "android": "https://dc.lft.to/lastmile_qr_scan"}, "type": "electric_scooter", "fusion_lon": 0.0}, {"is_reserved": 0, "is_disabled": 0, "fusion_lat": 0.0, "name": "6c2cb7f78cd0149e7eebf5f58063e8bb", "lat": 38.90558133333333, "lon": -77.045308, "bike_id": "6c2cb7f78cd0149e7eebf5f58063e8bb", "rental_uris": {"ios": "https://dc.lft.to/lastmile_qr_scan", "android": "https://dc.lft.to/lastmile_qr_scan"}, "type": "electric_scooter", "fusion_lon": 0.0}, {"is_reserved": 0, "is_disabled": 0, "fusion_lat": 0.0, "name": "4db660a76250280becf3b6927a76cbf8", "lat": 38.90424216666667, "lon": -77.03439316666666, "bike_id": "4db660a76250280becf3b6927a76cbf8", "rental_uris": {"ios": "https://dc.lft.to/lastmile_qr_scan", "android": "https://dc.lft.to/lastmile_qr_scan"}, "type": "electric_scooter", "fusion_lon": 0.0}, {"is_reserved": 0, "is_disabled": 0, "fusion_lat": 0.0, "name": "70006a52406ffde7f75e5b5184f828c2", "lat": 38.9072485, "lon": -77.02337466666667, "bike_id": "70006a52406ffde7f75e5b5184f828c2", "rental_uris": {"ios": "https://dc.lft.to/lastmile_qr_scan", "android": "https://dc.lft.to/lastmile_qr_scan"}, "type": "electric_scooter", "fusion_lon": 0.0}, {"is_reserved": 0, "is_disabled": 0, "fusion_lat": 0.0, "name": "b2bda6c8b905f2c55054c697b7ec4e47", "lat": 38.900656833333336, "lon": -77.0505605, "bike_id": "b2bda6c8b905f2c55054c697b7ec4e47", "rental_uris": {"ios": "https://dc.lft.to/lastmile_qr_scan", "android": "https://dc.lft.to/lastmile_qr_scan"}, "type": "electric_scooter", "fusion_lon": 0.0}, {"is_reserved": 0, "is_disabled": 0, "fusion_lat": 0.0, "name": "b94d113c5c14630f72e83ec53da320a9", "lat": 38.916978666666665, "lon": -77.03134, "bike_id": "b94d113c5c14630f72e83ec53da320a9", "rental_uris": {"ios": "https://dc.lft.to/lastmile_qr_scan", "android": "https://dc.lft.to/lastmile_qr_scan"}, "type": "electric_scooter", "fusion_lon": 0.0}, {"is_reserved": 0, "is_disabled": 0, "fusion_lat": 0.0, "name": "734c88cd841aa61a6c99296c4e559438", "lat": 38.9085665, "lon": -77.041647, "bike_id": "734c88cd841aa61a6c99296c4e559438", "rental_uris": {"ios": "https://dc.lft.to/lastmile_qr_scan", "android": "https://dc.lft.to/lastmile_qr_scan"}, "type": "electric_scooter", "fusion_lon": 0.0}, {"is_reserved": 0, "is_disabled": 0, "fusion_lat": 0.0, "name": "752da62da729934d6a25741e00780f01", "lat": 38.91252133333333, "lon": -77.02810066666666, "bike_id": "752da62da729934d6a25741e00780f01", "rental_uris": {"ios": "https://dc.lft.to/lastmile_qr_scan", "android": "https://dc.lft.to/lastmile_qr_scan"}, "type": "electric_scooter", "fusion_lon": 0.0}, {"is_reserved": 0, "is_disabled": 0, "fusion_lat": 0.0, "name": "9372ab14ed34fb51ac73e9e985e2eb41", "lat": 38.9010395, "lon": -77.03815283333333, "bike_id": "9372ab14ed34fb51ac73e9e985e2eb41", "rental_uris": {"ios": "https://dc.lft.to/lastmile_qr_scan", "android": "https://dc.lft.to/lastmile_qr_scan"}, "type": "electric_scooter", "fusion_lon": 0.0}, {"is_reserved": 0, "is_disabled": 0, "fusion_lat": 0.0, "name": "be90c9d909e4221d047971e3ee7c5473", "lat": 38.898889833333335, "lon": -77.0405745, "bike_id": "be90c9d909e4221d047971e3ee7c5473", "rental_uris": {"ios": "https://dc.lft.to/lastmile_qr_scan", "android": "https://dc.lft.to/lastmile_qr_scan"}, "type": "electric_scooter", "fusion_lon": 0.0}, {"is_reserved": 0, "is_disabled": 0, "fusion_lat": 0.0, "name": "850e8b9e77adec9bd8af110b894f57cf", "lat": 38.90697566666667, "lon": -77.027117, "bike_id": "850e8b9e77adec9bd8af110b894f57cf", "rental_uris": {"ios": "https://dc.lft.to/lastmile_qr_scan", "android": "https://dc.lft.to/lastmile_qr_scan"}, "type": "electric_scooter", "fusion_lon": 0.0}, {"is_reserved": 0, "is_disabled": 0, "fusion_lat": 0.0, "name": "7d68d82089608160bea0623e76ef0b4d", "lat": 38.88583666666667, "lon": -77.01228633333334, "bike_id": "7d68d82089608160bea0623e76ef0b4d", "rental_uris": {"ios": "https://dc.lft.to/lastmile_qr_scan", "android": "https://dc.lft.to/lastmile_qr_scan"}, "type": "electric_scooter", "fusion_lon": 0.0}, {"is_reserved": 0, "is_disabled": 0, "fusion_lat": 0.0, "name": "cc0f915f756ce105671ccb3d932944d5", "lat": 38.952552833333336, "lon": -77.02076933333333, "bike_id": "cc0f915f756ce105671ccb3d932944d5", "rental_uris": {"ios": "https://dc.lft.to/lastmile_qr_scan", "android": "https://dc.lft.to/lastmile_qr_scan"}, "type": "electric_scooter", "fusion_lon": 0.0}, {"is_reserved": 0, "is_disabled": 0, "fusion_lat": 0.0, "name": "b6124c47f987512c9bfdf2fdbf768e5a", "lat": 38.930848166666664, "lon": -77.02808666666667, "bike_id": "b6124c47f987512c9bfdf2fdbf768e5a", "rental_uris": {"ios": "https://dc.lft.to/lastmile_qr_scan", "android": "https://dc.lft.to/lastmile_qr_scan"}, "type": "electric_scooter", "fusion_lon": 0.0}, {"is_reserved": 0, "is_disabled": 0, "fusion_lat": 0.0, "name": "b34d586acb8913229b752b74c5573c8f", "lat": 38.917553166666664, "lon": -77.02119983333333, "bike_id": "b34d586acb8913229b752b74c5573c8f", "rental_uris": {"ios": "https://dc.lft.to/lastmile_qr_scan", "android": "https://dc.lft.to/lastmile_qr_scan"}, "type": "electric_scooter", "fusion_lon": 0.0}, {"is_reserved": 0, "is_disabled": 0, "fusion_lat": 0.0, "name": "cc953b7b0e66fd287b3c05c0f4d14a2a", "lat": 38.93609566666667, "lon": -77.0320285, "bike_id": "cc953b7b0e66fd287b3c05c0f4d14a2a", "rental_uris": {"ios": "https://dc.lft.to/lastmile_qr_scan", "android": "https://dc.lft.to/lastmile_qr_scan"}, "type": "electric_scooter", "fusion_lon": 0.0}, {"is_reserved": 0, "is_disabled": 0, "fusion_lat": 0.0, "name": "44c6607b3d1b45d9b6bcd0814e8fa867", "lat": 38.8991335, "lon": -77.02318, "bike_id": "44c6607b3d1b45d9b6bcd0814e8fa867", "rental_uris": {"ios": "https://dc.lft.to/lastmile_qr_scan", "android": "https://dc.lft.to/lastmile_qr_scan"}, "type": "electric_scooter", "fusion_lon": 0.0}, {"is_reserved": 0, "is_disabled": 0, "fusion_lat": 0.0, "name": "ee762ecc19baed58d558809f248fdc82", "lat": 38.89331166666667, "lon": -76.93929616666667, "bike_id": "ee762ecc19baed58d558809f248fdc82", "rental_uris": {"ios": "https://dc.lft.to/lastmile_qr_scan", "android": "https://dc.lft.to/lastmile_qr_scan"}, "type": "electric_scooter", "fusion_lon": 0.0}, {"is_reserved": 0, "is_disabled": 0, "fusion_lat": 0.0, "name": "464797cdbcab1a4749af01afd7e0c87b", "lat": 38.91554466666667, "lon": -77.0317235, "bike_id": "464797cdbcab1a4749af01afd7e0c87b", "rental_uris": {"ios": "https://dc.lft.to/lastmile_qr_scan", "android": "https://dc.lft.to/lastmile_qr_scan"}, "type": "electric_scooter", "fusion_lon": 0.0}, {"is_reserved": 0, "is_disabled": 0, "fusion_lat": 0.0, "name": "d925954f79705d575a18f425445be4f9", "lat": 38.93701633333333, "lon": -77.05600716666666, "bike_id": "d925954f79705d575a18f425445be4f9", "rental_uris": {"ios": "https://dc.lft.to/lastmile_qr_scan", "android": "https://dc.lft.to/lastmile_qr_scan"}, "type": "electric_scooter", "fusion_lon": 0.0}, {"is_reserved": 0, "is_disabled": 0, "fusion_lat": 0.0, "name": "f448b525d29b156b4ef4c3c868ed0d1d", "lat": 38.908549666666666, "lon": -76.9997295, "bike_id": "f448b525d29b156b4ef4c3c868ed0d1d", "rental_uris": {"ios": "https://dc.lft.to/lastmile_qr_scan", "android": "https://dc.lft.to/lastmile_qr_scan"}, "type": "electric_scooter", "fusion_lon": 0.0}, {"is_reserved": 0, "is_disabled": 0, "fusion_lat": 0.0, "name": "4dc312f370d85b148595f7fcf3d0df2b", "lat": 38.90962483333333, "lon": -77.03273133333333, "bike_id": "4dc312f370d85b148595f7fcf3d0df2b", "rental_uris": {"ios": "https://dc.lft.to/lastmile_qr_scan", "android": "https://dc.lft.to/lastmile_qr_scan"}, "type": "electric_scooter", "fusion_lon": 0.0}, {"is_reserved": 0, "is_disabled": 0, "fusion_lat": 0.0, "name": "a1d9106c5f56eac22ccf022aa69e8245", "lat": 38.89966583333333, "lon": -76.937653, "bike_id": "a1d9106c5f56eac22ccf022aa69e8245", "rental_uris": {"ios": "https://dc.lft.to/lastmile_qr_scan", "android": "https://dc.lft.to/lastmile_qr_scan"}, "type": "electric_scooter", "fusion_lon": 0.0}, {"is_reserved": 0, "is_disabled": 0, "fusion_lat": 0.0, "name": "44e99d5249111c4105677f8546288875", "lat": 38.83037816666667, "lon": -77.00824016666667, "bike_id": "44e99d5249111c4105677f8546288875", "rental_uris": {"ios": "https://dc.lft.to/lastmile_qr_scan", "android": "https://dc.lft.to/lastmile_qr_scan"}, "type": "electric_bike", "fusion_lon": 0.0}, {"is_reserved": 0, "is_disabled": 0, "fusion_lat": 0.0, "name": "5e11f6665198fd5e278fc47c509aa437", "lat": 38.91420083333333, "lon": -77.0317695, "bike_id": "5e11f6665198fd5e278fc47c509aa437", "rental_uris": {"ios": "https://dc.lft.to/lastmile_qr_scan", "android": "https://dc.lft.to/lastmile_qr_scan"}, "type": "electric_scooter", "fusion_lon": 0.0}, {"is_reserved": 0, "is_disabled": 0, "fusion_lat": 0.0, "name": "cfd25bfd4f49d3f3a5296184bef8a202", "lat": 38.87937383333333, "lon": -77.00774083333333, "bike_id": "cfd25bfd4f49d3f3a5296184bef8a202", "rental_uris": {"ios": "https://dc.lft.to/lastmile_qr_scan", "android": "https://dc.lft.to/lastmile_qr_scan"}, "type": "electric_scooter", "fusion_lon": 0.0}, {"is_reserved": 0, "is_disabled": 0, "fusion_lat": 0.0, "name": "caf69bfaf0811965851781536dec0709", "lat": 38.918102, "lon": -77.0380165, "bike_id": "caf69bfaf0811965851781536dec0709", "rental_uris": {"ios": "https://dc.lft.to/lastmile_qr_scan", "android": "https://dc.lft.to/lastmile_qr_scan"}, "type": "electric_scooter", "fusion_lon": 0.0}, {"is_reserved": 0, "is_disabled": 0, "fusion_lat": 0.0, "name": "fed667af175b55c89180d150fcf52eaf", "lat": 38.914167166666665, "lon": -77.03816633333334, "bike_id": "fed667af175b55c89180d150fcf52eaf", "rental_uris": {"ios": "https://dc.lft.to/lastmile_qr_scan", "android": "https://dc.lft.to/lastmile_qr_scan"}, "type": "electric_scooter", "fusion_lon": 0.0}, {"is_reserved": 0, "is_disabled": 0, "fusion_lat": 0.0, "name": "cd575e1be797a43dd6280577ad572620", "lat": 38.898353166666666, "lon": -77.0481725, "bike_id": "cd575e1be797a43dd6280577ad572620", "rental_uris": {"ios": "https://dc.lft.to/lastmile_qr_scan", "android": "https://dc.lft.to/lastmile_qr_scan"}, "type": "electric_scooter", "fusion_lon": 0.0}, {"is_reserved": 0, "is_disabled": 0, "fusion_lat": 0.0, "name": "c195374b53655cc29f7de8db3be07103", "lat": 38.899645666666665, "lon": -77.04713833333334, "bike_id": "c195374b53655cc29f7de8db3be07103", "rental_uris": {"ios": "https://dc.lft.to/lastmile_qr_scan", "android": "https://dc.lft.to/lastmile_qr_scan"}, "type": "electric_scooter", "fusion_lon": 0.0}, {"is_reserved": 0, "is_disabled": 0, "fusion_lat": 0.0, "name": "2d1a413bb4b7b79ad2a068cc9119734a", "lat": 38.9058135, "lon": -77.04515933333333, "bike_id": "2d1a413bb4b7b79ad2a068cc9119734a", "rental_uris": {"ios": "https://dc.lft.to/lastmile_qr_scan", "android": "https://dc.lft.to/lastmile_qr_scan"}, "type": "electric_scooter", "fusion_lon": 0.0}, {"is_reserved": 0, "is_disabled": 0, "fusion_lat": 0.0, "name": "bc08606d624fcdb073904b37d52daa6e", "lat": 38.937825333333336, "lon": -77.02312716666667, "bike_id": "bc08606d624fcdb073904b37d52daa6e", "rental_uris": {"ios": "https://dc.lft.to/lastmile_qr_scan", "android": "https://dc.lft.to/lastmile_qr_scan"}, "type": "electric_scooter", "fusion_lon": 0.0}, {"is_reserved": 0, "is_disabled": 0, "fusion_lat": 0.0, "name": "4cd4ccaedd36da4e5cb44f9e0135d88f", "lat": 38.898558333333334, "lon": -77.0284775, "bike_id": "4cd4ccaedd36da4e5cb44f9e0135d88f", "rental_uris": {"ios": "https://dc.lft.to/lastmile_qr_scan", "android": "https://dc.lft.to/lastmile_qr_scan"}, "type": "electric_scooter", "fusion_lon": 0.0}, {"is_reserved": 0, "is_disabled": 0, "fusion_lat": 0.0, "name": "56a5f77177b10565941b8d29c892e415", "lat": 38.90723783333333, "lon": -77.02505916666667, "bike_id": "56a5f77177b10565941b8d29c892e415", "rental_uris": {"ios": "https://dc.lft.to/lastmile_qr_scan", "android": "https://dc.lft.to/lastmile_qr_scan"}, "type": "electric_scooter", "fusion_lon": 0.0}, {"is_reserved": 0, "is_disabled": 0, "fusion_lat": 0.0, "name": "5c0818743f08bb9d8b50ef41d076d692", "lat": 38.8463115, "lon": -77.069343, "bike_id": "5c0818743f08bb9d8b50ef41d076d692", "rental_uris": {"ios": "https://dc.lft.to/lastmile_qr_scan", "android": "https://dc.lft.to/lastmile_qr_scan"}, "type": "electric_bike", "fusion_lon": 0.0}, {"is_reserved": 0, "is_disabled": 0, "fusion_lat": 0.0, "name": "44a7d7a2eff1076d57618c9242e50b66", "lat": 38.895771333333336, "lon": -77.04153916666667, "bike_id": "44a7d7a2eff1076d57618c9242e50b66", "rental_uris": {"ios": "https://dc.lft.to/lastmile_qr_scan", "android": "https://dc.lft.to/lastmile_qr_scan"}, "type": "electric_scooter", "fusion_lon": 0.0}, {"is_reserved": 0, "is_disabled": 0, "fusion_lat": 0.0, "name": "714a1da8af07ee2a2688c16a6972d3e0", "lat": 38.923919166666664, "lon": -77.0585745, "bike_id": "714a1da8af07ee2a2688c16a6972d3e0", "rental_uris": {"ios": "https://dc.lft.to/lastmile_qr_scan", "android": "https://dc.lft.to/lastmile_qr_scan"}, "type": "electric_bike", "fusion_lon": 0.0}, {"is_reserved": 0, "is_disabled": 0, "fusion_lat": 0.0, "name": "d1663981781ff39b3f1647f41e43a20b", "lat": 38.9072265, "lon": -77.0150505, "bike_id": "d1663981781ff39b3f1647f41e43a20b", "rental_uris": {"ios": "https://dc.lft.to/lastmile_qr_scan", "android": "https://dc.lft.to/lastmile_qr_scan"}, "type": "electric_scooter", "fusion_lon": 0.0}, {"is_reserved": 0, "is_disabled": 0, "fusion_lat": 0.0, "name": "ebbebdb25fa973ef1a6e567c3adc80e1", "lat": 38.90348616666667, "lon": -77.0111, "bike_id": "ebbebdb25fa973ef1a6e567c3adc80e1", "rental_uris": {"ios": "https://dc.lft.to/lastmile_qr_scan", "android": "https://dc.lft.to/lastmile_qr_scan"}, "type": "electric_scooter", "fusion_lon": 0.0}, {"is_reserved": 0, "is_disabled": 0, "fusion_lat": 0.0, "name": "461fed3d1b27bce58f58f6895e9268ba", "lat": 38.909569, "lon": -77.02386566666667, "bike_id": "461fed3d1b27bce58f58f6895e9268ba", "rental_uris": {"ios": "https://dc.lft.to/lastmile_qr_scan", "android": "https://dc.lft.to/lastmile_qr_scan"}, "type": "electric_scooter", "fusion_lon": 0.0}, {"is_reserved": 0, "is_disabled": 0, "fusion_lat": 0.0, "name": "2c1397c78f757d28f4b1dfcd0f8b06fb", "lat": 38.927877333333335, "lon": -77.03639966666667, "bike_id": "2c1397c78f757d28f4b1dfcd0f8b06fb", "rental_uris": {"ios": "https://dc.lft.to/lastmile_qr_scan", "android": "https://dc.lft.to/lastmile_qr_scan"}, "type": "electric_scooter", "fusion_lon": 0.0}, {"is_reserved": 0, "is_disabled": 0, "fusion_lat": 0.0, "name": "b8a70e8ecade7f417f0cee05cf7d8684", "lat": 38.90246483333333, "lon": -77.0517005, "bike_id": "b8a70e8ecade7f417f0cee05cf7d8684", "rental_uris": {"ios": "https://dc.lft.to/lastmile_qr_scan", "android": "https://dc.lft.to/lastmile_qr_scan"}, "type": "electric_scooter", "fusion_lon": 0.0}, {"is_reserved": 0, "is_disabled": 0, "fusion_lat": 0.0, "name": "d7cd3e1a30ceecf27d7dd1a6db3f5552", "lat": 38.90052133333333, "lon": -77.03467416666666, "bike_id": "d7cd3e1a30ceecf27d7dd1a6db3f5552", "rental_uris": {"ios": "https://dc.lft.to/lastmile_qr_scan", "android": "https://dc.lft.to/lastmile_qr_scan"}, "type": "electric_scooter", "fusion_lon": 0.0}, {"is_reserved": 0, "is_disabled": 0, "fusion_lat": 0.0, "name": "a546ea4ffe24ac89d51f40f050eaf7d4", "lat": 38.83916216666667, "lon": -76.998363, "bike_id": "a546ea4ffe24ac89d51f40f050eaf7d4", "rental_uris": {"ios": "https://dc.lft.to/lastmile_qr_scan", "android": "https://dc.lft.to/lastmile_qr_scan"}, "type": "electric_bike", "fusion_lon": 0.0}, {"is_reserved": 0, "is_disabled": 0, "fusion_lat": 0.0, "name": "aefc1070a9c55c569a203ed66b62462c", "lat": 38.93111283333333, "lon": -77.023808, "bike_id": "aefc1070a9c55c569a203ed66b62462c", "rental_uris": {"ios": "https://dc.lft.to/lastmile_qr_scan", "android": "https://dc.lft.to/lastmile_qr_scan"}, "type": "electric_scooter", "fusion_lon": 0.0}, {"is_reserved": 0, "is_disabled": 0, "fusion_lat": 0.0, "name": "4aed5822592f9af87b7c549d93bc5b28", "lat": 38.90542033333333, "lon": -77.0569575, "bike_id": "4aed5822592f9af87b7c549d93bc5b28", "rental_uris": {"ios": "https://dc.lft.to/lastmile_qr_scan", "android": "https://dc.lft.to/lastmile_qr_scan"}, "type": "electric_scooter", "fusion_lon": 0.0}, {"is_reserved": 0, "is_disabled": 0, "fusion_lat": 0.0, "name": "a0f013ee6ead7f656cae6f2c4acd85cc", "lat": 38.940358, "lon": -77.08395966666667, "bike_id": "a0f013ee6ead7f656cae6f2c4acd85cc", "rental_uris": {"ios": "https://dc.lft.to/lastmile_qr_scan", "android": "https://dc.lft.to/lastmile_qr_scan"}, "type": "electric_scooter", "fusion_lon": 0.0}, {"is_reserved": 0, "is_disabled": 0, "fusion_lat": 0.0, "name": "0dfdd98aa7cad4c7d68dfe4c11f3dcc1", "lat": 38.871633, "lon": -77.088184, "bike_id": "0dfdd98aa7cad4c7d68dfe4c11f3dcc1", "rental_uris": {"ios": "https://dc.lft.to/lastmile_qr_scan", "android": "https://dc.lft.to/lastmile_qr_scan"}, "type": "electric_bike", "fusion_lon": 0.0}, {"is_reserved": 0, "is_disabled": 0, "fusion_lat": 0.0, "name": "57d34b2c1d51d3fde91d0b0fb494b126", "lat": 38.9083935, "lon": -77.04000633333334, "bike_id": "57d34b2c1d51d3fde91d0b0fb494b126", "rental_uris": {"ios": "https://dc.lft.to/lastmile_qr_scan", "android": "https://dc.lft.to/lastmile_qr_scan"}, "type": "electric_scooter", "fusion_lon": 0.0}, {"is_reserved": 0, "is_disabled": 0, "fusion_lat": 0.0, "name": "c67e346b5ae25ac69eb4d18ea221bbf8", "lat": 38.88123083333333, "lon": -77.01682383333333, "bike_id": "c67e346b5ae25ac69eb4d18ea221bbf8", "rental_uris": {"ios": "https://dc.lft.to/lastmile_qr_scan", "android": "https://dc.lft.to/lastmile_qr_scan"}, "type": "electric_bike", "fusion_lon": 0.0}, {"is_reserved": 0, "is_disabled": 0, "fusion_lat": 0.0, "name": "d5896189b5d9322342d55ade08ed36ed", "lat": 38.90335916666667, "lon": -77.02599883333333, "bike_id": "d5896189b5d9322342d55ade08ed36ed", "rental_uris": {"ios": "https://dc.lft.to/lastmile_qr_scan", "android": "https://dc.lft.to/lastmile_qr_scan"}, "type": "electric_scooter", "fusion_lon": 0.0}, {"is_reserved": 0, "is_disabled": 0, "fusion_lat": 0.0, "name": "518deef14346351d1a52b04e5b495a3e", "lat": 38.8747, "lon": -77.0053085, "bike_id": "518deef14346351d1a52b04e5b495a3e", "rental_uris": {"ios": "https://dc.lft.to/lastmile_qr_scan", "android": "https://dc.lft.to/lastmile_qr_scan"}, "type": "electric_scooter", "fusion_lon": 0.0}, {"is_reserved": 0, "is_disabled": 0, "fusion_lat": 0.0, "name": "d721f12119342a7606cd1749deb182da", "lat": 38.876251333333336, "lon": -77.00584983333333, "bike_id": "d721f12119342a7606cd1749deb182da", "rental_uris": {"ios": "https://dc.lft.to/lastmile_qr_scan", "android": "https://dc.lft.to/lastmile_qr_scan"}, "type": "electric_scooter", "fusion_lon": 0.0}, {"is_reserved": 0, "is_disabled": 0, "fusion_lat": 0.0, "name": "769bfeb7a0f43835feb4d0d92fb2e087", "lat": 38.87658033333334, "lon": -77.00745316666666, "bike_id": "769bfeb7a0f43835feb4d0d92fb2e087", "rental_uris": {"ios": "https://dc.lft.to/lastmile_qr_scan", "android": "https://dc.lft.to/lastmile_qr_scan"}, "type": "electric_scooter", "fusion_lon": 0.0}, {"is_reserved": 0, "is_disabled": 0, "fusion_lat": 0.0, "name": "3a952b941aadcf5e7811eddaaf46da4c", "lat": 38.918715666666664, "lon": -77.03548633333334, "bike_id": "3a952b941aadcf5e7811eddaaf46da4c", "rental_uris": {"ios": "https://dc.lft.to/lastmile_qr_scan", "android": "https://dc.lft.to/lastmile_qr_scan"}, "type": "electric_scooter", "fusion_lon": 0.0}, {"is_reserved": 0, "is_disabled": 0, "fusion_lat": 0.0, "name": "e743ac963e660266311ad627b78b2481", "lat": 38.902426166666665, "lon": -77.00205783333334, "bike_id": "e743ac963e660266311ad627b78b2481", "rental_uris": {"ios": "https://dc.lft.to/lastmile_qr_scan", "android": "https://dc.lft.to/lastmile_qr_scan"}, "type": "electric_scooter", "fusion_lon": 0.0}, {"is_reserved": 0, "is_disabled": 0, "fusion_lat": 0.0, "name": "39ac00f55ac87234208323280ec4d799", "lat": 38.88726666666667, "lon": -76.9961145, "bike_id": "39ac00f55ac87234208323280ec4d799", "rental_uris": {"ios": "https://dc.lft.to/lastmile_qr_scan", "android": "https://dc.lft.to/lastmile_qr_scan"}, "type": "electric_scooter", "fusion_lon": 0.0}, {"is_reserved": 0, "is_disabled": 0, "fusion_lat": 0.0, "name": "56728d9fc9fcf3544c82c2417613a4c2", "lat": 38.93590616666667, "lon": -77.07429183333333, "bike_id": "56728d9fc9fcf3544c82c2417613a4c2", "rental_uris": {"ios": "https://dc.lft.to/lastmile_qr_scan", "android": "https://dc.lft.to/lastmile_qr_scan"}, "type": "electric_scooter", "fusion_lon": 0.0}, {"is_reserved": 0, "is_disabled": 0, "fusion_lat": 0.0, "name": "03ec5e9a2cc46157d9088780b1a0dd51", "lat": 38.902203666666665, "lon": -77.04675833333333, "bike_id": "03ec5e9a2cc46157d9088780b1a0dd51", "rental_uris": {"ios": "https://dc.lft.to/lastmile_qr_scan", "android": "https://dc.lft.to/lastmile_qr_scan"}, "type": "electric_scooter", "fusion_lon": 0.0}, {"is_reserved": 0, "is_disabled": 0, "fusion_lat": 0.0, "name": "10a1253c42cb462d0cfdfcc183e6f942", "lat": 38.96684166666667, "lon": -77.03403683333333, "bike_id": "10a1253c42cb462d0cfdfcc183e6f942", "rental_uris": {"ios": "https://dc.lft.to/lastmile_qr_scan", "android": "https://dc.lft.to/lastmile_qr_scan"}, "type": "electric_scooter", "fusion_lon": 0.0}, {"is_reserved": 0, "is_disabled": 0, "fusion_lat": 0.0, "name": "3d40fab0e348ced2ebdc110ec7e06043", "lat": 38.89718166666667, "lon": -77.00797116666666, "bike_id": "3d40fab0e348ced2ebdc110ec7e06043", "rental_uris": {"ios": "https://dc.lft.to/lastmile_qr_scan", "android": "https://dc.lft.to/lastmile_qr_scan"}, "type": "electric_scooter", "fusion_lon": 0.0}, {"is_reserved": 0, "is_disabled": 0, "fusion_lat": 0.0, "name": "25e9fc4a190a55deef26f07e8ee4fa81", "lat": 38.877678833333334, "lon": -77.01873433333333, "bike_id": "25e9fc4a190a55deef26f07e8ee4fa81", "rental_uris": {"ios": "https://dc.lft.to/lastmile_qr_scan", "android": "https://dc.lft.to/lastmile_qr_scan"}, "type": "electric_scooter", "fusion_lon": 0.0}, {"is_reserved": 0, "is_disabled": 0, "fusion_lat": 0.0, "name": "c8b4a84d971ab9a075deb89aadcb6c49", "lat": 38.917117833333336, "lon": -77.037241, "bike_id": "c8b4a84d971ab9a075deb89aadcb6c49", "rental_uris": {"ios": "https://dc.lft.to/lastmile_qr_scan", "android": "https://dc.lft.to/lastmile_qr_scan"}, "type": "electric_scooter", "fusion_lon": 0.0}, {"is_reserved": 0, "is_disabled": 0, "fusion_lat": 0.0, "name": "d08ed041c2644a070cafa6251f59708b", "lat": 38.967825500000004, "lon": -76.996467, "bike_id": "d08ed041c2644a070cafa6251f59708b", "rental_uris": {"ios": "https://dc.lft.to/lastmile_qr_scan", "android": "https://dc.lft.to/lastmile_qr_scan"}, "type": "electric_bike", "fusion_lon": 0.0}, {"is_reserved": 0, "is_disabled": 0, "fusion_lat": 0.0, "name": "cb320e5b2491efeafd77a369c06b93f5", "lat": 38.919609333333334, "lon": -77.02592433333334, "bike_id": "cb320e5b2491efeafd77a369c06b93f5", "rental_uris": {"ios": "https://dc.lft.to/lastmile_qr_scan", "android": "https://dc.lft.to/lastmile_qr_scan"}, "type": "electric_scooter", "fusion_lon": 0.0}, {"is_reserved": 0, "is_disabled": 0, "fusion_lat": 0.0, "name": "74e20e75e78c2992436f9cb995bf3e49", "lat": 38.923754333333335, "lon": -77.07284883333334, "bike_id": "74e20e75e78c2992436f9cb995bf3e49", "rental_uris": {"ios": "https://dc.lft.to/lastmile_qr_scan", "android": "https://dc.lft.to/lastmile_qr_scan"}, "type": "electric_scooter", "fusion_lon": 0.0}, {"is_reserved": 0, "is_disabled": 0, "fusion_lat": 0.0, "name": "d382f1d12957dd702f212f591846be78", "lat": 38.915806833333335, "lon": -77.02012066666667, "bike_id": "d382f1d12957dd702f212f591846be78", "rental_uris": {"ios": "https://dc.lft.to/lastmile_qr_scan", "android": "https://dc.lft.to/lastmile_qr_scan"}, "type": "electric_scooter", "fusion_lon": 0.0}, {"is_reserved": 0, "is_disabled": 0, "fusion_lat": 0.0, "name": "7e5d450600b17a7fc5b8c1471556424c", "lat": 38.901297666666665, "lon": -77.039824, "bike_id": "7e5d450600b17a7fc5b8c1471556424c", "rental_uris": {"ios": "https://dc.lft.to/lastmile_qr_scan", "android": "https://dc.lft.to/lastmile_qr_scan"}, "type": "electric_bike", "fusion_lon": 0.0}, {"is_reserved": 0, "is_disabled": 0, "fusion_lat": 0.0, "name": "19829f32349e5cbe778d3da6af626593", "lat": 38.8870405, "lon": -77.000674, "bike_id": "19829f32349e5cbe778d3da6af626593", "rental_uris": {"ios": "https://dc.lft.to/lastmile_qr_scan", "android": "https://dc.lft.to/lastmile_qr_scan"}, "type": "electric_scooter", "fusion_lon": 0.0}, {"is_reserved": 0, "is_disabled": 0, "fusion_lat": 0.0, "name": "662d6d322974085a340d6489f2bc6732", "lat": 38.897161, "lon": -77.01315, "bike_id": "662d6d322974085a340d6489f2bc6732", "rental_uris": {"ios": "https://dc.lft.to/lastmile_qr_scan", "android": "https://dc.lft.to/lastmile_qr_scan"}, "type": "electric_scooter", "fusion_lon": 0.0}, {"is_reserved": 0, "is_disabled": 0, "fusion_lat": 0.0, "name": "f48ee99bdfb776b1b17f2d22ce86313b", "lat": 38.9154045, "lon": -77.04424583333333, "bike_id": "f48ee99bdfb776b1b17f2d22ce86313b", "rental_uris": {"ios": "https://dc.lft.to/lastmile_qr_scan", "android": "https://dc.lft.to/lastmile_qr_scan"}, "type": "electric_scooter", "fusion_lon": 0.0}, {"is_reserved": 0, "is_disabled": 0, "fusion_lat": 0.0, "name": "42167f61c685be367d687a67c9ff7c10", "lat": 38.932269, "lon": -77.0297075, "bike_id": "42167f61c685be367d687a67c9ff7c10", "rental_uris": {"ios": "https://dc.lft.to/lastmile_qr_scan", "android": "https://dc.lft.to/lastmile_qr_scan"}, "type": "electric_scooter", "fusion_lon": 0.0}, {"is_reserved": 0, "is_disabled": 0, "fusion_lat": 0.0, "name": "fa5ef6402132c409f9f88102a7e48ca0", "lat": 38.9320335, "lon": -77.0187225, "bike_id": "fa5ef6402132c409f9f88102a7e48ca0", "rental_uris": {"ios": "https://dc.lft.to/lastmile_qr_scan", "android": "https://dc.lft.to/lastmile_qr_scan"}, "type": "electric_scooter", "fusion_lon": 0.0}, {"is_reserved": 0, "is_disabled": 0, "fusion_lat": 0.0, "name": "8b056c05ab82cb2d8b3fe5a390a7596b", "lat": 38.924509, "lon": -77.02039083333334, "bike_id": "8b056c05ab82cb2d8b3fe5a390a7596b", "rental_uris": {"ios": "https://dc.lft.to/lastmile_qr_scan", "android": "https://dc.lft.to/lastmile_qr_scan"}, "type": "electric_scooter", "fusion_lon": 0.0}, {"is_reserved": 0, "is_disabled": 0, "fusion_lat": 0.0, "name": "3b1f48798be3d5684e02a5337a73e716", "lat": 38.91209583333333, "lon": -77.03845633333333, "bike_id": "3b1f48798be3d5684e02a5337a73e716", "rental_uris": {"ios": "https://dc.lft.to/lastmile_qr_scan", "android": "https://dc.lft.to/lastmile_qr_scan"}, "type": "electric_scooter", "fusion_lon": 0.0}, {"is_reserved": 0, "is_disabled": 0, "fusion_lat": 0.0, "name": "b414183b079adef65938f406b85fc7d9", "lat": 38.9021765, "lon": -77.0480935, "bike_id": "b414183b079adef65938f406b85fc7d9", "rental_uris": {"ios": "https://dc.lft.to/lastmile_qr_scan", "android": "https://dc.lft.to/lastmile_qr_scan"}, "type": "electric_scooter", "fusion_lon": 0.0}, {"is_reserved": 0, "is_disabled": 0, "fusion_lat": 0.0, "name": "551f63b87c2baee5648b1a168cc841ad", "lat": 38.89608366666667, "lon": -77.010915, "bike_id": "551f63b87c2baee5648b1a168cc841ad", "rental_uris": {"ios": "https://dc.lft.to/lastmile_qr_scan", "android": "https://dc.lft.to/lastmile_qr_scan"}, "type": "electric_scooter", "fusion_lon": 0.0}, {"is_reserved": 0, "is_disabled": 0, "fusion_lat": 0.0, "name": "35ae1d4f340f5d74f650b891ab3acc84", "lat": 38.89903, "lon": -77.00742816666667, "bike_id": "35ae1d4f340f5d74f650b891ab3acc84", "rental_uris": {"ios": "https://dc.lft.to/lastmile_qr_scan", "android": "https://dc.lft.to/lastmile_qr_scan"}, "type": "electric_scooter", "fusion_lon": 0.0}, {"is_reserved": 0, "is_disabled": 0, "fusion_lat": 0.0, "name": "076f852597e004c757ed0b730e0b18f2", "lat": 38.90423716666667, "lon": -77.02724633333334, "bike_id": "076f852597e004c757ed0b730e0b18f2", "rental_uris": {"ios": "https://dc.lft.to/lastmile_qr_scan", "android": "https://dc.lft.to/lastmile_qr_scan"}, "type": "electric_scooter", "fusion_lon": 0.0}, {"is_reserved": 0, "is_disabled": 0, "fusion_lat": 0.0, "name": "61c0d6a03b6e966a68a623532be4325b", "lat": 38.902637666666664, "lon": -77.020425, "bike_id": "61c0d6a03b6e966a68a623532be4325b", "rental_uris": {"ios": "https://dc.lft.to/lastmile_qr_scan", "android": "https://dc.lft.to/lastmile_qr_scan"}, "type": "electric_scooter", "fusion_lon": 0.0}, {"is_reserved": 0, "is_disabled": 0, "fusion_lat": 0.0, "name": "eaf875fe0b78feac3685ce2315bc1021", "lat": 38.90973833333334, "lon": -77.0455665, "bike_id": "eaf875fe0b78feac3685ce2315bc1021", "rental_uris": {"ios": "https://dc.lft.to/lastmile_qr_scan", "android": "https://dc.lft.to/lastmile_qr_scan"}, "type": "electric_scooter", "fusion_lon": 0.0}, {"is_reserved": 0, "is_disabled": 0, "fusion_lat": 0.0, "name": "f9c3eabc4072fc6e6e696164bae7dbc6", "lat": 38.900328333333334, "lon": -77.02188366666667, "bike_id": "f9c3eabc4072fc6e6e696164bae7dbc6", "rental_uris": {"ios": "https://dc.lft.to/lastmile_qr_scan", "android": "https://dc.lft.to/lastmile_qr_scan"}, "type": "electric_scooter", "fusion_lon": 0.0}, {"is_reserved": 0, "is_disabled": 0, "fusion_lat": 0.0, "name": "9f7980558f91053db964fd740c55a5f3", "lat": 38.9094605, "lon": -76.93593483333333, "bike_id": "9f7980558f91053db964fd740c55a5f3", "rental_uris": {"ios": "https://dc.lft.to/lastmile_qr_scan", "android": "https://dc.lft.to/lastmile_qr_scan"}, "type": "electric_scooter", "fusion_lon": 0.0}, {"is_reserved": 0, "is_disabled": 0, "fusion_lat": 0.0, "name": "c6ad987839aa0377bf37b66b31d8464f", "lat": 38.912662, "lon": -77.04086283333334, "bike_id": "c6ad987839aa0377bf37b66b31d8464f", "rental_uris": {"ios": "https://dc.lft.to/lastmile_qr_scan", "android": "https://dc.lft.to/lastmile_qr_scan"}, "type": "electric_scooter", "fusion_lon": 0.0}, {"is_reserved": 0, "is_disabled": 0, "fusion_lat": 0.0, "name": "caa57b53fc6257b8fa42cefe833b0958", "lat": 38.93163466666667, "lon": -77.056105, "bike_id": "caa57b53fc6257b8fa42cefe833b0958", "rental_uris": {"ios": "https://dc.lft.to/lastmile_qr_scan", "android": "https://dc.lft.to/lastmile_qr_scan"}, "type": "electric_scooter", "fusion_lon": 0.0}, {"is_reserved": 0, "is_disabled": 0, "fusion_lat": 0.0, "name": "1ca3a4e680bff16a628bd62f3498b652", "lat": 38.890058, "lon": -76.93746033333333, "bike_id": "1ca3a4e680bff16a628bd62f3498b652", "rental_uris": {"ios": "https://dc.lft.to/lastmile_qr_scan", "android": "https://dc.lft.to/lastmile_qr_scan"}, "type": "electric_scooter", "fusion_lon": 0.0}, {"is_reserved": 0, "is_disabled": 0, "fusion_lat": 0.0, "name": "2a1d9d4a7ce14d93103e082c848d662d", "lat": 38.91707616666667, "lon": -77.03899683333333, "bike_id": "2a1d9d4a7ce14d93103e082c848d662d", "rental_uris": {"ios": "https://dc.lft.to/lastmile_qr_scan", "android": "https://dc.lft.to/lastmile_qr_scan"}, "type": "electric_scooter", "fusion_lon": 0.0}, {"is_reserved": 0, "is_disabled": 0, "fusion_lat": 0.0, "name": "6cd79d89658df1a89ab2d03191294ec8", "lat": 38.92681866666667, "lon": -77.0087845, "bike_id": "6cd79d89658df1a89ab2d03191294ec8", "rental_uris": {"ios": "https://dc.lft.to/lastmile_qr_scan", "android": "https://dc.lft.to/lastmile_qr_scan"}, "type": "electric_scooter", "fusion_lon": 0.0}, {"is_reserved": 0, "is_disabled": 0, "fusion_lat": 0.0, "name": "33e7b89cf022ee5985d5c77b851d4cae", "lat": 38.906029, "lon": -77.02605533333333, "bike_id": "33e7b89cf022ee5985d5c77b851d4cae", "rental_uris": {"ios": "https://dc.lft.to/lastmile_qr_scan", "android": "https://dc.lft.to/lastmile_qr_scan"}, "type": "electric_scooter", "fusion_lon": 0.0}, {"is_reserved": 0, "is_disabled": 0, "fusion_lat": 0.0, "name": "0c185d0a3f98d4a1cd285962321a7547", "lat": 38.89710133333333, "lon": -77.04881216666666, "bike_id": "0c185d0a3f98d4a1cd285962321a7547", "rental_uris": {"ios": "https://dc.lft.to/lastmile_qr_scan", "android": "https://dc.lft.to/lastmile_qr_scan"}, "type": "electric_scooter", "fusion_lon": 0.0}, {"is_reserved": 0, "is_disabled": 0, "fusion_lat": 0.0, "name": "0ec16a8cc18ac69ae73312b3e85bec28", "lat": 39.084377333333336, "lon": -76.9514125, "bike_id": "0ec16a8cc18ac69ae73312b3e85bec28", "rental_uris": {"ios": "https://dc.lft.to/lastmile_qr_scan", "android": "https://dc.lft.to/lastmile_qr_scan"}, "type": "electric_bike", "fusion_lon": 0.0}, {"is_reserved": 0, "is_disabled": 0, "fusion_lat": 0.0, "name": "8cac114c048a68f242c54cb61a2b7875", "lat": 38.90259133333333, "lon": -76.97997933333333, "bike_id": "8cac114c048a68f242c54cb61a2b7875", "rental_uris": {"ios": "https://dc.lft.to/lastmile_qr_scan", "android": "https://dc.lft.to/lastmile_qr_scan"}, "type": "electric_scooter", "fusion_lon": 0.0}, {"is_reserved": 0, "is_disabled": 0, "fusion_lat": 0.0, "name": "ea8f3ede25aad7a542a4b9647d646978", "lat": 38.94066516666667, "lon": -77.0039445, "bike_id": "ea8f3ede25aad7a542a4b9647d646978", "rental_uris": {"ios": "https://dc.lft.to/lastmile_qr_scan", "android": "https://dc.lft.to/lastmile_qr_scan"}, "type": "electric_scooter", "fusion_lon": 0.0}, {"is_reserved": 0, "is_disabled": 0, "fusion_lat": 0.0, "name": "63bd9822d09412e491ab47d7be5dc24f", "lat": 38.907682333333334, "lon": -77.02408916666667, "bike_id": "63bd9822d09412e491ab47d7be5dc24f", "rental_uris": {"ios": "https://dc.lft.to/lastmile_qr_scan", "android": "https://dc.lft.to/lastmile_qr_scan"}, "type": "electric_scooter", "fusion_lon": 0.0}, {"is_reserved": 0, "is_disabled": 0, "fusion_lat": 0.0, "name": "b1b2f51e1293be0d672374ca3a1d7730", "lat": 38.900323, "lon": -76.99592866666667, "bike_id": "b1b2f51e1293be0d672374ca3a1d7730", "rental_uris": {"ios": "https://dc.lft.to/lastmile_qr_scan", "android": "https://dc.lft.to/lastmile_qr_scan"}, "type": "electric_scooter", "fusion_lon": 0.0}, {"is_reserved": 0, "is_disabled": 0, "fusion_lat": 0.0, "name": "81480a3b146f197017b07a220727fd74", "lat": 38.878884, "lon": -76.96545816666666, "bike_id": "81480a3b146f197017b07a220727fd74", "rental_uris": {"ios": "https://dc.lft.to/lastmile_qr_scan", "android": "https://dc.lft.to/lastmile_qr_scan"}, "type": "electric_scooter", "fusion_lon": 0.0}, {"is_reserved": 0, "is_disabled": 0, "fusion_lat": 0.0, "name": "aad3486f254e261bde4537931b9a1a6b", "lat": 38.880079333333335, "lon": -76.9983405, "bike_id": "aad3486f254e261bde4537931b9a1a6b", "rental_uris": {"ios": "https://dc.lft.to/lastmile_qr_scan", "android": "https://dc.lft.to/lastmile_qr_scan"}, "type": "electric_scooter", "fusion_lon": 0.0}, {"is_reserved": 0, "is_disabled": 0, "fusion_lat": 0.0, "name": "e58626d96b0c6a01fce9520acbd03947", "lat": 38.89931266666667, "lon": -76.9374745, "bike_id": "e58626d96b0c6a01fce9520acbd03947", "rental_uris": {"ios": "https://dc.lft.to/lastmile_qr_scan", "android": "https://dc.lft.to/lastmile_qr_scan"}, "type": "electric_scooter", "fusion_lon": 0.0}, {"is_reserved": 0, "is_disabled": 0, "fusion_lat": 0.0, "name": "0b726f455d63db2a4d1ad311c7fe8f75", "lat": 39.03472933333333, "lon": -77.04105716666666, "bike_id": "0b726f455d63db2a4d1ad311c7fe8f75", "rental_uris": {"ios": "https://dc.lft.to/lastmile_qr_scan", "android": "https://dc.lft.to/lastmile_qr_scan"}, "type": "electric_bike", "fusion_lon": 0.0}, {"is_reserved": 0, "is_disabled": 0, "fusion_lat": 0.0, "name": "65a65c31abfea504cd759a7d7774e1a1", "lat": 38.92173733333333, "lon": -77.0383835, "bike_id": "65a65c31abfea504cd759a7d7774e1a1", "rental_uris": {"ios": "https://dc.lft.to/lastmile_qr_scan", "android": "https://dc.lft.to/lastmile_qr_scan"}, "type": "electric_scooter", "fusion_lon": 0.0}, {"is_reserved": 0, "is_disabled": 0, "fusion_lat": 0.0, "name": "70c6ffb52fcc03ffb1a056173b897fc4", "lat": 38.909988, "lon": -77.03833416666667, "bike_id": "70c6ffb52fcc03ffb1a056173b897fc4", "rental_uris": {"ios": "https://dc.lft.to/lastmile_qr_scan", "android": "https://dc.lft.to/lastmile_qr_scan"}, "type": "electric_scooter", "fusion_lon": 0.0}, {"is_reserved": 0, "is_disabled": 0, "fusion_lat": 0.0, "name": "dfdf33fbd06b6160cfc386af8a89f4ad", "lat": 38.9285725, "lon": -77.01397166666666, "bike_id": "dfdf33fbd06b6160cfc386af8a89f4ad", "rental_uris": {"ios": "https://dc.lft.to/lastmile_qr_scan", "android": "https://dc.lft.to/lastmile_qr_scan"}, "type": "electric_scooter", "fusion_lon": 0.0}, {"is_reserved": 0, "is_disabled": 0, "fusion_lat": 0.0, "name": "8719a45069280c4c5c95bcd0bc57e47a", "lat": 38.8728915, "lon": -77.00983833333333, "bike_id": "8719a45069280c4c5c95bcd0bc57e47a", "rental_uris": {"ios": "https://dc.lft.to/lastmile_qr_scan", "android": "https://dc.lft.to/lastmile_qr_scan"}, "type": "electric_scooter", "fusion_lon": 0.0}, {"is_reserved": 0, "is_disabled": 0, "fusion_lat": 0.0, "name": "984353cb4e7d2badf12d1b1d19e7c671", "lat": 38.94482383333333, "lon": -77.06407116666666, "bike_id": "984353cb4e7d2badf12d1b1d19e7c671", "rental_uris": {"ios": "https://dc.lft.to/lastmile_qr_scan", "android": "https://dc.lft.to/lastmile_qr_scan"}, "type": "electric_scooter", "fusion_lon": 0.0}, {"is_reserved": 0, "is_disabled": 0, "fusion_lat": 0.0, "name": "0fbcd59a26b4c508d7183397b73b7a27", "lat": 38.930074166666664, "lon": -77.02118283333333, "bike_id": "0fbcd59a26b4c508d7183397b73b7a27", "rental_uris": {"ios": "https://dc.lft.to/lastmile_qr_scan", "android": "https://dc.lft.to/lastmile_qr_scan"}, "type": "electric_scooter", "fusion_lon": 0.0}, {"is_reserved": 0, "is_disabled": 0, "fusion_lat": 0.0, "name": "332a2e96ddfb5bc555a24de79f99c4eb", "lat": 38.90187783333333, "lon": -76.9767665, "bike_id": "332a2e96ddfb5bc555a24de79f99c4eb", "rental_uris": {"ios": "https://dc.lft.to/lastmile_qr_scan", "android": "https://dc.lft.to/lastmile_qr_scan"}, "type": "electric_scooter", "fusion_lon": 0.0}, {"is_reserved": 0, "is_disabled": 0, "fusion_lat": 0.0, "name": "d76f655e9f3484c8800900fa436917d3", "lat": 38.927579333333334, "lon": -77.02122016666667, "bike_id": "d76f655e9f3484c8800900fa436917d3", "rental_uris": {"ios": "https://dc.lft.to/lastmile_qr_scan", "android": "https://dc.lft.to/lastmile_qr_scan"}, "type": "electric_scooter", "fusion_lon": 0.0}, {"is_reserved": 0, "is_disabled": 0, "fusion_lat": 0.0, "name": "ee7e8c408cf4a835aec0a22a166fbbb0", "lat": 38.903021833333334, "lon": -76.99842083333333, "bike_id": "ee7e8c408cf4a835aec0a22a166fbbb0", "rental_uris": {"ios": "https://dc.lft.to/lastmile_qr_scan", "android": "https://dc.lft.to/lastmile_qr_scan"}, "type": "electric_scooter", "fusion_lon": 0.0}, {"is_reserved": 0, "is_disabled": 0, "fusion_lat": 0.0, "name": "12a1b8fb2038f5374c0ee12ad778c5cf", "lat": 38.89959283333334, "lon": -76.98565066666667, "bike_id": "12a1b8fb2038f5374c0ee12ad778c5cf", "rental_uris": {"ios": "https://dc.lft.to/lastmile_qr_scan", "android": "https://dc.lft.to/lastmile_qr_scan"}, "type": "electric_scooter", "fusion_lon": 0.0}, {"is_reserved": 0, "is_disabled": 0, "fusion_lat": 0.0, "name": "e4ca3adfdbf2f994c7fdab3ad3aa5795", "lat": 38.8951115, "lon": -76.94886816666667, "bike_id": "e4ca3adfdbf2f994c7fdab3ad3aa5795", "rental_uris": {"ios": "https://dc.lft.to/lastmile_qr_scan", "android": "https://dc.lft.to/lastmile_qr_scan"}, "type": "electric_scooter", "fusion_lon": 0.0}, {"is_reserved": 0, "is_disabled": 0, "fusion_lat": 0.0, "name": "9c10ad1d806d16c3f9e5516cddcccec3", "lat": 38.874041166666665, "lon": -76.99993516666666, "bike_id": "9c10ad1d806d16c3f9e5516cddcccec3", "rental_uris": {"ios": "https://dc.lft.to/lastmile_qr_scan", "android": "https://dc.lft.to/lastmile_qr_scan"}, "type": "electric_scooter", "fusion_lon": 0.0}, {"is_reserved": 0, "is_disabled": 0, "fusion_lat": 0.0, "name": "83a2fbdeca55619b62c84e8dcdc0b801", "lat": 38.921718166666665, "lon": -77.04027066666667, "bike_id": "83a2fbdeca55619b62c84e8dcdc0b801", "rental_uris": {"ios": "https://dc.lft.to/lastmile_qr_scan", "android": "https://dc.lft.to/lastmile_qr_scan"}, "type": "electric_scooter", "fusion_lon": 0.0}, {"is_reserved": 0, "is_disabled": 0, "fusion_lat": 0.0, "name": "082a00427516d0c2cc9cc5b1f85c6fcb", "lat": 38.911383, "lon": -77.032165, "bike_id": "082a00427516d0c2cc9cc5b1f85c6fcb", "rental_uris": {"ios": "https://dc.lft.to/lastmile_qr_scan", "android": "https://dc.lft.to/lastmile_qr_scan"}, "type": "electric_scooter", "fusion_lon": 0.0}, {"is_reserved": 0, "is_disabled": 0, "fusion_lat": 0.0, "name": "64b7fc750ef06f9bbc179f8c7c949a11", "lat": 38.90260683333333, "lon": -77.02418766666666, "bike_id": "64b7fc750ef06f9bbc179f8c7c949a11", "rental_uris": {"ios": "https://dc.lft.to/lastmile_qr_scan", "android": "https://dc.lft.to/lastmile_qr_scan"}, "type": "electric_scooter", "fusion_lon": 0.0}, {"is_reserved": 0, "is_disabled": 0, "fusion_lat": 0.0, "name": "ec5c1b50a76ce0caad3bf4713efe7390", "lat": 38.887738166666665, "lon": -76.93263116666667, "bike_id": "ec5c1b50a76ce0caad3bf4713efe7390", "rental_uris": {"ios": "https://dc.lft.to/lastmile_qr_scan", "android": "https://dc.lft.to/lastmile_qr_scan"}, "type": "electric_scooter", "fusion_lon": 0.0}, {"is_reserved": 0, "is_disabled": 0, "fusion_lat": 0.0, "name": "82bbf1c60c3047b0138e22a7b24bb6c9", "lat": 38.90732666666667, "lon": -77.03023716666667, "bike_id": "82bbf1c60c3047b0138e22a7b24bb6c9", "rental_uris": {"ios": "https://dc.lft.to/lastmile_qr_scan", "android": "https://dc.lft.to/lastmile_qr_scan"}, "type": "electric_scooter", "fusion_lon": 0.0}, {"is_reserved": 0, "is_disabled": 0, "fusion_lat": 0.0, "name": "bcf0d16cec90c9579bd072fba2d7974a", "lat": 38.95086333333333, "lon": -77.012286, "bike_id": "bcf0d16cec90c9579bd072fba2d7974a", "rental_uris": {"ios": "https://dc.lft.to/lastmile_qr_scan", "android": "https://dc.lft.to/lastmile_qr_scan"}, "type": "electric_bike", "fusion_lon": 0.0}, {"is_reserved": 0, "is_disabled": 0, "fusion_lat": 0.0, "name": "deee0863f200c4825ee9d83086641739", "lat": 38.936866, "lon": -77.02403816666667, "bike_id": "deee0863f200c4825ee9d83086641739", "rental_uris": {"ios": "https://dc.lft.to/lastmile_qr_scan", "android": "https://dc.lft.to/lastmile_qr_scan"}, "type": "electric_scooter", "fusion_lon": 0.0}, {"is_reserved": 0, "is_disabled": 0, "fusion_lat": 0.0, "name": "6dd0fec4019063332cd52aa499e1e892", "lat": 38.8930665, "lon": -77.01507133333334, "bike_id": "6dd0fec4019063332cd52aa499e1e892", "rental_uris": {"ios": "https://dc.lft.to/lastmile_qr_scan", "android": "https://dc.lft.to/lastmile_qr_scan"}, "type": "electric_scooter", "fusion_lon": 0.0}, {"is_reserved": 0, "is_disabled": 0, "fusion_lat": 0.0, "name": "6c727bbade7cc8588da180b677c2aed9", "lat": 38.98887333333333, "lon": -76.98806, "bike_id": "6c727bbade7cc8588da180b677c2aed9", "rental_uris": {"ios": "https://dc.lft.to/lastmile_qr_scan", "android": "https://dc.lft.to/lastmile_qr_scan"}, "type": "electric_bike", "fusion_lon": 0.0}, {"is_reserved": 0, "is_disabled": 0, "fusion_lat": 0.0, "name": "6cde17ac46452b1307584fe35171c517", "lat": 38.895579166666664, "lon": -77.00916566666666, "bike_id": "6cde17ac46452b1307584fe35171c517", "rental_uris": {"ios": "https://dc.lft.to/lastmile_qr_scan", "android": "https://dc.lft.to/lastmile_qr_scan"}, "type": "electric_scooter", "fusion_lon": 0.0}, {"is_reserved": 0, "is_disabled": 0, "fusion_lat": 0.0, "name": "7f8ff90a08ef9140accb287d33b37a80", "lat": 38.934509166666665, "lon": -77.02106066666667, "bike_id": "7f8ff90a08ef9140accb287d33b37a80", "rental_uris": {"ios": "https://dc.lft.to/lastmile_qr_scan", "android": "https://dc.lft.to/lastmile_qr_scan"}, "type": "electric_scooter", "fusion_lon": 0.0}, {"is_reserved": 0, "is_disabled": 0, "fusion_lat": 0.0, "name": "329b466f4c73793563bb96ec5b69e684", "lat": 38.906871833333334, "lon": -77.02717216666667, "bike_id": "329b466f4c73793563bb96ec5b69e684", "rental_uris": {"ios": "https://dc.lft.to/lastmile_qr_scan", "android": "https://dc.lft.to/lastmile_qr_scan"}, "type": "electric_scooter", "fusion_lon": 0.0}, {"is_reserved": 0, "is_disabled": 0, "fusion_lat": 0.0, "name": "91ca35e5c24832652c43324475576bfb", "lat": 38.974615166666666, "lon": -77.01405716666666, "bike_id": "91ca35e5c24832652c43324475576bfb", "rental_uris": {"ios": "https://dc.lft.to/lastmile_qr_scan", "android": "https://dc.lft.to/lastmile_qr_scan"}, "type": "electric_scooter", "fusion_lon": 0.0}, {"is_reserved": 0, "is_disabled": 0, "fusion_lat": 0.0, "name": "987b2b1312235af10ba0ac44ed421bc6", "lat": 38.89612066666667, "lon": -77.02661766666667, "bike_id": "987b2b1312235af10ba0ac44ed421bc6", "rental_uris": {"ios": "https://dc.lft.to/lastmile_qr_scan", "android": "https://dc.lft.to/lastmile_qr_scan"}, "type": "electric_scooter", "fusion_lon": 0.0}, {"is_reserved": 0, "is_disabled": 0, "fusion_lat": 0.0, "name": "eb2d3405af5831c7547ec62f1c1b6624", "lat": 38.91074916666667, "lon": -77.02729116666667, "bike_id": "eb2d3405af5831c7547ec62f1c1b6624", "rental_uris": {"ios": "https://dc.lft.to/lastmile_qr_scan", "android": "https://dc.lft.to/lastmile_qr_scan"}, "type": "electric_scooter", "fusion_lon": 0.0}, {"is_reserved": 0, "is_disabled": 0, "fusion_lat": 0.0, "name": "a7ce7dee856e7358cca9c5a6cb996c75", "lat": 38.91925033333333, "lon": -77.00245733333334, "bike_id": "a7ce7dee856e7358cca9c5a6cb996c75", "rental_uris": {"ios": "https://dc.lft.to/lastmile_qr_scan", "android": "https://dc.lft.to/lastmile_qr_scan"}, "type": "electric_scooter", "fusion_lon": 0.0}, {"is_reserved": 0, "is_disabled": 0, "fusion_lat": 0.0, "name": "f2e0786906369d98853160a5a4a44050", "lat": 38.90212366666667, "lon": -77.01970866666667, "bike_id": "f2e0786906369d98853160a5a4a44050", "rental_uris": {"ios": "https://dc.lft.to/lastmile_qr_scan", "android": "https://dc.lft.to/lastmile_qr_scan"}, "type": "electric_scooter", "fusion_lon": 0.0}, {"is_reserved": 0, "is_disabled": 0, "fusion_lat": 0.0, "name": "417d7b59e5907016de5339f3c327ccbf", "lat": 38.91431466666667, "lon": -77.03181433333333, "bike_id": "417d7b59e5907016de5339f3c327ccbf", "rental_uris": {"ios": "https://dc.lft.to/lastmile_qr_scan", "android": "https://dc.lft.to/lastmile_qr_scan"}, "type": "electric_scooter", "fusion_lon": 0.0}, {"is_reserved": 0, "is_disabled": 0, "fusion_lat": 0.0, "name": "d1169213083353ce76a3f33e23d453a3", "lat": 38.94327833333333, "lon": -77.07329783333333, "bike_id": "d1169213083353ce76a3f33e23d453a3", "rental_uris": {"ios": "https://dc.lft.to/lastmile_qr_scan", "android": "https://dc.lft.to/lastmile_qr_scan"}, "type": "electric_scooter", "fusion_lon": 0.0}, {"is_reserved": 0, "is_disabled": 0, "fusion_lat": 0.0, "name": "e820283ce6bf49cb20bfd1511fc907c9", "lat": 38.916365, "lon": -77.04813383333334, "bike_id": "e820283ce6bf49cb20bfd1511fc907c9", "rental_uris": {"ios": "https://dc.lft.to/lastmile_qr_scan", "android": "https://dc.lft.to/lastmile_qr_scan"}, "type": "electric_scooter", "fusion_lon": 0.0}, {"is_reserved": 0, "is_disabled": 0, "fusion_lat": 0.0, "name": "6a3513fb7b45c5a3c4e57cc4754ae947", "lat": 38.90035833333334, "lon": -77.01162783333334, "bike_id": "6a3513fb7b45c5a3c4e57cc4754ae947", "rental_uris": {"ios": "https://dc.lft.to/lastmile_qr_scan", "android": "https://dc.lft.to/lastmile_qr_scan"}, "type": "electric_scooter", "fusion_lon": 0.0}, {"is_reserved": 0, "is_disabled": 0, "fusion_lat": 0.0, "name": "5f74d3f32ab077a40f3ab7924c777b8b", "lat": 38.917106, "lon": -77.026494, "bike_id": "5f74d3f32ab077a40f3ab7924c777b8b", "rental_uris": {"ios": "https://dc.lft.to/lastmile_qr_scan", "android": "https://dc.lft.to/lastmile_qr_scan"}, "type": "electric_scooter", "fusion_lon": 0.0}, {"is_reserved": 0, "is_disabled": 0, "fusion_lat": 0.0, "name": "83e547945e9c3051438ea26f50f1f6ac", "lat": 38.902407333333336, "lon": -77.02692483333334, "bike_id": "83e547945e9c3051438ea26f50f1f6ac", "rental_uris": {"ios": "https://dc.lft.to/lastmile_qr_scan", "android": "https://dc.lft.to/lastmile_qr_scan"}, "type": "electric_scooter", "fusion_lon": 0.0}, {"is_reserved": 0, "is_disabled": 0, "fusion_lat": 0.0, "name": "af7f1479928e88f125e0ae2460a0fd3b", "lat": 38.900787333333334, "lon": -77.048955, "bike_id": "af7f1479928e88f125e0ae2460a0fd3b", "rental_uris": {"ios": "https://dc.lft.to/lastmile_qr_scan", "android": "https://dc.lft.to/lastmile_qr_scan"}, "type": "electric_scooter", "fusion_lon": 0.0}, {"is_reserved": 0, "is_disabled": 0, "fusion_lat": 0.0, "name": "a55e927c1de606c7f5695137a35945c2", "lat": 38.92051083333333, "lon": -77.024025, "bike_id": "a55e927c1de606c7f5695137a35945c2", "rental_uris": {"ios": "https://dc.lft.to/lastmile_qr_scan", "android": "https://dc.lft.to/lastmile_qr_scan"}, "type": "electric_scooter", "fusion_lon": 0.0}, {"is_reserved": 0, "is_disabled": 0, "fusion_lat": 0.0, "name": "bb641a17d66c989905a01443d1cdea9b", "lat": 38.915879833333335, "lon": -76.98397116666666, "bike_id": "bb641a17d66c989905a01443d1cdea9b", "rental_uris": {"ios": "https://dc.lft.to/lastmile_qr_scan", "android": "https://dc.lft.to/lastmile_qr_scan"}, "type": "electric_scooter", "fusion_lon": 0.0}, {"is_reserved": 0, "is_disabled": 0, "fusion_lat": 0.0, "name": "e714c3f1cfc910a6211b68d82101df65", "lat": 38.909508333333335, "lon": -76.98536766666666, "bike_id": "e714c3f1cfc910a6211b68d82101df65", "rental_uris": {"ios": "https://dc.lft.to/lastmile_qr_scan", "android": "https://dc.lft.to/lastmile_qr_scan"}, "type": "electric_scooter", "fusion_lon": 0.0}, {"is_reserved": 0, "is_disabled": 0, "fusion_lat": 0.0, "name": "8919dc97c89f001200ab779825793353", "lat": 38.924214166666665, "lon": -77.01953166666667, "bike_id": "8919dc97c89f001200ab779825793353", "rental_uris": {"ios": "https://dc.lft.to/lastmile_qr_scan", "android": "https://dc.lft.to/lastmile_qr_scan"}, "type": "electric_scooter", "fusion_lon": 0.0}, {"is_reserved": 0, "is_disabled": 0, "fusion_lat": 0.0, "name": "6f5db4b23ab9caf3f6fd358b0bc67f08", "lat": 38.915627, "lon": -77.03338333333333, "bike_id": "6f5db4b23ab9caf3f6fd358b0bc67f08", "rental_uris": {"ios": "https://dc.lft.to/lastmile_qr_scan", "android": "https://dc.lft.to/lastmile_qr_scan"}, "type": "electric_scooter", "fusion_lon": 0.0}, {"is_reserved": 0, "is_disabled": 0, "fusion_lat": 0.0, "name": "48fc9db03e980eb6f40d678003d50a15", "lat": 38.90454416666667, "lon": -77.01685516666667, "bike_id": "48fc9db03e980eb6f40d678003d50a15", "rental_uris": {"ios": "https://dc.lft.to/lastmile_qr_scan", "android": "https://dc.lft.to/lastmile_qr_scan"}, "type": "electric_scooter", "fusion_lon": 0.0}, {"is_reserved": 0, "is_disabled": 0, "fusion_lat": 0.0, "name": "2d841ef3adc37ff0650252f1477ea9a6", "lat": 38.91540716666667, "lon": -77.044565, "bike_id": "2d841ef3adc37ff0650252f1477ea9a6", "rental_uris": {"ios": "https://dc.lft.to/lastmile_qr_scan", "android": "https://dc.lft.to/lastmile_qr_scan"}, "type": "electric_scooter", "fusion_lon": 0.0}, {"is_reserved": 0, "is_disabled": 0, "fusion_lat": 0.0, "name": "19dddca8043e058016aebff0377ec284", "lat": 38.896840833333336, "lon": -77.01214883333333, "bike_id": "19dddca8043e058016aebff0377ec284", "rental_uris": {"ios": "https://dc.lft.to/lastmile_qr_scan", "android": "https://dc.lft.to/lastmile_qr_scan"}, "type": "electric_scooter", "fusion_lon": 0.0}, {"is_reserved": 0, "is_disabled": 0, "fusion_lat": 0.0, "name": "30de268ba41b624be30e5615e6f2f9d0", "lat": 38.91410116666667, "lon": -77.0327265, "bike_id": "30de268ba41b624be30e5615e6f2f9d0", "rental_uris": {"ios": "https://dc.lft.to/lastmile_qr_scan", "android": "https://dc.lft.to/lastmile_qr_scan"}, "type": "electric_scooter", "fusion_lon": 0.0}, {"is_reserved": 0, "is_disabled": 0, "fusion_lat": 0.0, "name": "31e5ac49acd16b6a6f867e47d8264389", "lat": 38.907863, "lon": -77.0037235, "bike_id": "31e5ac49acd16b6a6f867e47d8264389", "rental_uris": {"ios": "https://dc.lft.to/lastmile_qr_scan", "android": "https://dc.lft.to/lastmile_qr_scan"}, "type": "electric_scooter", "fusion_lon": 0.0}, {"is_reserved": 0, "is_disabled": 0, "fusion_lat": 0.0, "name": "14d1040a3104e9c7b89973bea0221916", "lat": 38.92369716666666, "lon": -77.043129, "bike_id": "14d1040a3104e9c7b89973bea0221916", "rental_uris": {"ios": "https://dc.lft.to/lastmile_qr_scan", "android": "https://dc.lft.to/lastmile_qr_scan"}, "type": "electric_scooter", "fusion_lon": 0.0}, {"is_reserved": 0, "is_disabled": 0, "fusion_lat": 0.0, "name": "1ffca550f10f60801d70e50604601802", "lat": 38.91701, "lon": -77.03773283333334, "bike_id": "1ffca550f10f60801d70e50604601802", "rental_uris": {"ios": "https://dc.lft.to/lastmile_qr_scan", "android": "https://dc.lft.to/lastmile_qr_scan"}, "type": "electric_scooter", "fusion_lon": 0.0}, {"is_reserved": 0, "is_disabled": 0, "fusion_lat": 0.0, "name": "6e6bc9bea8df9d3a9097e2680159e884", "lat": 38.84675266666667, "lon": -76.98075116666666, "bike_id": "6e6bc9bea8df9d3a9097e2680159e884", "rental_uris": {"ios": "https://dc.lft.to/lastmile_qr_scan", "android": "https://dc.lft.to/lastmile_qr_scan"}, "type": "electric_bike", "fusion_lon": 0.0}, {"is_reserved": 0, "is_disabled": 0, "fusion_lat": 0.0, "name": "f30c680e33dcb882a59e0263481c7433", "lat": 38.90135016666667, "lon": -77.03833616666667, "bike_id": "f30c680e33dcb882a59e0263481c7433", "rental_uris": {"ios": "https://dc.lft.to/lastmile_qr_scan", "android": "https://dc.lft.to/lastmile_qr_scan"}, "type": "electric_scooter", "fusion_lon": 0.0}, {"is_reserved": 0, "is_disabled": 0, "fusion_lat": 0.0, "name": "4af42d7ba95010c2210ec17baf5265b1", "lat": 38.9180345, "lon": -77.0444465, "bike_id": "4af42d7ba95010c2210ec17baf5265b1", "rental_uris": {"ios": "https://dc.lft.to/lastmile_qr_scan", "android": "https://dc.lft.to/lastmile_qr_scan"}, "type": "electric_scooter", "fusion_lon": 0.0}, {"is_reserved": 0, "is_disabled": 0, "fusion_lat": 0.0, "name": "84afd90a448922db26f01636671014bd", "lat": 38.907266166666666, "lon": -77.03209433333333, "bike_id": "84afd90a448922db26f01636671014bd", "rental_uris": {"ios": "https://dc.lft.to/lastmile_qr_scan", "android": "https://dc.lft.to/lastmile_qr_scan"}, "type": "electric_scooter", "fusion_lon": 0.0}, {"is_reserved": 0, "is_disabled": 0, "fusion_lat": 0.0, "name": "692fe085d4814f7af4095f2c5a9442fe", "lat": 38.9050095, "lon": -77.0295425, "bike_id": "692fe085d4814f7af4095f2c5a9442fe", "rental_uris": {"ios": "https://dc.lft.to/lastmile_qr_scan", "android": "https://dc.lft.to/lastmile_qr_scan"}, "type": "electric_scooter", "fusion_lon": 0.0}, {"is_reserved": 0, "is_disabled": 0, "fusion_lat": 0.0, "name": "c08b81efcea025a63ad5810c4955b009", "lat": 38.90699433333333, "lon": -77.07180783333334, "bike_id": "c08b81efcea025a63ad5810c4955b009", "rental_uris": {"ios": "https://dc.lft.to/lastmile_qr_scan", "android": "https://dc.lft.to/lastmile_qr_scan"}, "type": "electric_scooter", "fusion_lon": 0.0}, {"is_reserved": 0, "is_disabled": 0, "fusion_lat": 0.0, "name": "023ac1cced6968ad5328828df9e96048", "lat": 38.91016066666667, "lon": -77.0284745, "bike_id": "023ac1cced6968ad5328828df9e96048", "rental_uris": {"ios": "https://dc.lft.to/lastmile_qr_scan", "android": "https://dc.lft.to/lastmile_qr_scan"}, "type": "electric_scooter", "fusion_lon": 0.0}, {"is_reserved": 0, "is_disabled": 0, "fusion_lat": 0.0, "name": "112de9cbc3d5511ceb7a29e5bbb1ed6e", "lat": 38.91296966666667, "lon": -76.98698266666666, "bike_id": "112de9cbc3d5511ceb7a29e5bbb1ed6e", "rental_uris": {"ios": "https://dc.lft.to/lastmile_qr_scan", "android": "https://dc.lft.to/lastmile_qr_scan"}, "type": "electric_scooter", "fusion_lon": 0.0}, {"is_reserved": 0, "is_disabled": 0, "fusion_lat": 0.0, "name": "5d6ea0de07c7e0ab1666e9475bf86e45", "lat": 38.88669183333333, "lon": -77.14435916666666, "bike_id": "5d6ea0de07c7e0ab1666e9475bf86e45", "rental_uris": {"ios": "https://dc.lft.to/lastmile_qr_scan", "android": "https://dc.lft.to/lastmile_qr_scan"}, "type": "electric_bike", "fusion_lon": 0.0}, {"is_reserved": 0, "is_disabled": 0, "fusion_lat": 0.0, "name": "cc7d51f00e73abd9584959b040245c91", "lat": 38.92520016666667, "lon": -76.9983525, "bike_id": "cc7d51f00e73abd9584959b040245c91", "rental_uris": {"ios": "https://dc.lft.to/lastmile_qr_scan", "android": "https://dc.lft.to/lastmile_qr_scan"}, "type": "electric_scooter", "fusion_lon": 0.0}, {"is_reserved": 0, "is_disabled": 0, "fusion_lat": 0.0, "name": "3b8dfb7043561a90797a037f30f361ce", "lat": 38.907895833333335, "lon": -77.03214316666667, "bike_id": "3b8dfb7043561a90797a037f30f361ce", "rental_uris": {"ios": "https://dc.lft.to/lastmile_qr_scan", "android": "https://dc.lft.to/lastmile_qr_scan"}, "type": "electric_scooter", "fusion_lon": 0.0}, {"is_reserved": 0, "is_disabled": 0, "fusion_lat": 0.0, "name": "90fa12b6b63cb821d444fd3d7ddf248f", "lat": 38.902381166666665, "lon": -76.9927415, "bike_id": "90fa12b6b63cb821d444fd3d7ddf248f", "rental_uris": {"ios": "https://dc.lft.to/lastmile_qr_scan", "android": "https://dc.lft.to/lastmile_qr_scan"}, "type": "electric_scooter", "fusion_lon": 0.0}, {"is_reserved": 0, "is_disabled": 0, "fusion_lat": 0.0, "name": "934b9f53feabd2b39a57776bfade3b8e", "lat": 38.90522566666667, "lon": -77.04829933333333, "bike_id": "934b9f53feabd2b39a57776bfade3b8e", "rental_uris": {"ios": "https://dc.lft.to/lastmile_qr_scan", "android": "https://dc.lft.to/lastmile_qr_scan"}, "type": "electric_scooter", "fusion_lon": 0.0}, {"is_reserved": 0, "is_disabled": 0, "fusion_lat": 0.0, "name": "ecf8ce46ab63cad1da31f17334fa29ae", "lat": 38.878728, "lon": -77.001345, "bike_id": "ecf8ce46ab63cad1da31f17334fa29ae", "rental_uris": {"ios": "https://dc.lft.to/lastmile_qr_scan", "android": "https://dc.lft.to/lastmile_qr_scan"}, "type": "electric_scooter", "fusion_lon": 0.0}, {"is_reserved": 0, "is_disabled": 0, "fusion_lat": 0.0, "name": "c99dd0b8d85cd1af6d121e49269d8fc0", "lat": 38.90727033333334, "lon": -77.02535733333333, "bike_id": "c99dd0b8d85cd1af6d121e49269d8fc0", "rental_uris": {"ios": "https://dc.lft.to/lastmile_qr_scan", "android": "https://dc.lft.to/lastmile_qr_scan"}, "type": "electric_scooter", "fusion_lon": 0.0}, {"is_reserved": 0, "is_disabled": 0, "fusion_lat": 0.0, "name": "451c290b3798a7cec73ff4c94446e421", "lat": 38.850631166666666, "lon": -76.95829916666666, "bike_id": "451c290b3798a7cec73ff4c94446e421", "rental_uris": {"ios": "https://dc.lft.to/lastmile_qr_scan", "android": "https://dc.lft.to/lastmile_qr_scan"}, "type": "electric_bike", "fusion_lon": 0.0}, {"is_reserved": 0, "is_disabled": 0, "fusion_lat": 0.0, "name": "885ef81cbf8538d6f6beb5402e2adb17", "lat": 38.927175, "lon": -77.020742, "bike_id": "885ef81cbf8538d6f6beb5402e2adb17", "rental_uris": {"ios": "https://dc.lft.to/lastmile_qr_scan", "android": "https://dc.lft.to/lastmile_qr_scan"}, "type": "electric_scooter", "fusion_lon": 0.0}, {"is_reserved": 0, "is_disabled": 0, "fusion_lat": 0.0, "name": "a7bd8fd84910d07fa9be90eb602ca830", "lat": 38.931047, "lon": -77.02481516666667, "bike_id": "a7bd8fd84910d07fa9be90eb602ca830", "rental_uris": {"ios": "https://dc.lft.to/lastmile_qr_scan", "android": "https://dc.lft.to/lastmile_qr_scan"}, "type": "electric_scooter", "fusion_lon": 0.0}, {"is_reserved": 0, "is_disabled": 0, "fusion_lat": 0.0, "name": "1b75323850ee401e74e94fe3bc794247", "lat": 38.8608155, "lon": -76.98377683333334, "bike_id": "1b75323850ee401e74e94fe3bc794247", "rental_uris": {"ios": "https://dc.lft.to/lastmile_qr_scan", "android": "https://dc.lft.to/lastmile_qr_scan"}, "type": "electric_scooter", "fusion_lon": 0.0}, {"is_reserved": 0, "is_disabled": 0, "fusion_lat": 0.0, "name": "03cfec491ad534a338ee5e774118585d", "lat": 38.90418966666667, "lon": -77.02509683333334, "bike_id": "03cfec491ad534a338ee5e774118585d", "rental_uris": {"ios": "https://dc.lft.to/lastmile_qr_scan", "android": "https://dc.lft.to/lastmile_qr_scan"}, "type": "electric_scooter", "fusion_lon": 0.0}, {"is_reserved": 0, "is_disabled": 0, "fusion_lat": 0.0, "name": "d8fdbfb13a53b0c6a197414bff46d82e", "lat": 38.92867783333333, "lon": -77.03296083333333, "bike_id": "d8fdbfb13a53b0c6a197414bff46d82e", "rental_uris": {"ios": "https://dc.lft.to/lastmile_qr_scan", "android": "https://dc.lft.to/lastmile_qr_scan"}, "type": "electric_scooter", "fusion_lon": 0.0}, {"is_reserved": 0, "is_disabled": 0, "fusion_lat": 0.0, "name": "c3a70a23932a7037a114bc9b70e38758", "lat": 38.88577766666667, "lon": -77.012143, "bike_id": "c3a70a23932a7037a114bc9b70e38758", "rental_uris": {"ios": "https://dc.lft.to/lastmile_qr_scan", "android": "https://dc.lft.to/lastmile_qr_scan"}, "type": "electric_scooter", "fusion_lon": 0.0}, {"is_reserved": 0, "is_disabled": 0, "fusion_lat": 0.0, "name": "db163c118437dc994d22b8ee3dbbaef4", "lat": 38.918721166666664, "lon": -77.02481833333333, "bike_id": "db163c118437dc994d22b8ee3dbbaef4", "rental_uris": {"ios": "https://dc.lft.to/lastmile_qr_scan", "android": "https://dc.lft.to/lastmile_qr_scan"}, "type": "electric_scooter", "fusion_lon": 0.0}, {"is_reserved": 0, "is_disabled": 0, "fusion_lat": 0.0, "name": "fdcdbd020e8a0dc1c1c1f2c8576063e6", "lat": 38.91746083333334, "lon": -77.03199333333333, "bike_id": "fdcdbd020e8a0dc1c1c1f2c8576063e6", "rental_uris": {"ios": "https://dc.lft.to/lastmile_qr_scan", "android": "https://dc.lft.to/lastmile_qr_scan"}, "type": "electric_scooter", "fusion_lon": 0.0}, {"is_reserved": 0, "is_disabled": 0, "fusion_lat": 0.0, "name": "86489ac6a12ba4d5f4228a0c196f6975", "lat": 38.9049005, "lon": -77.0489095, "bike_id": "86489ac6a12ba4d5f4228a0c196f6975", "rental_uris": {"ios": "https://dc.lft.to/lastmile_qr_scan", "android": "https://dc.lft.to/lastmile_qr_scan"}, "type": "electric_scooter", "fusion_lon": 0.0}, {"is_reserved": 0, "is_disabled": 0, "fusion_lat": 0.0, "name": "d7fcb4a95887dc8a9edafc372cf50ba5", "lat": 38.90365416666667, "lon": -77.06014, "bike_id": "d7fcb4a95887dc8a9edafc372cf50ba5", "rental_uris": {"ios": "https://dc.lft.to/lastmile_qr_scan", "android": "https://dc.lft.to/lastmile_qr_scan"}, "type": "electric_scooter", "fusion_lon": 0.0}, {"is_reserved": 0, "is_disabled": 0, "fusion_lat": 0.0, "name": "06ca20dac862340e7ddab0404bc59733", "lat": 38.93605383333333, "lon": -77.05596883333334, "bike_id": "06ca20dac862340e7ddab0404bc59733", "rental_uris": {"ios": "https://dc.lft.to/lastmile_qr_scan", "android": "https://dc.lft.to/lastmile_qr_scan"}, "type": "electric_scooter", "fusion_lon": 0.0}, {"is_reserved": 0, "is_disabled": 0, "fusion_lat": 0.0, "name": "aff58d46b3c92e0873a2d68009fe0c9b", "lat": 38.92424616666667, "lon": -77.0213445, "bike_id": "aff58d46b3c92e0873a2d68009fe0c9b", "rental_uris": {"ios": "https://dc.lft.to/lastmile_qr_scan", "android": "https://dc.lft.to/lastmile_qr_scan"}, "type": "electric_scooter", "fusion_lon": 0.0}, {"is_reserved": 0, "is_disabled": 0, "fusion_lat": 0.0, "name": "0575c32118e8b02056925ff68d1bcdb6", "lat": 38.921284666666665, "lon": -77.04430716666667, "bike_id": "0575c32118e8b02056925ff68d1bcdb6", "rental_uris": {"ios": "https://dc.lft.to/lastmile_qr_scan", "android": "https://dc.lft.to/lastmile_qr_scan"}, "type": "electric_scooter", "fusion_lon": 0.0}, {"is_reserved": 0, "is_disabled": 0, "fusion_lat": 0.0, "name": "2e438e867c59dfe2225bf38d45b1973d", "lat": 38.876596, "lon": -77.00809316666667, "bike_id": "2e438e867c59dfe2225bf38d45b1973d", "rental_uris": {"ios": "https://dc.lft.to/lastmile_qr_scan", "android": "https://dc.lft.to/lastmile_qr_scan"}, "type": "electric_scooter", "fusion_lon": 0.0}, {"is_reserved": 0, "is_disabled": 0, "fusion_lat": 0.0, "name": "1d52bd4158474e0092b53320783ae3ae", "lat": 38.9037925, "lon": -76.93753066666666, "bike_id": "1d52bd4158474e0092b53320783ae3ae", "rental_uris": {"ios": "https://dc.lft.to/lastmile_qr_scan", "android": "https://dc.lft.to/lastmile_qr_scan"}, "type": "electric_bike", "fusion_lon": 0.0}, {"is_reserved": 0, "is_disabled": 0, "fusion_lat": 0.0, "name": "2a9a09372e0df2ed27b261a78e2b6718", "lat": 38.83869416666667, "lon": -76.99696483333334, "bike_id": "2a9a09372e0df2ed27b261a78e2b6718", "rental_uris": {"ios": "https://dc.lft.to/lastmile_qr_scan", "android": "https://dc.lft.to/lastmile_qr_scan"}, "type": "electric_bike", "fusion_lon": 0.0}, {"is_reserved": 0, "is_disabled": 0, "fusion_lat": 0.0, "name": "c10157db857c67b625efe260b2266934", "lat": 38.88497133333333, "lon": -76.99615783333333, "bike_id": "c10157db857c67b625efe260b2266934", "rental_uris": {"ios": "https://dc.lft.to/lastmile_qr_scan", "android": "https://dc.lft.to/lastmile_qr_scan"}, "type": "electric_scooter", "fusion_lon": 0.0}, {"is_reserved": 0, "is_disabled": 0, "fusion_lat": 0.0, "name": "e110af4cf84df278b09090115f447192", "lat": 38.924479, "lon": -77.02984483333333, "bike_id": "e110af4cf84df278b09090115f447192", "rental_uris": {"ios": "https://dc.lft.to/lastmile_qr_scan", "android": "https://dc.lft.to/lastmile_qr_scan"}, "type": "electric_scooter", "fusion_lon": 0.0}, {"is_reserved": 0, "is_disabled": 0, "fusion_lat": 0.0, "name": "aad566e2e4546dfff86abdcf98574229", "lat": 38.95628516666667, "lon": -77.02431883333334, "bike_id": "aad566e2e4546dfff86abdcf98574229", "rental_uris": {"ios": "https://dc.lft.to/lastmile_qr_scan", "android": "https://dc.lft.to/lastmile_qr_scan"}, "type": "electric_scooter", "fusion_lon": 0.0}, {"is_reserved": 0, "is_disabled": 0, "fusion_lat": 0.0, "name": "e1001e93bd71a9765b17e44f5a73765a", "lat": 38.918751666666665, "lon": -77.04487583333334, "bike_id": "e1001e93bd71a9765b17e44f5a73765a", "rental_uris": {"ios": "https://dc.lft.to/lastmile_qr_scan", "android": "https://dc.lft.to/lastmile_qr_scan"}, "type": "electric_scooter", "fusion_lon": 0.0}, {"is_reserved": 0, "is_disabled": 0, "fusion_lat": 0.0, "name": "9b1aa683672c10544f8c591aff2a263c", "lat": 38.962176666666664, "lon": -77.0223605, "bike_id": "9b1aa683672c10544f8c591aff2a263c", "rental_uris": {"ios": "https://dc.lft.to/lastmile_qr_scan", "android": "https://dc.lft.to/lastmile_qr_scan"}, "type": "electric_scooter", "fusion_lon": 0.0}, {"is_reserved": 0, "is_disabled": 0, "fusion_lat": 0.0, "name": "95db680e6894652570e55613ecf67b98", "lat": 38.89478883333334, "lon": -77.0453845, "bike_id": "95db680e6894652570e55613ecf67b98", "rental_uris": {"ios": "https://dc.lft.to/lastmile_qr_scan", "android": "https://dc.lft.to/lastmile_qr_scan"}, "type": "electric_scooter", "fusion_lon": 0.0}, {"is_reserved": 0, "is_disabled": 0, "fusion_lat": 0.0, "name": "90a3052a01e2c902e1d2b01ba05c2555", "lat": 38.907353666666666, "lon": -77.03218166666667, "bike_id": "90a3052a01e2c902e1d2b01ba05c2555", "rental_uris": {"ios": "https://dc.lft.to/lastmile_qr_scan", "android": "https://dc.lft.to/lastmile_qr_scan"}, "type": "electric_scooter", "fusion_lon": 0.0}, {"is_reserved": 0, "is_disabled": 0, "fusion_lat": 0.0, "name": "6c76de14846b664715777a47b7654ce1", "lat": 38.90720316666667, "lon": -77.01468016666666, "bike_id": "6c76de14846b664715777a47b7654ce1", "rental_uris": {"ios": "https://dc.lft.to/lastmile_qr_scan", "android": "https://dc.lft.to/lastmile_qr_scan"}, "type": "electric_scooter", "fusion_lon": 0.0}, {"is_reserved": 0, "is_disabled": 0, "fusion_lat": 0.0, "name": "74c0d2c75715109350b4501afd2871e6", "lat": 38.8338045, "lon": -77.00304416666667, "bike_id": "74c0d2c75715109350b4501afd2871e6", "rental_uris": {"ios": "https://dc.lft.to/lastmile_qr_scan", "android": "https://dc.lft.to/lastmile_qr_scan"}, "type": "electric_scooter", "fusion_lon": 0.0}, {"is_reserved": 0, "is_disabled": 0, "fusion_lat": 0.0, "name": "0bc011292db62ecaac01a410d564e9b1", "lat": 38.90420266666667, "lon": -77.02396883333333, "bike_id": "0bc011292db62ecaac01a410d564e9b1", "rental_uris": {"ios": "https://dc.lft.to/lastmile_qr_scan", "android": "https://dc.lft.to/lastmile_qr_scan"}, "type": "electric_scooter", "fusion_lon": 0.0}, {"is_reserved": 0, "is_disabled": 0, "fusion_lat": 0.0, "name": "0fed16e1c379e5b0030770286709f56e", "lat": 38.9363045, "lon": -77.06353433333334, "bike_id": "0fed16e1c379e5b0030770286709f56e", "rental_uris": {"ios": "https://dc.lft.to/lastmile_qr_scan", "android": "https://dc.lft.to/lastmile_qr_scan"}, "type": "electric_bike", "fusion_lon": 0.0},