{"data": {"bikes": [{"name": "33a35fd9d671e8c957725646237fee11", "type": "electric_bike", "lat": 39.030489333333335, "is_reserved": 0, "lon": -77.09478066666667, "fusion_lon": 0.0, "is_disabled": 0, "fusion_lat": 0.0, "bike_id": "33a35fd9d671e8c957725646237fee11", "rental_uris": {"ios": "https://dc.lft.to/lastmile_qr_scan", "android": "https://dc.lft.to/lastmile_qr_scan"}}, {"name": "57f2aef1de789bfb5c56a02070efce31", "type": "electric_scooter", "lat": 38.879968166666664, "is_reserved": 0, "lon": -76.985437, "fusion_lon": 0.0, "is_disabled": 0, "fusion_lat": 0.0, "bike_id": "57f2aef1de789bfb5c56a02070efce31", "rental_uris": {"ios": "https://dc.lft.to/lastmile_qr_scan", "android": "https://dc.lft.to/lastmile_qr_scan"}}, {"name": "dfcd27603042360f506d4117c514e85c", "type": "electric_scooter", "lat": 38.8919975, "is_reserved": 0, "lon": -77.01551283333333, "fusion_lon": 0.0, "is_disabled": 0, "fusion_lat": 0.0, "bike_id": "dfcd27603042360f506d4117c514e85c", "rental_uris": {"ios": "https://dc.lft.to/lastmile_qr_scan", "android": "https://dc.lft.to/lastmile_qr_scan"}}, {"name": "292e928a852acfc940b6504b9438fbf0", "type": "electric_scooter", "lat": 38.903571, "is_reserved": 0, "lon": -77.01764983333334, "fusion_lon": 0.0, "is_disabled": 0, "fusion_lat": 0.0, "bike_id": "292e928a852acfc940b6504b9438fbf0", "rental_uris": {"ios": "https://dc.lft.to/lastmile_qr_scan", "android": "https://dc.lft.to/lastmile_qr_scan"}}, {"name": "81d84c890d64437fa8e8c73331e55715", "type": "electric_scooter", "lat": 38.892203, "is_reserved": 0, "lon": -77.02145966666667, "fusion_lon": 0.0, "is_disabled": 0, "fusion_lat": 0.0, "bike_id": "81d84c890d64437fa8e8c73331e55715", "rental_uris": {"ios": "https://dc.lft.to/lastmile_qr_scan", "android": "https://dc.lft.to/lastmile_qr_scan"}}, {"name": "8d9e1e7db739283f19c7982dd4987fcb", "type": "electric_scooter", "lat": 38.90380433333333, "is_reserved": 0, "lon": -77.00764066666666, "fusion_lon": 0.0, "is_disabled": 0, "fusion_lat": 0.0, "bike_id": "8d9e1e7db739283f19c7982dd4987fcb", "rental_uris": {"ios": "https://dc.lft.to/lastmile_qr_scan", "android": "https://dc.lft.to/lastmile_qr_scan"}}, {"name": "20054360789c9ff0f06dae345b8d22bc", "type": "electric_scooter", "lat": 38.9285365, "is_reserved": 0, "lon": -77.05435933333334, "fusion_lon": 0.0, "is_disabled": 0, "fusion_lat": 0.0, "bike_id": "20054360789c9ff0f06dae345b8d22bc", "rental_uris": {"ios": "https://dc.lft.to/lastmile_qr_scan", "android": "https://dc.lft.to/lastmile_qr_scan"}}, {"name": "e2175d9e64a0b1d448c50cdbe03db047", "type": "electric_scooter", "lat": 38.89130333333333, "is_reserved": 0, "lon": -77.00350433333334, "fusion_lon": 0.0, "is_disabled": 0, "fusion_lat": 0.0, "bike_id": "e2175d9e64a0b1d448c50cdbe03db047", "rental_uris": {"ios": "https://dc.lft.to/lastmile_qr_scan", "android": "https://dc.lft.to/lastmile_qr_scan"}}, {"name": "ac803a44ffc31f7573064e0ca04e025b", "type": "electric_scooter", "lat": 38.89617033333333, "is_reserved": 0, "lon": -77.025742, "fusion_lon": 0.0, "is_disabled": 0, "fusion_lat": 0.0, "bike_id": "ac803a44ffc31f7573064e0ca04e025b", "rental_uris": {"ios": "https://dc.lft.to/lastmile_qr_scan", "android": "https://dc.lft.to/lastmile_qr_scan"}}, {"name": "b20ecf60c9c68b3e7fcbf20adc3e7ca7", "type": "electric_scooter", "lat": 38.908272333333336, "is_reserved": 0, "lon": -76.9969335, "fusion_lon": 0.0, "is_disabled": 0, "fusion_lat": 0.0, "bike_id": "b20ecf60c9c68b3e7fcbf20adc3e7ca7", "rental_uris": {"ios": "https://dc.lft.to/lastmile_qr_scan", "android": "https://dc.lft.to/lastmile_qr_scan"}}, {"name": "25416c8fc6be9e4977561de3a3750201", "type": "electric_scooter", "lat": 38.87965233333333, "is_reserved": 0, "lon": -76.98544583333333, "fusion_lon": 0.0, "is_disabled": 0, "fusion_lat": 0.0, "bike_id": "25416c8fc6be9e4977561de3a3750201", "rental_uris": {"ios": "https://dc.lft.to/lastmile_qr_scan", "android": "https://dc.lft.to/lastmile_qr_scan"}}, {"name": "2eac1d8cd78879aa686301e89faf9419", "type": "electric_scooter", "lat": 38.902844, "is_reserved": 0, "lon": -77.01832483333334, "fusion_lon": 0.0, "is_disabled": 0, "fusion_lat": 0.0, "bike_id": "2eac1d8cd78879aa686301e89faf9419", "rental_uris": {"ios": "https://dc.lft.to/lastmile_qr_scan", "android": "https://dc.lft.to/lastmile_qr_scan"}}, {"name": "de2faaf1d0ef6f5705fb28674dd8fd85", "type": "electric_scooter", "lat": 38.9050315, "is_reserved": 0, "lon": -77.05132683333333, "fusion_lon": 0.0, "is_disabled": 0, "fusion_lat": 0.0, "bike_id": "de2faaf1d0ef6f5705fb28674dd8fd85", "rental_uris": {"ios": "https://dc.lft.to/lastmile_qr_scan", "android": "https://dc.lft.to/lastmile_qr_scan"}}, {"name": "2f366d79008fe03901f45f03002737eb", "type": "electric_scooter", "lat": 38.91686383333333, "is_reserved": 0, "lon": -77.02960816666666, "fusion_lon": 0.0, "is_disabled": 0, "fusion_lat": 0.0, "bike_id": "2f366d79008fe03901f45f03002737eb", "rental_uris": {"ios": "https://dc.lft.to/lastmile_qr_scan", "android": "https://dc.lft.to/lastmile_qr_scan"}}, {"name": "d68a87ad63fa36de16ef42c0eae3f134", "type": "electric_scooter", "lat": 38.87762266666667, "is_reserved": 0, "lon": -77.00832483333333, "fusion_lon": 0.0, "is_disabled": 0, "fusion_lat": 0.0, "bike_id": "d68a87ad63fa36de16ef42c0eae3f134", "rental_uris": {"ios": "https://dc.lft.to/lastmile_qr_scan", "android": "https://dc.lft.to/lastmile_qr_scan"}}, {"name": "f830082a89643772e2310e0cc29f001f", "type": "electric_scooter", "lat": 38.89832883333333, "is_reserved": 0, "lon": -76.94635816666667, "fusion_lon": 0.0, "is_disabled": 0, "fusion_lat": 0.0, "bike_id": "f830082a89643772e2310e0cc29f001f", "rental_uris": {"ios": "https://dc.lft.to/lastmile_qr_scan", "android": "https://dc.lft.to/lastmile_qr_scan"}}, {"name": "e0cc725861c42275d8d2239118676a6d", "type": "electric_scooter", "lat": 38.92348716666667, "is_reserved": 0, "lon": -77.032099, "fusion_lon": 0.0, "is_disabled": 0, "fusion_lat": 0.0, "bike_id": "e0cc725861c42275d8d2239118676a6d", "rental_uris": {"ios": "https://dc.lft.to/lastmile_qr_scan", "android": "https://dc.lft.to/lastmile_qr_scan"}}, {"name": "51836e9d48723565b0a37f7ad1f6c85a", "type": "electric_scooter", "lat": 38.919991333333336, "is_reserved": 0, "lon": -76.95810916666667, "fusion_lon": 0.0, "is_disabled": 0, "fusion_lat": 0.0, "bike_id": "51836e9d48723565b0a37f7ad1f6c85a", "rental_uris": {"ios": "https://dc.lft.to/lastmile_qr_scan", "android": "https://dc.lft.to/lastmile_qr_scan"}}, {"name": "3438685b00b0a9beb37fb25f9c9a172d", "type": "electric_scooter", "lat": 38.8901545, "is_reserved": 0, "lon": -76.93734266666667, "fusion_lon": 0.0, "is_disabled": 0, "fusion_lat": 0.0, "bike_id": "3438685b00b0a9beb37fb25f9c9a172d", "rental_uris": {"ios": "https://dc.lft.to/lastmile_qr_scan", "android": "https://dc.lft.to/lastmile_qr_scan"}}, {"name": "002df720a3fd046fc49a14b25901e5ff", "type": "electric_scooter", "lat": 38.9622955, "is_reserved": 0, "lon": -77.02973833333333, "fusion_lon": 0.0, "is_disabled": 0, "fusion_lat": 0.0, "bike_id": "002df720a3fd046fc49a14b25901e5ff", "rental_uris": {"ios": "https://dc.lft.to/lastmile_qr_scan", "android": "https://dc.lft.to/lastmile_qr_scan"}}, {"name": "f79026a695176e9834e72dcd7521b8c6", "type": "electric_scooter", "lat": 38.94088133333333, "is_reserved": 0, "lon": -77.061952, "fusion_lon": 0.0, "is_disabled": 0, "fusion_lat": 0.0, "bike_id": "f79026a695176e9834e72dcd7521b8c6", "rental_uris": {"ios": "https://dc.lft.to/lastmile_qr_scan", "android": "https://dc.lft.to/lastmile_qr_scan"}}, {"name": "1a4ea5e0d684025f460c9acadc7ed8f2", "type": "electric_scooter", "lat": 38.90254133333333, "is_reserved": 0, "lon": -77.03353966666667, "fusion_lon": 0.0, "is_disabled": 0, "fusion_lat": 0.0, "bike_id": "1a4ea5e0d684025f460c9acadc7ed8f2", "rental_uris": {"ios": "https://dc.lft.to/lastmile_qr_scan", "android": "https://dc.lft.to/lastmile_qr_scan"}}, {"name": "ef8b4d5c1e84a41940cfc9ab3a295f63", "type": "electric_scooter", "lat": 38.9125545, "is_reserved": 0, "lon": -77.00929516666666, "fusion_lon": 0.0, "is_disabled": 0, "fusion_lat": 0.0, "bike_id": "ef8b4d5c1e84a41940cfc9ab3a295f63", "rental_uris": {"ios": "https://dc.lft.to/lastmile_qr_scan", "android": "https://dc.lft.to/lastmile_qr_scan"}}, {"name": "852c71d6ef66aa4f06128fe925562c46", "type": "electric_bike", "lat": 38.92858183333333, "is_reserved": 0, "lon": -77.22213066666667, "fusion_lon": 0.0, "is_disabled": 0, "fusion_lat": 0.0, "bike_id": "852c71d6ef66aa4f06128fe925562c46", "rental_uris": {"ios": "https://dc.lft.to/lastmile_qr_scan", "android": "https://dc.lft.to/lastmile_qr_scan"}}, {"name": "ce7c639669306cffaae7bdabc6571eb8", "type": "electric_bike", "lat": 38.938834, "is_reserved": 0, "lon": -76.95410866666667, "fusion_lon": 0.0, "is_disabled": 0, "fusion_lat": 0.0, "bike_id": "ce7c639669306cffaae7bdabc6571eb8", "rental_uris": {"ios": "https://dc.lft.to/lastmile_qr_scan", "android": "https://dc.lft.to/lastmile_qr_scan"}}, {"name": "ccdd12148c407a2deeb59ee5f7ea534f", "type": "electric_bike", "lat": 39.08853116666667, "is_reserved": 0, "lon": -77.17839166666667, "fusion_lon": 0.0, "is_disabled": 0, "fusion_lat": 0.0, "bike_id": "ccdd12148c407a2deeb59ee5f7ea534f", "rental_uris": {"ios": "https://dc.lft.to/lastmile_qr_scan", "android": "https://dc.lft.to/lastmile_qr_scan"}}, {"name": "8a29c8c60ee27833288892137bc11fee", "type": "electric_scooter", "lat": 38.95650716666667, "is_reserved": 0, "lon": -77.0329195, "fusion_lon": 0.0, "is_disabled": 0, "fusion_lat": 0.0, "bike_id": "8a29c8c60ee27833288892137bc11fee", "rental_uris": {"ios": "https://dc.lft.to/lastmile_qr_scan", "android": "https://dc.lft.to/lastmile_qr_scan"}}, {"name": "d5f44965da37773043f917a50311d99d", "type": "electric_scooter", "lat": 38.9574845, "is_reserved": 0, "lon": -77.02417883333334, "fusion_lon": 0.0, "is_disabled": 0, "fusion_lat": 0.0, "bike_id": "d5f44965da37773043f917a50311d99d", "rental_uris": {"ios": "https://dc.lft.to/lastmile_qr_scan", "android": "https://dc.lft.to/lastmile_qr_scan"}}, {"name": "8276c4185362c75001884fefff17f837", "type": "electric_scooter", "lat": 38.93540933333333, "is_reserved": 0, "lon": -77.03421533333334, "fusion_lon": 0.0, "is_disabled": 0, "fusion_lat": 0.0, "bike_id": "8276c4185362c75001884fefff17f837", "rental_uris": {"ios": "https://dc.lft.to/lastmile_qr_scan", "android": "https://dc.lft.to/lastmile_qr_scan"}}, {"name": "bf49c41d90647f50cce5c68111bd895f", "type": "electric_scooter", "lat": 38.865370166666665, "is_reserved": 0, "lon": -76.98706283333334, "fusion_lon": 0.0, "is_disabled": 0, "fusion_lat": 0.0, "bike_id": "bf49c41d90647f50cce5c68111bd895f", "rental_uris": {"ios": "https://dc.lft.to/lastmile_qr_scan", "android": "https://dc.lft.to/lastmile_qr_scan"}}, {"name": "38f479b4f6fc1ce494f0b6fb63bde328", "type": "electric_scooter", "lat": 38.908157, "is_reserved": 0, "lon": -77.04334216666666, "fusion_lon": 0.0, "is_disabled": 0, "fusion_lat": 0.0, "bike_id": "38f479b4f6fc1ce494f0b6fb63bde328", "rental_uris": {"ios": "https://dc.lft.to/lastmile_qr_scan", "android": "https://dc.lft.to/lastmile_qr_scan"}}, {"name": "e4ff0c0f5980c3194975e57d5cd87b74", "type": "electric_scooter", "lat": 38.91556083333333, "is_reserved": 0, "lon": -77.02265216666666, "fusion_lon": 0.0, "is_disabled": 0, "fusion_lat": 0.0, "bike_id": "e4ff0c0f5980c3194975e57d5cd87b74", "rental_uris": {"ios": "https://dc.lft.to/lastmile_qr_scan", "android": "https://dc.lft.to/lastmile_qr_scan"}}, {"name": "6cd6e0f870c9fb14de49aa440a463d99", "type": "electric_scooter", "lat": 38.9322225, "is_reserved": 0, "lon": -77.03542266666666, "fusion_lon": 0.0, "is_disabled": 0, "fusion_lat": 0.0, "bike_id": "6cd6e0f870c9fb14de49aa440a463d99", "rental_uris": {"ios": "https://dc.lft.to/lastmile_qr_scan", "android": "https://dc.lft.to/lastmile_qr_scan"}}, {"name": "512cd068e4db0a0ead56ccba437337ec", "type": "electric_scooter", "lat": 38.889381, "is_reserved": 0, "lon": -76.94816033333333, "fusion_lon": 0.0, "is_disabled": 0, "fusion_lat": 0.0, "bike_id": "512cd068e4db0a0ead56ccba437337ec", "rental_uris": {"ios": "https://dc.lft.to/lastmile_qr_scan", "android": "https://dc.lft.to/lastmile_qr_scan"}}, {"name": "6d50bcde86430e4d13349c57faccdcf8", "type": "electric_bike", "lat": 38.900906, "is_reserved": 0, "lon": -76.980033, "fusion_lon": 0.0, "is_disabled": 0, "fusion_lat": 0.0, "bike_id": "6d50bcde86430e4d13349c57faccdcf8", "rental_uris": {"ios": "https://dc.lft.to/lastmile_qr_scan", "android": "https://dc.lft.to/lastmile_qr_scan"}}, {"name": "7236a34add1e01b33da7cd23e4fe484d", "type": "electric_scooter", "lat": 38.92914316666667, "is_reserved": 0, "lon": -77.02191666666667, "fusion_lon": 0.0, "is_disabled": 0, "fusion_lat": 0.0, "bike_id": "7236a34add1e01b33da7cd23e4fe484d", "rental_uris": {"ios": "https://dc.lft.to/lastmile_qr_scan", "android": "https://dc.lft.to/lastmile_qr_scan"}}, {"name": "a9eb2d1421640973ad53759133cf1b1b", "type": "electric_scooter", "lat": 38.90024016666667, "is_reserved": 0, "lon": -77.00193016666667, "fusion_lon": 0.0, "is_disabled": 0, "fusion_lat": 0.0, "bike_id": "a9eb2d1421640973ad53759133cf1b1b", "rental_uris": {"ios": "https://dc.lft.to/lastmile_qr_scan", "android": "https://dc.lft.to/lastmile_qr_scan"}}, {"name": "19f6bc3f6093c34c1c95d974694e2aee", "type": "electric_scooter", "lat": 38.90415466666666, "is_reserved": 0, "lon": -77.0294505, "fusion_lon": 0.0, "is_disabled": 0, "fusion_lat": 0.0, "bike_id": "19f6bc3f6093c34c1c95d974694e2aee", "rental_uris": {"ios": "https://dc.lft.to/lastmile_qr_scan", "android": "https://dc.lft.to/lastmile_qr_scan"}}, {"name": "0b638928e438c93746bffdc119a76376", "type": "electric_scooter", "lat": 38.900155, "is_reserved": 0, "lon": -76.99444516666667, "fusion_lon": 0.0, "is_disabled": 0, "fusion_lat": 0.0, "bike_id": "0b638928e438c93746bffdc119a76376", "rental_uris": {"ios": "https://dc.lft.to/lastmile_qr_scan", "android": "https://dc.lft.to/lastmile_qr_scan"}}, {"name": "e6e4381f33b91d1e18870e1022e25077", "type": "electric_bike", "lat": 38.9732145, "is_reserved": 0, "lon": -77.02147033333334, "fusion_lon": 0.0, "is_disabled": 0, "fusion_lat": 0.0, "bike_id": "e6e4381f33b91d1e18870e1022e25077", "rental_uris": {"ios": "https://dc.lft.to/lastmile_qr_scan", "android": "https://dc.lft.to/lastmile_qr_scan"}}, {"name": "1fc2b63b650d89218d283c197e64e2c9", "type": "electric_bike", "lat": 38.8385505, "is_reserved": 0, "lon": -77.0886115, "fusion_lon": 0.0, "is_disabled": 0, "fusion_lat": 0.0, "bike_id": "1fc2b63b650d89218d283c197e64e2c9", "rental_uris": {"ios": "https://dc.lft.to/lastmile_qr_scan", "android": "https://dc.lft.to/lastmile_qr_scan"}}, {"name": "d61dcc2b89e927d3d09dc05f29e4baf1", "type": "electric_scooter", "lat": 38.90340333333333, "is_reserved": 0, "lon": -77.03832866666667, "fusion_lon": 0.0, "is_disabled": 0, "fusion_lat": 0.0, "bike_id": "d61dcc2b89e927d3d09dc05f29e4baf1", "rental_uris": {"ios": "https://dc.lft.to/lastmile_qr_scan", "android": "https://dc.lft.to/lastmile_qr_scan"}}, {"name": "8e86a0337ffcadfebcb6f4ebfe6e3a2f", "type": "electric_scooter", "lat": 38.91183683333333, "is_reserved": 0, "lon": -76.996197, "fusion_lon": 0.0, "is_disabled": 0, "fusion_lat": 0.0, "bike_id": "8e86a0337ffcadfebcb6f4ebfe6e3a2f", "rental_uris": {"ios": "https://dc.lft.to/lastmile_qr_scan", "android": "https://dc.lft.to/lastmile_qr_scan"}}, {"name": "3b495fe2d5f6818567d6bb59a5cd6689", "type": "electric_scooter", "lat": 38.89782866666667, "is_reserved": 0, "lon": -77.02959883333334, "fusion_lon": 0.0, "is_disabled": 0, "fusion_lat": 0.0, "bike_id": "3b495fe2d5f6818567d6bb59a5cd6689", "rental_uris": {"ios": "https://dc.lft.to/lastmile_qr_scan", "android": "https://dc.lft.to/lastmile_qr_scan"}}, {"name": "e4ffa51ed6d73c7ee2b2c4b4e46ad969", "type": "electric_scooter", "lat": 38.8922355, "is_reserved": 0, "lon": -77.04266083333333, "fusion_lon": 0.0, "is_disabled": 0, "fusion_lat": 0.0, "bike_id": "e4ffa51ed6d73c7ee2b2c4b4e46ad969", "rental_uris": {"ios": "https://dc.lft.to/lastmile_qr_scan", "android": "https://dc.lft.to/lastmile_qr_scan"}}, {"name": "49a5f15079380eaf1aecb44c40965c89", "type": "electric_scooter", "lat": 38.8981915, "is_reserved": 0, "lon": -77.02948033333334, "fusion_lon": 0.0, "is_disabled": 0, "fusion_lat": 0.0, "bike_id": "49a5f15079380eaf1aecb44c40965c89", "rental_uris": {"ios": "https://dc.lft.to/lastmile_qr_scan", "android": "https://dc.lft.to/lastmile_qr_scan"}}, {"name": "df67c8937c15cd0b4552e0f117735c99", "type": "electric_scooter", "lat": 38.920654, "is_reserved": 0, "lon": -77.02920366666666, "fusion_lon": 0.0, "is_disabled": 0, "fusion_lat": 0.0, "bike_id": "df67c8937c15cd0b4552e0f117735c99", "rental_uris": {"ios": "https://dc.lft.to/lastmile_qr_scan", "android": "https://dc.lft.to/lastmile_qr_scan"}}, {"name": "f9bfc36ad8a6e46eae30dc68c523675e", "type": "electric_scooter", "lat": 38.883272833333336, "is_reserved": 0, "lon": -77.0176665, "fusion_lon": 0.0, "is_disabled": 0, "fusion_lat": 0.0, "bike_id": "f9bfc36ad8a6e46eae30dc68c523675e", "rental_uris": {"ios": "https://dc.lft.to/lastmile_qr_scan", "android": "https://dc.lft.to/lastmile_qr_scan"}}, {"name": "33fc7f7d97f9db56c12d9f31d7f22b2b", "type": "electric_scooter", "lat": 38.96116633333333, "is_reserved": 0, "lon": -77.02810916666667, "fusion_lon": 0.0, "is_disabled": 0, "fusion_lat": 0.0, "bike_id": "33fc7f7d97f9db56c12d9f31d7f22b2b", "rental_uris": {"ios": "https://dc.lft.to/lastmile_qr_scan", "android": "https://dc.lft.to/lastmile_qr_scan"}}, {"name": "c8809752e3e322f1d667d200b81c2e16", "type": "electric_scooter", "lat": 38.9101175, "is_reserved": 0, "lon": -76.99397716666667, "fusion_lon": 0.0, "is_disabled": 0, "fusion_lat": 0.0, "bike_id": "c8809752e3e322f1d667d200b81c2e16", "rental_uris": {"ios": "https://dc.lft.to/lastmile_qr_scan", "android": "https://dc.lft.to/lastmile_qr_scan"}}, {"name": "91afc06d426127d197043541cc295503", "type": "electric_scooter", "lat": 38.91266016666667, "is_reserved": 0, "lon": -77.031488, "fusion_lon": 0.0, "is_disabled": 0, "fusion_lat": 0.0, "bike_id": "91afc06d426127d197043541cc295503", "rental_uris": {"ios": "https://dc.lft.to/lastmile_qr_scan", "android": "https://dc.lft.to/lastmile_qr_scan"}}, {"name": "db59eb843960c8908171a15bb271e13b", "type": "electric_scooter", "lat": 38.91711316666667, "is_reserved": 0, "lon": -77.03114566666666, "fusion_lon": 0.0, "is_disabled": 0, "fusion_lat": 0.0, "bike_id": "db59eb843960c8908171a15bb271e13b", "rental_uris": {"ios": "https://dc.lft.to/lastmile_qr_scan", "android": "https://dc.lft.to/lastmile_qr_scan"}}, {"name": "1ab5ad1dcf1e3dcd9fc11314bc882cc7", "type": "electric_bike", "lat": 38.85490033333333, "is_reserved": 0, "lon": -77.115217, "fusion_lon": 0.0, "is_disabled": 0, "fusion_lat": 0.0, "bike_id": "1ab5ad1dcf1e3dcd9fc11314bc882cc7", "rental_uris": {"ios": "https://dc.lft.to/lastmile_qr_scan", "android": "https://dc.lft.to/lastmile_qr_scan"}}, {"name": "00ea16f0f06d48dc2ef3cd748cee7e1c", "type": "electric_scooter", "lat": 38.92592616666667, "is_reserved": 0, "lon": -77.03933716666667, "fusion_lon": 0.0, "is_disabled": 0, "fusion_lat": 0.0, "bike_id": "00ea16f0f06d48dc2ef3cd748cee7e1c", "rental_uris": {"ios": "https://dc.lft.to/lastmile_qr_scan", "android": "https://dc.lft.to/lastmile_qr_scan"}}, {"name": "7c555cbe026636b0c3b85845b937d34d", "type": "electric_scooter", "lat": 38.9245395, "is_reserved": 0, "lon": -77.00214716666666, "fusion_lon": 0.0, "is_disabled": 0, "fusion_lat": 0.0, "bike_id": "7c555cbe026636b0c3b85845b937d34d", "rental_uris": {"ios": "https://dc.lft.to/lastmile_qr_scan", "android": "https://dc.lft.to/lastmile_qr_scan"}}, {"name": "58298bf2cebd513f39985a43adec84e3", "type": "electric_scooter", "lat": 38.944381666666665, "is_reserved": 0, "lon": -77.063526, "fusion_lon": 0.0, "is_disabled": 0, "fusion_lat": 0.0, "bike_id": "58298bf2cebd513f39985a43adec84e3", "rental_uris": {"ios": "https://dc.lft.to/lastmile_qr_scan", "android": "https://dc.lft.to/lastmile_qr_scan"}}, {"name": "bc98f35273d06bf49beb45b962a558ed", "type": "electric_scooter", "lat": 38.8901765, "is_reserved": 0, "lon": -76.93733816666666, "fusion_lon": 0.0, "is_disabled": 0, "fusion_lat": 0.0, "bike_id": "bc98f35273d06bf49beb45b962a558ed", "rental_uris": {"ios": "https://dc.lft.to/lastmile_qr_scan", "android": "https://dc.lft.to/lastmile_qr_scan"}}, {"name": "6ea2738c37c8c824058b90613dcb1797", "type": "electric_scooter", "lat": 38.934317666666665, "is_reserved": 0, "lon": -77.07247483333333, "fusion_lon": 0.0, "is_disabled": 0, "fusion_lat": 0.0, "bike_id": "6ea2738c37c8c824058b90613dcb1797", "rental_uris": {"ios": "https://dc.lft.to/lastmile_qr_scan", "android": "https://dc.lft.to/lastmile_qr_scan"}}, {"name": "9dac76c32941e951076b36edd2261bf9", "type": "electric_scooter", "lat": 38.90114766666667, "is_reserved": 0, "lon": -77.049945, "fusion_lon": 0.0, "is_disabled": 0, "fusion_lat": 0.0, "bike_id": "9dac76c32941e951076b36edd2261bf9", "rental_uris": {"ios": "https://dc.lft.to/lastmile_qr_scan", "android": "https://dc.lft.to/lastmile_qr_scan"}}, {"name": "70d7d50f53f76f38792db858f71ab36c", "type": "electric_scooter", "lat": 38.91678666666667, "is_reserved": 0, "lon": -77.0121285, "fusion_lon": 0.0, "is_disabled": 0, "fusion_lat": 0.0, "bike_id": "70d7d50f53f76f38792db858f71ab36c", "rental_uris": {"ios": "https://dc.lft.to/lastmile_qr_scan", "android": "https://dc.lft.to/lastmile_qr_scan"}}, {"name": "27b2802de5106925d3a61737fdefc752", "type": "electric_scooter", "lat": 38.89675583333333, "is_reserved": 0, "lon": -76.99621416666666, "fusion_lon": 0.0, "is_disabled": 0, "fusion_lat": 0.0, "bike_id": "27b2802de5106925d3a61737fdefc752", "rental_uris": {"ios": "https://dc.lft.to/lastmile_qr_scan", "android": "https://dc.lft.to/lastmile_qr_scan"}}, {"name": "1f03b535df1e2171f86329da9915fc75", "type": "electric_scooter", "lat": 38.897314, "is_reserved": 0, "lon": -77.05574533333333, "fusion_lon": 0.0, "is_disabled": 0, "fusion_lat": 0.0, "bike_id": "1f03b535df1e2171f86329da9915fc75", "rental_uris": {"ios": "https://dc.lft.to/lastmile_qr_scan", "android": "https://dc.lft.to/lastmile_qr_scan"}}, {"name": "d31e1d9f1e5a069e20c265cb0f9e21d6", "type": "electric_bike", "lat": 38.896081, "is_reserved": 0, "lon": -77.04964766666667, "fusion_lon": 0.0, "is_disabled": 0, "fusion_lat": 0.0, "bike_id": "d31e1d9f1e5a069e20c265cb0f9e21d6", "rental_uris": {"ios": "https://dc.lft.to/lastmile_qr_scan", "android": "https://dc.lft.to/lastmile_qr_scan"}}, {"name": "d1e2893548bbea89af3c4c884d62fa99", "type": "electric_scooter", "lat": 38.900799666666664, "is_reserved": 0, "lon": -76.93864233333333, "fusion_lon": 0.0, "is_disabled": 0, "fusion_lat": 0.0, "bike_id": "d1e2893548bbea89af3c4c884d62fa99", "rental_uris": {"ios": "https://dc.lft.to/lastmile_qr_scan", "android": "https://dc.lft.to/lastmile_qr_scan"}}, {"name": "a8f365671ac01add3da69eb30239e76f", "type": "electric_scooter", "lat": 38.89222633333333, "is_reserved": 0, "lon": -77.03214133333333, "fusion_lon": 0.0, "is_disabled": 0, "fusion_lat": 0.0, "bike_id": "a8f365671ac01add3da69eb30239e76f", "rental_uris": {"ios": "https://dc.lft.to/lastmile_qr_scan", "android": "https://dc.lft.to/lastmile_qr_scan"}}, {"name": "b2a3f40606952385f28f0684b92aad02", "type": "electric_scooter", "lat": 38.928507, "is_reserved": 0, "lon": -77.03254666666666, "fusion_lon": 0.0, "is_disabled": 0, "fusion_lat": 0.0, "bike_id": "b2a3f40606952385f28f0684b92aad02", "rental_uris": {"ios": "https://dc.lft.to/lastmile_qr_scan", "android": "https://dc.lft.to/lastmile_qr_scan"}}, {"name": "aa16857244a489cdd7d8169ee144da6d", "type": "electric_bike", "lat": 38.858453833333336, "is_reserved": 0, "lon": -77.09749083333334, "fusion_lon": 0.0, "is_disabled": 0, "fusion_lat": 0.0, "bike_id": "aa16857244a489cdd7d8169ee144da6d", "rental_uris": {"ios": "https://dc.lft.to/lastmile_qr_scan", "android": "https://dc.lft.to/lastmile_qr_scan"}}, {"name": "be98efb61a7ba0f55bb514dbb7899963", "type": "electric_bike", "lat": 38.9662245, "is_reserved": 0, "lon": -76.97668116666667, "fusion_lon": 0.0, "is_disabled": 0, "fusion_lat": 0.0, "bike_id": "be98efb61a7ba0f55bb514dbb7899963", "rental_uris": {"ios": "https://dc.lft.to/lastmile_qr_scan", "android": "https://dc.lft.to/lastmile_qr_scan"}}, {"name": "3d442953a0c2dd625f8122e474690340", "type": "electric_scooter", "lat": 38.93377433333333, "is_reserved": 0, "lon": -77.02963666666666, "fusion_lon": 0.0, "is_disabled": 0, "fusion_lat": 0.0, "bike_id": "3d442953a0c2dd625f8122e474690340", "rental_uris": {"ios": "https://dc.lft.to/lastmile_qr_scan", "android": "https://dc.lft.to/lastmile_qr_scan"}}, {"name": "0de1b0b0b95c4218cc3a0fc98e416809", "type": "electric_scooter", "lat": 38.8993845, "is_reserved": 0, "lon": -77.03167566666667, "fusion_lon": 0.0, "is_disabled": 0, "fusion_lat": 0.0, "bike_id": "0de1b0b0b95c4218cc3a0fc98e416809", "rental_uris": {"ios": "https://dc.lft.to/lastmile_qr_scan", "android": "https://dc.lft.to/lastmile_qr_scan"}}, {"name": "488f3d9fd9b5f0c256fd6541048ff8b2", "type": "electric_bike", "lat": 38.90737016666667, "is_reserved": 0, "lon": -77.013167, "fusion_lon": 0.0, "is_disabled": 0, "fusion_lat": 0.0, "bike_id": "488f3d9fd9b5f0c256fd6541048ff8b2", "rental_uris": {"ios": "https://dc.lft.to/lastmile_qr_scan", "android": "https://dc.lft.to/lastmile_qr_scan"}}, {"name": "ad95f4ba081a337300e3e12073f0be10", "type": "electric_scooter", "lat": 38.939772166666664, "is_reserved": 0, "lon": -77.02896666666666, "fusion_lon": 0.0, "is_disabled": 0, "fusion_lat": 0.0, "bike_id": "ad95f4ba081a337300e3e12073f0be10", "rental_uris": {"ios": "https://dc.lft.to/lastmile_qr_scan", "android": "https://dc.lft.to/lastmile_qr_scan"}}, {"name": "4fe5b17faf78eed234783adc4de4be2a", "type": "electric_scooter", "lat": 38.920548333333336, "is_reserved": 0, "lon": -77.03344483333333, "fusion_lon": 0.0, "is_disabled": 0, "fusion_lat": 0.0, "bike_id": "4fe5b17faf78eed234783adc4de4be2a", "rental_uris": {"ios": "https://dc.lft.to/lastmile_qr_scan", "android": "https://dc.lft.to/lastmile_qr_scan"}}, {"name": "1d7c79d7314d1e7f4032579199b7d22d", "type": "electric_scooter", "lat": 38.866967, "is_reserved": 0, "lon": -76.98710483333333, "fusion_lon": 0.0, "is_disabled": 0, "fusion_lat": 0.0, "bike_id": "1d7c79d7314d1e7f4032579199b7d22d", "rental_uris": {"ios": "https://dc.lft.to/lastmile_qr_scan", "android": "https://dc.lft.to/lastmile_qr_scan"}}, {"name": "7e4035491d166865735dc171f6760acf", "type": "electric_scooter", "lat": 38.91719633333334, "is_reserved": 0, "lon": -77.0365715, "fusion_lon": 0.0, "is_disabled": 0, "fusion_lat": 0.0, "bike_id": "7e4035491d166865735dc171f6760acf", "rental_uris": {"ios": "https://dc.lft.to/lastmile_qr_scan", "android": "https://dc.lft.to/lastmile_qr_scan"}}, {"name": "d505f1220fcdf4708d756ac3343b5e75", "type": "electric_scooter", "lat": 38.920703833333334, "is_reserved": 0, "lon": -77.0346385, "fusion_lon": 0.0, "is_disabled": 0, "fusion_lat": 0.0, "bike_id": "d505f1220fcdf4708d756ac3343b5e75", "rental_uris": {"ios": "https://dc.lft.to/lastmile_qr_scan", "android": "https://dc.lft.to/lastmile_qr_scan"}}, {"name": "8b31c0a7a733ee896b634fe3c2f8e56f", "type": "electric_bike", "lat": 38.99939083333334, "is_reserved": 0, "lon": -77.017672, "fusion_lon": 0.0, "is_disabled": 0, "fusion_lat": 0.0, "bike_id": "8b31c0a7a733ee896b634fe3c2f8e56f", "rental_uris": {"ios": "https://dc.lft.to/lastmile_qr_scan", "android": "https://dc.lft.to/lastmile_qr_scan"}}, {"name": "925c07f0f77fce148901b348037b100b", "type": "electric_scooter", "lat": 38.9015435, "is_reserved": 0, "lon": -77.028729, "fusion_lon": 0.0, "is_disabled": 0, "fusion_lat": 0.0, "bike_id": "925c07f0f77fce148901b348037b100b", "rental_uris": {"ios": "https://dc.lft.to/lastmile_qr_scan", "android": "https://dc.lft.to/lastmile_qr_scan"}}, {"name": "56b6d9f3094a2edf5fd0a12281f66126", "type": "electric_scooter", "lat": 38.92247316666667, "is_reserved": 0, "lon": -77.043379, "fusion_lon": 0.0, "is_disabled": 0, "fusion_lat": 0.0, "bike_id": "56b6d9f3094a2edf5fd0a12281f66126", "rental_uris": {"ios": "https://dc.lft.to/lastmile_qr_scan", "android": "https://dc.lft.to/lastmile_qr_scan"}}, {"name": "f2b5cbd1235e6fc7dbe26f1a595057d2", "type": "electric_bike", "lat": 38.952651, "is_reserved": 0, "lon": -77.06981533333334, "fusion_lon": 0.0, "is_disabled": 0, "fusion_lat": 0.0, "bike_id": "f2b5cbd1235e6fc7dbe26f1a595057d2", "rental_uris": {"ios": "https://dc.lft.to/lastmile_qr_scan", "android": "https://dc.lft.to/lastmile_qr_scan"}}, {"name": "8653b9dda5d0d0b6c04cf22a19eebf18", "type": "electric_scooter", "lat": 38.86364183333333, "is_reserved": 0, "lon": -76.99052616666667, "fusion_lon": 0.0, "is_disabled": 0, "fusion_lat": 0.0, "bike_id": "8653b9dda5d0d0b6c04cf22a19eebf18", "rental_uris": {"ios": "https://dc.lft.to/lastmile_qr_scan", "android": "https://dc.lft.to/lastmile_qr_scan"}}, {"name": "262a639b42199c9d4f32273b3a5594fd", "type": "electric_scooter", "lat": 38.86659566666667, "is_reserved": 0, "lon": -76.98884383333333, "fusion_lon": 0.0, "is_disabled": 0, "fusion_lat": 0.0, "bike_id": "262a639b42199c9d4f32273b3a5594fd", "rental_uris": {"ios": "https://dc.lft.to/lastmile_qr_scan", "android": "https://dc.lft.to/lastmile_qr_scan"}}, {"name": "61fa80d05fa47be654b552137a572caf", "type": "electric_bike", "lat": 38.86275833333333, "is_reserved": 0, "lon": -77.063615, "fusion_lon": 0.0, "is_disabled": 0, "fusion_lat": 0.0, "bike_id": "61fa80d05fa47be654b552137a572caf", "rental_uris": {"ios": "https://dc.lft.to/lastmile_qr_scan", "android": "https://dc.lft.to/lastmile_qr_scan"}}, {"name": "d2b7336f5951a0ce844d5a33fbd6a670", "type": "electric_scooter", "lat": 38.906782, "is_reserved": 0, "lon": -77.03827633333333, "fusion_lon": 0.0, "is_disabled": 0, "fusion_lat": 0.0, "bike_id": "d2b7336f5951a0ce844d5a33fbd6a670", "rental_uris": {"ios": "https://dc.lft.to/lastmile_qr_scan", "android": "https://dc.lft.to/lastmile_qr_scan"}}, {"name": "4e919552979a0c44b38c3a1f0c8277e1", "type": "electric_scooter", "lat": 38.901105, "is_reserved": 0, "lon": -77.03170316666667, "fusion_lon": 0.0, "is_disabled": 0, "fusion_lat": 0.0, "bike_id": "4e919552979a0c44b38c3a1f0c8277e1", "rental_uris": {"ios": "https://dc.lft.to/lastmile_qr_scan", "android": "https://dc.lft.to/lastmile_qr_scan"}}, {"name": "6e87b8b63caf1fbef24389e1e4a7475e", "type": "electric_scooter", "lat": 38.91990783333333, "is_reserved": 0, "lon": -77.038802, "fusion_lon": 0.0, "is_disabled": 0, "fusion_lat": 0.0, "bike_id": "6e87b8b63caf1fbef24389e1e4a7475e", "rental_uris": {"ios": "https://dc.lft.to/lastmile_qr_scan", "android": "https://dc.lft.to/lastmile_qr_scan"}}, {"name": "1d1aa29d1110adb977147f07220a41e4", "type": "electric_scooter", "lat": 38.911151, "is_reserved": 0, "lon": -77.03727866666667, "fusion_lon": 0.0, "is_disabled": 0, "fusion_lat": 0.0, "bike_id": "1d1aa29d1110adb977147f07220a41e4", "rental_uris": {"ios": "https://dc.lft.to/lastmile_qr_scan", "android": "https://dc.lft.to/lastmile_qr_scan"}}, {"name": "05e6ee9f60ef57eb36f24d9b7ce556c9", "type": "electric_scooter", "lat": 38.893752666666664, "is_reserved": 0, "lon": -77.0298595, "fusion_lon": 0.0, "is_disabled": 0, "fusion_lat": 0.0, "bike_id": "05e6ee9f60ef57eb36f24d9b7ce556c9", "rental_uris": {"ios": "https://dc.lft.to/lastmile_qr_scan", "android": "https://dc.lft.to/lastmile_qr_scan"}}, {"name": "58b0e77e98bddf3d7ac968203f73f0ce", "type": "electric_scooter", "lat": 38.90255783333333, "is_reserved": 0, "lon": -77.03344333333334, "fusion_lon": 0.0, "is_disabled": 0, "fusion_lat": 0.0, "bike_id": "58b0e77e98bddf3d7ac968203f73f0ce", "rental_uris": {"ios": "https://dc.lft.to/lastmile_qr_scan", "android": "https://dc.lft.to/lastmile_qr_scan"}}, {"name": "f9d69d3372ea924c010df2b800845f6a", "type": "electric_scooter", "lat": 38.865243166666666, "is_reserved": 0, "lon": -76.99029316666666, "fusion_lon": 0.0, "is_disabled": 0, "fusion_lat": 0.0, "bike_id": "f9d69d3372ea924c010df2b800845f6a", "rental_uris": {"ios": "https://dc.lft.to/lastmile_qr_scan", "android": "https://dc.lft.to/lastmile_qr_scan"}}, {"name": "23205024ff1780803c926bbf114bfdd3", "type": "electric_scooter", "lat": 38.9250905, "is_reserved": 0, "lon": -77.0193435, "fusion_lon": 0.0, "is_disabled": 0, "fusion_lat": 0.0, "bike_id": "23205024ff1780803c926bbf114bfdd3", "rental_uris": {"ios": "https://dc.lft.to/lastmile_qr_scan", "android": "https://dc.lft.to/lastmile_qr_scan"}}, {"name": "02615e08fc41cf286749d2c95df66bae", "type": "electric_scooter", "lat": 38.927422166666666, "is_reserved": 0, "lon": -77.0326285, "fusion_lon": 0.0, "is_disabled": 0, "fusion_lat": 0.0, "bike_id": "02615e08fc41cf286749d2c95df66bae", "rental_uris": {"ios": "https://dc.lft.to/lastmile_qr_scan", "android": "https://dc.lft.to/lastmile_qr_scan"}}, {"name": "0b5560d4687c34cf376d445b1149fd0a", "type": "electric_scooter", "lat": 38.8860815, "is_reserved": 0, "lon": -76.995137, "fusion_lon": 0.0, "is_disabled": 0, "fusion_lat": 0.0, "bike_id": "0b5560d4687c34cf376d445b1149fd0a", "rental_uris": {"ios": "https://dc.lft.to/lastmile_qr_scan", "android": "https://dc.lft.to/lastmile_qr_scan"}}, {"name": "eded90246c33529369586777c83eb81d", "type": "electric_scooter", "lat": 38.897706, "is_reserved": 0, "lon": -77.0513595, "fusion_lon": 0.0, "is_disabled": 0, "fusion_lat": 0.0, "bike_id": "eded90246c33529369586777c83eb81d", "rental_uris": {"ios": "https://dc.lft.to/lastmile_qr_scan", "android": "https://dc.lft.to/lastmile_qr_scan"}}, {"name": "3830e1e587dd80bc1ab06a982cb31be2", "type": "electric_scooter", "lat": 38.903907, "is_reserved": 0, "lon": -77.04218433333334, "fusion_lon": 0.0, "is_disabled": 0, "fusion_lat": 0.0, "bike_id": "3830e1e587dd80bc1ab06a982cb31be2", "rental_uris": {"ios": "https://dc.lft.to/lastmile_qr_scan", "android": "https://dc.lft.to/lastmile_qr_scan"}}, {"name": "256d1d825f6af7cc3389dc3ee7b4ad6a", "type": "electric_scooter", "lat": 38.92026, "is_reserved": 0, "lon": -77.01113383333333, "fusion_lon": 0.0, "is_disabled": 0, "fusion_lat": 0.0, "bike_id": "256d1d825f6af7cc3389dc3ee7b4ad6a", "rental_uris": {"ios": "https://dc.lft.to/lastmile_qr_scan", "android": "https://dc.lft.to/lastmile_qr_scan"}}, {"name": "c7eabe20af2fb2de3ab805f43cfdea78", "type": "electric_scooter", "lat": 38.901422, "is_reserved": 0, "lon": -77.04456833333333, "fusion_lon": 0.0, "is_disabled": 0, "fusion_lat": 0.0, "bike_id": "c7eabe20af2fb2de3ab805f43cfdea78", "rental_uris": {"ios": "https://dc.lft.to/lastmile_qr_scan", "android": "https://dc.lft.to/lastmile_qr_scan"}}, {"name": "e61fbd5ceacad8a293460a26dfa0c217", "type": "electric_scooter", "lat": 38.84293383333333, "is_reserved": 0, "lon": -76.99948533333334, "fusion_lon": 0.0, "is_disabled": 0, "fusion_lat": 0.0, "bike_id": "e61fbd5ceacad8a293460a26dfa0c217", "rental_uris": {"ios": "https://dc.lft.to/lastmile_qr_scan", "android": "https://dc.lft.to/lastmile_qr_scan"}}, {"name": "5166d6fc62bce9bc00e2894e7a0fabaf", "type": "electric_scooter", "lat": 38.932941666666665, "is_reserved": 0, "lon": -77.027951, "fusion_lon": 0.0, "is_disabled": 0, "fusion_lat": 0.0, "bike_id": "5166d6fc62bce9bc00e2894e7a0fabaf", "rental_uris": {"ios": "https://dc.lft.to/lastmile_qr_scan", "android": "https://dc.lft.to/lastmile_qr_scan"}}, {"name": "ec56cfe6cfc28aa5ea5631aca575635c", "type": "electric_scooter", "lat": 38.974781666666665, "is_reserved": 0, "lon": -77.0189455, "fusion_lon": 0.0, "is_disabled": 0, "fusion_lat": 0.0, "bike_id": "ec56cfe6cfc28aa5ea5631aca575635c", "rental_uris": {"ios": "https://dc.lft.to/lastmile_qr_scan", "android": "https://dc.lft.to/lastmile_qr_scan"}}, {"name": "78e88d4ea44a439e0a28f15f17872683", "type": "electric_bike", "lat": 38.8580195, "is_reserved": 0, "lon": -76.987549, "fusion_lon": 0.0, "is_disabled": 0, "fusion_lat": 0.0, "bike_id": "78e88d4ea44a439e0a28f15f17872683", "rental_uris": {"ios": "https://dc.lft.to/lastmile_qr_scan", "android": "https://dc.lft.to/lastmile_qr_scan"}}, {"name": "6ac4b1afadf752238e921a88641b86c2", "type": "electric_scooter", "lat": 38.95271183333333, "is_reserved": 0, "lon": -77.06832416666667, "fusion_lon": 0.0, "is_disabled": 0, "fusion_lat": 0.0, "bike_id": "6ac4b1afadf752238e921a88641b86c2", "rental_uris": {"ios": "https://dc.lft.to/lastmile_qr_scan", "android": "https://dc.lft.to/lastmile_qr_scan"}}, {"name": "5412baa0b8de450c5e918786d7c307af", "type": "electric_bike", "lat": 38.92463716666666, "is_reserved": 0, "lon": -77.20840583333333, "fusion_lon": 0.0, "is_disabled": 0, "fusion_lat": 0.0, "bike_id": "5412baa0b8de450c5e918786d7c307af", "rental_uris": {"ios": "https://dc.lft.to/lastmile_qr_scan", "android": "https://dc.lft.to/lastmile_qr_scan"}}, {"name": "a5940d619fe78d0a41e4d805450e0417", "type": "electric_scooter", "lat": 38.90381083333333, "is_reserved": 0, "lon": -77.00762466666667, "fusion_lon": 0.0, "is_disabled": 0, "fusion_lat": 0.0, "bike_id": "a5940d619fe78d0a41e4d805450e0417", "rental_uris": {"ios": "https://dc.lft.to/lastmile_qr_scan", "android": "https://dc.lft.to/lastmile_qr_scan"}}, {"name": "cc4dac4a1db76c6262b3ce60dc00ff8d", "type": "electric_bike", "lat": 38.891873, "is_reserved": 0, "lon": -77.12261716666667, "fusion_lon": 0.0, "is_disabled": 0, "fusion_lat": 0.0, "bike_id": "cc4dac4a1db76c6262b3ce60dc00ff8d", "rental_uris": {"ios": "https://dc.lft.to/lastmile_qr_scan", "android": "https://dc.lft.to/lastmile_qr_scan"}}, {"name": "96bd4031553aa3c47b745c6a8bf718da", "type": "electric_scooter", "lat": 38.90675916666667, "is_reserved": 0, "lon": -76.97804716666667, "fusion_lon": 0.0, "is_disabled": 0, "fusion_lat": 0.0, "bike_id": "96bd4031553aa3c47b745c6a8bf718da", "rental_uris": {"ios": "https://dc.lft.to/lastmile_qr_scan", "android": "https://dc.lft.to/lastmile_qr_scan"}}, {"name": "1ba3bb3cdd985dd9e56fd7390a34ef69", "type": "electric_scooter", "lat": 38.91109183333333, "is_reserved": 0, "lon": -77.04927283333333, "fusion_lon": 0.0, "is_disabled": 0, "fusion_lat": 0.0, "bike_id": "1ba3bb3cdd985dd9e56fd7390a34ef69", "rental_uris": {"ios": "https://dc.lft.to/lastmile_qr_scan", "android": "https://dc.lft.to/lastmile_qr_scan"}}, {"name": "e035f1f3a349cbcec12ed6f5f2871cb1", "type": "electric_bike", "lat": 38.95552383333333, "is_reserved": 0, "lon": -76.93543566666666, "fusion_lon": 0.0, "is_disabled": 0, "fusion_lat": 0.0, "bike_id": "e035f1f3a349cbcec12ed6f5f2871cb1", "rental_uris": {"ios": "https://dc.lft.to/lastmile_qr_scan", "android": "https://dc.lft.to/lastmile_qr_scan"}}, {"name": "a0b1ed293948222d22e9311c8216a45c", "type": "electric_scooter", "lat": 38.9342615, "is_reserved": 0, "lon": -77.03410766666667, "fusion_lon": 0.0, "is_disabled": 0, "fusion_lat": 0.0, "bike_id": "a0b1ed293948222d22e9311c8216a45c", "rental_uris": {"ios": "https://dc.lft.to/lastmile_qr_scan", "android": "https://dc.lft.to/lastmile_qr_scan"}}, {"name": "979ba768c3c795c7e87232dbb7eeb640", "type": "electric_scooter", "lat": 38.9101515, "is_reserved": 0, "lon": -77.05266566666667, "fusion_lon": 0.0, "is_disabled": 0, "fusion_lat": 0.0, "bike_id": "979ba768c3c795c7e87232dbb7eeb640", "rental_uris": {"ios": "https://dc.lft.to/lastmile_qr_scan", "android": "https://dc.lft.to/lastmile_qr_scan"}}, {"name": "f764e92283894c15aff6058d6474b730", "type": "electric_scooter", "lat": 38.91032033333333, "is_reserved": 0, "lon": -77.0308715, "fusion_lon": 0.0, "is_disabled": 0, "fusion_lat": 0.0, "bike_id": "f764e92283894c15aff6058d6474b730", "rental_uris": {"ios": "https://dc.lft.to/lastmile_qr_scan", "android": "https://dc.lft.to/lastmile_qr_scan"}}, {"name": "e7c7263187672823e7d1ee4aa6f88718", "type": "electric_scooter", "lat": 38.942747, "is_reserved": 0, "lon": -77.02501683333334, "fusion_lon": 0.0, "is_disabled": 0, "fusion_lat": 0.0, "bike_id": "e7c7263187672823e7d1ee4aa6f88718", "rental_uris": {"ios": "https://dc.lft.to/lastmile_qr_scan", "android": "https://dc.lft.to/lastmile_qr_scan"}}, {"name": "66be5de559c1f1a14c49570b7726fcce", "type": "electric_scooter", "lat": 38.908343, "is_reserved": 0, "lon": -76.99698783333334, "fusion_lon": 0.0, "is_disabled": 0, "fusion_lat": 0.0, "bike_id": "66be5de559c1f1a14c49570b7726fcce", "rental_uris": {"ios": "https://dc.lft.to/lastmile_qr_scan", "android": "https://dc.lft.to/lastmile_qr_scan"}}, {"name": "8dd74aaf1e0534703ddb8da376dedae2", "type": "electric_scooter", "lat": 38.880370166666665, "is_reserved": 0, "lon": -76.92722083333334, "fusion_lon": 0.0, "is_disabled": 0, "fusion_lat": 0.0, "bike_id": "8dd74aaf1e0534703ddb8da376dedae2", "rental_uris": {"ios": "https://dc.lft.to/lastmile_qr_scan", "android": "https://dc.lft.to/lastmile_qr_scan"}}, {"name": "90da23bf8a45518afcd5ddb854fd8061", "type": "electric_scooter", "lat": 38.905297, "is_reserved": 0, "lon": -77.0504515, "fusion_lon": 0.0, "is_disabled": 0, "fusion_lat": 0.0, "bike_id": "90da23bf8a45518afcd5ddb854fd8061", "rental_uris": {"ios": "https://dc.lft.to/lastmile_qr_scan", "android": "https://dc.lft.to/lastmile_qr_scan"}}, {"name": "2b7744713776cfb5b3f3e0b63e58c0aa", "type": "electric_scooter", "lat": 38.89849183333333, "is_reserved": 0, "lon": -77.033468, "fusion_lon": 0.0, "is_disabled": 0, "fusion_lat": 0.0, "bike_id": "2b7744713776cfb5b3f3e0b63e58c0aa", "rental_uris": {"ios": "https://dc.lft.to/lastmile_qr_scan", "android": "https://dc.lft.to/lastmile_qr_scan"}}, {"name": "b3a2ca7d4563ad16e08ae17ffb004ee5", "type": "electric_scooter", "lat": 38.920611666666666, "is_reserved": 0, "lon": -77.04362016666667, "fusion_lon": 0.0, "is_disabled": 0, "fusion_lat": 0.0, "bike_id": "b3a2ca7d4563ad16e08ae17ffb004ee5", "rental_uris": {"ios": "https://dc.lft.to/lastmile_qr_scan", "android": "https://dc.lft.to/lastmile_qr_scan"}}, {"name": "a55a80954e2c982577deb8ca17a13a47", "type": "electric_scooter", "lat": 38.92167833333333, "is_reserved": 0, "lon": -76.99397066666667, "fusion_lon": 0.0, "is_disabled": 0, "fusion_lat": 0.0, "bike_id": "a55a80954e2c982577deb8ca17a13a47", "rental_uris": {"ios": "https://dc.lft.to/lastmile_qr_scan", "android": "https://dc.lft.to/lastmile_qr_scan"}}, {"name": "77827644e12d7071416cbab070b5ca0e", "type": "electric_scooter", "lat": 38.914936833333336, "is_reserved": 0, "lon": -77.01850016666667, "fusion_lon": 0.0, "is_disabled": 0, "fusion_lat": 0.0, "bike_id": "77827644e12d7071416cbab070b5ca0e", "rental_uris": {"ios": "https://dc.lft.to/lastmile_qr_scan", "android": "https://dc.lft.to/lastmile_qr_scan"}}, {"name": "8e52a6fd138f045365481fec69b28e87", "type": "electric_scooter", "lat": 38.914953833333335, "is_reserved": 0, "lon": -76.983707, "fusion_lon": 0.0, "is_disabled": 0, "fusion_lat": 0.0, "bike_id": "8e52a6fd138f045365481fec69b28e87", "rental_uris": {"ios": "https://dc.lft.to/lastmile_qr_scan", "android": "https://dc.lft.to/lastmile_qr_scan"}}, {"name": "185d32b2a45ced1b5de8e3d992f7007f", "type": "electric_scooter", "lat": 38.912644, "is_reserved": 0, "lon": -77.003665, "fusion_lon": 0.0, "is_disabled": 0, "fusion_lat": 0.0, "bike_id": "185d32b2a45ced1b5de8e3d992f7007f", "rental_uris": {"ios": "https://dc.lft.to/lastmile_qr_scan", "android": "https://dc.lft.to/lastmile_qr_scan"}}, {"name": "b80cc223cb0ff82ebdfa80d9c74ec019", "type": "electric_scooter", "lat": 38.930593, "is_reserved": 0, "lon": -77.041308, "fusion_lon": 0.0, "is_disabled": 0, "fusion_lat": 0.0, "bike_id": "b80cc223cb0ff82ebdfa80d9c74ec019", "rental_uris": {"ios": "https://dc.lft.to/lastmile_qr_scan", "android": "https://dc.lft.to/lastmile_qr_scan"}}, {"name": "76a276dd8673f05874e50f162f74134a", "type": "electric_scooter", "lat": 38.894822166666664, "is_reserved": 0, "lon": -76.94871966666666, "fusion_lon": 0.0, "is_disabled": 0, "fusion_lat": 0.0, "bike_id": "76a276dd8673f05874e50f162f74134a", "rental_uris": {"ios": "https://dc.lft.to/lastmile_qr_scan", "android": "https://dc.lft.to/lastmile_qr_scan"}}, {"name": "623d3064cb7b0c1bf0b2d5f893795f9f", "type": "electric_scooter", "lat": 38.9197935, "is_reserved": 0, "lon": -77.02177683333333, "fusion_lon": 0.0, "is_disabled": 0, "fusion_lat": 0.0, "bike_id": "623d3064cb7b0c1bf0b2d5f893795f9f", "rental_uris": {"ios": "https://dc.lft.to/lastmile_qr_scan", "android": "https://dc.lft.to/lastmile_qr_scan"}}, {"name": "415d20f2455860de58319d144dc47a4d", "type": "electric_scooter", "lat": 38.912743, "is_reserved": 0, "lon": -77.03149766666667, "fusion_lon": 0.0, "is_disabled": 0, "fusion_lat": 0.0, "bike_id": "415d20f2455860de58319d144dc47a4d", "rental_uris": {"ios": "https://dc.lft.to/lastmile_qr_scan", "android": "https://dc.lft.to/lastmile_qr_scan"}}, {"name": "af901dcdee3ceb893f216cdc3cb13b6b", "type": "electric_scooter", "lat": 38.8922375, "is_reserved": 0, "lon": -77.04369833333334, "fusion_lon": 0.0, "is_disabled": 0, "fusion_lat": 0.0, "bike_id": "af901dcdee3ceb893f216cdc3cb13b6b", "rental_uris": {"ios": "https://dc.lft.to/lastmile_qr_scan", "android": "https://dc.lft.to/lastmile_qr_scan"}}, {"name": "c62b9ff26c5176c61bd88f3c8ceac6ab", "type": "electric_scooter", "lat": 38.92246383333333, "is_reserved": 0, "lon": -77.030777, "fusion_lon": 0.0, "is_disabled": 0, "fusion_lat": 0.0, "bike_id": "c62b9ff26c5176c61bd88f3c8ceac6ab", "rental_uris": {"ios": "https://dc.lft.to/lastmile_qr_scan", "android": "https://dc.lft.to/lastmile_qr_scan"}}, {"name": "83f48571d86df77b2f31af2ebcb3376b", "type": "electric_scooter", "lat": 38.87551766666667, "is_reserved": 0, "lon": -76.96489566666666, "fusion_lon": 0.0, "is_disabled": 0, "fusion_lat": 0.0, "bike_id": "83f48571d86df77b2f31af2ebcb3376b", "rental_uris": {"ios": "https://dc.lft.to/lastmile_qr_scan", "android": "https://dc.lft.to/lastmile_qr_scan"}}, {"name": "acec0c0c2ef186272552af1d2c75265b", "type": "electric_scooter", "lat": 38.895351833333336, "is_reserved": 0, "lon": -77.04835983333334, "fusion_lon": 0.0, "is_disabled": 0, "fusion_lat": 0.0, "bike_id": "acec0c0c2ef186272552af1d2c75265b", "rental_uris": {"ios": "https://dc.lft.to/lastmile_qr_scan", "android": "https://dc.lft.to/lastmile_qr_scan"}}, {"name": "3a98988c934f237a9e1e39cacced1520", "type": "electric_scooter", "lat": 38.90004066666667, "is_reserved": 0, "lon": -77.0524265, "fusion_lon": 0.0, "is_disabled": 0, "fusion_lat": 0.0, "bike_id": "3a98988c934f237a9e1e39cacced1520", "rental_uris": {"ios": "https://dc.lft.to/lastmile_qr_scan", "android": "https://dc.lft.to/lastmile_qr_scan"}}, {"name": "b7cad0d30015fbc31a769b68c4716326", "type": "electric_scooter", "lat": 38.91790983333333, "is_reserved": 0, "lon": -77.02287133333333, "fusion_lon": 0.0, "is_disabled": 0, "fusion_lat": 0.0, "bike_id": "b7cad0d30015fbc31a769b68c4716326", "rental_uris": {"ios": "https://dc.lft.to/lastmile_qr_scan", "android": "https://dc.lft.to/lastmile_qr_scan"}}, {"name": "0c1c502216ab70b65deedf04fbe6305f", "type": "electric_bike", "lat": 38.9047105, "is_reserved": 0, "lon": -76.92947733333334, "fusion_lon": 0.0, "is_disabled": 0, "fusion_lat": 0.0, "bike_id": "0c1c502216ab70b65deedf04fbe6305f", "rental_uris": {"ios": "https://dc.lft.to/lastmile_qr_scan", "android": "https://dc.lft.to/lastmile_qr_scan"}}, {"name": "46a544f3c529a744424cb041ff04ee3d", "type": "electric_scooter", "lat": 38.903877666666666, "is_reserved": 0, "lon": -77.03419483333333, "fusion_lon": 0.0, "is_disabled": 0, "fusion_lat": 0.0, "bike_id": "46a544f3c529a744424cb041ff04ee3d", "rental_uris": {"ios": "https://dc.lft.to/lastmile_qr_scan", "android": "https://dc.lft.to/lastmile_qr_scan"}}, {"name": "7e4907ac6ddfec559fad27f2c5d5d3b5", "type": "electric_scooter", "lat": 38.9153045, "is_reserved": 0, "lon": -77.04615016666666, "fusion_lon": 0.0, "is_disabled": 0, "fusion_lat": 0.0, "bike_id": "7e4907ac6ddfec559fad27f2c5d5d3b5", "rental_uris": {"ios": "https://dc.lft.to/lastmile_qr_scan", "android": "https://dc.lft.to/lastmile_qr_scan"}}, {"name": "183678c5cd9a91a0de608e60203eb143", "type": "electric_bike", "lat": 38.9354885, "is_reserved": 0, "lon": -77.0730635, "fusion_lon": 0.0, "is_disabled": 0, "fusion_lat": 0.0, "bike_id": "183678c5cd9a91a0de608e60203eb143", "rental_uris": {"ios": "https://dc.lft.to/lastmile_qr_scan", "android": "https://dc.lft.to/lastmile_qr_scan"}}, {"name": "8f01abad8bddde3c1ba0150cd8bc6a16", "type": "electric_scooter", "lat": 38.900052333333335, "is_reserved": 0, "lon": -76.99843466666667, "fusion_lon": 0.0, "is_disabled": 0, "fusion_lat": 0.0, "bike_id": "8f01abad8bddde3c1ba0150cd8bc6a16", "rental_uris": {"ios": "https://dc.lft.to/lastmile_qr_scan", "android": "https://dc.lft.to/lastmile_qr_scan"}}, {"name": "b888ff4e04ed46eefd1dbb61a8c0c36a", "type": "electric_scooter", "lat": 38.906702833333334, "is_reserved": 0, "lon": -77.0382375, "fusion_lon": 0.0, "is_disabled": 0, "fusion_lat": 0.0, "bike_id": "b888ff4e04ed46eefd1dbb61a8c0c36a", "rental_uris": {"ios": "https://dc.lft.to/lastmile_qr_scan", "android": "https://dc.lft.to/lastmile_qr_scan"}}, {"name": "36789733ea5a02f897d119f852a76d36", "type": "electric_scooter", "lat": 38.896700833333334, "is_reserved": 0, "lon": -77.02605733333333, "fusion_lon": 0.0, "is_disabled": 0, "fusion_lat": 0.0, "bike_id": "36789733ea5a02f897d119f852a76d36", "rental_uris": {"ios": "https://dc.lft.to/lastmile_qr_scan", "android": "https://dc.lft.to/lastmile_qr_scan"}}, {"name": "0af7f2790efbdabde3b588eb7620cd72", "type": "electric_scooter", "lat": 38.929680166666664, "is_reserved": 0, "lon": -77.005327, "fusion_lon": 0.0, "is_disabled": 0, "fusion_lat": 0.0, "bike_id": "0af7f2790efbdabde3b588eb7620cd72", "rental_uris": {"ios": "https://dc.lft.to/lastmile_qr_scan", "android": "https://dc.lft.to/lastmile_qr_scan"}}, {"name": "3e26cb637882517ccea92e3caad6c69a", "type": "electric_scooter", "lat": 38.8901765, "is_reserved": 0, "lon": -76.9373595, "fusion_lon": 0.0, "is_disabled": 0, "fusion_lat": 0.0, "bike_id": "3e26cb637882517ccea92e3caad6c69a", "rental_uris": {"ios": "https://dc.lft.to/lastmile_qr_scan", "android": "https://dc.lft.to/lastmile_qr_scan"}}, {"name": "76aeefaf815173f990499ed3a195c67e", "type": "electric_scooter", "lat": 38.902491, "is_reserved": 0, "lon": -77.03844016666666, "fusion_lon": 0.0, "is_disabled": 0, "fusion_lat": 0.0, "bike_id": "76aeefaf815173f990499ed3a195c67e", "rental_uris": {"ios": "https://dc.lft.to/lastmile_qr_scan", "android": "https://dc.lft.to/lastmile_qr_scan"}}, {"name": "57731d9409b2c2c5c02966a873e1d383", "type": "electric_scooter", "lat": 38.905178166666666, "is_reserved": 0, "lon": -77.05015533333334, "fusion_lon": 0.0, "is_disabled": 0, "fusion_lat": 0.0, "bike_id": "57731d9409b2c2c5c02966a873e1d383", "rental_uris": {"ios": "https://dc.lft.to/lastmile_qr_scan", "android": "https://dc.lft.to/lastmile_qr_scan"}}, {"name": "73a02ce32c0f6e0e8a97ae260a2793fa", "type": "electric_scooter", "lat": 38.898270333333336, "is_reserved": 0, "lon": -76.94653166666667, "fusion_lon": 0.0, "is_disabled": 0, "fusion_lat": 0.0, "bike_id": "73a02ce32c0f6e0e8a97ae260a2793fa", "rental_uris": {"ios": "https://dc.lft.to/lastmile_qr_scan", "android": "https://dc.lft.to/lastmile_qr_scan"}}, {"name": "ff07618c7dcb5d4413a50c48eb0354ee", "type": "electric_scooter", "lat": 38.923337, "is_reserved": 0, "lon": -77.04747883333333, "fusion_lon": 0.0, "is_disabled": 0, "fusion_lat": 0.0, "bike_id": "ff07618c7dcb5d4413a50c48eb0354ee", "rental_uris": {"ios": "https://dc.lft.to/lastmile_qr_scan", "android": "https://dc.lft.to/lastmile_qr_scan"}}, {"name": "5400c322b145b098fc2a90ae38278928", "type": "electric_scooter", "lat": 38.92748866666667, "is_reserved": 0, "lon": -77.0326525, "fusion_lon": 0.0, "is_disabled": 0, "fusion_lat": 0.0, "bike_id": "5400c322b145b098fc2a90ae38278928", "rental_uris": {"ios": "https://dc.lft.to/lastmile_qr_scan", "android": "https://dc.lft.to/lastmile_qr_scan"}}, {"name": "6210326ccaf63c2fe1def9baa1160903", "type": "electric_scooter", "lat": 38.898259833333334, "is_reserved": 0, "lon": -76.946493, "fusion_lon": 0.0, "is_disabled": 0, "fusion_lat": 0.0, "bike_id": "6210326ccaf63c2fe1def9baa1160903", "rental_uris": {"ios": "https://dc.lft.to/lastmile_qr_scan", "android": "https://dc.lft.to/lastmile_qr_scan"}}, {"name": "dcb075ee1b59eff2d49be37869673c43", "type": "electric_scooter", "lat": 38.887731, "is_reserved": 0, "lon": -76.9326235, "fusion_lon": 0.0, "is_disabled": 0, "fusion_lat": 0.0, "bike_id": "dcb075ee1b59eff2d49be37869673c43", "rental_uris": {"ios": "https://dc.lft.to/lastmile_qr_scan", "android": "https://dc.lft.to/lastmile_qr_scan"}}, {"name": "c3dcc5eb832ac10d2b4d5bb1cf2beeaf", "type": "electric_scooter", "lat": 38.92250966666667, "is_reserved": 0, "lon": -77.03468716666667, "fusion_lon": 0.0, "is_disabled": 0, "fusion_lat": 0.0, "bike_id": "c3dcc5eb832ac10d2b4d5bb1cf2beeaf", "rental_uris": {"ios": "https://dc.lft.to/lastmile_qr_scan", "android": "https://dc.lft.to/lastmile_qr_scan"}}, {"name": "b914be015e123bc105c187c72fb3ca07", "type": "electric_scooter", "lat": 38.892207, "is_reserved": 0, "lon": -77.04864566666667, "fusion_lon": 0.0, "is_disabled": 0, "fusion_lat": 0.0, "bike_id": "b914be015e123bc105c187c72fb3ca07", "rental_uris": {"ios": "https://dc.lft.to/lastmile_qr_scan", "android": "https://dc.lft.to/lastmile_qr_scan"}}, {"name": "9fe7f70df75e5827dbf63c1d361ee482", "type": "electric_scooter", "lat": 38.921129666666666, "is_reserved": 0, "lon": -77.04209033333333, "fusion_lon": 0.0, "is_disabled": 0, "fusion_lat": 0.0, "bike_id": "9fe7f70df75e5827dbf63c1d361ee482", "rental_uris": {"ios": "https://dc.lft.to/lastmile_qr_scan", "android": "https://dc.lft.to/lastmile_qr_scan"}}, {"name": "d99ae15187d0aedded529bbb2ce2a4fc", "type": "electric_scooter", "lat": 38.865307, "is_reserved": 0, "lon": -76.99025483333334, "fusion_lon": 0.0, "is_disabled": 0, "fusion_lat": 0.0, "bike_id": "d99ae15187d0aedded529bbb2ce2a4fc", "rental_uris": {"ios": "https://dc.lft.to/lastmile_qr_scan", "android": "https://dc.lft.to/lastmile_qr_scan"}}, {"name": "2bf678ac773a522651573dd43e03873a", "type": "electric_scooter", "lat": 38.8936475, "is_reserved": 0, "lon": -77.04677766666667, "fusion_lon": 0.0, "is_disabled": 0, "fusion_lat": 0.0, "bike_id": "2bf678ac773a522651573dd43e03873a", "rental_uris": {"ios": "https://dc.lft.to/lastmile_qr_scan", "android": "https://dc.lft.to/lastmile_qr_scan"}}, {"name": "10612bea158996fb28da86e005e5eb3f", "type": "electric_scooter", "lat": 38.89524433333333, "is_reserved": 0, "lon": -77.02811766666666, "fusion_lon": 0.0, "is_disabled": 0, "fusion_lat": 0.0, "bike_id": "10612bea158996fb28da86e005e5eb3f", "rental_uris": {"ios": "https://dc.lft.to/lastmile_qr_scan", "android": "https://dc.lft.to/lastmile_qr_scan"}}, {"name": "b8aa04b070c8351c41acfe2e1dd64b01", "type": "electric_scooter", "lat": 38.92258733333333, "is_reserved": 0, "lon": -77.03641133333333, "fusion_lon": 0.0, "is_disabled": 0, "fusion_lat": 0.0, "bike_id": "b8aa04b070c8351c41acfe2e1dd64b01", "rental_uris": {"ios": "https://dc.lft.to/lastmile_qr_scan", "android": "https://dc.lft.to/lastmile_qr_scan"}}, {"name": "a2a3fede036d5a506122466338349b75", "type": "electric_scooter", "lat": 38.8996735, "is_reserved": 0, "lon": -77.0294835, "fusion_lon": 0.0, "is_disabled": 0, "fusion_lat": 0.0, "bike_id": "a2a3fede036d5a506122466338349b75", "rental_uris": {"ios": "https://dc.lft.to/lastmile_qr_scan", "android": "https://dc.lft.to/lastmile_qr_scan"}}, {"name": "f6e42eee0a8036c13cac5b82852a9aa8", "type": "electric_scooter", "lat": 38.924735, "is_reserved": 0, "lon": -77.026671, "fusion_lon": 0.0, "is_disabled": 0, "fusion_lat": 0.0, "bike_id": "f6e42eee0a8036c13cac5b82852a9aa8", "rental_uris": {"ios": "https://dc.lft.to/lastmile_qr_scan", "android": "https://dc.lft.to/lastmile_qr_scan"}}, {"name": "a08f0900fac044c009e11cf3248f04b7", "type": "electric_scooter", "lat": 38.95526666666667, "is_reserved": 0, "lon": -77.06976383333334, "fusion_lon": 0.0, "is_disabled": 0, "fusion_lat": 0.0, "bike_id": "a08f0900fac044c009e11cf3248f04b7", "rental_uris": {"ios": "https://dc.lft.to/lastmile_qr_scan", "android": "https://dc.lft.to/lastmile_qr_scan"}}, {"name": "37fd1a57b5491ea3540cafe47d4989e7", "type": "electric_scooter", "lat": 38.919465, "is_reserved": 0, "lon": -77.04548316666667, "fusion_lon": 0.0, "is_disabled": 0, "fusion_lat": 0.0, "bike_id": "37fd1a57b5491ea3540cafe47d4989e7", "rental_uris": {"ios": "https://dc.lft.to/lastmile_qr_scan", "android": "https://dc.lft.to/lastmile_qr_scan"}}, {"name": "aeee83044cf2883a08433171674f8c60", "type": "electric_scooter", "lat": 38.894737166666665, "is_reserved": 0, "lon": -77.030785, "fusion_lon": 0.0, "is_disabled": 0, "fusion_lat": 0.0, "bike_id": "aeee83044cf2883a08433171674f8c60", "rental_uris": {"ios": "https://dc.lft.to/lastmile_qr_scan", "android": "https://dc.lft.to/lastmile_qr_scan"}}, {"name": "bfceec5c891f43dada83491fdc264c2c", "type": "electric_scooter", "lat": 38.92865316666666, "is_reserved": 0, "lon": -77.03286533333333, "fusion_lon": 0.0, "is_disabled": 0, "fusion_lat": 0.0, "bike_id": "bfceec5c891f43dada83491fdc264c2c", "rental_uris": {"ios": "https://dc.lft.to/lastmile_qr_scan", "android": "https://dc.lft.to/lastmile_qr_scan"}}, {"name": "ede765ab9a501b55f1292940b9dc65ad", "type": "electric_bike", "lat": 38.948312333333334, "is_reserved": 0, "lon": -77.03900166666666, "fusion_lon": 0.0, "is_disabled": 0, "fusion_lat": 0.0, "bike_id": "ede765ab9a501b55f1292940b9dc65ad", "rental_uris": {"ios": "https://dc.lft.to/lastmile_qr_scan", "android": "https://dc.lft.to/lastmile_qr_scan"}}, {"name": "960d5062d5ff98cd69e314302878a528", "type": "electric_scooter", "lat": 38.91214633333333, "is_reserved": 0, "lon": -77.076014, "fusion_lon": 0.0, "is_disabled": 0, "fusion_lat": 0.0, "bike_id": "960d5062d5ff98cd69e314302878a528", "rental_uris": {"ios": "https://dc.lft.to/lastmile_qr_scan", "android": "https://dc.lft.to/lastmile_qr_scan"}}, {"name": "9c91dafd3a95f980f0f0774a85fb37a8", "type": "electric_scooter", "lat": 38.88112666666667, "is_reserved": 0, "lon": -77.01665666666666, "fusion_lon": 0.0, "is_disabled": 0, "fusion_lat": 0.0, "bike_id": "9c91dafd3a95f980f0f0774a85fb37a8", "rental_uris": {"ios": "https://dc.lft.to/lastmile_qr_scan", "android": "https://dc.lft.to/lastmile_qr_scan"}}, {"name": "b1ac3343ba75c040fc0ecc6cb3f5095f", "type": "electric_scooter", "lat": 38.9390395, "is_reserved": 0, "lon": -77.077319, "fusion_lon": 0.0, "is_disabled": 0, "fusion_lat": 0.0, "bike_id": "b1ac3343ba75c040fc0ecc6cb3f5095f", "rental_uris": {"ios": "https://dc.lft.to/lastmile_qr_scan", "android": "https://dc.lft.to/lastmile_qr_scan"}}, {"name": "8216b5fe81c43f0967e068e67e143cbb", "type": "electric_scooter", "lat": 38.93379566666667, "is_reserved": 0, "lon": -77.034641, "fusion_lon": 0.0, "is_disabled": 0, "fusion_lat": 0.0, "bike_id": "8216b5fe81c43f0967e068e67e143cbb", "rental_uris": {"ios": "https://dc.lft.to/lastmile_qr_scan", "android": "https://dc.lft.to/lastmile_qr_scan"}}, {"name": "ee03d1d001670c50950d8cf79dadf863", "type": "electric_scooter", "lat": 38.91218333333333, "is_reserved": 0, "lon": -77.044686, "fusion_lon": 0.0, "is_disabled": 0, "fusion_lat": 0.0, "bike_id": "ee03d1d001670c50950d8cf79dadf863", "rental_uris": {"ios": "https://dc.lft.to/lastmile_qr_scan", "android": "https://dc.lft.to/lastmile_qr_scan"}}, {"name": "6ac4d312d3c63a70ea8e13699b3d7da0", "type": "electric_scooter", "lat": 38.936154, "is_reserved": 0, "lon": -77.03216816666666, "fusion_lon": 0.0, "is_disabled": 0, "fusion_lat": 0.0, "bike_id": "6ac4d312d3c63a70ea8e13699b3d7da0", "rental_uris": {"ios": "https://dc.lft.to/lastmile_qr_scan", "android": "https://dc.lft.to/lastmile_qr_scan"}}, {"name": "137ee9e095f7148fc4548345c1f6240d", "type": "electric_scooter", "lat": 38.912935, "is_reserved": 0, "lon": -77.06116533333334, "fusion_lon": 0.0, "is_disabled": 0, "fusion_lat": 0.0, "bike_id": "137ee9e095f7148fc4548345c1f6240d", "rental_uris": {"ios": "https://dc.lft.to/lastmile_qr_scan", "android": "https://dc.lft.to/lastmile_qr_scan"}}, {"name": "ad05037568454d3ec0b136b031f14ccf", "type": "electric_scooter", "lat": 38.905037666666665, "is_reserved": 0, "lon": -77.05310216666666, "fusion_lon": 0.0, "is_disabled": 0, "fusion_lat": 0.0, "bike_id": "ad05037568454d3ec0b136b031f14ccf", "rental_uris": {"ios": "https://dc.lft.to/lastmile_qr_scan", "android": "https://dc.lft.to/lastmile_qr_scan"}}, {"name": "58b5a669e49975c20e35b76657795b82", "type": "electric_scooter", "lat": 38.8642815, "is_reserved": 0, "lon": -76.9799865, "fusion_lon": 0.0, "is_disabled": 0, "fusion_lat": 0.0, "bike_id": "58b5a669e49975c20e35b76657795b82", "rental_uris": {"ios": "https://dc.lft.to/lastmile_qr_scan", "android": "https://dc.lft.to/lastmile_qr_scan"}}, {"name": "0668aab1dc8b2fdf061fd9717cfa2d8f", "type": "electric_scooter", "lat": 38.9050985, "is_reserved": 0, "lon": -77.04161083333334, "fusion_lon": 0.0, "is_disabled": 0, "fusion_lat": 0.0, "bike_id": "0668aab1dc8b2fdf061fd9717cfa2d8f", "rental_uris": {"ios": "https://dc.lft.to/lastmile_qr_scan", "android": "https://dc.lft.to/lastmile_qr_scan"}}, {"name": "2c906d5902dea99132c5d59ce6f008a5", "type": "electric_scooter", "lat": 38.902919, "is_reserved": 0, "lon": -77.03968916666666, "fusion_lon": 0.0, "is_disabled": 0, "fusion_lat": 0.0, "bike_id": "2c906d5902dea99132c5d59ce6f008a5", "rental_uris": {"ios": "https://dc.lft.to/lastmile_qr_scan", "android": "https://dc.lft.to/lastmile_qr_scan"}}, {"name": "55780bf9b2ef9a3491dd122431d740cc", "type": "electric_scooter", "lat": 38.933476666666664, "is_reserved": 0, "lon": -77.05861766666666, "fusion_lon": 0.0, "is_disabled": 0, "fusion_lat": 0.0, "bike_id": "55780bf9b2ef9a3491dd122431d740cc", "rental_uris": {"ios": "https://dc.lft.to/lastmile_qr_scan", "android": "https://dc.lft.to/lastmile_qr_scan"}}, {"name": "a65d2d72912666892855d16366c2e3a2", "type": "electric_scooter", "lat": 38.902766166666666, "is_reserved": 0, "lon": -77.04078983333333, "fusion_lon": 0.0, "is_disabled": 0, "fusion_lat": 0.0, "bike_id": "a65d2d72912666892855d16366c2e3a2", "rental_uris": {"ios": "https://dc.lft.to/lastmile_qr_scan", "android": "https://dc.lft.to/lastmile_qr_scan"}}, {"name": "498f2385dfe729094b681c690930a739", "type": "electric_bike", "lat": 38.85218616666667, "is_reserved": 0, "lon": -77.12959316666667, "fusion_lon": 0.0, "is_disabled": 0, "fusion_lat": 0.0, "bike_id": "498f2385dfe729094b681c690930a739", "rental_uris": {"ios": "https://dc.lft.to/lastmile_qr_scan", "android": "https://dc.lft.to/lastmile_qr_scan"}}, {"name": "f18ee3b569a1b512df26eb9e6a8a3eac", "type": "electric_bike", "lat": 38.832354333333335, "is_reserved": 0, "lon": -77.0071715, "fusion_lon": 0.0, "is_disabled": 0, "fusion_lat": 0.0, "bike_id": "f18ee3b569a1b512df26eb9e6a8a3eac", "rental_uris": {"ios": "https://dc.lft.to/lastmile_qr_scan", "android": "https://dc.lft.to/lastmile_qr_scan"}}, {"name": "30052f9ffb66a41f0324573fe87ffd10", "type": "electric_scooter", "lat": 38.939488833333336, "is_reserved": 0, "lon": -77.032619, "fusion_lon": 0.0, "is_disabled": 0, "fusion_lat": 0.0, "bike_id": "30052f9ffb66a41f0324573fe87ffd10", "rental_uris": {"ios": "https://dc.lft.to/lastmile_qr_scan", "android": "https://dc.lft.to/lastmile_qr_scan"}}, {"name": "1fe2a87f76ab4ac2c9f5b0ffda027c91", "type": "electric_scooter", "lat": 38.885946833333335, "is_reserved": 0, "lon": -76.95260916666666, "fusion_lon": 0.0, "is_disabled": 0, "fusion_lat": 0.0, "bike_id": "1fe2a87f76ab4ac2c9f5b0ffda027c91", "rental_uris": {"ios": "https://dc.lft.to/lastmile_qr_scan", "android": "https://dc.lft.to/lastmile_qr_scan"}}, {"name": "b132777d33a60cb5972e27d1eec6e0f6", "type": "electric_bike", "lat": 38.984604166666664, "is_reserved": 0, "lon": -76.95525183333334, "fusion_lon": 0.0, "is_disabled": 0, "fusion_lat": 0.0, "bike_id": "b132777d33a60cb5972e27d1eec6e0f6", "rental_uris": {"ios": "https://dc.lft.to/lastmile_qr_scan", "android": "https://dc.lft.to/lastmile_qr_scan"}}, {"name": "591f1542a9a23b68f5c80a94d2cd6b0b", "type": "electric_scooter", "lat": 38.927440833333335, "is_reserved": 0, "lon": -77.05370216666667, "fusion_lon": 0.0, "is_disabled": 0, "fusion_lat": 0.0, "bike_id": "591f1542a9a23b68f5c80a94d2cd6b0b", "rental_uris": {"ios": "https://dc.lft.to/lastmile_qr_scan", "android": "https://dc.lft.to/lastmile_qr_scan"}}, {"name": "874ee72b7e4192e75ee831a57ae75ca5", "type": "electric_scooter", "lat": 38.92233516666667, "is_reserved": 0, "lon": -77.03524816666666, "fusion_lon": 0.0, "is_disabled": 0, "fusion_lat": 0.0, "bike_id": "874ee72b7e4192e75ee831a57ae75ca5", "rental_uris": {"ios": "https://dc.lft.to/lastmile_qr_scan", "android": "https://dc.lft.to/lastmile_qr_scan"}}, {"name": "01fa51769ed1b21622e6c99577bb171a", "type": "electric_scooter", "lat": 38.882981, "is_reserved": 0, "lon": -77.01747666666667, "fusion_lon": 0.0, "is_disabled": 0, "fusion_lat": 0.0, "bike_id": "01fa51769ed1b21622e6c99577bb171a", "rental_uris": {"ios": "https://dc.lft.to/lastmile_qr_scan", "android": "https://dc.lft.to/lastmile_qr_scan"}}, {"name": "3a4fe2cedd5b67e25895a3152597cfa9", "type": "electric_scooter", "lat": 38.939500833333334, "is_reserved": 0, "lon": -77.03266816666667, "fusion_lon": 0.0, "is_disabled": 0, "fusion_lat": 0.0, "bike_id": "3a4fe2cedd5b67e25895a3152597cfa9", "rental_uris": {"ios": "https://dc.lft.to/lastmile_qr_scan", "android": "https://dc.lft.to/lastmile_qr_scan"}}, {"name": "983640bb1865cfa78d7b03730377db17", "type": "electric_bike", "lat": 38.865902166666665, "is_reserved": 0, "lon": -76.93220183333334, "fusion_lon": 0.0, "is_disabled": 0, "fusion_lat": 0.0, "bike_id": "983640bb1865cfa78d7b03730377db17", "rental_uris": {"ios": "https://dc.lft.to/lastmile_qr_scan", "android": "https://dc.lft.to/lastmile_qr_scan"}}, {"name": "0c75fbaf09e7b5244edecc82eebe6816", "type": "electric_scooter", "lat": 38.905813, "is_reserved": 0, "lon": -77.06270683333334, "fusion_lon": 0.0, "is_disabled": 0, "fusion_lat": 0.0, "bike_id": "0c75fbaf09e7b5244edecc82eebe6816", "rental_uris": {"ios": "https://dc.lft.to/lastmile_qr_scan", "android": "https://dc.lft.to/lastmile_qr_scan"}}, {"name": "a0348fad32116f05e7b5c0da17ce9554", "type": "electric_scooter", "lat": 38.924881, "is_reserved": 0, "lon": -77.02713683333333, "fusion_lon": 0.0, "is_disabled": 0, "fusion_lat": 0.0, "bike_id": "a0348fad32116f05e7b5c0da17ce9554", "rental_uris": {"ios": "https://dc.lft.to/lastmile_qr_scan", "android": "https://dc.lft.to/lastmile_qr_scan"}}, {"name": "cb4e04d5b0f9b51d2299acfcd4646e6f", "type": "electric_bike", "lat": 38.8069115, "is_reserved": 0, "lon": -77.05969516666667, "fusion_lon": 0.0, "is_disabled": 0, "fusion_lat": 0.0, "bike_id": "cb4e04d5b0f9b51d2299acfcd4646e6f", "rental_uris": {"ios": "https://dc.lft.to/lastmile_qr_scan", "android": "https://dc.lft.to/lastmile_qr_scan"}}, {"name": "c6264d6748981b41df1c58ddaef14aff", "type": "electric_scooter", "lat": 38.9178605, "is_reserved": 0, "lon": -77.02297983333334, "fusion_lon": 0.0, "is_disabled": 0, "fusion_lat": 0.0, "bike_id": "c6264d6748981b41df1c58ddaef14aff", "rental_uris": {"ios": "https://dc.lft.to/lastmile_qr_scan", "android": "https://dc.lft.to/lastmile_qr_scan"}}, {"name": "81e3359d595080996fe60ab36c323cd8", "type": "electric_scooter", "lat": 38.907276333333336, "is_reserved": 0, "lon": -77.0418885, "fusion_lon": 0.0, "is_disabled": 0, "fusion_lat": 0.0, "bike_id": "81e3359d595080996fe60ab36c323cd8", "rental_uris": {"ios": "https://dc.lft.to/lastmile_qr_scan", "android": "https://dc.lft.to/lastmile_qr_scan"}}, {"name": "a0e2ce01e0fb761f2a034124efd021e8", "type": "electric_scooter", "lat": 38.902366, "is_reserved": 0, "lon": -77.03890116666666, "fusion_lon": 0.0, "is_disabled": 0, "fusion_lat": 0.0, "bike_id": "a0e2ce01e0fb761f2a034124efd021e8", "rental_uris": {"ios": "https://dc.lft.to/lastmile_qr_scan", "android": "https://dc.lft.to/lastmile_qr_scan"}}, {"name": "4f75eb545c8c9c61b1143272d454d992", "type": "electric_scooter", "lat": 38.908414, "is_reserved": 0, "lon": -77.02055383333334, "fusion_lon": 0.0, "is_disabled": 0, "fusion_lat": 0.0, "bike_id": "4f75eb545c8c9c61b1143272d454d992", "rental_uris": {"ios": "https://dc.lft.to/lastmile_qr_scan", "android": "https://dc.lft.to/lastmile_qr_scan"}}, {"name": "7f55d58b99e8399ad3ea7a9133b8b679", "type": "electric_scooter", "lat": 38.909803, "is_reserved": 0, "lon": -77.06714316666667, "fusion_lon": 0.0, "is_disabled": 0, "fusion_lat": 0.0, "bike_id": "7f55d58b99e8399ad3ea7a9133b8b679", "rental_uris": {"ios": "https://dc.lft.to/lastmile_qr_scan", "android": "https://dc.lft.to/lastmile_qr_scan"}}, {"name": "6f368923cf3bd373133ad8ed2522bbee", "type": "electric_scooter", "lat": 38.9311785, "is_reserved": 0, "lon": -77.021024, "fusion_lon": 0.0, "is_disabled": 0, "fusion_lat": 0.0, "bike_id": "6f368923cf3bd373133ad8ed2522bbee", "rental_uris": {"ios": "https://dc.lft.to/lastmile_qr_scan", "android": "https://dc.lft.to/lastmile_qr_scan"}}, {"name": "4ecfea5df21e3157f6b3b1b5e9cfc180", "type": "electric_scooter", "lat": 38.883203333333334, "is_reserved": 0, "lon": -77.01785566666666, "fusion_lon": 0.0, "is_disabled": 0, "fusion_lat": 0.0, "bike_id": "4ecfea5df21e3157f6b3b1b5e9cfc180", "rental_uris": {"ios": "https://dc.lft.to/lastmile_qr_scan", "android": "https://dc.lft.to/lastmile_qr_scan"}}, {"name": "b5fcb1df6fb3805d958dc66ee9afde4a", "type": "electric_scooter", "lat": 38.902624833333334, "is_reserved": 0, "lon": -77.02814633333334, "fusion_lon": 0.0, "is_disabled": 0, "fusion_lat": 0.0, "bike_id": "b5fcb1df6fb3805d958dc66ee9afde4a", "rental_uris": {"ios": "https://dc.lft.to/lastmile_qr_scan", "android": "https://dc.lft.to/lastmile_qr_scan"}}, {"name": "46c965b9dae74854e83a686b957b5667", "type": "electric_scooter", "lat": 38.9492865, "is_reserved": 0, "lon": -77.01938016666666, "fusion_lon": 0.0, "is_disabled": 0, "fusion_lat": 0.0, "bike_id": "46c965b9dae74854e83a686b957b5667", "rental_uris": {"ios": "https://dc.lft.to/lastmile_qr_scan", "android": "https://dc.lft.to/lastmile_qr_scan"}}, {"name": "7ae787db7573adbb201b3d0edf67831e", "type": "electric_scooter", "lat": 38.914786666666664, "is_reserved": 0, "lon": -77.02176616666667, "fusion_lon": 0.0, "is_disabled": 0, "fusion_lat": 0.0, "bike_id": "7ae787db7573adbb201b3d0edf67831e", "rental_uris": {"ios": "https://dc.lft.to/lastmile_qr_scan", "android": "https://dc.lft.to/lastmile_qr_scan"}}, {"name": "6aa470e717e16f6e473bc98970808342", "type": "electric_scooter", "lat": 38.90795633333333, "is_reserved": 0, "lon": -77.00021466666666, "fusion_lon": 0.0, "is_disabled": 0, "fusion_lat": 0.0, "bike_id": "6aa470e717e16f6e473bc98970808342", "rental_uris": {"ios": "https://dc.lft.to/lastmile_qr_scan", "android": "https://dc.lft.to/lastmile_qr_scan"}}, {"name": "5152b2dee691002c113af41a8dde6c51", "type": "electric_scooter", "lat": 38.920468, "is_reserved": 0, "lon": -76.9961695, "fusion_lon": 0.0, "is_disabled": 0, "fusion_lat": 0.0, "bike_id": "5152b2dee691002c113af41a8dde6c51", "rental_uris": {"ios": "https://dc.lft.to/lastmile_qr_scan", "android": "https://dc.lft.to/lastmile_qr_scan"}}, {"name": "cfe28f1ebff964ea3fbb4ce2134e4cb7", "type": "electric_scooter", "lat": 38.927573333333335, "is_reserved": 0, "lon": -77.02421533333333, "fusion_lon": 0.0, "is_disabled": 0, "fusion_lat": 0.0, "bike_id": "cfe28f1ebff964ea3fbb4ce2134e4cb7", "rental_uris": {"ios": "https://dc.lft.to/lastmile_qr_scan", "android": "https://dc.lft.to/lastmile_qr_scan"}}, {"name": "17875bb3d948c3cf706fdf325a8c1cdb", "type": "electric_scooter", "lat": 38.89884083333333, "is_reserved": 0, "lon": -76.93175266666667, "fusion_lon": 0.0, "is_disabled": 0, "fusion_lat": 0.0, "bike_id": "17875bb3d948c3cf706fdf325a8c1cdb", "rental_uris": {"ios": "https://dc.lft.to/lastmile_qr_scan", "android": "https://dc.lft.to/lastmile_qr_scan"}}, {"name": "aba1987a8cac8a93cbed779cf644db8e", "type": "electric_scooter", "lat": 38.9164255, "is_reserved": 0, "lon": -77.04622066666667, "fusion_lon": 0.0, "is_disabled": 0, "fusion_lat": 0.0, "bike_id": "aba1987a8cac8a93cbed779cf644db8e", "rental_uris": {"ios": "https://dc.lft.to/lastmile_qr_scan", "android": "https://dc.lft.to/lastmile_qr_scan"}}, {"name": "e3c90f07d3e8d259d61ba06bd7574ea5", "type": "electric_scooter", "lat": 38.905133666666664, "is_reserved": 0, "lon": -77.06628183333333, "fusion_lon": 0.0, "is_disabled": 0, "fusion_lat": 0.0, "bike_id": "e3c90f07d3e8d259d61ba06bd7574ea5", "rental_uris": {"ios": "https://dc.lft.to/lastmile_qr_scan", "android": "https://dc.lft.to/lastmile_qr_scan"}}, {"name": "00d42d12431fcf6c59eedc14ed85e430", "type": "electric_scooter", "lat": 38.8939855, "is_reserved": 0, "lon": -76.993635, "fusion_lon": 0.0, "is_disabled": 0, "fusion_lat": 0.0, "bike_id": "00d42d12431fcf6c59eedc14ed85e430", "rental_uris": {"ios": "https://dc.lft.to/lastmile_qr_scan", "android": "https://dc.lft.to/lastmile_qr_scan"}}, {"name": "b824ef40c5fe7c88d0f10b7e8137736a", "type": "electric_scooter", "lat": 38.91696816666666, "is_reserved": 0, "lon": -77.04619233333334, "fusion_lon": 0.0, "is_disabled": 0, "fusion_lat": 0.0, "bike_id": "b824ef40c5fe7c88d0f10b7e8137736a", "rental_uris": {"ios": "https://dc.lft.to/lastmile_qr_scan", "android": "https://dc.lft.to/lastmile_qr_scan"}}, {"name": "24eb57b36df19f4dc63ab63ddbca9024", "type": "electric_scooter", "lat": 38.946368666666665, "is_reserved": 0, "lon": -77.01926716666667, "fusion_lon": 0.0, "is_disabled": 0, "fusion_lat": 0.0, "bike_id": "24eb57b36df19f4dc63ab63ddbca9024", "rental_uris": {"ios": "https://dc.lft.to/lastmile_qr_scan", "android": "https://dc.lft.to/lastmile_qr_scan"}}, {"name": "9c42b7a7f50f8cc7b39797523fc3de9e", "type": "electric_bike", "lat": 38.94277366666667, "is_reserved": 0, "lon": -76.98070966666667, "fusion_lon": 0.0, "is_disabled": 0, "fusion_lat": 0.0, "bike_id": "9c42b7a7f50f8cc7b39797523fc3de9e", "rental_uris": {"ios": "https://dc.lft.to/lastmile_qr_scan", "android": "https://dc.lft.to/lastmile_qr_scan"}}, {"name": "e177cbf3e06ef04d6db6244044557b70", "type": "electric_scooter", "lat": 38.92734566666667, "is_reserved": 0, "lon": -77.02989966666667, "fusion_lon": 0.0, "is_disabled": 0, "fusion_lat": 0.0, "bike_id": "e177cbf3e06ef04d6db6244044557b70", "rental_uris": {"ios": "https://dc.lft.to/lastmile_qr_scan", "android": "https://dc.lft.to/lastmile_qr_scan"}}, {"name": "8711d3b5d27ef2652e9387dbb9e0a0c0", "type": "electric_scooter", "lat": 38.93937783333333, "is_reserved": 0, "lon": -77.0170915, "fusion_lon": 0.0, "is_disabled": 0, "fusion_lat": 0.0, "bike_id": "8711d3b5d27ef2652e9387dbb9e0a0c0", "rental_uris": {"ios": "https://dc.lft.to/lastmile_qr_scan", "android": "https://dc.lft.to/lastmile_qr_scan"}}, {"name": "bc434531305ac2b45e1b33e7e3b067f1", "type": "electric_scooter", "lat": 38.90114966666667, "is_reserved": 0, "lon": -77.0424515, "fusion_lon": 0.0, "is_disabled": 0, "fusion_lat": 0.0, "bike_id": "bc434531305ac2b45e1b33e7e3b067f1", "rental_uris": {"ios": "https://dc.lft.to/lastmile_qr_scan", "android": "https://dc.lft.to/lastmile_qr_scan"}}, {"name": "8c2b90d252dd9ad36c85ac3e29f0ca46", "type": "electric_scooter", "lat": 38.934522333333334, "is_reserved": 0, "lon": -77.07238966666667, "fusion_lon": 0.0, "is_disabled": 0, "fusion_lat": 0.0, "bike_id": "8c2b90d252dd9ad36c85ac3e29f0ca46", "rental_uris": {"ios": "https://dc.lft.to/lastmile_qr_scan", "android": "https://dc.lft.to/lastmile_qr_scan"}}, {"name": "b4e36bb23defdfdfcf28222c28c39080", "type": "electric_scooter", "lat": 38.89601033333334, "is_reserved": 0, "lon": -77.04505333333333, "fusion_lon": 0.0, "is_disabled": 0, "fusion_lat": 0.0, "bike_id": "b4e36bb23defdfdfcf28222c28c39080", "rental_uris": {"ios": "https://dc.lft.to/lastmile_qr_scan", "android": "https://dc.lft.to/lastmile_qr_scan"}}, {"name": "ed0a442efc6f12a3c5c3c88acb358312", "type": "electric_scooter", "lat": 38.883091, "is_reserved": 0, "lon": -77.009374, "fusion_lon": 0.0, "is_disabled": 0, "fusion_lat": 0.0, "bike_id": "ed0a442efc6f12a3c5c3c88acb358312", "rental_uris": {"ios": "https://dc.lft.to/lastmile_qr_scan", "android": "https://dc.lft.to/lastmile_qr_scan"}}, {"name": "af5288d55b760c1e64fb9a086c3b456e", "type": "electric_bike", "lat": 38.8747775, "is_reserved": 0, "lon": -76.96528, "fusion_lon": 0.0, "is_disabled": 0, "fusion_lat": 0.0, "bike_id": "af5288d55b760c1e64fb9a086c3b456e", "rental_uris": {"ios": "https://dc.lft.to/lastmile_qr_scan", "android": "https://dc.lft.to/lastmile_qr_scan"}}, {"name": "be0f4d260e3cceac4abb127a63800599", "type": "electric_scooter", "lat": 38.90518316666667, "is_reserved": 0, "lon": -77.050159, "fusion_lon": 0.0, "is_disabled": 0, "fusion_lat": 0.0, "bike_id": "be0f4d260e3cceac4abb127a63800599", "rental_uris": {"ios": "https://dc.lft.to/lastmile_qr_scan", "android": "https://dc.lft.to/lastmile_qr_scan"}}, {"name": "aeba787a7a4fa63615a36376b9edd5c4", "type": "electric_scooter", "lat": 38.8960265, "is_reserved": 0, "lon": -77.01019933333333, "fusion_lon": 0.0, "is_disabled": 0, "fusion_lat": 0.0, "bike_id": "aeba787a7a4fa63615a36376b9edd5c4", "rental_uris": {"ios": "https://dc.lft.to/lastmile_qr_scan", "android": "https://dc.lft.to/lastmile_qr_scan"}}, {"name": "62f47c224d71f6dfe120bfe9a4aeee74", "type": "electric_scooter", "lat": 38.89516666666667, "is_reserved": 0, "lon": -77.022771, "fusion_lon": 0.0, "is_disabled": 0, "fusion_lat": 0.0, "bike_id": "62f47c224d71f6dfe120bfe9a4aeee74", "rental_uris": {"ios": "https://dc.lft.to/lastmile_qr_scan", "android": "https://dc.lft.to/lastmile_qr_scan"}}, {"name": "bb58b7a197d11f5dbed8fc9d9c363342", "type": "electric_scooter", "lat": 38.86657783333333, "is_reserved": 0, "lon": -76.98884883333334, "fusion_lon": 0.0, "is_disabled": 0, "fusion_lat": 0.0, "bike_id": "bb58b7a197d11f5dbed8fc9d9c363342", "rental_uris": {"ios": "https://dc.lft.to/lastmile_qr_scan", "android": "https://dc.lft.to/lastmile_qr_scan"}}, {"name": "355dd07bb54e6e6485675371fdbdfc7b", "type": "electric_scooter", "lat": 38.88450866666667, "is_reserved": 0, "lon": -77.0057585, "fusion_lon": 0.0, "is_disabled": 0, "fusion_lat": 0.0, "bike_id": "355dd07bb54e6e6485675371fdbdfc7b", "rental_uris": {"ios": "https://dc.lft.to/lastmile_qr_scan", "android": "https://dc.lft.to/lastmile_qr_scan"}}, {"name": "f2153cee04b1be9dda4a387167a81d7f", "type": "electric_scooter", "lat": 38.89232116666667, "is_reserved": 0, "lon": -77.02797416666667, "fusion_lon": 0.0, "is_disabled": 0, "fusion_lat": 0.0, "bike_id": "f2153cee04b1be9dda4a387167a81d7f", "rental_uris": {"ios": "https://dc.lft.to/lastmile_qr_scan", "android": "https://dc.lft.to/lastmile_qr_scan"}}, {"name": "e475d631fe250a82589fe74be2d4a4fb", "type": "electric_scooter", "lat": 38.935258166666664, "is_reserved": 0, "lon": -77.0285375, "fusion_lon": 0.0, "is_disabled": 0, "fusion_lat": 0.0, "bike_id": "e475d631fe250a82589fe74be2d4a4fb", "rental_uris": {"ios": "https://dc.lft.to/lastmile_qr_scan", "android": "https://dc.lft.to/lastmile_qr_scan"}}, {"name": "e1d8364a68bfa76b8c7c1647915274a5", "type": "electric_scooter", "lat": 38.916358833333334, "is_reserved": 0, "lon": -77.02226266666666, "fusion_lon": 0.0, "is_disabled": 0, "fusion_lat": 0.0, "bike_id": "e1d8364a68bfa76b8c7c1647915274a5", "rental_uris": {"ios": "https://dc.lft.to/lastmile_qr_scan", "android": "https://dc.lft.to/lastmile_qr_scan"}}, {"name": "f3547def9d7635bf010f12673afbebff", "type": "electric_bike", "lat": 38.96506016666667, "is_reserved": 0, "lon": -77.103334, "fusion_lon": 0.0, "is_disabled": 0, "fusion_lat": 0.0, "bike_id": "f3547def9d7635bf010f12673afbebff", "rental_uris": {"ios": "https://dc.lft.to/lastmile_qr_scan", "android": "https://dc.lft.to/lastmile_qr_scan"}}, {"name": "249503a6a02e42a52c0f97444cd2e906", "type": "electric_scooter", "lat": 38.93154033333333, "is_reserved": 0, "lon": -77.03887516666667, "fusion_lon": 0.0, "is_disabled": 0, "fusion_lat": 0.0, "bike_id": "249503a6a02e42a52c0f97444cd2e906", "rental_uris": {"ios": "https://dc.lft.to/lastmile_qr_scan", "android": "https://dc.lft.to/lastmile_qr_scan"}}, {"name": "b089c617347657a0fa51894a3efdb298", "type": "electric_scooter", "lat": 38.883562, "is_reserved": 0, "lon": -77.03171016666667, "fusion_lon": 0.0, "is_disabled": 0, "fusion_lat": 0.0, "bike_id": "b089c617347657a0fa51894a3efdb298", "rental_uris": {"ios": "https://dc.lft.to/lastmile_qr_scan", "android": "https://dc.lft.to/lastmile_qr_scan"}}, {"name": "b622bf149d3d6e18acefdfa7623a09f7", "type": "electric_scooter", "lat": 38.906630166666666, "is_reserved": 0, "lon": -77.07535216666666, "fusion_lon": 0.0, "is_disabled": 0, "fusion_lat": 0.0, "bike_id": "b622bf149d3d6e18acefdfa7623a09f7", "rental_uris": {"ios": "https://dc.lft.to/lastmile_qr_scan", "android": "https://dc.lft.to/lastmile_qr_scan"}}, {"name": "3f58bd7d7f4b1f7a113586bea69055a8", "type": "electric_scooter", "lat": 38.892203333333335, "is_reserved": 0, "lon": -77.04330166666666, "fusion_lon": 0.0, "is_disabled": 0, "fusion_lat": 0.0, "bike_id": "3f58bd7d7f4b1f7a113586bea69055a8", "rental_uris": {"ios": "https://dc.lft.to/lastmile_qr_scan", "android": "https://dc.lft.to/lastmile_qr_scan"}}, {"name": "e505a2ce98666966b6266a0b7061cf39", "type": "electric_scooter", "lat": 38.8923175, "is_reserved": 0, "lon": -77.050009, "fusion_lon": 0.0, "is_disabled": 0, "fusion_lat": 0.0, "bike_id": "e505a2ce98666966b6266a0b7061cf39", "rental_uris": {"ios": "https://dc.lft.to/lastmile_qr_scan", "android": "https://dc.lft.to/lastmile_qr_scan"}}, {"name": "1595e540def67d8bb2d2b04a5815b23b", "type": "electric_scooter", "lat": 38.91255866666667, "is_reserved": 0, "lon": -77.0096285, "fusion_lon": 0.0, "is_disabled": 0, "fusion_lat": 0.0, "bike_id": "1595e540def67d8bb2d2b04a5815b23b", "rental_uris": {"ios": "https://dc.lft.to/lastmile_qr_scan", "android": "https://dc.lft.to/lastmile_qr_scan"}}, {"name": "88f7730f2dd37d5cb727f2f6716aae22", "type": "electric_scooter", "lat": 38.92590116666667, "is_reserved": 0, "lon": -77.0047835, "fusion_lon": 0.0, "is_disabled": 0, "fusion_lat": 0.0, "bike_id": "88f7730f2dd37d5cb727f2f6716aae22", "rental_uris": {"ios": "https://dc.lft.to/lastmile_qr_scan", "android": "https://dc.lft.to/lastmile_qr_scan"}}, {"name": "469f9c4b58c4e045f5411a2a148425d3", "type": "electric_scooter", "lat": 38.922683666666664, "is_reserved": 0, "lon": -77.01826033333333, "fusion_lon": 0.0, "is_disabled": 0, "fusion_lat": 0.0, "bike_id": "469f9c4b58c4e045f5411a2a148425d3", "rental_uris": {"ios": "https://dc.lft.to/lastmile_qr_scan", "android": "https://dc.lft.to/lastmile_qr_scan"}}, {"name": "e2a021220db03ab57ce6148a601e0cee", "type": "electric_scooter", "lat": 38.900210333333334, "is_reserved": 0, "lon": -76.9985335, "fusion_lon": 0.0, "is_disabled": 0, "fusion_lat": 0.0, "bike_id": "e2a021220db03ab57ce6148a601e0cee", "rental_uris": {"ios": "https://dc.lft.to/lastmile_qr_scan", "android": "https://dc.lft.to/lastmile_qr_scan"}}, {"name": "231fd8efd44bc174f263999cf57fe4d6", "type": "electric_scooter", "lat": 38.901488666666665, "is_reserved": 0, "lon": -77.03351933333333, "fusion_lon": 0.0, "is_disabled": 0, "fusion_lat": 0.0, "bike_id": "231fd8efd44bc174f263999cf57fe4d6", "rental_uris": {"ios": "https://dc.lft.to/lastmile_qr_scan", "android": "https://dc.lft.to/lastmile_qr_scan"}}, {"name": "baf28ebcaf4802281d135f75365a8764", "type": "electric_scooter", "lat": 38.927266833333334, "is_reserved": 0, "lon": -77.0398195, "fusion_lon": 0.0, "is_disabled": 0, "fusion_lat": 0.0, "bike_id": "baf28ebcaf4802281d135f75365a8764", "rental_uris": {"ios": "https://dc.lft.to/lastmile_qr_scan", "android": "https://dc.lft.to/lastmile_qr_scan"}}, {"name": "18cd4a9e2ed22e6d747bc39ae9b5beeb", "type": "electric_scooter", "lat": 38.92546516666667, "is_reserved": 0, "lon": -77.00093883333334, "fusion_lon": 0.0, "is_disabled": 0, "fusion_lat": 0.0, "bike_id": "18cd4a9e2ed22e6d747bc39ae9b5beeb", "rental_uris": {"ios": "https://dc.lft.to/lastmile_qr_scan", "android": "https://dc.lft.to/lastmile_qr_scan"}}, {"name": "4bf875be24211ff8a070cc2b5587476b", "type": "electric_scooter", "lat": 38.90523183333333, "is_reserved": 0, "lon": -77.06515183333333, "fusion_lon": 0.0, "is_disabled": 0, "fusion_lat": 0.0, "bike_id": "4bf875be24211ff8a070cc2b5587476b", "rental_uris": {"ios": "https://dc.lft.to/lastmile_qr_scan", "android": "https://dc.lft.to/lastmile_qr_scan"}}, {"name": "ca97ceb6657aad288287ba64fbe0300c", "type": "electric_scooter", "lat": 38.895549, "is_reserved": 0, "lon": -77.0467555, "fusion_lon": 0.0, "is_disabled": 0, "fusion_lat": 0.0, "bike_id": "ca97ceb6657aad288287ba64fbe0300c", "rental_uris": {"ios": "https://dc.lft.to/lastmile_qr_scan", "android": "https://dc.lft.to/lastmile_qr_scan"}}, {"name": "598de0b4ecacaa88e9cbf5f05dcc6149", "type": "electric_scooter", "lat": 38.899521666666665, "is_reserved": 0, "lon": -77.05271616666667, "fusion_lon": 0.0, "is_disabled": 0, "fusion_lat": 0.0, "bike_id": "598de0b4ecacaa88e9cbf5f05dcc6149", "rental_uris": {"ios": "https://dc.lft.to/lastmile_qr_scan", "android": "https://dc.lft.to/lastmile_qr_scan"}}, {"name": "410ac137b106ab06d031d6c671eba57d", "type": "electric_scooter", "lat": 38.905607, "is_reserved": 0, "lon": -77.0217365, "fusion_lon": 0.0, "is_disabled": 0, "fusion_lat": 0.0, "bike_id": "410ac137b106ab06d031d6c671eba57d", "rental_uris": {"ios": "https://dc.lft.to/lastmile_qr_scan", "android": "https://dc.lft.to/lastmile_qr_scan"}}, {"name": "501ab0609e7ffecc2455e63eba449cde", "type": "electric_scooter", "lat": 38.90579183333333, "is_reserved": 0, "lon": -77.04031333333333, "fusion_lon": 0.0, "is_disabled": 0, "fusion_lat": 0.0, "bike_id": "501ab0609e7ffecc2455e63eba449cde", "rental_uris": {"ios": "https://dc.lft.to/lastmile_qr_scan", "android": "https://dc.lft.to/lastmile_qr_scan"}}, {"name": "cecd7eb48eda12956a39b825ef01261b", "type": "electric_scooter", "lat": 38.901238666666664, "is_reserved": 0, "lon": -77.05001016666667, "fusion_lon": 0.0, "is_disabled": 0, "fusion_lat": 0.0, "bike_id": "cecd7eb48eda12956a39b825ef01261b", "rental_uris": {"ios": "https://dc.lft.to/lastmile_qr_scan", "android": "https://dc.lft.to/lastmile_qr_scan"}}, {"name": "ba384a45c2da26b732c83d570a368414", "type": "electric_bike", "lat": 38.837979, "is_reserved": 0, "lon": -76.9983435, "fusion_lon": 0.0, "is_disabled": 0, "fusion_lat": 0.0, "bike_id": "ba384a45c2da26b732c83d570a368414", "rental_uris": {"ios": "https://dc.lft.to/lastmile_qr_scan", "android": "https://dc.lft.to/lastmile_qr_scan"}}, {"name": "2c96f84ba15522519fb8bdc17efab22c", "type": "electric_bike", "lat": 38.9029455, "is_reserved": 0, "lon": -76.94440566666667, "fusion_lon": 0.0, "is_disabled": 0, "fusion_lat": 0.0, "bike_id": "2c96f84ba15522519fb8bdc17efab22c", "rental_uris": {"ios": "https://dc.lft.to/lastmile_qr_scan", "android": "https://dc.lft.to/lastmile_qr_scan"}}, {"name": "981e029bbf6d3833a4c4979a7e1a5fc2", "type": "electric_scooter", "lat": 38.90018633333333, "is_reserved": 0, "lon": -76.990735, "fusion_lon": 0.0, "is_disabled": 0, "fusion_lat": 0.0, "bike_id": "981e029bbf6d3833a4c4979a7e1a5fc2", "rental_uris": {"ios": "https://dc.lft.to/lastmile_qr_scan", "android": "https://dc.lft.to/lastmile_qr_scan"}}, {"name": "90f1d846047114ec73220467a710f205", "type": "electric_scooter", "lat": 38.92952066666667, "is_reserved": 0, "lon": -77.0440305, "fusion_lon": 0.0, "is_disabled": 0, "fusion_lat": 0.0, "bike_id": "90f1d846047114ec73220467a710f205", "rental_uris": {"ios": "https://dc.lft.to/lastmile_qr_scan", "android": "https://dc.lft.to/lastmile_qr_scan"}}, {"name": "2539c80234534974f7db4832846035bf", "type": "electric_scooter", "lat": 38.90136866666667, "is_reserved": 0, "lon": -77.03336333333333, "fusion_lon": 0.0, "is_disabled": 0, "fusion_lat": 0.0, "bike_id": "2539c80234534974f7db4832846035bf", "rental_uris": {"ios": "https://dc.lft.to/lastmile_qr_scan", "android": "https://dc.lft.to/lastmile_qr_scan"}}, {"name": "ca99149ca659978d6e173144e01e5085", "type": "electric_scooter", "lat": 38.9046235, "is_reserved": 0, "lon": -77.04661266666666, "fusion_lon": 0.0, "is_disabled": 0, "fusion_lat": 0.0, "bike_id": "ca99149ca659978d6e173144e01e5085", "rental_uris": {"ios": "https://dc.lft.to/lastmile_qr_scan", "android": "https://dc.lft.to/lastmile_qr_scan"}}, {"name": "52e6f8192e0fc038aa7585f9dcfaaf20", "type": "electric_scooter", "lat": 38.9095805, "is_reserved": 0, "lon": -77.0077075, "fusion_lon": 0.0, "is_disabled": 0, "fusion_lat": 0.0, "bike_id": "52e6f8192e0fc038aa7585f9dcfaaf20", "rental_uris": {"ios": "https://dc.lft.to/lastmile_qr_scan", "android": "https://dc.lft.to/lastmile_qr_scan"}}, {"name": "9a1090bb06853cbb6996ad73209c9586", "type": "electric_scooter", "lat": 38.909608666666664, "is_reserved": 0, "lon": -77.033041, "fusion_lon": 0.0, "is_disabled": 0, "fusion_lat": 0.0, "bike_id": "9a1090bb06853cbb6996ad73209c9586", "rental_uris": {"ios": "https://dc.lft.to/lastmile_qr_scan", "android": "https://dc.lft.to/lastmile_qr_scan"}}, {"name": "0ce86c2a84b3e7b60b27915388eee06f", "type": "electric_scooter", "lat": 38.93200916666667, "is_reserved": 0, "lon": -77.0387615, "fusion_lon": 0.0, "is_disabled": 0, "fusion_lat": 0.0, "bike_id": "0ce86c2a84b3e7b60b27915388eee06f", "rental_uris": {"ios": "https://dc.lft.to/lastmile_qr_scan", "android": "https://dc.lft.to/lastmile_qr_scan"}}, {"name": "f34e4f5309e75cdf3d60cc62951c0781", "type": "electric_scooter", "lat": 38.91319, "is_reserved": 0, "lon": -77.03851933333333, "fusion_lon": 0.0, "is_disabled": 0, "fusion_lat": 0.0, "bike_id": "f34e4f5309e75cdf3d60cc62951c0781", "rental_uris": {"ios": "https://dc.lft.to/lastmile_qr_scan", "android": "https://dc.lft.to/lastmile_qr_scan"}}, {"name": "16880657b493bf20e8efee9eede69050", "type": "electric_scooter", "lat": 38.90367666666667, "is_reserved": 0, "lon": -77.0109365, "fusion_lon": 0.0, "is_disabled": 0, "fusion_lat": 0.0, "bike_id": "16880657b493bf20e8efee9eede69050", "rental_uris": {"ios": "https://dc.lft.to/lastmile_qr_scan", "android": "https://dc.lft.to/lastmile_qr_scan"}}, {"name": "6f88879ade786b8fa74a5c65a2ae874d", "type": "electric_scooter", "lat": 38.8953655, "is_reserved": 0, "lon": -77.04653483333334, "fusion_lon": 0.0, "is_disabled": 0, "fusion_lat": 0.0, "bike_id": "6f88879ade786b8fa74a5c65a2ae874d", "rental_uris": {"ios": "https://dc.lft.to/lastmile_qr_scan", "android": "https://dc.lft.to/lastmile_qr_scan"}}, {"name": "4b3aa662b347ab74bcf87b252e862f3a", "type": "electric_bike", "lat": 38.906847166666665, "is_reserved": 0, "lon": -76.95188416666667, "fusion_lon": 0.0, "is_disabled": 0, "fusion_lat": 0.0, "bike_id": "4b3aa662b347ab74bcf87b252e862f3a", "rental_uris": {"ios": "https://dc.lft.to/lastmile_qr_scan", "android": "https://dc.lft.to/lastmile_qr_scan"}}, {"name": "03fa063b3081d10cf87e03a7af448d40", "type": "electric_scooter", "lat": 38.891917, "is_reserved": 0, "lon": -77.0458665, "fusion_lon": 0.0, "is_disabled": 0, "fusion_lat": 0.0, "bike_id": "03fa063b3081d10cf87e03a7af448d40", "rental_uris": {"ios": "https://dc.lft.to/lastmile_qr_scan", "android": "https://dc.lft.to/lastmile_qr_scan"}}, {"name": "af88610bd89f8b8d1838702bea95f9f6", "type": "electric_bike", "lat": 38.802277333333336, "is_reserved": 0, "lon": -77.0791525, "fusion_lon": 0.0, "is_disabled": 0, "fusion_lat": 0.0, "bike_id": "af88610bd89f8b8d1838702bea95f9f6", "rental_uris": {"ios": "https://dc.lft.to/lastmile_qr_scan", "android": "https://dc.lft.to/lastmile_qr_scan"}}, {"name": "26e72613c8551da9d0d57d6f6cc424cd", "type": "electric_scooter", "lat": 38.944121333333335, "is_reserved": 0, "lon": -77.05516516666667, "fusion_lon": 0.0, "is_disabled": 0, "fusion_lat": 0.0, "bike_id": "26e72613c8551da9d0d57d6f6cc424cd", "rental_uris": {"ios": "https://dc.lft.to/lastmile_qr_scan", "android": "https://dc.lft.to/lastmile_qr_scan"}}, {"name": "dde690ba119b1fdc4b9c4c3a046fc10c", "type": "electric_scooter", "lat": 38.905449, "is_reserved": 0, "lon": -77.021772, "fusion_lon": 0.0, "is_disabled": 0, "fusion_lat": 0.0, "bike_id": "dde690ba119b1fdc4b9c4c3a046fc10c", "rental_uris": {"ios": "https://dc.lft.to/lastmile_qr_scan", "android": "https://dc.lft.to/lastmile_qr_scan"}}, {"name": "94319f5d6816e445bea160d0bcf0b719", "type": "electric_scooter", "lat": 38.91695083333333, "is_reserved": 0, "lon": -77.02235933333333, "fusion_lon": 0.0, "is_disabled": 0, "fusion_lat": 0.0, "bike_id": "94319f5d6816e445bea160d0bcf0b719", "rental_uris": {"ios": "https://dc.lft.to/lastmile_qr_scan", "android": "https://dc.lft.to/lastmile_qr_scan"}}, {"name": "defbc87bb230a78602ee371a9f339bdb", "type": "electric_bike", "lat": 38.97329916666666, "is_reserved": 0, "lon": -77.021504, "fusion_lon": 0.0, "is_disabled": 0, "fusion_lat": 0.0, "bike_id": "defbc87bb230a78602ee371a9f339bdb", "rental_uris": {"ios": "https://dc.lft.to/lastmile_qr_scan", "android": "https://dc.lft.to/lastmile_qr_scan"}}, {"name": "07de51ddb046e0ce88c764854c9cba33", "type": "electric_scooter", "lat": 38.893824333333335, "is_reserved": 0, "lon": -76.94976216666667, "fusion_lon": 0.0, "is_disabled": 0, "fusion_lat": 0.0, "bike_id": "07de51ddb046e0ce88c764854c9cba33", "rental_uris": {"ios": "https://dc.lft.to/lastmile_qr_scan", "android": "https://dc.lft.to/lastmile_qr_scan"}}, {"name": "78fedf79125383e754f5363fe4ce703a", "type": "electric_scooter", "lat": 38.912740666666664, "is_reserved": 0, "lon": -77.0269025, "fusion_lon": 0.0, "is_disabled": 0, "fusion_lat": 0.0, "bike_id": "78fedf79125383e754f5363fe4ce703a", "rental_uris": {"ios": "https://dc.lft.to/lastmile_qr_scan", "android": "https://dc.lft.to/lastmile_qr_scan"}}, {"name": "9750dab8f5292feeddf0b5d291c5a1ad", "type": "electric_scooter", "lat": 38.894710833333335, "is_reserved": 0, "lon": -77.01223183333333, "fusion_lon": 0.0, "is_disabled": 0, "fusion_lat": 0.0, "bike_id": "9750dab8f5292feeddf0b5d291c5a1ad", "rental_uris": {"ios": "https://dc.lft.to/lastmile_qr_scan", "android": "https://dc.lft.to/lastmile_qr_scan"}}, {"name": "72632a12ab0212fb1b3d9fe1ffcbb9c9", "type": "electric_scooter", "lat": 38.922475, "is_reserved": 0, "lon": -77.030668, "fusion_lon": 0.0, "is_disabled": 0, "fusion_lat": 0.0, "bike_id": "72632a12ab0212fb1b3d9fe1ffcbb9c9", "rental_uris": {"ios": "https://dc.lft.to/lastmile_qr_scan", "android": "https://dc.lft.to/lastmile_qr_scan"}}, {"name": "dcffabc73a6f74ea6e5e255a7d33e576", "type": "electric_scooter", "lat": 38.92714083333333, "is_reserved": 0, "lon": -77.020791, "fusion_lon": 0.0, "is_disabled": 0, "fusion_lat": 0.0, "bike_id": "dcffabc73a6f74ea6e5e255a7d33e576", "rental_uris": {"ios": "https://dc.lft.to/lastmile_qr_scan", "android": "https://dc.lft.to/lastmile_qr_scan"}}, {"name": "53fe04be54f79391e25851df325ef091", "type": "electric_bike", "lat": 38.945493, "is_reserved": 0, "lon": -76.8953625, "fusion_lon": 0.0, "is_disabled": 0, "fusion_lat": 0.0, "bike_id": "53fe04be54f79391e25851df325ef091", "rental_uris": {"ios": "https://dc.lft.to/lastmile_qr_scan", "android": "https://dc.lft.to/lastmile_qr_scan"}}, {"name": "e710255ec98597642a0a791291ce8993", "type": "electric_scooter", "lat": 38.92955166666667, "is_reserved": 0, "lon": -77.03394516666667, "fusion_lon": 0.0, "is_disabled": 0, "fusion_lat": 0.0, "bike_id": "e710255ec98597642a0a791291ce8993", "rental_uris": {"ios": "https://dc.lft.to/lastmile_qr_scan", "android": "https://dc.lft.to/lastmile_qr_scan"}}, {"name": "008f0c18c4dc140b5c592c2785a76613", "type": "electric_scooter", "lat": 38.910092166666665, "is_reserved": 0, "lon": -76.99389533333333, "fusion_lon": 0.0, "is_disabled": 0, "fusion_lat": 0.0, "bike_id": "008f0c18c4dc140b5c592c2785a76613", "rental_uris": {"ios": "https://dc.lft.to/lastmile_qr_scan", "android": "https://dc.lft.to/lastmile_qr_scan"}}, {"name": "3c4028cb0c1a0848917c1917ee80b50f", "type": "electric_scooter", "lat": 38.93358033333333, "is_reserved": 0, "lon": -77.03610283333333, "fusion_lon": 0.0, "is_disabled": 0, "fusion_lat": 0.0, "bike_id": "3c4028cb0c1a0848917c1917ee80b50f", "rental_uris": {"ios": "https://dc.lft.to/lastmile_qr_scan", "android": "https://dc.lft.to/lastmile_qr_scan"}}, {"name": "febf6ce25efce66374d65fca16cb6adb", "type": "electric_scooter", "lat": 38.89834066666667, "is_reserved": 0, "lon": -76.94634733333334, "fusion_lon": 0.0, "is_disabled": 0, "fusion_lat": 0.0, "bike_id": "febf6ce25efce66374d65fca16cb6adb", "rental_uris": {"ios": "https://dc.lft.to/lastmile_qr_scan", "android": "https://dc.lft.to/lastmile_qr_scan"}}, {"name": "3966b31f75fc24152eef8be55df63016", "type": "electric_scooter", "lat": 38.93251566666667, "is_reserved": 0, "lon": -77.04004016666667, "fusion_lon": 0.0, "is_disabled": 0, "fusion_lat": 0.0, "bike_id": "3966b31f75fc24152eef8be55df63016", "rental_uris": {"ios": "https://dc.lft.to/lastmile_qr_scan", "android": "https://dc.lft.to/lastmile_qr_scan"}}, {"name": "96524f99a45b60b4e1c4ebb690557e3c", "type": "electric_scooter", "lat": 38.9312305, "is_reserved": 0, "lon": -77.03604333333334, "fusion_lon": 0.0, "is_disabled": 0, "fusion_lat": 0.0, "bike_id": "96524f99a45b60b4e1c4ebb690557e3c", "rental_uris": {"ios": "https://dc.lft.to/lastmile_qr_scan", "android": "https://dc.lft.to/lastmile_qr_scan"}}, {"name": "8763b4180c5d6ce10030ff8f1cdf924d", "type": "electric_scooter", "lat": 38.90025716666667, "is_reserved": 0, "lon": -76.9985805, "fusion_lon": 0.0, "is_disabled": 0, "fusion_lat": 0.0, "bike_id": "8763b4180c5d6ce10030ff8f1cdf924d", "rental_uris": {"ios": "https://dc.lft.to/lastmile_qr_scan", "android": "https://dc.lft.to/lastmile_qr_scan"}}, {"name": "f6f23ba9e6fcd33e825ab30ecaf5d53c", "type": "electric_scooter", "lat": 38.929299, "is_reserved": 0, "lon": -77.03261983333333, "fusion_lon": 0.0, "is_disabled": 0, "fusion_lat": 0.0, "bike_id": "f6f23ba9e6fcd33e825ab30ecaf5d53c", "rental_uris": {"ios": "https://dc.lft.to/lastmile_qr_scan", "android": "https://dc.lft.to/lastmile_qr_scan"}}, {"name": "5ed0bcbc9a1561893c57f789dbe94f03", "type": "electric_scooter", "lat": 38.86695916666667, "is_reserved": 0, "lon": -76.98712316666666, "fusion_lon": 0.0, "is_disabled": 0, "fusion_lat": 0.0, "bike_id": "5ed0bcbc9a1561893c57f789dbe94f03", "rental_uris": {"ios": "https://dc.lft.to/lastmile_qr_scan", "android": "https://dc.lft.to/lastmile_qr_scan"}}, {"name": "6f90a226f94a14bd3ad8fc1304983874", "type": "electric_scooter", "lat": 38.892325666666665, "is_reserved": 0, "lon": -77.03180916666666, "fusion_lon": 0.0, "is_disabled": 0, "fusion_lat": 0.0, "bike_id": "6f90a226f94a14bd3ad8fc1304983874", "rental_uris": {"ios": "https://dc.lft.to/lastmile_qr_scan", "android": "https://dc.lft.to/lastmile_qr_scan"}}, {"name": "52d37934f8490ae0878eef88590eed94", "type": "electric_scooter", "lat": 38.844250833333334, "is_reserved": 0, "lon": -76.99777066666667, "fusion_lon": 0.0, "is_disabled": 0, "fusion_lat": 0.0, "bike_id": "52d37934f8490ae0878eef88590eed94", "rental_uris": {"ios": "https://dc.lft.to/lastmile_qr_scan", "android": "https://dc.lft.to/lastmile_qr_scan"}}, {"name": "ed26f744ec45aad5204748a3d626b782", "type": "electric_scooter", "lat": 38.92572233333333, "is_reserved": 0, "lon": -77.02717033333333, "fusion_lon": 0.0, "is_disabled": 0, "fusion_lat": 0.0, "bike_id": "ed26f744ec45aad5204748a3d626b782", "rental_uris": {"ios": "https://dc.lft.to/lastmile_qr_scan", "android": "https://dc.lft.to/lastmile_qr_scan"}}, {"name": "8348535b3cc0e93fdf88da9cd55055fe", "type": "electric_scooter", "lat": 38.884025333333334, "is_reserved": 0, "lon": -76.93040433333333, "fusion_lon": 0.0, "is_disabled": 0, "fusion_lat": 0.0, "bike_id": "8348535b3cc0e93fdf88da9cd55055fe", "rental_uris": {"ios": "https://dc.lft.to/lastmile_qr_scan", "android": "https://dc.lft.to/lastmile_qr_scan"}}, {"name": "c3ff32abcda907860ca97caa6f1106c5", "type": "electric_scooter", "lat": 38.915752166666664, "is_reserved": 0, "lon": -77.0462495, "fusion_lon": 0.0, "is_disabled": 0, "fusion_lat": 0.0, "bike_id": "c3ff32abcda907860ca97caa6f1106c5", "rental_uris": {"ios": "https://dc.lft.to/lastmile_qr_scan", "android": "https://dc.lft.to/lastmile_qr_scan"}}, {"name": "a605858534d43eed7b38877ace0fd73e", "type": "electric_bike", "lat": 38.870825333333336, "is_reserved": 0, "lon": -77.01207466666666, "fusion_lon": 0.0, "is_disabled": 0, "fusion_lat": 0.0, "bike_id": "a605858534d43eed7b38877ace0fd73e", "rental_uris": {"ios": "https://dc.lft.to/lastmile_qr_scan", "android": "https://dc.lft.to/lastmile_qr_scan"}}, {"name": "10af86a36a2e697e3a6cc3458e44fa29", "type": "electric_bike", "lat": 38.93689116666667, "is_reserved": 0, "lon": -77.056479, "fusion_lon": 0.0, "is_disabled": 0, "fusion_lat": 0.0, "bike_id": "10af86a36a2e697e3a6cc3458e44fa29", "rental_uris": {"ios": "https://dc.lft.to/lastmile_qr_scan", "android": "https://dc.lft.to/lastmile_qr_scan"}},