{"data": {"bikes": [{"lat": 38.894408166666665, "is_disabled": 0, "type": "electric_scooter", "lon": -76.94986566666667, "bike_id": "200cbd500e3733c131cac572643cac5a", "fusion_lat": 0.0, "name": "200cbd500e3733c131cac572643cac5a", "is_reserved": 0, "rental_uris": {"android": "https://dc.lft.to/lastmile_qr_scan", "ios": "https://dc.lft.to/lastmile_qr_scan"}, "fusion_lon": 0.0}, {"lat": 38.90729966666667, "is_disabled": 0, "type": "electric_scooter", "lon": -77.04645666666667, "bike_id": "164e061e7814a9b170732c6f04624f3e", "fusion_lat": 0.0, "name": "164e061e7814a9b170732c6f04624f3e", "is_reserved": 0, "rental_uris": {"android": "https://dc.lft.to/lastmile_qr_scan", "ios": "https://dc.lft.to/lastmile_qr_scan"}, "fusion_lon": 0.0}, {"lat": 38.8841915, "is_disabled": 0, "type": "electric_bike", "lon": -76.9542175, "bike_id": "f0fe5c221ff142ae3aedd632a8b23a27", "fusion_lat": 0.0, "name": "f0fe5c221ff142ae3aedd632a8b23a27", "is_reserved": 0, "rental_uris": {"android": "https://dc.lft.to/lastmile_qr_scan", "ios": "https://dc.lft.to/lastmile_qr_scan"}, "fusion_lon": 0.0}, {"lat": 38.9255595, "is_disabled": 0, "type": "electric_scooter", "lon": -77.03341966666666, "bike_id": "b9c0f1c886fc894fdf60e33864ff0549", "fusion_lat": 0.0, "name": "b9c0f1c886fc894fdf60e33864ff0549", "is_reserved": 0, "rental_uris": {"android": "https://dc.lft.to/lastmile_qr_scan", "ios": "https://dc.lft.to/lastmile_qr_scan"}, "fusion_lon": 0.0}, {"lat": 38.898215666666665, "is_disabled": 0, "type": "electric_scooter", "lon": -76.99691266666666, "bike_id": "f46ecdd12547f293e85a39740d70d27d", "fusion_lat": 0.0, "name": "f46ecdd12547f293e85a39740d70d27d", "is_reserved": 0, "rental_uris": {"android": "https://dc.lft.to/lastmile_qr_scan", "ios": "https://dc.lft.to/lastmile_qr_scan"}, "fusion_lon": 0.0}, {"lat": 38.924734, "is_disabled": 0, "type": "electric_scooter", "lon": -77.02837, "bike_id": "8ae61d8159a4f9eaccedb5c538e877bf", "fusion_lat": 0.0, "name": "8ae61d8159a4f9eaccedb5c538e877bf", "is_reserved": 0, "rental_uris": {"android": "https://dc.lft.to/lastmile_qr_scan", "ios": "https://dc.lft.to/lastmile_qr_scan"}, "fusion_lon": 0.0}, {"lat": 38.917148, "is_disabled": 0, "type": "electric_scooter", "lon": -77.029959, "bike_id": "2177064e8ad729b881898965b2d35ab6", "fusion_lat": 0.0, "name": "2177064e8ad729b881898965b2d35ab6", "is_reserved": 0, "rental_uris": {"android": "https://dc.lft.to/lastmile_qr_scan", "ios": "https://dc.lft.to/lastmile_qr_scan"}, "fusion_lon": 0.0}, {"lat": 38.8874065, "is_disabled": 0, "type": "electric_scooter", "lon": -77.01531266666667, "bike_id": "7dd8b65ce2b66aa09a21d2fb0026431b", "fusion_lat": 0.0, "name": "7dd8b65ce2b66aa09a21d2fb0026431b", "is_reserved": 0, "rental_uris": {"android": "https://dc.lft.to/lastmile_qr_scan", "ios": "https://dc.lft.to/lastmile_qr_scan"}, "fusion_lon": 0.0}, {"lat": 38.91014833333333, "is_disabled": 0, "type": "electric_scooter", "lon": -77.04363866666667, "bike_id": "4171d59aef7caf58293cb1654621c995", "fusion_lat": 0.0, "name": "4171d59aef7caf58293cb1654621c995", "is_reserved": 0, "rental_uris": {"android": "https://dc.lft.to/lastmile_qr_scan", "ios": "https://dc.lft.to/lastmile_qr_scan"}, "fusion_lon": 0.0}, {"lat": 38.961445166666664, "is_disabled": 0, "type": "electric_scooter", "lon": -77.02802766666667, "bike_id": "546cea8c1f27aa5885f3d9159640a34b", "fusion_lat": 0.0, "name": "546cea8c1f27aa5885f3d9159640a34b", "is_reserved": 0, "rental_uris": {"android": "https://dc.lft.to/lastmile_qr_scan", "ios": "https://dc.lft.to/lastmile_qr_scan"}, "fusion_lon": 0.0}, {"lat": 38.888896, "is_disabled": 0, "type": "electric_scooter", "lon": -76.93154, "bike_id": "a5994181e4966575d0a06a1a7af0b89a", "fusion_lat": 0.0, "name": "a5994181e4966575d0a06a1a7af0b89a", "is_reserved": 0, "rental_uris": {"android": "https://dc.lft.to/lastmile_qr_scan", "ios": "https://dc.lft.to/lastmile_qr_scan"}, "fusion_lon": 0.0}, {"lat": 38.911967833333335, "is_disabled": 0, "type": "electric_scooter", "lon": -77.043052, "bike_id": "c7611d2c04590d742eb5de3f6c6b2d8b", "fusion_lat": 0.0, "name": "c7611d2c04590d742eb5de3f6c6b2d8b", "is_reserved": 0, "rental_uris": {"android": "https://dc.lft.to/lastmile_qr_scan", "ios": "https://dc.lft.to/lastmile_qr_scan"}, "fusion_lon": 0.0}, {"lat": 39.05640533333333, "is_disabled": 0, "type": "electric_bike", "lon": -77.1252735, "bike_id": "37c30a9f991368918ff63ea5e99014be", "fusion_lat": 0.0, "name": "37c30a9f991368918ff63ea5e99014be", "is_reserved": 0, "rental_uris": {"android": "https://dc.lft.to/lastmile_qr_scan", "ios": "https://dc.lft.to/lastmile_qr_scan"}, "fusion_lon": 0.0}, {"lat": 38.920216, "is_disabled": 0, "type": "electric_scooter", "lon": -77.02498166666666, "bike_id": "5134bd1940f2c87eb800a5d6a11f2586", "fusion_lat": 0.0, "name": "5134bd1940f2c87eb800a5d6a11f2586", "is_reserved": 0, "rental_uris": {"android": "https://dc.lft.to/lastmile_qr_scan", "ios": "https://dc.lft.to/lastmile_qr_scan"}, "fusion_lon": 0.0}, {"lat": 38.93181716666667, "is_disabled": 0, "type": "electric_scooter", "lon": -77.0282085, "bike_id": "4543ee9f5eeb691244da631317cbdb10", "fusion_lat": 0.0, "name": "4543ee9f5eeb691244da631317cbdb10", "is_reserved": 0, "rental_uris": {"android": "https://dc.lft.to/lastmile_qr_scan", "ios": "https://dc.lft.to/lastmile_qr_scan"}, "fusion_lon": 0.0}, {"lat": 38.93418233333333, "is_disabled": 0, "type": "electric_scooter", "lon": -77.0578455, "bike_id": "ed2c5fe31044cd15ef7a0a67b720bfa7", "fusion_lat": 0.0, "name": "ed2c5fe31044cd15ef7a0a67b720bfa7", "is_reserved": 0, "rental_uris": {"android": "https://dc.lft.to/lastmile_qr_scan", "ios": "https://dc.lft.to/lastmile_qr_scan"}, "fusion_lon": 0.0}, {"lat": 38.90108166666667, "is_disabled": 0, "type": "electric_scooter", "lon": -76.984863, "bike_id": "7fdc9253f8a5f127eeae774c4b7c7177", "fusion_lat": 0.0, "name": "7fdc9253f8a5f127eeae774c4b7c7177", "is_reserved": 0, "rental_uris": {"android": "https://dc.lft.to/lastmile_qr_scan", "ios": "https://dc.lft.to/lastmile_qr_scan"}, "fusion_lon": 0.0}, {"lat": 38.869126666666666, "is_disabled": 0, "type": "electric_bike", "lon": -77.13178083333334, "bike_id": "755a0b2116b61d7b18fbe5d8087a639c", "fusion_lat": 0.0, "name": "755a0b2116b61d7b18fbe5d8087a639c", "is_reserved": 0, "rental_uris": {"android": "https://dc.lft.to/lastmile_qr_scan", "ios": "https://dc.lft.to/lastmile_qr_scan"}, "fusion_lon": 0.0}, {"lat": 38.8403535, "is_disabled": 0, "type": "electric_bike", "lon": -76.976222, "bike_id": "33c86fe1eb0648eae021c25b1b08b93f", "fusion_lat": 0.0, "name": "33c86fe1eb0648eae021c25b1b08b93f", "is_reserved": 0, "rental_uris": {"android": "https://dc.lft.to/lastmile_qr_scan", "ios": "https://dc.lft.to/lastmile_qr_scan"}, "fusion_lon": 0.0}, {"lat": 38.91061, "is_disabled": 0, "type": "electric_scooter", "lon": -77.02653116666667, "bike_id": "6f072241497fc090553f542bd49b7400", "fusion_lat": 0.0, "name": "6f072241497fc090553f542bd49b7400", "is_reserved": 0, "rental_uris": {"android": "https://dc.lft.to/lastmile_qr_scan", "ios": "https://dc.lft.to/lastmile_qr_scan"}, "fusion_lon": 0.0}, {"lat": 38.90376283333333, "is_disabled": 0, "type": "electric_scooter", "lon": -77.04349316666666, "bike_id": "7311c5b5b720273aa192c162d8380c47", "fusion_lat": 0.0, "name": "7311c5b5b720273aa192c162d8380c47", "is_reserved": 0, "rental_uris": {"android": "https://dc.lft.to/lastmile_qr_scan", "ios": "https://dc.lft.to/lastmile_qr_scan"}, "fusion_lon": 0.0}, {"lat": 38.954072, "is_disabled": 0, "type": "electric_scooter", "lon": -77.0362895, "bike_id": "32f81a8a664266c27e568ad24dff6207", "fusion_lat": 0.0, "name": "32f81a8a664266c27e568ad24dff6207", "is_reserved": 0, "rental_uris": {"android": "https://dc.lft.to/lastmile_qr_scan", "ios": "https://dc.lft.to/lastmile_qr_scan"}, "fusion_lon": 0.0}, {"lat": 38.93177516666667, "is_disabled": 0, "type": "electric_scooter", "lon": -77.02818683333334, "bike_id": "86ac638ed9beeabc3704b846dbd22bde", "fusion_lat": 0.0, "name": "86ac638ed9beeabc3704b846dbd22bde", "is_reserved": 0, "rental_uris": {"android": "https://dc.lft.to/lastmile_qr_scan", "ios": "https://dc.lft.to/lastmile_qr_scan"}, "fusion_lon": 0.0}, {"lat": 38.920673666666666, "is_disabled": 0, "type": "electric_scooter", "lon": -77.04189566666666, "bike_id": "8a1aa25cf6ed7dbbf6e942251751eb02", "fusion_lat": 0.0, "name": "8a1aa25cf6ed7dbbf6e942251751eb02", "is_reserved": 0, "rental_uris": {"android": "https://dc.lft.to/lastmile_qr_scan", "ios": "https://dc.lft.to/lastmile_qr_scan"}, "fusion_lon": 0.0}, {"lat": 38.92763383333333, "is_disabled": 0, "type": "electric_scooter", "lon": -77.03268016666667, "bike_id": "ba81cd95dbc551e36d2fc628639db14d", "fusion_lat": 0.0, "name": "ba81cd95dbc551e36d2fc628639db14d", "is_reserved": 0, "rental_uris": {"android": "https://dc.lft.to/lastmile_qr_scan", "ios": "https://dc.lft.to/lastmile_qr_scan"}, "fusion_lon": 0.0}, {"lat": 38.92118516666667, "is_disabled": 0, "type": "electric_scooter", "lon": -77.04204816666666, "bike_id": "06416d058afee830cde83fda309bfa1e", "fusion_lat": 0.0, "name": "06416d058afee830cde83fda309bfa1e", "is_reserved": 0, "rental_uris": {"android": "https://dc.lft.to/lastmile_qr_scan", "ios": "https://dc.lft.to/lastmile_qr_scan"}, "fusion_lon": 0.0}, {"lat": 38.917046666666664, "is_disabled": 0, "type": "electric_scooter", "lon": -77.02384766666667, "bike_id": "cb93e20742615fc0201f853b5507c49f", "fusion_lat": 0.0, "name": "cb93e20742615fc0201f853b5507c49f", "is_reserved": 0, "rental_uris": {"android": "https://dc.lft.to/lastmile_qr_scan", "ios": "https://dc.lft.to/lastmile_qr_scan"}, "fusion_lon": 0.0}, {"lat": 38.90558133333333, "is_disabled": 0, "type": "electric_scooter", "lon": -77.03390633333333, "bike_id": "e516722237d24b7823b81cc8fb74b2b4", "fusion_lat": 0.0, "name": "e516722237d24b7823b81cc8fb74b2b4", "is_reserved": 0, "rental_uris": {"android": "https://dc.lft.to/lastmile_qr_scan", "ios": "https://dc.lft.to/lastmile_qr_scan"}, "fusion_lon": 0.0}, {"lat": 38.890452333333336, "is_disabled": 0, "type": "electric_scooter", "lon": -76.95140383333333, "bike_id": "b902db8cdaf5c102c67e3898a7d46c59", "fusion_lat": 0.0, "name": "b902db8cdaf5c102c67e3898a7d46c59", "is_reserved": 0, "rental_uris": {"android": "https://dc.lft.to/lastmile_qr_scan", "ios": "https://dc.lft.to/lastmile_qr_scan"}, "fusion_lon": 0.0}, {"lat": 38.910473, "is_disabled": 0, "type": "electric_scooter", "lon": -77.01507466666666, "bike_id": "e589b9898b6e269f226ce5d23cebf244", "fusion_lat": 0.0, "name": "e589b9898b6e269f226ce5d23cebf244", "is_reserved": 0, "rental_uris": {"android": "https://dc.lft.to/lastmile_qr_scan", "ios": "https://dc.lft.to/lastmile_qr_scan"}, "fusion_lon": 0.0}, {"lat": 38.90654766666667, "is_disabled": 0, "type": "electric_scooter", "lon": -77.02595366666667, "bike_id": "2554b3dea9fbf7b7c41fb7af040ad909", "fusion_lat": 0.0, "name": "2554b3dea9fbf7b7c41fb7af040ad909", "is_reserved": 0, "rental_uris": {"android": "https://dc.lft.to/lastmile_qr_scan", "ios": "https://dc.lft.to/lastmile_qr_scan"}, "fusion_lon": 0.0}, {"lat": 38.90768933333333, "is_disabled": 0, "type": "electric_scooter", "lon": -77.04249333333334, "bike_id": "c3faacb157c72f342fb8a40b716784ce", "fusion_lat": 0.0, "name": "c3faacb157c72f342fb8a40b716784ce", "is_reserved": 0, "rental_uris": {"android": "https://dc.lft.to/lastmile_qr_scan", "ios": "https://dc.lft.to/lastmile_qr_scan"}, "fusion_lon": 0.0}, {"lat": 38.86653483333333, "is_disabled": 0, "type": "electric_scooter", "lon": -76.98882233333333, "bike_id": "c2e881b1ab42cafefdafbe3426c4f8a8", "fusion_lat": 0.0, "name": "c2e881b1ab42cafefdafbe3426c4f8a8", "is_reserved": 0, "rental_uris": {"android": "https://dc.lft.to/lastmile_qr_scan", "ios": "https://dc.lft.to/lastmile_qr_scan"}, "fusion_lon": 0.0}, {"lat": 38.88495483333333, "is_disabled": 0, "type": "electric_scooter", "lon": -77.00710666666667, "bike_id": "d890b7d9680f7975797a1f0fd900f381", "fusion_lat": 0.0, "name": "d890b7d9680f7975797a1f0fd900f381", "is_reserved": 0, "rental_uris": {"android": "https://dc.lft.to/lastmile_qr_scan", "ios": "https://dc.lft.to/lastmile_qr_scan"}, "fusion_lon": 0.0}, {"lat": 38.80062016666667, "is_disabled": 0, "type": "electric_bike", "lon": -77.07113833333334, "bike_id": "ba8f799287dffeb64f8de7930a7ab4bc", "fusion_lat": 0.0, "name": "ba8f799287dffeb64f8de7930a7ab4bc", "is_reserved": 0, "rental_uris": {"android": "https://dc.lft.to/lastmile_qr_scan", "ios": "https://dc.lft.to/lastmile_qr_scan"}, "fusion_lon": 0.0}, {"lat": 38.9262135, "is_disabled": 0, "type": "electric_bike", "lon": -77.07474766666667, "bike_id": "62c59e0d51dc7e0000d44de6104f36e9", "fusion_lat": 0.0, "name": "62c59e0d51dc7e0000d44de6104f36e9", "is_reserved": 0, "rental_uris": {"android": "https://dc.lft.to/lastmile_qr_scan", "ios": "https://dc.lft.to/lastmile_qr_scan"}, "fusion_lon": 0.0}, {"lat": 38.886895, "is_disabled": 0, "type": "electric_scooter", "lon": -77.0129755, "bike_id": "8a4116adb13ce393a1762db37a00daf8", "fusion_lat": 0.0, "name": "8a4116adb13ce393a1762db37a00daf8", "is_reserved": 0, "rental_uris": {"android": "https://dc.lft.to/lastmile_qr_scan", "ios": "https://dc.lft.to/lastmile_qr_scan"}, "fusion_lon": 0.0}, {"lat": 38.86624, "is_disabled": 0, "type": "electric_scooter", "lon": -76.98660883333334, "bike_id": "d2d863875f9a9636687bc7a9acd5ab5d", "fusion_lat": 0.0, "name": "d2d863875f9a9636687bc7a9acd5ab5d", "is_reserved": 0, "rental_uris": {"android": "https://dc.lft.to/lastmile_qr_scan", "ios": "https://dc.lft.to/lastmile_qr_scan"}, "fusion_lon": 0.0}, {"lat": 38.897739666666666, "is_disabled": 0, "type": "electric_bike", "lon": -76.90434316666666, "bike_id": "5d1c49a3c9bad2ab890a96a69c9c2633", "fusion_lat": 0.0, "name": "5d1c49a3c9bad2ab890a96a69c9c2633", "is_reserved": 0, "rental_uris": {"android": "https://dc.lft.to/lastmile_qr_scan", "ios": "https://dc.lft.to/lastmile_qr_scan"}, "fusion_lon": 0.0}, {"lat": 38.888686, "is_disabled": 0, "type": "electric_scooter", "lon": -76.9801585, "bike_id": "fbd295b65d058d3498df8a583ef08233", "fusion_lat": 0.0, "name": "fbd295b65d058d3498df8a583ef08233", "is_reserved": 0, "rental_uris": {"android": "https://dc.lft.to/lastmile_qr_scan", "ios": "https://dc.lft.to/lastmile_qr_scan"}, "fusion_lon": 0.0}, {"lat": 38.900702333333335, "is_disabled": 0, "type": "electric_scooter", "lon": -77.04953283333333, "bike_id": "60270eedf53f709d7bf3f9cee4b76d27", "fusion_lat": 0.0, "name": "60270eedf53f709d7bf3f9cee4b76d27", "is_reserved": 0, "rental_uris": {"android": "https://dc.lft.to/lastmile_qr_scan", "ios": "https://dc.lft.to/lastmile_qr_scan"}, "fusion_lon": 0.0}, {"lat": 38.902633, "is_disabled": 0, "type": "electric_scooter", "lon": -77.039109, "bike_id": "dc848ed2d3abbe03fcd505c5477ee295", "fusion_lat": 0.0, "name": "dc848ed2d3abbe03fcd505c5477ee295", "is_reserved": 0, "rental_uris": {"android": "https://dc.lft.to/lastmile_qr_scan", "ios": "https://dc.lft.to/lastmile_qr_scan"}, "fusion_lon": 0.0}, {"lat": 38.9162295, "is_disabled": 0, "type": "electric_scooter", "lon": -77.04293333333334, "bike_id": "65636d630a8a0a88b0f435f3f6749e31", "fusion_lat": 0.0, "name": "65636d630a8a0a88b0f435f3f6749e31", "is_reserved": 0, "rental_uris": {"android": "https://dc.lft.to/lastmile_qr_scan", "ios": "https://dc.lft.to/lastmile_qr_scan"}, "fusion_lon": 0.0}, {"lat": 38.901277, "is_disabled": 0, "type": "electric_scooter", "lon": -77.01779866666666, "bike_id": "e80430c9908735fa80bc13b108968dcb", "fusion_lat": 0.0, "name": "e80430c9908735fa80bc13b108968dcb", "is_reserved": 0, "rental_uris": {"android": "https://dc.lft.to/lastmile_qr_scan", "ios": "https://dc.lft.to/lastmile_qr_scan"}, "fusion_lon": 0.0}, {"lat": 38.92574416666667, "is_disabled": 0, "type": "electric_scooter", "lon": -77.05737233333333, "bike_id": "a1fd5fb1211476c9013edaa5d2f6278d", "fusion_lat": 0.0, "name": "a1fd5fb1211476c9013edaa5d2f6278d", "is_reserved": 0, "rental_uris": {"android": "https://dc.lft.to/lastmile_qr_scan", "ios": "https://dc.lft.to/lastmile_qr_scan"}, "fusion_lon": 0.0}, {"lat": 38.90370633333333, "is_disabled": 0, "type": "electric_scooter", "lon": -77.0308245, "bike_id": "f696fbdbdc96c30ff6d9d9f48c4b8aa1", "fusion_lat": 0.0, "name": "f696fbdbdc96c30ff6d9d9f48c4b8aa1", "is_reserved": 0, "rental_uris": {"android": "https://dc.lft.to/lastmile_qr_scan", "ios": "https://dc.lft.to/lastmile_qr_scan"}, "fusion_lon": 0.0}, {"lat": 38.84277683333333, "is_disabled": 0, "type": "electric_bike", "lon": -76.98844966666667, "bike_id": "02d9a2bf7d7b8d5b6acbdb7bc6672c73", "fusion_lat": 0.0, "name": "02d9a2bf7d7b8d5b6acbdb7bc6672c73", "is_reserved": 0, "rental_uris": {"android": "https://dc.lft.to/lastmile_qr_scan", "ios": "https://dc.lft.to/lastmile_qr_scan"}, "fusion_lon": 0.0}, {"lat": 38.901638, "is_disabled": 0, "type": "electric_scooter", "lon": -76.98632866666667, "bike_id": "47abdc2f28133dccdccc0da0e88aa189", "fusion_lat": 0.0, "name": "47abdc2f28133dccdccc0da0e88aa189", "is_reserved": 0, "rental_uris": {"android": "https://dc.lft.to/lastmile_qr_scan", "ios": "https://dc.lft.to/lastmile_qr_scan"}, "fusion_lon": 0.0}, {"lat": 38.927498, "is_disabled": 0, "type": "electric_scooter", "lon": -76.99712516666666, "bike_id": "f269ec373b3d25f48735cd080de96048", "fusion_lat": 0.0, "name": "f269ec373b3d25f48735cd080de96048", "is_reserved": 0, "rental_uris": {"android": "https://dc.lft.to/lastmile_qr_scan", "ios": "https://dc.lft.to/lastmile_qr_scan"}, "fusion_lon": 0.0}, {"lat": 38.956373166666665, "is_disabled": 0, "type": "electric_bike", "lon": -76.93883583333333, "bike_id": "771fcc3b1becbb506fa3ca4f3e4b4828", "fusion_lat": 0.0, "name": "771fcc3b1becbb506fa3ca4f3e4b4828", "is_reserved": 0, "rental_uris": {"android": "https://dc.lft.to/lastmile_qr_scan", "ios": "https://dc.lft.to/lastmile_qr_scan"}, "fusion_lon": 0.0}, {"lat": 38.88404366666666, "is_disabled": 0, "type": "electric_bike", "lon": -76.9605295, "bike_id": "5014827616964d980fb26dc0c4ac1429", "fusion_lat": 0.0, "name": "5014827616964d980fb26dc0c4ac1429", "is_reserved": 0, "rental_uris": {"android": "https://dc.lft.to/lastmile_qr_scan", "ios": "https://dc.lft.to/lastmile_qr_scan"}, "fusion_lon": 0.0}, {"lat": 38.90050133333333, "is_disabled": 0, "type": "electric_scooter", "lon": -76.99505366666666, "bike_id": "bbdf6fbaceb2bf359ea13867abaf5b31", "fusion_lat": 0.0, "name": "bbdf6fbaceb2bf359ea13867abaf5b31", "is_reserved": 0, "rental_uris": {"android": "https://dc.lft.to/lastmile_qr_scan", "ios": "https://dc.lft.to/lastmile_qr_scan"}, "fusion_lon": 0.0}, {"lat": 38.9164755, "is_disabled": 0, "type": "electric_scooter", "lon": -77.0482395, "bike_id": "9964e779008b29c25e51cbf452b22d98", "fusion_lat": 0.0, "name": "9964e779008b29c25e51cbf452b22d98", "is_reserved": 0, "rental_uris": {"android": "https://dc.lft.to/lastmile_qr_scan", "ios": "https://dc.lft.to/lastmile_qr_scan"}, "fusion_lon": 0.0}, {"lat": 38.928558833333334, "is_disabled": 0, "type": "electric_scooter", "lon": -77.0360985, "bike_id": "2543e47a2fe2c08614a9a84344486003", "fusion_lat": 0.0, "name": "2543e47a2fe2c08614a9a84344486003", "is_reserved": 0, "rental_uris": {"android": "https://dc.lft.to/lastmile_qr_scan", "ios": "https://dc.lft.to/lastmile_qr_scan"}, "fusion_lon": 0.0}, {"lat": 38.929429666666664, "is_disabled": 0, "type": "electric_scooter", "lon": -77.01990816666667, "bike_id": "988f2dad0f494233779bdf24b3242ff8", "fusion_lat": 0.0, "name": "988f2dad0f494233779bdf24b3242ff8", "is_reserved": 0, "rental_uris": {"android": "https://dc.lft.to/lastmile_qr_scan", "ios": "https://dc.lft.to/lastmile_qr_scan"}, "fusion_lon": 0.0}, {"lat": 38.908222333333335, "is_disabled": 0, "type": "electric_scooter", "lon": -76.94148283333334, "bike_id": "ff84319805275bbe164a216991f59d0a", "fusion_lat": 0.0, "name": "ff84319805275bbe164a216991f59d0a", "is_reserved": 0, "rental_uris": {"android": "https://dc.lft.to/lastmile_qr_scan", "ios": "https://dc.lft.to/lastmile_qr_scan"}, "fusion_lon": 0.0}, {"lat": 38.90422566666667, "is_disabled": 0, "type": "electric_scooter", "lon": -77.02499266666666, "bike_id": "87f1dd304d2b8f028ab1ad0a61596f53", "fusion_lat": 0.0, "name": "87f1dd304d2b8f028ab1ad0a61596f53", "is_reserved": 0, "rental_uris": {"android": "https://dc.lft.to/lastmile_qr_scan", "ios": "https://dc.lft.to/lastmile_qr_scan"}, "fusion_lon": 0.0}, {"lat": 38.924043833333336, "is_disabled": 0, "type": "electric_scooter", "lon": -77.02562966666666, "bike_id": "169bbef48e47a3d858360b32efa9ce14", "fusion_lat": 0.0, "name": "169bbef48e47a3d858360b32efa9ce14", "is_reserved": 0, "rental_uris": {"android": "https://dc.lft.to/lastmile_qr_scan", "ios": "https://dc.lft.to/lastmile_qr_scan"}, "fusion_lon": 0.0}, {"lat": 38.83987583333333, "is_disabled": 0, "type": "electric_bike", "lon": -77.005668, "bike_id": "689058dc1afc4e7171b19d1330873593", "fusion_lat": 0.0, "name": "689058dc1afc4e7171b19d1330873593", "is_reserved": 0, "rental_uris": {"android": "https://dc.lft.to/lastmile_qr_scan", "ios": "https://dc.lft.to/lastmile_qr_scan"}, "fusion_lon": 0.0}, {"lat": 38.909904833333336, "is_disabled": 0, "type": "electric_scooter", "lon": -76.98467166666667, "bike_id": "befb0950fe6051744363d889d62511c6", "fusion_lat": 0.0, "name": "befb0950fe6051744363d889d62511c6", "is_reserved": 0, "rental_uris": {"android": "https://dc.lft.to/lastmile_qr_scan", "ios": "https://dc.lft.to/lastmile_qr_scan"}, "fusion_lon": 0.0}, {"lat": 38.91129, "is_disabled": 0, "type": "electric_scooter", "lon": -77.03734433333334, "bike_id": "d7a0b0ac468481f28be80c31c95465a8", "fusion_lat": 0.0, "name": "d7a0b0ac468481f28be80c31c95465a8", "is_reserved": 0, "rental_uris": {"android": "https://dc.lft.to/lastmile_qr_scan", "ios": "https://dc.lft.to/lastmile_qr_scan"}, "fusion_lon": 0.0}, {"lat": 38.866042166666666, "is_disabled": 0, "type": "electric_bike", "lon": -76.932321, "bike_id": "504ae6fd9af74a296045976eea496ab2", "fusion_lat": 0.0, "name": "504ae6fd9af74a296045976eea496ab2", "is_reserved": 0, "rental_uris": {"android": "https://dc.lft.to/lastmile_qr_scan", "ios": "https://dc.lft.to/lastmile_qr_scan"}, "fusion_lon": 0.0}, {"lat": 38.9005745, "is_disabled": 0, "type": "electric_scooter", "lon": -77.0073785, "bike_id": "37fa942d9ad7d7c6f9f6ff387b33ee6d", "fusion_lat": 0.0, "name": "37fa942d9ad7d7c6f9f6ff387b33ee6d", "is_reserved": 0, "rental_uris": {"android": "https://dc.lft.to/lastmile_qr_scan", "ios": "https://dc.lft.to/lastmile_qr_scan"}, "fusion_lon": 0.0}, {"lat": 38.917673, "is_disabled": 0, "type": "electric_scooter", "lon": -77.004475, "bike_id": "6b7be31a24a47a946e2b85e118eec84b", "fusion_lat": 0.0, "name": "6b7be31a24a47a946e2b85e118eec84b", "is_reserved": 0, "rental_uris": {"android": "https://dc.lft.to/lastmile_qr_scan", "ios": "https://dc.lft.to/lastmile_qr_scan"}, "fusion_lon": 0.0}, {"lat": 38.89609766666667, "is_disabled": 0, "type": "electric_scooter", "lon": -77.04414066666666, "bike_id": "b85e38f27ba36ac4505d57b509b8169b", "fusion_lat": 0.0, "name": "b85e38f27ba36ac4505d57b509b8169b", "is_reserved": 0, "rental_uris": {"android": "https://dc.lft.to/lastmile_qr_scan", "ios": "https://dc.lft.to/lastmile_qr_scan"}, "fusion_lon": 0.0}, {"lat": 38.898999, "is_disabled": 0, "type": "electric_scooter", "lon": -77.00364533333334, "bike_id": "9c643df898e7bf532f9ce0c0b2b6f4be", "fusion_lat": 0.0, "name": "9c643df898e7bf532f9ce0c0b2b6f4be", "is_reserved": 0, "rental_uris": {"android": "https://dc.lft.to/lastmile_qr_scan", "ios": "https://dc.lft.to/lastmile_qr_scan"}, "fusion_lon": 0.0}, {"lat": 38.92171466666667, "is_disabled": 0, "type": "electric_scooter", "lon": -77.05136616666667, "bike_id": "f7d39f7a695bcd05d767350f5f1f2f22", "fusion_lat": 0.0, "name": "f7d39f7a695bcd05d767350f5f1f2f22", "is_reserved": 0, "rental_uris": {"android": "https://dc.lft.to/lastmile_qr_scan", "ios": "https://dc.lft.to/lastmile_qr_scan"}, "fusion_lon": 0.0}, {"lat": 38.86677566666667, "is_disabled": 0, "type": "electric_scooter", "lon": -76.9853995, "bike_id": "4b46502ad67add2b3f987701a846ea01", "fusion_lat": 0.0, "name": "4b46502ad67add2b3f987701a846ea01", "is_reserved": 0, "rental_uris": {"android": "https://dc.lft.to/lastmile_qr_scan", "ios": "https://dc.lft.to/lastmile_qr_scan"}, "fusion_lon": 0.0}, {"lat": 38.96218966666667, "is_disabled": 0, "type": "electric_bike", "lon": -77.02793516666667, "bike_id": "4eb8bb3c80d7ef880cdb28bcf1e5d48f", "fusion_lat": 0.0, "name": "4eb8bb3c80d7ef880cdb28bcf1e5d48f", "is_reserved": 0, "rental_uris": {"android": "https://dc.lft.to/lastmile_qr_scan", "ios": "https://dc.lft.to/lastmile_qr_scan"}, "fusion_lon": 0.0}, {"lat": 38.85224316666667, "is_disabled": 0, "type": "electric_bike", "lon": -77.12958183333333, "bike_id": "cbbd91f742d1d5e49d13db91085d6f47", "fusion_lat": 0.0, "name": "cbbd91f742d1d5e49d13db91085d6f47", "is_reserved": 0, "rental_uris": {"android": "https://dc.lft.to/lastmile_qr_scan", "ios": "https://dc.lft.to/lastmile_qr_scan"}, "fusion_lon": 0.0}, {"lat": 38.8852545, "is_disabled": 0, "type": "electric_scooter", "lon": -77.01516733333334, "bike_id": "587ec67b70476b9df0a470c54070eb9e", "fusion_lat": 0.0, "name": "587ec67b70476b9df0a470c54070eb9e", "is_reserved": 0, "rental_uris": {"android": "https://dc.lft.to/lastmile_qr_scan", "ios": "https://dc.lft.to/lastmile_qr_scan"}, "fusion_lon": 0.0}, {"lat": 38.9100085, "is_disabled": 0, "type": "electric_scooter", "lon": -77.04009716666667, "bike_id": "52574d6614605fd3fcd5c7175a2dcd5c", "fusion_lat": 0.0, "name": "52574d6614605fd3fcd5c7175a2dcd5c", "is_reserved": 0, "rental_uris": {"android": "https://dc.lft.to/lastmile_qr_scan", "ios": "https://dc.lft.to/lastmile_qr_scan"}, "fusion_lon": 0.0}, {"lat": 38.93459, "is_disabled": 0, "type": "electric_scooter", "lon": -77.03230866666667, "bike_id": "226e600747596f9efdb03593898eb33e", "fusion_lat": 0.0, "name": "226e600747596f9efdb03593898eb33e", "is_reserved": 0, "rental_uris": {"android": "https://dc.lft.to/lastmile_qr_scan", "ios": "https://dc.lft.to/lastmile_qr_scan"}, "fusion_lon": 0.0}, {"lat": 38.800656833333335, "is_disabled": 0, "type": "electric_bike", "lon": -77.07113866666667, "bike_id": "e8a3bc1eb024f357120a451f20e0754d", "fusion_lat": 0.0, "name": "e8a3bc1eb024f357120a451f20e0754d", "is_reserved": 0, "rental_uris": {"android": "https://dc.lft.to/lastmile_qr_scan", "ios": "https://dc.lft.to/lastmile_qr_scan"}, "fusion_lon": 0.0}, {"lat": 38.918216, "is_disabled": 0, "type": "electric_scooter", "lon": -76.99970183333333, "bike_id": "618bd9d0de3608e1df1153fdaaad424d", "fusion_lat": 0.0, "name": "618bd9d0de3608e1df1153fdaaad424d", "is_reserved": 0, "rental_uris": {"android": "https://dc.lft.to/lastmile_qr_scan", "ios": "https://dc.lft.to/lastmile_qr_scan"}, "fusion_lon": 0.0}, {"lat": 38.93230966666667, "is_disabled": 0, "type": "electric_scooter", "lon": -77.044153, "bike_id": "ba5cc6bc782b147b6647560d861fcf2b", "fusion_lat": 0.0, "name": "ba5cc6bc782b147b6647560d861fcf2b", "is_reserved": 0, "rental_uris": {"android": "https://dc.lft.to/lastmile_qr_scan", "ios": "https://dc.lft.to/lastmile_qr_scan"}, "fusion_lon": 0.0}, {"lat": 38.92024416666667, "is_disabled": 0, "type": "electric_scooter", "lon": -77.04191683333333, "bike_id": "bb4cd73a1dd8bb17ebaad02e7025e92f", "fusion_lat": 0.0, "name": "bb4cd73a1dd8bb17ebaad02e7025e92f", "is_reserved": 0, "rental_uris": {"android": "https://dc.lft.to/lastmile_qr_scan", "ios": "https://dc.lft.to/lastmile_qr_scan"}, "fusion_lon": 0.0}, {"lat": 38.949258, "is_disabled": 0, "type": "electric_bike", "lon": -77.00797683333333, "bike_id": "55b4c83f364a788b737ceed5744a7357", "fusion_lat": 0.0, "name": "55b4c83f364a788b737ceed5744a7357", "is_reserved": 0, "rental_uris": {"android": "https://dc.lft.to/lastmile_qr_scan", "ios": "https://dc.lft.to/lastmile_qr_scan"}, "fusion_lon": 0.0}, {"lat": 38.865095333333336, "is_disabled": 0, "type": "electric_scooter", "lon": -76.990074, "bike_id": "39f5121cb71bc43d4ab2e9abf8122c7e", "fusion_lat": 0.0, "name": "39f5121cb71bc43d4ab2e9abf8122c7e", "is_reserved": 0, "rental_uris": {"android": "https://dc.lft.to/lastmile_qr_scan", "ios": "https://dc.lft.to/lastmile_qr_scan"}, "fusion_lon": 0.0}, {"lat": 38.925112166666665, "is_disabled": 0, "type": "electric_scooter", "lon": -76.9822815, "bike_id": "32aeb073d8371fc94273d8bcc87140a0", "fusion_lat": 0.0, "name": "32aeb073d8371fc94273d8bcc87140a0", "is_reserved": 0, "rental_uris": {"android": "https://dc.lft.to/lastmile_qr_scan", "ios": "https://dc.lft.to/lastmile_qr_scan"}, "fusion_lon": 0.0}, {"lat": 38.9052055, "is_disabled": 0, "type": "electric_scooter", "lon": -77.0490575, "bike_id": "b7341fe9373d03b1ea0ab4bc01f610c5", "fusion_lat": 0.0, "name": "b7341fe9373d03b1ea0ab4bc01f610c5", "is_reserved": 0, "rental_uris": {"android": "https://dc.lft.to/lastmile_qr_scan", "ios": "https://dc.lft.to/lastmile_qr_scan"}, "fusion_lon": 0.0}, {"lat": 38.91661366666666, "is_disabled": 0, "type": "electric_scooter", "lon": -77.02396216666666, "bike_id": "6ae29d7d02022a515069632a21bb0ce5", "fusion_lat": 0.0, "name": "6ae29d7d02022a515069632a21bb0ce5", "is_reserved": 0, "rental_uris": {"android": "https://dc.lft.to/lastmile_qr_scan", "ios": "https://dc.lft.to/lastmile_qr_scan"}, "fusion_lon": 0.0}, {"lat": 38.9178325, "is_disabled": 0, "type": "electric_scooter", "lon": -77.02969183333333, "bike_id": "af45a1d411edcedf70e0c488555cd615", "fusion_lat": 0.0, "name": "af45a1d411edcedf70e0c488555cd615", "is_reserved": 0, "rental_uris": {"android": "https://dc.lft.to/lastmile_qr_scan", "ios": "https://dc.lft.to/lastmile_qr_scan"}, "fusion_lon": 0.0}, {"lat": 38.900230666666666, "is_disabled": 0, "type": "electric_scooter", "lon": -77.01201066666667, "bike_id": "6c0747063095e09ef0e594ad4212852e", "fusion_lat": 0.0, "name": "6c0747063095e09ef0e594ad4212852e", "is_reserved": 0, "rental_uris": {"android": "https://dc.lft.to/lastmile_qr_scan", "ios": "https://dc.lft.to/lastmile_qr_scan"}, "fusion_lon": 0.0}, {"lat": 38.8847735, "is_disabled": 0, "type": "electric_scooter", "lon": -77.0241895, "bike_id": "141a2da94fff307c9eebb78cb92ab09c", "fusion_lat": 0.0, "name": "141a2da94fff307c9eebb78cb92ab09c", "is_reserved": 0, "rental_uris": {"android": "https://dc.lft.to/lastmile_qr_scan", "ios": "https://dc.lft.to/lastmile_qr_scan"}, "fusion_lon": 0.0}, {"lat": 38.9005595, "is_disabled": 0, "type": "electric_scooter", "lon": -77.0507805, "bike_id": "a16038e39222d8e456130e74e24cdea4", "fusion_lat": 0.0, "name": "a16038e39222d8e456130e74e24cdea4", "is_reserved": 0, "rental_uris": {"android": "https://dc.lft.to/lastmile_qr_scan", "ios": "https://dc.lft.to/lastmile_qr_scan"}, "fusion_lon": 0.0}, {"lat": 38.86712216666667, "is_disabled": 0, "type": "electric_scooter", "lon": -76.987275, "bike_id": "950994629530f58915e3e218ad060474", "fusion_lat": 0.0, "name": "950994629530f58915e3e218ad060474", "is_reserved": 0, "rental_uris": {"android": "https://dc.lft.to/lastmile_qr_scan", "ios": "https://dc.lft.to/lastmile_qr_scan"}, "fusion_lon": 0.0}, {"lat": 38.9254455, "is_disabled": 0, "type": "electric_scooter", "lon": -77.0524785, "bike_id": "d1a85b98f56a7a93f9d8e6b49fc276c4", "fusion_lat": 0.0, "name": "d1a85b98f56a7a93f9d8e6b49fc276c4", "is_reserved": 0, "rental_uris": {"android": "https://dc.lft.to/lastmile_qr_scan", "ios": "https://dc.lft.to/lastmile_qr_scan"}, "fusion_lon": 0.0}, {"lat": 38.931498833333336, "is_disabled": 0, "type": "electric_scooter", "lon": -77.02147766666667, "bike_id": "fdac3de658131dbbe75d06004f74e4a3", "fusion_lat": 0.0, "name": "fdac3de658131dbbe75d06004f74e4a3", "is_reserved": 0, "rental_uris": {"android": "https://dc.lft.to/lastmile_qr_scan", "ios": "https://dc.lft.to/lastmile_qr_scan"}, "fusion_lon": 0.0}, {"lat": 38.90058233333333, "is_disabled": 0, "type": "electric_scooter", "lon": -77.02579783333333, "bike_id": "2416d26566e23459fa3bf62daf59763d", "fusion_lat": 0.0, "name": "2416d26566e23459fa3bf62daf59763d", "is_reserved": 0, "rental_uris": {"android": "https://dc.lft.to/lastmile_qr_scan", "ios": "https://dc.lft.to/lastmile_qr_scan"}, "fusion_lon": 0.0}, {"lat": 38.90668183333333, "is_disabled": 0, "type": "electric_scooter", "lon": -77.03834083333334, "bike_id": "d5a3946a2d3c5e682f6d3e6c23b6a54e", "fusion_lat": 0.0, "name": "d5a3946a2d3c5e682f6d3e6c23b6a54e", "is_reserved": 0, "rental_uris": {"android": "https://dc.lft.to/lastmile_qr_scan", "ios": "https://dc.lft.to/lastmile_qr_scan"}, "fusion_lon": 0.0}, {"lat": 38.92976483333333, "is_disabled": 0, "type": "electric_scooter", "lon": -77.02788933333333, "bike_id": "3b192444fe182dbbe1609ea071950dd0", "fusion_lat": 0.0, "name": "3b192444fe182dbbe1609ea071950dd0", "is_reserved": 0, "rental_uris": {"android": "https://dc.lft.to/lastmile_qr_scan", "ios": "https://dc.lft.to/lastmile_qr_scan"}, "fusion_lon": 0.0}, {"lat": 38.93967633333333, "is_disabled": 0, "type": "electric_scooter", "lon": -77.02753383333334, "bike_id": "43e1ba624b954f87b9464291969c9589", "fusion_lat": 0.0, "name": "43e1ba624b954f87b9464291969c9589", "is_reserved": 0, "rental_uris": {"android": "https://dc.lft.to/lastmile_qr_scan", "ios": "https://dc.lft.to/lastmile_qr_scan"}, "fusion_lon": 0.0}, {"lat": 38.884973, "is_disabled": 0, "type": "electric_scooter", "lon": -77.007252, "bike_id": "792d855966c559841291537b1c9f9f58", "fusion_lat": 0.0, "name": "792d855966c559841291537b1c9f9f58", "is_reserved": 0, "rental_uris": {"android": "https://dc.lft.to/lastmile_qr_scan", "ios": "https://dc.lft.to/lastmile_qr_scan"}, "fusion_lon": 0.0}, {"lat": 38.92762233333333, "is_disabled": 0, "type": "electric_scooter", "lon": -77.00588783333333, "bike_id": "3852be7b0616bc5baf0399677e9347a8", "fusion_lat": 0.0, "name": "3852be7b0616bc5baf0399677e9347a8", "is_reserved": 0, "rental_uris": {"android": "https://dc.lft.to/lastmile_qr_scan", "ios": "https://dc.lft.to/lastmile_qr_scan"}, "fusion_lon": 0.0}, {"lat": 38.931059166666664, "is_disabled": 0, "type": "electric_scooter", "lon": -77.02663183333334, "bike_id": "e99515940a69aab50cf070a0c2f151e3", "fusion_lat": 0.0, "name": "e99515940a69aab50cf070a0c2f151e3", "is_reserved": 0, "rental_uris": {"android": "https://dc.lft.to/lastmile_qr_scan", "ios": "https://dc.lft.to/lastmile_qr_scan"}, "fusion_lon": 0.0}, {"lat": 38.90013966666667, "is_disabled": 0, "type": "electric_scooter", "lon": -76.92227716666666, "bike_id": "b5d847f0c855fa5af405ce41c63e0fbf", "fusion_lat": 0.0, "name": "b5d847f0c855fa5af405ce41c63e0fbf", "is_reserved": 0, "rental_uris": {"android": "https://dc.lft.to/lastmile_qr_scan", "ios": "https://dc.lft.to/lastmile_qr_scan"}, "fusion_lon": 0.0}, {"lat": 38.915753333333335, "is_disabled": 0, "type": "electric_scooter", "lon": -77.02635683333334, "bike_id": "6b5fed9746f1c30941e83d65717d7b42", "fusion_lat": 0.0, "name": "6b5fed9746f1c30941e83d65717d7b42", "is_reserved": 0, "rental_uris": {"android": "https://dc.lft.to/lastmile_qr_scan", "ios": "https://dc.lft.to/lastmile_qr_scan"}, "fusion_lon": 0.0}, {"lat": 38.93342233333333, "is_disabled": 0, "type": "electric_scooter", "lon": -76.99304233333334, "bike_id": "4f1cbeb4e69cb51f4f0d0e50a274939f", "fusion_lat": 0.0, "name": "4f1cbeb4e69cb51f4f0d0e50a274939f", "is_reserved": 0, "rental_uris": {"android": "https://dc.lft.to/lastmile_qr_scan", "ios": "https://dc.lft.to/lastmile_qr_scan"}, "fusion_lon": 0.0}, {"lat": 38.92967016666667, "is_disabled": 0, "type": "electric_scooter", "lon": -77.02793566666666, "bike_id": "6e132d9114f0bba6cfbfcf52298a7d98", "fusion_lat": 0.0, "name": "6e132d9114f0bba6cfbfcf52298a7d98", "is_reserved": 0, "rental_uris": {"android": "https://dc.lft.to/lastmile_qr_scan", "ios": "https://dc.lft.to/lastmile_qr_scan"}, "fusion_lon": 0.0}, {"lat": 38.865118833333334, "is_disabled": 0, "type": "electric_scooter", "lon": -76.99007716666667, "bike_id": "25ee146e07cecadcd8a14720fca6bbb3", "fusion_lat": 0.0, "name": "25ee146e07cecadcd8a14720fca6bbb3", "is_reserved": 0, "rental_uris": {"android": "https://dc.lft.to/lastmile_qr_scan", "ios": "https://dc.lft.to/lastmile_qr_scan"}, "fusion_lon": 0.0}, {"lat": 38.913383833333334, "is_disabled": 0, "type": "electric_scooter", "lon": -77.03183833333334, "bike_id": "02773be297abd3b33364c2557f8ec7db", "fusion_lat": 0.0, "name": "02773be297abd3b33364c2557f8ec7db", "is_reserved": 0, "rental_uris": {"android": "https://dc.lft.to/lastmile_qr_scan", "ios": "https://dc.lft.to/lastmile_qr_scan"}, "fusion_lon": 0.0}, {"lat": 38.908979, "is_disabled": 0, "type": "electric_scooter", "lon": -77.04440583333333, "bike_id": "ad6fcf7826a5cad28b5c8bc3d59f9d7b", "fusion_lat": 0.0, "name": "ad6fcf7826a5cad28b5c8bc3d59f9d7b", "is_reserved": 0, "rental_uris": {"android": "https://dc.lft.to/lastmile_qr_scan", "ios": "https://dc.lft.to/lastmile_qr_scan"}, "fusion_lon": 0.0}, {"lat": 38.916901333333335, "is_disabled": 0, "type": "electric_scooter", "lon": -77.03759866666667, "bike_id": "0f55f43438111becb7c04dcf89c3b13d", "fusion_lat": 0.0, "name": "0f55f43438111becb7c04dcf89c3b13d", "is_reserved": 0, "rental_uris": {"android": "https://dc.lft.to/lastmile_qr_scan", "ios": "https://dc.lft.to/lastmile_qr_scan"}, "fusion_lon": 0.0}, {"lat": 38.896745, "is_disabled": 0, "type": "electric_scooter", "lon": -77.00513733333334, "bike_id": "568bfb4c3347fd23b01c1792ff88cee8", "fusion_lat": 0.0, "name": "568bfb4c3347fd23b01c1792ff88cee8", "is_reserved": 0, "rental_uris": {"android": "https://dc.lft.to/lastmile_qr_scan", "ios": "https://dc.lft.to/lastmile_qr_scan"}, "fusion_lon": 0.0}, {"lat": 38.9040725, "is_disabled": 0, "type": "electric_scooter", "lon": -76.9928635, "bike_id": "f6d0a8112025d5515907a74f85a45645", "fusion_lat": 0.0, "name": "f6d0a8112025d5515907a74f85a45645", "is_reserved": 0, "rental_uris": {"android": "https://dc.lft.to/lastmile_qr_scan", "ios": "https://dc.lft.to/lastmile_qr_scan"}, "fusion_lon": 0.0}, {"lat": 38.87653866666667, "is_disabled": 0, "type": "electric_scooter", "lon": -77.00558666666667, "bike_id": "9c382d0c9ab98ec4a28d7aeaf2892060", "fusion_lat": 0.0, "name": "9c382d0c9ab98ec4a28d7aeaf2892060", "is_reserved": 0, "rental_uris": {"android": "https://dc.lft.to/lastmile_qr_scan", "ios": "https://dc.lft.to/lastmile_qr_scan"}, "fusion_lon": 0.0}, {"lat": 38.91686583333333, "is_disabled": 0, "type": "electric_scooter", "lon": -77.026945, "bike_id": "fc2b35ccb9991a932edd68d6796871ce", "fusion_lat": 0.0, "name": "fc2b35ccb9991a932edd68d6796871ce", "is_reserved": 0, "rental_uris": {"android": "https://dc.lft.to/lastmile_qr_scan", "ios": "https://dc.lft.to/lastmile_qr_scan"}, "fusion_lon": 0.0}, {"lat": 38.948219333333334, "is_disabled": 0, "type": "electric_scooter", "lon": -76.99899983333333, "bike_id": "d5df3836460a6278ff9b86e03d6ef67b", "fusion_lat": 0.0, "name": "d5df3836460a6278ff9b86e03d6ef67b", "is_reserved": 0, "rental_uris": {"android": "https://dc.lft.to/lastmile_qr_scan", "ios": "https://dc.lft.to/lastmile_qr_scan"}, "fusion_lon": 0.0}, {"lat": 38.91198083333333, "is_disabled": 0, "type": "electric_scooter", "lon": -77.00456583333333, "bike_id": "6331f3f3fa786e8df7be7d68d0f5ff0a", "fusion_lat": 0.0, "name": "6331f3f3fa786e8df7be7d68d0f5ff0a", "is_reserved": 0, "rental_uris": {"android": "https://dc.lft.to/lastmile_qr_scan", "ios": "https://dc.lft.to/lastmile_qr_scan"}, "fusion_lon": 0.0}, {"lat": 38.89738833333333, "is_disabled": 0, "type": "electric_scooter", "lon": -76.94714733333333, "bike_id": "35b0312922c1faeb0b3a341669d5aeb1", "fusion_lat": 0.0, "name": "35b0312922c1faeb0b3a341669d5aeb1", "is_reserved": 0, "rental_uris": {"android": "https://dc.lft.to/lastmile_qr_scan", "ios": "https://dc.lft.to/lastmile_qr_scan"}, "fusion_lon": 0.0}, {"lat": 38.91826533333333, "is_disabled": 0, "type": "electric_scooter", "lon": -77.0138645, "bike_id": "6ed63b30005c84d49489dac1396b1a65", "fusion_lat": 0.0, "name": "6ed63b30005c84d49489dac1396b1a65", "is_reserved": 0, "rental_uris": {"android": "https://dc.lft.to/lastmile_qr_scan", "ios": "https://dc.lft.to/lastmile_qr_scan"}, "fusion_lon": 0.0}, {"lat": 38.859812, "is_disabled": 0, "type": "electric_bike", "lon": -77.05674516666667, "bike_id": "b984aa181ac30684154a4c9f1288b47e", "fusion_lat": 0.0, "name": "b984aa181ac30684154a4c9f1288b47e", "is_reserved": 0, "rental_uris": {"android": "https://dc.lft.to/lastmile_qr_scan", "ios": "https://dc.lft.to/lastmile_qr_scan"}, "fusion_lon": 0.0}, {"lat": 38.94918166666667, "is_disabled": 0, "type": "electric_scooter", "lon": -77.00863166666667, "bike_id": "7be86bd34cbafa0de6dcbc12ccee223b", "fusion_lat": 0.0, "name": "7be86bd34cbafa0de6dcbc12ccee223b", "is_reserved": 0, "rental_uris": {"android": "https://dc.lft.to/lastmile_qr_scan", "ios": "https://dc.lft.to/lastmile_qr_scan"}, "fusion_lon": 0.0}, {"lat": 38.906384, "is_disabled": 0, "type": "electric_scooter", "lon": -77.03377233333333, "bike_id": "1c36f630a5a40b299e081ec7a4a924e7", "fusion_lat": 0.0, "name": "1c36f630a5a40b299e081ec7a4a924e7", "is_reserved": 0, "rental_uris": {"android": "https://dc.lft.to/lastmile_qr_scan", "ios": "https://dc.lft.to/lastmile_qr_scan"}, "fusion_lon": 0.0}, {"lat": 38.91121483333333, "is_disabled": 0, "type": "electric_scooter", "lon": -77.03834116666667, "bike_id": "211e6a2b5b8fa3a1449ec4f5c0775661", "fusion_lat": 0.0, "name": "211e6a2b5b8fa3a1449ec4f5c0775661", "is_reserved": 0, "rental_uris": {"android": "https://dc.lft.to/lastmile_qr_scan", "ios": "https://dc.lft.to/lastmile_qr_scan"}, "fusion_lon": 0.0}, {"lat": 38.984669, "is_disabled": 0, "type": "electric_bike", "lon": -76.9947465, "bike_id": "e839fbf58502203e2fc347fe16dcb78e", "fusion_lat": 0.0, "name": "e839fbf58502203e2fc347fe16dcb78e", "is_reserved": 0, "rental_uris": {"android": "https://dc.lft.to/lastmile_qr_scan", "ios": "https://dc.lft.to/lastmile_qr_scan"}, "fusion_lon": 0.0}, {"lat": 38.93103583333333, "is_disabled": 0, "type": "electric_scooter", "lon": -77.02495833333333, "bike_id": "2d51a7a631d568456f338bcd253322d4", "fusion_lat": 0.0, "name": "2d51a7a631d568456f338bcd253322d4", "is_reserved": 0, "rental_uris": {"android": "https://dc.lft.to/lastmile_qr_scan", "ios": "https://dc.lft.to/lastmile_qr_scan"}, "fusion_lon": 0.0}, {"lat": 38.9173465, "is_disabled": 0, "type": "electric_scooter", "lon": -77.045875, "bike_id": "b41d41ae3214e257c994f78a35dc0776", "fusion_lat": 0.0, "name": "b41d41ae3214e257c994f78a35dc0776", "is_reserved": 0, "rental_uris": {"android": "https://dc.lft.to/lastmile_qr_scan", "ios": "https://dc.lft.to/lastmile_qr_scan"}, "fusion_lon": 0.0}, {"lat": 38.8736275, "is_disabled": 0, "type": "electric_bike", "lon": -77.106591, "bike_id": "0142ca9becaacf3f9c6b4619fe993c52", "fusion_lat": 0.0, "name": "0142ca9becaacf3f9c6b4619fe993c52", "is_reserved": 0, "rental_uris": {"android": "https://dc.lft.to/lastmile_qr_scan", "ios": "https://dc.lft.to/lastmile_qr_scan"}, "fusion_lon": 0.0}, {"lat": 38.91954366666667, "is_disabled": 0, "type": "electric_scooter", "lon": -76.98079833333334, "bike_id": "707ef5bd83df8d76beaf98f26ec57ade", "fusion_lat": 0.0, "name": "707ef5bd83df8d76beaf98f26ec57ade", "is_reserved": 0, "rental_uris": {"android": "https://dc.lft.to/lastmile_qr_scan", "ios": "https://dc.lft.to/lastmile_qr_scan"}, "fusion_lon": 0.0}, {"lat": 38.900466, "is_disabled": 0, "type": "electric_scooter", "lon": -77.0257485, "bike_id": "3f125c24a25cd9e125b3b018528f5aef", "fusion_lat": 0.0, "name": "3f125c24a25cd9e125b3b018528f5aef", "is_reserved": 0, "rental_uris": {"android": "https://dc.lft.to/lastmile_qr_scan", "ios": "https://dc.lft.to/lastmile_qr_scan"}, "fusion_lon": 0.0}, {"lat": 38.909772833333335, "is_disabled": 0, "type": "electric_scooter", "lon": -77.03437366666667, "bike_id": "ab75412aa39c7d6f67ffd6ede2706d92", "fusion_lat": 0.0, "name": "ab75412aa39c7d6f67ffd6ede2706d92", "is_reserved": 0, "rental_uris": {"android": "https://dc.lft.to/lastmile_qr_scan", "ios": "https://dc.lft.to/lastmile_qr_scan"}, "fusion_lon": 0.0}, {"lat": 39.052088833333336, "is_disabled": 0, "type": "electric_bike", "lon": -77.10913466666666, "bike_id": "3ca66f1b8640883925b7bfcf0e47f8e2", "fusion_lat": 0.0, "name": "3ca66f1b8640883925b7bfcf0e47f8e2", "is_reserved": 0, "rental_uris": {"android": "https://dc.lft.to/lastmile_qr_scan", "ios": "https://dc.lft.to/lastmile_qr_scan"}, "fusion_lon": 0.0}, {"lat": 38.907029, "is_disabled": 0, "type": "electric_scooter", "lon": -77.04219633333334, "bike_id": "80402ad743ced64379dfa218f8c80ec3", "fusion_lat": 0.0, "name": "80402ad743ced64379dfa218f8c80ec3", "is_reserved": 0, "rental_uris": {"android": "https://dc.lft.to/lastmile_qr_scan", "ios": "https://dc.lft.to/lastmile_qr_scan"}, "fusion_lon": 0.0}, {"lat": 38.916952333333334, "is_disabled": 0, "type": "electric_scooter", "lon": -77.041422, "bike_id": "22065e028620aa625d8f57e59497dbe7", "fusion_lat": 0.0, "name": "22065e028620aa625d8f57e59497dbe7", "is_reserved": 0, "rental_uris": {"android": "https://dc.lft.to/lastmile_qr_scan", "ios": "https://dc.lft.to/lastmile_qr_scan"}, "fusion_lon": 0.0}, {"lat": 38.8997665, "is_disabled": 0, "type": "electric_scooter", "lon": -76.9265565, "bike_id": "335393e1d7aa4e74e62d1bf7b20eaac4", "fusion_lat": 0.0, "name": "335393e1d7aa4e74e62d1bf7b20eaac4", "is_reserved": 0, "rental_uris": {"android": "https://dc.lft.to/lastmile_qr_scan", "ios": "https://dc.lft.to/lastmile_qr_scan"}, "fusion_lon": 0.0}, {"lat": 38.89232616666666, "is_disabled": 0, "type": "electric_scooter", "lon": -77.04999883333333, "bike_id": "58ed79212b9c1206c349043d4680c501", "fusion_lat": 0.0, "name": "58ed79212b9c1206c349043d4680c501", "is_reserved": 0, "rental_uris": {"android": "https://dc.lft.to/lastmile_qr_scan", "ios": "https://dc.lft.to/lastmile_qr_scan"}, "fusion_lon": 0.0}, {"lat": 38.905094, "is_disabled": 0, "type": "electric_scooter", "lon": -77.0294675, "bike_id": "89d7fb8ee8cc1c2f6f93a696af11801b", "fusion_lat": 0.0, "name": "89d7fb8ee8cc1c2f6f93a696af11801b", "is_reserved": 0, "rental_uris": {"android": "https://dc.lft.to/lastmile_qr_scan", "ios": "https://dc.lft.to/lastmile_qr_scan"}, "fusion_lon": 0.0}, {"lat": 38.9233985, "is_disabled": 0, "type": "electric_scooter", "lon": -77.0269725, "bike_id": "2a9b033599a25e8c3978fd12a2f6b5e5", "fusion_lat": 0.0, "name": "2a9b033599a25e8c3978fd12a2f6b5e5", "is_reserved": 0, "rental_uris": {"android": "https://dc.lft.to/lastmile_qr_scan", "ios": "https://dc.lft.to/lastmile_qr_scan"}, "fusion_lon": 0.0}, {"lat": 38.883655, "is_disabled": 0, "type": "electric_scooter", "lon": -76.9415645, "bike_id": "a61d3510f2a1d69df04c78897c763acd", "fusion_lat": 0.0, "name": "a61d3510f2a1d69df04c78897c763acd", "is_reserved": 0, "rental_uris": {"android": "https://dc.lft.to/lastmile_qr_scan", "ios": "https://dc.lft.to/lastmile_qr_scan"}, "fusion_lon": 0.0}, {"lat": 38.905599, "is_disabled": 0, "type": "electric_scooter", "lon": -77.00309316666667, "bike_id": "075afa0c85b2cb5a2480ed0562917b4a", "fusion_lat": 0.0, "name": "075afa0c85b2cb5a2480ed0562917b4a", "is_reserved": 0, "rental_uris": {"android": "https://dc.lft.to/lastmile_qr_scan", "ios": "https://dc.lft.to/lastmile_qr_scan"}, "fusion_lon": 0.0}, {"lat": 38.917712333333334, "is_disabled": 0, "type": "electric_scooter", "lon": -76.976259, "bike_id": "c18be16efb8cadeb5329345c1afd7b35", "fusion_lat": 0.0, "name": "c18be16efb8cadeb5329345c1afd7b35", "is_reserved": 0, "rental_uris": {"android": "https://dc.lft.to/lastmile_qr_scan", "ios": "https://dc.lft.to/lastmile_qr_scan"}, "fusion_lon": 0.0}, {"lat": 38.932540333333336, "is_disabled": 0, "type": "electric_scooter", "lon": -77.032742, "bike_id": "62ff8b257ccaee1bd5a1a1923fa320e0", "fusion_lat": 0.0, "name": "62ff8b257ccaee1bd5a1a1923fa320e0", "is_reserved": 0, "rental_uris": {"android": "https://dc.lft.to/lastmile_qr_scan", "ios": "https://dc.lft.to/lastmile_qr_scan"}, "fusion_lon": 0.0}, {"lat": 38.903016666666666, "is_disabled": 0, "type": "electric_scooter", "lon": -77.02433016666667, "bike_id": "65bb4f2c6b65b9c337c73a41436cf562", "fusion_lat": 0.0, "name": "65bb4f2c6b65b9c337c73a41436cf562", "is_reserved": 0, "rental_uris": {"android": "https://dc.lft.to/lastmile_qr_scan", "ios": "https://dc.lft.to/lastmile_qr_scan"}, "fusion_lon": 0.0}, {"lat": 38.9169055, "is_disabled": 0, "type": "electric_scooter", "lon": -77.00201, "bike_id": "fa045c9bbcdebeb79dbd1d50d0307ee4", "fusion_lat": 0.0, "name": "fa045c9bbcdebeb79dbd1d50d0307ee4", "is_reserved": 0, "rental_uris": {"android": "https://dc.lft.to/lastmile_qr_scan", "ios": "https://dc.lft.to/lastmile_qr_scan"}, "fusion_lon": 0.0}, {"lat": 38.9412905, "is_disabled": 0, "type": "electric_scooter", "lon": -77.00074366666666, "bike_id": "396f9a0dbc690e5cb6634f3b77daf927", "fusion_lat": 0.0, "name": "396f9a0dbc690e5cb6634f3b77daf927", "is_reserved": 0, "rental_uris": {"android": "https://dc.lft.to/lastmile_qr_scan", "ios": "https://dc.lft.to/lastmile_qr_scan"}, "fusion_lon": 0.0}, {"lat": 38.90622533333333, "is_disabled": 0, "type": "electric_scooter", "lon": -77.06289616666666, "bike_id": "0c1c239f0033fbb53fa88f66c40a938a", "fusion_lat": 0.0, "name": "0c1c239f0033fbb53fa88f66c40a938a", "is_reserved": 0, "rental_uris": {"android": "https://dc.lft.to/lastmile_qr_scan", "ios": "https://dc.lft.to/lastmile_qr_scan"}, "fusion_lon": 0.0}, {"lat": 38.9883195, "is_disabled": 0, "type": "electric_bike", "lon": -76.996515, "bike_id": "fd2049ba3051e70b810e32f3dfbe8750", "fusion_lat": 0.0, "name": "fd2049ba3051e70b810e32f3dfbe8750", "is_reserved": 0, "rental_uris": {"android": "https://dc.lft.to/lastmile_qr_scan", "ios": "https://dc.lft.to/lastmile_qr_scan"}, "fusion_lon": 0.0}, {"lat": 38.91508833333333, "is_disabled": 0, "type": "electric_scooter", "lon": -77.02948, "bike_id": "a8ff278beb3948845ac9f89bc532ebdd", "fusion_lat": 0.0, "name": "a8ff278beb3948845ac9f89bc532ebdd", "is_reserved": 0, "rental_uris": {"android": "https://dc.lft.to/lastmile_qr_scan", "ios": "https://dc.lft.to/lastmile_qr_scan"}, "fusion_lon": 0.0}, {"lat": 38.95891483333333, "is_disabled": 0, "type": "electric_bike", "lon": -76.92476566666667, "bike_id": "c15bdf821dd038b44f76b661a7bcf321", "fusion_lat": 0.0, "name": "c15bdf821dd038b44f76b661a7bcf321", "is_reserved": 0, "rental_uris": {"android": "https://dc.lft.to/lastmile_qr_scan", "ios": "https://dc.lft.to/lastmile_qr_scan"}, "fusion_lon": 0.0}, {"lat": 38.926800666666665, "is_disabled": 0, "type": "electric_scooter", "lon": -77.028605, "bike_id": "7400c33ce1821518c42cdec89a0d8cfa", "fusion_lat": 0.0, "name": "7400c33ce1821518c42cdec89a0d8cfa", "is_reserved": 0, "rental_uris": {"android": "https://dc.lft.to/lastmile_qr_scan", "ios": "https://dc.lft.to/lastmile_qr_scan"}, "fusion_lon": 0.0}, {"lat": 38.923402333333335, "is_disabled": 0, "type": "electric_scooter", "lon": -77.03578033333334, "bike_id": "5f0e86c9364c680d66db6b57b2fab579", "fusion_lat": 0.0, "name": "5f0e86c9364c680d66db6b57b2fab579", "is_reserved": 0, "rental_uris": {"android": "https://dc.lft.to/lastmile_qr_scan", "ios": "https://dc.lft.to/lastmile_qr_scan"}, "fusion_lon": 0.0}, {"lat": 38.970949833333336, "is_disabled": 0, "type": "electric_bike", "lon": -77.0696365, "bike_id": "9ef617591c475a17c02839ac3dc87ea2", "fusion_lat": 0.0, "name": "9ef617591c475a17c02839ac3dc87ea2", "is_reserved": 0, "rental_uris": {"android": "https://dc.lft.to/lastmile_qr_scan", "ios": "https://dc.lft.to/lastmile_qr_scan"}, "fusion_lon": 0.0}, {"lat": 38.91346333333333, "is_disabled": 0, "type": "electric_scooter", "lon": -76.97371466666667, "bike_id": "e6c037becd30a6176a6e87c4e89831db", "fusion_lat": 0.0, "name": "e6c037becd30a6176a6e87c4e89831db", "is_reserved": 0, "rental_uris": {"android": "https://dc.lft.to/lastmile_qr_scan", "ios": "https://dc.lft.to/lastmile_qr_scan"}, "fusion_lon": 0.0}, {"lat": 38.85216166666667, "is_disabled": 0, "type": "electric_bike", "lon": -77.10131366666667, "bike_id": "b2bdf107d14e8f1ad2853b097d893a59", "fusion_lat": 0.0, "name": "b2bdf107d14e8f1ad2853b097d893a59", "is_reserved": 0, "rental_uris": {"android": "https://dc.lft.to/lastmile_qr_scan", "ios": "https://dc.lft.to/lastmile_qr_scan"}, "fusion_lon": 0.0}, {"lat": 38.8951805, "is_disabled": 0, "type": "electric_scooter", "lon": -76.94897083333333, "bike_id": "3306b2600b5227d7b9ac4bfa0571767c", "fusion_lat": 0.0, "name": "3306b2600b5227d7b9ac4bfa0571767c", "is_reserved": 0, "rental_uris": {"android": "https://dc.lft.to/lastmile_qr_scan", "ios": "https://dc.lft.to/lastmile_qr_scan"}, "fusion_lon": 0.0}, {"lat": 38.9207685, "is_disabled": 0, "type": "electric_scooter", "lon": -77.04196716666667, "bike_id": "e8259cdae7f9b23efff98f4ca1624032", "fusion_lat": 0.0, "name": "e8259cdae7f9b23efff98f4ca1624032", "is_reserved": 0, "rental_uris": {"android": "https://dc.lft.to/lastmile_qr_scan", "ios": "https://dc.lft.to/lastmile_qr_scan"}, "fusion_lon": 0.0}, {"lat": 38.87945116666667, "is_disabled": 0, "type": "electric_scooter", "lon": -77.00403916666667, "bike_id": "cb3df2501a0e1561b2216feb0b91ca54", "fusion_lat": 0.0, "name": "cb3df2501a0e1561b2216feb0b91ca54", "is_reserved": 0, "rental_uris": {"android": "https://dc.lft.to/lastmile_qr_scan", "ios": "https://dc.lft.to/lastmile_qr_scan"}, "fusion_lon": 0.0}, {"lat": 38.92954, "is_disabled": 0, "type": "electric_scooter", "lon": -76.99088933333333, "bike_id": "2439a8bd9058c4a92509f855c7d67bd5", "fusion_lat": 0.0, "name": "2439a8bd9058c4a92509f855c7d67bd5", "is_reserved": 0, "rental_uris": {"android": "https://dc.lft.to/lastmile_qr_scan", "ios": "https://dc.lft.to/lastmile_qr_scan"}, "fusion_lon": 0.0}, {"lat": 38.892928, "is_disabled": 0, "type": "electric_scooter", "lon": -76.95849633333333, "bike_id": "4af0b1a5251fda3669ba4445b675b07c", "fusion_lat": 0.0, "name": "4af0b1a5251fda3669ba4445b675b07c", "is_reserved": 0, "rental_uris": {"android": "https://dc.lft.to/lastmile_qr_scan", "ios": "https://dc.lft.to/lastmile_qr_scan"}, "fusion_lon": 0.0}, {"lat": 38.90001183333333, "is_disabled": 0, "type": "electric_scooter", "lon": -76.99954516666666, "bike_id": "de6215ca124ad75f23a0c07085eece5b", "fusion_lat": 0.0, "name": "de6215ca124ad75f23a0c07085eece5b", "is_reserved": 0, "rental_uris": {"android": "https://dc.lft.to/lastmile_qr_scan", "ios": "https://dc.lft.to/lastmile_qr_scan"}, "fusion_lon": 0.0}, {"lat": 38.913247, "is_disabled": 0, "type": "electric_scooter", "lon": -77.03131, "bike_id": "9d848142b530ffdf6a7698209a5e3fb4", "fusion_lat": 0.0, "name": "9d848142b530ffdf6a7698209a5e3fb4", "is_reserved": 0, "rental_uris": {"android": "https://dc.lft.to/lastmile_qr_scan", "ios": "https://dc.lft.to/lastmile_qr_scan"}, "fusion_lon": 0.0}, {"lat": 38.89273933333333, "is_disabled": 0, "type": "electric_scooter", "lon": -77.02025716666667, "bike_id": "cd400dd3e8c0c004eb03bce253730802", "fusion_lat": 0.0, "name": "cd400dd3e8c0c004eb03bce253730802", "is_reserved": 0, "rental_uris": {"android": "https://dc.lft.to/lastmile_qr_scan", "ios": "https://dc.lft.to/lastmile_qr_scan"}, "fusion_lon": 0.0}, {"lat": 38.9246105, "is_disabled": 0, "type": "electric_scooter", "lon": -77.0804465, "bike_id": "e8ad4bb37502caf3609f5517a6cd2e2c", "fusion_lat": 0.0, "name": "e8ad4bb37502caf3609f5517a6cd2e2c", "is_reserved": 0, "rental_uris": {"android": "https://dc.lft.to/lastmile_qr_scan", "ios": "https://dc.lft.to/lastmile_qr_scan"}, "fusion_lon": 0.0}, {"lat": 38.8706645, "is_disabled": 0, "type": "electric_scooter", "lon": -77.008401, "bike_id": "dd5d782c44c89e224741fdabd0f7cdd2", "fusion_lat": 0.0, "name": "dd5d782c44c89e224741fdabd0f7cdd2", "is_reserved": 0, "rental_uris": {"android": "https://dc.lft.to/lastmile_qr_scan", "ios": "https://dc.lft.to/lastmile_qr_scan"}, "fusion_lon": 0.0}, {"lat": 38.93447233333333, "is_disabled": 0, "type": "electric_scooter", "lon": -77.03461783333333, "bike_id": "903bf7013c7ab1e8ce6af3dc8901ce61", "fusion_lat": 0.0, "name": "903bf7013c7ab1e8ce6af3dc8901ce61", "is_reserved": 0, "rental_uris": {"android": "https://dc.lft.to/lastmile_qr_scan", "ios": "https://dc.lft.to/lastmile_qr_scan"}, "fusion_lon": 0.0}, {"lat": 38.9171185, "is_disabled": 0, "type": "electric_scooter", "lon": -77.00113416666667, "bike_id": "16dcba7fe7cc2dfa0a50f7b61e5c99ab", "fusion_lat": 0.0, "name": "16dcba7fe7cc2dfa0a50f7b61e5c99ab", "is_reserved": 0, "rental_uris": {"android": "https://dc.lft.to/lastmile_qr_scan", "ios": "https://dc.lft.to/lastmile_qr_scan"}, "fusion_lon": 0.0}, {"lat": 38.866798333333335, "is_disabled": 0, "type": "electric_scooter", "lon": -76.98540066666666, "bike_id": "95b6fdbd41681b30cd02a6bb65c61920", "fusion_lat": 0.0, "name": "95b6fdbd41681b30cd02a6bb65c61920", "is_reserved": 0, "rental_uris": {"android": "https://dc.lft.to/lastmile_qr_scan", "ios": "https://dc.lft.to/lastmile_qr_scan"}, "fusion_lon": 0.0}, {"lat": 38.93109116666667, "is_disabled": 0, "type": "electric_scooter", "lon": -77.02415616666667, "bike_id": "d6138b2293e0624567f0f6e37c9eae21", "fusion_lat": 0.0, "name": "d6138b2293e0624567f0f6e37c9eae21", "is_reserved": 0, "rental_uris": {"android": "https://dc.lft.to/lastmile_qr_scan", "ios": "https://dc.lft.to/lastmile_qr_scan"}, "fusion_lon": 0.0}, {"lat": 38.90896816666667, "is_disabled": 0, "type": "electric_scooter", "lon": -77.034559, "bike_id": "87aab512845a53e80e6e42fb34ac1111", "fusion_lat": 0.0, "name": "87aab512845a53e80e6e42fb34ac1111", "is_reserved": 0, "rental_uris": {"android": "https://dc.lft.to/lastmile_qr_scan", "ios": "https://dc.lft.to/lastmile_qr_scan"}, "fusion_lon": 0.0}, {"lat": 38.86215216666667, "is_disabled": 0, "type": "electric_bike", "lon": -76.99777283333333, "bike_id": "9e458e22faf7cdf65b9029f6303d5ba9", "fusion_lat": 0.0, "name": "9e458e22faf7cdf65b9029f6303d5ba9", "is_reserved": 0, "rental_uris": {"android": "https://dc.lft.to/lastmile_qr_scan", "ios": "https://dc.lft.to/lastmile_qr_scan"}, "fusion_lon": 0.0}, {"lat": 38.91327883333334, "is_disabled": 0, "type": "electric_scooter", "lon": -77.0325355, "bike_id": "c41011d875c0041dc1258dc7771d560e", "fusion_lat": 0.0, "name": "c41011d875c0041dc1258dc7771d560e", "is_reserved": 0, "rental_uris": {"android": "https://dc.lft.to/lastmile_qr_scan", "ios": "https://dc.lft.to/lastmile_qr_scan"}, "fusion_lon": 0.0}, {"lat": 38.908957666666666, "is_disabled": 0, "type": "electric_scooter", "lon": -77.04389083333334, "bike_id": "e71bb64825b3786b7353dc9810b0121f", "fusion_lat": 0.0, "name": "e71bb64825b3786b7353dc9810b0121f", "is_reserved": 0, "rental_uris": {"android": "https://dc.lft.to/lastmile_qr_scan", "ios": "https://dc.lft.to/lastmile_qr_scan"}, "fusion_lon": 0.0}, {"lat": 38.961325333333335, "is_disabled": 0, "type": "electric_scooter", "lon": -77.02805866666667, "bike_id": "4e5f26b2f697c13e0484c4d146664e74", "fusion_lat": 0.0, "name": "4e5f26b2f697c13e0484c4d146664e74", "is_reserved": 0, "rental_uris": {"android": "https://dc.lft.to/lastmile_qr_scan", "ios": "https://dc.lft.to/lastmile_qr_scan"}, "fusion_lon": 0.0}, {"lat": 38.92063616666667, "is_disabled": 0, "type": "electric_scooter", "lon": -77.043376, "bike_id": "e094fd217fa577e7f23c9a3a661b61dd", "fusion_lat": 0.0, "name": "e094fd217fa577e7f23c9a3a661b61dd", "is_reserved": 0, "rental_uris": {"android": "https://dc.lft.to/lastmile_qr_scan", "ios": "https://dc.lft.to/lastmile_qr_scan"}, "fusion_lon": 0.0}, {"lat": 38.959588333333336, "is_disabled": 0, "type": "electric_bike", "lon": -77.100903, "bike_id": "27b874a0679d38c67a2a29e7846d9029", "fusion_lat": 0.0, "name": "27b874a0679d38c67a2a29e7846d9029", "is_reserved": 0, "rental_uris": {"android": "https://dc.lft.to/lastmile_qr_scan", "ios": "https://dc.lft.to/lastmile_qr_scan"}, "fusion_lon": 0.0}, {"lat": 38.866287666666665, "is_disabled": 0, "type": "electric_bike", "lon": -76.94569016666667, "bike_id": "65a35803c626d86a0ca7ba0d9aa20785", "fusion_lat": 0.0, "name": "65a35803c626d86a0ca7ba0d9aa20785", "is_reserved": 0, "rental_uris": {"android": "https://dc.lft.to/lastmile_qr_scan", "ios": "https://dc.lft.to/lastmile_qr_scan"}, "fusion_lon": 0.0}, {"lat": 38.914902166666664, "is_disabled": 0, "type": "electric_scooter", "lon": -77.03269366666666, "bike_id": "6ab8bfeceeb6fdfc67fac2f824990407", "fusion_lat": 0.0, "name": "6ab8bfeceeb6fdfc67fac2f824990407", "is_reserved": 0, "rental_uris": {"android": "https://dc.lft.to/lastmile_qr_scan", "ios": "https://dc.lft.to/lastmile_qr_scan"}, "fusion_lon": 0.0}, {"lat": 38.93101033333333, "is_disabled": 0, "type": "electric_scooter", "lon": -77.03267, "bike_id": "36cddc08432fc75f7ef183e87e1b32a6", "fusion_lat": 0.0, "name": "36cddc08432fc75f7ef183e87e1b32a6", "is_reserved": 0, "rental_uris": {"android": "https://dc.lft.to/lastmile_qr_scan", "ios": "https://dc.lft.to/lastmile_qr_scan"}, "fusion_lon": 0.0}, {"lat": 38.917213833333335, "is_disabled": 0, "type": "electric_scooter", "lon": -77.03231233333334, "bike_id": "874c103e42c4794c315b28531b4028dc", "fusion_lat": 0.0, "name": "874c103e42c4794c315b28531b4028dc", "is_reserved": 0, "rental_uris": {"android": "https://dc.lft.to/lastmile_qr_scan", "ios": "https://dc.lft.to/lastmile_qr_scan"}, "fusion_lon": 0.0}, {"lat": 38.91788183333333, "is_disabled": 0, "type": "electric_scooter", "lon": -77.04304, "bike_id": "ba601a3d8211e76a47c51d07449d7ee1", "fusion_lat": 0.0, "name": "ba601a3d8211e76a47c51d07449d7ee1", "is_reserved": 0, "rental_uris": {"android": "https://dc.lft.to/lastmile_qr_scan", "ios": "https://dc.lft.to/lastmile_qr_scan"}, "fusion_lon": 0.0}, {"lat": 38.892302666666666, "is_disabled": 0, "type": "electric_scooter", "lon": -77.0487615, "bike_id": "cbb2be1c753f9af19d740d73cdd432e4", "fusion_lat": 0.0, "name": "cbb2be1c753f9af19d740d73cdd432e4", "is_reserved": 0, "rental_uris": {"android": "https://dc.lft.to/lastmile_qr_scan", "ios": "https://dc.lft.to/lastmile_qr_scan"}, "fusion_lon": 0.0}, {"lat": 38.91925483333333, "is_disabled": 0, "type": "electric_scooter", "lon": -77.0480355, "bike_id": "3e9b5c5f87b4fba03d1c083e8cf06d6d", "fusion_lat": 0.0, "name": "3e9b5c5f87b4fba03d1c083e8cf06d6d", "is_reserved": 0, "rental_uris": {"android": "https://dc.lft.to/lastmile_qr_scan", "ios": "https://dc.lft.to/lastmile_qr_scan"}, "fusion_lon": 0.0}, {"lat": 38.89235466666667, "is_disabled": 0, "type": "electric_scooter", "lon": -77.050034, "bike_id": "8f250a4ce0bd18d8bbdb654569ade032", "fusion_lat": 0.0, "name": "8f250a4ce0bd18d8bbdb654569ade032", "is_reserved": 0, "rental_uris": {"android": "https://dc.lft.to/lastmile_qr_scan", "ios": "https://dc.lft.to/lastmile_qr_scan"}, "fusion_lon": 0.0}, {"lat": 38.898977333333335, "is_disabled": 0, "type": "electric_scooter", "lon": -77.03213416666667, "bike_id": "4f19d98022eece0d3c7e278f5acf66d8", "fusion_lat": 0.0, "name": "4f19d98022eece0d3c7e278f5acf66d8", "is_reserved": 0, "rental_uris": {"android": "https://dc.lft.to/lastmile_qr_scan", "ios": "https://dc.lft.to/lastmile_qr_scan"}, "fusion_lon": 0.0}, {"lat": 38.89694433333333, "is_disabled": 0, "type": "electric_scooter", "lon": -76.93537616666667, "bike_id": "7b0e2eff2d0672a87ec0dc2b0c161cb9", "fusion_lat": 0.0, "name": "7b0e2eff2d0672a87ec0dc2b0c161cb9", "is_reserved": 0, "rental_uris": {"android": "https://dc.lft.to/lastmile_qr_scan", "ios": "https://dc.lft.to/lastmile_qr_scan"}, "fusion_lon": 0.0}, {"lat": 38.918735833333336, "is_disabled": 0, "type": "electric_scooter", "lon": -77.04607683333333, "bike_id": "62e65038bc29398da194e54deb1acf2d", "fusion_lat": 0.0, "name": "62e65038bc29398da194e54deb1acf2d", "is_reserved": 0, "rental_uris": {"android": "https://dc.lft.to/lastmile_qr_scan", "ios": "https://dc.lft.to/lastmile_qr_scan"}, "fusion_lon": 0.0}, {"lat": 38.867099333333336, "is_disabled": 0, "type": "electric_scooter", "lon": -76.9871365, "bike_id": "419129d5da8418d47b0792833977a8a5", "fusion_lat": 0.0, "name": "419129d5da8418d47b0792833977a8a5", "is_reserved": 0, "rental_uris": {"android": "https://dc.lft.to/lastmile_qr_scan", "ios": "https://dc.lft.to/lastmile_qr_scan"}, "fusion_lon": 0.0}, {"lat": 38.910176, "is_disabled": 0, "type": "electric_scooter", "lon": -77.0889625, "bike_id": "1474e9701442977389126e26e6d0584f", "fusion_lat": 0.0, "name": "1474e9701442977389126e26e6d0584f", "is_reserved": 0, "rental_uris": {"android": "https://dc.lft.to/lastmile_qr_scan", "ios": "https://dc.lft.to/lastmile_qr_scan"}, "fusion_lon": 0.0}, {"lat": 38.93415616666667, "is_disabled": 0, "type": "electric_bike", "lon": -77.0251455, "bike_id": "4538bd832034e68e78d3be1940155762", "fusion_lat": 0.0, "name": "4538bd832034e68e78d3be1940155762", "is_reserved": 0, "rental_uris": {"android": "https://dc.lft.to/lastmile_qr_scan", "ios": "https://dc.lft.to/lastmile_qr_scan"}, "fusion_lon": 0.0}, {"lat": 38.928641666666664, "is_disabled": 0, "type": "electric_bike", "lon": -76.9893505, "bike_id": "38d6b750c3745eb9942e028962735bdf", "fusion_lat": 0.0, "name": "38d6b750c3745eb9942e028962735bdf", "is_reserved": 0, "rental_uris": {"android": "https://dc.lft.to/lastmile_qr_scan", "ios": "https://dc.lft.to/lastmile_qr_scan"}, "fusion_lon": 0.0}, {"lat": 38.907354, "is_disabled": 0, "type": "electric_scooter", "lon": -76.99808816666666, "bike_id": "4d12f37269052dc0840bbb285a73ab54", "fusion_lat": 0.0, "name": "4d12f37269052dc0840bbb285a73ab54", "is_reserved": 0, "rental_uris": {"android": "https://dc.lft.to/lastmile_qr_scan", "ios": "https://dc.lft.to/lastmile_qr_scan"}, "fusion_lon": 0.0}, {"lat": 38.90578766666667, "is_disabled": 0, "type": "electric_scooter", "lon": -77.04854983333334, "bike_id": "b328388de5aef4e71ac37dcd979267c0", "fusion_lat": 0.0, "name": "b328388de5aef4e71ac37dcd979267c0", "is_reserved": 0, "rental_uris": {"android": "https://dc.lft.to/lastmile_qr_scan", "ios": "https://dc.lft.to/lastmile_qr_scan"}, "fusion_lon": 0.0}, {"lat": 38.901002166666665, "is_disabled": 0, "type": "electric_scooter", "lon": -77.00350066666667, "bike_id": "802fa5bf6f417d97090a864b7368e09d", "fusion_lat": 0.0, "name": "802fa5bf6f417d97090a864b7368e09d", "is_reserved": 0, "rental_uris": {"android": "https://dc.lft.to/lastmile_qr_scan", "ios": "https://dc.lft.to/lastmile_qr_scan"}, "fusion_lon": 0.0}, {"lat": 38.91792316666667, "is_disabled": 0, "type": "electric_bike", "lon": -76.97185083333333, "bike_id": "b81d232ee13994e959c56238418f4821", "fusion_lat": 0.0, "name": "b81d232ee13994e959c56238418f4821", "is_reserved": 0, "rental_uris": {"android": "https://dc.lft.to/lastmile_qr_scan", "ios": "https://dc.lft.to/lastmile_qr_scan"}, "fusion_lon": 0.0}, {"lat": 38.9215405, "is_disabled": 0, "type": "electric_scooter", "lon": -77.03378083333334, "bike_id": "16b479d58e3ec6fdb01d36bea4c7a676", "fusion_lat": 0.0, "name": "16b479d58e3ec6fdb01d36bea4c7a676", "is_reserved": 0, "rental_uris": {"android": "https://dc.lft.to/lastmile_qr_scan", "ios": "https://dc.lft.to/lastmile_qr_scan"}, "fusion_lon": 0.0}, {"lat": 38.86169233333333, "is_disabled": 0, "type": "electric_bike", "lon": -77.13146233333333, "bike_id": "e4b3d66bba54adb774a9b9e3e74543da", "fusion_lat": 0.0, "name": "e4b3d66bba54adb774a9b9e3e74543da", "is_reserved": 0, "rental_uris": {"android": "https://dc.lft.to/lastmile_qr_scan", "ios": "https://dc.lft.to/lastmile_qr_scan"}, "fusion_lon": 0.0}, {"lat": 38.9078455, "is_disabled": 0, "type": "electric_scooter", "lon": -77.0386455, "bike_id": "e6077974cf68ac1200dfbe49bcd6eb0f", "fusion_lat": 0.0, "name": "e6077974cf68ac1200dfbe49bcd6eb0f", "is_reserved": 0, "rental_uris": {"android": "https://dc.lft.to/lastmile_qr_scan", "ios": "https://dc.lft.to/lastmile_qr_scan"}, "fusion_lon": 0.0}, {"lat": 38.86897966666667, "is_disabled": 0, "type": "electric_scooter", "lon": -76.9831305, "bike_id": "ac4552f0b205ae71afae894188233981", "fusion_lat": 0.0, "name": "ac4552f0b205ae71afae894188233981", "is_reserved": 0, "rental_uris": {"android": "https://dc.lft.to/lastmile_qr_scan", "ios": "https://dc.lft.to/lastmile_qr_scan"}, "fusion_lon": 0.0}, {"lat": 38.90356116666667, "is_disabled": 0, "type": "electric_scooter", "lon": -77.0162015, "bike_id": "2b9f584554c74abd38ec318ff2474de7", "fusion_lat": 0.0, "name": "2b9f584554c74abd38ec318ff2474de7", "is_reserved": 0, "rental_uris": {"android": "https://dc.lft.to/lastmile_qr_scan", "ios": "https://dc.lft.to/lastmile_qr_scan"}, "fusion_lon": 0.0}, {"lat": 38.90038066666666, "is_disabled": 0, "type": "electric_scooter", "lon": -77.012887, "bike_id": "bd4b302ae0826c045ef7fd4ca7d21d3f", "fusion_lat": 0.0, "name": "bd4b302ae0826c045ef7fd4ca7d21d3f", "is_reserved": 0, "rental_uris": {"android": "https://dc.lft.to/lastmile_qr_scan", "ios": "https://dc.lft.to/lastmile_qr_scan"}, "fusion_lon": 0.0}, {"lat": 38.90669716666667, "is_disabled": 0, "type": "electric_scooter", "lon": -77.0384235, "bike_id": "da2fa39599645cd243d158c318897253", "fusion_lat": 0.0, "name": "da2fa39599645cd243d158c318897253", "is_reserved": 0, "rental_uris": {"android": "https://dc.lft.to/lastmile_qr_scan", "ios": "https://dc.lft.to/lastmile_qr_scan"}, "fusion_lon": 0.0}, {"lat": 38.90042433333333, "is_disabled": 0, "type": "electric_scooter", "lon": -77.040203, "bike_id": "0b52cef4f28be90d402c05e96ebee436", "fusion_lat": 0.0, "name": "0b52cef4f28be90d402c05e96ebee436", "is_reserved": 0, "rental_uris": {"android": "https://dc.lft.to/lastmile_qr_scan", "ios": "https://dc.lft.to/lastmile_qr_scan"}, "fusion_lon": 0.0}, {"lat": 38.8764685, "is_disabled": 0, "type": "electric_scooter", "lon": -77.00860683333333, "bike_id": "ee9fa96380ffe559dcf3311a38396220", "fusion_lat": 0.0, "name": "ee9fa96380ffe559dcf3311a38396220", "is_reserved": 0, "rental_uris": {"android": "https://dc.lft.to/lastmile_qr_scan", "ios": "https://dc.lft.to/lastmile_qr_scan"}, "fusion_lon": 0.0}, {"lat": 38.91192983333333, "is_disabled": 0, "type": "electric_scooter", "lon": -77.00254383333333, "bike_id": "74bf8cff19ee5b0d6c27359a567d05d5", "fusion_lat": 0.0, "name": "74bf8cff19ee5b0d6c27359a567d05d5", "is_reserved": 0, "rental_uris": {"android": "https://dc.lft.to/lastmile_qr_scan", "ios": "https://dc.lft.to/lastmile_qr_scan"}, "fusion_lon": 0.0}, {"lat": 38.89902816666667, "is_disabled": 0, "type": "electric_scooter", "lon": -76.99727683333333, "bike_id": "bcfe0572c3bb545cfb2c0febe9994cbd", "fusion_lat": 0.0, "name": "bcfe0572c3bb545cfb2c0febe9994cbd", "is_reserved": 0, "rental_uris": {"android": "https://dc.lft.to/lastmile_qr_scan", "ios": "https://dc.lft.to/lastmile_qr_scan"}, "fusion_lon": 0.0}, {"lat": 38.910512, "is_disabled": 0, "type": "electric_scooter", "lon": -77.03842616666667, "bike_id": "134248356a87955dad7a8ea17230b1f4", "fusion_lat": 0.0, "name": "134248356a87955dad7a8ea17230b1f4", "is_reserved": 0, "rental_uris": {"android": "https://dc.lft.to/lastmile_qr_scan", "ios": "https://dc.lft.to/lastmile_qr_scan"}, "fusion_lon": 0.0}, {"lat": 38.859105, "is_disabled": 0, "type": "electric_scooter", "lon": -76.99151816666667, "bike_id": "4c5691439f6c5c6417ec23fc1d32806b", "fusion_lat": 0.0, "name": "4c5691439f6c5c6417ec23fc1d32806b", "is_reserved": 0, "rental_uris": {"android": "https://dc.lft.to/lastmile_qr_scan", "ios": "https://dc.lft.to/lastmile_qr_scan"}, "fusion_lon": 0.0}, {"lat": 38.922799166666664, "is_disabled": 0, "type": "electric_scooter", "lon": -77.042379, "bike_id": "6922fc3a54990bcac117a8c4ffdb3634", "fusion_lat": 0.0, "name": "6922fc3a54990bcac117a8c4ffdb3634", "is_reserved": 0, "rental_uris": {"android": "https://dc.lft.to/lastmile_qr_scan", "ios": "https://dc.lft.to/lastmile_qr_scan"}, "fusion_lon": 0.0}, {"lat": 38.94748583333333, "is_disabled": 0, "type": "electric_scooter", "lon": -77.0651955, "bike_id": "5afc58b883b10a2f2215b364130731c1", "fusion_lat": 0.0, "name": "5afc58b883b10a2f2215b364130731c1", "is_reserved": 0, "rental_uris": {"android": "https://dc.lft.to/lastmile_qr_scan", "ios": "https://dc.lft.to/lastmile_qr_scan"}, "fusion_lon": 0.0}, {"lat": 38.86655566666667, "is_disabled": 0, "type": "electric_scooter", "lon": -76.98885116666666, "bike_id": "7d50d357891e2efb13dd79b847ac25eb", "fusion_lat": 0.0, "name": "7d50d357891e2efb13dd79b847ac25eb", "is_reserved": 0, "rental_uris": {"android": "https://dc.lft.to/lastmile_qr_scan", "ios": "https://dc.lft.to/lastmile_qr_scan"}, "fusion_lon": 0.0}, {"lat": 38.8953915, "is_disabled": 0, "type": "electric_scooter", "lon": -77.02816516666667, "bike_id": "e3431a6bf2abf3f25bf08b6c46c009da", "fusion_lat": 0.0, "name": "e3431a6bf2abf3f25bf08b6c46c009da", "is_reserved": 0, "rental_uris": {"android": "https://dc.lft.to/lastmile_qr_scan", "ios": "https://dc.lft.to/lastmile_qr_scan"}, "fusion_lon": 0.0}, {"lat": 38.899045, "is_disabled": 0, "type": "electric_scooter", "lon": -76.9335955, "bike_id": "b9f08c3bde063eff754c315f5d4e3547", "fusion_lat": 0.0, "name": "b9f08c3bde063eff754c315f5d4e3547", "is_reserved": 0, "rental_uris": {"android": "https://dc.lft.to/lastmile_qr_scan", "ios": "https://dc.lft.to/lastmile_qr_scan"}, "fusion_lon": 0.0}, {"lat": 38.93068983333333, "is_disabled": 0, "type": "electric_scooter", "lon": -77.04184916666667, "bike_id": "9f83dbd30df5b15bf40c9ff30c59fa59", "fusion_lat": 0.0, "name": "9f83dbd30df5b15bf40c9ff30c59fa59", "is_reserved": 0, "rental_uris": {"android": "https://dc.lft.to/lastmile_qr_scan", "ios": "https://dc.lft.to/lastmile_qr_scan"}, "fusion_lon": 0.0}, {"lat": 38.906268833333336, "is_disabled": 0, "type": "electric_scooter", "lon": -76.9898575, "bike_id": "467736428242595ebc5fb820127566a5", "fusion_lat": 0.0, "name": "467736428242595ebc5fb820127566a5", "is_reserved": 0, "rental_uris": {"android": "https://dc.lft.to/lastmile_qr_scan", "ios": "https://dc.lft.to/lastmile_qr_scan"}, "fusion_lon": 0.0}, {"lat": 38.90864583333333, "is_disabled": 0, "type": "electric_scooter", "lon": -76.99164233333333, "bike_id": "7187815a0d5591d41a41377378c5b728", "fusion_lat": 0.0, "name": "7187815a0d5591d41a41377378c5b728", "is_reserved": 0, "rental_uris": {"android": "https://dc.lft.to/lastmile_qr_scan", "ios": "https://dc.lft.to/lastmile_qr_scan"}, "fusion_lon": 0.0}, {"lat": 38.891157, "is_disabled": 0, "type": "electric_scooter", "lon": -76.94384283333333, "bike_id": "e91b7dcbb295be9c54cc0bd88bd00908", "fusion_lat": 0.0, "name": "e91b7dcbb295be9c54cc0bd88bd00908", "is_reserved": 0, "rental_uris": {"android": "https://dc.lft.to/lastmile_qr_scan", "ios": "https://dc.lft.to/lastmile_qr_scan"}, "fusion_lon": 0.0}, {"lat": 38.900488, "is_disabled": 0, "type": "electric_scooter", "lon": -76.99375, "bike_id": "9f984e548bda08694a6d2bdc2b90a6fe", "fusion_lat": 0.0, "name": "9f984e548bda08694a6d2bdc2b90a6fe", "is_reserved": 0, "rental_uris": {"android": "https://dc.lft.to/lastmile_qr_scan", "ios": "https://dc.lft.to/lastmile_qr_scan"}, "fusion_lon": 0.0}, {"lat": 38.92344216666667, "is_disabled": 0, "type": "electric_scooter", "lon": -77.035788, "bike_id": "14cf52dafd41732e239d74885ea7ef00", "fusion_lat": 0.0, "name": "14cf52dafd41732e239d74885ea7ef00", "is_reserved": 0, "rental_uris": {"android": "https://dc.lft.to/lastmile_qr_scan", "ios": "https://dc.lft.to/lastmile_qr_scan"}, "fusion_lon": 0.0}, {"lat": 38.866618833333334, "is_disabled": 0, "type": "electric_scooter", "lon": -76.98904633333333, "bike_id": "d29d29a9657c8336470d62defc1a0586", "fusion_lat": 0.0, "name": "d29d29a9657c8336470d62defc1a0586", "is_reserved": 0, "rental_uris": {"android": "https://dc.lft.to/lastmile_qr_scan", "ios": "https://dc.lft.to/lastmile_qr_scan"}, "fusion_lon": 0.0}, {"lat": 38.91469433333333, "is_disabled": 0, "type": "electric_scooter", "lon": -77.06687733333334, "bike_id": "95b1734a9cca168cdf4a34feebd08b21", "fusion_lat": 0.0, "name": "95b1734a9cca168cdf4a34feebd08b21", "is_reserved": 0, "rental_uris": {"android": "https://dc.lft.to/lastmile_qr_scan", "ios": "https://dc.lft.to/lastmile_qr_scan"}, "fusion_lon": 0.0}, {"lat": 38.9244885, "is_disabled": 0, "type": "electric_scooter", "lon": -77.03363933333333, "bike_id": "9eb022bb9176fb7ba7b3da1141f6c6dc", "fusion_lat": 0.0, "name": "9eb022bb9176fb7ba7b3da1141f6c6dc", "is_reserved": 0, "rental_uris": {"android": "https://dc.lft.to/lastmile_qr_scan", "ios": "https://dc.lft.to/lastmile_qr_scan"}, "fusion_lon": 0.0}, {"lat": 38.930352666666664, "is_disabled": 0, "type": "electric_scooter", "lon": -77.02046883333334, "bike_id": "4953a4d591ee0220324f620331a49944", "fusion_lat": 0.0, "name": "4953a4d591ee0220324f620331a49944", "is_reserved": 0, "rental_uris": {"android": "https://dc.lft.to/lastmile_qr_scan", "ios": "https://dc.lft.to/lastmile_qr_scan"}, "fusion_lon": 0.0}, {"lat": 38.909963166666664, "is_disabled": 0, "type": "electric_scooter", "lon": -76.9973565, "bike_id": "fc08a5688de2dbe583caaa0ab8c715b5", "fusion_lat": 0.0, "name": "fc08a5688de2dbe583caaa0ab8c715b5", "is_reserved": 0, "rental_uris": {"android": "https://dc.lft.to/lastmile_qr_scan", "ios": "https://dc.lft.to/lastmile_qr_scan"}, "fusion_lon": 0.0}, {"lat": 38.9266305, "is_disabled": 0, "type": "electric_scooter", "lon": -77.02418533333334, "bike_id": "506d6392463b0446aa0bcaf2709ad2b5", "fusion_lat": 0.0, "name": "506d6392463b0446aa0bcaf2709ad2b5", "is_reserved": 0, "rental_uris": {"android": "https://dc.lft.to/lastmile_qr_scan", "ios": "https://dc.lft.to/lastmile_qr_scan"}, "fusion_lon": 0.0}, {"lat": 38.931323666666664, "is_disabled": 0, "type": "electric_scooter", "lon": -77.02156866666667, "bike_id": "7c5cc09b1862c5e8f20e5b6dd148f3b8", "fusion_lat": 0.0, "name": "7c5cc09b1862c5e8f20e5b6dd148f3b8", "is_reserved": 0, "rental_uris": {"android": "https://dc.lft.to/lastmile_qr_scan", "ios": "https://dc.lft.to/lastmile_qr_scan"}, "fusion_lon": 0.0}, {"lat": 38.92412233333334, "is_disabled": 0, "type": "electric_scooter", "lon": -77.03423116666667, "bike_id": "d79484add8ca171ecdc3731fb0210f6d", "fusion_lat": 0.0, "name": "d79484add8ca171ecdc3731fb0210f6d", "is_reserved": 0, "rental_uris": {"android": "https://dc.lft.to/lastmile_qr_scan", "ios": "https://dc.lft.to/lastmile_qr_scan"}, "fusion_lon": 0.0}, {"lat": 38.952217833333336, "is_disabled": 0, "type": "electric_scooter", "lon": -77.086042, "bike_id": "93e3ccbcb7c3bf12baaaac92e4b6837f", "fusion_lat": 0.0, "name": "93e3ccbcb7c3bf12baaaac92e4b6837f", "is_reserved": 0, "rental_uris": {"android": "https://dc.lft.to/lastmile_qr_scan", "ios": "https://dc.lft.to/lastmile_qr_scan"}, "fusion_lon": 0.0}, {"lat": 38.91330333333333, "is_disabled": 0, "type": "electric_scooter", "lon": -77.03047816666667, "bike_id": "f7d3bee62d9ade58dd547c71f37054c3", "fusion_lat": 0.0, "name": "f7d3bee62d9ade58dd547c71f37054c3", "is_reserved": 0, "rental_uris": {"android": "https://dc.lft.to/lastmile_qr_scan", "ios": "https://dc.lft.to/lastmile_qr_scan"}, "fusion_lon": 0.0}, {"lat": 38.922708166666666, "is_disabled": 0, "type": "electric_scooter", "lon": -77.04237833333333, "bike_id": "3d1b25e5874162b7bad39a7a4b753ad4", "fusion_lat": 0.0, "name": "3d1b25e5874162b7bad39a7a4b753ad4", "is_reserved": 0, "rental_uris": {"android": "https://dc.lft.to/lastmile_qr_scan", "ios": "https://dc.lft.to/lastmile_qr_scan"}, "fusion_lon": 0.0}, {"lat": 38.8909775, "is_disabled": 0, "type": "electric_scooter", "lon": -76.95273683333333, "bike_id": "cf0b54c46167de30af0ce640cab8caea", "fusion_lat": 0.0, "name": "cf0b54c46167de30af0ce640cab8caea", "is_reserved": 0, "rental_uris": {"android": "https://dc.lft.to/lastmile_qr_scan", "ios": "https://dc.lft.to/lastmile_qr_scan"}, "fusion_lon": 0.0}, {"lat": 38.918372, "is_disabled": 0, "type": "electric_scooter", "lon": -77.03535833333333, "bike_id": "cf10a1b89ca71be709504617bec5b467", "fusion_lat": 0.0, "name": "cf10a1b89ca71be709504617bec5b467", "is_reserved": 0, "rental_uris": {"android": "https://dc.lft.to/lastmile_qr_scan", "ios": "https://dc.lft.to/lastmile_qr_scan"}, "fusion_lon": 0.0}, {"lat": 38.905021166666664, "is_disabled": 0, "type": "electric_scooter", "lon": -77.029495, "bike_id": "d3480b54c33baa3ab0e8722e504d6b65", "fusion_lat": 0.0, "name": "d3480b54c33baa3ab0e8722e504d6b65", "is_reserved": 0, "rental_uris": {"android": "https://dc.lft.to/lastmile_qr_scan", "ios": "https://dc.lft.to/lastmile_qr_scan"}, "fusion_lon": 0.0}, {"lat": 38.99994816666667, "is_disabled": 0, "type": "electric_bike", "lon": -76.92497833333333, "bike_id": "8749bc42c1817e754f14b27d0aca9423", "fusion_lat": 0.0, "name": "8749bc42c1817e754f14b27d0aca9423", "is_reserved": 0, "rental_uris": {"android": "https://dc.lft.to/lastmile_qr_scan", "ios": "https://dc.lft.to/lastmile_qr_scan"}, "fusion_lon": 0.0}, {"lat": 38.90748383333333, "is_disabled": 0, "type": "electric_scooter", "lon": -77.029516, "bike_id": "87f4b985a984f42f0570538baa7dee92", "fusion_lat": 0.0, "name": "87f4b985a984f42f0570538baa7dee92", "is_reserved": 0, "rental_uris": {"android": "https://dc.lft.to/lastmile_qr_scan", "ios": "https://dc.lft.to/lastmile_qr_scan"}, "fusion_lon": 0.0}, {"lat": 38.92921416666667, "is_disabled": 0, "type": "electric_scooter", "lon": -77.03744283333333, "bike_id": "bdf279c210c84f574be1ab0f625c5cfe", "fusion_lat": 0.0, "name": "bdf279c210c84f574be1ab0f625c5cfe", "is_reserved": 0, "rental_uris": {"android": "https://dc.lft.to/lastmile_qr_scan", "ios": "https://dc.lft.to/lastmile_qr_scan"}, "fusion_lon": 0.0}, {"lat": 38.9100545, "is_disabled": 0, "type": "electric_scooter", "lon": -77.04011333333334, "bike_id": "0436ad37c7bc5f7c06f9cf3ab48972ea", "fusion_lat": 0.0, "name": "0436ad37c7bc5f7c06f9cf3ab48972ea", "is_reserved": 0, "rental_uris": {"android": "https://dc.lft.to/lastmile_qr_scan", "ios": "https://dc.lft.to/lastmile_qr_scan"}, "fusion_lon": 0.0}, {"lat": 38.908465666666665, "is_disabled": 0, "type": "electric_scooter", "lon": -77.000673, "bike_id": "255d0f3d89b189a3e0beb6eb4e38a52c", "fusion_lat": 0.0, "name": "255d0f3d89b189a3e0beb6eb4e38a52c", "is_reserved": 0, "rental_uris": {"android": "https://dc.lft.to/lastmile_qr_scan", "ios": "https://dc.lft.to/lastmile_qr_scan"}, "fusion_lon": 0.0}, {"lat": 38.9157095, "is_disabled": 0, "type": "electric_scooter", "lon": -77.03849416666667, "bike_id": "fb98c43325c3f12fb93849fab35c3ba6", "fusion_lat": 0.0, "name": "fb98c43325c3f12fb93849fab35c3ba6", "is_reserved": 0, "rental_uris": {"android": "https://dc.lft.to/lastmile_qr_scan", "ios": "https://dc.lft.to/lastmile_qr_scan"}, "fusion_lon": 0.0}, {"lat": 38.90564066666666, "is_disabled": 0, "type": "electric_scooter", "lon": -77.04340566666667, "bike_id": "6283dfa3e33dba0a6ae485b18bd6b6bd", "fusion_lat": 0.0, "name": "6283dfa3e33dba0a6ae485b18bd6b6bd", "is_reserved": 0, "rental_uris": {"android": "https://dc.lft.to/lastmile_qr_scan", "ios": "https://dc.lft.to/lastmile_qr_scan"}, "fusion_lon": 0.0}, {"lat": 38.9039115, "is_disabled": 0, "type": "electric_scooter", "lon": -77.008832, "bike_id": "5b626013ac170e499513fc8660d96112", "fusion_lat": 0.0, "name": "5b626013ac170e499513fc8660d96112", "is_reserved": 0, "rental_uris": {"android": "https://dc.lft.to/lastmile_qr_scan", "ios": "https://dc.lft.to/lastmile_qr_scan"}, "fusion_lon": 0.0}, {"lat": 38.931158, "is_disabled": 0, "type": "electric_scooter", "lon": -77.03036183333333, "bike_id": "c1da06bd7515658bbce8fa8879b4d66d", "fusion_lat": 0.0, "name": "c1da06bd7515658bbce8fa8879b4d66d", "is_reserved": 0, "rental_uris": {"android": "https://dc.lft.to/lastmile_qr_scan", "ios": "https://dc.lft.to/lastmile_qr_scan"}, "fusion_lon": 0.0}, {"lat": 38.93581366666667, "is_disabled": 0, "type": "electric_bike", "lon": -77.10675233333333, "bike_id": "7d1d23aa7d07fc5b3175eb9741d06698", "fusion_lat": 0.0, "name": "7d1d23aa7d07fc5b3175eb9741d06698", "is_reserved": 0, "rental_uris": {"android": "https://dc.lft.to/lastmile_qr_scan", "ios": "https://dc.lft.to/lastmile_qr_scan"}, "fusion_lon": 0.0}, {"lat": 38.916922166666666, "is_disabled": 0, "type": "electric_scooter", "lon": -77.02698866666667, "bike_id": "a6bc911338fe6b113b7738319c653682", "fusion_lat": 0.0, "name": "a6bc911338fe6b113b7738319c653682", "is_reserved": 0, "rental_uris": {"android": "https://dc.lft.to/lastmile_qr_scan", "ios": "https://dc.lft.to/lastmile_qr_scan"}, "fusion_lon": 0.0}, {"lat": 38.903862333333336, "is_disabled": 0, "type": "electric_scooter", "lon": -77.00878933333334, "bike_id": "4840befc358068430bd3289d7231d878", "fusion_lat": 0.0, "name": "4840befc358068430bd3289d7231d878", "is_reserved": 0, "rental_uris": {"android": "https://dc.lft.to/lastmile_qr_scan", "ios": "https://dc.lft.to/lastmile_qr_scan"}, "fusion_lon": 0.0}, {"lat": 38.909823833333334, "is_disabled": 0, "type": "electric_scooter", "lon": -77.03429633333333, "bike_id": "13d396bb71d16d27d04f9b89a337fd83", "fusion_lat": 0.0, "name": "13d396bb71d16d27d04f9b89a337fd83", "is_reserved": 0, "rental_uris": {"android": "https://dc.lft.to/lastmile_qr_scan", "ios": "https://dc.lft.to/lastmile_qr_scan"}, "fusion_lon": 0.0}, {"lat": 38.94140083333333, "is_disabled": 0, "type": "electric_scooter", "lon": -77.07616716666666, "bike_id": "bd97054d02bf824ffc266ccfd9f896ec", "fusion_lat": 0.0, "name": "bd97054d02bf824ffc266ccfd9f896ec", "is_reserved": 0, "rental_uris": {"android": "https://dc.lft.to/lastmile_qr_scan", "ios": "https://dc.lft.to/lastmile_qr_scan"}, "fusion_lon": 0.0}, {"lat": 38.92063316666667, "is_disabled": 0, "type": "electric_scooter", "lon": -77.02364383333334, "bike_id": "cfd73fe1bc08840d38b2ee35b546505f", "fusion_lat": 0.0, "name": "cfd73fe1bc08840d38b2ee35b546505f", "is_reserved": 0, "rental_uris": {"android": "https://dc.lft.to/lastmile_qr_scan", "ios": "https://dc.lft.to/lastmile_qr_scan"}, "fusion_lon": 0.0}, {"lat": 38.9000655, "is_disabled": 0, "type": "electric_scooter", "lon": -77.032957, "bike_id": "6c443e2a9e59dedca2bce9b9dd3f137a", "fusion_lat": 0.0, "name": "6c443e2a9e59dedca2bce9b9dd3f137a", "is_reserved": 0, "rental_uris": {"android": "https://dc.lft.to/lastmile_qr_scan", "ios": "https://dc.lft.to/lastmile_qr_scan"}, "fusion_lon": 0.0}, {"lat": 38.9053735, "is_disabled": 0, "type": "electric_scooter", "lon": -77.02213283333333, "bike_id": "0634c58d00e730106d09e1330df9038d", "fusion_lat": 0.0, "name": "0634c58d00e730106d09e1330df9038d", "is_reserved": 0, "rental_uris": {"android": "https://dc.lft.to/lastmile_qr_scan", "ios": "https://dc.lft.to/lastmile_qr_scan"}, "fusion_lon": 0.0}, {"lat": 38.909540166666666, "is_disabled": 0, "type": "electric_scooter", "lon": -77.04653616666667, "bike_id": "4a43705ca00e182a3e17c5e1fec01c51", "fusion_lat": 0.0, "name": "4a43705ca00e182a3e17c5e1fec01c51", "is_reserved": 0, "rental_uris": {"android": "https://dc.lft.to/lastmile_qr_scan", "ios": "https://dc.lft.to/lastmile_qr_scan"}, "fusion_lon": 0.0}, {"lat": 38.945002333333335, "is_disabled": 0, "type": "electric_bike", "lon": -77.0068245, "bike_id": "bc57f94af4ff6cf7dcb82d77c12dbc20", "fusion_lat": 0.0, "name": "bc57f94af4ff6cf7dcb82d77c12dbc20", "is_reserved": 0, "rental_uris": {"android": "https://dc.lft.to/lastmile_qr_scan", "ios": "https://dc.lft.to/lastmile_qr_scan"}, "fusion_lon": 0.0}, {"lat": 38.96628183333333, "is_disabled": 0, "type": "electric_bike", "lon": -76.97669316666666, "bike_id": "f1a6854a658283fae73089a0aee67097", "fusion_lat": 0.0, "name": "f1a6854a658283fae73089a0aee67097", "is_reserved": 0, "rental_uris": {"android": "https://dc.lft.to/lastmile_qr_scan", "ios": "https://dc.lft.to/lastmile_qr_scan"}, "fusion_lon": 0.0}, {"lat": 38.89535566666667, "is_disabled": 0, "type": "electric_scooter", "lon": -77.0006785, "bike_id": "ab4767b1ffb0752a128b6583756e42fc", "fusion_lat": 0.0, "name": "ab4767b1ffb0752a128b6583756e42fc", "is_reserved": 0, "rental_uris": {"android": "https://dc.lft.to/lastmile_qr_scan", "ios": "https://dc.lft.to/lastmile_qr_scan"}, "fusion_lon": 0.0}, {"lat": 38.916393166666666, "is_disabled": 0, "type": "electric_scooter", "lon": -77.0269425, "bike_id": "83e0e3a79a6a1584ae8fcbdb5a7657ec", "fusion_lat": 0.0, "name": "83e0e3a79a6a1584ae8fcbdb5a7657ec", "is_reserved": 0, "rental_uris": {"android": "https://dc.lft.to/lastmile_qr_scan", "ios": "https://dc.lft.to/lastmile_qr_scan"}, "fusion_lon": 0.0}, {"lat": 38.90049633333334, "is_disabled": 0, "type": "electric_scooter", "lon": -77.03333383333333, "bike_id": "5b536ed0395c57eb7a9b51288c1c265d", "fusion_lat": 0.0, "name": "5b536ed0395c57eb7a9b51288c1c265d", "is_reserved": 0, "rental_uris": {"android": "https://dc.lft.to/lastmile_qr_scan", "ios": "https://dc.lft.to/lastmile_qr_scan"}, "fusion_lon": 0.0}, {"lat": 38.871502666666665, "is_disabled": 0, "type": "electric_bike", "lon": -76.93675316666666, "bike_id": "d9681fe19727fe7d59e9312a51e84864", "fusion_lat": 0.0, "name": "d9681fe19727fe7d59e9312a51e84864", "is_reserved": 0, "rental_uris": {"android": "https://dc.lft.to/lastmile_qr_scan", "ios": "https://dc.lft.to/lastmile_qr_scan"}, "fusion_lon": 0.0}, {"lat": 38.948412166666664, "is_disabled": 0, "type": "electric_scooter", "lon": -77.0257955, "bike_id": "ae7360ce16734ef745bb5a72c828d7cc", "fusion_lat": 0.0, "name": "ae7360ce16734ef745bb5a72c828d7cc", "is_reserved": 0, "rental_uris": {"android": "https://dc.lft.to/lastmile_qr_scan", "ios": "https://dc.lft.to/lastmile_qr_scan"}, "fusion_lon": 0.0}, {"lat": 38.8636925, "is_disabled": 0, "type": "electric_scooter", "lon": -76.99032083333333, "bike_id": "17d8c7c2d4ef0b3dc0d7971e46fb59cc", "fusion_lat": 0.0, "name": "17d8c7c2d4ef0b3dc0d7971e46fb59cc", "is_reserved": 0, "rental_uris": {"android": "https://dc.lft.to/lastmile_qr_scan", "ios": "https://dc.lft.to/lastmile_qr_scan"}, "fusion_lon": 0.0}, {"lat": 38.953412166666666, "is_disabled": 0, "type": "electric_scooter", "lon": -77.06913133333333, "bike_id": "889f7e7ceba26d9d5a363004b942c2a2", "fusion_lat": 0.0, "name": "889f7e7ceba26d9d5a363004b942c2a2", "is_reserved": 0, "rental_uris": {"android": "https://dc.lft.to/lastmile_qr_scan", "ios": "https://dc.lft.to/lastmile_qr_scan"}, "fusion_lon": 0.0}, {"lat": 38.90331916666667, "is_disabled": 0, "type": "electric_scooter", "lon": -77.05219283333334, "bike_id": "70daab2ab0579ce3002021fc831259c1", "fusion_lat": 0.0, "name": "70daab2ab0579ce3002021fc831259c1", "is_reserved": 0, "rental_uris": {"android": "https://dc.lft.to/lastmile_qr_scan", "ios": "https://dc.lft.to/lastmile_qr_scan"}, "fusion_lon": 0.0}, {"lat": 38.908649, "is_disabled": 0, "type": "electric_bike", "lon": -76.94011016666667, "bike_id": "11c7c29f70e549c80d74baaa0f840b97", "fusion_lat": 0.0, "name": "11c7c29f70e549c80d74baaa0f840b97", "is_reserved": 0, "rental_uris": {"android": "https://dc.lft.to/lastmile_qr_scan", "ios": "https://dc.lft.to/lastmile_qr_scan"}, "fusion_lon": 0.0}, {"lat": 38.845099833333336, "is_disabled": 0, "type": "electric_bike", "lon": -76.9935455, "bike_id": "10abf15c9495e75a372825ea27066fe5", "fusion_lat": 0.0, "name": "10abf15c9495e75a372825ea27066fe5", "is_reserved": 0, "rental_uris": {"android": "https://dc.lft.to/lastmile_qr_scan", "ios": "https://dc.lft.to/lastmile_qr_scan"}, "fusion_lon": 0.0}, {"lat": 38.91339283333333, "is_disabled": 0, "type": "electric_scooter", "lon": -77.03034933333333, "bike_id": "ee226da7a90c48b5f760bfceac79493d", "fusion_lat": 0.0, "name": "ee226da7a90c48b5f760bfceac79493d", "is_reserved": 0, "rental_uris": {"android": "https://dc.lft.to/lastmile_qr_scan", "ios": "https://dc.lft.to/lastmile_qr_scan"}, "fusion_lon": 0.0}, {"lat": 38.9059005, "is_disabled": 0, "type": "electric_scooter", "lon": -76.98617633333333, "bike_id": "cbfc5c6bd7fe8acc381bfb6687ed342b", "fusion_lat": 0.0, "name": "cbfc5c6bd7fe8acc381bfb6687ed342b", "is_reserved": 0, "rental_uris": {"android": "https://dc.lft.to/lastmile_qr_scan", "ios": "https://dc.lft.to/lastmile_qr_scan"}, "fusion_lon": 0.0}, {"lat": 38.897319833333334, "is_disabled": 0, "type": "electric_scooter", "lon": -77.02092633333334, "bike_id": "90ccbb48c906016e6e7ddcd04749acd9", "fusion_lat": 0.0, "name": "90ccbb48c906016e6e7ddcd04749acd9", "is_reserved": 0, "rental_uris": {"android": "https://dc.lft.to/lastmile_qr_scan", "ios": "https://dc.lft.to/lastmile_qr_scan"}, "fusion_lon": 0.0}, {"lat": 38.93924966666667, "is_disabled": 0, "type": "electric_scooter", "lon": -77.06681666666667, "bike_id": "da652e701d02ef8d8c99a63c165e2e24", "fusion_lat": 0.0, "name": "da652e701d02ef8d8c99a63c165e2e24", "is_reserved": 0, "rental_uris": {"android": "https://dc.lft.to/lastmile_qr_scan", "ios": "https://dc.lft.to/lastmile_qr_scan"}, "fusion_lon": 0.0}, {"lat": 38.918849, "is_disabled": 0, "type": "electric_scooter", "lon": -77.0350445, "bike_id": "1b1ae40737496f22ee1e9e9dc99f7531", "fusion_lat": 0.0, "name": "1b1ae40737496f22ee1e9e9dc99f7531", "is_reserved": 0, "rental_uris": {"android": "https://dc.lft.to/lastmile_qr_scan", "ios": "https://dc.lft.to/lastmile_qr_scan"}, "fusion_lon": 0.0}, {"lat": 38.922585, "is_disabled": 0, "type": "electric_bike", "lon": -77.030812, "bike_id": "e404e119126ed4f7d2afb192b36a4238", "fusion_lat": 0.0, "name": "e404e119126ed4f7d2afb192b36a4238", "is_reserved": 0, "rental_uris": {"android": "https://dc.lft.to/lastmile_qr_scan", "ios": "https://dc.lft.to/lastmile_qr_scan"}, "fusion_lon": 0.0}, {"lat": 38.92887416666667, "is_disabled": 0, "type": "electric_scooter", "lon": -77.05747666666667, "bike_id": "b0d6f22b1e1a77629c4b05a150f03e3e", "fusion_lat": 0.0, "name": "b0d6f22b1e1a77629c4b05a150f03e3e", "is_reserved": 0, "rental_uris": {"android": "https://dc.lft.to/lastmile_qr_scan", "ios": "https://dc.lft.to/lastmile_qr_scan"}, "fusion_lon": 0.0}, {"lat": 38.9213055, "is_disabled": 0, "type": "electric_scooter", "lon": -77.04569983333333, "bike_id": "f3a64058bccd9593391c34125ae259d2", "fusion_lat": 0.0, "name": "f3a64058bccd9593391c34125ae259d2", "is_reserved": 0, "rental_uris": {"android": "https://dc.lft.to/lastmile_qr_scan", "ios": "https://dc.lft.to/lastmile_qr_scan"}, "fusion_lon": 0.0}, {"lat": 38.867182, "is_disabled": 0, "type": "electric_scooter", "lon": -76.98722183333334, "bike_id": "b07f1159f60e4916401dd8a3c27771b6", "fusion_lat": 0.0, "name": "b07f1159f60e4916401dd8a3c27771b6", "is_reserved": 0, "rental_uris": {"android": "https://dc.lft.to/lastmile_qr_scan", "ios": "https://dc.lft.to/lastmile_qr_scan"}, "fusion_lon": 0.0}, {"lat": 38.923034666666666, "is_disabled": 0, "type": "electric_scooter", "lon": -77.02333616666667, "bike_id": "5dbf209948262736781686f182087fcc", "fusion_lat": 0.0, "name": "5dbf209948262736781686f182087fcc", "is_reserved": 0, "rental_uris": {"android": "https://dc.lft.to/lastmile_qr_scan", "ios": "https://dc.lft.to/lastmile_qr_scan"}, "fusion_lon": 0.0}, {"lat": 38.89344033333333, "is_disabled": 0, "type": "electric_scooter", "lon": -77.044846, "bike_id": "d55ae039265034f82293d33b9691677c", "fusion_lat": 0.0, "name": "d55ae039265034f82293d33b9691677c", "is_reserved": 0, "rental_uris": {"android": "https://dc.lft.to/lastmile_qr_scan", "ios": "https://dc.lft.to/lastmile_qr_scan"}, "fusion_lon": 0.0}, {"lat": 38.9170825, "is_disabled": 0, "type": "electric_scooter", "lon": -77.046044, "bike_id": "fae7e95f2f79e174d82a55b48d2acb08", "fusion_lat": 0.0, "name": "fae7e95f2f79e174d82a55b48d2acb08", "is_reserved": 0, "rental_uris": {"android": "https://dc.lft.to/lastmile_qr_scan", "ios": "https://dc.lft.to/lastmile_qr_scan"}, "fusion_lon": 0.0}, {"lat": 38.87379883333333, "is_disabled": 0, "type": "electric_bike", "lon": -77.00061533333333, "bike_id": "a90d22df55712375fc1fb659f3ecce61", "fusion_lat": 0.0, "name": "a90d22df55712375fc1fb659f3ecce61", "is_reserved": 0, "rental_uris": {"android": "https://dc.lft.to/lastmile_qr_scan", "ios": "https://dc.lft.to/lastmile_qr_scan"}, "fusion_lon": 0.0}, {"lat": 38.90109916666667, "is_disabled": 0, "type": "electric_scooter", "lon": -77.0590065, "bike_id": "afa62c05fb2ad01662213d52f7bd88f5", "fusion_lat": 0.0, "name": "afa62c05fb2ad01662213d52f7bd88f5", "is_reserved": 0, "rental_uris": {"android": "https://dc.lft.to/lastmile_qr_scan", "ios": "https://dc.lft.to/lastmile_qr_scan"}, "fusion_lon": 0.0}, {"lat": 38.907456833333335, "is_disabled": 0, "type": "electric_scooter", "lon": -77.02945933333334, "bike_id": "1ca637a485f269b2aabaa87b863246ff", "fusion_lat": 0.0, "name": "1ca637a485f269b2aabaa87b863246ff", "is_reserved": 0, "rental_uris": {"android": "https://dc.lft.to/lastmile_qr_scan", "ios": "https://dc.lft.to/lastmile_qr_scan"}, "fusion_lon": 0.0}, {"lat": 38.898898333333335, "is_disabled": 0, "type": "electric_scooter", "lon": -77.07235383333334, "bike_id": "3a84447202dc8c714b084f8be8150074", "fusion_lat": 0.0, "name": "3a84447202dc8c714b084f8be8150074", "is_reserved": 0, "rental_uris": {"android": "https://dc.lft.to/lastmile_qr_scan", "ios": "https://dc.lft.to/lastmile_qr_scan"}, "fusion_lon": 0.0}, {"lat": 38.87301516666667, "is_disabled": 0, "type": "electric_scooter", "lon": -76.99964933333334, "bike_id": "ba852fc6bdea2ce7307e6a1b33faa7bc", "fusion_lat": 0.0, "name": "ba852fc6bdea2ce7307e6a1b33faa7bc", "is_reserved": 0, "rental_uris": {"android": "https://dc.lft.to/lastmile_qr_scan", "ios": "https://dc.lft.to/lastmile_qr_scan"}, "fusion_lon": 0.0}, {"lat": 38.912534, "is_disabled": 0, "type": "electric_scooter", "lon": -77.04667483333333, "bike_id": "3c60ffc8b26e889fc5c8a61f2a80bb26", "fusion_lat": 0.0, "name": "3c60ffc8b26e889fc5c8a61f2a80bb26", "is_reserved": 0, "rental_uris": {"android": "https://dc.lft.to/lastmile_qr_scan", "ios": "https://dc.lft.to/lastmile_qr_scan"}, "fusion_lon": 0.0}, {"lat": 38.919151166666666, "is_disabled": 0, "type": "electric_scooter", "lon": -77.02404133333333, "bike_id": "19b9d060e8aa5a08bf81ea432f01d919", "fusion_lat": 0.0, "name": "19b9d060e8aa5a08bf81ea432f01d919", "is_reserved": 0, "rental_uris": {"android": "https://dc.lft.to/lastmile_qr_scan", "ios": "https://dc.lft.to/lastmile_qr_scan"}, "fusion_lon": 0.0}, {"lat": 38.95198383333334, "is_disabled": 0, "type": "electric_bike", "lon": -76.9672375, "bike_id": "834e887d0bfeb13fc34809905be492d1", "fusion_lat": 0.0, "name": "834e887d0bfeb13fc34809905be492d1", "is_reserved": 0, "rental_uris": {"android": "https://dc.lft.to/lastmile_qr_scan", "ios": "https://dc.lft.to/lastmile_qr_scan"}, "fusion_lon": 0.0}, {"lat": 38.863907833333336, "is_disabled": 0, "type": "electric_bike", "lon": -76.98990916666666, "bike_id": "a4ddfb3e45cd8503cb190d6e1e6023c4", "fusion_lat": 0.0, "name": "a4ddfb3e45cd8503cb190d6e1e6023c4", "is_reserved": 0, "rental_uris": {"android": "https://dc.lft.to/lastmile_qr_scan", "ios": "https://dc.lft.to/lastmile_qr_scan"}, "fusion_lon": 0.0}, {"lat": 38.85325783333333, "is_disabled": 0, "type": "electric_bike", "lon": -76.98005766666667, "bike_id": "4489ec4b75caa8d57a2146113bb12a57", "fusion_lat": 0.0, "name": "4489ec4b75caa8d57a2146113bb12a57", "is_reserved": 0, "rental_uris": {"android": "https://dc.lft.to/lastmile_qr_scan", "ios": "https://dc.lft.to/lastmile_qr_scan"}, "fusion_lon": 0.0}, {"lat": 39.0001585, "is_disabled": 0, "type": "electric_bike", "lon": -76.9108305, "bike_id": "a34b6229a06b551d18ac87b0b0d65749", "fusion_lat": 0.0, "name": "a34b6229a06b551d18ac87b0b0d65749", "is_reserved": 0, "rental_uris": {"android": "https://dc.lft.to/lastmile_qr_scan", "ios": "https://dc.lft.to/lastmile_qr_scan"}, "fusion_lon": 0.0}, {"lat": 38.928042166666664, "is_disabled": 0, "type": "electric_scooter", "lon": -77.05529283333334, "bike_id": "f3a41cc38fd5b9c6fd491bf74ea4e197", "fusion_lat": 0.0, "name": "f3a41cc38fd5b9c6fd491bf74ea4e197", "is_reserved": 0, "rental_uris": {"android": "https://dc.lft.to/lastmile_qr_scan", "ios": "https://dc.lft.to/lastmile_qr_scan"}, "fusion_lon": 0.0}, {"lat": 38.93148766666667, "is_disabled": 0, "type": "electric_scooter", "lon": -77.04424916666666, "bike_id": "6adc6a723f959a6532552443375030fb", "fusion_lat": 0.0, "name": "6adc6a723f959a6532552443375030fb", "is_reserved": 0, "rental_uris": {"android": "https://dc.lft.to/lastmile_qr_scan", "ios": "https://dc.lft.to/lastmile_qr_scan"}, "fusion_lon": 0.0}, {"lat": 38.86554833333334, "is_disabled": 0, "type": "electric_scooter", "lon": -76.97412083333333, "bike_id": "0bf33a2d23c3f75637c8f9636f6d6b26", "fusion_lat": 0.0, "name": "0bf33a2d23c3f75637c8f9636f6d6b26", "is_reserved": 0, "rental_uris": {"android": "https://dc.lft.to/lastmile_qr_scan", "ios": "https://dc.lft.to/lastmile_qr_scan"}, "fusion_lon": 0.0}, {"lat": 38.920685666666664, "is_disabled": 0, "type": "electric_scooter", "lon": -77.02714016666667, "bike_id": "32ee1ec06102ec1c5820c2ffc87403a3", "fusion_lat": 0.0, "name": "32ee1ec06102ec1c5820c2ffc87403a3", "is_reserved": 0, "rental_uris": {"android": "https://dc.lft.to/lastmile_qr_scan", "ios": "https://dc.lft.to/lastmile_qr_scan"}, "fusion_lon": 0.0}, {"lat": 38.900901833333336, "is_disabled": 0, "type": "electric_scooter", "lon": -77.04913816666667, "bike_id": "389a68c277790078c59432e4a028471b", "fusion_lat": 0.0, "name": "389a68c277790078c59432e4a028471b", "is_reserved": 0, "rental_uris": {"android": "https://dc.lft.to/lastmile_qr_scan", "ios": "https://dc.lft.to/lastmile_qr_scan"}, "fusion_lon": 0.0},