{"data": {"bikes": [{"rental_uris": {"ios": "https://dc.lft.to/lastmile_qr_scan", "android": "https://dc.lft.to/lastmile_qr_scan"}, "lat": 38.91873, "lon": -76.999436, "fusion_lat": 0.0, "name": "29cff2e435dfb7a9a3bd5cc888836903", "is_disabled": 0, "is_reserved": 0, "bike_id": "29cff2e435dfb7a9a3bd5cc888836903", "fusion_lon": 0.0, "type": "electric_scooter"}, {"rental_uris": {"ios": "https://dc.lft.to/lastmile_qr_scan", "android": "https://dc.lft.to/lastmile_qr_scan"}, "lat": 38.906788666666664, "lon": -77.00022516666667, "fusion_lat": 0.0, "name": "10957f8fe32f9f1a40ce869718799ba4", "is_disabled": 0, "is_reserved": 0, "bike_id": "10957f8fe32f9f1a40ce869718799ba4", "fusion_lon": 0.0, "type": "electric_scooter"}, {"rental_uris": {"ios": "https://dc.lft.to/lastmile_qr_scan", "android": "https://dc.lft.to/lastmile_qr_scan"}, "lat": 38.9187315, "lon": -77.03760133333333, "fusion_lat": 0.0, "name": "e09ae585109f1ac5a127d9777fbcc3df", "is_disabled": 0, "is_reserved": 0, "bike_id": "e09ae585109f1ac5a127d9777fbcc3df", "fusion_lon": 0.0, "type": "electric_scooter"}, {"rental_uris": {"ios": "https://dc.lft.to/lastmile_qr_scan", "android": "https://dc.lft.to/lastmile_qr_scan"}, "lat": 38.926153666666664, "lon": -77.01328316666667, "fusion_lat": 0.0, "name": "47aad57ab918b45000a8891df3aa784d", "is_disabled": 0, "is_reserved": 0, "bike_id": "47aad57ab918b45000a8891df3aa784d", "fusion_lon": 0.0, "type": "electric_scooter"}, {"rental_uris": {"ios": "https://dc.lft.to/lastmile_qr_scan", "android": "https://dc.lft.to/lastmile_qr_scan"}, "lat": 38.90191983333333, "lon": -76.97878933333334, "fusion_lat": 0.0, "name": "7c22d71b10dd78e4910c35d7e1be2128", "is_disabled": 0, "is_reserved": 0, "bike_id": "7c22d71b10dd78e4910c35d7e1be2128", "fusion_lon": 0.0, "type": "electric_scooter"}, {"rental_uris": {"ios": "https://dc.lft.to/lastmile_qr_scan", "android": "https://dc.lft.to/lastmile_qr_scan"}, "lat": 38.9184665, "lon": -77.04831866666666, "fusion_lat": 0.0, "name": "506c1cf3d4e42b6f9b423dba16f1afb1", "is_disabled": 0, "is_reserved": 0, "bike_id": "506c1cf3d4e42b6f9b423dba16f1afb1", "fusion_lon": 0.0, "type": "electric_scooter"}, {"rental_uris": {"ios": "https://dc.lft.to/lastmile_qr_scan", "android": "https://dc.lft.to/lastmile_qr_scan"}, "lat": 38.919084833333336, "lon": -77.0134725, "fusion_lat": 0.0, "name": "3e61c1e364de99119990b44252f42be2", "is_disabled": 0, "is_reserved": 0, "bike_id": "3e61c1e364de99119990b44252f42be2", "fusion_lon": 0.0, "type": "electric_scooter"}, {"rental_uris": {"ios": "https://dc.lft.to/lastmile_qr_scan", "android": "https://dc.lft.to/lastmile_qr_scan"}, "lat": 38.901151166666665, "lon": -77.02705733333333, "fusion_lat": 0.0, "name": "aef90b4348d4baf1618a43e972454223", "is_disabled": 0, "is_reserved": 0, "bike_id": "aef90b4348d4baf1618a43e972454223", "fusion_lon": 0.0, "type": "electric_scooter"}, {"rental_uris": {"ios": "https://dc.lft.to/lastmile_qr_scan", "android": "https://dc.lft.to/lastmile_qr_scan"}, "lat": 38.915287166666666, "lon": -76.98348433333334, "fusion_lat": 0.0, "name": "45a6e9158b34157a600625142dcfa8d1", "is_disabled": 0, "is_reserved": 0, "bike_id": "45a6e9158b34157a600625142dcfa8d1", "fusion_lon": 0.0, "type": "electric_scooter"}, {"rental_uris": {"ios": "https://dc.lft.to/lastmile_qr_scan", "android": "https://dc.lft.to/lastmile_qr_scan"}, "lat": 38.932449166666665, "lon": -76.995156, "fusion_lat": 0.0, "name": "92c4662cede81348a034b70b5f4109ee", "is_disabled": 0, "is_reserved": 0, "bike_id": "92c4662cede81348a034b70b5f4109ee", "fusion_lon": 0.0, "type": "electric_scooter"}, {"rental_uris": {"ios": "https://dc.lft.to/lastmile_qr_scan", "android": "https://dc.lft.to/lastmile_qr_scan"}, "lat": 38.9065505, "lon": -77.0094945, "fusion_lat": 0.0, "name": "4e15e67e45981d0fb398762766c01679", "is_disabled": 0, "is_reserved": 0, "bike_id": "4e15e67e45981d0fb398762766c01679", "fusion_lon": 0.0, "type": "electric_scooter"}, {"rental_uris": {"ios": "https://dc.lft.to/lastmile_qr_scan", "android": "https://dc.lft.to/lastmile_qr_scan"}, "lat": 38.929456, "lon": -77.03770083333333, "fusion_lat": 0.0, "name": "05da55c2a7f2b95d53e408fe5997f41e", "is_disabled": 0, "is_reserved": 0, "bike_id": "05da55c2a7f2b95d53e408fe5997f41e", "fusion_lon": 0.0, "type": "electric_scooter"}, {"rental_uris": {"ios": "https://dc.lft.to/lastmile_qr_scan", "android": "https://dc.lft.to/lastmile_qr_scan"}, "lat": 38.912499333333336, "lon": -77.03396633333334, "fusion_lat": 0.0, "name": "c2338beea24af8ebabda3f368f5708df", "is_disabled": 0, "is_reserved": 0, "bike_id": "c2338beea24af8ebabda3f368f5708df", "fusion_lon": 0.0, "type": "electric_scooter"}, {"rental_uris": {"ios": "https://dc.lft.to/lastmile_qr_scan", "android": "https://dc.lft.to/lastmile_qr_scan"}, "lat": 38.878864, "lon": -77.02242983333333, "fusion_lat": 0.0, "name": "56332a98125030016c170ac5ca366899", "is_disabled": 0, "is_reserved": 0, "bike_id": "56332a98125030016c170ac5ca366899", "fusion_lon": 0.0, "type": "electric_scooter"}, {"rental_uris": {"ios": "https://dc.lft.to/lastmile_qr_scan", "android": "https://dc.lft.to/lastmile_qr_scan"}, "lat": 38.905686, "lon": -77.06271616666666, "fusion_lat": 0.0, "name": "1a868e1150c6e8e34d9f5b0b253dfae9", "is_disabled": 0, "is_reserved": 0, "bike_id": "1a868e1150c6e8e34d9f5b0b253dfae9", "fusion_lon": 0.0, "type": "electric_scooter"}, {"rental_uris": {"ios": "https://dc.lft.to/lastmile_qr_scan", "android": "https://dc.lft.to/lastmile_qr_scan"}, "lat": 38.917077, "lon": -77.031924, "fusion_lat": 0.0, "name": "cbd8d94893dca384bf3c419cfac5aa57", "is_disabled": 0, "is_reserved": 0, "bike_id": "cbd8d94893dca384bf3c419cfac5aa57", "fusion_lon": 0.0, "type": "electric_scooter"}, {"rental_uris": {"ios": "https://dc.lft.to/lastmile_qr_scan", "android": "https://dc.lft.to/lastmile_qr_scan"}, "lat": 38.9196145, "lon": -77.03210633333333, "fusion_lat": 0.0, "name": "685a71e7a30a41f2d2662a459d2cab3d", "is_disabled": 0, "is_reserved": 0, "bike_id": "685a71e7a30a41f2d2662a459d2cab3d", "fusion_lon": 0.0, "type": "electric_scooter"}, {"rental_uris": {"ios": "https://dc.lft.to/lastmile_qr_scan", "android": "https://dc.lft.to/lastmile_qr_scan"}, "lat": 38.94193633333333, "lon": -77.03840583333333, "fusion_lat": 0.0, "name": "46eafbd46df41d839d4539b3326b34c4", "is_disabled": 0, "is_reserved": 0, "bike_id": "46eafbd46df41d839d4539b3326b34c4", "fusion_lon": 0.0, "type": "electric_scooter"}, {"rental_uris": {"ios": "https://dc.lft.to/lastmile_qr_scan", "android": "https://dc.lft.to/lastmile_qr_scan"}, "lat": 38.89749033333333, "lon": -77.02569283333334, "fusion_lat": 0.0, "name": "1b1310f9c3db9b4ff9dc7824866047f5", "is_disabled": 0, "is_reserved": 0, "bike_id": "1b1310f9c3db9b4ff9dc7824866047f5", "fusion_lon": 0.0, "type": "electric_scooter"}, {"rental_uris": {"ios": "https://dc.lft.to/lastmile_qr_scan", "android": "https://dc.lft.to/lastmile_qr_scan"}, "lat": 38.91016183333333, "lon": -77.028534, "fusion_lat": 0.0, "name": "b180ad1d41226af61b599bb4a2f1ba5a", "is_disabled": 0, "is_reserved": 0, "bike_id": "b180ad1d41226af61b599bb4a2f1ba5a", "fusion_lon": 0.0, "type": "electric_scooter"}, {"rental_uris": {"ios": "https://dc.lft.to/lastmile_qr_scan", "android": "https://dc.lft.to/lastmile_qr_scan"}, "lat": 38.88654533333333, "lon": -77.028181, "fusion_lat": 0.0, "name": "83726b43a6f8be95f8b31edfd1e1af03", "is_disabled": 0, "is_reserved": 0, "bike_id": "83726b43a6f8be95f8b31edfd1e1af03", "fusion_lon": 0.0, "type": "electric_scooter"}, {"rental_uris": {"ios": "https://dc.lft.to/lastmile_qr_scan", "android": "https://dc.lft.to/lastmile_qr_scan"}, "lat": 38.917026166666666, "lon": -77.022997, "fusion_lat": 0.0, "name": "1f38d70a62fb55110c188de86815b2a9", "is_disabled": 0, "is_reserved": 0, "bike_id": "1f38d70a62fb55110c188de86815b2a9", "fusion_lon": 0.0, "type": "electric_scooter"}, {"rental_uris": {"ios": "https://dc.lft.to/lastmile_qr_scan", "android": "https://dc.lft.to/lastmile_qr_scan"}, "lat": 38.89522516666667, "lon": -77.02290933333333, "fusion_lat": 0.0, "name": "acfab78afaa4fb2dab3979bcafa537b7", "is_disabled": 0, "is_reserved": 0, "bike_id": "acfab78afaa4fb2dab3979bcafa537b7", "fusion_lon": 0.0, "type": "electric_scooter"}, {"rental_uris": {"ios": "https://dc.lft.to/lastmile_qr_scan", "android": "https://dc.lft.to/lastmile_qr_scan"}, "lat": 38.87478566666667, "lon": -76.96522916666666, "fusion_lat": 0.0, "name": "5b7aa561227e25a51e8cafad94da088b", "is_disabled": 0, "is_reserved": 0, "bike_id": "5b7aa561227e25a51e8cafad94da088b", "fusion_lon": 0.0, "type": "electric_bike"}, {"rental_uris": {"ios": "https://dc.lft.to/lastmile_qr_scan", "android": "https://dc.lft.to/lastmile_qr_scan"}, "lat": 38.901666, "lon": -76.93017133333333, "fusion_lat": 0.0, "name": "8c824207c36d64b123bb82d4a56a42c1", "is_disabled": 0, "is_reserved": 0, "bike_id": "8c824207c36d64b123bb82d4a56a42c1", "fusion_lon": 0.0, "type": "electric_scooter"}, {"rental_uris": {"ios": "https://dc.lft.to/lastmile_qr_scan", "android": "https://dc.lft.to/lastmile_qr_scan"}, "lat": 38.798534333333336, "lon": -77.0630595, "fusion_lat": 0.0, "name": "bba3b252433453b59ca1b136dd4b800d", "is_disabled": 0, "is_reserved": 0, "bike_id": "bba3b252433453b59ca1b136dd4b800d", "fusion_lon": 0.0, "type": "electric_bike"}, {"rental_uris": {"ios": "https://dc.lft.to/lastmile_qr_scan", "android": "https://dc.lft.to/lastmile_qr_scan"}, "lat": 38.906310833333336, "lon": -77.025993, "fusion_lat": 0.0, "name": "247d6a3cf4eba7d75f696dfb12f0d755", "is_disabled": 0, "is_reserved": 0, "bike_id": "247d6a3cf4eba7d75f696dfb12f0d755", "fusion_lon": 0.0, "type": "electric_scooter"}, {"rental_uris": {"ios": "https://dc.lft.to/lastmile_qr_scan", "android": "https://dc.lft.to/lastmile_qr_scan"}, "lat": 38.9150275, "lon": -77.01771166666667, "fusion_lat": 0.0, "name": "f8e8f5c1d9d49cb8044278339c9a04fd", "is_disabled": 0, "is_reserved": 0, "bike_id": "f8e8f5c1d9d49cb8044278339c9a04fd", "fusion_lon": 0.0, "type": "electric_scooter"}, {"rental_uris": {"ios": "https://dc.lft.to/lastmile_qr_scan", "android": "https://dc.lft.to/lastmile_qr_scan"}, "lat": 38.87666, "lon": -77.0042735, "fusion_lat": 0.0, "name": "4eed8ea42d6aacd36398269d17dc8bc9", "is_disabled": 0, "is_reserved": 0, "bike_id": "4eed8ea42d6aacd36398269d17dc8bc9", "fusion_lon": 0.0, "type": "electric_scooter"}, {"rental_uris": {"ios": "https://dc.lft.to/lastmile_qr_scan", "android": "https://dc.lft.to/lastmile_qr_scan"}, "lat": 38.94472783333333, "lon": -77.0234065, "fusion_lat": 0.0, "name": "740bb538e47b29cf9c404a5e058f3eff", "is_disabled": 0, "is_reserved": 0, "bike_id": "740bb538e47b29cf9c404a5e058f3eff", "fusion_lon": 0.0, "type": "electric_scooter"}, {"rental_uris": {"ios": "https://dc.lft.to/lastmile_qr_scan", "android": "https://dc.lft.to/lastmile_qr_scan"}, "lat": 38.95633933333333, "lon": -77.011598, "fusion_lat": 0.0, "name": "4a35bde491abef9c381d229c8418d89f", "is_disabled": 0, "is_reserved": 0, "bike_id": "4a35bde491abef9c381d229c8418d89f", "fusion_lon": 0.0, "type": "electric_scooter"}, {"rental_uris": {"ios": "https://dc.lft.to/lastmile_qr_scan", "android": "https://dc.lft.to/lastmile_qr_scan"}, "lat": 38.91698616666667, "lon": -77.01187916666667, "fusion_lat": 0.0, "name": "1f13967cd48c05108df02eea60e20255", "is_disabled": 0, "is_reserved": 0, "bike_id": "1f13967cd48c05108df02eea60e20255", "fusion_lon": 0.0, "type": "electric_scooter"}, {"rental_uris": {"ios": "https://dc.lft.to/lastmile_qr_scan", "android": "https://dc.lft.to/lastmile_qr_scan"}, "lat": 38.901994333333334, "lon": -77.02122116666666, "fusion_lat": 0.0, "name": "0d24578ca057365ae7b07adc3cbd74dc", "is_disabled": 0, "is_reserved": 0, "bike_id": "0d24578ca057365ae7b07adc3cbd74dc", "fusion_lon": 0.0, "type": "electric_scooter"}, {"rental_uris": {"ios": "https://dc.lft.to/lastmile_qr_scan", "android": "https://dc.lft.to/lastmile_qr_scan"}, "lat": 38.937046, "lon": -77.02399683333333, "fusion_lat": 0.0, "name": "ccb6c647a3ae8540917605c1cde8a09c", "is_disabled": 0, "is_reserved": 0, "bike_id": "ccb6c647a3ae8540917605c1cde8a09c", "fusion_lon": 0.0, "type": "electric_scooter"}, {"rental_uris": {"ios": "https://dc.lft.to/lastmile_qr_scan", "android": "https://dc.lft.to/lastmile_qr_scan"}, "lat": 38.88649983333333, "lon": -77.00117083333333, "fusion_lat": 0.0, "name": "c17b92df104a6c2f1c0c04820c0e6d77", "is_disabled": 0, "is_reserved": 0, "bike_id": "c17b92df104a6c2f1c0c04820c0e6d77", "fusion_lon": 0.0, "type": "electric_scooter"}, {"rental_uris": {"ios": "https://dc.lft.to/lastmile_qr_scan", "android": "https://dc.lft.to/lastmile_qr_scan"}, "lat": 38.921445166666665, "lon": -77.0206915, "fusion_lat": 0.0, "name": "84d5eb14392563cc7bdb48ee5fc560ab", "is_disabled": 0, "is_reserved": 0, "bike_id": "84d5eb14392563cc7bdb48ee5fc560ab", "fusion_lon": 0.0, "type": "electric_scooter"}, {"rental_uris": {"ios": "https://dc.lft.to/lastmile_qr_scan", "android": "https://dc.lft.to/lastmile_qr_scan"}, "lat": 38.95651983333333, "lon": -77.00999833333333, "fusion_lat": 0.0, "name": "8682823d5e4814e2e410067e3ff99d56", "is_disabled": 0, "is_reserved": 0, "bike_id": "8682823d5e4814e2e410067e3ff99d56", "fusion_lon": 0.0, "type": "electric_scooter"}, {"rental_uris": {"ios": "https://dc.lft.to/lastmile_qr_scan", "android": "https://dc.lft.to/lastmile_qr_scan"}, "lat": 38.921437833333336, "lon": -77.03504633333333, "fusion_lat": 0.0, "name": "740dd8ca14060621b0aae06daf83bd4f", "is_disabled": 0, "is_reserved": 0, "bike_id": "740dd8ca14060621b0aae06daf83bd4f", "fusion_lon": 0.0, "type": "electric_scooter"}, {"rental_uris": {"ios": "https://dc.lft.to/lastmile_qr_scan", "android": "https://dc.lft.to/lastmile_qr_scan"}, "lat": 38.91538633333333, "lon": -77.04447616666667, "fusion_lat": 0.0, "name": "8ab45befe772abab272c9f5aa558f504", "is_disabled": 0, "is_reserved": 0, "bike_id": "8ab45befe772abab272c9f5aa558f504", "fusion_lon": 0.0, "type": "electric_scooter"}, {"rental_uris": {"ios": "https://dc.lft.to/lastmile_qr_scan", "android": "https://dc.lft.to/lastmile_qr_scan"}, "lat": 38.897151666666666, "lon": -77.02728533333334, "fusion_lat": 0.0, "name": "37a32fe54b97e9abc8836e33f2d87cc0", "is_disabled": 0, "is_reserved": 0, "bike_id": "37a32fe54b97e9abc8836e33f2d87cc0", "fusion_lon": 0.0, "type": "electric_scooter"}, {"rental_uris": {"ios": "https://dc.lft.to/lastmile_qr_scan", "android": "https://dc.lft.to/lastmile_qr_scan"}, "lat": 38.873793666666664, "lon": -77.00109333333333, "fusion_lat": 0.0, "name": "55e1d38c0f23d5c5f4b7b1d68ee35b09", "is_disabled": 0, "is_reserved": 0, "bike_id": "55e1d38c0f23d5c5f4b7b1d68ee35b09", "fusion_lon": 0.0, "type": "electric_scooter"}, {"rental_uris": {"ios": "https://dc.lft.to/lastmile_qr_scan", "android": "https://dc.lft.to/lastmile_qr_scan"}, "lat": 38.913988833333335, "lon": -77.03671033333333, "fusion_lat": 0.0, "name": "742f0e16311f80c50e3b58aeac9ae635", "is_disabled": 0, "is_reserved": 0, "bike_id": "742f0e16311f80c50e3b58aeac9ae635", "fusion_lon": 0.0, "type": "electric_scooter"}, {"rental_uris": {"ios": "https://dc.lft.to/lastmile_qr_scan", "android": "https://dc.lft.to/lastmile_qr_scan"}, "lat": 38.93887433333333, "lon": -77.02156333333333, "fusion_lat": 0.0, "name": "d8cb6cf34288c4ac91783790dba3d14d", "is_disabled": 0, "is_reserved": 0, "bike_id": "d8cb6cf34288c4ac91783790dba3d14d", "fusion_lon": 0.0, "type": "electric_scooter"}, {"rental_uris": {"ios": "https://dc.lft.to/lastmile_qr_scan", "android": "https://dc.lft.to/lastmile_qr_scan"}, "lat": 38.922175, "lon": -77.04335416666666, "fusion_lat": 0.0, "name": "70f6e1bafeb468133bbcbe7ba0096d00", "is_disabled": 0, "is_reserved": 0, "bike_id": "70f6e1bafeb468133bbcbe7ba0096d00", "fusion_lon": 0.0, "type": "electric_scooter"}, {"rental_uris": {"ios": "https://dc.lft.to/lastmile_qr_scan", "android": "https://dc.lft.to/lastmile_qr_scan"}, "lat": 38.927218, "lon": -77.02074616666667, "fusion_lat": 0.0, "name": "aa1e7eabb3f224f6e6d67a0cd4f5653e", "is_disabled": 0, "is_reserved": 0, "bike_id": "aa1e7eabb3f224f6e6d67a0cd4f5653e", "fusion_lon": 0.0, "type": "electric_scooter"}, {"rental_uris": {"ios": "https://dc.lft.to/lastmile_qr_scan", "android": "https://dc.lft.to/lastmile_qr_scan"}, "lat": 38.8928855, "lon": -77.04481633333333, "fusion_lat": 0.0, "name": "355a9fb5088deeb51e83901db15e2b8a", "is_disabled": 0, "is_reserved": 0, "bike_id": "355a9fb5088deeb51e83901db15e2b8a", "fusion_lon": 0.0, "type": "electric_scooter"}, {"rental_uris": {"ios": "https://dc.lft.to/lastmile_qr_scan", "android": "https://dc.lft.to/lastmile_qr_scan"}, "lat": 38.943263, "lon": -77.076551, "fusion_lat": 0.0, "name": "85ca46ead6d6d244d35be022844693d8", "is_disabled": 0, "is_reserved": 0, "bike_id": "85ca46ead6d6d244d35be022844693d8", "fusion_lon": 0.0, "type": "electric_scooter"}, {"rental_uris": {"ios": "https://dc.lft.to/lastmile_qr_scan", "android": "https://dc.lft.to/lastmile_qr_scan"}, "lat": 38.90719633333333, "lon": -77.03179916666667, "fusion_lat": 0.0, "name": "cdbc59aca7aa70dbebdba17f4269cf44", "is_disabled": 0, "is_reserved": 0, "bike_id": "cdbc59aca7aa70dbebdba17f4269cf44", "fusion_lon": 0.0, "type": "electric_scooter"}, {"rental_uris": {"ios": "https://dc.lft.to/lastmile_qr_scan", "android": "https://dc.lft.to/lastmile_qr_scan"}, "lat": 38.91336883333334, "lon": -77.02757283333334, "fusion_lat": 0.0, "name": "d44889fd7ae1f117627ddd57b1ee2c0e", "is_disabled": 0, "is_reserved": 0, "bike_id": "d44889fd7ae1f117627ddd57b1ee2c0e", "fusion_lon": 0.0, "type": "electric_scooter"}, {"rental_uris": {"ios": "https://dc.lft.to/lastmile_qr_scan", "android": "https://dc.lft.to/lastmile_qr_scan"}, "lat": 38.93423083333333, "lon": -77.04002583333333, "fusion_lat": 0.0, "name": "0e0ba5c509b656a8666115ac9acf53e3", "is_disabled": 0, "is_reserved": 0, "bike_id": "0e0ba5c509b656a8666115ac9acf53e3", "fusion_lon": 0.0, "type": "electric_scooter"}, {"rental_uris": {"ios": "https://dc.lft.to/lastmile_qr_scan", "android": "https://dc.lft.to/lastmile_qr_scan"}, "lat": 38.90012883333333, "lon": -76.98592733333334, "fusion_lat": 0.0, "name": "132f01c83d0aa27ee9a4e41c1ee945b6", "is_disabled": 0, "is_reserved": 0, "bike_id": "132f01c83d0aa27ee9a4e41c1ee945b6", "fusion_lon": 0.0, "type": "electric_scooter"}, {"rental_uris": {"ios": "https://dc.lft.to/lastmile_qr_scan", "android": "https://dc.lft.to/lastmile_qr_scan"}, "lat": 38.881850666666665, "lon": -77.02090183333334, "fusion_lat": 0.0, "name": "62994e39b6e07d6c221ce9d8f75b6b30", "is_disabled": 0, "is_reserved": 0, "bike_id": "62994e39b6e07d6c221ce9d8f75b6b30", "fusion_lon": 0.0, "type": "electric_scooter"}, {"rental_uris": {"ios": "https://dc.lft.to/lastmile_qr_scan", "android": "https://dc.lft.to/lastmile_qr_scan"}, "lat": 38.88343966666667, "lon": -76.99492733333334, "fusion_lat": 0.0, "name": "a61c3196cbb6587d2603a66cfe73d905", "is_disabled": 0, "is_reserved": 0, "bike_id": "a61c3196cbb6587d2603a66cfe73d905", "fusion_lon": 0.0, "type": "electric_scooter"}, {"rental_uris": {"ios": "https://dc.lft.to/lastmile_qr_scan", "android": "https://dc.lft.to/lastmile_qr_scan"}, "lat": 38.94992416666667, "lon": -77.01829333333333, "fusion_lat": 0.0, "name": "691f52ef82458a06f0910d682e0e409a", "is_disabled": 0, "is_reserved": 0, "bike_id": "691f52ef82458a06f0910d682e0e409a", "fusion_lon": 0.0, "type": "electric_scooter"}, {"rental_uris": {"ios": "https://dc.lft.to/lastmile_qr_scan", "android": "https://dc.lft.to/lastmile_qr_scan"}, "lat": 38.900603, "lon": -77.01316566666667, "fusion_lat": 0.0, "name": "0eaea7b7bad66a171c0e746f842d88af", "is_disabled": 0, "is_reserved": 0, "bike_id": "0eaea7b7bad66a171c0e746f842d88af", "fusion_lon": 0.0, "type": "electric_scooter"}, {"rental_uris": {"ios": "https://dc.lft.to/lastmile_qr_scan", "android": "https://dc.lft.to/lastmile_qr_scan"}, "lat": 38.923178666666665, "lon": -77.04443533333334, "fusion_lat": 0.0, "name": "7a3c98676e0f05366bc6ea800becaf1e", "is_disabled": 0, "is_reserved": 0, "bike_id": "7a3c98676e0f05366bc6ea800becaf1e", "fusion_lon": 0.0, "type": "electric_scooter"}, {"rental_uris": {"ios": "https://dc.lft.to/lastmile_qr_scan", "android": "https://dc.lft.to/lastmile_qr_scan"}, "lat": 38.876621, "lon": -77.0043055, "fusion_lat": 0.0, "name": "2594ead304e40936a91c1dc49ff92023", "is_disabled": 0, "is_reserved": 0, "bike_id": "2594ead304e40936a91c1dc49ff92023", "fusion_lon": 0.0, "type": "electric_scooter"}, {"rental_uris": {"ios": "https://dc.lft.to/lastmile_qr_scan", "android": "https://dc.lft.to/lastmile_qr_scan"}, "lat": 38.876235333333334, "lon": -76.96525866666667, "fusion_lat": 0.0, "name": "ca514194eca43a13fc85fec254694019", "is_disabled": 0, "is_reserved": 0, "bike_id": "ca514194eca43a13fc85fec254694019", "fusion_lon": 0.0, "type": "electric_scooter"}, {"rental_uris": {"ios": "https://dc.lft.to/lastmile_qr_scan", "android": "https://dc.lft.to/lastmile_qr_scan"}, "lat": 38.913306166666665, "lon": -77.02692483333334, "fusion_lat": 0.0, "name": "fae0c27c78242a05e7c9017db2acc767", "is_disabled": 0, "is_reserved": 0, "bike_id": "fae0c27c78242a05e7c9017db2acc767", "fusion_lon": 0.0, "type": "electric_scooter"}, {"rental_uris": {"ios": "https://dc.lft.to/lastmile_qr_scan", "android": "https://dc.lft.to/lastmile_qr_scan"}, "lat": 38.90063583333333, "lon": -76.92738566666667, "fusion_lat": 0.0, "name": "834ea4b20ccd23b7e83e96a65e4400c7", "is_disabled": 0, "is_reserved": 0, "bike_id": "834ea4b20ccd23b7e83e96a65e4400c7", "fusion_lon": 0.0, "type": "electric_scooter"}, {"rental_uris": {"ios": "https://dc.lft.to/lastmile_qr_scan", "android": "https://dc.lft.to/lastmile_qr_scan"}, "lat": 38.9459855, "lon": -77.007058, "fusion_lat": 0.0, "name": "5687a534529e86e29deec0dc0f9f1545", "is_disabled": 0, "is_reserved": 0, "bike_id": "5687a534529e86e29deec0dc0f9f1545", "fusion_lon": 0.0, "type": "electric_bike"}, {"rental_uris": {"ios": "https://dc.lft.to/lastmile_qr_scan", "android": "https://dc.lft.to/lastmile_qr_scan"}, "lat": 38.860586, "lon": -76.98511516666667, "fusion_lat": 0.0, "name": "ae4078ae2e8df089c4a86c989c5a304c", "is_disabled": 0, "is_reserved": 0, "bike_id": "ae4078ae2e8df089c4a86c989c5a304c", "fusion_lon": 0.0, "type": "electric_scooter"}, {"rental_uris": {"ios": "https://dc.lft.to/lastmile_qr_scan", "android": "https://dc.lft.to/lastmile_qr_scan"}, "lat": 38.9187535, "lon": -77.04174833333333, "fusion_lat": 0.0, "name": "d212eff27cf221e95a1526c35ce02c06", "is_disabled": 0, "is_reserved": 0, "bike_id": "d212eff27cf221e95a1526c35ce02c06", "fusion_lon": 0.0, "type": "electric_scooter"}, {"rental_uris": {"ios": "https://dc.lft.to/lastmile_qr_scan", "android": "https://dc.lft.to/lastmile_qr_scan"}, "lat": 38.9234565, "lon": -77.0350835, "fusion_lat": 0.0, "name": "be03740aa1b5ad3e43dfae7ac1e0976e", "is_disabled": 0, "is_reserved": 0, "bike_id": "be03740aa1b5ad3e43dfae7ac1e0976e", "fusion_lon": 0.0, "type": "electric_scooter"}, {"rental_uris": {"ios": "https://dc.lft.to/lastmile_qr_scan", "android": "https://dc.lft.to/lastmile_qr_scan"}, "lat": 38.91708066666666, "lon": -77.02297366666667, "fusion_lat": 0.0, "name": "a496c1500f0d109312dc04e453bd5c93", "is_disabled": 0, "is_reserved": 0, "bike_id": "a496c1500f0d109312dc04e453bd5c93", "fusion_lon": 0.0, "type": "electric_scooter"}, {"rental_uris": {"ios": "https://dc.lft.to/lastmile_qr_scan", "android": "https://dc.lft.to/lastmile_qr_scan"}, "lat": 38.886541666666666, "lon": -77.02820933333334, "fusion_lat": 0.0, "name": "6dcdf4c95175d5e91abd6b6f67fcfe44", "is_disabled": 0, "is_reserved": 0, "bike_id": "6dcdf4c95175d5e91abd6b6f67fcfe44", "fusion_lon": 0.0, "type": "electric_scooter"}, {"rental_uris": {"ios": "https://dc.lft.to/lastmile_qr_scan", "android": "https://dc.lft.to/lastmile_qr_scan"}, "lat": 38.909609, "lon": -77.02278683333333, "fusion_lat": 0.0, "name": "467e6e772fbd5984f49ac51361802f52", "is_disabled": 0, "is_reserved": 0, "bike_id": "467e6e772fbd5984f49ac51361802f52", "fusion_lon": 0.0, "type": "electric_scooter"}, {"rental_uris": {"ios": "https://dc.lft.to/lastmile_qr_scan", "android": "https://dc.lft.to/lastmile_qr_scan"}, "lat": 38.918033, "lon": -77.00925266666667, "fusion_lat": 0.0, "name": "43f4d3084fcd5fdafbc1360dccfe9fb1", "is_disabled": 0, "is_reserved": 0, "bike_id": "43f4d3084fcd5fdafbc1360dccfe9fb1", "fusion_lon": 0.0, "type": "electric_scooter"}, {"rental_uris": {"ios": "https://dc.lft.to/lastmile_qr_scan", "android": "https://dc.lft.to/lastmile_qr_scan"}, "lat": 38.91683533333333, "lon": -77.02376633333333, "fusion_lat": 0.0, "name": "21ec1d29501cb4ad50d1f18e9483ec04", "is_disabled": 0, "is_reserved": 0, "bike_id": "21ec1d29501cb4ad50d1f18e9483ec04", "fusion_lon": 0.0, "type": "electric_scooter"}, {"rental_uris": {"ios": "https://dc.lft.to/lastmile_qr_scan", "android": "https://dc.lft.to/lastmile_qr_scan"}, "lat": 38.80972933333334, "lon": -77.08625583333334, "fusion_lat": 0.0, "name": "d41ca770f0ef932a69442bf85c78db4a", "is_disabled": 0, "is_reserved": 0, "bike_id": "d41ca770f0ef932a69442bf85c78db4a", "fusion_lon": 0.0, "type": "electric_bike"}, {"rental_uris": {"ios": "https://dc.lft.to/lastmile_qr_scan", "android": "https://dc.lft.to/lastmile_qr_scan"}, "lat": 38.924062666666664, "lon": -77.01939466666667, "fusion_lat": 0.0, "name": "86805ea3f5c0089e7468f890b82b5cc9", "is_disabled": 0, "is_reserved": 0, "bike_id": "86805ea3f5c0089e7468f890b82b5cc9", "fusion_lon": 0.0, "type": "electric_scooter"}, {"rental_uris": {"ios": "https://dc.lft.to/lastmile_qr_scan", "android": "https://dc.lft.to/lastmile_qr_scan"}, "lat": 38.93521166666667, "lon": -76.96447183333333, "fusion_lat": 0.0, "name": "e6835caf26ebc290daca843a5b0dbf6c", "is_disabled": 0, "is_reserved": 0, "bike_id": "e6835caf26ebc290daca843a5b0dbf6c", "fusion_lon": 0.0, "type": "electric_bike"}, {"rental_uris": {"ios": "https://dc.lft.to/lastmile_qr_scan", "android": "https://dc.lft.to/lastmile_qr_scan"}, "lat": 38.998533333333334, "lon": -77.028879, "fusion_lat": 0.0, "name": "78dc6554ad0af1641bf065775848eadb", "is_disabled": 0, "is_reserved": 0, "bike_id": "78dc6554ad0af1641bf065775848eadb", "fusion_lon": 0.0, "type": "electric_bike"}, {"rental_uris": {"ios": "https://dc.lft.to/lastmile_qr_scan", "android": "https://dc.lft.to/lastmile_qr_scan"}, "lat": 38.91755333333333, "lon": -77.04763983333333, "fusion_lat": 0.0, "name": "ba29dca6c89bc3f5df6ff379643d82ac", "is_disabled": 0, "is_reserved": 0, "bike_id": "ba29dca6c89bc3f5df6ff379643d82ac", "fusion_lon": 0.0, "type": "electric_scooter"}, {"rental_uris": {"ios": "https://dc.lft.to/lastmile_qr_scan", "android": "https://dc.lft.to/lastmile_qr_scan"}, "lat": 38.9149215, "lon": -77.0218285, "fusion_lat": 0.0, "name": "1d3a50fb95a977cd3d9a599d029a9b8d", "is_disabled": 0, "is_reserved": 0, "bike_id": "1d3a50fb95a977cd3d9a599d029a9b8d", "fusion_lon": 0.0, "type": "electric_scooter"}, {"rental_uris": {"ios": "https://dc.lft.to/lastmile_qr_scan", "android": "https://dc.lft.to/lastmile_qr_scan"}, "lat": 38.9154425, "lon": -77.0236505, "fusion_lat": 0.0, "name": "8d97af892b313dffd2283a5ac86e482d", "is_disabled": 0, "is_reserved": 0, "bike_id": "8d97af892b313dffd2283a5ac86e482d", "fusion_lon": 0.0, "type": "electric_scooter"}, {"rental_uris": {"ios": "https://dc.lft.to/lastmile_qr_scan", "android": "https://dc.lft.to/lastmile_qr_scan"}, "lat": 38.909481666666665, "lon": -77.0318135, "fusion_lat": 0.0, "name": "35ed8fecd1628fe1db89f53556b939e9", "is_disabled": 0, "is_reserved": 0, "bike_id": "35ed8fecd1628fe1db89f53556b939e9", "fusion_lon": 0.0, "type": "electric_scooter"}, {"rental_uris": {"ios": "https://dc.lft.to/lastmile_qr_scan", "android": "https://dc.lft.to/lastmile_qr_scan"}, "lat": 38.893984333333336, "lon": -77.01083933333334, "fusion_lat": 0.0, "name": "c7b65b826c0e632efaf4fc64922d1a07", "is_disabled": 0, "is_reserved": 0, "bike_id": "c7b65b826c0e632efaf4fc64922d1a07", "fusion_lon": 0.0, "type": "electric_scooter"}, {"rental_uris": {"ios": "https://dc.lft.to/lastmile_qr_scan", "android": "https://dc.lft.to/lastmile_qr_scan"}, "lat": 38.922547, "lon": -77.03516616666667, "fusion_lat": 0.0, "name": "f90934f4a7983f23dae128a4ff25401e", "is_disabled": 0, "is_reserved": 0, "bike_id": "f90934f4a7983f23dae128a4ff25401e", "fusion_lon": 0.0, "type": "electric_scooter"}, {"rental_uris": {"ios": "https://dc.lft.to/lastmile_qr_scan", "android": "https://dc.lft.to/lastmile_qr_scan"}, "lat": 38.90315416666667, "lon": -76.991257, "fusion_lat": 0.0, "name": "6db8bd6844cfe3935e9c15a3a5225cbf", "is_disabled": 0, "is_reserved": 0, "bike_id": "6db8bd6844cfe3935e9c15a3a5225cbf", "fusion_lon": 0.0, "type": "electric_scooter"}, {"rental_uris": {"ios": "https://dc.lft.to/lastmile_qr_scan", "android": "https://dc.lft.to/lastmile_qr_scan"}, "lat": 38.90773883333333, "lon": -77.0716765, "fusion_lat": 0.0, "name": "a506d2a09ba4b1b5db14351c33bdba77", "is_disabled": 0, "is_reserved": 0, "bike_id": "a506d2a09ba4b1b5db14351c33bdba77", "fusion_lon": 0.0, "type": "electric_scooter"}, {"rental_uris": {"ios": "https://dc.lft.to/lastmile_qr_scan", "android": "https://dc.lft.to/lastmile_qr_scan"}, "lat": 38.94019566666667, "lon": -76.97607666666667, "fusion_lat": 0.0, "name": "f16b7d65f6896f07986944ec5c90d8b1", "is_disabled": 0, "is_reserved": 0, "bike_id": "f16b7d65f6896f07986944ec5c90d8b1", "fusion_lon": 0.0, "type": "electric_scooter"}, {"rental_uris": {"ios": "https://dc.lft.to/lastmile_qr_scan", "android": "https://dc.lft.to/lastmile_qr_scan"}, "lat": 38.9172865, "lon": -77.03656533333333, "fusion_lat": 0.0, "name": "3b4a2752a61db7ee2ba23f3780e593c7", "is_disabled": 0, "is_reserved": 0, "bike_id": "3b4a2752a61db7ee2ba23f3780e593c7", "fusion_lon": 0.0, "type": "electric_scooter"}, {"rental_uris": {"ios": "https://dc.lft.to/lastmile_qr_scan", "android": "https://dc.lft.to/lastmile_qr_scan"}, "lat": 38.892344, "lon": -77.03354433333334, "fusion_lat": 0.0, "name": "d76cd78dbddb6a29dcfd8f5c16629340", "is_disabled": 0, "is_reserved": 0, "bike_id": "d76cd78dbddb6a29dcfd8f5c16629340", "fusion_lon": 0.0, "type": "electric_scooter"}, {"rental_uris": {"ios": "https://dc.lft.to/lastmile_qr_scan", "android": "https://dc.lft.to/lastmile_qr_scan"}, "lat": 38.89664766666667, "lon": -77.03347966666666, "fusion_lat": 0.0, "name": "94fc8b7d810597250851ba98574599f1", "is_disabled": 0, "is_reserved": 0, "bike_id": "94fc8b7d810597250851ba98574599f1", "fusion_lon": 0.0, "type": "electric_scooter"}, {"rental_uris": {"ios": "https://dc.lft.to/lastmile_qr_scan", "android": "https://dc.lft.to/lastmile_qr_scan"}, "lat": 38.917091, "lon": -77.04124683333333, "fusion_lat": 0.0, "name": "6a9e2f39dac02e40b37e82724161374b", "is_disabled": 0, "is_reserved": 0, "bike_id": "6a9e2f39dac02e40b37e82724161374b", "fusion_lon": 0.0, "type": "electric_scooter"}, {"rental_uris": {"ios": "https://dc.lft.to/lastmile_qr_scan", "android": "https://dc.lft.to/lastmile_qr_scan"}, "lat": 38.8940625, "lon": -77.01081283333333, "fusion_lat": 0.0, "name": "5a4b970722dcfeeb4c2d3605537c0b69", "is_disabled": 0, "is_reserved": 0, "bike_id": "5a4b970722dcfeeb4c2d3605537c0b69", "fusion_lon": 0.0, "type": "electric_scooter"}, {"rental_uris": {"ios": "https://dc.lft.to/lastmile_qr_scan", "android": "https://dc.lft.to/lastmile_qr_scan"}, "lat": 38.90973266666666, "lon": -77.021786, "fusion_lat": 0.0, "name": "1d1f8056b1f7cc0fe293931095c2112b", "is_disabled": 0, "is_reserved": 0, "bike_id": "1d1f8056b1f7cc0fe293931095c2112b", "fusion_lon": 0.0, "type": "electric_scooter"}, {"rental_uris": {"ios": "https://dc.lft.to/lastmile_qr_scan", "android": "https://dc.lft.to/lastmile_qr_scan"}, "lat": 38.922412, "lon": -77.0194365, "fusion_lat": 0.0, "name": "b222263a8c86d16914955695e6646b4f", "is_disabled": 0, "is_reserved": 0, "bike_id": "b222263a8c86d16914955695e6646b4f", "fusion_lon": 0.0, "type": "electric_scooter"}, {"rental_uris": {"ios": "https://dc.lft.to/lastmile_qr_scan", "android": "https://dc.lft.to/lastmile_qr_scan"}, "lat": 38.90649833333333, "lon": -77.0487535, "fusion_lat": 0.0, "name": "0249ee1ad631efe62603003471966e28", "is_disabled": 0, "is_reserved": 0, "bike_id": "0249ee1ad631efe62603003471966e28", "fusion_lon": 0.0, "type": "electric_scooter"}, {"rental_uris": {"ios": "https://dc.lft.to/lastmile_qr_scan", "android": "https://dc.lft.to/lastmile_qr_scan"}, "lat": 38.87723966666667, "lon": -77.005329, "fusion_lat": 0.0, "name": "a315210756d1e7d5356d9e0d0d3c70b0", "is_disabled": 0, "is_reserved": 0, "bike_id": "a315210756d1e7d5356d9e0d0d3c70b0", "fusion_lon": 0.0, "type": "electric_scooter"}, {"rental_uris": {"ios": "https://dc.lft.to/lastmile_qr_scan", "android": "https://dc.lft.to/lastmile_qr_scan"}, "lat": 38.925242, "lon": -77.07719583333333, "fusion_lat": 0.0, "name": "528c2015e6ef0a587416147c516d9e3a", "is_disabled": 0, "is_reserved": 0, "bike_id": "528c2015e6ef0a587416147c516d9e3a", "fusion_lon": 0.0, "type": "electric_scooter"}, {"rental_uris": {"ios": "https://dc.lft.to/lastmile_qr_scan", "android": "https://dc.lft.to/lastmile_qr_scan"}, "lat": 38.8805695, "lon": -77.00551533333334, "fusion_lat": 0.0, "name": "5a4254ff9666e2a1395ca3e08f94e635", "is_disabled": 0, "is_reserved": 0, "bike_id": "5a4254ff9666e2a1395ca3e08f94e635", "fusion_lon": 0.0, "type": "electric_scooter"}, {"rental_uris": {"ios": "https://dc.lft.to/lastmile_qr_scan", "android": "https://dc.lft.to/lastmile_qr_scan"}, "lat": 38.894790666666665, "lon": -76.94858816666667, "fusion_lat": 0.0, "name": "5c54a3996c67df9050f9c7d6bdab7fc0", "is_disabled": 0, "is_reserved": 0, "bike_id": "5c54a3996c67df9050f9c7d6bdab7fc0", "fusion_lon": 0.0, "type": "electric_scooter"}, {"rental_uris": {"ios": "https://dc.lft.to/lastmile_qr_scan", "android": "https://dc.lft.to/lastmile_qr_scan"}, "lat": 38.9308965, "lon": -77.03126666666667, "fusion_lat": 0.0, "name": "306cce7e026996ade9de259f54f452e1", "is_disabled": 0, "is_reserved": 0, "bike_id": "306cce7e026996ade9de259f54f452e1", "fusion_lon": 0.0, "type": "electric_scooter"}, {"rental_uris": {"ios": "https://dc.lft.to/lastmile_qr_scan", "android": "https://dc.lft.to/lastmile_qr_scan"}, "lat": 38.89719483333333, "lon": -77.02721016666666, "fusion_lat": 0.0, "name": "0ef3a262d8b041ecf042338f141dc156", "is_disabled": 0, "is_reserved": 0, "bike_id": "0ef3a262d8b041ecf042338f141dc156", "fusion_lon": 0.0, "type": "electric_scooter"}, {"rental_uris": {"ios": "https://dc.lft.to/lastmile_qr_scan", "android": "https://dc.lft.to/lastmile_qr_scan"}, "lat": 38.89425266666667, "lon": -77.03965483333333, "fusion_lat": 0.0, "name": "a42a66b217c4ed59ae00ae02ebf16da7", "is_disabled": 0, "is_reserved": 0, "bike_id": "a42a66b217c4ed59ae00ae02ebf16da7", "fusion_lon": 0.0, "type": "electric_scooter"}, {"rental_uris": {"ios": "https://dc.lft.to/lastmile_qr_scan", "android": "https://dc.lft.to/lastmile_qr_scan"}, "lat": 38.89770683333333, "lon": -77.012196, "fusion_lat": 0.0, "name": "df96f8ea82b10834c13002fff7bae3fa", "is_disabled": 0, "is_reserved": 0, "bike_id": "df96f8ea82b10834c13002fff7bae3fa", "fusion_lon": 0.0, "type": "electric_scooter"}, {"rental_uris": {"ios": "https://dc.lft.to/lastmile_qr_scan", "android": "https://dc.lft.to/lastmile_qr_scan"}, "lat": 38.9491905, "lon": -77.01854133333333, "fusion_lat": 0.0, "name": "b4d4af4428e85cd670c03ff3da2ff1b0", "is_disabled": 0, "is_reserved": 0, "bike_id": "b4d4af4428e85cd670c03ff3da2ff1b0", "fusion_lon": 0.0, "type": "electric_scooter"}, {"rental_uris": {"ios": "https://dc.lft.to/lastmile_qr_scan", "android": "https://dc.lft.to/lastmile_qr_scan"}, "lat": 38.915983, "lon": -77.0320215, "fusion_lat": 0.0, "name": "24c7558065b264b7c33d39feedd5cc57", "is_disabled": 0, "is_reserved": 0, "bike_id": "24c7558065b264b7c33d39feedd5cc57", "fusion_lon": 0.0, "type": "electric_scooter"}, {"rental_uris": {"ios": "https://dc.lft.to/lastmile_qr_scan", "android": "https://dc.lft.to/lastmile_qr_scan"}, "lat": 38.896994666666664, "lon": -77.04878466666666, "fusion_lat": 0.0, "name": "344435b2d446a62fee6020222d71fda5", "is_disabled": 0, "is_reserved": 0, "bike_id": "344435b2d446a62fee6020222d71fda5", "fusion_lon": 0.0, "type": "electric_scooter"}, {"rental_uris": {"ios": "https://dc.lft.to/lastmile_qr_scan", "android": "https://dc.lft.to/lastmile_qr_scan"}, "lat": 38.9205835, "lon": -77.032619, "fusion_lat": 0.0, "name": "ea9c03195d9785e33c287f4306529890", "is_disabled": 0, "is_reserved": 0, "bike_id": "ea9c03195d9785e33c287f4306529890", "fusion_lon": 0.0, "type": "electric_scooter"}, {"rental_uris": {"ios": "https://dc.lft.to/lastmile_qr_scan", "android": "https://dc.lft.to/lastmile_qr_scan"}, "lat": 38.90257916666667, "lon": -77.03942316666667, "fusion_lat": 0.0, "name": "c081b75795e00fdd2635ef5b69d6b787", "is_disabled": 0, "is_reserved": 0, "bike_id": "c081b75795e00fdd2635ef5b69d6b787", "fusion_lon": 0.0, "type": "electric_scooter"}, {"rental_uris": {"ios": "https://dc.lft.to/lastmile_qr_scan", "android": "https://dc.lft.to/lastmile_qr_scan"}, "lat": 38.903081666666665, "lon": -77.00574916666666, "fusion_lat": 0.0, "name": "8cdfa7ba3e3ebe81fb2ef8baabc263ec", "is_disabled": 0, "is_reserved": 0, "bike_id": "8cdfa7ba3e3ebe81fb2ef8baabc263ec", "fusion_lon": 0.0, "type": "electric_scooter"}, {"rental_uris": {"ios": "https://dc.lft.to/lastmile_qr_scan", "android": "https://dc.lft.to/lastmile_qr_scan"}, "lat": 38.899788, "lon": -77.02177866666666, "fusion_lat": 0.0, "name": "a6138f38eda2ee66a18e7f7b7023bde5", "is_disabled": 0, "is_reserved": 0, "bike_id": "a6138f38eda2ee66a18e7f7b7023bde5", "fusion_lon": 0.0, "type": "electric_scooter"}, {"rental_uris": {"ios": "https://dc.lft.to/lastmile_qr_scan", "android": "https://dc.lft.to/lastmile_qr_scan"}, "lat": 38.9155935, "lon": -77.01036966666666, "fusion_lat": 0.0, "name": "31576f5baf09ef093511267ecc68c6c4", "is_disabled": 0, "is_reserved": 0, "bike_id": "31576f5baf09ef093511267ecc68c6c4", "fusion_lon": 0.0, "type": "electric_scooter"}, {"rental_uris": {"ios": "https://dc.lft.to/lastmile_qr_scan", "android": "https://dc.lft.to/lastmile_qr_scan"}, "lat": 38.915423833333335, "lon": -77.04454383333334, "fusion_lat": 0.0, "name": "85d5352e3220c38c1dbaaeecc1a54bbb", "is_disabled": 0, "is_reserved": 0, "bike_id": "85d5352e3220c38c1dbaaeecc1a54bbb", "fusion_lon": 0.0, "type": "electric_scooter"}, {"rental_uris": {"ios": "https://dc.lft.to/lastmile_qr_scan", "android": "https://dc.lft.to/lastmile_qr_scan"}, "lat": 38.91738733333333, "lon": -77.03190416666666, "fusion_lat": 0.0, "name": "284ca3a01f68065cd5453b8fa43d9f40", "is_disabled": 0, "is_reserved": 0, "bike_id": "284ca3a01f68065cd5453b8fa43d9f40", "fusion_lon": 0.0, "type": "electric_scooter"}, {"rental_uris": {"ios": "https://dc.lft.to/lastmile_qr_scan", "android": "https://dc.lft.to/lastmile_qr_scan"}, "lat": 38.909418333333335, "lon": -77.04407633333334, "fusion_lat": 0.0, "name": "d5a3517cdd1cff32d9911086baaec9c4", "is_disabled": 0, "is_reserved": 0, "bike_id": "d5a3517cdd1cff32d9911086baaec9c4", "fusion_lon": 0.0, "type": "electric_scooter"}, {"rental_uris": {"ios": "https://dc.lft.to/lastmile_qr_scan", "android": "https://dc.lft.to/lastmile_qr_scan"}, "lat": 38.916011166666664, "lon": -77.02286033333333, "fusion_lat": 0.0, "name": "65aff884018f4624109556ffa6b6d387", "is_disabled": 0, "is_reserved": 0, "bike_id": "65aff884018f4624109556ffa6b6d387", "fusion_lon": 0.0, "type": "electric_scooter"}, {"rental_uris": {"ios": "https://dc.lft.to/lastmile_qr_scan", "android": "https://dc.lft.to/lastmile_qr_scan"}, "lat": 38.885348, "lon": -76.9982265, "fusion_lat": 0.0, "name": "41847bbcfd90b0b6971950486d052aae", "is_disabled": 0, "is_reserved": 0, "bike_id": "41847bbcfd90b0b6971950486d052aae", "fusion_lon": 0.0, "type": "electric_scooter"}, {"rental_uris": {"ios": "https://dc.lft.to/lastmile_qr_scan", "android": "https://dc.lft.to/lastmile_qr_scan"}, "lat": 38.91692583333333, "lon": -77.0291575, "fusion_lat": 0.0, "name": "bc21c74187aebc019661d71e7bac9b81", "is_disabled": 0, "is_reserved": 0, "bike_id": "bc21c74187aebc019661d71e7bac9b81", "fusion_lon": 0.0, "type": "electric_scooter"}, {"rental_uris": {"ios": "https://dc.lft.to/lastmile_qr_scan", "android": "https://dc.lft.to/lastmile_qr_scan"}, "lat": 38.8843665, "lon": -77.02499333333333, "fusion_lat": 0.0, "name": "74e1a90ae4416cfc45dca8b2aab3fbe4", "is_disabled": 0, "is_reserved": 0, "bike_id": "74e1a90ae4416cfc45dca8b2aab3fbe4", "fusion_lon": 0.0, "type": "electric_scooter"}, {"rental_uris": {"ios": "https://dc.lft.to/lastmile_qr_scan", "android": "https://dc.lft.to/lastmile_qr_scan"}, "lat": 38.89530166666667, "lon": -77.03347016666666, "fusion_lat": 0.0, "name": "cb028e638dd315835ecca65801072436", "is_disabled": 0, "is_reserved": 0, "bike_id": "cb028e638dd315835ecca65801072436", "fusion_lon": 0.0, "type": "electric_scooter"}, {"rental_uris": {"ios": "https://dc.lft.to/lastmile_qr_scan", "android": "https://dc.lft.to/lastmile_qr_scan"}, "lat": 38.973792833333334, "lon": -77.06471466666666, "fusion_lat": 0.0, "name": "27341a8b825924a858e7cd9e8c9b5532", "is_disabled": 0, "is_reserved": 0, "bike_id": "27341a8b825924a858e7cd9e8c9b5532", "fusion_lon": 0.0, "type": "electric_bike"}, {"rental_uris": {"ios": "https://dc.lft.to/lastmile_qr_scan", "android": "https://dc.lft.to/lastmile_qr_scan"}, "lat": 38.92683233333333, "lon": -77.02272433333333, "fusion_lat": 0.0, "name": "61b677ef59042ea8f61cda5c762f6d39", "is_disabled": 0, "is_reserved": 0, "bike_id": "61b677ef59042ea8f61cda5c762f6d39", "fusion_lon": 0.0, "type": "electric_scooter"}, {"rental_uris": {"ios": "https://dc.lft.to/lastmile_qr_scan", "android": "https://dc.lft.to/lastmile_qr_scan"}, "lat": 38.901067, "lon": -77.02805, "fusion_lat": 0.0, "name": "e575b5bbc72f6cb380b8b4e24ba87730", "is_disabled": 0, "is_reserved": 0, "bike_id": "e575b5bbc72f6cb380b8b4e24ba87730", "fusion_lon": 0.0, "type": "electric_scooter"}, {"rental_uris": {"ios": "https://dc.lft.to/lastmile_qr_scan", "android": "https://dc.lft.to/lastmile_qr_scan"}, "lat": 38.89732433333333, "lon": -77.0245515, "fusion_lat": 0.0, "name": "d2d070d4e4be0803f5cc9b4abeba24a8", "is_disabled": 0, "is_reserved": 0, "bike_id": "d2d070d4e4be0803f5cc9b4abeba24a8", "fusion_lon": 0.0, "type": "electric_scooter"}, {"rental_uris": {"ios": "https://dc.lft.to/lastmile_qr_scan", "android": "https://dc.lft.to/lastmile_qr_scan"}, "lat": 38.9155205, "lon": -77.00646983333333, "fusion_lat": 0.0, "name": "0f7909e62624a193f6c81265f64a6826", "is_disabled": 0, "is_reserved": 0, "bike_id": "0f7909e62624a193f6c81265f64a6826", "fusion_lon": 0.0, "type": "electric_scooter"}, {"rental_uris": {"ios": "https://dc.lft.to/lastmile_qr_scan", "android": "https://dc.lft.to/lastmile_qr_scan"}, "lat": 38.873852666666664, "lon": -77.00079916666667, "fusion_lat": 0.0, "name": "9604c3a32d5a74eb0a393334b8433522", "is_disabled": 0, "is_reserved": 0, "bike_id": "9604c3a32d5a74eb0a393334b8433522", "fusion_lon": 0.0, "type": "electric_scooter"}, {"rental_uris": {"ios": "https://dc.lft.to/lastmile_qr_scan", "android": "https://dc.lft.to/lastmile_qr_scan"}, "lat": 38.917366666666666, "lon": -77.03188866666666, "fusion_lat": 0.0, "name": "1e94d53addfdf28e01740727a5d19d95", "is_disabled": 0, "is_reserved": 0, "bike_id": "1e94d53addfdf28e01740727a5d19d95", "fusion_lon": 0.0, "type": "electric_scooter"}, {"rental_uris": {"ios": "https://dc.lft.to/lastmile_qr_scan", "android": "https://dc.lft.to/lastmile_qr_scan"}, "lat": 38.957875, "lon": -77.03216283333333, "fusion_lat": 0.0, "name": "187847103e2f7a29343ed3221b587d82", "is_disabled": 0, "is_reserved": 0, "bike_id": "187847103e2f7a29343ed3221b587d82", "fusion_lon": 0.0, "type": "electric_scooter"}, {"rental_uris": {"ios": "https://dc.lft.to/lastmile_qr_scan", "android": "https://dc.lft.to/lastmile_qr_scan"}, "lat": 38.87241933333333, "lon": -76.97723, "fusion_lat": 0.0, "name": "315190170606d9df3d6f8e2611356153", "is_disabled": 0, "is_reserved": 0, "bike_id": "315190170606d9df3d6f8e2611356153", "fusion_lon": 0.0, "type": "electric_scooter"}, {"rental_uris": {"ios": "https://dc.lft.to/lastmile_qr_scan", "android": "https://dc.lft.to/lastmile_qr_scan"}, "lat": 38.93297316666666, "lon": -77.08540716666667, "fusion_lat": 0.0, "name": "900fa7a6e10a7c0a38b64b4963e58885", "is_disabled": 0, "is_reserved": 0, "bike_id": "900fa7a6e10a7c0a38b64b4963e58885", "fusion_lon": 0.0, "type": "electric_scooter"}, {"rental_uris": {"ios": "https://dc.lft.to/lastmile_qr_scan", "android": "https://dc.lft.to/lastmile_qr_scan"}, "lat": 38.88401416666667, "lon": -76.96050366666667, "fusion_lat": 0.0, "name": "e75fe96533232b9cbc799b6d989cd403", "is_disabled": 0, "is_reserved": 0, "bike_id": "e75fe96533232b9cbc799b6d989cd403", "fusion_lon": 0.0, "type": "electric_bike"}, {"rental_uris": {"ios": "https://dc.lft.to/lastmile_qr_scan", "android": "https://dc.lft.to/lastmile_qr_scan"}, "lat": 38.89236116666667, "lon": -77.03352733333334, "fusion_lat": 0.0, "name": "602db15d4f582dfeb119d32225cbce75", "is_disabled": 0, "is_reserved": 0, "bike_id": "602db15d4f582dfeb119d32225cbce75", "fusion_lon": 0.0, "type": "electric_scooter"}, {"rental_uris": {"ios": "https://dc.lft.to/lastmile_qr_scan", "android": "https://dc.lft.to/lastmile_qr_scan"}, "lat": 38.91558716666667, "lon": -77.03047933333333, "fusion_lat": 0.0, "name": "3c09df197850de77319c1cafedafaf12", "is_disabled": 0, "is_reserved": 0, "bike_id": "3c09df197850de77319c1cafedafaf12", "fusion_lon": 0.0, "type": "electric_scooter"}, {"rental_uris": {"ios": "https://dc.lft.to/lastmile_qr_scan", "android": "https://dc.lft.to/lastmile_qr_scan"}, "lat": 38.90841833333333, "lon": -77.0007635, "fusion_lat": 0.0, "name": "7125c31ecd4ea34fcbb32d03cc07b350", "is_disabled": 0, "is_reserved": 0, "bike_id": "7125c31ecd4ea34fcbb32d03cc07b350", "fusion_lon": 0.0, "type": "electric_scooter"}, {"rental_uris": {"ios": "https://dc.lft.to/lastmile_qr_scan", "android": "https://dc.lft.to/lastmile_qr_scan"}, "lat": 39.05102516666667, "lon": -77.11748683333333, "fusion_lat": 0.0, "name": "fdfa7ab9182822e3a49ee112f254af38", "is_disabled": 0, "is_reserved": 0, "bike_id": "fdfa7ab9182822e3a49ee112f254af38", "fusion_lon": 0.0, "type": "electric_bike"}, {"rental_uris": {"ios": "https://dc.lft.to/lastmile_qr_scan", "android": "https://dc.lft.to/lastmile_qr_scan"}, "lat": 38.92863333333333, "lon": -77.03329733333334, "fusion_lat": 0.0, "name": "7395308c6fa6dac434047d1f1a0d8421", "is_disabled": 0, "is_reserved": 0, "bike_id": "7395308c6fa6dac434047d1f1a0d8421", "fusion_lon": 0.0, "type": "electric_scooter"}, {"rental_uris": {"ios": "https://dc.lft.to/lastmile_qr_scan", "android": "https://dc.lft.to/lastmile_qr_scan"}, "lat": 38.92149416666667, "lon": -77.03868383333334, "fusion_lat": 0.0, "name": "e3b6e3dbf96f643ed08ef0ef47e251fb", "is_disabled": 0, "is_reserved": 0, "bike_id": "e3b6e3dbf96f643ed08ef0ef47e251fb", "fusion_lon": 0.0, "type": "electric_scooter"}, {"rental_uris": {"ios": "https://dc.lft.to/lastmile_qr_scan", "android": "https://dc.lft.to/lastmile_qr_scan"}, "lat": 38.900637, "lon": -77.04504083333333, "fusion_lat": 0.0, "name": "f082181ee8514897410cfd203d9cd6b1", "is_disabled": 0, "is_reserved": 0, "bike_id": "f082181ee8514897410cfd203d9cd6b1", "fusion_lon": 0.0, "type": "electric_scooter"}, {"rental_uris": {"ios": "https://dc.lft.to/lastmile_qr_scan", "android": "https://dc.lft.to/lastmile_qr_scan"}, "lat": 38.89340416666667, "lon": -77.0122455, "fusion_lat": 0.0, "name": "0dc5c9bb0114342f46dd2ee40db330cd", "is_disabled": 0, "is_reserved": 0, "bike_id": "0dc5c9bb0114342f46dd2ee40db330cd", "fusion_lon": 0.0, "type": "electric_scooter"}, {"rental_uris": {"ios": "https://dc.lft.to/lastmile_qr_scan", "android": "https://dc.lft.to/lastmile_qr_scan"}, "lat": 38.95634316666667, "lon": -77.03629083333334, "fusion_lat": 0.0, "name": "44c4a865fc239078a275d6540ea0d993", "is_disabled": 0, "is_reserved": 0, "bike_id": "44c4a865fc239078a275d6540ea0d993", "fusion_lon": 0.0, "type": "electric_scooter"}, {"rental_uris": {"ios": "https://dc.lft.to/lastmile_qr_scan", "android": "https://dc.lft.to/lastmile_qr_scan"}, "lat": 38.891055, "lon": -77.0019895, "fusion_lat": 0.0, "name": "6233b04af12a6189282d6c1d6accc872", "is_disabled": 0, "is_reserved": 0, "bike_id": "6233b04af12a6189282d6c1d6accc872", "fusion_lon": 0.0, "type": "electric_scooter"}, {"rental_uris": {"ios": "https://dc.lft.to/lastmile_qr_scan", "android": "https://dc.lft.to/lastmile_qr_scan"}, "lat": 38.89503766666667, "lon": -77.04340966666666, "fusion_lat": 0.0, "name": "f9052141f2bd13f103c03c3000b9606e", "is_disabled": 0, "is_reserved": 0, "bike_id": "f9052141f2bd13f103c03c3000b9606e", "fusion_lon": 0.0, "type": "electric_scooter"}, {"rental_uris": {"ios": "https://dc.lft.to/lastmile_qr_scan", "android": "https://dc.lft.to/lastmile_qr_scan"}, "lat": 38.9126485, "lon": -77.0221345, "fusion_lat": 0.0, "name": "5f844dee1b6b9d9087efbe41b13bf368", "is_disabled": 0, "is_reserved": 0, "bike_id": "5f844dee1b6b9d9087efbe41b13bf368", "fusion_lon": 0.0, "type": "electric_scooter"}, {"rental_uris": {"ios": "https://dc.lft.to/lastmile_qr_scan", "android": "https://dc.lft.to/lastmile_qr_scan"}, "lat": 38.90791183333333, "lon": -77.026921, "fusion_lat": 0.0, "name": "a576457cd749a84840cc52cee7a25f02", "is_disabled": 0, "is_reserved": 0, "bike_id": "a576457cd749a84840cc52cee7a25f02", "fusion_lon": 0.0, "type": "electric_scooter"}, {"rental_uris": {"ios": "https://dc.lft.to/lastmile_qr_scan", "android": "https://dc.lft.to/lastmile_qr_scan"}, "lat": 38.920709, "lon": -77.02317083333334, "fusion_lat": 0.0, "name": "51298774d827fd2e04b7f722b9dd8e76", "is_disabled": 0, "is_reserved": 0, "bike_id": "51298774d827fd2e04b7f722b9dd8e76", "fusion_lon": 0.0, "type": "electric_scooter"}, {"rental_uris": {"ios": "https://dc.lft.to/lastmile_qr_scan", "android": "https://dc.lft.to/lastmile_qr_scan"}, "lat": 38.887805166666666, "lon": -77.08934216666667, "fusion_lat": 0.0, "name": "28aa5409e6d18e0f2bf43963eb8c3b65", "is_disabled": 0, "is_reserved": 0, "bike_id": "28aa5409e6d18e0f2bf43963eb8c3b65", "fusion_lon": 0.0, "type": "electric_bike"}, {"rental_uris": {"ios": "https://dc.lft.to/lastmile_qr_scan", "android": "https://dc.lft.to/lastmile_qr_scan"}, "lat": 38.90956516666667, "lon": -77.03347533333333, "fusion_lat": 0.0, "name": "16df55891f0072f2da1892f3f9069810", "is_disabled": 0, "is_reserved": 0, "bike_id": "16df55891f0072f2da1892f3f9069810", "fusion_lon": 0.0, "type": "electric_scooter"}, {"rental_uris": {"ios": "https://dc.lft.to/lastmile_qr_scan", "android": "https://dc.lft.to/lastmile_qr_scan"}, "lat": 38.9288115, "lon": -77.040484, "fusion_lat": 0.0, "name": "4da0eeb7af374e0e8f91fc4a0f7058ca", "is_disabled": 0, "is_reserved": 0, "bike_id": "4da0eeb7af374e0e8f91fc4a0f7058ca", "fusion_lon": 0.0, "type": "electric_scooter"}, {"rental_uris": {"ios": "https://dc.lft.to/lastmile_qr_scan", "android": "https://dc.lft.to/lastmile_qr_scan"}, "lat": 38.88776883333333, "lon": -76.95524483333334, "fusion_lat": 0.0, "name": "8e21a6be6bcb4f15e279225ca54ac964", "is_disabled": 0, "is_reserved": 0, "bike_id": "8e21a6be6bcb4f15e279225ca54ac964", "fusion_lon": 0.0, "type": "electric_scooter"}, {"rental_uris": {"ios": "https://dc.lft.to/lastmile_qr_scan", "android": "https://dc.lft.to/lastmile_qr_scan"}, "lat": 38.923713166666666, "lon": -77.03130566666667, "fusion_lat": 0.0, "name": "6a3aaef67c3036ab712ea4e48d03bac9", "is_disabled": 0, "is_reserved": 0, "bike_id": "6a3aaef67c3036ab712ea4e48d03bac9", "fusion_lon": 0.0, "type": "electric_scooter"}, {"rental_uris": {"ios": "https://dc.lft.to/lastmile_qr_scan", "android": "https://dc.lft.to/lastmile_qr_scan"}, "lat": 38.9028165, "lon": -77.018756, "fusion_lat": 0.0, "name": "29cc8212069cd51be9766e6f0d092a2d", "is_disabled": 0, "is_reserved": 0, "bike_id": "29cc8212069cd51be9766e6f0d092a2d", "fusion_lon": 0.0, "type": "electric_scooter"}, {"rental_uris": {"ios": "https://dc.lft.to/lastmile_qr_scan", "android": "https://dc.lft.to/lastmile_qr_scan"}, "lat": 38.86628116666667, "lon": -76.98713333333333, "fusion_lat": 0.0, "name": "28b39e873620481f31bf4424ff5b0f97", "is_disabled": 0, "is_reserved": 0, "bike_id": "28b39e873620481f31bf4424ff5b0f97", "fusion_lon": 0.0, "type": "electric_scooter"}, {"rental_uris": {"ios": "https://dc.lft.to/lastmile_qr_scan", "android": "https://dc.lft.to/lastmile_qr_scan"}, "lat": 38.928789, "lon": -77.039228, "fusion_lat": 0.0, "name": "858c5745fe16f7f2df8ac621480d2766", "is_disabled": 0, "is_reserved": 0, "bike_id": "858c5745fe16f7f2df8ac621480d2766", "fusion_lon": 0.0, "type": "electric_scooter"}, {"rental_uris": {"ios": "https://dc.lft.to/lastmile_qr_scan", "android": "https://dc.lft.to/lastmile_qr_scan"}, "lat": 38.9083795, "lon": -77.00055516666667, "fusion_lat": 0.0, "name": "24a1cf93dd26f91ea818749c95a99b0d", "is_disabled": 0, "is_reserved": 0, "bike_id": "24a1cf93dd26f91ea818749c95a99b0d", "fusion_lon": 0.0, "type": "electric_scooter"}, {"rental_uris": {"ios": "https://dc.lft.to/lastmile_qr_scan", "android": "https://dc.lft.to/lastmile_qr_scan"}, "lat": 38.9095765, "lon": -77.027419, "fusion_lat": 0.0, "name": "e7a14f4634c7993950ebab7701e96519", "is_disabled": 0, "is_reserved": 0, "bike_id": "e7a14f4634c7993950ebab7701e96519", "fusion_lon": 0.0, "type": "electric_scooter"}, {"rental_uris": {"ios": "https://dc.lft.to/lastmile_qr_scan", "android": "https://dc.lft.to/lastmile_qr_scan"}, "lat": 38.89722616666667, "lon": -77.02711183333334, "fusion_lat": 0.0, "name": "7c8239826109db372f8d2c3b80526c2f", "is_disabled": 0, "is_reserved": 0, "bike_id": "7c8239826109db372f8d2c3b80526c2f", "fusion_lon": 0.0, "type": "electric_scooter"}, {"rental_uris": {"ios": "https://dc.lft.to/lastmile_qr_scan", "android": "https://dc.lft.to/lastmile_qr_scan"}, "lat": 38.898879666666666, "lon": -76.931743, "fusion_lat": 0.0, "name": "c229052179718586ceacacf242992e58", "is_disabled": 0, "is_reserved": 0, "bike_id": "c229052179718586ceacacf242992e58", "fusion_lon": 0.0, "type": "electric_scooter"}, {"rental_uris": {"ios": "https://dc.lft.to/lastmile_qr_scan", "android": "https://dc.lft.to/lastmile_qr_scan"}, "lat": 38.858342, "lon": -76.99166, "fusion_lat": 0.0, "name": "47ec28dd474e8f8b6fdc179112974ea4", "is_disabled": 0, "is_reserved": 0, "bike_id": "47ec28dd474e8f8b6fdc179112974ea4", "fusion_lon": 0.0, "type": "electric_scooter"}, {"rental_uris": {"ios": "https://dc.lft.to/lastmile_qr_scan", "android": "https://dc.lft.to/lastmile_qr_scan"}, "lat": 38.88992233333333, "lon": -77.04912866666666, "fusion_lat": 0.0, "name": "84d0644fd9f4d454537a0beb6f49a075", "is_disabled": 0, "is_reserved": 0, "bike_id": "84d0644fd9f4d454537a0beb6f49a075", "fusion_lon": 0.0, "type": "electric_scooter"}, {"rental_uris": {"ios": "https://dc.lft.to/lastmile_qr_scan", "android": "https://dc.lft.to/lastmile_qr_scan"}, "lat": 38.901964, "lon": -77.050408, "fusion_lat": 0.0, "name": "0b1a2df784f5882a181c4d30e70bd2e1", "is_disabled": 0, "is_reserved": 0, "bike_id": "0b1a2df784f5882a181c4d30e70bd2e1", "fusion_lon": 0.0, "type": "electric_scooter"}, {"rental_uris": {"ios": "https://dc.lft.to/lastmile_qr_scan", "android": "https://dc.lft.to/lastmile_qr_scan"}, "lat": 38.8197835, "lon": -76.99806616666666, "fusion_lat": 0.0, "name": "bf5256296ef0442d7eed90c98074bdf2", "is_disabled": 0, "is_reserved": 0, "bike_id": "bf5256296ef0442d7eed90c98074bdf2", "fusion_lon": 0.0, "type": "electric_bike"}, {"rental_uris": {"ios": "https://dc.lft.to/lastmile_qr_scan", "android": "https://dc.lft.to/lastmile_qr_scan"}, "lat": 38.897289666666666, "lon": -77.05522066666667, "fusion_lat": 0.0, "name": "46054b5beb30e3406431b3fb75d073d9", "is_disabled": 0, "is_reserved": 0, "bike_id": "46054b5beb30e3406431b3fb75d073d9", "fusion_lon": 0.0, "type": "electric_scooter"}, {"rental_uris": {"ios": "https://dc.lft.to/lastmile_qr_scan", "android": "https://dc.lft.to/lastmile_qr_scan"}, "lat": 38.91813583333333, "lon": -77.02470866666667, "fusion_lat": 0.0, "name": "14cb63f386b3e6009ae6238c6984ecf8", "is_disabled": 0, "is_reserved": 0, "bike_id": "14cb63f386b3e6009ae6238c6984ecf8", "fusion_lon": 0.0, "type": "electric_scooter"}, {"rental_uris": {"ios": "https://dc.lft.to/lastmile_qr_scan", "android": "https://dc.lft.to/lastmile_qr_scan"}, "lat": 38.894841166666666, "lon": -76.94953383333333, "fusion_lat": 0.0, "name": "0c1560bbf464e8f0b4d26bf902557ec8", "is_disabled": 0, "is_reserved": 0, "bike_id": "0c1560bbf464e8f0b4d26bf902557ec8", "fusion_lon": 0.0, "type": "electric_scooter"}, {"rental_uris": {"ios": "https://dc.lft.to/lastmile_qr_scan", "android": "https://dc.lft.to/lastmile_qr_scan"}, "lat": 38.914182833333335, "lon": -77.022058, "fusion_lat": 0.0, "name": "1b8f9abe3dbc65519772717870d58516", "is_disabled": 0, "is_reserved": 0, "bike_id": "1b8f9abe3dbc65519772717870d58516", "fusion_lon": 0.0, "type": "electric_scooter"}, {"rental_uris": {"ios": "https://dc.lft.to/lastmile_qr_scan", "android": "https://dc.lft.to/lastmile_qr_scan"}, "lat": 38.926797, "lon": -77.015085, "fusion_lat": 0.0, "name": "4f30ca0d3f7b8fe411d7b72bd279eff3", "is_disabled": 0, "is_reserved": 0, "bike_id": "4f30ca0d3f7b8fe411d7b72bd279eff3", "fusion_lon": 0.0, "type": "electric_scooter"}, {"rental_uris": {"ios": "https://dc.lft.to/lastmile_qr_scan", "android": "https://dc.lft.to/lastmile_qr_scan"}, "lat": 39.057893666666665, "lon": -77.15015, "fusion_lat": 0.0, "name": "a21941b55a1ba7d4f195890a2145ebc7", "is_disabled": 0, "is_reserved": 0, "bike_id": "a21941b55a1ba7d4f195890a2145ebc7", "fusion_lon": 0.0, "type": "electric_bike"}, {"rental_uris": {"ios": "https://dc.lft.to/lastmile_qr_scan", "android": "https://dc.lft.to/lastmile_qr_scan"}, "lat": 38.918036666666666, "lon": -77.02492583333333, "fusion_lat": 0.0, "name": "df1137cc3a7b1b691372afa18b2fccf3", "is_disabled": 0, "is_reserved": 0, "bike_id": "df1137cc3a7b1b691372afa18b2fccf3", "fusion_lon": 0.0, "type": "electric_scooter"}, {"rental_uris": {"ios": "https://dc.lft.to/lastmile_qr_scan", "android": "https://dc.lft.to/lastmile_qr_scan"}, "lat": 38.9081155, "lon": -76.98565633333334, "fusion_lat": 0.0, "name": "c5172f361962ca0ba7e9e8bd53a50af4", "is_disabled": 0, "is_reserved": 0, "bike_id": "c5172f361962ca0ba7e9e8bd53a50af4", "fusion_lon": 0.0, "type": "electric_scooter"}, {"rental_uris": {"ios": "https://dc.lft.to/lastmile_qr_scan", "android": "https://dc.lft.to/lastmile_qr_scan"}, "lat": 38.92059883333334, "lon": -77.03205516666667, "fusion_lat": 0.0, "name": "9a228e6caf76470d9c74512c30365595", "is_disabled": 0, "is_reserved": 0, "bike_id": "9a228e6caf76470d9c74512c30365595", "fusion_lon": 0.0, "type": "electric_scooter"}, {"rental_uris": {"ios": "https://dc.lft.to/lastmile_qr_scan", "android": "https://dc.lft.to/lastmile_qr_scan"}, "lat": 38.9210085, "lon": -77.03643266666667, "fusion_lat": 0.0, "name": "d0d999db34914982c915092310ccc037", "is_disabled": 0, "is_reserved": 0, "bike_id": "d0d999db34914982c915092310ccc037", "fusion_lon": 0.0, "type": "electric_bike"}, {"rental_uris": {"ios": "https://dc.lft.to/lastmile_qr_scan", "android": "https://dc.lft.to/lastmile_qr_scan"}, "lat": 38.89530216666667, "lon": -77.00343883333333, "fusion_lat": 0.0, "name": "1406a6b87ee5098c79143c1bbb494c1e", "is_disabled": 0, "is_reserved": 0, "bike_id": "1406a6b87ee5098c79143c1bbb494c1e", "fusion_lon": 0.0, "type": "electric_scooter"}, {"rental_uris": {"ios": "https://dc.lft.to/lastmile_qr_scan", "android": "https://dc.lft.to/lastmile_qr_scan"}, "lat": 38.911080166666665, "lon": -77.043601, "fusion_lat": 0.0, "name": "68f9b446a3fd3494136abb838f0fc063", "is_disabled": 0, "is_reserved": 0, "bike_id": "68f9b446a3fd3494136abb838f0fc063", "fusion_lon": 0.0, "type": "electric_scooter"}, {"rental_uris": {"ios": "https://dc.lft.to/lastmile_qr_scan", "android": "https://dc.lft.to/lastmile_qr_scan"}, "lat": 38.87110916666666, "lon": -76.98234233333334, "fusion_lat": 0.0, "name": "9ef8e01cdc46dc6309489d119510a3da", "is_disabled": 0, "is_reserved": 0, "bike_id": "9ef8e01cdc46dc6309489d119510a3da", "fusion_lon": 0.0, "type": "electric_scooter"}, {"rental_uris": {"ios": "https://dc.lft.to/lastmile_qr_scan", "android": "https://dc.lft.to/lastmile_qr_scan"}, "lat": 38.90390716666667, "lon": -77.017754, "fusion_lat": 0.0, "name": "1bb54a9864e3902eb3bcb7ebf850b2a9", "is_disabled": 0, "is_reserved": 0, "bike_id": "1bb54a9864e3902eb3bcb7ebf850b2a9", "fusion_lon": 0.0, "type": "electric_scooter"}, {"rental_uris": {"ios": "https://dc.lft.to/lastmile_qr_scan", "android": "https://dc.lft.to/lastmile_qr_scan"}, "lat": 38.91094616666667, "lon": -77.04476866666667, "fusion_lat": 0.0, "name": "e75fc72f8078b1412ceb15c5ddf82660", "is_disabled": 0, "is_reserved": 0, "bike_id": "e75fc72f8078b1412ceb15c5ddf82660", "fusion_lon": 0.0, "type": "electric_scooter"}, {"rental_uris": {"ios": "https://dc.lft.to/lastmile_qr_scan", "android": "https://dc.lft.to/lastmile_qr_scan"}, "lat": 38.84279316666667, "lon": -76.98843366666667, "fusion_lat": 0.0, "name": "fdbccbacf731520a59f1339c802bb99e", "is_disabled": 0, "is_reserved": 0, "bike_id": "fdbccbacf731520a59f1339c802bb99e", "fusion_lon": 0.0, "type": "electric_bike"}, {"rental_uris": {"ios": "https://dc.lft.to/lastmile_qr_scan", "android": "https://dc.lft.to/lastmile_qr_scan"}, "lat": 38.91695716666667, "lon": -77.0284095, "fusion_lat": 0.0, "name": "0bca890c3e8d30cc7f5c7e0d359cbcd6", "is_disabled": 0, "is_reserved": 0, "bike_id": "0bca890c3e8d30cc7f5c7e0d359cbcd6", "fusion_lon": 0.0, "type": "electric_scooter"}, {"rental_uris": {"ios": "https://dc.lft.to/lastmile_qr_scan", "android": "https://dc.lft.to/lastmile_qr_scan"}, "lat": 38.92315583333333, "lon": -77.041067, "fusion_lat": 0.0, "name": "d464ca40ada00376df285e298209ebc6", "is_disabled": 0, "is_reserved": 0, "bike_id": "d464ca40ada00376df285e298209ebc6", "fusion_lon": 0.0, "type": "electric_scooter"}, {"rental_uris": {"ios": "https://dc.lft.to/lastmile_qr_scan", "android": "https://dc.lft.to/lastmile_qr_scan"}, "lat": 38.92443016666667, "lon": -77.02013116666667, "fusion_lat": 0.0, "name": "18b373e9e3b92a04481ebb2a700f889c", "is_disabled": 0, "is_reserved": 0, "bike_id": "18b373e9e3b92a04481ebb2a700f889c", "fusion_lon": 0.0, "type": "electric_scooter"}, {"rental_uris": {"ios": "https://dc.lft.to/lastmile_qr_scan", "android": "https://dc.lft.to/lastmile_qr_scan"}, "lat": 38.918321666666664, "lon": -77.024499, "fusion_lat": 0.0, "name": "8d5707a4bf77ea221c36ab55f5608e7a", "is_disabled": 0, "is_reserved": 0, "bike_id": "8d5707a4bf77ea221c36ab55f5608e7a", "fusion_lon": 0.0, "type": "electric_scooter"}, {"rental_uris": {"ios": "https://dc.lft.to/lastmile_qr_scan", "android": "https://dc.lft.to/lastmile_qr_scan"}, "lat": 38.90645033333333, "lon": -77.0487605, "fusion_lat": 0.0, "name": "7d6962e3b6376405dc6d897171079a45", "is_disabled": 0, "is_reserved": 0, "bike_id": "7d6962e3b6376405dc6d897171079a45", "fusion_lon": 0.0, "type": "electric_scooter"}, {"rental_uris": {"ios": "https://dc.lft.to/lastmile_qr_scan", "android": "https://dc.lft.to/lastmile_qr_scan"}, "lat": 38.92721433333333, "lon": -77.05358283333334, "fusion_lat": 0.0, "name": "9056f6b0d1f9764bc0f0a80efd523f95", "is_disabled": 0, "is_reserved": 0, "bike_id": "9056f6b0d1f9764bc0f0a80efd523f95", "fusion_lon": 0.0, "type": "electric_scooter"}, {"rental_uris": {"ios": "https://dc.lft.to/lastmile_qr_scan", "android": "https://dc.lft.to/lastmile_qr_scan"}, "lat": 38.89840616666667, "lon": -77.030964, "fusion_lat": 0.0, "name": "8bf1bb08b88d2a78b42586b671aae106", "is_disabled": 0, "is_reserved": 0, "bike_id": "8bf1bb08b88d2a78b42586b671aae106", "fusion_lon": 0.0, "type": "electric_scooter"}, {"rental_uris": {"ios": "https://dc.lft.to/lastmile_qr_scan", "android": "https://dc.lft.to/lastmile_qr_scan"}, "lat": 38.8991295, "lon": -76.93370233333333, "fusion_lat": 0.0, "name": "e3fc5e64473c9a49ac6e1c8d37ddb333", "is_disabled": 0, "is_reserved": 0, "bike_id": "e3fc5e64473c9a49ac6e1c8d37ddb333", "fusion_lon": 0.0, "type": "electric_scooter"}, {"rental_uris": {"ios": "https://dc.lft.to/lastmile_qr_scan", "android": "https://dc.lft.to/lastmile_qr_scan"}, "lat": 38.9274885, "lon": -77.03229866666666, "fusion_lat": 0.0, "name": "b1d42cc217a657f4526687750989c2a9", "is_disabled": 0, "is_reserved": 0, "bike_id": "b1d42cc217a657f4526687750989c2a9", "fusion_lon": 0.0, "type": "electric_scooter"}, {"rental_uris": {"ios": "https://dc.lft.to/lastmile_qr_scan", "android": "https://dc.lft.to/lastmile_qr_scan"}, "lat": 38.92927666666667, "lon": -77.03756283333334, "fusion_lat": 0.0, "name": "c0bd6328d3c841b8ab2eac66e15c4fb7", "is_disabled": 0, "is_reserved": 0, "bike_id": "c0bd6328d3c841b8ab2eac66e15c4fb7", "fusion_lon": 0.0, "type": "electric_scooter"}, {"rental_uris": {"ios": "https://dc.lft.to/lastmile_qr_scan", "android": "https://dc.lft.to/lastmile_qr_scan"}, "lat": 38.8857575, "lon": -77.0154485, "fusion_lat": 0.0, "name": "c11deca37ce89ccee95f185738639c5e", "is_disabled": 0, "is_reserved": 0, "bike_id": "c11deca37ce89ccee95f185738639c5e", "fusion_lon": 0.0, "type": "electric_scooter"}, {"rental_uris": {"ios": "https://dc.lft.to/lastmile_qr_scan", "android": "https://dc.lft.to/lastmile_qr_scan"}, "lat": 38.9156375, "lon": -77.02289233333333, "fusion_lat": 0.0, "name": "d10051d6432227865ee5c94985a8d7bb", "is_disabled": 0, "is_reserved": 0, "bike_id": "d10051d6432227865ee5c94985a8d7bb", "fusion_lon": 0.0, "type": "electric_scooter"}, {"rental_uris": {"ios": "https://dc.lft.to/lastmile_qr_scan", "android": "https://dc.lft.to/lastmile_qr_scan"}, "lat": 38.87297266666667, "lon": -77.1392765, "fusion_lat": 0.0, "name": "a8ead5797b4a99752c5c8a05fa160264", "is_disabled": 0, "is_reserved": 0, "bike_id": "a8ead5797b4a99752c5c8a05fa160264", "fusion_lon": 0.0, "type": "electric_bike"}, {"rental_uris": {"ios": "https://dc.lft.to/lastmile_qr_scan", "android": "https://dc.lft.to/lastmile_qr_scan"}, "lat": 38.90547183333334, "lon": -77.04164483333334, "fusion_lat": 0.0, "name": "cb5d6baf50f21bd5e1cfddcb09cec0da", "is_disabled": 0, "is_reserved": 0, "bike_id": "cb5d6baf50f21bd5e1cfddcb09cec0da", "fusion_lon": 0.0, "type": "electric_scooter"}, {"rental_uris": {"ios": "https://dc.lft.to/lastmile_qr_scan", "android": "https://dc.lft.to/lastmile_qr_scan"}, "lat": 38.894728666666666, "lon": -77.02183066666667, "fusion_lat": 0.0, "name": "5ff78e1f5ce1cde60443c66b8fad80d0", "is_disabled": 0, "is_reserved": 0, "bike_id": "5ff78e1f5ce1cde60443c66b8fad80d0", "fusion_lon": 0.0, "type": "electric_scooter"}, {"rental_uris": {"ios": "https://dc.lft.to/lastmile_qr_scan", "android": "https://dc.lft.to/lastmile_qr_scan"}, "lat": 38.873609333333334, "lon": -76.97029616666667, "fusion_lat": 0.0, "name": "dbfe16bfcb96d8ec68d94af8ba3955ac", "is_disabled": 0, "is_reserved": 0, "bike_id": "dbfe16bfcb96d8ec68d94af8ba3955ac", "fusion_lon": 0.0, "type": "electric_scooter"}, {"rental_uris": {"ios": "https://dc.lft.to/lastmile_qr_scan", "android": "https://dc.lft.to/lastmile_qr_scan"}, "lat": 38.921703, "lon": -77.03840983333333, "fusion_lat": 0.0, "name": "200378db3082ae817aa1a83fd6be7120", "is_disabled": 0, "is_reserved": 0, "bike_id": "200378db3082ae817aa1a83fd6be7120", "fusion_lon": 0.0, "type": "electric_scooter"}, {"rental_uris": {"ios": "https://dc.lft.to/lastmile_qr_scan", "android": "https://dc.lft.to/lastmile_qr_scan"}, "lat": 38.8938045, "lon": -77.0227125, "fusion_lat": 0.0, "name": "682d257b8caaadedb3eb84876d0711e9", "is_disabled": 0, "is_reserved": 0, "bike_id": "682d257b8caaadedb3eb84876d0711e9", "fusion_lon": 0.0, "type": "electric_scooter"}, {"rental_uris": {"ios": "https://dc.lft.to/lastmile_qr_scan", "android": "https://dc.lft.to/lastmile_qr_scan"}, "lat": 38.92262016666667, "lon": -77.0426995, "fusion_lat": 0.0, "name": "cbd837c6740ef2bfb0f88abaa3462644", "is_disabled": 0, "is_reserved": 0, "bike_id": "cbd837c6740ef2bfb0f88abaa3462644", "fusion_lon": 0.0, "type": "electric_scooter"}, {"rental_uris": {"ios": "https://dc.lft.to/lastmile_qr_scan", "android": "https://dc.lft.to/lastmile_qr_scan"}, "lat": 38.91911366666667, "lon": -77.02556516666667, "fusion_lat": 0.0, "name": "18ca05f1af60525ae98f536d2b1521ac", "is_disabled": 0, "is_reserved": 0, "bike_id": "18ca05f1af60525ae98f536d2b1521ac", "fusion_lon": 0.0, "type": "electric_scooter"}, {"rental_uris": {"ios": "https://dc.lft.to/lastmile_qr_scan", "android": "https://dc.lft.to/lastmile_qr_scan"}, "lat": 38.955803833333334, "lon": -77.0272995, "fusion_lat": 0.0, "name": "2f198c681172df62aef5c73321897933", "is_disabled": 0, "is_reserved": 0, "bike_id": "2f198c681172df62aef5c73321897933", "fusion_lon": 0.0, "type": "electric_scooter"}, {"rental_uris": {"ios": "https://dc.lft.to/lastmile_qr_scan", "android": "https://dc.lft.to/lastmile_qr_scan"}, "lat": 38.91412483333333, "lon": -77.02611333333333, "fusion_lat": 0.0, "name": "cf299fc590fb856cf255dcaa48ebd45c", "is_disabled": 0, "is_reserved": 0, "bike_id": "cf299fc590fb856cf255dcaa48ebd45c", "fusion_lon": 0.0, "type": "electric_scooter"}, {"rental_uris": {"ios": "https://dc.lft.to/lastmile_qr_scan", "android": "https://dc.lft.to/lastmile_qr_scan"}, "lat": 38.92327816666667, "lon": -77.03683066666666, "fusion_lat": 0.0, "name": "a3f5f2cfcc226010d4f9c3373c6a3f48", "is_disabled": 0, "is_reserved": 0, "bike_id": "a3f5f2cfcc226010d4f9c3373c6a3f48", "fusion_lon": 0.0, "type": "electric_scooter"}, {"rental_uris": {"ios": "https://dc.lft.to/lastmile_qr_scan", "android": "https://dc.lft.to/lastmile_qr_scan"}, "lat": 38.865077, "lon": -76.99005283333334, "fusion_lat": 0.0, "name": "0b2d8f5812d4385ee9c18c90aee0a832", "is_disabled": 0, "is_reserved": 0, "bike_id": "0b2d8f5812d4385ee9c18c90aee0a832", "fusion_lon": 0.0, "type": "electric_scooter"}, {"rental_uris": {"ios": "https://dc.lft.to/lastmile_qr_scan", "android": "https://dc.lft.to/lastmile_qr_scan"}, "lat": 38.85436383333333, "lon": -77.08305466666667, "fusion_lat": 0.0, "name": "d1a44eb00282a04839dc6c3a6b6ee4a6", "is_disabled": 0, "is_reserved": 0, "bike_id": "d1a44eb00282a04839dc6c3a6b6ee4a6", "fusion_lon": 0.0, "type": "electric_bike"}, {"rental_uris": {"ios": "https://dc.lft.to/lastmile_qr_scan", "android": "https://dc.lft.to/lastmile_qr_scan"}, "lat": 38.930053, "lon": -77.02648033333334, "fusion_lat": 0.0, "name": "b4693867064703d3f70741c67e80cc5b", "is_disabled": 0, "is_reserved": 0, "bike_id": "b4693867064703d3f70741c67e80cc5b", "fusion_lon": 0.0, "type": "electric_scooter"}, {"rental_uris": {"ios": "https://dc.lft.to/lastmile_qr_scan", "android": "https://dc.lft.to/lastmile_qr_scan"}, "lat": 38.915503, "lon": -77.02565883333334, "fusion_lat": 0.0, "name": "1903848a6266921d1ceb9ade1b5d5b7c", "is_disabled": 0, "is_reserved": 0, "bike_id": "1903848a6266921d1ceb9ade1b5d5b7c", "fusion_lon": 0.0, "type": "electric_scooter"}, {"rental_uris": {"ios": "https://dc.lft.to/lastmile_qr_scan", "android": "https://dc.lft.to/lastmile_qr_scan"}, "lat": 38.898392333333334, "lon": -77.02716783333334, "fusion_lat": 0.0, "name": "b0a19ec40e48fef673c35fa9e05d99fa", "is_disabled": 0, "is_reserved": 0, "bike_id": "b0a19ec40e48fef673c35fa9e05d99fa", "fusion_lon": 0.0, "type": "electric_scooter"}, {"rental_uris": {"ios": "https://dc.lft.to/lastmile_qr_scan", "android": "https://dc.lft.to/lastmile_qr_scan"}, "lat": 38.922751833333336, "lon": -77.0422815, "fusion_lat": 0.0, "name": "74370780ab022c91a7d7d6fce394a135", "is_disabled": 0, "is_reserved": 0, "bike_id": "74370780ab022c91a7d7d6fce394a135", "fusion_lon": 0.0, "type": "electric_scooter"}, {"rental_uris": {"ios": "https://dc.lft.to/lastmile_qr_scan", "android": "https://dc.lft.to/lastmile_qr_scan"}, "lat": 38.9103055, "lon": -76.98553383333333, "fusion_lat": 0.0, "name": "fbfbb2e271be28ba07d9af6a718fc24f", "is_disabled": 0, "is_reserved": 0, "bike_id": "fbfbb2e271be28ba07d9af6a718fc24f", "fusion_lon": 0.0, "type": "electric_scooter"}, {"rental_uris": {"ios": "https://dc.lft.to/lastmile_qr_scan", "android": "https://dc.lft.to/lastmile_qr_scan"}, "lat": 38.915291333333336, "lon": -77.0318145, "fusion_lat": 0.0, "name": "e45a85dcf7045af2e9c71dad3c4b7a00", "is_disabled": 0, "is_reserved": 0, "bike_id": "e45a85dcf7045af2e9c71dad3c4b7a00", "fusion_lon": 0.0, "type": "electric_scooter"}, {"rental_uris": {"ios": "https://dc.lft.to/lastmile_qr_scan", "android": "https://dc.lft.to/lastmile_qr_scan"}, "lat": 38.90558683333333, "lon": -77.02830616666667, "fusion_lat": 0.0, "name": "4638fb44d5c269d1b356a3999c7d837f", "is_disabled": 0, "is_reserved": 0, "bike_id": "4638fb44d5c269d1b356a3999c7d837f", "fusion_lon": 0.0, "type": "electric_scooter"}, {"rental_uris": {"ios": "https://dc.lft.to/lastmile_qr_scan", "android": "https://dc.lft.to/lastmile_qr_scan"}, "lat": 38.90188666666667, "lon": -77.01301466666666, "fusion_lat": 0.0, "name": "688ff1fec4b2e5322d3b645eb9d69f62", "is_disabled": 0, "is_reserved": 0, "bike_id": "688ff1fec4b2e5322d3b645eb9d69f62", "fusion_lon": 0.0, "type": "electric_scooter"}, {"rental_uris": {"ios": "https://dc.lft.to/lastmile_qr_scan", "android": "https://dc.lft.to/lastmile_qr_scan"}, "lat": 38.866524, "lon": -76.98863566666667, "fusion_lat": 0.0, "name": "04500abb2bbb30ff9459eb2203804949", "is_disabled": 0, "is_reserved": 0, "bike_id": "04500abb2bbb30ff9459eb2203804949", "fusion_lon": 0.0, "type": "electric_scooter"}, {"rental_uris": {"ios": "https://dc.lft.to/lastmile_qr_scan", "android": "https://dc.lft.to/lastmile_qr_scan"}, "lat": 38.91420033333333, "lon": -77.02204633333334, "fusion_lat": 0.0, "name": "57d385099d3a9319ef8ce663420a1251", "is_disabled": 0, "is_reserved": 0, "bike_id": "57d385099d3a9319ef8ce663420a1251", "fusion_lon": 0.0, "type": "electric_scooter"}, {"rental_uris": {"ios": "https://dc.lft.to/lastmile_qr_scan", "android": "https://dc.lft.to/lastmile_qr_scan"}, "lat": 38.89859333333333, "lon": -76.97522616666667, "fusion_lat": 0.0, "name": "585ebedc6996085e9249b16e48019f9b", "is_disabled": 0, "is_reserved": 0, "bike_id": "585ebedc6996085e9249b16e48019f9b", "fusion_lon": 0.0, "type": "electric_scooter"}, {"rental_uris": {"ios": "https://dc.lft.to/lastmile_qr_scan", "android": "https://dc.lft.to/lastmile_qr_scan"}, "lat": 38.91502033333333, "lon": -77.01771233333334, "fusion_lat": 0.0, "name": "4dbb6ffef307894cfcb07630a47cba7d", "is_disabled": 0, "is_reserved": 0, "bike_id": "4dbb6ffef307894cfcb07630a47cba7d", "fusion_lon": 0.0, "type": "electric_scooter"}, {"rental_uris": {"ios": "https://dc.lft.to/lastmile_qr_scan", "android": "https://dc.lft.to/lastmile_qr_scan"}, "lat": 38.90418566666666, "lon": -77.021503, "fusion_lat": 0.0, "name": "495228f2ddbaa5434fadf93b83ecc0a9", "is_disabled": 0, "is_reserved": 0, "bike_id": "495228f2ddbaa5434fadf93b83ecc0a9", "fusion_lon": 0.0, "type": "electric_scooter"}, {"rental_uris": {"ios": "https://dc.lft.to/lastmile_qr_scan", "android": "https://dc.lft.to/lastmile_qr_scan"}, "lat": 38.928873833333334, "lon": -77.026554, "fusion_lat": 0.0, "name": "b76542e6ec788f28d258f93e830db53e", "is_disabled": 0, "is_reserved": 0, "bike_id": "b76542e6ec788f28d258f93e830db53e", "fusion_lon": 0.0, "type": "electric_scooter"}, {"rental_uris": {"ios": "https://dc.lft.to/lastmile_qr_scan", "android": "https://dc.lft.to/lastmile_qr_scan"}, "lat": 38.91420216666667, "lon": -77.02410816666666, "fusion_lat": 0.0, "name": "8e32bae05897118563d4d885c7fac196", "is_disabled": 0, "is_reserved": 0, "bike_id": "8e32bae05897118563d4d885c7fac196", "fusion_lon": 0.0, "type": "electric_scooter"}, {"rental_uris": {"ios": "https://dc.lft.to/lastmile_qr_scan", "android": "https://dc.lft.to/lastmile_qr_scan"}, "lat": 38.94737966666667, "lon": -76.99583666666666, "fusion_lat": 0.0, "name": "0fea09454ab5940c9359f9c9340b9438", "is_disabled": 0, "is_reserved": 0, "bike_id": "0fea09454ab5940c9359f9c9340b9438", "fusion_lon": 0.0, "type": "electric_bike"}, {"rental_uris": {"ios": "https://dc.lft.to/lastmile_qr_scan", "android": "https://dc.lft.to/lastmile_qr_scan"}, "lat": 38.905244333333336, "lon": -77.048536, "fusion_lat": 0.0, "name": "b76b4b83c39d5690c93cd3630a1419af", "is_disabled": 0, "is_reserved": 0, "bike_id": "b76b4b83c39d5690c93cd3630a1419af", "fusion_lon": 0.0, "type": "electric_scooter"}, {"rental_uris": {"ios": "https://dc.lft.to/lastmile_qr_scan", "android": "https://dc.lft.to/lastmile_qr_scan"}, "lat": 38.99093766666667, "lon": -76.993693, "fusion_lat": 0.0, "name": "1dad482e80d8c09eb2e37cdd895f0169", "is_disabled": 0, "is_reserved": 0, "bike_id": "1dad482e80d8c09eb2e37cdd895f0169", "fusion_lon": 0.0, "type": "electric_bike"}, {"rental_uris": {"ios": "https://dc.lft.to/lastmile_qr_scan", "android": "https://dc.lft.to/lastmile_qr_scan"}, "lat": 38.88495866666667, "lon": -77.00724333333334, "fusion_lat": 0.0, "name": "5183753105f3863d3aff98d893e12d53", "is_disabled": 0, "is_reserved": 0, "bike_id": "5183753105f3863d3aff98d893e12d53", "fusion_lon": 0.0, "type": "electric_scooter"}, {"rental_uris": {"ios": "https://dc.lft.to/lastmile_qr_scan", "android": "https://dc.lft.to/lastmile_qr_scan"}, "lat": 38.91560533333333, "lon": -77.0313155, "fusion_lat": 0.0, "name": "b9b67cba9752b06277d7510ec0ff95ab", "is_disabled": 0, "is_reserved": 0, "bike_id": "b9b67cba9752b06277d7510ec0ff95ab", "fusion_lon": 0.0, "type": "electric_scooter"}, {"rental_uris": {"ios": "https://dc.lft.to/lastmile_qr_scan", "android": "https://dc.lft.to/lastmile_qr_scan"}, "lat": 38.916653, "lon": -76.98174316666666, "fusion_lat": 0.0, "name": "e7c0d516c7e01d3bbd24037b1dcd2819", "is_disabled": 0, "is_reserved": 0, "bike_id": "e7c0d516c7e01d3bbd24037b1dcd2819", "fusion_lon": 0.0, "type": "electric_scooter"}, {"rental_uris": {"ios": "https://dc.lft.to/lastmile_qr_scan", "android": "https://dc.lft.to/lastmile_qr_scan"}, "lat": 38.88311183333333, "lon": -77.00339216666667, "fusion_lat": 0.0, "name": "e6b30694d3a748d1e881254b2b4c06f6", "is_disabled": 0, "is_reserved": 0, "bike_id": "e6b30694d3a748d1e881254b2b4c06f6", "fusion_lon": 0.0, "type": "electric_scooter"}, {"rental_uris": {"ios": "https://dc.lft.to/lastmile_qr_scan", "android": "https://dc.lft.to/lastmile_qr_scan"}, "lat": 38.8923945, "lon": -77.0449685, "fusion_lat": 0.0, "name": "f717fdaa70396bcfad08b0627ad42cf6", "is_disabled": 0, "is_reserved": 0, "bike_id": "f717fdaa70396bcfad08b0627ad42cf6", "fusion_lon": 0.0, "type": "electric_scooter"}, {"rental_uris": {"ios": "https://dc.lft.to/lastmile_qr_scan", "android": "https://dc.lft.to/lastmile_qr_scan"}, "lat": 38.8781255, "lon": -76.9716935, "fusion_lat": 0.0, "name": "2fcc8f57438caa4ad969bc8fc7645b29", "is_disabled": 0, "is_reserved": 0, "bike_id": "2fcc8f57438caa4ad969bc8fc7645b29", "fusion_lon": 0.0, "type": "electric_scooter"}, {"rental_uris": {"ios": "https://dc.lft.to/lastmile_qr_scan", "android": "https://dc.lft.to/lastmile_qr_scan"}, "lat": 38.926278833333335, "lon": -77.03782333333334, "fusion_lat": 0.0, "name": "a7bf7260e543ab507c70c2de6a6e939b", "is_disabled": 0, "is_reserved": 0, "bike_id": "a7bf7260e543ab507c70c2de6a6e939b", "fusion_lon": 0.0, "type": "electric_scooter"}, {"rental_uris": {"ios": "https://dc.lft.to/lastmile_qr_scan", "android": "https://dc.lft.to/lastmile_qr_scan"}, "lat": 38.9032255, "lon": -77.01759066666666, "fusion_lat": 0.0, "name": "66655f2f93ff520d96c8a8111303408f", "is_disabled": 0, "is_reserved": 0, "bike_id": "66655f2f93ff520d96c8a8111303408f", "fusion_lon": 0.0, "type": "electric_scooter"}, {"rental_uris": {"ios": "https://dc.lft.to/lastmile_qr_scan", "android": "https://dc.lft.to/lastmile_qr_scan"}, "lat": 38.858929333333336, "lon": -76.99727083333333, "fusion_lat": 0.0, "name": "f23ec75d07c4ae45db027ef6862288df", "is_disabled": 0, "is_reserved": 0, "bike_id": "f23ec75d07c4ae45db027ef6862288df", "fusion_lon": 0.0, "type": "electric_scooter"}, {"rental_uris": {"ios": "https://dc.lft.to/lastmile_qr_scan", "android": "https://dc.lft.to/lastmile_qr_scan"}, "lat": 38.883949333333334, "lon": -77.09982183333334, "fusion_lat": 0.0, "name": "2f275c12552f53ca582cffc8dde5e3cb", "is_disabled": 0, "is_reserved": 0, "bike_id": "2f275c12552f53ca582cffc8dde5e3cb", "fusion_lon": 0.0, "type": "electric_bike"}, {"rental_uris": {"ios": "https://dc.lft.to/lastmile_qr_scan", "android": "https://dc.lft.to/lastmile_qr_scan"}, "lat": 38.901089166666665, "lon": -77.03000683333333, "fusion_lat": 0.0, "name": "6e2fccd56974770ff15efb83b54b0645", "is_disabled": 0, "is_reserved": 0, "bike_id": "6e2fccd56974770ff15efb83b54b0645", "fusion_lon": 0.0, "type": "electric_scooter"}, {"rental_uris": {"ios": "https://dc.lft.to/lastmile_qr_scan", "android": "https://dc.lft.to/lastmile_qr_scan"}, "lat": 38.922170333333334, "lon": -77.04333, "fusion_lat": 0.0, "name": "005639f28ad5146be6d9bb25791b9c49", "is_disabled": 0, "is_reserved": 0, "bike_id": "005639f28ad5146be6d9bb25791b9c49", "fusion_lon": 0.0, "type": "electric_scooter"}, {"rental_uris": {"ios": "https://dc.lft.to/lastmile_qr_scan", "android": "https://dc.lft.to/lastmile_qr_scan"}, "lat": 38.91849216666667, "lon": -77.03215316666666, "fusion_lat": 0.0, "name": "8a3c23403d751533826f11d71edd0d48", "is_disabled": 0, "is_reserved": 0, "bike_id": "8a3c23403d751533826f11d71edd0d48", "fusion_lon": 0.0, "type": "electric_bike"}, {"rental_uris": {"ios": "https://dc.lft.to/lastmile_qr_scan", "android": "https://dc.lft.to/lastmile_qr_scan"}, "lat": 38.92107333333333, "lon": -77.02040816666667, "fusion_lat": 0.0, "name": "4ca33844f20a1315dce050e9b3dc3624", "is_disabled": 0, "is_reserved": 0, "bike_id": "4ca33844f20a1315dce050e9b3dc3624", "fusion_lon": 0.0, "type": "electric_scooter"}, {"rental_uris": {"ios": "https://dc.lft.to/lastmile_qr_scan", "android": "https://dc.lft.to/lastmile_qr_scan"}, "lat": 38.88007533333333, "lon": -77.00555, "fusion_lat": 0.0, "name": "6d9bac908bac6c40fa2aafca1b355245", "is_disabled": 0, "is_reserved": 0, "bike_id": "6d9bac908bac6c40fa2aafca1b355245", "fusion_lon": 0.0, "type": "electric_scooter"}, {"rental_uris": {"ios": "https://dc.lft.to/lastmile_qr_scan", "android": "https://dc.lft.to/lastmile_qr_scan"}, "lat": 38.899907166666665, "lon": -77.0217555, "fusion_lat": 0.0, "name": "418e6e5006a62b841713170cb28793ba", "is_disabled": 0, "is_reserved": 0, "bike_id": "418e6e5006a62b841713170cb28793ba", "fusion_lon": 0.0, "type": "electric_scooter"}, {"rental_uris": {"ios": "https://dc.lft.to/lastmile_qr_scan", "android": "https://dc.lft.to/lastmile_qr_scan"}, "lat": 38.892379, "lon": -77.0335295, "fusion_lat": 0.0, "name": "77df11de292ff1e0544ba0f1f2a7e89a", "is_disabled": 0, "is_reserved": 0, "bike_id": "77df11de292ff1e0544ba0f1f2a7e89a", "fusion_lon": 0.0, "type": "electric_scooter"}, {"rental_uris": {"ios": "https://dc.lft.to/lastmile_qr_scan", "android": "https://dc.lft.to/lastmile_qr_scan"}, "lat": 38.89911716666667, "lon": -77.0449715, "fusion_lat": 0.0, "name": "83779c7c95eacab9401f2e40fe537818", "is_disabled": 0, "is_reserved": 0, "bike_id": "83779c7c95eacab9401f2e40fe537818", "fusion_lon": 0.0, "type": "electric_scooter"}, {"rental_uris": {"ios": "https://dc.lft.to/lastmile_qr_scan", "android": "https://dc.lft.to/lastmile_qr_scan"}, "lat": 38.917902833333336, "lon": -77.02298866666666, "fusion_lat": 0.0, "name": "f93417189094d912874a016384f37409", "is_disabled": 0, "is_reserved": 0, "bike_id": "f93417189094d912874a016384f37409", "fusion_lon": 0.0, "type": "electric_scooter"}, {"rental_uris": {"ios": "https://dc.lft.to/lastmile_qr_scan", "android": "https://dc.lft.to/lastmile_qr_scan"}, "lat": 38.910619833333335, "lon": -77.04083583333333, "fusion_lat": 0.0, "name": "9deba352cfd2e22defeb1fe3d111a878", "is_disabled": 0, "is_reserved": 0, "bike_id": "9deba352cfd2e22defeb1fe3d111a878", "fusion_lon": 0.0, "type": "electric_scooter"}, {"rental_uris": {"ios": "https://dc.lft.to/lastmile_qr_scan", "android": "https://dc.lft.to/lastmile_qr_scan"}, "lat": 38.8741535, "lon": -77.00037866666666, "fusion_lat": 0.0, "name": "8514af0475e9f368904dcddeff589fc0", "is_disabled": 0, "is_reserved": 0, "bike_id": "8514af0475e9f368904dcddeff589fc0", "fusion_lon": 0.0, "type": "electric_scooter"}, {"rental_uris": {"ios": "https://dc.lft.to/lastmile_qr_scan", "android": "https://dc.lft.to/lastmile_qr_scan"}, "lat": 38.91119416666667, "lon": -77.0435305, "fusion_lat": 0.0, "name": "8fae368fc90c4448336ef64a2bd18f68", "is_disabled": 0, "is_reserved": 0, "bike_id": "8fae368fc90c4448336ef64a2bd18f68", "fusion_lon": 0.0, "type": "electric_scooter"}, {"rental_uris": {"ios": "https://dc.lft.to/lastmile_qr_scan", "android": "https://dc.lft.to/lastmile_qr_scan"}, "lat": 38.940198, "lon": -76.99214683333334, "fusion_lat": 0.0, "name": "72dcc7d657b8f326dec9c7fbb46b4fe9", "is_disabled": 0, "is_reserved": 0, "bike_id": "72dcc7d657b8f326dec9c7fbb46b4fe9", "fusion_lon": 0.0, "type": "electric_bike"}, {"rental_uris": {"ios": "https://dc.lft.to/lastmile_qr_scan", "android": "https://dc.lft.to/lastmile_qr_scan"}, "lat": 38.9230355, "lon": -77.0445935, "fusion_lat": 0.0, "name": "d8e5a865e50536c610480455ece0e850", "is_disabled": 0, "is_reserved": 0, "bike_id": "d8e5a865e50536c610480455ece0e850", "fusion_lon": 0.0, "type": "electric_scooter"}, {"rental_uris": {"ios": "https://dc.lft.to/lastmile_qr_scan", "android": "https://dc.lft.to/lastmile_qr_scan"}, "lat": 38.89613466666667, "lon": -77.02622966666667, "fusion_lat": 0.0, "name": "dab97b718ed1c349d047fc6743cbd2d4", "is_disabled": 0, "is_reserved": 0, "bike_id": "dab97b718ed1c349d047fc6743cbd2d4", "fusion_lon": 0.0, "type": "electric_scooter"}, {"rental_uris": {"ios": "https://dc.lft.to/lastmile_qr_scan", "android": "https://dc.lft.to/lastmile_qr_scan"}, "lat": 38.9124255, "lon": -77.0366305, "fusion_lat": 0.0, "name": "93d5f598869b17e2ebf5c3466ab4aa9a", "is_disabled": 0, "is_reserved": 0, "bike_id": "93d5f598869b17e2ebf5c3466ab4aa9a", "fusion_lon": 0.0, "type": "electric_scooter"}, {"rental_uris": {"ios": "https://dc.lft.to/lastmile_qr_scan", "android": "https://dc.lft.to/lastmile_qr_scan"}, "lat": 38.874202333333336, "lon": -77.085734, "fusion_lat": 0.0, "name": "ce8aeb5cb1f919255a68171f240540b7", "is_disabled": 0, "is_reserved": 0, "bike_id": "ce8aeb5cb1f919255a68171f240540b7", "fusion_lon": 0.0, "type": "electric_bike"}, {"rental_uris": {"ios": "https://dc.lft.to/lastmile_qr_scan", "android": "https://dc.lft.to/lastmile_qr_scan"}, "lat": 38.894976166666666, "lon": -77.0107855, "fusion_lat": 0.0, "name": "8d3eb749cdcd2f8ee223829bcb468cae", "is_disabled": 0, "is_reserved": 0, "bike_id": "8d3eb749cdcd2f8ee223829bcb468cae", "fusion_lon": 0.0, "type": "electric_scooter"}, {"rental_uris": {"ios": "https://dc.lft.to/lastmile_qr_scan", "android": "https://dc.lft.to/lastmile_qr_scan"}, "lat": 38.929326, "lon": -77.02978233333333, "fusion_lat": 0.0, "name": "b66f87a9c3b209651dfb66c343360e38", "is_disabled": 0, "is_reserved": 0, "bike_id": "b66f87a9c3b209651dfb66c343360e38", "fusion_lon": 0.0, "type": "electric_scooter"}, {"rental_uris": {"ios": "https://dc.lft.to/lastmile_qr_scan", "android": "https://dc.lft.to/lastmile_qr_scan"}, "lat": 38.896641333333335, "lon": -76.9883975, "fusion_lat": 0.0, "name": "62f5410b6769bcb53ed786efd5494a13", "is_disabled": 0, "is_reserved": 0, "bike_id": "62f5410b6769bcb53ed786efd5494a13", "fusion_lon": 0.0, "type": "electric_scooter"}, {"rental_uris": {"ios": "https://dc.lft.to/lastmile_qr_scan", "android": "https://dc.lft.to/lastmile_qr_scan"}, "lat": 38.88716733333333, "lon": -76.99625666666667, "fusion_lat": 0.0, "name": "0ab8214ebfb599790bf95a9f1b3dbc14", "is_disabled": 0, "is_reserved": 0, "bike_id": "0ab8214ebfb599790bf95a9f1b3dbc14", "fusion_lon": 0.0, "type": "electric_scooter"}, {"rental_uris": {"ios": "https://dc.lft.to/lastmile_qr_scan", "android": "https://dc.lft.to/lastmile_qr_scan"}, "lat": 38.89831783333333, "lon": -77.04437633333333, "fusion_lat": 0.0, "name": "e1ab0f1dd8a5a828c6f0ab025b98b9d2", "is_disabled": 0, "is_reserved": 0, "bike_id": "e1ab0f1dd8a5a828c6f0ab025b98b9d2", "fusion_lon": 0.0, "type": "electric_scooter"}, {"rental_uris": {"ios": "https://dc.lft.to/lastmile_qr_scan", "android": "https://dc.lft.to/lastmile_qr_scan"}, "lat": 38.942901166666665, "lon": -77.02166083333333, "fusion_lat": 0.0, "name": "dd0b0701af5be2224c5810c6f67b2e39", "is_disabled": 0, "is_reserved": 0, "bike_id": "dd0b0701af5be2224c5810c6f67b2e39", "fusion_lon": 0.0, "type": "electric_scooter"}, {"rental_uris": {"ios": "https://dc.lft.to/lastmile_qr_scan", "android": "https://dc.lft.to/lastmile_qr_scan"}, "lat": 38.912725333333334, "lon": -77.031442, "fusion_lat": 0.0, "name": "6939afd62036ae914313a3feae0a3ec5", "is_disabled": 0, "is_reserved": 0, "bike_id": "6939afd62036ae914313a3feae0a3ec5", "fusion_lon": 0.0, "type": "electric_scooter"}, {"rental_uris": {"ios": "https://dc.lft.to/lastmile_qr_scan", "android": "https://dc.lft.to/lastmile_qr_scan"}, "lat": 38.92623066666667, "lon": -77.04218033333333, "fusion_lat": 0.0, "name": "29fbb75f4a8793252d275316b1299c2f", "is_disabled": 0, "is_reserved": 0, "bike_id": "29fbb75f4a8793252d275316b1299c2f", "fusion_lon": 0.0, "type": "electric_scooter"}, {"rental_uris": {"ios": "https://dc.lft.to/lastmile_qr_scan", "android": "https://dc.lft.to/lastmile_qr_scan"}, "lat": 38.9140325, "lon": -77.023774, "fusion_lat": 0.0, "name": "2c49d4b8ee12630ad0ff92faf95f0e53", "is_disabled": 0, "is_reserved": 0, "bike_id": "2c49d4b8ee12630ad0ff92faf95f0e53", "fusion_lon": 0.0, "type": "electric_scooter"}, {"rental_uris": {"ios": "https://dc.lft.to/lastmile_qr_scan", "android": "https://dc.lft.to/lastmile_qr_scan"}, "lat": 39.056314, "lon": -77.12524883333333, "fusion_lat": 0.0, "name": "513ead9298a43fbeb7016e449a6b8668", "is_disabled": 0, "is_reserved": 0, "bike_id": "513ead9298a43fbeb7016e449a6b8668", "fusion_lon": 0.0, "type": "electric_bike"}, {"rental_uris": {"ios": "https://dc.lft.to/lastmile_qr_scan", "android": "https://dc.lft.to/lastmile_qr_scan"}, "lat": 38.89227866666667, "lon": -77.03165466666667, "fusion_lat": 0.0, "name": "2002f9f4e7e49dca28f58a825034abce", "is_disabled": 0, "is_reserved": 0, "bike_id": "2002f9f4e7e49dca28f58a825034abce", "fusion_lon": 0.0, "type": "electric_scooter"}, {"rental_uris": {"ios": "https://dc.lft.to/lastmile_qr_scan", "android": "https://dc.lft.to/lastmile_qr_scan"}, "lat": 38.93276216666667, "lon": -77.03497133333333, "fusion_lat": 0.0, "name": "d176c46fc1b07369421437ee52c782ff", "is_disabled": 0, "is_reserved": 0, "bike_id": "d176c46fc1b07369421437ee52c782ff", "fusion_lon": 0.0, "type": "electric_scooter"}, {"rental_uris": {"ios": "https://dc.lft.to/lastmile_qr_scan", "android": "https://dc.lft.to/lastmile_qr_scan"}, "lat": 38.9096055, "lon": -77.023591, "fusion_lat": 0.0, "name": "81d74d65544f3c4320e200c3dc4f1a75", "is_disabled": 0, "is_reserved": 0, "bike_id": "81d74d65544f3c4320e200c3dc4f1a75", "fusion_lon": 0.0, "type": "electric_scooter"}, {"rental_uris": {"ios": "https://dc.lft.to/lastmile_qr_scan", "android": "https://dc.lft.to/lastmile_qr_scan"}, "lat": 38.93822683333333, "lon": -77.07159516666667, "fusion_lat": 0.0, "name": "79c5ab8840915b4d8d92fcbd65f586e0", "is_disabled": 0, "is_reserved": 0, "bike_id": "79c5ab8840915b4d8d92fcbd65f586e0", "fusion_lon": 0.0, "type": "electric_scooter"}, {"rental_uris": {"ios": "https://dc.lft.to/lastmile_qr_scan", "android": "https://dc.lft.to/lastmile_qr_scan"}, "lat": 38.903941333333336, "lon": -77.06503816666667, "fusion_lat": 0.0, "name": "43ef275e8fdcf6f2542769ee335c3648", "is_disabled": 0, "is_reserved": 0, "bike_id": "43ef275e8fdcf6f2542769ee335c3648", "fusion_lon": 0.0, "type": "electric_scooter"}, {"rental_uris": {"ios": "https://dc.lft.to/lastmile_qr_scan", "android": "https://dc.lft.to/lastmile_qr_scan"}, "lat": 38.902139, "lon": -77.0197505, "fusion_lat": 0.0, "name": "dc1af7de1edbef0cddd288a4d2f92cea", "is_disabled": 0, "is_reserved": 0, "bike_id": "dc1af7de1edbef0cddd288a4d2f92cea", "fusion_lon": 0.0, "type": "electric_scooter"}, {"rental_uris": {"ios": "https://dc.lft.to/lastmile_qr_scan", "android": "https://dc.lft.to/lastmile_qr_scan"}, "lat": 38.911816333333334, "lon": -77.03861116666667, "fusion_lat": 0.0, "name": "11808d777b34a9ce6829c29cba768c4e", "is_disabled": 0, "is_reserved": 0, "bike_id": "11808d777b34a9ce6829c29cba768c4e", "fusion_lon": 0.0, "type": "electric_scooter"}, {"rental_uris": {"ios": "https://dc.lft.to/lastmile_qr_scan", "android": "https://dc.lft.to/lastmile_qr_scan"}, "lat": 38.917735666666665, "lon": -77.04101233333333, "fusion_lat": 0.0, "name": "1769ecfa7de9f5c82f2dabbf4b21d70e", "is_disabled": 0, "is_reserved": 0, "bike_id": "1769ecfa7de9f5c82f2dabbf4b21d70e", "fusion_lon": 0.0, "type": "electric_scooter"}, {"rental_uris": {"ios": "https://dc.lft.to/lastmile_qr_scan", "android": "https://dc.lft.to/lastmile_qr_scan"}, "lat": 38.923629, "lon": -77.05043666666667, "fusion_lat": 0.0, "name": "1df85b2165713c2efee66895e098443d", "is_disabled": 0, "is_reserved": 0, "bike_id": "1df85b2165713c2efee66895e098443d", "fusion_lon": 0.0, "type": "electric_scooter"}, {"rental_uris": {"ios": "https://dc.lft.to/lastmile_qr_scan", "android": "https://dc.lft.to/lastmile_qr_scan"}, "lat": 38.898429166666666, "lon": -77.04499766666666, "fusion_lat": 0.0, "name": "bc874e41be73c75dcdc946598be4f9c8", "is_disabled": 0, "is_reserved": 0, "bike_id": "bc874e41be73c75dcdc946598be4f9c8", "fusion_lon": 0.0, "type": "electric_scooter"}, {"rental_uris": {"ios": "https://dc.lft.to/lastmile_qr_scan", "android": "https://dc.lft.to/lastmile_qr_scan"}, "lat": 38.908647333333334, "lon": -77.02448316666667, "fusion_lat": 0.0, "name": "172703e7477bb80a1886e20b7dfcaee4", "is_disabled": 0, "is_reserved": 0, "bike_id": "172703e7477bb80a1886e20b7dfcaee4", "fusion_lon": 0.0, "type": "electric_scooter"}, {"rental_uris": {"ios": "https://dc.lft.to/lastmile_qr_scan", "android": "https://dc.lft.to/lastmile_qr_scan"}, "lat": 38.901083666666665, "lon": -77.00904216666666, "fusion_lat": 0.0, "name": "6492bcfea7f4aeeb6f0b682a176c1c4e", "is_disabled": 0, "is_reserved": 0, "bike_id": "6492bcfea7f4aeeb6f0b682a176c1c4e", "fusion_lon": 0.0, "type": "electric_scooter"}, {"rental_uris": {"ios": "https://dc.lft.to/lastmile_qr_scan", "android": "https://dc.lft.to/lastmile_qr_scan"}, "lat": 38.9119915, "lon": -77.000916, "fusion_lat": 0.0, "name": "8e83bc87ec24cff73dbc64efc99064ee", "is_disabled": 0, "is_reserved": 0, "bike_id": "8e83bc87ec24cff73dbc64efc99064ee", "fusion_lon": 0.0, "type": "electric_scooter"}, {"rental_uris": {"ios": "https://dc.lft.to/lastmile_qr_scan", "android": "https://dc.lft.to/lastmile_qr_scan"}, "lat": 38.900977, "lon": -77.012232, "fusion_lat": 0.0, "name": "88729e33c22b9661a5a0a5942db64c19", "is_disabled": 0, "is_reserved": 0, "bike_id": "88729e33c22b9661a5a0a5942db64c19", "fusion_lon": 0.0, "type": "electric_scooter"}, {"rental_uris": {"ios": "https://dc.lft.to/lastmile_qr_scan", "android": "https://dc.lft.to/lastmile_qr_scan"}, "lat": 38.9293665, "lon": -77.01641366666666, "fusion_lat": 0.0, "name": "ebd8d2c4e7f648431afb5068f07c2b03", "is_disabled": 0, "is_reserved": 0, "bike_id": "ebd8d2c4e7f648431afb5068f07c2b03", "fusion_lon": 0.0, "type": "electric_scooter"}, {"rental_uris": {"ios": "https://dc.lft.to/lastmile_qr_scan", "android": "https://dc.lft.to/lastmile_qr_scan"}, "lat": 38.8920465, "lon": -76.97711266666667, "fusion_lat": 0.0, "name": "d18e358d5c049525f4af43859d39e909", "is_disabled": 0, "is_reserved": 0, "bike_id": "d18e358d5c049525f4af43859d39e909", "fusion_lon": 0.0, "type": "electric_bike"}, {"rental_uris": {"ios": "https://dc.lft.to/lastmile_qr_scan", "android": "https://dc.lft.to/lastmile_qr_scan"}, "lat": 38.89997016666667, "lon": -77.0066305, "fusion_lat": 0.0, "name": "c1deb51dce9342cb0dea52a575f7c450", "is_disabled": 0, "is_reserved": 0, "bike_id": "c1deb51dce9342cb0dea52a575f7c450", "fusion_lon": 0.0, "type": "electric_scooter"}, {"rental_uris": {"ios": "https://dc.lft.to/lastmile_qr_scan", "android": "https://dc.lft.to/lastmile_qr_scan"}, "lat": 38.9187235, "lon": -77.02487383333333, "fusion_lat": 0.0, "name": "cb90d2112ee06523d431b8ce1305dd37", "is_disabled": 0, "is_reserved": 0, "bike_id": "cb90d2112ee06523d431b8ce1305dd37", "fusion_lon": 0.0, "type": "electric_scooter"}, {"rental_uris": {"ios": "https://dc.lft.to/lastmile_qr_scan", "android": "https://dc.lft.to/lastmile_qr_scan"}, "lat": 38.896647333333334, "lon": -77.02820066666666, "fusion_lat": 0.0, "name": "779505c41b87e03c85de7e6fd58e73d7", "is_disabled": 0, "is_reserved": 0, "bike_id": "779505c41b87e03c85de7e6fd58e73d7", "fusion_lon": 0.0, "type": "electric_scooter"}, {"rental_uris": {"ios": "https://dc.lft.to/lastmile_qr_scan", "android": "https://dc.lft.to/lastmile_qr_scan"}, "lat": 38.9246525, "lon": -77.03773466666667, "fusion_lat": 0.0, "name": "88bfce63ba661f31a2ff1f90316b3756", "is_disabled": 0, "is_reserved": 0, "bike_id": "88bfce63ba661f31a2ff1f90316b3756", "fusion_lon": 0.0, "type": "electric_scooter"}, {"rental_uris": {"ios": "https://dc.lft.to/lastmile_qr_scan", "android": "https://dc.lft.to/lastmile_qr_scan"}, "lat": 38.8803095, "lon": -77.02495816666666, "fusion_lat": 0.0, "name": "274460cb7ce3a2cead976a46d0c45bd8", "is_disabled": 0, "is_reserved": 0, "bike_id": "274460cb7ce3a2cead976a46d0c45bd8", "fusion_lon": 0.0, "type": "electric_scooter"}, {"rental_uris": {"ios": "https://dc.lft.to/lastmile_qr_scan", "android": "https://dc.lft.to/lastmile_qr_scan"}, "lat": 38.9014155, "lon": -77.04630883333333, "fusion_lat": 0.0, "name": "b7497c74854403ece6ea0d79245c08e1", "is_disabled": 0, "is_reserved": 0, "bike_id": "b7497c74854403ece6ea0d79245c08e1", "fusion_lon": 0.0, "type": "electric_scooter"}, {"rental_uris": {"ios": "https://dc.lft.to/lastmile_qr_scan", "android": "https://dc.lft.to/lastmile_qr_scan"}, "lat": 38.928601666666665, "lon": -77.03710533333333, "fusion_lat": 0.0, "name": "de91e515934b956b174ba67f44ea466e", "is_disabled": 0, "is_reserved": 0, "bike_id": "de91e515934b956b174ba67f44ea466e", "fusion_lon": 0.0, "type": "electric_scooter"}, {"rental_uris": {"ios": "https://dc.lft.to/lastmile_qr_scan", "android": "https://dc.lft.to/lastmile_qr_scan"}, "lat": 38.900839833333336, "lon": -77.04993, "fusion_lat": 0.0, "name": "3d23add5488aacbcca403c27f86a8b9b", "is_disabled": 0, "is_reserved": 0, "bike_id": "3d23add5488aacbcca403c27f86a8b9b", "fusion_lon": 0.0, "type": "electric_scooter"}, {"rental_uris": {"ios": "https://dc.lft.to/lastmile_qr_scan", "android": "https://dc.lft.to/lastmile_qr_scan"}, "lat": 38.875022666666666, "lon": -77.0025735, "fusion_lat": 0.0, "name": "c7e64453cfd3afddeefda0bad0036c9e", "is_disabled": 0, "is_reserved": 0, "bike_id": "c7e64453cfd3afddeefda0bad0036c9e", "fusion_lon": 0.0, "type": "electric_scooter"}, {"rental_uris": {"ios": "https://dc.lft.to/lastmile_qr_scan", "android": "https://dc.lft.to/lastmile_qr_scan"}, "lat": 38.92822266666667, "lon": -77.02622516666666, "fusion_lat": 0.0, "name": "7986c837288cc49cf167b2a9b8b54284", "is_disabled": 0, "is_reserved": 0, "bike_id": "7986c837288cc49cf167b2a9b8b54284", "fusion_lon": 0.0, "type": "electric_scooter"}, {"rental_uris": {"ios": "https://dc.lft.to/lastmile_qr_scan", "android": "https://dc.lft.to/lastmile_qr_scan"}, "lat": 38.9063775, "lon": -77.0179, "fusion_lat": 0.0, "name": "cbc9f25106ec7163fd2cc601dc0d82a4", "is_disabled": 0, "is_reserved": 0, "bike_id": "cbc9f25106ec7163fd2cc601dc0d82a4", "fusion_lon": 0.0, "type": "electric_scooter"}, {"rental_uris": {"ios": "https://dc.lft.to/lastmile_qr_scan", "android": "https://dc.lft.to/lastmile_qr_scan"}, "lat": 38.92246516666667, "lon": -77.01948766666666, "fusion_lat": 0.0, "name": "edec412ce599120b63b8678a90b0d527", "is_disabled": 0, "is_reserved": 0, "bike_id": "edec412ce599120b63b8678a90b0d527", "fusion_lon": 0.0, "type": "electric_scooter"}, {"rental_uris": {"ios": "https://dc.lft.to/lastmile_qr_scan", "android": "https://dc.lft.to/lastmile_qr_scan"}, "lat": 38.91255316666667, "lon": -77.03863816666667, "fusion_lat": 0.0, "name": "55af775a826674415715e317c5850f28", "is_disabled": 0, "is_reserved": 0, "bike_id": "55af775a826674415715e317c5850f28", "fusion_lon": 0.0, "type": "electric_scooter"}, {"rental_uris": {"ios": "https://dc.lft.to/lastmile_qr_scan", "android": "https://dc.lft.to/lastmile_qr_scan"}, "lat": 38.933213333333335, "lon": -77.08560416666667, "fusion_lat": 0.0, "name": "6a829e05d84b07a213fb7744e6ce2d21", "is_disabled": 0, "is_reserved": 0, "bike_id": "6a829e05d84b07a213fb7744e6ce2d21", "fusion_lon": 0.0, "type": "electric_scooter"}, {"rental_uris": {"ios": "https://dc.lft.to/lastmile_qr_scan", "android": "https://dc.lft.to/lastmile_qr_scan"}, "lat": 38.92068666666667, "lon": -77.0421115, "fusion_lat": 0.0, "name": "bcc620075504e042a964aa868da0458a", "is_disabled": 0, "is_reserved": 0, "bike_id": "bcc620075504e042a964aa868da0458a", "fusion_lon": 0.0, "type": "electric_scooter"}, {"rental_uris": {"ios": "https://dc.lft.to/lastmile_qr_scan", "android": "https://dc.lft.to/lastmile_qr_scan"},