{"data": {"bikes": [{"is_reserved": 0, "type": "electric_scooter", "bike_id": "6324060c14798c0f36dd54230406ba3f", "lat": 38.9206915, "lon": -77.01693183333333, "rental_uris": {"android": "https://dc.lft.to/lastmile_qr_scan", "ios": "https://dc.lft.to/lastmile_qr_scan"}, "is_disabled": 0, "fusion_lat": 0.0, "name": "6324060c14798c0f36dd54230406ba3f", "fusion_lon": 0.0}, {"is_reserved": 0, "type": "electric_scooter", "bike_id": "80a21cea22b8ec1c6da8d5fc03ad3f48", "lat": 38.91930216666667, "lon": -77.03424166666667, "rental_uris": {"android": "https://dc.lft.to/lastmile_qr_scan", "ios": "https://dc.lft.to/lastmile_qr_scan"}, "is_disabled": 0, "fusion_lat": 0.0, "name": "80a21cea22b8ec1c6da8d5fc03ad3f48", "fusion_lon": 0.0}, {"is_reserved": 0, "type": "electric_scooter", "bike_id": "1e1e55d61f0be27bd2850f7e9ed07eb2", "lat": 38.9562, "lon": -77.0032655, "rental_uris": {"android": "https://dc.lft.to/lastmile_qr_scan", "ios": "https://dc.lft.to/lastmile_qr_scan"}, "is_disabled": 0, "fusion_lat": 0.0, "name": "1e1e55d61f0be27bd2850f7e9ed07eb2", "fusion_lon": 0.0}, {"is_reserved": 0, "type": "electric_scooter", "bike_id": "091930f103b32b9e773cc7d109e93edf", "lat": 38.914861, "lon": -77.03245716666666, "rental_uris": {"android": "https://dc.lft.to/lastmile_qr_scan", "ios": "https://dc.lft.to/lastmile_qr_scan"}, "is_disabled": 0, "fusion_lat": 0.0, "name": "091930f103b32b9e773cc7d109e93edf", "fusion_lon": 0.0}, {"is_reserved": 0, "type": "electric_scooter", "bike_id": "9d62ab8572370ee55e9c55e179f0660b", "lat": 38.918022, "lon": -77.03444866666666, "rental_uris": {"android": "https://dc.lft.to/lastmile_qr_scan", "ios": "https://dc.lft.to/lastmile_qr_scan"}, "is_disabled": 0, "fusion_lat": 0.0, "name": "9d62ab8572370ee55e9c55e179f0660b", "fusion_lon": 0.0}, {"is_reserved": 0, "type": "electric_scooter", "bike_id": "f9f26ad488935dfb5f7d0246912b0d32", "lat": 38.92143383333333, "lon": -77.04586566666667, "rental_uris": {"android": "https://dc.lft.to/lastmile_qr_scan", "ios": "https://dc.lft.to/lastmile_qr_scan"}, "is_disabled": 0, "fusion_lat": 0.0, "name": "f9f26ad488935dfb5f7d0246912b0d32", "fusion_lon": 0.0}, {"is_reserved": 0, "type": "electric_scooter", "bike_id": "b62e68e80e8d1189057212175a50f89f", "lat": 38.906456666666664, "lon": -77.01197066666667, "rental_uris": {"android": "https://dc.lft.to/lastmile_qr_scan", "ios": "https://dc.lft.to/lastmile_qr_scan"}, "is_disabled": 0, "fusion_lat": 0.0, "name": "b62e68e80e8d1189057212175a50f89f", "fusion_lon": 0.0}, {"is_reserved": 0, "type": "electric_scooter", "bike_id": "4276f462c21d784149a17cb72d7e9205", "lat": 38.95742416666667, "lon": -77.030264, "rental_uris": {"android": "https://dc.lft.to/lastmile_qr_scan", "ios": "https://dc.lft.to/lastmile_qr_scan"}, "is_disabled": 0, "fusion_lat": 0.0, "name": "4276f462c21d784149a17cb72d7e9205", "fusion_lon": 0.0}, {"is_reserved": 0, "type": "electric_scooter", "bike_id": "3d5950260d431eb5b5f9eb9221b30ed4", "lat": 38.89530716666667, "lon": -77.04476133333333, "rental_uris": {"android": "https://dc.lft.to/lastmile_qr_scan", "ios": "https://dc.lft.to/lastmile_qr_scan"}, "is_disabled": 0, "fusion_lat": 0.0, "name": "3d5950260d431eb5b5f9eb9221b30ed4", "fusion_lon": 0.0}, {"is_reserved": 0, "type": "electric_bike", "bike_id": "0b18f6a85a23c03113d7afd71659aa73", "lat": 39.08493516666667, "lon": -76.95061316666667, "rental_uris": {"android": "https://dc.lft.to/lastmile_qr_scan", "ios": "https://dc.lft.to/lastmile_qr_scan"}, "is_disabled": 0, "fusion_lat": 0.0, "name": "0b18f6a85a23c03113d7afd71659aa73", "fusion_lon": 0.0}, {"is_reserved": 0, "type": "electric_scooter", "bike_id": "4ce955284723a4695e21427e38e172a8", "lat": 38.916973666666664, "lon": -77.02683433333333, "rental_uris": {"android": "https://dc.lft.to/lastmile_qr_scan", "ios": "https://dc.lft.to/lastmile_qr_scan"}, "is_disabled": 0, "fusion_lat": 0.0, "name": "4ce955284723a4695e21427e38e172a8", "fusion_lon": 0.0}, {"is_reserved": 0, "type": "electric_scooter", "bike_id": "d436ef1a8e3411c4c23d7470e3f50573", "lat": 38.9353605, "lon": -77.0728195, "rental_uris": {"android": "https://dc.lft.to/lastmile_qr_scan", "ios": "https://dc.lft.to/lastmile_qr_scan"}, "is_disabled": 0, "fusion_lat": 0.0, "name": "d436ef1a8e3411c4c23d7470e3f50573", "fusion_lon": 0.0}, {"is_reserved": 0, "type": "electric_scooter", "bike_id": "9648c1852f71445c1df89182bcae76fc", "lat": 38.902581833333336, "lon": -77.039754, "rental_uris": {"android": "https://dc.lft.to/lastmile_qr_scan", "ios": "https://dc.lft.to/lastmile_qr_scan"}, "is_disabled": 0, "fusion_lat": 0.0, "name": "9648c1852f71445c1df89182bcae76fc", "fusion_lon": 0.0}, {"is_reserved": 0, "type": "electric_scooter", "bike_id": "9f1d895b12c7348ea0ba15b1b8413a17", "lat": 38.895427166666664, "lon": -76.98334616666666, "rental_uris": {"android": "https://dc.lft.to/lastmile_qr_scan", "ios": "https://dc.lft.to/lastmile_qr_scan"}, "is_disabled": 0, "fusion_lat": 0.0, "name": "9f1d895b12c7348ea0ba15b1b8413a17", "fusion_lon": 0.0}, {"is_reserved": 0, "type": "electric_scooter", "bike_id": "e7856808a82ca6826406e7b0cb1bfaac", "lat": 38.89880266666667, "lon": -76.988384, "rental_uris": {"android": "https://dc.lft.to/lastmile_qr_scan", "ios": "https://dc.lft.to/lastmile_qr_scan"}, "is_disabled": 0, "fusion_lat": 0.0, "name": "e7856808a82ca6826406e7b0cb1bfaac", "fusion_lon": 0.0}, {"is_reserved": 0, "type": "electric_scooter", "bike_id": "9ba5b059f77134a1fd8e7a62a291e94d", "lat": 38.9149845, "lon": -77.0122465, "rental_uris": {"android": "https://dc.lft.to/lastmile_qr_scan", "ios": "https://dc.lft.to/lastmile_qr_scan"}, "is_disabled": 0, "fusion_lat": 0.0, "name": "9ba5b059f77134a1fd8e7a62a291e94d", "fusion_lon": 0.0}, {"is_reserved": 0, "type": "electric_scooter", "bike_id": "cae3ea3684461e8a180cfbf7a120ca12", "lat": 38.904977333333335, "lon": -77.02959116666666, "rental_uris": {"android": "https://dc.lft.to/lastmile_qr_scan", "ios": "https://dc.lft.to/lastmile_qr_scan"}, "is_disabled": 0, "fusion_lat": 0.0, "name": "cae3ea3684461e8a180cfbf7a120ca12", "fusion_lon": 0.0}, {"is_reserved": 0, "type": "electric_scooter", "bike_id": "e2ffa3b2b53ecfdb9ca0eb435e252905", "lat": 38.9163005, "lon": -77.02811816666667, "rental_uris": {"android": "https://dc.lft.to/lastmile_qr_scan", "ios": "https://dc.lft.to/lastmile_qr_scan"}, "is_disabled": 0, "fusion_lat": 0.0, "name": "e2ffa3b2b53ecfdb9ca0eb435e252905", "fusion_lon": 0.0}, {"is_reserved": 0, "type": "electric_scooter", "bike_id": "ee0f02b61b1127561d0f9883225c2d6b", "lat": 38.92127, "lon": -77.017977, "rental_uris": {"android": "https://dc.lft.to/lastmile_qr_scan", "ios": "https://dc.lft.to/lastmile_qr_scan"}, "is_disabled": 0, "fusion_lat": 0.0, "name": "ee0f02b61b1127561d0f9883225c2d6b", "fusion_lon": 0.0}, {"is_reserved": 0, "type": "electric_scooter", "bike_id": "18a43f8f3343d1da218d3a2753715c4f", "lat": 38.924186, "lon": -77.01946433333333, "rental_uris": {"android": "https://dc.lft.to/lastmile_qr_scan", "ios": "https://dc.lft.to/lastmile_qr_scan"}, "is_disabled": 0, "fusion_lat": 0.0, "name": "18a43f8f3343d1da218d3a2753715c4f", "fusion_lon": 0.0}, {"is_reserved": 0, "type": "electric_scooter", "bike_id": "28f79e64c5859a4401eb9226518890bf", "lat": 38.938567166666665, "lon": -77.07583883333334, "rental_uris": {"android": "https://dc.lft.to/lastmile_qr_scan", "ios": "https://dc.lft.to/lastmile_qr_scan"}, "is_disabled": 0, "fusion_lat": 0.0, "name": "28f79e64c5859a4401eb9226518890bf", "fusion_lon": 0.0}, {"is_reserved": 0, "type": "electric_scooter", "bike_id": "d7f3a4f06d9fdc6f4605da86f6a53f42", "lat": 38.88350166666667, "lon": -77.01999266666667, "rental_uris": {"android": "https://dc.lft.to/lastmile_qr_scan", "ios": "https://dc.lft.to/lastmile_qr_scan"}, "is_disabled": 0, "fusion_lat": 0.0, "name": "d7f3a4f06d9fdc6f4605da86f6a53f42", "fusion_lon": 0.0}, {"is_reserved": 0, "type": "electric_scooter", "bike_id": "2a525f5ac521165291f7a43978b42bcc", "lat": 38.940312, "lon": -77.024959, "rental_uris": {"android": "https://dc.lft.to/lastmile_qr_scan", "ios": "https://dc.lft.to/lastmile_qr_scan"}, "is_disabled": 0, "fusion_lat": 0.0, "name": "2a525f5ac521165291f7a43978b42bcc", "fusion_lon": 0.0}, {"is_reserved": 0, "type": "electric_scooter", "bike_id": "21c58099beab87e22db8dc028de63ad4", "lat": 38.895927, "lon": -76.929839, "rental_uris": {"android": "https://dc.lft.to/lastmile_qr_scan", "ios": "https://dc.lft.to/lastmile_qr_scan"}, "is_disabled": 0, "fusion_lat": 0.0, "name": "21c58099beab87e22db8dc028de63ad4", "fusion_lon": 0.0}, {"is_reserved": 0, "type": "electric_scooter", "bike_id": "65f983be21b4fa29ef4d2ad1733e92dd", "lat": 38.89844216666667, "lon": -77.02181283333333, "rental_uris": {"android": "https://dc.lft.to/lastmile_qr_scan", "ios": "https://dc.lft.to/lastmile_qr_scan"}, "is_disabled": 0, "fusion_lat": 0.0, "name": "65f983be21b4fa29ef4d2ad1733e92dd", "fusion_lon": 0.0}, {"is_reserved": 0, "type": "electric_scooter", "bike_id": "cbdcdc16588ac19521dd8ca3b773f5a1", "lat": 38.970028666666664, "lon": -77.00910366666666, "rental_uris": {"android": "https://dc.lft.to/lastmile_qr_scan", "ios": "https://dc.lft.to/lastmile_qr_scan"}, "is_disabled": 0, "fusion_lat": 0.0, "name": "cbdcdc16588ac19521dd8ca3b773f5a1", "fusion_lon": 0.0}, {"is_reserved": 0, "type": "electric_scooter", "bike_id": "3fd593521eebb50cef7170305db2e7b8", "lat": 38.90554366666667, "lon": -77.03248933333333, "rental_uris": {"android": "https://dc.lft.to/lastmile_qr_scan", "ios": "https://dc.lft.to/lastmile_qr_scan"}, "is_disabled": 0, "fusion_lat": 0.0, "name": "3fd593521eebb50cef7170305db2e7b8", "fusion_lon": 0.0}, {"is_reserved": 0, "type": "electric_scooter", "bike_id": "2c30918e9b3b9744f6ed2e481f681564", "lat": 38.892206333333334, "lon": -77.02419766666667, "rental_uris": {"android": "https://dc.lft.to/lastmile_qr_scan", "ios": "https://dc.lft.to/lastmile_qr_scan"}, "is_disabled": 0, "fusion_lat": 0.0, "name": "2c30918e9b3b9744f6ed2e481f681564", "fusion_lon": 0.0}, {"is_reserved": 0, "type": "electric_scooter", "bike_id": "f373471063f95f72454ec4faa5b5e45c", "lat": 38.876418666666666, "lon": -77.00857366666666, "rental_uris": {"android": "https://dc.lft.to/lastmile_qr_scan", "ios": "https://dc.lft.to/lastmile_qr_scan"}, "is_disabled": 0, "fusion_lat": 0.0, "name": "f373471063f95f72454ec4faa5b5e45c", "fusion_lon": 0.0}, {"is_reserved": 0, "type": "electric_scooter", "bike_id": "23a207369e5dbd7a371f3dead16e4186", "lat": 38.89520316666667, "lon": -77.03959416666666, "rental_uris": {"android": "https://dc.lft.to/lastmile_qr_scan", "ios": "https://dc.lft.to/lastmile_qr_scan"}, "is_disabled": 0, "fusion_lat": 0.0, "name": "23a207369e5dbd7a371f3dead16e4186", "fusion_lon": 0.0}, {"is_reserved": 0, "type": "electric_scooter", "bike_id": "42d6ec018e2fb9239187d836dbbf8bf8", "lat": 38.90958083333334, "lon": -77.022799, "rental_uris": {"android": "https://dc.lft.to/lastmile_qr_scan", "ios": "https://dc.lft.to/lastmile_qr_scan"}, "is_disabled": 0, "fusion_lat": 0.0, "name": "42d6ec018e2fb9239187d836dbbf8bf8", "fusion_lon": 0.0}, {"is_reserved": 0, "type": "electric_scooter", "bike_id": "75e639d01d2d13a27d8c038747d3de90", "lat": 38.957445666666665, "lon": -77.02107783333334, "rental_uris": {"android": "https://dc.lft.to/lastmile_qr_scan", "ios": "https://dc.lft.to/lastmile_qr_scan"}, "is_disabled": 0, "fusion_lat": 0.0, "name": "75e639d01d2d13a27d8c038747d3de90", "fusion_lon": 0.0}, {"is_reserved": 0, "type": "electric_scooter", "bike_id": "5d511837142a98b487c8d1657d9e856d", "lat": 38.92395616666667, "lon": -77.0445285, "rental_uris": {"android": "https://dc.lft.to/lastmile_qr_scan", "ios": "https://dc.lft.to/lastmile_qr_scan"}, "is_disabled": 0, "fusion_lat": 0.0, "name": "5d511837142a98b487c8d1657d9e856d", "fusion_lon": 0.0}, {"is_reserved": 0, "type": "electric_scooter", "bike_id": "d31e60060323a1af87a12b9108f0ce50", "lat": 38.89825166666667, "lon": -77.030548, "rental_uris": {"android": "https://dc.lft.to/lastmile_qr_scan", "ios": "https://dc.lft.to/lastmile_qr_scan"}, "is_disabled": 0, "fusion_lat": 0.0, "name": "d31e60060323a1af87a12b9108f0ce50", "fusion_lon": 0.0}, {"is_reserved": 0, "type": "electric_scooter", "bike_id": "e9a35cbfe2cbbb81d0181990971fb77e", "lat": 38.91674533333333, "lon": -77.03461983333334, "rental_uris": {"android": "https://dc.lft.to/lastmile_qr_scan", "ios": "https://dc.lft.to/lastmile_qr_scan"}, "is_disabled": 0, "fusion_lat": 0.0, "name": "e9a35cbfe2cbbb81d0181990971fb77e", "fusion_lon": 0.0}, {"is_reserved": 0, "type": "electric_scooter", "bike_id": "cf7a62b34b1950d944840ac8e05f0719", "lat": 38.912515166666665, "lon": -77.00776666666667, "rental_uris": {"android": "https://dc.lft.to/lastmile_qr_scan", "ios": "https://dc.lft.to/lastmile_qr_scan"}, "is_disabled": 0, "fusion_lat": 0.0, "name": "cf7a62b34b1950d944840ac8e05f0719", "fusion_lon": 0.0}, {"is_reserved": 0, "type": "electric_scooter", "bike_id": "f1685934ba197aa96e21b9df2357606a", "lat": 38.9145025, "lon": -77.03186933333333, "rental_uris": {"android": "https://dc.lft.to/lastmile_qr_scan", "ios": "https://dc.lft.to/lastmile_qr_scan"}, "is_disabled": 0, "fusion_lat": 0.0, "name": "f1685934ba197aa96e21b9df2357606a", "fusion_lon": 0.0}, {"is_reserved": 0, "type": "electric_bike", "bike_id": "fb21d41ef722de8e5acca8b1e162be92", "lat": 38.886035, "lon": -77.14236316666667, "rental_uris": {"android": "https://dc.lft.to/lastmile_qr_scan", "ios": "https://dc.lft.to/lastmile_qr_scan"}, "is_disabled": 0, "fusion_lat": 0.0, "name": "fb21d41ef722de8e5acca8b1e162be92", "fusion_lon": 0.0}, {"is_reserved": 0, "type": "electric_scooter", "bike_id": "e5659b69d71514a6db22885c6b09b70d", "lat": 38.89744016666667, "lon": -76.997619, "rental_uris": {"android": "https://dc.lft.to/lastmile_qr_scan", "ios": "https://dc.lft.to/lastmile_qr_scan"}, "is_disabled": 0, "fusion_lat": 0.0, "name": "e5659b69d71514a6db22885c6b09b70d", "fusion_lon": 0.0}, {"is_reserved": 0, "type": "electric_scooter", "bike_id": "8aa3d1bf2c4bfd790bb2d0a6c332cc9e", "lat": 38.91642433333333, "lon": -77.02367916666667, "rental_uris": {"android": "https://dc.lft.to/lastmile_qr_scan", "ios": "https://dc.lft.to/lastmile_qr_scan"}, "is_disabled": 0, "fusion_lat": 0.0, "name": "8aa3d1bf2c4bfd790bb2d0a6c332cc9e", "fusion_lon": 0.0}, {"is_reserved": 0, "type": "electric_scooter", "bike_id": "64fb39ac313f31e550b860680b70e2e5", "lat": 38.88508733333333, "lon": -77.01115033333333, "rental_uris": {"android": "https://dc.lft.to/lastmile_qr_scan", "ios": "https://dc.lft.to/lastmile_qr_scan"}, "is_disabled": 0, "fusion_lat": 0.0, "name": "64fb39ac313f31e550b860680b70e2e5", "fusion_lon": 0.0}, {"is_reserved": 0, "type": "electric_scooter", "bike_id": "d12c424293b74c941ac10613fec18625", "lat": 38.9154935, "lon": -77.03991466666666, "rental_uris": {"android": "https://dc.lft.to/lastmile_qr_scan", "ios": "https://dc.lft.to/lastmile_qr_scan"}, "is_disabled": 0, "fusion_lat": 0.0, "name": "d12c424293b74c941ac10613fec18625", "fusion_lon": 0.0}, {"is_reserved": 0, "type": "electric_scooter", "bike_id": "0b32bc1fa5ea9c81f34cf3c5f9131e33", "lat": 38.8985735, "lon": -77.0294535, "rental_uris": {"android": "https://dc.lft.to/lastmile_qr_scan", "ios": "https://dc.lft.to/lastmile_qr_scan"}, "is_disabled": 0, "fusion_lat": 0.0, "name": "0b32bc1fa5ea9c81f34cf3c5f9131e33", "fusion_lon": 0.0}, {"is_reserved": 0, "type": "electric_bike", "bike_id": "fe1d0ae829167698fe0be053bb382b53", "lat": 38.94664616666667, "lon": -76.99331883333333, "rental_uris": {"android": "https://dc.lft.to/lastmile_qr_scan", "ios": "https://dc.lft.to/lastmile_qr_scan"}, "is_disabled": 0, "fusion_lat": 0.0, "name": "fe1d0ae829167698fe0be053bb382b53", "fusion_lon": 0.0}, {"is_reserved": 0, "type": "electric_scooter", "bike_id": "b2a383b7cf6c943ed8256c73a6c6e8a3", "lat": 38.8992895, "lon": -77.03291416666667, "rental_uris": {"android": "https://dc.lft.to/lastmile_qr_scan", "ios": "https://dc.lft.to/lastmile_qr_scan"}, "is_disabled": 0, "fusion_lat": 0.0, "name": "b2a383b7cf6c943ed8256c73a6c6e8a3", "fusion_lon": 0.0}, {"is_reserved": 0, "type": "electric_scooter", "bike_id": "4103602c096fdd40a09511084d2ebd53", "lat": 38.918716833333335, "lon": -77.03646983333333, "rental_uris": {"android": "https://dc.lft.to/lastmile_qr_scan", "ios": "https://dc.lft.to/lastmile_qr_scan"}, "is_disabled": 0, "fusion_lat": 0.0, "name": "4103602c096fdd40a09511084d2ebd53", "fusion_lon": 0.0}, {"is_reserved": 0, "type": "electric_scooter", "bike_id": "ee742781c18b8ab503901a244c5a88eb", "lat": 38.89255466666667, "lon": -76.941396, "rental_uris": {"android": "https://dc.lft.to/lastmile_qr_scan", "ios": "https://dc.lft.to/lastmile_qr_scan"}, "is_disabled": 0, "fusion_lat": 0.0, "name": "ee742781c18b8ab503901a244c5a88eb", "fusion_lon": 0.0}, {"is_reserved": 0, "type": "electric_scooter", "bike_id": "df3718a5ce9a784dde6d988b6d7ecdae", "lat": 38.940891666666666, "lon": -77.02973133333333, "rental_uris": {"android": "https://dc.lft.to/lastmile_qr_scan", "ios": "https://dc.lft.to/lastmile_qr_scan"}, "is_disabled": 0, "fusion_lat": 0.0, "name": "df3718a5ce9a784dde6d988b6d7ecdae", "fusion_lon": 0.0}, {"is_reserved": 0, "type": "electric_scooter", "bike_id": "94f24419d1c76975947a06a9d84d40a3", "lat": 38.93244516666667, "lon": -77.03865566666667, "rental_uris": {"android": "https://dc.lft.to/lastmile_qr_scan", "ios": "https://dc.lft.to/lastmile_qr_scan"}, "is_disabled": 0, "fusion_lat": 0.0, "name": "94f24419d1c76975947a06a9d84d40a3", "fusion_lon": 0.0}, {"is_reserved": 0, "type": "electric_scooter", "bike_id": "bcdd237195761a41bf16b63fb27840aa", "lat": 38.91761866666667, "lon": -77.02300383333333, "rental_uris": {"android": "https://dc.lft.to/lastmile_qr_scan", "ios": "https://dc.lft.to/lastmile_qr_scan"}, "is_disabled": 0, "fusion_lat": 0.0, "name": "bcdd237195761a41bf16b63fb27840aa", "fusion_lon": 0.0}, {"is_reserved": 0, "type": "electric_scooter", "bike_id": "7ac5334048feb1c7f29190b11d78803d", "lat": 38.905690166666666, "lon": -77.01848983333333, "rental_uris": {"android": "https://dc.lft.to/lastmile_qr_scan", "ios": "https://dc.lft.to/lastmile_qr_scan"}, "is_disabled": 0, "fusion_lat": 0.0, "name": "7ac5334048feb1c7f29190b11d78803d", "fusion_lon": 0.0}, {"is_reserved": 0, "type": "electric_scooter", "bike_id": "a27ae132911cea02b2d94a31e56480e0", "lat": 38.900294, "lon": -76.9987525, "rental_uris": {"android": "https://dc.lft.to/lastmile_qr_scan", "ios": "https://dc.lft.to/lastmile_qr_scan"}, "is_disabled": 0, "fusion_lat": 0.0, "name": "a27ae132911cea02b2d94a31e56480e0", "fusion_lon": 0.0}, {"is_reserved": 0, "type": "electric_scooter", "bike_id": "79bd57ace475067ecd4145ad8d91b2ed", "lat": 38.925334, "lon": -77.055611, "rental_uris": {"android": "https://dc.lft.to/lastmile_qr_scan", "ios": "https://dc.lft.to/lastmile_qr_scan"}, "is_disabled": 0, "fusion_lat": 0.0, "name": "79bd57ace475067ecd4145ad8d91b2ed", "fusion_lon": 0.0}, {"is_reserved": 0, "type": "electric_scooter", "bike_id": "2696bfe9913ec140cce892505b326136", "lat": 38.9017495, "lon": -77.046548, "rental_uris": {"android": "https://dc.lft.to/lastmile_qr_scan", "ios": "https://dc.lft.to/lastmile_qr_scan"}, "is_disabled": 0, "fusion_lat": 0.0, "name": "2696bfe9913ec140cce892505b326136", "fusion_lon": 0.0}, {"is_reserved": 0, "type": "electric_scooter", "bike_id": "e8cd6daae60d837ef1acde311be5ce09", "lat": 38.926036833333335, "lon": -77.024902, "rental_uris": {"android": "https://dc.lft.to/lastmile_qr_scan", "ios": "https://dc.lft.to/lastmile_qr_scan"}, "is_disabled": 0, "fusion_lat": 0.0, "name": "e8cd6daae60d837ef1acde311be5ce09", "fusion_lon": 0.0}, {"is_reserved": 0, "type": "electric_scooter", "bike_id": "aab12d807acd8a36b4e0ae546244ab41", "lat": 38.896757666666666, "lon": -77.05047166666667, "rental_uris": {"android": "https://dc.lft.to/lastmile_qr_scan", "ios": "https://dc.lft.to/lastmile_qr_scan"}, "is_disabled": 0, "fusion_lat": 0.0, "name": "aab12d807acd8a36b4e0ae546244ab41", "fusion_lon": 0.0}, {"is_reserved": 0, "type": "electric_scooter", "bike_id": "0820d3492761925c7bcd8bb2d6ea1812", "lat": 38.926898, "lon": -77.0258005, "rental_uris": {"android": "https://dc.lft.to/lastmile_qr_scan", "ios": "https://dc.lft.to/lastmile_qr_scan"}, "is_disabled": 0, "fusion_lat": 0.0, "name": "0820d3492761925c7bcd8bb2d6ea1812", "fusion_lon": 0.0}, {"is_reserved": 0, "type": "electric_scooter", "bike_id": "9d117e57fbfd60f5a4ca454d2510300a", "lat": 38.920752, "lon": -77.0239215, "rental_uris": {"android": "https://dc.lft.to/lastmile_qr_scan", "ios": "https://dc.lft.to/lastmile_qr_scan"}, "is_disabled": 0, "fusion_lat": 0.0, "name": "9d117e57fbfd60f5a4ca454d2510300a", "fusion_lon": 0.0}, {"is_reserved": 0, "type": "electric_scooter", "bike_id": "628d2eb43151642dcf1f8bf27596e46c", "lat": 38.943037833333335, "lon": -77.05928366666667, "rental_uris": {"android": "https://dc.lft.to/lastmile_qr_scan", "ios": "https://dc.lft.to/lastmile_qr_scan"}, "is_disabled": 0, "fusion_lat": 0.0, "name": "628d2eb43151642dcf1f8bf27596e46c", "fusion_lon": 0.0}, {"is_reserved": 0, "type": "electric_bike", "bike_id": "ba7dc9d64437363073e49b3a9bf35630", "lat": 38.88245666666667, "lon": -76.9626355, "rental_uris": {"android": "https://dc.lft.to/lastmile_qr_scan", "ios": "https://dc.lft.to/lastmile_qr_scan"}, "is_disabled": 0, "fusion_lat": 0.0, "name": "ba7dc9d64437363073e49b3a9bf35630", "fusion_lon": 0.0}, {"is_reserved": 0, "type": "electric_scooter", "bike_id": "eba7dff6e0bad6e93acf65b7df1390c7", "lat": 38.90075316666667, "lon": -77.04878066666667, "rental_uris": {"android": "https://dc.lft.to/lastmile_qr_scan", "ios": "https://dc.lft.to/lastmile_qr_scan"}, "is_disabled": 0, "fusion_lat": 0.0, "name": "eba7dff6e0bad6e93acf65b7df1390c7", "fusion_lon": 0.0}, {"is_reserved": 0, "type": "electric_scooter", "bike_id": "ae6ca6e83a220ef1bccba659ad58ab29", "lat": 38.897036166666666, "lon": -77.00504883333333, "rental_uris": {"android": "https://dc.lft.to/lastmile_qr_scan", "ios": "https://dc.lft.to/lastmile_qr_scan"}, "is_disabled": 0, "fusion_lat": 0.0, "name": "ae6ca6e83a220ef1bccba659ad58ab29", "fusion_lon": 0.0}, {"is_reserved": 0, "type": "electric_scooter", "bike_id": "0a17335464d4f85ac663d3e0277a1b08", "lat": 38.927206, "lon": -77.03685416666667, "rental_uris": {"android": "https://dc.lft.to/lastmile_qr_scan", "ios": "https://dc.lft.to/lastmile_qr_scan"}, "is_disabled": 0, "fusion_lat": 0.0, "name": "0a17335464d4f85ac663d3e0277a1b08", "fusion_lon": 0.0}, {"is_reserved": 0, "type": "electric_scooter", "bike_id": "260cc70030d11b5d80a7282e09ac68b4", "lat": 38.89910283333333, "lon": -76.93364016666666, "rental_uris": {"android": "https://dc.lft.to/lastmile_qr_scan", "ios": "https://dc.lft.to/lastmile_qr_scan"}, "is_disabled": 0, "fusion_lat": 0.0, "name": "260cc70030d11b5d80a7282e09ac68b4", "fusion_lon": 0.0}, {"is_reserved": 0, "type": "electric_scooter", "bike_id": "a871c891bfb807e86048184d508ab804", "lat": 38.90618166666667, "lon": -77.00862233333334, "rental_uris": {"android": "https://dc.lft.to/lastmile_qr_scan", "ios": "https://dc.lft.to/lastmile_qr_scan"}, "is_disabled": 0, "fusion_lat": 0.0, "name": "a871c891bfb807e86048184d508ab804", "fusion_lon": 0.0}, {"is_reserved": 0, "type": "electric_scooter", "bike_id": "e6d20fe06046cf290e66c896b1448867", "lat": 38.8522385, "lon": -76.99426666666666, "rental_uris": {"android": "https://dc.lft.to/lastmile_qr_scan", "ios": "https://dc.lft.to/lastmile_qr_scan"}, "is_disabled": 0, "fusion_lat": 0.0, "name": "e6d20fe06046cf290e66c896b1448867", "fusion_lon": 0.0}, {"is_reserved": 0, "type": "electric_scooter", "bike_id": "4a3e6ec199d149ea6fb896f6a55a2690", "lat": 38.921476, "lon": -77.0450035, "rental_uris": {"android": "https://dc.lft.to/lastmile_qr_scan", "ios": "https://dc.lft.to/lastmile_qr_scan"}, "is_disabled": 0, "fusion_lat": 0.0, "name": "4a3e6ec199d149ea6fb896f6a55a2690", "fusion_lon": 0.0}, {"is_reserved": 0, "type": "electric_scooter", "bike_id": "40f68e2fac74e74ca9246ef76af5a2ce", "lat": 38.938911166666664, "lon": -77.0326775, "rental_uris": {"android": "https://dc.lft.to/lastmile_qr_scan", "ios": "https://dc.lft.to/lastmile_qr_scan"}, "is_disabled": 0, "fusion_lat": 0.0, "name": "40f68e2fac74e74ca9246ef76af5a2ce", "fusion_lon": 0.0}, {"is_reserved": 0, "type": "electric_scooter", "bike_id": "690d7b5933a432836b08fa1974704471", "lat": 38.93618683333333, "lon": -77.03222966666667, "rental_uris": {"android": "https://dc.lft.to/lastmile_qr_scan", "ios": "https://dc.lft.to/lastmile_qr_scan"}, "is_disabled": 0, "fusion_lat": 0.0, "name": "690d7b5933a432836b08fa1974704471", "fusion_lon": 0.0}, {"is_reserved": 0, "type": "electric_scooter", "bike_id": "aa5c3b4e4ec349aa2f7b9426d9466219", "lat": 38.904977333333335, "lon": -77.0295775, "rental_uris": {"android": "https://dc.lft.to/lastmile_qr_scan", "ios": "https://dc.lft.to/lastmile_qr_scan"}, "is_disabled": 0, "fusion_lat": 0.0, "name": "aa5c3b4e4ec349aa2f7b9426d9466219", "fusion_lon": 0.0}, {"is_reserved": 0, "type": "electric_scooter", "bike_id": "73be277337261529c52233fd2170da42", "lat": 38.876581333333334, "lon": -77.00741333333333, "rental_uris": {"android": "https://dc.lft.to/lastmile_qr_scan", "ios": "https://dc.lft.to/lastmile_qr_scan"}, "is_disabled": 0, "fusion_lat": 0.0, "name": "73be277337261529c52233fd2170da42", "fusion_lon": 0.0}, {"is_reserved": 0, "type": "electric_scooter", "bike_id": "4f13945e28adc44fa4af223cb05f1544", "lat": 38.885083, "lon": -76.99684116666667, "rental_uris": {"android": "https://dc.lft.to/lastmile_qr_scan", "ios": "https://dc.lft.to/lastmile_qr_scan"}, "is_disabled": 0, "fusion_lat": 0.0, "name": "4f13945e28adc44fa4af223cb05f1544", "fusion_lon": 0.0}, {"is_reserved": 0, "type": "electric_scooter", "bike_id": "0bc4c010ebe29311898a2bbcd1782163", "lat": 38.92084233333333, "lon": -77.02418, "rental_uris": {"android": "https://dc.lft.to/lastmile_qr_scan", "ios": "https://dc.lft.to/lastmile_qr_scan"}, "is_disabled": 0, "fusion_lat": 0.0, "name": "0bc4c010ebe29311898a2bbcd1782163", "fusion_lon": 0.0}, {"is_reserved": 0, "type": "electric_scooter", "bike_id": "7712d972a653790377e47bb75802167f", "lat": 38.9225465, "lon": -77.03905833333333, "rental_uris": {"android": "https://dc.lft.to/lastmile_qr_scan", "ios": "https://dc.lft.to/lastmile_qr_scan"}, "is_disabled": 0, "fusion_lat": 0.0, "name": "7712d972a653790377e47bb75802167f", "fusion_lon": 0.0}, {"is_reserved": 0, "type": "electric_scooter", "bike_id": "09bb88f43cd9a6e24511c092099dc08c", "lat": 38.92316183333333, "lon": -77.04455383333334, "rental_uris": {"android": "https://dc.lft.to/lastmile_qr_scan", "ios": "https://dc.lft.to/lastmile_qr_scan"}, "is_disabled": 0, "fusion_lat": 0.0, "name": "09bb88f43cd9a6e24511c092099dc08c", "fusion_lon": 0.0}, {"is_reserved": 0, "type": "electric_scooter", "bike_id": "bef3bbc1609ec943d1bc48394f006d96", "lat": 38.9143915, "lon": -77.02395983333334, "rental_uris": {"android": "https://dc.lft.to/lastmile_qr_scan", "ios": "https://dc.lft.to/lastmile_qr_scan"}, "is_disabled": 0, "fusion_lat": 0.0, "name": "bef3bbc1609ec943d1bc48394f006d96", "fusion_lon": 0.0}, {"is_reserved": 0, "type": "electric_scooter", "bike_id": "e5a59083783b3aad070834149f535d36", "lat": 38.915728666666666, "lon": -77.04621733333333, "rental_uris": {"android": "https://dc.lft.to/lastmile_qr_scan", "ios": "https://dc.lft.to/lastmile_qr_scan"}, "is_disabled": 0, "fusion_lat": 0.0, "name": "e5a59083783b3aad070834149f535d36", "fusion_lon": 0.0}, {"is_reserved": 0, "type": "electric_scooter", "bike_id": "15729991a8cb080171de12e42fa4ea68", "lat": 38.92628466666667, "lon": -77.03537816666666, "rental_uris": {"android": "https://dc.lft.to/lastmile_qr_scan", "ios": "https://dc.lft.to/lastmile_qr_scan"}, "is_disabled": 0, "fusion_lat": 0.0, "name": "15729991a8cb080171de12e42fa4ea68", "fusion_lon": 0.0}, {"is_reserved": 0, "type": "electric_scooter", "bike_id": "160f558f51fea3cafc1cb07950db810c", "lat": 38.94903583333333, "lon": -77.0318575, "rental_uris": {"android": "https://dc.lft.to/lastmile_qr_scan", "ios": "https://dc.lft.to/lastmile_qr_scan"}, "is_disabled": 0, "fusion_lat": 0.0, "name": "160f558f51fea3cafc1cb07950db810c", "fusion_lon": 0.0}, {"is_reserved": 0, "type": "electric_scooter", "bike_id": "18e8aa443679431507d0e913a8896f73", "lat": 38.92071266666667, "lon": -77.02311933333333, "rental_uris": {"android": "https://dc.lft.to/lastmile_qr_scan", "ios": "https://dc.lft.to/lastmile_qr_scan"}, "is_disabled": 0, "fusion_lat": 0.0, "name": "18e8aa443679431507d0e913a8896f73", "fusion_lon": 0.0}, {"is_reserved": 0, "type": "electric_scooter", "bike_id": "7202f10ebbe23845bd3157f2264f51a0", "lat": 38.917222, "lon": -77.02968133333333, "rental_uris": {"android": "https://dc.lft.to/lastmile_qr_scan", "ios": "https://dc.lft.to/lastmile_qr_scan"}, "is_disabled": 0, "fusion_lat": 0.0, "name": "7202f10ebbe23845bd3157f2264f51a0", "fusion_lon": 0.0}, {"is_reserved": 0, "type": "electric_scooter", "bike_id": "3b42dcd4bd5a1c2a5b48e6a14c983bd0", "lat": 38.9822785, "lon": -77.026462, "rental_uris": {"android": "https://dc.lft.to/lastmile_qr_scan", "ios": "https://dc.lft.to/lastmile_qr_scan"}, "is_disabled": 0, "fusion_lat": 0.0, "name": "3b42dcd4bd5a1c2a5b48e6a14c983bd0", "fusion_lon": 0.0}, {"is_reserved": 0, "type": "electric_scooter", "bike_id": "bb0c58772b25ce6cbac971ee1de641bc", "lat": 38.874718333333334, "lon": -77.00557116666667, "rental_uris": {"android": "https://dc.lft.to/lastmile_qr_scan", "ios": "https://dc.lft.to/lastmile_qr_scan"}, "is_disabled": 0, "fusion_lat": 0.0, "name": "bb0c58772b25ce6cbac971ee1de641bc", "fusion_lon": 0.0}, {"is_reserved": 0, "type": "electric_scooter", "bike_id": "4b608c8eba66f4e54323759b57aca8ae", "lat": 38.8757445, "lon": -77.00577883333334, "rental_uris": {"android": "https://dc.lft.to/lastmile_qr_scan", "ios": "https://dc.lft.to/lastmile_qr_scan"}, "is_disabled": 0, "fusion_lat": 0.0, "name": "4b608c8eba66f4e54323759b57aca8ae", "fusion_lon": 0.0}, {"is_reserved": 0, "type": "electric_scooter", "bike_id": "8571d9d936c5ef1be1568e3c965f423c", "lat": 38.896179000000004, "lon": -76.99731283333334, "rental_uris": {"android": "https://dc.lft.to/lastmile_qr_scan", "ios": "https://dc.lft.to/lastmile_qr_scan"}, "is_disabled": 0, "fusion_lat": 0.0, "name": "8571d9d936c5ef1be1568e3c965f423c", "fusion_lon": 0.0}, {"is_reserved": 0, "type": "electric_bike", "bike_id": "68957dc81cdda34ce8b0ac50e4440549", "lat": 38.94563083333333, "lon": -76.95839433333333, "rental_uris": {"android": "https://dc.lft.to/lastmile_qr_scan", "ios": "https://dc.lft.to/lastmile_qr_scan"}, "is_disabled": 0, "fusion_lat": 0.0, "name": "68957dc81cdda34ce8b0ac50e4440549", "fusion_lon": 0.0}, {"is_reserved": 0, "type": "electric_scooter", "bike_id": "06338373373938bc3763cc14f960a97d", "lat": 38.9164755, "lon": -77.02181083333333, "rental_uris": {"android": "https://dc.lft.to/lastmile_qr_scan", "ios": "https://dc.lft.to/lastmile_qr_scan"}, "is_disabled": 0, "fusion_lat": 0.0, "name": "06338373373938bc3763cc14f960a97d", "fusion_lon": 0.0}, {"is_reserved": 0, "type": "electric_scooter", "bike_id": "dc5f1b274d17f98afe33149ae3876999", "lat": 38.9239595, "lon": -77.05059516666667, "rental_uris": {"android": "https://dc.lft.to/lastmile_qr_scan", "ios": "https://dc.lft.to/lastmile_qr_scan"}, "is_disabled": 0, "fusion_lat": 0.0, "name": "dc5f1b274d17f98afe33149ae3876999", "fusion_lon": 0.0}, {"is_reserved": 0, "type": "electric_scooter", "bike_id": "c3c36e17e3ce568aa676495bb90354ee", "lat": 38.893323, "lon": -77.03185033333334, "rental_uris": {"android": "https://dc.lft.to/lastmile_qr_scan", "ios": "https://dc.lft.to/lastmile_qr_scan"}, "is_disabled": 0, "fusion_lat": 0.0, "name": "c3c36e17e3ce568aa676495bb90354ee", "fusion_lon": 0.0}, {"is_reserved": 0, "type": "electric_bike", "bike_id": "fc32eb251a37e7482698bd4d7386dc21", "lat": 38.95871866666667, "lon": -76.97054216666666, "rental_uris": {"android": "https://dc.lft.to/lastmile_qr_scan", "ios": "https://dc.lft.to/lastmile_qr_scan"}, "is_disabled": 0, "fusion_lat": 0.0, "name": "fc32eb251a37e7482698bd4d7386dc21", "fusion_lon": 0.0}, {"is_reserved": 0, "type": "electric_scooter", "bike_id": "59de7867c1826590399998cfd7e3bdad", "lat": 38.93227183333333, "lon": -76.99744083333333, "rental_uris": {"android": "https://dc.lft.to/lastmile_qr_scan", "ios": "https://dc.lft.to/lastmile_qr_scan"}, "is_disabled": 0, "fusion_lat": 0.0, "name": "59de7867c1826590399998cfd7e3bdad", "fusion_lon": 0.0}, {"is_reserved": 0, "type": "electric_scooter", "bike_id": "fdfd00be466d374166202d8c63b7f0f6", "lat": 38.89955416666667, "lon": -76.94636466666667, "rental_uris": {"android": "https://dc.lft.to/lastmile_qr_scan", "ios": "https://dc.lft.to/lastmile_qr_scan"}, "is_disabled": 0, "fusion_lat": 0.0, "name": "fdfd00be466d374166202d8c63b7f0f6", "fusion_lon": 0.0}, {"is_reserved": 0, "type": "electric_scooter", "bike_id": "e2cc21faa1edbbdb2feee25fe55e9a4b", "lat": 38.9036085, "lon": -77.00741766666667, "rental_uris": {"android": "https://dc.lft.to/lastmile_qr_scan", "ios": "https://dc.lft.to/lastmile_qr_scan"}, "is_disabled": 0, "fusion_lat": 0.0, "name": "e2cc21faa1edbbdb2feee25fe55e9a4b", "fusion_lon": 0.0}, {"is_reserved": 0, "type": "electric_scooter", "bike_id": "1b736a87afe44cd77d4d5bdd2805dbe4", "lat": 38.90570566666667, "lon": -77.0041595, "rental_uris": {"android": "https://dc.lft.to/lastmile_qr_scan", "ios": "https://dc.lft.to/lastmile_qr_scan"}, "is_disabled": 0, "fusion_lat": 0.0, "name": "1b736a87afe44cd77d4d5bdd2805dbe4", "fusion_lon": 0.0}, {"is_reserved": 0, "type": "electric_scooter", "bike_id": "c8401450e5f9566e61d61441759d1ab7", "lat": 38.92148366666667, "lon": -77.01907666666666, "rental_uris": {"android": "https://dc.lft.to/lastmile_qr_scan", "ios": "https://dc.lft.to/lastmile_qr_scan"}, "is_disabled": 0, "fusion_lat": 0.0, "name": "c8401450e5f9566e61d61441759d1ab7", "fusion_lon": 0.0}, {"is_reserved": 0, "type": "electric_scooter", "bike_id": "3a633c2e0c1f7053d6914795b3e29a8e", "lat": 38.9168275, "lon": -77.02960033333333, "rental_uris": {"android": "https://dc.lft.to/lastmile_qr_scan", "ios": "https://dc.lft.to/lastmile_qr_scan"}, "is_disabled": 0, "fusion_lat": 0.0, "name": "3a633c2e0c1f7053d6914795b3e29a8e", "fusion_lon": 0.0}, {"is_reserved": 0, "type": "electric_scooter", "bike_id": "992aaf102c34d341aa4f6cb8d0135d83", "lat": 38.907407166666665, "lon": -77.00805116666666, "rental_uris": {"android": "https://dc.lft.to/lastmile_qr_scan", "ios": "https://dc.lft.to/lastmile_qr_scan"}, "is_disabled": 0, "fusion_lat": 0.0, "name": "992aaf102c34d341aa4f6cb8d0135d83", "fusion_lon": 0.0}, {"is_reserved": 0, "type": "electric_scooter", "bike_id": "e8c2dd3cf0d0b5998ee8cf3fbd9a19d1", "lat": 38.930791, "lon": -77.02822066666667, "rental_uris": {"android": "https://dc.lft.to/lastmile_qr_scan", "ios": "https://dc.lft.to/lastmile_qr_scan"}, "is_disabled": 0, "fusion_lat": 0.0, "name": "e8c2dd3cf0d0b5998ee8cf3fbd9a19d1", "fusion_lon": 0.0}, {"is_reserved": 0, "type": "electric_scooter", "bike_id": "02a4f31ad8a6bd14473ab6c85f8ff619", "lat": 38.89227666666667, "lon": -77.04999333333333, "rental_uris": {"android": "https://dc.lft.to/lastmile_qr_scan", "ios": "https://dc.lft.to/lastmile_qr_scan"}, "is_disabled": 0, "fusion_lat": 0.0, "name": "02a4f31ad8a6bd14473ab6c85f8ff619", "fusion_lon": 0.0}, {"is_reserved": 0, "type": "electric_scooter", "bike_id": "0b09c127a408e795d586c29a8e5083c9", "lat": 38.867196, "lon": -76.98074166666666, "rental_uris": {"android": "https://dc.lft.to/lastmile_qr_scan", "ios": "https://dc.lft.to/lastmile_qr_scan"}, "is_disabled": 0, "fusion_lat": 0.0, "name": "0b09c127a408e795d586c29a8e5083c9", "fusion_lon": 0.0}, {"is_reserved": 0, "type": "electric_scooter", "bike_id": "2f067311cd5e49b77d32ed3fde13b8c3", "lat": 38.900376, "lon": -77.0019495, "rental_uris": {"android": "https://dc.lft.to/lastmile_qr_scan", "ios": "https://dc.lft.to/lastmile_qr_scan"}, "is_disabled": 0, "fusion_lat": 0.0, "name": "2f067311cd5e49b77d32ed3fde13b8c3", "fusion_lon": 0.0}, {"is_reserved": 0, "type": "electric_scooter", "bike_id": "0a84ea5e0e0b908ae6a79ff1aea8a244", "lat": 38.87654333333333, "lon": -77.02074816666666, "rental_uris": {"android": "https://dc.lft.to/lastmile_qr_scan", "ios": "https://dc.lft.to/lastmile_qr_scan"}, "is_disabled": 0, "fusion_lat": 0.0, "name": "0a84ea5e0e0b908ae6a79ff1aea8a244", "fusion_lon": 0.0}, {"is_reserved": 0, "type": "electric_scooter", "bike_id": "99c9c0c5074e697d8a7413a414d9fd3c", "lat": 38.8853155, "lon": -76.98057233333333, "rental_uris": {"android": "https://dc.lft.to/lastmile_qr_scan", "ios": "https://dc.lft.to/lastmile_qr_scan"}, "is_disabled": 0, "fusion_lat": 0.0, "name": "99c9c0c5074e697d8a7413a414d9fd3c", "fusion_lon": 0.0}, {"is_reserved": 0, "type": "electric_scooter", "bike_id": "0f59d18521d79ace7d0cf65c9ea5cd3c", "lat": 38.9248, "lon": -77.03046566666667, "rental_uris": {"android": "https://dc.lft.to/lastmile_qr_scan", "ios": "https://dc.lft.to/lastmile_qr_scan"}, "is_disabled": 0, "fusion_lat": 0.0, "name": "0f59d18521d79ace7d0cf65c9ea5cd3c", "fusion_lon": 0.0}, {"is_reserved": 0, "type": "electric_scooter", "bike_id": "beb866aa2d6794bd06ff40bdb83da31e", "lat": 38.90200266666667, "lon": -76.98209266666667, "rental_uris": {"android": "https://dc.lft.to/lastmile_qr_scan", "ios": "https://dc.lft.to/lastmile_qr_scan"}, "is_disabled": 0, "fusion_lat": 0.0, "name": "beb866aa2d6794bd06ff40bdb83da31e", "fusion_lon": 0.0}, {"is_reserved": 0, "type": "electric_scooter", "bike_id": "68e78cc99c413aa7ca99f8f48716515d", "lat": 38.924591, "lon": -77.0522745, "rental_uris": {"android": "https://dc.lft.to/lastmile_qr_scan", "ios": "https://dc.lft.to/lastmile_qr_scan"}, "is_disabled": 0, "fusion_lat": 0.0, "name": "68e78cc99c413aa7ca99f8f48716515d", "fusion_lon": 0.0}, {"is_reserved": 0, "type": "electric_scooter", "bike_id": "78bff693a99cec92b9aef2b74178fb99", "lat": 38.91803, "lon": -77.0344535, "rental_uris": {"android": "https://dc.lft.to/lastmile_qr_scan", "ios": "https://dc.lft.to/lastmile_qr_scan"}, "is_disabled": 0, "fusion_lat": 0.0, "name": "78bff693a99cec92b9aef2b74178fb99", "fusion_lon": 0.0}, {"is_reserved": 0, "type": "electric_scooter", "bike_id": "75eedc792210c0b1dd7b1c38ca61d6fc", "lat": 38.886797666666666, "lon": -77.00196633333333, "rental_uris": {"android": "https://dc.lft.to/lastmile_qr_scan", "ios": "https://dc.lft.to/lastmile_qr_scan"}, "is_disabled": 0, "fusion_lat": 0.0, "name": "75eedc792210c0b1dd7b1c38ca61d6fc", "fusion_lon": 0.0}, {"is_reserved": 0, "type": "electric_scooter", "bike_id": "5dae3c0bb3208755196d6637b5d27924", "lat": 38.91554266666667, "lon": -77.03254883333334, "rental_uris": {"android": "https://dc.lft.to/lastmile_qr_scan", "ios": "https://dc.lft.to/lastmile_qr_scan"}, "is_disabled": 0, "fusion_lat": 0.0, "name": "5dae3c0bb3208755196d6637b5d27924", "fusion_lon": 0.0}, {"is_reserved": 0, "type": "electric_scooter", "bike_id": "44500ceea0c138c69002c6895ecb5b8b", "lat": 38.9003945, "lon": -77.00205183333334, "rental_uris": {"android": "https://dc.lft.to/lastmile_qr_scan", "ios": "https://dc.lft.to/lastmile_qr_scan"}, "is_disabled": 0, "fusion_lat": 0.0, "name": "44500ceea0c138c69002c6895ecb5b8b", "fusion_lon": 0.0}, {"is_reserved": 0, "type": "electric_scooter", "bike_id": "230763adb14e1239f7e069592ba84c18", "lat": 38.8658985, "lon": -76.97460366666667, "rental_uris": {"android": "https://dc.lft.to/lastmile_qr_scan", "ios": "https://dc.lft.to/lastmile_qr_scan"}, "is_disabled": 0, "fusion_lat": 0.0, "name": "230763adb14e1239f7e069592ba84c18", "fusion_lon": 0.0}, {"is_reserved": 0, "type": "electric_scooter", "bike_id": "3aa698dde89c6b0cffc5a94c001b1a8a", "lat": 38.9056125, "lon": -77.00772566666667, "rental_uris": {"android": "https://dc.lft.to/lastmile_qr_scan", "ios": "https://dc.lft.to/lastmile_qr_scan"}, "is_disabled": 0, "fusion_lat": 0.0, "name": "3aa698dde89c6b0cffc5a94c001b1a8a", "fusion_lon": 0.0}, {"is_reserved": 0, "type": "electric_scooter", "bike_id": "5e171c561054bec46b5510e87d3bd32a", "lat": 38.919600333333335, "lon": -77.0436935, "rental_uris": {"android": "https://dc.lft.to/lastmile_qr_scan", "ios": "https://dc.lft.to/lastmile_qr_scan"}, "is_disabled": 0, "fusion_lat": 0.0, "name": "5e171c561054bec46b5510e87d3bd32a", "fusion_lon": 0.0}, {"is_reserved": 0, "type": "electric_scooter", "bike_id": "504ef76c5e9e474f0840c3f0a370a575", "lat": 38.90525616666667, "lon": -77.00532833333334, "rental_uris": {"android": "https://dc.lft.to/lastmile_qr_scan", "ios": "https://dc.lft.to/lastmile_qr_scan"}, "is_disabled": 0, "fusion_lat": 0.0, "name": "504ef76c5e9e474f0840c3f0a370a575", "fusion_lon": 0.0}, {"is_reserved": 0, "type": "electric_scooter", "bike_id": "179759b29a818d024c7f9285c4ff45b8", "lat": 38.93659483333333, "lon": -77.02137516666667, "rental_uris": {"android": "https://dc.lft.to/lastmile_qr_scan", "ios": "https://dc.lft.to/lastmile_qr_scan"}, "is_disabled": 0, "fusion_lat": 0.0, "name": "179759b29a818d024c7f9285c4ff45b8", "fusion_lon": 0.0}, {"is_reserved": 0, "type": "electric_scooter", "bike_id": "c6ea655d4b95d6cf5ee1b22ade581233", "lat": 38.919579666666664, "lon": -77.018256, "rental_uris": {"android": "https://dc.lft.to/lastmile_qr_scan", "ios": "https://dc.lft.to/lastmile_qr_scan"}, "is_disabled": 0, "fusion_lat": 0.0, "name": "c6ea655d4b95d6cf5ee1b22ade581233", "fusion_lon": 0.0}, {"is_reserved": 0, "type": "electric_scooter", "bike_id": "b589333bd930ccd0e07ccfca860f0708", "lat": 38.9166895, "lon": -77.024542, "rental_uris": {"android": "https://dc.lft.to/lastmile_qr_scan", "ios": "https://dc.lft.to/lastmile_qr_scan"}, "is_disabled": 0, "fusion_lat": 0.0, "name": "b589333bd930ccd0e07ccfca860f0708", "fusion_lon": 0.0}, {"is_reserved": 0, "type": "electric_scooter", "bike_id": "072e6b4a8b2fd1eb351c4a484b05dd24", "lat": 38.9009195, "lon": -77.04744916666667, "rental_uris": {"android": "https://dc.lft.to/lastmile_qr_scan", "ios": "https://dc.lft.to/lastmile_qr_scan"}, "is_disabled": 0, "fusion_lat": 0.0, "name": "072e6b4a8b2fd1eb351c4a484b05dd24", "fusion_lon": 0.0}, {"is_reserved": 0, "type": "electric_scooter", "bike_id": "1e8abb24b946ee03574d72e7cc8d7932", "lat": 38.925436, "lon": -77.02980133333334, "rental_uris": {"android": "https://dc.lft.to/lastmile_qr_scan", "ios": "https://dc.lft.to/lastmile_qr_scan"}, "is_disabled": 0, "fusion_lat": 0.0, "name": "1e8abb24b946ee03574d72e7cc8d7932", "fusion_lon": 0.0}, {"is_reserved": 0, "type": "electric_scooter", "bike_id": "cd7e00325bbe38f26a69bc79ecb955fe", "lat": 38.913448, "lon": -77.06414083333334, "rental_uris": {"android": "https://dc.lft.to/lastmile_qr_scan", "ios": "https://dc.lft.to/lastmile_qr_scan"}, "is_disabled": 0, "fusion_lat": 0.0, "name": "cd7e00325bbe38f26a69bc79ecb955fe", "fusion_lon": 0.0}, {"is_reserved": 0, "type": "electric_scooter", "bike_id": "a41d3fd75986431cc6b4541dd9c37e6b", "lat": 38.915631, "lon": -77.02120183333334, "rental_uris": {"android": "https://dc.lft.to/lastmile_qr_scan", "ios": "https://dc.lft.to/lastmile_qr_scan"}, "is_disabled": 0, "fusion_lat": 0.0, "name": "a41d3fd75986431cc6b4541dd9c37e6b", "fusion_lon": 0.0}, {"is_reserved": 0, "type": "electric_bike", "bike_id": "7a46487ca5c6db94bf6603e39826c368", "lat": 38.974200333333336, "lon": -77.012597, "rental_uris": {"android": "https://dc.lft.to/lastmile_qr_scan", "ios": "https://dc.lft.to/lastmile_qr_scan"}, "is_disabled": 0, "fusion_lat": 0.0, "name": "7a46487ca5c6db94bf6603e39826c368", "fusion_lon": 0.0}, {"is_reserved": 0, "type": "electric_scooter", "bike_id": "2f466e36252768e71c9bc35eb2a61e50", "lat": 38.931908, "lon": -77.037613, "rental_uris": {"android": "https://dc.lft.to/lastmile_qr_scan", "ios": "https://dc.lft.to/lastmile_qr_scan"}, "is_disabled": 0, "fusion_lat": 0.0, "name": "2f466e36252768e71c9bc35eb2a61e50", "fusion_lon": 0.0}, {"is_reserved": 0, "type": "electric_scooter", "bike_id": "9f64f8ba8571afa2dcbcaa18221314e3", "lat": 38.92382533333333, "lon": -77.0432135, "rental_uris": {"android": "https://dc.lft.to/lastmile_qr_scan", "ios": "https://dc.lft.to/lastmile_qr_scan"}, "is_disabled": 0, "fusion_lat": 0.0, "name": "9f64f8ba8571afa2dcbcaa18221314e3", "fusion_lon": 0.0}, {"is_reserved": 0, "type": "electric_scooter", "bike_id": "24f0c4ad1fad17e4d66b77028ea16668", "lat": 38.91546316666667, "lon": -77.0122135, "rental_uris": {"android": "https://dc.lft.to/lastmile_qr_scan", "ios": "https://dc.lft.to/lastmile_qr_scan"}, "is_disabled": 0, "fusion_lat": 0.0, "name": "24f0c4ad1fad17e4d66b77028ea16668", "fusion_lon": 0.0}, {"is_reserved": 0, "type": "electric_scooter", "bike_id": "6c722bbcb6002885db19092c21fe5cb1", "lat": 38.846273833333335, "lon": -76.98119316666667, "rental_uris": {"android": "https://dc.lft.to/lastmile_qr_scan", "ios": "https://dc.lft.to/lastmile_qr_scan"}, "is_disabled": 0, "fusion_lat": 0.0, "name": "6c722bbcb6002885db19092c21fe5cb1", "fusion_lon": 0.0}, {"is_reserved": 0, "type": "electric_scooter", "bike_id": "2505de1243abaa9742c218a159d58e57", "lat": 38.897330833333335, "lon": -77.0037405, "rental_uris": {"android": "https://dc.lft.to/lastmile_qr_scan", "ios": "https://dc.lft.to/lastmile_qr_scan"}, "is_disabled": 0, "fusion_lat": 0.0, "name": "2505de1243abaa9742c218a159d58e57", "fusion_lon": 0.0}, {"is_reserved": 0, "type": "electric_scooter", "bike_id": "39894f3c501c07e53ae77808e4cfa7c6", "lat": 38.878669333333335, "lon": -76.9626105, "rental_uris": {"android": "https://dc.lft.to/lastmile_qr_scan", "ios": "https://dc.lft.to/lastmile_qr_scan"}, "is_disabled": 0, "fusion_lat": 0.0, "name": "39894f3c501c07e53ae77808e4cfa7c6", "fusion_lon": 0.0}, {"is_reserved": 0, "type": "electric_bike", "bike_id": "93028bd56089dffebb05d85cbfb067f7", "lat": 38.95848216666667, "lon": -76.98554383333334, "rental_uris": {"android": "https://dc.lft.to/lastmile_qr_scan", "ios": "https://dc.lft.to/lastmile_qr_scan"}, "is_disabled": 0, "fusion_lat": 0.0, "name": "93028bd56089dffebb05d85cbfb067f7", "fusion_lon": 0.0}, {"is_reserved": 0, "type": "electric_scooter", "bike_id": "3bc307b933d7287a3f761ac93aba3b9e", "lat": 38.926054, "lon": -77.02160933333333, "rental_uris": {"android": "https://dc.lft.to/lastmile_qr_scan", "ios": "https://dc.lft.to/lastmile_qr_scan"}, "is_disabled": 0, "fusion_lat": 0.0, "name": "3bc307b933d7287a3f761ac93aba3b9e", "fusion_lon": 0.0}, {"is_reserved": 0, "type": "electric_scooter", "bike_id": "ba07c496d64435683d5114b255749a35", "lat": 38.900642, "lon": -77.0073855, "rental_uris": {"android": "https://dc.lft.to/lastmile_qr_scan", "ios": "https://dc.lft.to/lastmile_qr_scan"}, "is_disabled": 0, "fusion_lat": 0.0, "name": "ba07c496d64435683d5114b255749a35", "fusion_lon": 0.0}, {"is_reserved": 0, "type": "electric_scooter", "bike_id": "f1aa6d5201fce6946f02d55c2b6eb4b9", "lat": 38.91268916666667, "lon": -77.03869566666667, "rental_uris": {"android": "https://dc.lft.to/lastmile_qr_scan", "ios": "https://dc.lft.to/lastmile_qr_scan"}, "is_disabled": 0, "fusion_lat": 0.0, "name": "f1aa6d5201fce6946f02d55c2b6eb4b9", "fusion_lon": 0.0}, {"is_reserved": 0, "type": "electric_scooter", "bike_id": "c439f531e39751420e9e5ef4d2a75bea", "lat": 38.924262, "lon": -77.01940466666667, "rental_uris": {"android": "https://dc.lft.to/lastmile_qr_scan", "ios": "https://dc.lft.to/lastmile_qr_scan"}, "is_disabled": 0, "fusion_lat": 0.0, "name": "c439f531e39751420e9e5ef4d2a75bea", "fusion_lon": 0.0}, {"is_reserved": 0, "type": "electric_scooter", "bike_id": "8972e1c0bf031923b138ab0b8085103d", "lat": 38.9224035, "lon": -77.03524716666666, "rental_uris": {"android": "https://dc.lft.to/lastmile_qr_scan", "ios": "https://dc.lft.to/lastmile_qr_scan"}, "is_disabled": 0, "fusion_lat": 0.0, "name": "8972e1c0bf031923b138ab0b8085103d", "fusion_lon": 0.0}, {"is_reserved": 0, "type": "electric_scooter", "bike_id": "8e0efb764f7fb4d3d2d9489a734a8bac", "lat": 38.8978805, "lon": -77.01655483333333, "rental_uris": {"android": "https://dc.lft.to/lastmile_qr_scan", "ios": "https://dc.lft.to/lastmile_qr_scan"}, "is_disabled": 0, "fusion_lat": 0.0, "name": "8e0efb764f7fb4d3d2d9489a734a8bac", "fusion_lon": 0.0}, {"is_reserved": 0, "type": "electric_scooter", "bike_id": "dbce73aeb9dc2b4be5656f0bfe37bf1f", "lat": 38.9418115, "lon": -77.02571766666667, "rental_uris": {"android": "https://dc.lft.to/lastmile_qr_scan", "ios": "https://dc.lft.to/lastmile_qr_scan"}, "is_disabled": 0, "fusion_lat": 0.0, "name": "dbce73aeb9dc2b4be5656f0bfe37bf1f", "fusion_lon": 0.0}, {"is_reserved": 0, "type": "electric_scooter", "bike_id": "ab3d7a8fc76ceafa00c8270d417ef5a2", "lat": 38.914731, "lon": -77.02608333333333, "rental_uris": {"android": "https://dc.lft.to/lastmile_qr_scan", "ios": "https://dc.lft.to/lastmile_qr_scan"}, "is_disabled": 0, "fusion_lat": 0.0, "name": "ab3d7a8fc76ceafa00c8270d417ef5a2", "fusion_lon": 0.0}, {"is_reserved": 0, "type": "electric_scooter", "bike_id": "69adaa8e514cb05f35a5933ad638ac1e", "lat": 38.899598833333336, "lon": -77.02007316666666, "rental_uris": {"android": "https://dc.lft.to/lastmile_qr_scan", "ios": "https://dc.lft.to/lastmile_qr_scan"}, "is_disabled": 0, "fusion_lat": 0.0, "name": "69adaa8e514cb05f35a5933ad638ac1e", "fusion_lon": 0.0}, {"is_reserved": 0, "type": "electric_scooter", "bike_id": "70112ea280aeaefe77a3b3a53c747e44", "lat": 38.917399833333334, "lon": -77.0091435, "rental_uris": {"android": "https://dc.lft.to/lastmile_qr_scan", "ios": "https://dc.lft.to/lastmile_qr_scan"}, "is_disabled": 0, "fusion_lat": 0.0, "name": "70112ea280aeaefe77a3b3a53c747e44", "fusion_lon": 0.0}, {"is_reserved": 0, "type": "electric_scooter", "bike_id": "04adf10f17cb5a067ac092f2b12e4462", "lat": 38.906356, "lon": -77.0703975, "rental_uris": {"android": "https://dc.lft.to/lastmile_qr_scan", "ios": "https://dc.lft.to/lastmile_qr_scan"}, "is_disabled": 0, "fusion_lat": 0.0, "name": "04adf10f17cb5a067ac092f2b12e4462", "fusion_lon": 0.0}, {"is_reserved": 0, "type": "electric_scooter", "bike_id": "5dcca66e45cf78f1b1921e5c239db8ed", "lat": 38.8926645, "lon": -76.929962, "rental_uris": {"android": "https://dc.lft.to/lastmile_qr_scan", "ios": "https://dc.lft.to/lastmile_qr_scan"}, "is_disabled": 0, "fusion_lat": 0.0, "name": "5dcca66e45cf78f1b1921e5c239db8ed", "fusion_lon": 0.0}, {"is_reserved": 0, "type": "electric_scooter", "bike_id": "e846c8bb055da0f30b40df82d9f1795a", "lat": 38.91690833333333, "lon": -77.02597033333333, "rental_uris": {"android": "https://dc.lft.to/lastmile_qr_scan", "ios": "https://dc.lft.to/lastmile_qr_scan"}, "is_disabled": 0, "fusion_lat": 0.0, "name": "e846c8bb055da0f30b40df82d9f1795a", "fusion_lon": 0.0}, {"is_reserved": 0, "type": "electric_scooter", "bike_id": "90ea37e7795222e7321c621942997de8", "lat": 38.930057166666664, "lon": -77.01825583333333, "rental_uris": {"android": "https://dc.lft.to/lastmile_qr_scan", "ios": "https://dc.lft.to/lastmile_qr_scan"}, "is_disabled": 0, "fusion_lat": 0.0, "name": "90ea37e7795222e7321c621942997de8", "fusion_lon": 0.0}, {"is_reserved": 0, "type": "electric_scooter", "bike_id": "e1732af88ddd6e415b5466edfaf04379", "lat": 38.90845316666667, "lon": -77.02594966666666, "rental_uris": {"android": "https://dc.lft.to/lastmile_qr_scan", "ios": "https://dc.lft.to/lastmile_qr_scan"}, "is_disabled": 0, "fusion_lat": 0.0, "name": "e1732af88ddd6e415b5466edfaf04379", "fusion_lon": 0.0}, {"is_reserved": 0, "type": "electric_scooter", "bike_id": "cb3a34edba1e495f57caa92fee88e5ec", "lat": 38.90778383333333, "lon": -77.00244916666666, "rental_uris": {"android": "https://dc.lft.to/lastmile_qr_scan", "ios": "https://dc.lft.to/lastmile_qr_scan"}, "is_disabled": 0, "fusion_lat": 0.0, "name": "cb3a34edba1e495f57caa92fee88e5ec", "fusion_lon": 0.0}, {"is_reserved": 0, "type": "electric_scooter", "bike_id": "a52446411389cdb292e95c3649cb4d96", "lat": 38.93534266666666, "lon": -77.02360166666666, "rental_uris": {"android": "https://dc.lft.to/lastmile_qr_scan", "ios": "https://dc.lft.to/lastmile_qr_scan"}, "is_disabled": 0, "fusion_lat": 0.0, "name": "a52446411389cdb292e95c3649cb4d96", "fusion_lon": 0.0}, {"is_reserved": 0, "type": "electric_scooter", "bike_id": "504850970e79fad86ff3bc5a78a271b7", "lat": 38.896186666666665, "lon": -76.976875, "rental_uris": {"android": "https://dc.lft.to/lastmile_qr_scan", "ios": "https://dc.lft.to/lastmile_qr_scan"}, "is_disabled": 0, "fusion_lat": 0.0, "name": "504850970e79fad86ff3bc5a78a271b7", "fusion_lon": 0.0}, {"is_reserved": 0, "type": "electric_scooter", "bike_id": "896565ba9a6eb4b623e7161b24a739ac", "lat": 38.89644766666667, "lon": -76.990328, "rental_uris": {"android": "https://dc.lft.to/lastmile_qr_scan", "ios": "https://dc.lft.to/lastmile_qr_scan"}, "is_disabled": 0, "fusion_lat": 0.0, "name": "896565ba9a6eb4b623e7161b24a739ac", "fusion_lon": 0.0}, {"is_reserved": 0, "type": "electric_scooter", "bike_id": "443e43bf6fd09b6a07a0e973dc2768b4", "lat": 38.88376233333334, "lon": -76.93043266666666, "rental_uris": {"android": "https://dc.lft.to/lastmile_qr_scan", "ios": "https://dc.lft.to/lastmile_qr_scan"}, "is_disabled": 0, "fusion_lat": 0.0, "name": "443e43bf6fd09b6a07a0e973dc2768b4", "fusion_lon": 0.0}, {"is_reserved": 0, "type": "electric_scooter", "bike_id": "824669800455d700166bed49057322ea", "lat": 38.9203805, "lon": -77.02507116666666, "rental_uris": {"android": "https://dc.lft.to/lastmile_qr_scan", "ios": "https://dc.lft.to/lastmile_qr_scan"}, "is_disabled": 0, "fusion_lat": 0.0, "name": "824669800455d700166bed49057322ea", "fusion_lon": 0.0}, {"is_reserved": 0, "type": "electric_scooter", "bike_id": "69afe3733a2d657d8deb293d4d95e5c9", "lat": 38.92313733333334, "lon": -77.02974166666667, "rental_uris": {"android": "https://dc.lft.to/lastmile_qr_scan", "ios": "https://dc.lft.to/lastmile_qr_scan"}, "is_disabled": 0, "fusion_lat": 0.0, "name": "69afe3733a2d657d8deb293d4d95e5c9", "fusion_lon": 0.0}, {"is_reserved": 0, "type": "electric_scooter", "bike_id": "708abba093b20396fd0c237c6185d8a2", "lat": 38.914891, "lon": -77.02414266666666, "rental_uris": {"android": "https://dc.lft.to/lastmile_qr_scan", "ios": "https://dc.lft.to/lastmile_qr_scan"}, "is_disabled": 0, "fusion_lat": 0.0, "name": "708abba093b20396fd0c237c6185d8a2", "fusion_lon": 0.0}, {"is_reserved": 0, "type": "electric_scooter", "bike_id": "0712a28f38411a043626ee1d17a24433", "lat": 38.92233783333333, "lon": -77.03350583333334, "rental_uris": {"android": "https://dc.lft.to/lastmile_qr_scan", "ios": "https://dc.lft.to/lastmile_qr_scan"}, "is_disabled": 0, "fusion_lat": 0.0, "name": "0712a28f38411a043626ee1d17a24433", "fusion_lon": 0.0}, {"is_reserved": 0, "type": "electric_scooter", "bike_id": "15195a8b3e57b54a82fe90c99d97c9b5", "lat": 38.88510333333333, "lon": -77.0111895, "rental_uris": {"android": "https://dc.lft.to/lastmile_qr_scan", "ios": "https://dc.lft.to/lastmile_qr_scan"}, "is_disabled": 0, "fusion_lat": 0.0, "name": "15195a8b3e57b54a82fe90c99d97c9b5", "fusion_lon": 0.0}, {"is_reserved": 0, "type": "electric_scooter", "bike_id": "508c756bda68366961704688c75e1519", "lat": 38.90611533333333, "lon": -76.950133, "rental_uris": {"android": "https://dc.lft.to/lastmile_qr_scan", "ios": "https://dc.lft.to/lastmile_qr_scan"}, "is_disabled": 0, "fusion_lat": 0.0, "name": "508c756bda68366961704688c75e1519", "fusion_lon": 0.0}, {"is_reserved": 0, "type": "electric_scooter", "bike_id": "d1b55a02ddee2eebdfffa289a2e72f2b", "lat": 38.900926166666665, "lon": -77.03829766666667, "rental_uris": {"android": "https://dc.lft.to/lastmile_qr_scan", "ios": "https://dc.lft.to/lastmile_qr_scan"}, "is_disabled": 0, "fusion_lat": 0.0, "name": "d1b55a02ddee2eebdfffa289a2e72f2b", "fusion_lon": 0.0}, {"is_reserved": 0, "type": "electric_scooter", "bike_id": "53681ccdbaf7aaa6b4485bdcc6bcfd1b", "lat": 38.900304166666665, "lon": -76.99876883333333, "rental_uris": {"android": "https://dc.lft.to/lastmile_qr_scan", "ios": "https://dc.lft.to/lastmile_qr_scan"}, "is_disabled": 0, "fusion_lat": 0.0, "name": "53681ccdbaf7aaa6b4485bdcc6bcfd1b", "fusion_lon": 0.0}, {"is_reserved": 0, "type": "electric_scooter", "bike_id": "7b52fe18fab66ba0d39af49626be676f", "lat": 38.905221, "lon": -77.065347, "rental_uris": {"android": "https://dc.lft.to/lastmile_qr_scan", "ios": "https://dc.lft.to/lastmile_qr_scan"}, "is_disabled": 0, "fusion_lat": 0.0, "name": "7b52fe18fab66ba0d39af49626be676f", "fusion_lon": 0.0}, {"is_reserved": 0, "type": "electric_scooter", "bike_id": "6dce42d65f38027455b0a2ebf31e46a5", "lat": 38.8922095, "lon": -77.02418166666666, "rental_uris": {"android": "https://dc.lft.to/lastmile_qr_scan", "ios": "https://dc.lft.to/lastmile_qr_scan"}, "is_disabled": 0, "fusion_lat": 0.0, "name": "6dce42d65f38027455b0a2ebf31e46a5", "fusion_lon": 0.0}, {"is_reserved": 0, "type": "electric_scooter", "bike_id": "21037098cef2f69362892a5845aa62b2", "lat": 38.91717116666667, "lon": -77.03856416666666, "rental_uris": {"android": "https://dc.lft.to/lastmile_qr_scan", "ios": "https://dc.lft.to/lastmile_qr_scan"}, "is_disabled": 0, "fusion_lat": 0.0, "name": "21037098cef2f69362892a5845aa62b2", "fusion_lon": 0.0}, {"is_reserved": 0, "type": "electric_bike", "bike_id": "0173bd44475109d1713bdf6330b23607", "lat": 38.831371833333336, "lon": -77.1134435, "rental_uris": {"android": "https://dc.lft.to/lastmile_qr_scan", "ios": "https://dc.lft.to/lastmile_qr_scan"}, "is_disabled": 0, "fusion_lat": 0.0, "name": "0173bd44475109d1713bdf6330b23607", "fusion_lon": 0.0}, {"is_reserved": 0, "type": "electric_scooter", "bike_id": "788073d7eebab512b2ce5175f20eee2f", "lat": 38.94693316666667, "lon": -77.02248966666667, "rental_uris": {"android": "https://dc.lft.to/lastmile_qr_scan", "ios": "https://dc.lft.to/lastmile_qr_scan"}, "is_disabled": 0, "fusion_lat": 0.0, "name": "788073d7eebab512b2ce5175f20eee2f", "fusion_lon": 0.0}, {"is_reserved": 0, "type": "electric_scooter", "bike_id": "7d41571b551da8a2d2ec42d227c5d37f", "lat": 38.89759, "lon": -77.02117233333334, "rental_uris": {"android": "https://dc.lft.to/lastmile_qr_scan", "ios": "https://dc.lft.to/lastmile_qr_scan"}, "is_disabled": 0, "fusion_lat": 0.0, "name": "7d41571b551da8a2d2ec42d227c5d37f", "fusion_lon": 0.0}, {"is_reserved": 0, "type": "electric_scooter", "bike_id": "40ffea0b97fe3ac14f23c465ad4abd58", "lat": 38.9112835, "lon": -77.0219995, "rental_uris": {"android": "https://dc.lft.to/lastmile_qr_scan", "ios": "https://dc.lft.to/lastmile_qr_scan"}, "is_disabled": 0, "fusion_lat": 0.0, "name": "40ffea0b97fe3ac14f23c465ad4abd58", "fusion_lon": 0.0}, {"is_reserved": 0, "type": "electric_scooter", "bike_id": "30713a568cef5fe9466ff146c998263c", "lat": 38.899997, "lon": -77.0102975, "rental_uris": {"android": "https://dc.lft.to/lastmile_qr_scan", "ios": "https://dc.lft.to/lastmile_qr_scan"}, "is_disabled": 0, "fusion_lat": 0.0, "name": "30713a568cef5fe9466ff146c998263c", "fusion_lon": 0.0}, {"is_reserved": 0, "type": "electric_scooter", "bike_id": "561f1a100b11874c795ef8455a611e03", "lat": 38.93356716666667, "lon": -77.057241, "rental_uris": {"android": "https://dc.lft.to/lastmile_qr_scan", "ios": "https://dc.lft.to/lastmile_qr_scan"}, "is_disabled": 0, "fusion_lat": 0.0, "name": "561f1a100b11874c795ef8455a611e03", "fusion_lon": 0.0}, {"is_reserved": 0, "type": "electric_scooter", "bike_id": "c421be03c08277f05b4a507bd68fd889", "lat": 38.8993885, "lon": -77.0271925, "rental_uris": {"android": "https://dc.lft.to/lastmile_qr_scan", "ios": "https://dc.lft.to/lastmile_qr_scan"}, "is_disabled": 0, "fusion_lat": 0.0, "name": "c421be03c08277f05b4a507bd68fd889", "fusion_lon": 0.0}, {"is_reserved": 0, "type": "electric_scooter", "bike_id": "24f59c89740f36100752b523e5567bb5", "lat": 38.90355683333333, "lon": -77.0331745, "rental_uris": {"android": "https://dc.lft.to/lastmile_qr_scan", "ios": "https://dc.lft.to/lastmile_qr_scan"}, "is_disabled": 0, "fusion_lat": 0.0, "name": "24f59c89740f36100752b523e5567bb5", "fusion_lon": 0.0}, {"is_reserved": 0, "type": "electric_scooter", "bike_id": "0db04316d9960d0b3a2697164c61d003", "lat": 38.914022, "lon": -77.0289645, "rental_uris": {"android": "https://dc.lft.to/lastmile_qr_scan", "ios": "https://dc.lft.to/lastmile_qr_scan"}, "is_disabled": 0, "fusion_lat": 0.0, "name": "0db04316d9960d0b3a2697164c61d003", "fusion_lon": 0.0}, {"is_reserved": 0, "type": "electric_scooter", "bike_id": "dcfc0cf40c49a924cc44450a8dda9705", "lat": 38.911977666666665, "lon": -77.00730433333334, "rental_uris": {"android": "https://dc.lft.to/lastmile_qr_scan", "ios": "https://dc.lft.to/lastmile_qr_scan"}, "is_disabled": 0, "fusion_lat": 0.0, "name": "dcfc0cf40c49a924cc44450a8dda9705", "fusion_lon": 0.0}, {"is_reserved": 0, "type": "electric_bike", "bike_id": "5c885fb3c48a22920608282bc9ac4a38", "lat": 38.898162666666664, "lon": -76.99064933333334, "rental_uris": {"android": "https://dc.lft.to/lastmile_qr_scan", "ios": "https://dc.lft.to/lastmile_qr_scan"}, "is_disabled": 0, "fusion_lat": 0.0, "name": "5c885fb3c48a22920608282bc9ac4a38", "fusion_lon": 0.0}, {"is_reserved": 0, "type": "electric_scooter", "bike_id": "1eeb8dff9d1835517d203243cb230e85", "lat": 38.9155145, "lon": -77.0141605, "rental_uris": {"android": "https://dc.lft.to/lastmile_qr_scan", "ios": "https://dc.lft.to/lastmile_qr_scan"}, "is_disabled": 0, "fusion_lat": 0.0, "name": "1eeb8dff9d1835517d203243cb230e85", "fusion_lon": 0.0}, {"is_reserved": 0, "type": "electric_bike", "bike_id": "5e69838b912fb7f1504d0069c1dcd670", "lat": 39.0859505, "lon": -77.12271833333334, "rental_uris": {"android": "https://dc.lft.to/lastmile_qr_scan", "ios": "https://dc.lft.to/lastmile_qr_scan"}, "is_disabled": 0, "fusion_lat": 0.0, "name": "5e69838b912fb7f1504d0069c1dcd670", "fusion_lon": 0.0}, {"is_reserved": 0, "type": "electric_scooter", "bike_id": "01bc727ec9ac24c55f6557a1ca318708", "lat": 38.92644716666667, "lon": -77.0251685, "rental_uris": {"android": "https://dc.lft.to/lastmile_qr_scan", "ios": "https://dc.lft.to/lastmile_qr_scan"}, "is_disabled": 0, "fusion_lat": 0.0, "name": "01bc727ec9ac24c55f6557a1ca318708", "fusion_lon": 0.0}, {"is_reserved": 0, "type": "electric_scooter", "bike_id": "df03ff230414d2c4b268fe367415ddf7", "lat": 38.93303516666667, "lon": -77.0214435, "rental_uris": {"android": "https://dc.lft.to/lastmile_qr_scan", "ios": "https://dc.lft.to/lastmile_qr_scan"}, "is_disabled": 0, "fusion_lat": 0.0, "name": "df03ff230414d2c4b268fe367415ddf7", "fusion_lon": 0.0}, {"is_reserved": 0, "type": "electric_scooter", "bike_id": "2d93383816c2b7ef5d2214910208d022", "lat": 38.90773683333333, "lon": -77.04513016666667, "rental_uris": {"android": "https://dc.lft.to/lastmile_qr_scan", "ios": "https://dc.lft.to/lastmile_qr_scan"}, "is_disabled": 0, "fusion_lat": 0.0, "name": "2d93383816c2b7ef5d2214910208d022", "fusion_lon": 0.0}, {"is_reserved": 0, "type": "electric_scooter", "bike_id": "0dd06eeedb7163ffcd3b3c9e2d3a6e76", "lat": 38.925309166666665, "lon": -77.04143216666667, "rental_uris": {"android": "https://dc.lft.to/lastmile_qr_scan", "ios": "https://dc.lft.to/lastmile_qr_scan"}, "is_disabled": 0, "fusion_lat": 0.0, "name": "0dd06eeedb7163ffcd3b3c9e2d3a6e76", "fusion_lon": 0.0}, {"is_reserved": 0, "type": "electric_scooter", "bike_id": "676125d3b39b5842522164518a8f9f43", "lat": 38.91475633333334, "lon": -77.03183466666667, "rental_uris": {"android": "https://dc.lft.to/lastmile_qr_scan", "ios": "https://dc.lft.to/lastmile_qr_scan"}, "is_disabled": 0, "fusion_lat": 0.0, "name": "676125d3b39b5842522164518a8f9f43", "fusion_lon": 0.0}, {"is_reserved": 0, "type": "electric_scooter", "bike_id": "10411250fae62965abc930fb5db6d6a8", "lat": 38.8833905, "lon": -76.9429095, "rental_uris": {"android": "https://dc.lft.to/lastmile_qr_scan", "ios": "https://dc.lft.to/lastmile_qr_scan"}, "is_disabled": 0, "fusion_lat": 0.0, "name": "10411250fae62965abc930fb5db6d6a8", "fusion_lon": 0.0}, {"is_reserved": 0, "type": "electric_scooter", "bike_id": "3bf93c93aaae14455f094c1cc20946ca", "lat": 38.8843515, "lon": -77.02601466666667, "rental_uris": {"android": "https://dc.lft.to/lastmile_qr_scan", "ios": "https://dc.lft.to/lastmile_qr_scan"}, "is_disabled": 0, "fusion_lat": 0.0, "name": "3bf93c93aaae14455f094c1cc20946ca", "fusion_lon": 0.0}, {"is_reserved": 0, "type": "electric_scooter", "bike_id": "5ab6b6a083c7e86c7e158551e058a071", "lat": 38.8925075, "lon": -76.99484383333333, "rental_uris": {"android": "https://dc.lft.to/lastmile_qr_scan", "ios": "https://dc.lft.to/lastmile_qr_scan"}, "is_disabled": 0, "fusion_lat": 0.0, "name": "5ab6b6a083c7e86c7e158551e058a071", "fusion_lon": 0.0}, {"is_reserved": 0, "type": "electric_scooter", "bike_id": "001989f232ef31d6769e6028e5cc6504", "lat": 38.88730983333333, "lon": -77.02825666666666, "rental_uris": {"android": "https://dc.lft.to/lastmile_qr_scan", "ios": "https://dc.lft.to/lastmile_qr_scan"}, "is_disabled": 0, "fusion_lat": 0.0, "name": "001989f232ef31d6769e6028e5cc6504", "fusion_lon": 0.0}, {"is_reserved": 0, "type": "electric_scooter", "bike_id": "ca8a7c360b8c14ac3a75acb397ed50b9", "lat": 38.89674733333333, "lon": -77.00519283333334, "rental_uris": {"android": "https://dc.lft.to/lastmile_qr_scan", "ios": "https://dc.lft.to/lastmile_qr_scan"}, "is_disabled": 0, "fusion_lat": 0.0, "name": "ca8a7c360b8c14ac3a75acb397ed50b9", "fusion_lon": 0.0}, {"is_reserved": 0, "type": "electric_bike", "bike_id": "e2a0c585957b9db7360cbb3b61b274e1", "lat": 38.870779, "lon": -77.1104575, "rental_uris": {"android": "https://dc.lft.to/lastmile_qr_scan", "ios": "https://dc.lft.to/lastmile_qr_scan"}, "is_disabled": 0, "fusion_lat": 0.0, "name": "e2a0c585957b9db7360cbb3b61b274e1", "fusion_lon": 0.0}, {"is_reserved": 0, "type": "electric_scooter", "bike_id": "96591f6f82495a9f5d9b092c4f1fa2eb", "lat": 38.924348, "lon": -76.99680766666667, "rental_uris": {"android": "https://dc.lft.to/lastmile_qr_scan", "ios": "https://dc.lft.to/lastmile_qr_scan"}, "is_disabled": 0, "fusion_lat": 0.0, "name": "96591f6f82495a9f5d9b092c4f1fa2eb", "fusion_lon": 0.0}, {"is_reserved": 0, "type": "electric_bike", "bike_id": "99f96a4a5b09aa0f5af786e622d492f9", "lat": 38.849206833333334, "lon": -77.08377483333334, "rental_uris": {"android": "https://dc.lft.to/lastmile_qr_scan", "ios": "https://dc.lft.to/lastmile_qr_scan"}, "is_disabled": 0, "fusion_lat": 0.0, "name": "99f96a4a5b09aa0f5af786e622d492f9", "fusion_lon": 0.0}, {"is_reserved": 0, "type": "electric_scooter", "bike_id": "6b7fc048f2455578502373bea6df0ebc", "lat": 38.89560083333333, "lon": -76.98207, "rental_uris": {"android": "https://dc.lft.to/lastmile_qr_scan", "ios": "https://dc.lft.to/lastmile_qr_scan"}, "is_disabled": 0, "fusion_lat": 0.0, "name": "6b7fc048f2455578502373bea6df0ebc", "fusion_lon": 0.0}, {"is_reserved": 0, "type": "electric_scooter", "bike_id": "d166ed1bc3aaf132c5dc2f4a646bc1c2", "lat": 38.91072466666667, "lon": -76.99143116666667, "rental_uris": {"android": "https://dc.lft.to/lastmile_qr_scan", "ios": "https://dc.lft.to/lastmile_qr_scan"}, "is_disabled": 0, "fusion_lat": 0.0, "name": "d166ed1bc3aaf132c5dc2f4a646bc1c2", "fusion_lon": 0.0}, {"is_reserved": 0, "type": "electric_scooter", "bike_id": "aa56e5cc4b06482c0b25c3fea4160cbb", "lat": 38.915428666666664, "lon": -77.02072183333334, "rental_uris": {"android": "https://dc.lft.to/lastmile_qr_scan", "ios": "https://dc.lft.to/lastmile_qr_scan"}, "is_disabled": 0, "fusion_lat": 0.0, "name": "aa56e5cc4b06482c0b25c3fea4160cbb", "fusion_lon": 0.0}, {"is_reserved": 0, "type": "electric_scooter", "bike_id": "29e3991fb76b615d96efcb800ad7b734", "lat": 38.902215166666664, "lon": -77.04871566666667, "rental_uris": {"android": "https://dc.lft.to/lastmile_qr_scan", "ios": "https://dc.lft.to/lastmile_qr_scan"}, "is_disabled": 0, "fusion_lat": 0.0, "name": "29e3991fb76b615d96efcb800ad7b734", "fusion_lon": 0.0}, {"is_reserved": 0, "type": "electric_scooter", "bike_id": "92a53df1d44b6c37aea0826adff2b4c0", "lat": 38.923185, "lon": -77.028119, "rental_uris": {"android": "https://dc.lft.to/lastmile_qr_scan", "ios": "https://dc.lft.to/lastmile_qr_scan"}, "is_disabled": 0, "fusion_lat": 0.0, "name": "92a53df1d44b6c37aea0826adff2b4c0", "fusion_lon": 0.0}, {"is_reserved": 0, "type": "electric_scooter", "bike_id": "20c23923a6132fe6fb4327237005cda7", "lat": 38.922578666666666, "lon": -77.01919966666667, "rental_uris": {"android": "https://dc.lft.to/lastmile_qr_scan", "ios": "https://dc.lft.to/lastmile_qr_scan"}, "is_disabled": 0, "fusion_lat": 0.0, "name": "20c23923a6132fe6fb4327237005cda7", "fusion_lon": 0.0}, {"is_reserved": 0, "type": "electric_scooter", "bike_id": "0c5595b4e43772c8c28f4eaaf94fd2b8", "lat": 38.8747835, "lon": -77.01744333333333, "rental_uris": {"android": "https://dc.lft.to/lastmile_qr_scan", "ios": "https://dc.lft.to/lastmile_qr_scan"}, "is_disabled": 0, "fusion_lat": 0.0, "name": "0c5595b4e43772c8c28f4eaaf94fd2b8", "fusion_lon": 0.0}, {"is_reserved": 0, "type": "electric_scooter", "bike_id": "bbcb7b4383842778a7b8000d907ed655", "lat": 38.8945335, "lon": -77.0454305, "rental_uris": {"android": "https://dc.lft.to/lastmile_qr_scan", "ios": "https://dc.lft.to/lastmile_qr_scan"}, "is_disabled": 0, "fusion_lat": 0.0, "name": "bbcb7b4383842778a7b8000d907ed655", "fusion_lon": 0.0}, {"is_reserved": 0, "type": "electric_scooter", "bike_id": "0cb39f212e6dbceabba9bb73e4c7fded", "lat": 38.94042683333333, "lon": -77.029055, "rental_uris": {"android": "https://dc.lft.to/lastmile_qr_scan", "ios": "https://dc.lft.to/lastmile_qr_scan"}, "is_disabled": 0, "fusion_lat": 0.0, "name": "0cb39f212e6dbceabba9bb73e4c7fded", "fusion_lon": 0.0}, {"is_reserved": 0, "type": "electric_scooter", "bike_id": "668b794c4eec66dd6b6511e636a200c8", "lat": 38.923269, "lon": -77.00893266666667, "rental_uris": {"android": "https://dc.lft.to/lastmile_qr_scan", "ios": "https://dc.lft.to/lastmile_qr_scan"}, "is_disabled": 0, "fusion_lat": 0.0, "name": "668b794c4eec66dd6b6511e636a200c8", "fusion_lon": 0.0}, {"is_reserved": 0, "type": "electric_scooter", "bike_id": "24bf4ee37386eb5b8672225d8a01f881", "lat": 38.886605833333334, "lon": -76.93677766666667, "rental_uris": {"android": "https://dc.lft.to/lastmile_qr_scan", "ios": "https://dc.lft.to/lastmile_qr_scan"}, "is_disabled": 0, "fusion_lat": 0.0, "name": "24bf4ee37386eb5b8672225d8a01f881", "fusion_lon": 0.0}, {"is_reserved": 0, "type": "electric_scooter", "bike_id": "7351beefa8ac98a9bc32eac464a76faa", "lat": 38.905245, "lon": -77.0404425, "rental_uris": {"android": "https://dc.lft.to/lastmile_qr_scan", "ios": "https://dc.lft.to/lastmile_qr_scan"}, "is_disabled": 0, "fusion_lat": 0.0, "name": "7351beefa8ac98a9bc32eac464a76faa", "fusion_lon": 0.0}, {"is_reserved": 0, "type": "electric_scooter", "bike_id": "c43f9b47f87ce57d3c30473d6250ce3a", "lat": 38.892498833333335, "lon": -77.03960666666667, "rental_uris": {"android": "https://dc.lft.to/lastmile_qr_scan", "ios": "https://dc.lft.to/lastmile_qr_scan"}, "is_disabled": 0, "fusion_lat": 0.0, "name": "c43f9b47f87ce57d3c30473d6250ce3a", "fusion_lon": 0.0}, {"is_reserved": 0, "type": "electric_bike", "bike_id": "91530b5d54fa940ed3a218f4b0a8988e", "lat": 39.08429616666667, "lon": -76.95151066666666, "rental_uris": {"android": "https://dc.lft.to/lastmile_qr_scan", "ios": "https://dc.lft.to/lastmile_qr_scan"}, "is_disabled": 0, "fusion_lat": 0.0, "name": "91530b5d54fa940ed3a218f4b0a8988e", "fusion_lon": 0.0}, {"is_reserved": 0, "type": "electric_bike", "bike_id": "434be5a0f58798bae39ff68f026d5ddd", "lat": 38.835418, "lon": -77.0075355, "rental_uris": {"android": "https://dc.lft.to/lastmile_qr_scan", "ios": "https://dc.lft.to/lastmile_qr_scan"}, "is_disabled": 0, "fusion_lat": 0.0, "name": "434be5a0f58798bae39ff68f026d5ddd", "fusion_lon": 0.0}, {"is_reserved": 0, "type": "electric_scooter", "bike_id": "0e12bd846af460fed61ce379900263f2", "lat": 38.899937, "lon": -76.99013816666667, "rental_uris": {"android": "https://dc.lft.to/lastmile_qr_scan", "ios": "https://dc.lft.to/lastmile_qr_scan"}, "is_disabled": 0, "fusion_lat": 0.0, "name": "0e12bd846af460fed61ce379900263f2", "fusion_lon": 0.0}, {"is_reserved": 0, "type": "electric_scooter", "bike_id": "89a45ef3e58aa8f0bfb363f46f032eca", "lat": 38.92452133333333, "lon": -77.02161933333333, "rental_uris": {"android": "https://dc.lft.to/lastmile_qr_scan", "ios": "https://dc.lft.to/lastmile_qr_scan"}, "is_disabled": 0, "fusion_lat": 0.0, "name": "89a45ef3e58aa8f0bfb363f46f032eca", "fusion_lon": 0.0}, {"is_reserved": 0, "type": "electric_scooter", "bike_id": "f8d9685aea66c317e195a9df84f83347", "lat": 38.92551133333333, "lon": -77.03369516666666, "rental_uris": {"android": "https://dc.lft.to/lastmile_qr_scan", "ios": "https://dc.lft.to/lastmile_qr_scan"}, "is_disabled": 0, "fusion_lat": 0.0, "name": "f8d9685aea66c317e195a9df84f83347", "fusion_lon": 0.0}, {"is_reserved": 0, "type": "electric_scooter", "bike_id": "42dbbd2bcbab0a16bd02219998c04b6f", "lat": 38.86115016666667, "lon": -76.98383416666667, "rental_uris": {"android": "https://dc.lft.to/lastmile_qr_scan", "ios": "https://dc.lft.to/lastmile_qr_scan"}, "is_disabled": 0, "fusion_lat": 0.0, "name": "42dbbd2bcbab0a16bd02219998c04b6f", "fusion_lon": 0.0}, {"is_reserved": 0, "type": "electric_bike", "bike_id": "e6683ddc2e009b0946f263b4f3d816da", "lat": 38.94538683333333, "lon": -77.344506, "rental_uris": {"android": "https://dc.lft.to/lastmile_qr_scan", "ios": "https://dc.lft.to/lastmile_qr_scan"}, "is_disabled": 0, "fusion_lat": 0.0, "name": "e6683ddc2e009b0946f263b4f3d816da", "fusion_lon": 0.0}, {"is_reserved": 0, "type": "electric_scooter", "bike_id": "20fd3ba5e5043ccaf8eb8efa75d054bb", "lat": 38.91104433333334, "lon": -77.04813316666667, "rental_uris": {"android": "https://dc.lft.to/lastmile_qr_scan", "ios": "https://dc.lft.to/lastmile_qr_scan"}, "is_disabled": 0, "fusion_lat": 0.0, "name": "20fd3ba5e5043ccaf8eb8efa75d054bb", "fusion_lon": 0.0}, {"is_reserved": 0, "type": "electric_scooter", "bike_id": "1183d4feb4479d272bfa3c32893821a0", "lat": 38.9242825, "lon": -77.022462, "rental_uris": {"android": "https://dc.lft.to/lastmile_qr_scan", "ios": "https://dc.lft.to/lastmile_qr_scan"}, "is_disabled": 0, "fusion_lat": 0.0, "name": "1183d4feb4479d272bfa3c32893821a0", "fusion_lon": 0.0}, {"is_reserved": 0, "type": "electric_scooter", "bike_id": "c2cb9a4e4ddf7abeef692f1a3ac6c3e5", "lat": 38.8754445, "lon": -77.00540216666667, "rental_uris": {"android": "https://dc.lft.to/lastmile_qr_scan", "ios": "https://dc.lft.to/lastmile_qr_scan"}, "is_disabled": 0, "fusion_lat": 0.0, "name": "c2cb9a4e4ddf7abeef692f1a3ac6c3e5", "fusion_lon": 0.0}, {"is_reserved": 0, "type": "electric_scooter", "bike_id": "ca068415c03338774562d43e9396b0a4", "lat": 38.899864666666666, "lon": -77.02708483333333, "rental_uris": {"android": "https://dc.lft.to/lastmile_qr_scan", "ios": "https://dc.lft.to/lastmile_qr_scan"}, "is_disabled": 0, "fusion_lat": 0.0, "name": "ca068415c03338774562d43e9396b0a4", "fusion_lon": 0.0}, {"is_reserved": 0, "type": "electric_scooter", "bike_id": "4c93f44f828392404946b51a2894a347", "lat": 38.91956533333333, "lon": -77.02531, "rental_uris": {"android": "https://dc.lft.to/lastmile_qr_scan", "ios": "https://dc.lft.to/lastmile_qr_scan"}, "is_disabled": 0, "fusion_lat": 0.0, "name": "4c93f44f828392404946b51a2894a347", "fusion_lon": 0.0}, {"is_reserved": 0, "type": "electric_scooter", "bike_id": "dc136ebc734641200917abab635f9b6d", "lat": 38.901770166666665, "lon": -77.00349216666666, "rental_uris": {"android": "https://dc.lft.to/lastmile_qr_scan", "ios": "https://dc.lft.to/lastmile_qr_scan"}, "is_disabled": 0, "fusion_lat": 0.0, "name": "dc136ebc734641200917abab635f9b6d", "fusion_lon": 0.0}, {"is_reserved": 0, "type": "electric_scooter", "bike_id": "773e999147e0b267b79b878319ff1c96", "lat": 38.90017666666667, "lon": -77.044906, "rental_uris": {"android": "https://dc.lft.to/lastmile_qr_scan", "ios": "https://dc.lft.to/lastmile_qr_scan"}, "is_disabled": 0, "fusion_lat": 0.0, "name": "773e999147e0b267b79b878319ff1c96", "fusion_lon": 0.0}, {"is_reserved": 0, "type": "electric_scooter", "bike_id": "f4e2836d713aee0e36ce663868dd8048", "lat": 38.89799683333333, "lon": -77.0190095, "rental_uris": {"android": "https://dc.lft.to/lastmile_qr_scan", "ios": "https://dc.lft.to/lastmile_qr_scan"}, "is_disabled": 0, "fusion_lat": 0.0, "name": "f4e2836d713aee0e36ce663868dd8048", "fusion_lon": 0.0}, {"is_reserved": 0, "type": "electric_scooter", "bike_id": "d1999d1bee834a659256d43cb9069f9f", "lat": 38.93632233333334, "lon": -77.03661233333334, "rental_uris": {"android": "https://dc.lft.to/lastmile_qr_scan", "ios": "https://dc.lft.to/lastmile_qr_scan"}, "is_disabled": 0, "fusion_lat": 0.0, "name": "d1999d1bee834a659256d43cb9069f9f", "fusion_lon": 0.0}, {"is_reserved": 0, "type": "electric_bike", "bike_id": "99581b819ba67ac161189aaa4d6d1e85", "lat": 38.78396266666667, "lon": -77.12079833333334, "rental_uris": {"android": "https://dc.lft.to/lastmile_qr_scan", "ios": "https://dc.lft.to/lastmile_qr_scan"}, "is_disabled": 0, "fusion_lat": 0.0, "name": "99581b819ba67ac161189aaa4d6d1e85", "fusion_lon": 0.0}, {"is_reserved": 0, "type": "electric_scooter", "bike_id": "f9eee73b0d542cd5bf03d72a9a6466b0", "lat": 38.9000715, "lon": -77.00653633333333, "rental_uris": {"android": "https://dc.lft.to/lastmile_qr_scan", "ios": "https://dc.lft.to/lastmile_qr_scan"}, "is_disabled": 0, "fusion_lat": 0.0, "name": "f9eee73b0d542cd5bf03d72a9a6466b0", "fusion_lon": 0.0}, {"is_reserved": 0, "type": "electric_scooter", "bike_id": "a9706c5bc312b53b929aaaf89962f46a", "lat": 38.91819566666667, "lon": -77.032514, "rental_uris": {"android": "https://dc.lft.to/lastmile_qr_scan", "ios": "https://dc.lft.to/lastmile_qr_scan"}, "is_disabled": 0, "fusion_lat": 0.0, "name": "a9706c5bc312b53b929aaaf89962f46a", "fusion_lon": 0.0}, {"is_reserved": 0, "type": "electric_scooter", "bike_id": "53e55d58c2ec4959433742b01e7ded9f", "lat": 38.92784833333333, "lon": -77.03158316666666, "rental_uris": {"android": "https://dc.lft.to/lastmile_qr_scan", "ios": "https://dc.lft.to/lastmile_qr_scan"}, "is_disabled": 0, "fusion_lat": 0.0, "name": "53e55d58c2ec4959433742b01e7ded9f", "fusion_lon": 0.0}, {"is_reserved": 0, "type": "electric_scooter", "bike_id": "61203fd2a6a2065ac0c780608a71966d", "lat": 38.920696166666666, "lon": -77.045513, "rental_uris": {"android": "https://dc.lft.to/lastmile_qr_scan", "ios": "https://dc.lft.to/lastmile_qr_scan"}, "is_disabled": 0, "fusion_lat": 0.0, "name": "61203fd2a6a2065ac0c780608a71966d", "fusion_lon": 0.0}, {"is_reserved": 0, "type": "electric_bike", "bike_id": "a1dc95344a0aac419be80c3650a1c1cb", "lat": 38.884955166666664, "lon": -76.95674233333334, "rental_uris": {"android": "https://dc.lft.to/lastmile_qr_scan", "ios": "https://dc.lft.to/lastmile_qr_scan"}, "is_disabled": 0, "fusion_lat": 0.0, "name": "a1dc95344a0aac419be80c3650a1c1cb", "fusion_lon": 0.0}, {"is_reserved": 0, "type": "electric_scooter", "bike_id": "e95c36efc59beb23b2bfb7d956913875", "lat": 38.883277666666665, "lon": -77.00956683333334, "rental_uris": {"android": "https://dc.lft.to/lastmile_qr_scan", "ios": "https://dc.lft.to/lastmile_qr_scan"}, "is_disabled": 0, "fusion_lat": 0.0, "name": "e95c36efc59beb23b2bfb7d956913875", "fusion_lon": 0.0}, {"is_reserved": 0, "type": "electric_scooter", "bike_id": "4ac19d3ffd808bafc42ab19ca79db30d", "lat": 38.872962666666666, "lon": -77.015606, "rental_uris": {"android": "https://dc.lft.to/lastmile_qr_scan", "ios": "https://dc.lft.to/lastmile_qr_scan"}, "is_disabled": 0, "fusion_lat": 0.0, "name": "4ac19d3ffd808bafc42ab19ca79db30d", "fusion_lon": 0.0}, {"is_reserved": 0, "type": "electric_scooter", "bike_id": "0d731ca7a98f0868a0c42616e88d8275", "lat": 38.936532166666666, "lon": -77.0369165, "rental_uris": {"android": "https://dc.lft.to/lastmile_qr_scan", "ios": "https://dc.lft.to/lastmile_qr_scan"}, "is_disabled": 0, "fusion_lat": 0.0, "name": "0d731ca7a98f0868a0c42616e88d8275", "fusion_lon": 0.0}, {"is_reserved": 0, "type": "electric_scooter", "bike_id": "8881480cf243067d1d05150abfd232f9", "lat": 38.92151616666666, "lon": -77.0387015, "rental_uris": {"android": "https://dc.lft.to/lastmile_qr_scan", "ios": "https://dc.lft.to/lastmile_qr_scan"}, "is_disabled": 0, "fusion_lat": 0.0, "name": "8881480cf243067d1d05150abfd232f9", "fusion_lon": 0.0}, {"is_reserved": 0, "type": "electric_scooter", "bike_id": "ce4b208874d3ffbb73785419d7dd8c94", "lat": 38.913148666666665, "lon": -77.01437633333333, "rental_uris": {"android": "https://dc.lft.to/lastmile_qr_scan", "ios": "https://dc.lft.to/lastmile_qr_scan"}, "is_disabled": 0, "fusion_lat": 0.0, "name": "ce4b208874d3ffbb73785419d7dd8c94", "fusion_lon": 0.0}, {"is_reserved": 0, "type": "electric_scooter", "bike_id": "bf40ed2bdc4956cabaa238e0e51512bb", "lat": 38.887837166666664, "lon": -76.97715233333334, "rental_uris": {"android": "https://dc.lft.to/lastmile_qr_scan", "ios": "https://dc.lft.to/lastmile_qr_scan"}, "is_disabled": 0, "fusion_lat": 0.0, "name": "bf40ed2bdc4956cabaa238e0e51512bb", "fusion_lon": 0.0}, {"is_reserved": 0, "type": "electric_scooter", "bike_id": "b78a75685567eab0fa6436dadab228b3", "lat": 38.91866616666667, "lon": -77.04593033333333, "rental_uris": {"android": "https://dc.lft.to/lastmile_qr_scan", "ios": "https://dc.lft.to/lastmile_qr_scan"}, "is_disabled": 0, "fusion_lat": 0.0, "name": "b78a75685567eab0fa6436dadab228b3", "fusion_lon": 0.0}, {"is_reserved": 0, "type": "electric_scooter", "bike_id": "ff7c968b99781a7b4f741d6bcb3bbc51", "lat": 38.887267666666666, "lon": -77.02206916666667, "rental_uris": {"android": "https://dc.lft.to/lastmile_qr_scan", "ios": "https://dc.lft.to/lastmile_qr_scan"}, "is_disabled": 0, "fusion_lat": 0.0, "name": "ff7c968b99781a7b4f741d6bcb3bbc51", "fusion_lon": 0.0}, {"is_reserved": 0, "type": "electric_scooter", "bike_id": "10ed18236b622f6032b5b2123a4d5230", "lat": 38.924232, "lon": -77.05758383333334, "rental_uris": {"android": "https://dc.lft.to/lastmile_qr_scan", "ios": "https://dc.lft.to/lastmile_qr_scan"}, "is_disabled": 0, "fusion_lat": 0.0, "name": "10ed18236b622f6032b5b2123a4d5230", "fusion_lon": 0.0}, {"is_reserved": 0, "type": "electric_bike", "bike_id": "040e6c83e0728af4df65ce2bbfdcc08d", "lat": 38.882169166666664, "lon": -77.11150316666667, "rental_uris": {"android": "https://dc.lft.to/lastmile_qr_scan", "ios": "https://dc.lft.to/lastmile_qr_scan"}, "is_disabled": 0, "fusion_lat": 0.0, "name": "040e6c83e0728af4df65ce2bbfdcc08d", "fusion_lon": 0.0}, {"is_reserved": 0, "type": "electric_scooter", "bike_id": "3e467ac939c9bd8f3af1915dde020296", "lat": 38.90590916666667, "lon": -77.016153, "rental_uris": {"android": "https://dc.lft.to/lastmile_qr_scan", "ios": "https://dc.lft.to/lastmile_qr_scan"}, "is_disabled": 0, "fusion_lat": 0.0, "name": "3e467ac939c9bd8f3af1915dde020296", "fusion_lon": 0.0}, {"is_reserved": 0, "type": "electric_scooter", "bike_id": "1e2a207dd75a379daae209bd90a354bb", "lat": 38.8998845, "lon": -77.02708516666667, "rental_uris": {"android": "https://dc.lft.to/lastmile_qr_scan", "ios": "https://dc.lft.to/lastmile_qr_scan"}, "is_disabled": 0, "fusion_lat": 0.0, "name": "1e2a207dd75a379daae209bd90a354bb", "fusion_lon": 0.0}, {"is_reserved": 0, "type": "electric_scooter", "bike_id": "f32df354d64caee82a9c95f475be302e", "lat": 38.887437166666665, "lon": -76.98357566666667, "rental_uris": {"android": "https://dc.lft.to/lastmile_qr_scan", "ios": "https://dc.lft.to/lastmile_qr_scan"}, "is_disabled": 0, "fusion_lat": 0.0, "name": "f32df354d64caee82a9c95f475be302e", "fusion_lon": 0.0}, {"is_reserved": 0, "type": "electric_scooter", "bike_id": "87cc8fe4cc0618f7ed816c07e2c990bb", "lat": 38.906515166666665, "lon": -77.07561283333334, "rental_uris": {"android": "https://dc.lft.to/lastmile_qr_scan", "ios": "https://dc.lft.to/lastmile_qr_scan"}, "is_disabled": 0, "fusion_lat": 0.0, "name": "87cc8fe4cc0618f7ed816c07e2c990bb", "fusion_lon": 0.0}, {"is_reserved": 0, "type": "electric_scooter", "bike_id": "d9768bfdc26d5708ace8364d9315fd7b", "lat": 38.951842666666664, "lon": -77.02619416666667, "rental_uris": {"android": "https://dc.lft.to/lastmile_qr_scan", "ios": "https://dc.lft.to/lastmile_qr_scan"}, "is_disabled": 0, "fusion_lat": 0.0, "name": "d9768bfdc26d5708ace8364d9315fd7b", "fusion_lon": 0.0}, {"is_reserved": 0, "type": "electric_scooter", "bike_id": "6480184426689656f557d8b0432b605a", "lat": 38.9241895, "lon": -77.03536533333333, "rental_uris": {"android": "https://dc.lft.to/lastmile_qr_scan", "ios": "https://dc.lft.to/lastmile_qr_scan"}, "is_disabled": 0, "fusion_lat": 0.0, "name": "6480184426689656f557d8b0432b605a", "fusion_lon": 0.0}, {"is_reserved": 0, "type": "electric_scooter", "bike_id": "916d172013af474a3c841583b2b3671c", "lat": 38.8923085, "lon": -77.01769233333333, "rental_uris": {"android": "https://dc.lft.to/lastmile_qr_scan", "ios": "https://dc.lft.to/lastmile_qr_scan"}, "is_disabled": 0, "fusion_lat": 0.0, "name": "916d172013af474a3c841583b2b3671c", "fusion_lon": 0.0}, {"is_reserved": 0, "type": "electric_scooter", "bike_id": "651e0fbd4af15909cf164c4fcc439022", "lat": 38.93696766666667, "lon": -77.055996, "rental_uris": {"android": "https://dc.lft.to/lastmile_qr_scan", "ios": "https://dc.lft.to/lastmile_qr_scan"}, "is_disabled": 0, "fusion_lat": 0.0, "name": "651e0fbd4af15909cf164c4fcc439022", "fusion_lon": 0.0}, {"is_reserved": 0, "type": "electric_scooter", "bike_id": "acdf37f3e500fe2b778da25536ce5dba", "lat": 38.899622, "lon": -77.02298733333333, "rental_uris": {"android": "https://dc.lft.to/lastmile_qr_scan", "ios": "https://dc.lft.to/lastmile_qr_scan"}, "is_disabled": 0, "fusion_lat": 0.0, "name": "acdf37f3e500fe2b778da25536ce5dba", "fusion_lon": 0.0}, {"is_reserved": 0, "type": "electric_scooter", "bike_id": "1134acaacd7c27cff90d5bf70f0ed9c9", "lat": 38.90579733333333, "lon": -76.98433166666666, "rental_uris": {"android": "https://dc.lft.to/lastmile_qr_scan", "ios": "https://dc.lft.to/lastmile_qr_scan"}, "is_disabled": 0, "fusion_lat": 0.0, "name": "1134acaacd7c27cff90d5bf70f0ed9c9", "fusion_lon": 0.0}, {"is_reserved": 0, "type": "electric_scooter", "bike_id": "b7ae82d81eba53fb4b5663b39fe3ae7e", "lat": 38.895191833333335, "lon": -76.99210383333333, "rental_uris": {"android": "https://dc.lft.to/lastmile_qr_scan", "ios": "https://dc.lft.to/lastmile_qr_scan"}, "is_disabled": 0, "fusion_lat": 0.0, "name": "b7ae82d81eba53fb4b5663b39fe3ae7e", "fusion_lon": 0.0}, {"is_reserved": 0, "type": "electric_scooter", "bike_id": "d56818eb38bf0545720398f94b17fd17", "lat": 38.90033, "lon": -77.0259765, "rental_uris": {"android": "https://dc.lft.to/lastmile_qr_scan", "ios": "https://dc.lft.to/lastmile_qr_scan"}, "is_disabled": 0, "fusion_lat": 0.0, "name": "d56818eb38bf0545720398f94b17fd17", "fusion_lon": 0.0}, {"is_reserved": 0, "type": "electric_scooter", "bike_id": "7aae215b988bf739c7df4ce5fcf42fa9", "lat": 38.92754033333333, "lon": -77.02432683333333, "rental_uris": {"android": "https://dc.lft.to/lastmile_qr_scan", "ios": "https://dc.lft.to/lastmile_qr_scan"}, "is_disabled": 0, "fusion_lat": 0.0, "name": "7aae215b988bf739c7df4ce5fcf42fa9", "fusion_lon": 0.0}, {"is_reserved": 0, "type": "electric_scooter", "bike_id": "f6ccbab13d7f507615edec695a5c6214", "lat": 38.8924015, "lon": -77.05039566666666, "rental_uris": {"android": "https://dc.lft.to/lastmile_qr_scan", "ios": "https://dc.lft.to/lastmile_qr_scan"}, "is_disabled": 0, "fusion_lat": 0.0, "name": "f6ccbab13d7f507615edec695a5c6214", "fusion_lon": 0.0}, {"is_reserved": 0, "type": "electric_scooter", "bike_id": "38f95103ffe75ca40cd5fce3afc5f963", "lat": 38.92365866666667, "lon": -77.04327783333333, "rental_uris": {"android": "https://dc.lft.to/lastmile_qr_scan", "ios": "https://dc.lft.to/lastmile_qr_scan"}, "is_disabled": 0, "fusion_lat": 0.0, "name": "38f95103ffe75ca40cd5fce3afc5f963", "fusion_lon": 0.0}, {"is_reserved": 0, "type": "electric_scooter", "bike_id": "3de8f42799a8a7bee9c159e129de664b", "lat": 38.90679166666666, "lon": -77.075102, "rental_uris": {"android": "https://dc.lft.to/lastmile_qr_scan", "ios": "https://dc.lft.to/lastmile_qr_scan"}, "is_disabled": 0, "fusion_lat": 0.0, "name": "3de8f42799a8a7bee9c159e129de664b", "fusion_lon": 0.0}, {"is_reserved": 0, "type": "electric_scooter", "bike_id": "13fa48ac5b7b14e52038f5bb4c64dc15", "lat": 38.9165255, "lon": -77.02256433333334, "rental_uris": {"android": "https://dc.lft.to/lastmile_qr_scan", "ios": "https://dc.lft.to/lastmile_qr_scan"}, "is_disabled": 0, "fusion_lat": 0.0, "name": "13fa48ac5b7b14e52038f5bb4c64dc15", "fusion_lon": 0.0}, {"is_reserved": 0, "type": "electric_scooter", "bike_id": "5c764f955d27fe6fd9241e3e2d36f5de", "lat": 38.941878333333335, "lon": -77.02344833333333, "rental_uris": {"android": "https://dc.lft.to/lastmile_qr_scan", "ios": "https://dc.lft.to/lastmile_qr_scan"}, "is_disabled": 0, "fusion_lat": 0.0, "name": "5c764f955d27fe6fd9241e3e2d36f5de", "fusion_lon": 0.0}, {"is_reserved": 0, "type": "electric_scooter", "bike_id": "de90ab94371f747e92e12669f7687d1a", "lat": 38.89226516666667, "lon": -77.04160866666666, "rental_uris": {"android": "https://dc.lft.to/lastmile_qr_scan", "ios": "https://dc.lft.to/lastmile_qr_scan"}, "is_disabled": 0, "fusion_lat": 0.0, "name": "de90ab94371f747e92e12669f7687d1a", "fusion_lon": 0.0}, {"is_reserved": 0, "type": "electric_scooter", "bike_id": "4f773280db9ef11e9754928afd476ba9", "lat": 38.8934465, "lon": -77.011738, "rental_uris": {"android": "https://dc.lft.to/lastmile_qr_scan", "ios": "https://dc.lft.to/lastmile_qr_scan"}, "is_disabled": 0, "fusion_lat": 0.0, "name": "4f773280db9ef11e9754928afd476ba9", "fusion_lon": 0.0}, {"is_reserved": 0, "type": "electric_scooter", "bike_id": "5714b341454ce2712c4ec58a51124be0", "lat": 38.9235725, "lon": -76.9995165, "rental_uris": {"android": "https://dc.lft.to/lastmile_qr_scan", "ios": "https://dc.lft.to/lastmile_qr_scan"}, "is_disabled": 0, "fusion_lat": 0.0, "name": "5714b341454ce2712c4ec58a51124be0", "fusion_lon": 0.0}, {"is_reserved": 0, "type": "electric_scooter", "bike_id": "17a3c6d87f2522f0ee822875e58eb942", "lat": 38.91703966666667, "lon": -77.0315055, "rental_uris": {"android": "https://dc.lft.to/lastmile_qr_scan", "ios": "https://dc.lft.to/lastmile_qr_scan"}, "is_disabled": 0, "fusion_lat": 0.0, "name": "17a3c6d87f2522f0ee822875e58eb942", "fusion_lon": 0.0}, {"is_reserved": 0, "type": "electric_scooter", "bike_id": "a229e89839612503245d10270a5e4233", "lat": 38.899532666666666, "lon": -77.03159983333333, "rental_uris": {"android": "https://dc.lft.to/lastmile_qr_scan", "ios": "https://dc.lft.to/lastmile_qr_scan"}, "is_disabled": 0, "fusion_lat": 0.0, "name": "a229e89839612503245d10270a5e4233", "fusion_lon": 0.0}, {"is_reserved": 0, "type": "electric_scooter", "bike_id": "a8c060b997d6c26862dccb72355b8276", "lat": 38.9245915, "lon": -77.00891383333334, "rental_uris": {"android": "https://dc.lft.to/lastmile_qr_scan", "ios": "https://dc.lft.to/lastmile_qr_scan"}, "is_disabled": 0, "fusion_lat": 0.0, "name": "a8c060b997d6c26862dccb72355b8276", "fusion_lon": 0.0}, {"is_reserved": 0, "type": "electric_scooter", "bike_id": "367e598e84a294a4873f514c648bcdf7", "lat": 38.92856533333333, "lon": -77.0287555, "rental_uris": {"android": "https://dc.lft.to/lastmile_qr_scan", "ios": "https://dc.lft.to/lastmile_qr_scan"}, "is_disabled": 0, "fusion_lat": 0.0, "name": "367e598e84a294a4873f514c648bcdf7", "fusion_lon": 0.0}, {"is_reserved": 0, "type": "electric_scooter", "bike_id": "8c6f6a50033e8e538a9df787a3143df5", "lat": 38.914204833333336, "lon": -77.01798683333334, "rental_uris": {"android": "https://dc.lft.to/lastmile_qr_scan", "ios": "https://dc.lft.to/lastmile_qr_scan"}, "is_disabled": 0, "fusion_lat": 0.0, "name": "8c6f6a50033e8e538a9df787a3143df5", "fusion_lon": 0.0}, {"is_reserved": 0, "type": "electric_scooter", "bike_id": "888882c60ff235f4f0ba022556c0c158", "lat": 38.896264333333335, "lon": -77.00208, "rental_uris": {"android": "https://dc.lft.to/lastmile_qr_scan", "ios": "https://dc.lft.to/lastmile_qr_scan"}, "is_disabled": 0, "fusion_lat": 0.0, "name": "888882c60ff235f4f0ba022556c0c158", "fusion_lon": 0.0}, {"is_reserved": 0, "type": "electric_scooter", "bike_id": "8ebe1677ade17f10c177e534d65d1e46", "lat": 38.90005716666667, "lon": -77.02915283333333, "rental_uris": {"android": "https://dc.lft.to/lastmile_qr_scan", "ios": "https://dc.lft.to/lastmile_qr_scan"}, "is_disabled": 0, "fusion_lat": 0.0, "name": "8ebe1677ade17f10c177e534d65d1e46", "fusion_lon": 0.0}, {"is_reserved": 0, "type": "electric_scooter", "bike_id": "c9b77a540546de0790ed52e6544087ee", "lat": 38.92806516666667, "lon": -77.0363905, "rental_uris": {"android": "https://dc.lft.to/lastmile_qr_scan", "ios": "https://dc.lft.to/lastmile_qr_scan"}, "is_disabled": 0, "fusion_lat": 0.0, "name": "c9b77a540546de0790ed52e6544087ee", "fusion_lon": 0.0}, {"is_reserved": 0, "type": "electric_scooter", "bike_id": "eff591dc681b33e4ac0ff052bf818248", "lat": 38.918154, "lon": -77.02481016666667, "rental_uris": {"android": "https://dc.lft.to/lastmile_qr_scan", "ios": "https://dc.lft.to/lastmile_qr_scan"}, "is_disabled": 0, "fusion_lat": 0.0, "name": "eff591dc681b33e4ac0ff052bf818248", "fusion_lon": 0.0}, {"is_reserved": 0, "type": "electric_scooter", "bike_id": "0bdcd1c3ae8518ec1bcf7a3a15cfe342", "lat": 38.90171333333333, "lon": -77.04475083333334, "rental_uris": {"android": "https://dc.lft.to/lastmile_qr_scan", "ios": "https://dc.lft.to/lastmile_qr_scan"}, "is_disabled": 0, "fusion_lat": 0.0, "name": "0bdcd1c3ae8518ec1bcf7a3a15cfe342", "fusion_lon": 0.0}, {"is_reserved": 0, "type": "electric_scooter", "bike_id": "df97ca237117c075ea6f8f513bb7adf7", "lat": 38.90606283333334, "lon": -77.04695083333333, "rental_uris": {"android": "https://dc.lft.to/lastmile_qr_scan", "ios": "https://dc.lft.to/lastmile_qr_scan"}, "is_disabled": 0, "fusion_lat": 0.0, "name": "df97ca237117c075ea6f8f513bb7adf7", "fusion_lon": 0.0}, {"is_reserved": 0, "type": "electric_scooter", "bike_id": "c86d527e12c6c2c663f71f6197e5b451", "lat": 38.90560133333334, "lon": -77.01939083333333, "rental_uris": {"android": "https://dc.lft.to/lastmile_qr_scan", "ios": "https://dc.lft.to/lastmile_qr_scan"}, "is_disabled": 0, "fusion_lat": 0.0, "name": "c86d527e12c6c2c663f71f6197e5b451", "fusion_lon": 0.0}, {"is_reserved": 0, "type": "electric_bike", "bike_id": "447ed7aff6539dfc59704e0b880013e0", "lat": 38.898833, "lon": -76.97881533333333, "rental_uris": {"android": "https://dc.lft.to/lastmile_qr_scan", "ios": "https://dc.lft.to/lastmile_qr_scan"}, "is_disabled": 0, "fusion_lat": 0.0, "name": "447ed7aff6539dfc59704e0b880013e0", "fusion_lon": 0.0}, {"is_reserved": 0, "type": "electric_scooter", "bike_id": "db168d823f6cb2faf05bf7ee8c9582eb", "lat": 38.909582666666665, "lon": -77.014462, "rental_uris": {"android": "https://dc.lft.to/lastmile_qr_scan", "ios": "https://dc.lft.to/lastmile_qr_scan"}, "is_disabled": 0, "fusion_lat": 0.0, "name": "db168d823f6cb2faf05bf7ee8c9582eb", "fusion_lon": 0.0}, {"is_reserved": 0, "type": "electric_scooter", "bike_id": "cebe9611222a0f64b88e824ad53481f7", "lat": 38.90319483333333, "lon": -77.01622766666667, "rental_uris": {"android": "https://dc.lft.to/lastmile_qr_scan", "ios": "https://dc.lft.to/lastmile_qr_scan"}, "is_disabled": 0, "fusion_lat": 0.0, "name": "cebe9611222a0f64b88e824ad53481f7", "fusion_lon": 0.0}, {"is_reserved": 0, "type": "electric_scooter", "bike_id": "4af7e088ad649db5da48c018fc206b1b", "lat": 38.92403066666667, "lon": -76.9514585, "rental_uris": {"android": "https://dc.lft.to/lastmile_qr_scan", "ios": "https://dc.lft.to/lastmile_qr_scan"}, "is_disabled": 0, "fusion_lat": 0.0, "name": "4af7e088ad649db5da48c018fc206b1b", "fusion_lon": 0.0}, {"is_reserved": 0, "type": "electric_scooter", "bike_id": "374e510f5f105c7e958ca32e704f6c25", "lat": 38.90850533333333, "lon": -76.9995935, "rental_uris": {"android": "https://dc.lft.to/lastmile_qr_scan", "ios": "https://dc.lft.to/lastmile_qr_scan"}, "is_disabled": 0, "fusion_lat": 0.0, "name": "374e510f5f105c7e958ca32e704f6c25", "fusion_lon": 0.0}, {"is_reserved": 0, "type": "electric_scooter", "bike_id": "7c95a58841677f4f7ffcd6a77183004b", "lat": 38.89694516666667, "lon": -77.00498016666667, "rental_uris": {"android": "https://dc.lft.to/lastmile_qr_scan", "ios": "https://dc.lft.to/lastmile_qr_scan"}, "is_disabled": 0, "fusion_lat": 0.0, "name": "7c95a58841677f4f7ffcd6a77183004b", "fusion_lon": 0.0}, {"is_reserved": 0, "type": "electric_scooter", "bike_id": "0daf2c4b6865dba61fbf4609cc59bac7", "lat": 38.9497515, "lon": -77.02456216666667, "rental_uris": {"android": "https://dc.lft.to/lastmile_qr_scan", "ios": "https://dc.lft.to/lastmile_qr_scan"}, "is_disabled": 0, "fusion_lat": 0.0, "name": "0daf2c4b6865dba61fbf4609cc59bac7", "fusion_lon": 0.0}, {"is_reserved": 0, "type": "electric_scooter", "bike_id": "67901512b1adee570b4455183b658179", "lat": 38.92273733333333, "lon": -77.021282, "rental_uris": {"android": "https://dc.lft.to/lastmile_qr_scan", "ios": "https://dc.lft.to/lastmile_qr_scan"}, "is_disabled": 0, "fusion_lat": 0.0, "name": "67901512b1adee570b4455183b658179", "fusion_lon": 0.0}, {"is_reserved": 0, "type": "electric_scooter", "bike_id": "f136811f7e54a3593f12f7ba25fc6559", "lat": 38.915356, "lon": -77.046187, "rental_uris": {"android": "https://dc.lft.to/lastmile_qr_scan", "ios": "https://dc.lft.to/lastmile_qr_scan"}, "is_disabled": 0, "fusion_lat": 0.0, "name": "f136811f7e54a3593f12f7ba25fc6559", "fusion_lon": 0.0}, {"is_reserved": 0, "type": "electric_scooter", "bike_id": "774b206063e00cc95602191c21da962d", "lat": 38.90183183333333, "lon": -76.93004283333333, "rental_uris": {"android": "https://dc.lft.to/lastmile_qr_scan", "ios": "https://dc.lft.to/lastmile_qr_scan"}, "is_disabled": 0, "fusion_lat": 0.0, "name": "774b206063e00cc95602191c21da962d", "fusion_lon": 0.0}, {"is_reserved": 0, "type": "electric_scooter", "bike_id": "0804d5a666a15768d65786331000831b", "lat": 38.92375283333333, "lon": -77.0575585, "rental_uris": {"android": "https://dc.lft.to/lastmile_qr_scan", "ios": "https://dc.lft.to/lastmile_qr_scan"}, "is_disabled": 0, "fusion_lat": 0.0, "name": "0804d5a666a15768d65786331000831b", "fusion_lon": 0.0}, {"is_reserved": 0, "type": "electric_scooter", "bike_id": "1ee166a6371cb10b413afc490efff662", "lat": 38.9335615, "lon": -77.02476783333333, "rental_uris": {"android": "https://dc.lft.to/lastmile_qr_scan", "ios": "https://dc.lft.to/lastmile_qr_scan"}, "is_disabled": 0, "fusion_lat": 0.0, "name": "1ee166a6371cb10b413afc490efff662", "fusion_lon": 0.0}, {"is_reserved": 0, "type": "electric_scooter", "bike_id": "46bd5da1f279f03a840975666ad8e2c9", "lat": 38.9533335, "lon": -77.0693525, "rental_uris": {"android": "https://dc.lft.to/lastmile_qr_scan", "ios": "https://dc.lft.to/lastmile_qr_scan"}, "is_disabled": 0, "fusion_lat": 0.0, "name": "46bd5da1f279f03a840975666ad8e2c9", "fusion_lon": 0.0}, {"is_reserved": 0, "type": "electric_scooter", "bike_id": "16f76f0046a4f17ee09ebf27ddee7e8a", "lat": 38.92405866666667, "lon": -77.02007833333333, "rental_uris": {"android": "https://dc.lft.to/lastmile_qr_scan", "ios": "https://dc.lft.to/lastmile_qr_scan"}, "is_disabled": 0, "fusion_lat": 0.0, "name": "16f76f0046a4f17ee09ebf27ddee7e8a", "fusion_lon": 0.0}, {"is_reserved": 0, "type": "electric_bike", "bike_id": "e81945764652a1ed1984691b0cc623f6", "lat": 38.8587265, "lon": -77.09559266666666, "rental_uris": {"android": "https://dc.lft.to/lastmile_qr_scan", "ios": "https://dc.lft.to/lastmile_qr_scan"}, "is_disabled": 0, "fusion_lat": 0.0, "name": "e81945764652a1ed1984691b0cc623f6", "fusion_lon": 0.0}, {"is_reserved": 0, "type": "electric_scooter", "bike_id": "07c6fd349b55b81a47215c1dd36c22ce", "lat": 38.900648333333336, "lon": -77.0495275, "rental_uris": {"android": "https://dc.lft.to/lastmile_qr_scan", "ios": "https://dc.lft.to/lastmile_qr_scan"}, "is_disabled": 0, "fusion_lat": 0.0, "name": "07c6fd349b55b81a47215c1dd36c22ce", "fusion_lon": 0.0}, {"is_reserved": 0, "type": "electric_scooter", "bike_id": "f068f6dac3edae17e1a0fe4f726224f0", "lat": 38.925573, "lon": -77.02300633333333, "rental_uris": {"android": "https://dc.lft.to/lastmile_qr_scan", "ios": "https://dc.lft.to/lastmile_qr_scan"}, "is_disabled": 0, "fusion_lat": 0.0, "name": "f068f6dac3edae17e1a0fe4f726224f0", "fusion_lon": 0.0}, {"is_reserved": 0, "type": "electric_scooter", "bike_id": "c5dfb90c50e7dd8c3bfb31bf73456d59", "lat": 38.92460033333333, "lon": -77.05230016666667, "rental_uris": {"android": "https://dc.lft.to/lastmile_qr_scan", "ios": "https://dc.lft.to/lastmile_qr_scan"}, "is_disabled": 0, "fusion_lat": 0.0, "name": "c5dfb90c50e7dd8c3bfb31bf73456d59", "fusion_lon": 0.0}, {"is_reserved": 0, "type": "electric_scooter", "bike_id": "8ce5dd17b302f05b253a3b080759a3cd", "lat": 38.89225233333333, "lon": -77.043586, "rental_uris": {"android": "https://dc.lft.to/lastmile_qr_scan", "ios": "https://dc.lft.to/lastmile_qr_scan"},