{"data": {"bikes": [{"fusion_lat": 0.0, "bike_id": "71eee9b874b146f326468163154817f3", "fusion_lon": 0.0, "lon": -77.0241405, "lat": 38.91684733333334, "is_reserved": 0, "is_disabled": 0, "rental_uris": {"android": "https://dc.lft.to/lastmile_qr_scan", "ios": "https://dc.lft.to/lastmile_qr_scan"}, "name": "71eee9b874b146f326468163154817f3", "type": "electric_scooter"}, {"fusion_lat": 0.0, "bike_id": "d234569b3d7bdd0529a3912df53361be", "fusion_lon": 0.0, "lon": -77.032759, "lat": 38.919974, "is_reserved": 0, "is_disabled": 0, "rental_uris": {"android": "https://dc.lft.to/lastmile_qr_scan", "ios": "https://dc.lft.to/lastmile_qr_scan"}, "name": "d234569b3d7bdd0529a3912df53361be", "type": "electric_scooter"}, {"fusion_lat": 0.0, "bike_id": "026a2b8ae52bc3ab97988aa940c288a3", "fusion_lon": 0.0, "lon": -77.04358783333333, "lat": 38.900276, "is_reserved": 0, "is_disabled": 0, "rental_uris": {"android": "https://dc.lft.to/lastmile_qr_scan", "ios": "https://dc.lft.to/lastmile_qr_scan"}, "name": "026a2b8ae52bc3ab97988aa940c288a3", "type": "electric_scooter"}, {"fusion_lat": 0.0, "bike_id": "8a634a066d969aea50df0b689fde59aa", "fusion_lon": 0.0, "lon": -77.05509316666667, "lat": 38.929832, "is_reserved": 0, "is_disabled": 0, "rental_uris": {"android": "https://dc.lft.to/lastmile_qr_scan", "ios": "https://dc.lft.to/lastmile_qr_scan"}, "name": "8a634a066d969aea50df0b689fde59aa", "type": "electric_scooter"}, {"fusion_lat": 0.0, "bike_id": "b4b7abe4a9af8c8956697711217379e5", "fusion_lon": 0.0, "lon": -77.11285483333333, "lat": 39.04751783333333, "is_reserved": 0, "is_disabled": 0, "rental_uris": {"android": "https://dc.lft.to/lastmile_qr_scan", "ios": "https://dc.lft.to/lastmile_qr_scan"}, "name": "b4b7abe4a9af8c8956697711217379e5", "type": "electric_bike"}, {"fusion_lat": 0.0, "bike_id": "013857d2e8e8e1ff6cb0d518e76b8c8e", "fusion_lon": 0.0, "lon": -77.01410566666667, "lat": 38.914790333333336, "is_reserved": 0, "is_disabled": 0, "rental_uris": {"android": "https://dc.lft.to/lastmile_qr_scan", "ios": "https://dc.lft.to/lastmile_qr_scan"}, "name": "013857d2e8e8e1ff6cb0d518e76b8c8e", "type": "electric_scooter"}, {"fusion_lat": 0.0, "bike_id": "db6d12f04b1ca03bfe109d34070d5326", "fusion_lon": 0.0, "lon": -77.03225533333334, "lat": 38.92583416666667, "is_reserved": 0, "is_disabled": 0, "rental_uris": {"android": "https://dc.lft.to/lastmile_qr_scan", "ios": "https://dc.lft.to/lastmile_qr_scan"}, "name": "db6d12f04b1ca03bfe109d34070d5326", "type": "electric_scooter"}, {"fusion_lat": 0.0, "bike_id": "0d4fa4e8eec0686671567220b379fbf7", "fusion_lon": 0.0, "lon": -77.02841633333334, "lat": 38.925792333333334, "is_reserved": 0, "is_disabled": 0, "rental_uris": {"android": "https://dc.lft.to/lastmile_qr_scan", "ios": "https://dc.lft.to/lastmile_qr_scan"}, "name": "0d4fa4e8eec0686671567220b379fbf7", "type": "electric_scooter"}, {"fusion_lat": 0.0, "bike_id": "35b42b8f464a8631005c1feb4fe68c71", "fusion_lon": 0.0, "lon": -77.02058816666667, "lat": 38.923629, "is_reserved": 0, "is_disabled": 0, "rental_uris": {"android": "https://dc.lft.to/lastmile_qr_scan", "ios": "https://dc.lft.to/lastmile_qr_scan"}, "name": "35b42b8f464a8631005c1feb4fe68c71", "type": "electric_scooter"}, {"fusion_lat": 0.0, "bike_id": "c55dfbf74a436eccb9b393e5f4fd49a7", "fusion_lon": 0.0, "lon": -77.03232466666667, "lat": 38.90467016666667, "is_reserved": 0, "is_disabled": 0, "rental_uris": {"android": "https://dc.lft.to/lastmile_qr_scan", "ios": "https://dc.lft.to/lastmile_qr_scan"}, "name": "c55dfbf74a436eccb9b393e5f4fd49a7", "type": "electric_scooter"}, {"fusion_lat": 0.0, "bike_id": "3dd0f7cc31d090b669554dbd3636dc27", "fusion_lon": 0.0, "lon": -77.032358, "lat": 38.895803, "is_reserved": 0, "is_disabled": 0, "rental_uris": {"android": "https://dc.lft.to/lastmile_qr_scan", "ios": "https://dc.lft.to/lastmile_qr_scan"}, "name": "3dd0f7cc31d090b669554dbd3636dc27", "type": "electric_scooter"}, {"fusion_lat": 0.0, "bike_id": "7771a80ff351d02d4b5c7049e21c2c8b", "fusion_lon": 0.0, "lon": -77.02274683333333, "lat": 38.924589, "is_reserved": 0, "is_disabled": 0, "rental_uris": {"android": "https://dc.lft.to/lastmile_qr_scan", "ios": "https://dc.lft.to/lastmile_qr_scan"}, "name": "7771a80ff351d02d4b5c7049e21c2c8b", "type": "electric_scooter"}, {"fusion_lat": 0.0, "bike_id": "c02986c7c16ee39921f383421ea0742a", "fusion_lon": 0.0, "lon": -77.05071433333333, "lat": 38.90181416666667, "is_reserved": 0, "is_disabled": 0, "rental_uris": {"android": "https://dc.lft.to/lastmile_qr_scan", "ios": "https://dc.lft.to/lastmile_qr_scan"}, "name": "c02986c7c16ee39921f383421ea0742a", "type": "electric_scooter"}, {"fusion_lat": 0.0, "bike_id": "80f89dc2a2f489921fea6fdf0eff9c7c", "fusion_lon": 0.0, "lon": -77.02488966666667, "lat": 38.9169535, "is_reserved": 0, "is_disabled": 0, "rental_uris": {"android": "https://dc.lft.to/lastmile_qr_scan", "ios": "https://dc.lft.to/lastmile_qr_scan"}, "name": "80f89dc2a2f489921fea6fdf0eff9c7c", "type": "electric_scooter"}, {"fusion_lat": 0.0, "bike_id": "bd43ef0a8178847fc4d021a7a8b7bb7e", "fusion_lon": 0.0, "lon": -77.0671025, "lat": 38.9143885, "is_reserved": 0, "is_disabled": 0, "rental_uris": {"android": "https://dc.lft.to/lastmile_qr_scan", "ios": "https://dc.lft.to/lastmile_qr_scan"}, "name": "bd43ef0a8178847fc4d021a7a8b7bb7e", "type": "electric_scooter"}, {"fusion_lat": 0.0, "bike_id": "b6f8d4ecddc0e78c3a0e0e1ae170564c", "fusion_lon": 0.0, "lon": -77.038386, "lat": 38.913234, "is_reserved": 0, "is_disabled": 0, "rental_uris": {"android": "https://dc.lft.to/lastmile_qr_scan", "ios": "https://dc.lft.to/lastmile_qr_scan"}, "name": "b6f8d4ecddc0e78c3a0e0e1ae170564c", "type": "electric_scooter"}, {"fusion_lat": 0.0, "bike_id": "19970dee22f2b183cdb1b9262ef3b345", "fusion_lon": 0.0, "lon": -76.93735983333333, "lat": 38.89011516666667, "is_reserved": 0, "is_disabled": 0, "rental_uris": {"android": "https://dc.lft.to/lastmile_qr_scan", "ios": "https://dc.lft.to/lastmile_qr_scan"}, "name": "19970dee22f2b183cdb1b9262ef3b345", "type": "electric_scooter"}, {"fusion_lat": 0.0, "bike_id": "c8126c04a5983005de6fc873b120c2c7", "fusion_lon": 0.0, "lon": -76.9890455, "lat": 38.866671833333335, "is_reserved": 0, "is_disabled": 0, "rental_uris": {"android": "https://dc.lft.to/lastmile_qr_scan", "ios": "https://dc.lft.to/lastmile_qr_scan"}, "name": "c8126c04a5983005de6fc873b120c2c7", "type": "electric_scooter"}, {"fusion_lat": 0.0, "bike_id": "b859d306cac5cf69eee043d54bfe2b77", "fusion_lon": 0.0, "lon": -77.04651483333333, "lat": 38.89824516666667, "is_reserved": 0, "is_disabled": 0, "rental_uris": {"android": "https://dc.lft.to/lastmile_qr_scan", "ios": "https://dc.lft.to/lastmile_qr_scan"}, "name": "b859d306cac5cf69eee043d54bfe2b77", "type": "electric_scooter"}, {"fusion_lat": 0.0, "bike_id": "68bcb155bcacc9611f9083caa3b8f328", "fusion_lon": 0.0, "lon": -77.02791816666667, "lat": 38.893909, "is_reserved": 0, "is_disabled": 0, "rental_uris": {"android": "https://dc.lft.to/lastmile_qr_scan", "ios": "https://dc.lft.to/lastmile_qr_scan"}, "name": "68bcb155bcacc9611f9083caa3b8f328", "type": "electric_scooter"}, {"fusion_lat": 0.0, "bike_id": "c2679dcd720151f97b542d5706d4719c", "fusion_lon": 0.0, "lon": -77.10841683333334, "lat": 38.811998833333334, "is_reserved": 0, "is_disabled": 0, "rental_uris": {"android": "https://dc.lft.to/lastmile_qr_scan", "ios": "https://dc.lft.to/lastmile_qr_scan"}, "name": "c2679dcd720151f97b542d5706d4719c", "type": "electric_bike"}, {"fusion_lat": 0.0, "bike_id": "4e900e963065500e8fdd2256c051cd73", "fusion_lon": 0.0, "lon": -77.025548, "lat": 38.9308595, "is_reserved": 0, "is_disabled": 0, "rental_uris": {"android": "https://dc.lft.to/lastmile_qr_scan", "ios": "https://dc.lft.to/lastmile_qr_scan"}, "name": "4e900e963065500e8fdd2256c051cd73", "type": "electric_scooter"}, {"fusion_lat": 0.0, "bike_id": "dc63a88d87a42c104ce7fb903de80c7f", "fusion_lon": 0.0, "lon": -76.99003133333333, "lat": 38.86502016666667, "is_reserved": 0, "is_disabled": 0, "rental_uris": {"android": "https://dc.lft.to/lastmile_qr_scan", "ios": "https://dc.lft.to/lastmile_qr_scan"}, "name": "dc63a88d87a42c104ce7fb903de80c7f", "type": "electric_scooter"}, {"fusion_lat": 0.0, "bike_id": "7a77e37e68789f1f5dfa1fa35bca57c4", "fusion_lon": 0.0, "lon": -77.02707583333333, "lat": 38.895307833333334, "is_reserved": 0, "is_disabled": 0, "rental_uris": {"android": "https://dc.lft.to/lastmile_qr_scan", "ios": "https://dc.lft.to/lastmile_qr_scan"}, "name": "7a77e37e68789f1f5dfa1fa35bca57c4", "type": "electric_scooter"}, {"fusion_lat": 0.0, "bike_id": "ed7a5b2b460d74916a5b546cf0bb6b4c", "fusion_lon": 0.0, "lon": -77.03960033333334, "lat": 38.899073333333334, "is_reserved": 0, "is_disabled": 0, "rental_uris": {"android": "https://dc.lft.to/lastmile_qr_scan", "ios": "https://dc.lft.to/lastmile_qr_scan"}, "name": "ed7a5b2b460d74916a5b546cf0bb6b4c", "type": "electric_scooter"}, {"fusion_lat": 0.0, "bike_id": "25ed59b91e994b02922f8fafd4d233c8", "fusion_lon": 0.0, "lon": -77.0267705, "lat": 38.91693716666666, "is_reserved": 0, "is_disabled": 0, "rental_uris": {"android": "https://dc.lft.to/lastmile_qr_scan", "ios": "https://dc.lft.to/lastmile_qr_scan"}, "name": "25ed59b91e994b02922f8fafd4d233c8", "type": "electric_scooter"}, {"fusion_lat": 0.0, "bike_id": "2c4162e17903d7963026df8623775e0b", "fusion_lon": 0.0, "lon": -77.03309433333334, "lat": 38.898164333333334, "is_reserved": 0, "is_disabled": 0, "rental_uris": {"android": "https://dc.lft.to/lastmile_qr_scan", "ios": "https://dc.lft.to/lastmile_qr_scan"}, "name": "2c4162e17903d7963026df8623775e0b", "type": "electric_scooter"}, {"fusion_lat": 0.0, "bike_id": "9655adef7f88ab22533a1f3458b011ed", "fusion_lon": 0.0, "lon": -76.98085183333333, "lat": 38.907036166666664, "is_reserved": 0, "is_disabled": 0, "rental_uris": {"android": "https://dc.lft.to/lastmile_qr_scan", "ios": "https://dc.lft.to/lastmile_qr_scan"}, "name": "9655adef7f88ab22533a1f3458b011ed", "type": "electric_scooter"}, {"fusion_lat": 0.0, "bike_id": "7522c65d0196f9cfe7aac1a162950e8d", "fusion_lon": 0.0, "lon": -77.04087833333334, "lat": 38.911813333333335, "is_reserved": 0, "is_disabled": 0, "rental_uris": {"android": "https://dc.lft.to/lastmile_qr_scan", "ios": "https://dc.lft.to/lastmile_qr_scan"}, "name": "7522c65d0196f9cfe7aac1a162950e8d", "type": "electric_scooter"}, {"fusion_lat": 0.0, "bike_id": "71e2d0176107a50a7b28f5fba4795ab3", "fusion_lon": 0.0, "lon": -77.03262916666667, "lat": 38.937749833333335, "is_reserved": 0, "is_disabled": 0, "rental_uris": {"android": "https://dc.lft.to/lastmile_qr_scan", "ios": "https://dc.lft.to/lastmile_qr_scan"}, "name": "71e2d0176107a50a7b28f5fba4795ab3", "type": "electric_scooter"}, {"fusion_lat": 0.0, "bike_id": "a1728845206b867847d5f15ac170472c", "fusion_lon": 0.0, "lon": -77.032135, "lat": 38.920094, "is_reserved": 0, "is_disabled": 0, "rental_uris": {"android": "https://dc.lft.to/lastmile_qr_scan", "ios": "https://dc.lft.to/lastmile_qr_scan"}, "name": "a1728845206b867847d5f15ac170472c", "type": "electric_scooter"}, {"fusion_lat": 0.0, "bike_id": "20b0549b5c0633543afff03cdce27f12", "fusion_lon": 0.0, "lon": -77.0676245, "lat": 38.903664666666664, "is_reserved": 0, "is_disabled": 0, "rental_uris": {"android": "https://dc.lft.to/lastmile_qr_scan", "ios": "https://dc.lft.to/lastmile_qr_scan"}, "name": "20b0549b5c0633543afff03cdce27f12", "type": "electric_scooter"}, {"fusion_lat": 0.0, "bike_id": "4534ccc49b39c0cc8b04252ea96bac82", "fusion_lon": 0.0, "lon": -77.0465445, "lat": 38.8965405, "is_reserved": 0, "is_disabled": 0, "rental_uris": {"android": "https://dc.lft.to/lastmile_qr_scan", "ios": "https://dc.lft.to/lastmile_qr_scan"}, "name": "4534ccc49b39c0cc8b04252ea96bac82", "type": "electric_scooter"}, {"fusion_lat": 0.0, "bike_id": "35b7a72e21f7f1b3afcafb93610596f1", "fusion_lon": 0.0, "lon": -76.961529, "lat": 38.883578166666666, "is_reserved": 0, "is_disabled": 0, "rental_uris": {"android": "https://dc.lft.to/lastmile_qr_scan", "ios": "https://dc.lft.to/lastmile_qr_scan"}, "name": "35b7a72e21f7f1b3afcafb93610596f1", "type": "electric_scooter"}, {"fusion_lat": 0.0, "bike_id": "27c5e77fd75f47486419ae1ad026dcb9", "fusion_lon": 0.0, "lon": -77.02663533333333, "lat": 38.922179666666665, "is_reserved": 0, "is_disabled": 0, "rental_uris": {"android": "https://dc.lft.to/lastmile_qr_scan", "ios": "https://dc.lft.to/lastmile_qr_scan"}, "name": "27c5e77fd75f47486419ae1ad026dcb9", "type": "electric_scooter"}, {"fusion_lat": 0.0, "bike_id": "983dc3eed5140bb78791017d3dd2476a", "fusion_lon": 0.0, "lon": -77.036502, "lat": 38.91345666666667, "is_reserved": 0, "is_disabled": 0, "rental_uris": {"android": "https://dc.lft.to/lastmile_qr_scan", "ios": "https://dc.lft.to/lastmile_qr_scan"}, "name": "983dc3eed5140bb78791017d3dd2476a", "type": "electric_scooter"}, {"fusion_lat": 0.0, "bike_id": "b7ff400612bcc23195c147fa33381add", "fusion_lon": 0.0, "lon": -76.96913883333333, "lat": 38.84608216666667, "is_reserved": 0, "is_disabled": 0, "rental_uris": {"android": "https://dc.lft.to/lastmile_qr_scan", "ios": "https://dc.lft.to/lastmile_qr_scan"}, "name": "b7ff400612bcc23195c147fa33381add", "type": "electric_bike"}, {"fusion_lat": 0.0, "bike_id": "e4d2d0b884102381f4ccdb6ab4f882fd", "fusion_lon": 0.0, "lon": -77.0449295, "lat": 38.907246666666666, "is_reserved": 0, "is_disabled": 0, "rental_uris": {"android": "https://dc.lft.to/lastmile_qr_scan", "ios": "https://dc.lft.to/lastmile_qr_scan"}, "name": "e4d2d0b884102381f4ccdb6ab4f882fd", "type": "electric_scooter"}, {"fusion_lat": 0.0, "bike_id": "bd10b27f4d410c063b8f25e665f536d5", "fusion_lon": 0.0, "lon": -77.033399, "lat": 38.8989725, "is_reserved": 0, "is_disabled": 0, "rental_uris": {"android": "https://dc.lft.to/lastmile_qr_scan", "ios": "https://dc.lft.to/lastmile_qr_scan"}, "name": "bd10b27f4d410c063b8f25e665f536d5", "type": "electric_scooter"}, {"fusion_lat": 0.0, "bike_id": "74803ddc84e1dac3cfbcdc40dadaf46a", "fusion_lon": 0.0, "lon": -76.94636416666667, "lat": 38.89833516666667, "is_reserved": 0, "is_disabled": 0, "rental_uris": {"android": "https://dc.lft.to/lastmile_qr_scan", "ios": "https://dc.lft.to/lastmile_qr_scan"}, "name": "74803ddc84e1dac3cfbcdc40dadaf46a", "type": "electric_scooter"}, {"fusion_lat": 0.0, "bike_id": "66175631981ffba71a88af6d1799f7ea", "fusion_lon": 0.0, "lon": -77.02830266666666, "lat": 38.88734066666667, "is_reserved": 0, "is_disabled": 0, "rental_uris": {"android": "https://dc.lft.to/lastmile_qr_scan", "ios": "https://dc.lft.to/lastmile_qr_scan"}, "name": "66175631981ffba71a88af6d1799f7ea", "type": "electric_scooter"}, {"fusion_lat": 0.0, "bike_id": "8a664612b98e086aa2890238ff29b2ba", "fusion_lon": 0.0, "lon": -76.973938, "lat": 38.90555916666667, "is_reserved": 0, "is_disabled": 0, "rental_uris": {"android": "https://dc.lft.to/lastmile_qr_scan", "ios": "https://dc.lft.to/lastmile_qr_scan"}, "name": "8a664612b98e086aa2890238ff29b2ba", "type": "electric_scooter"}, {"fusion_lat": 0.0, "bike_id": "813ae045bba9c27ceb6c53f705358bfe", "fusion_lon": 0.0, "lon": -77.02303466666666, "lat": 38.940883, "is_reserved": 0, "is_disabled": 0, "rental_uris": {"android": "https://dc.lft.to/lastmile_qr_scan", "ios": "https://dc.lft.to/lastmile_qr_scan"}, "name": "813ae045bba9c27ceb6c53f705358bfe", "type": "electric_scooter"}, {"fusion_lat": 0.0, "bike_id": "95dfc1845bbb5f5a1fb8f2e3487f11b8", "fusion_lon": 0.0, "lon": -77.12075233333333, "lat": 38.854165333333334, "is_reserved": 0, "is_disabled": 0, "rental_uris": {"android": "https://dc.lft.to/lastmile_qr_scan", "ios": "https://dc.lft.to/lastmile_qr_scan"}, "name": "95dfc1845bbb5f5a1fb8f2e3487f11b8", "type": "electric_bike"}, {"fusion_lat": 0.0, "bike_id": "d7599fce2501e1a4fa2254d1e8c104fa", "fusion_lon": 0.0, "lon": -76.975496, "lat": 38.90320166666667, "is_reserved": 0, "is_disabled": 0, "rental_uris": {"android": "https://dc.lft.to/lastmile_qr_scan", "ios": "https://dc.lft.to/lastmile_qr_scan"}, "name": "d7599fce2501e1a4fa2254d1e8c104fa", "type": "electric_scooter"}, {"fusion_lat": 0.0, "bike_id": "48930ee806c085789fa52cd614e4e9c2", "fusion_lon": 0.0, "lon": -77.10541816666667, "lat": 38.8550815, "is_reserved": 0, "is_disabled": 0, "rental_uris": {"android": "https://dc.lft.to/lastmile_qr_scan", "ios": "https://dc.lft.to/lastmile_qr_scan"}, "name": "48930ee806c085789fa52cd614e4e9c2", "type": "electric_bike"}, {"fusion_lat": 0.0, "bike_id": "4b389d6a817c3254b0a86e981bda4f6f", "fusion_lon": 0.0, "lon": -76.98349966666666, "lat": 38.887678666666666, "is_reserved": 0, "is_disabled": 0, "rental_uris": {"android": "https://dc.lft.to/lastmile_qr_scan", "ios": "https://dc.lft.to/lastmile_qr_scan"}, "name": "4b389d6a817c3254b0a86e981bda4f6f", "type": "electric_scooter"}, {"fusion_lat": 0.0, "bike_id": "1b2804c1de26f066e137ee8d17ea7d9c", "fusion_lon": 0.0, "lon": -77.021963, "lat": 38.90019616666667, "is_reserved": 0, "is_disabled": 0, "rental_uris": {"android": "https://dc.lft.to/lastmile_qr_scan", "ios": "https://dc.lft.to/lastmile_qr_scan"}, "name": "1b2804c1de26f066e137ee8d17ea7d9c", "type": "electric_scooter"}, {"fusion_lat": 0.0, "bike_id": "5e74106956d57729dcac09a252664501", "fusion_lon": 0.0, "lon": -77.06343783333334, "lat": 38.90682283333334, "is_reserved": 0, "is_disabled": 0, "rental_uris": {"android": "https://dc.lft.to/lastmile_qr_scan", "ios": "https://dc.lft.to/lastmile_qr_scan"}, "name": "5e74106956d57729dcac09a252664501", "type": "electric_scooter"}, {"fusion_lat": 0.0, "bike_id": "c7e2710616dc86ee2ebca6ccfafc122c", "fusion_lon": 0.0, "lon": -77.03501683333333, "lat": 38.9374905, "is_reserved": 0, "is_disabled": 0, "rental_uris": {"android": "https://dc.lft.to/lastmile_qr_scan", "ios": "https://dc.lft.to/lastmile_qr_scan"}, "name": "c7e2710616dc86ee2ebca6ccfafc122c", "type": "electric_scooter"}, {"fusion_lat": 0.0, "bike_id": "3b9a3108f39d00ea2a28404805911b8b", "fusion_lon": 0.0, "lon": -77.00452166666666, "lat": 38.87657383333333, "is_reserved": 0, "is_disabled": 0, "rental_uris": {"android": "https://dc.lft.to/lastmile_qr_scan", "ios": "https://dc.lft.to/lastmile_qr_scan"}, "name": "3b9a3108f39d00ea2a28404805911b8b", "type": "electric_scooter"}, {"fusion_lat": 0.0, "bike_id": "f2e121a71f0ce4edcc2c8769f82dca9c", "fusion_lon": 0.0, "lon": -77.03259083333333, "lat": 38.91558916666666, "is_reserved": 0, "is_disabled": 0, "rental_uris": {"android": "https://dc.lft.to/lastmile_qr_scan", "ios": "https://dc.lft.to/lastmile_qr_scan"}, "name": "f2e121a71f0ce4edcc2c8769f82dca9c", "type": "electric_scooter"}, {"fusion_lat": 0.0, "bike_id": "bb475cd0869a5d5b12b9b06eb1b76fa1", "fusion_lon": 0.0, "lon": -77.0427085, "lat": 38.92244083333333, "is_reserved": 0, "is_disabled": 0, "rental_uris": {"android": "https://dc.lft.to/lastmile_qr_scan", "ios": "https://dc.lft.to/lastmile_qr_scan"}, "name": "bb475cd0869a5d5b12b9b06eb1b76fa1", "type": "electric_scooter"}, {"fusion_lat": 0.0, "bike_id": "b50f40ba6cc2e96d6ab198e5364b2fcb", "fusion_lon": 0.0, "lon": -77.0342975, "lat": 38.92239383333333, "is_reserved": 0, "is_disabled": 0, "rental_uris": {"android": "https://dc.lft.to/lastmile_qr_scan", "ios": "https://dc.lft.to/lastmile_qr_scan"}, "name": "b50f40ba6cc2e96d6ab198e5364b2fcb", "type": "electric_scooter"}, {"fusion_lat": 0.0, "bike_id": "366cc483ae09892a075ea5501015841d", "fusion_lon": 0.0, "lon": -77.03851166666666, "lat": 38.91014966666667, "is_reserved": 0, "is_disabled": 0, "rental_uris": {"android": "https://dc.lft.to/lastmile_qr_scan", "ios": "https://dc.lft.to/lastmile_qr_scan"}, "name": "366cc483ae09892a075ea5501015841d", "type": "electric_scooter"}, {"fusion_lat": 0.0, "bike_id": "5a143c21f7730954704fd9e149f76e46", "fusion_lon": 0.0, "lon": -76.997382, "lat": 39.04233, "is_reserved": 0, "is_disabled": 0, "rental_uris": {"android": "https://dc.lft.to/lastmile_qr_scan", "ios": "https://dc.lft.to/lastmile_qr_scan"}, "name": "5a143c21f7730954704fd9e149f76e46", "type": "electric_bike"}, {"fusion_lat": 0.0, "bike_id": "9afcdac22d95664a269a3149cf8d7545", "fusion_lon": 0.0, "lon": -77.0345225, "lat": 38.907338333333335, "is_reserved": 0, "is_disabled": 0, "rental_uris": {"android": "https://dc.lft.to/lastmile_qr_scan", "ios": "https://dc.lft.to/lastmile_qr_scan"}, "name": "9afcdac22d95664a269a3149cf8d7545", "type": "electric_scooter"}, {"fusion_lat": 0.0, "bike_id": "228b409c2da2135c80852490bcdca777", "fusion_lon": 0.0, "lon": -77.03195233333334, "lat": 38.91300483333333, "is_reserved": 0, "is_disabled": 0, "rental_uris": {"android": "https://dc.lft.to/lastmile_qr_scan", "ios": "https://dc.lft.to/lastmile_qr_scan"}, "name": "228b409c2da2135c80852490bcdca777", "type": "electric_scooter"}, {"fusion_lat": 0.0, "bike_id": "7748887025dedb503f718b34e2a10ddf", "fusion_lon": 0.0, "lon": -77.0298035, "lat": 38.9245285, "is_reserved": 0, "is_disabled": 0, "rental_uris": {"android": "https://dc.lft.to/lastmile_qr_scan", "ios": "https://dc.lft.to/lastmile_qr_scan"}, "name": "7748887025dedb503f718b34e2a10ddf", "type": "electric_scooter"}, {"fusion_lat": 0.0, "bike_id": "bdc4a868975bad61495fbbc8634f959d", "fusion_lon": 0.0, "lon": -77.01954066666667, "lat": 38.923261, "is_reserved": 0, "is_disabled": 0, "rental_uris": {"android": "https://dc.lft.to/lastmile_qr_scan", "ios": "https://dc.lft.to/lastmile_qr_scan"}, "name": "bdc4a868975bad61495fbbc8634f959d", "type": "electric_scooter"}, {"fusion_lat": 0.0, "bike_id": "eabf60cd989082b709b32066c1cd542f", "fusion_lon": 0.0, "lon": -77.00702016666666, "lat": 38.909182333333334, "is_reserved": 0, "is_disabled": 0, "rental_uris": {"android": "https://dc.lft.to/lastmile_qr_scan", "ios": "https://dc.lft.to/lastmile_qr_scan"}, "name": "eabf60cd989082b709b32066c1cd542f", "type": "electric_scooter"}, {"fusion_lat": 0.0, "bike_id": "a01c53ede1f15098f5ff6da1ef53e491", "fusion_lon": 0.0, "lon": -77.03983416666667, "lat": 38.908534333333336, "is_reserved": 0, "is_disabled": 0, "rental_uris": {"android": "https://dc.lft.to/lastmile_qr_scan", "ios": "https://dc.lft.to/lastmile_qr_scan"}, "name": "a01c53ede1f15098f5ff6da1ef53e491", "type": "electric_scooter"}, {"fusion_lat": 0.0, "bike_id": "30fc33dd881dad2bd853e79a60e73fde", "fusion_lon": 0.0, "lon": -77.0240725, "lat": 38.88286183333334, "is_reserved": 0, "is_disabled": 0, "rental_uris": {"android": "https://dc.lft.to/lastmile_qr_scan", "ios": "https://dc.lft.to/lastmile_qr_scan"}, "name": "30fc33dd881dad2bd853e79a60e73fde", "type": "electric_scooter"}, {"fusion_lat": 0.0, "bike_id": "e0f4a631ffcadfb98ef23f20d9a8434b", "fusion_lon": 0.0, "lon": -77.04351683333333, "lat": 38.91045166666667, "is_reserved": 0, "is_disabled": 0, "rental_uris": {"android": "https://dc.lft.to/lastmile_qr_scan", "ios": "https://dc.lft.to/lastmile_qr_scan"}, "name": "e0f4a631ffcadfb98ef23f20d9a8434b", "type": "electric_scooter"}, {"fusion_lat": 0.0, "bike_id": "2497c5a3e96a332dcc84fc7f5171632d", "fusion_lon": 0.0, "lon": -77.02384133333334, "lat": 38.90800466666666, "is_reserved": 0, "is_disabled": 0, "rental_uris": {"android": "https://dc.lft.to/lastmile_qr_scan", "ios": "https://dc.lft.to/lastmile_qr_scan"}, "name": "2497c5a3e96a332dcc84fc7f5171632d", "type": "electric_scooter"}, {"fusion_lat": 0.0, "bike_id": "a310c2b00915141519cb166af7856551", "fusion_lon": 0.0, "lon": -77.0036095, "lat": 38.91103366666667, "is_reserved": 0, "is_disabled": 0, "rental_uris": {"android": "https://dc.lft.to/lastmile_qr_scan", "ios": "https://dc.lft.to/lastmile_qr_scan"}, "name": "a310c2b00915141519cb166af7856551", "type": "electric_scooter"}, {"fusion_lat": 0.0, "bike_id": "1f8ee39d4b28d1f369630f60c5809c4f", "fusion_lon": 0.0, "lon": -77.0282215, "lat": 38.950856333333334, "is_reserved": 0, "is_disabled": 0, "rental_uris": {"android": "https://dc.lft.to/lastmile_qr_scan", "ios": "https://dc.lft.to/lastmile_qr_scan"}, "name": "1f8ee39d4b28d1f369630f60c5809c4f", "type": "electric_scooter"}, {"fusion_lat": 0.0, "bike_id": "8cacb39ed77c71d8303fa9883eccca91", "fusion_lon": 0.0, "lon": -76.949719, "lat": 38.893754333333334, "is_reserved": 0, "is_disabled": 0, "rental_uris": {"android": "https://dc.lft.to/lastmile_qr_scan", "ios": "https://dc.lft.to/lastmile_qr_scan"}, "name": "8cacb39ed77c71d8303fa9883eccca91", "type": "electric_scooter"}, {"fusion_lat": 0.0, "bike_id": "82400fa9c681abe3178995963e72167c", "fusion_lon": 0.0, "lon": -76.93534166666667, "lat": 38.8968, "is_reserved": 0, "is_disabled": 0, "rental_uris": {"android": "https://dc.lft.to/lastmile_qr_scan", "ios": "https://dc.lft.to/lastmile_qr_scan"}, "name": "82400fa9c681abe3178995963e72167c", "type": "electric_scooter"}, {"fusion_lat": 0.0, "bike_id": "fda92faf7b41516ea4b7a76aa0b16906", "fusion_lon": 0.0, "lon": -77.0120885, "lat": 38.89685033333333, "is_reserved": 0, "is_disabled": 0, "rental_uris": {"android": "https://dc.lft.to/lastmile_qr_scan", "ios": "https://dc.lft.to/lastmile_qr_scan"}, "name": "fda92faf7b41516ea4b7a76aa0b16906", "type": "electric_scooter"}, {"fusion_lat": 0.0, "bike_id": "c707eb1140bceebc4ce42fb765980232", "fusion_lon": 0.0, "lon": -76.98500083333333, "lat": 38.866719833333335, "is_reserved": 0, "is_disabled": 0, "rental_uris": {"android": "https://dc.lft.to/lastmile_qr_scan", "ios": "https://dc.lft.to/lastmile_qr_scan"}, "name": "c707eb1140bceebc4ce42fb765980232", "type": "electric_scooter"}, {"fusion_lat": 0.0, "bike_id": "8ed1bdc948f3feec005fcefed6452f8f", "fusion_lon": 0.0, "lon": -76.98562383333334, "lat": 38.909156, "is_reserved": 0, "is_disabled": 0, "rental_uris": {"android": "https://dc.lft.to/lastmile_qr_scan", "ios": "https://dc.lft.to/lastmile_qr_scan"}, "name": "8ed1bdc948f3feec005fcefed6452f8f", "type": "electric_scooter"}, {"fusion_lat": 0.0, "bike_id": "aa91be9390c907bcef15a5aae6de558e", "fusion_lon": 0.0, "lon": -76.99597366666667, "lat": 38.884269, "is_reserved": 0, "is_disabled": 0, "rental_uris": {"android": "https://dc.lft.to/lastmile_qr_scan", "ios": "https://dc.lft.to/lastmile_qr_scan"}, "name": "aa91be9390c907bcef15a5aae6de558e", "type": "electric_scooter"}, {"fusion_lat": 0.0, "bike_id": "7b61a43a2e9c2f9d8dcd1ba2c038e2a7", "fusion_lon": 0.0, "lon": -77.03278083333333, "lat": 38.9324715, "is_reserved": 0, "is_disabled": 0, "rental_uris": {"android": "https://dc.lft.to/lastmile_qr_scan", "ios": "https://dc.lft.to/lastmile_qr_scan"}, "name": "7b61a43a2e9c2f9d8dcd1ba2c038e2a7", "type": "electric_scooter"}, {"fusion_lat": 0.0, "bike_id": "bf7814d89e48b585080d0ef5c0b05f36", "fusion_lon": 0.0, "lon": -77.04336216666667, "lat": 38.900529666666664, "is_reserved": 0, "is_disabled": 0, "rental_uris": {"android": "https://dc.lft.to/lastmile_qr_scan", "ios": "https://dc.lft.to/lastmile_qr_scan"}, "name": "bf7814d89e48b585080d0ef5c0b05f36", "type": "electric_scooter"}, {"fusion_lat": 0.0, "bike_id": "8a8a65af63b10fa0f4801f1d3c8b17c0", "fusion_lon": 0.0, "lon": -77.01213416666667, "lat": 38.9001205, "is_reserved": 0, "is_disabled": 0, "rental_uris": {"android": "https://dc.lft.to/lastmile_qr_scan", "ios": "https://dc.lft.to/lastmile_qr_scan"}, "name": "8a8a65af63b10fa0f4801f1d3c8b17c0", "type": "electric_scooter"}, {"fusion_lat": 0.0, "bike_id": "cb9af98baf7bdb3498b5ba92a8800173", "fusion_lon": 0.0, "lon": -77.03070866666667, "lat": 38.9170805, "is_reserved": 0, "is_disabled": 0, "rental_uris": {"android": "https://dc.lft.to/lastmile_qr_scan", "ios": "https://dc.lft.to/lastmile_qr_scan"}, "name": "cb9af98baf7bdb3498b5ba92a8800173", "type": "electric_scooter"}, {"fusion_lat": 0.0, "bike_id": "5c19caed6d464d5f21f8e94b96dfc114", "fusion_lon": 0.0, "lon": -76.97326183333334, "lat": 38.865099, "is_reserved": 0, "is_disabled": 0, "rental_uris": {"android": "https://dc.lft.to/lastmile_qr_scan", "ios": "https://dc.lft.to/lastmile_qr_scan"}, "name": "5c19caed6d464d5f21f8e94b96dfc114", "type": "electric_bike"}, {"fusion_lat": 0.0, "bike_id": "77b2a2006196bcd41f8fb0b1b44ef0ea", "fusion_lon": 0.0, "lon": -77.033414, "lat": 38.89899483333333, "is_reserved": 0, "is_disabled": 0, "rental_uris": {"android": "https://dc.lft.to/lastmile_qr_scan", "ios": "https://dc.lft.to/lastmile_qr_scan"}, "name": "77b2a2006196bcd41f8fb0b1b44ef0ea", "type": "electric_scooter"}, {"fusion_lat": 0.0, "bike_id": "b39d924009bf5ce8de1cba795796b16e", "fusion_lon": 0.0, "lon": -77.0518115, "lat": 38.9241205, "is_reserved": 0, "is_disabled": 0, "rental_uris": {"android": "https://dc.lft.to/lastmile_qr_scan", "ios": "https://dc.lft.to/lastmile_qr_scan"}, "name": "b39d924009bf5ce8de1cba795796b16e", "type": "electric_scooter"}, {"fusion_lat": 0.0, "bike_id": "9dcc562313136fc3d74750e043b113af", "fusion_lon": 0.0, "lon": -77.0271575, "lat": 38.91139316666667, "is_reserved": 0, "is_disabled": 0, "rental_uris": {"android": "https://dc.lft.to/lastmile_qr_scan", "ios": "https://dc.lft.to/lastmile_qr_scan"}, "name": "9dcc562313136fc3d74750e043b113af", "type": "electric_scooter"}, {"fusion_lat": 0.0, "bike_id": "5e87ca15f348e0d97755b5e250a73c0b", "fusion_lon": 0.0, "lon": -76.94886483333333, "lat": 38.8951115, "is_reserved": 0, "is_disabled": 0, "rental_uris": {"android": "https://dc.lft.to/lastmile_qr_scan", "ios": "https://dc.lft.to/lastmile_qr_scan"}, "name": "5e87ca15f348e0d97755b5e250a73c0b", "type": "electric_scooter"}, {"fusion_lat": 0.0, "bike_id": "bbb1106c5a36f8ae541b5a9fa00bad02", "fusion_lon": 0.0, "lon": -77.06109033333334, "lat": 38.93703283333333, "is_reserved": 0, "is_disabled": 0, "rental_uris": {"android": "https://dc.lft.to/lastmile_qr_scan", "ios": "https://dc.lft.to/lastmile_qr_scan"}, "name": "bbb1106c5a36f8ae541b5a9fa00bad02", "type": "electric_scooter"}, {"fusion_lat": 0.0, "bike_id": "6a475e3c88de8d63bcfd5efe91cd4b8e", "fusion_lon": 0.0, "lon": -77.0129935, "lat": 38.930278666666666, "is_reserved": 0, "is_disabled": 0, "rental_uris": {"android": "https://dc.lft.to/lastmile_qr_scan", "ios": "https://dc.lft.to/lastmile_qr_scan"}, "name": "6a475e3c88de8d63bcfd5efe91cd4b8e", "type": "electric_scooter"}, {"fusion_lat": 0.0, "bike_id": "12b28b745081411a936a357e4324ede3", "fusion_lon": 0.0, "lon": -77.03906, "lat": 38.914042333333335, "is_reserved": 0, "is_disabled": 0, "rental_uris": {"android": "https://dc.lft.to/lastmile_qr_scan", "ios": "https://dc.lft.to/lastmile_qr_scan"}, "name": "12b28b745081411a936a357e4324ede3", "type": "electric_scooter"}, {"fusion_lat": 0.0, "bike_id": "53baca455ab7a91cc7880eeca754c5bf", "fusion_lon": 0.0, "lon": -77.0025195, "lat": 38.95222166666667, "is_reserved": 0, "is_disabled": 0, "rental_uris": {"android": "https://dc.lft.to/lastmile_qr_scan", "ios": "https://dc.lft.to/lastmile_qr_scan"}, "name": "53baca455ab7a91cc7880eeca754c5bf", "type": "electric_scooter"}, {"fusion_lat": 0.0, "bike_id": "90379430db784707b6d7d4a2e9dfc017", "fusion_lon": 0.0, "lon": -77.02948033333334, "lat": 38.896405, "is_reserved": 0, "is_disabled": 0, "rental_uris": {"android": "https://dc.lft.to/lastmile_qr_scan", "ios": "https://dc.lft.to/lastmile_qr_scan"}, "name": "90379430db784707b6d7d4a2e9dfc017", "type": "electric_scooter"}, {"fusion_lat": 0.0, "bike_id": "6af1833cd76bbfbab9b1386bfe881292", "fusion_lon": 0.0, "lon": -77.0338045, "lat": 38.92144733333333, "is_reserved": 0, "is_disabled": 0, "rental_uris": {"android": "https://dc.lft.to/lastmile_qr_scan", "ios": "https://dc.lft.to/lastmile_qr_scan"}, "name": "6af1833cd76bbfbab9b1386bfe881292", "type": "electric_scooter"}, {"fusion_lat": 0.0, "bike_id": "8ab0f828edfc20ec6846a3900136d35b", "fusion_lon": 0.0, "lon": -77.0365055, "lat": 38.90490283333333, "is_reserved": 0, "is_disabled": 0, "rental_uris": {"android": "https://dc.lft.to/lastmile_qr_scan", "ios": "https://dc.lft.to/lastmile_qr_scan"}, "name": "8ab0f828edfc20ec6846a3900136d35b", "type": "electric_scooter"}, {"fusion_lat": 0.0, "bike_id": "6036ece5fea0d90b04e1650ba1645453", "fusion_lon": 0.0, "lon": -77.0326445, "lat": 38.936499833333336, "is_reserved": 0, "is_disabled": 0, "rental_uris": {"android": "https://dc.lft.to/lastmile_qr_scan", "ios": "https://dc.lft.to/lastmile_qr_scan"}, "name": "6036ece5fea0d90b04e1650ba1645453", "type": "electric_scooter"}, {"fusion_lat": 0.0, "bike_id": "18a13989b7116563dc76fffb3154ac20", "fusion_lon": 0.0, "lon": -77.0551205, "lat": 38.915303, "is_reserved": 0, "is_disabled": 0, "rental_uris": {"android": "https://dc.lft.to/lastmile_qr_scan", "ios": "https://dc.lft.to/lastmile_qr_scan"}, "name": "18a13989b7116563dc76fffb3154ac20", "type": "electric_scooter"}, {"fusion_lat": 0.0, "bike_id": "cc497f739445454a544efe344fb133f3", "fusion_lon": 0.0, "lon": -77.021617, "lat": 38.9261125, "is_reserved": 0, "is_disabled": 0, "rental_uris": {"android": "https://dc.lft.to/lastmile_qr_scan", "ios": "https://dc.lft.to/lastmile_qr_scan"}, "name": "cc497f739445454a544efe344fb133f3", "type": "electric_scooter"}, {"fusion_lat": 0.0, "bike_id": "1ce26c7c020a0744e7c7c55853cab7b0", "fusion_lon": 0.0, "lon": -77.0449235, "lat": 38.90065116666667, "is_reserved": 0, "is_disabled": 0, "rental_uris": {"android": "https://dc.lft.to/lastmile_qr_scan", "ios": "https://dc.lft.to/lastmile_qr_scan"}, "name": "1ce26c7c020a0744e7c7c55853cab7b0", "type": "electric_scooter"}, {"fusion_lat": 0.0, "bike_id": "d43ff5cdc13f1b717aba2d763507e8b1", "fusion_lon": 0.0, "lon": -77.04681316666667, "lat": 38.89453433333333, "is_reserved": 0, "is_disabled": 0, "rental_uris": {"android": "https://dc.lft.to/lastmile_qr_scan", "ios": "https://dc.lft.to/lastmile_qr_scan"}, "name": "d43ff5cdc13f1b717aba2d763507e8b1", "type": "electric_scooter"}, {"fusion_lat": 0.0, "bike_id": "2c20c0192e70d5eb6cb818cfb535ccac", "fusion_lon": 0.0, "lon": -77.04158933333333, "lat": 38.918112, "is_reserved": 0, "is_disabled": 0, "rental_uris": {"android": "https://dc.lft.to/lastmile_qr_scan", "ios": "https://dc.lft.to/lastmile_qr_scan"}, "name": "2c20c0192e70d5eb6cb818cfb535ccac", "type": "electric_scooter"}, {"fusion_lat": 0.0, "bike_id": "6286ed927ce7d7fcb18f3bed0d309bb3", "fusion_lon": 0.0, "lon": -77.0463425, "lat": 38.92119183333333, "is_reserved": 0, "is_disabled": 0, "rental_uris": {"android": "https://dc.lft.to/lastmile_qr_scan", "ios": "https://dc.lft.to/lastmile_qr_scan"}, "name": "6286ed927ce7d7fcb18f3bed0d309bb3", "type": "electric_scooter"}, {"fusion_lat": 0.0, "bike_id": "39718a225c1414ac4d5c7eafff145de7", "fusion_lon": 0.0, "lon": -77.04480683333334, "lat": 38.91028983333333, "is_reserved": 0, "is_disabled": 0, "rental_uris": {"android": "https://dc.lft.to/lastmile_qr_scan", "ios": "https://dc.lft.to/lastmile_qr_scan"}, "name": "39718a225c1414ac4d5c7eafff145de7", "type": "electric_scooter"}, {"fusion_lat": 0.0, "bike_id": "c576dad91c3d161a08cf9e5f9682e61d", "fusion_lon": 0.0, "lon": -76.93342483333333, "lat": 38.8990995, "is_reserved": 0, "is_disabled": 0, "rental_uris": {"android": "https://dc.lft.to/lastmile_qr_scan", "ios": "https://dc.lft.to/lastmile_qr_scan"}, "name": "c576dad91c3d161a08cf9e5f9682e61d", "type": "electric_scooter"}, {"fusion_lat": 0.0, "bike_id": "fd44c702bfeb7fd884ea5b6209438c1d", "fusion_lon": 0.0, "lon": -76.9910905, "lat": 38.9031905, "is_reserved": 0, "is_disabled": 0, "rental_uris": {"android": "https://dc.lft.to/lastmile_qr_scan", "ios": "https://dc.lft.to/lastmile_qr_scan"}, "name": "fd44c702bfeb7fd884ea5b6209438c1d", "type": "electric_scooter"}, {"fusion_lat": 0.0, "bike_id": "63751190937771f524428963bfec24c0", "fusion_lon": 0.0, "lon": -77.0176995, "lat": 38.8771905, "is_reserved": 0, "is_disabled": 0, "rental_uris": {"android": "https://dc.lft.to/lastmile_qr_scan", "ios": "https://dc.lft.to/lastmile_qr_scan"}, "name": "63751190937771f524428963bfec24c0", "type": "electric_scooter"}, {"fusion_lat": 0.0, "bike_id": "9249f5422174c22ab5bac2d7e940061c", "fusion_lon": 0.0, "lon": -77.0045045, "lat": 38.876553, "is_reserved": 0, "is_disabled": 0, "rental_uris": {"android": "https://dc.lft.to/lastmile_qr_scan", "ios": "https://dc.lft.to/lastmile_qr_scan"}, "name": "9249f5422174c22ab5bac2d7e940061c", "type": "electric_scooter"}, {"fusion_lat": 0.0, "bike_id": "53f678877a8475f058e604c27f7eb05e", "fusion_lon": 0.0, "lon": -77.027195, "lat": 38.91672766666667, "is_reserved": 0, "is_disabled": 0, "rental_uris": {"android": "https://dc.lft.to/lastmile_qr_scan", "ios": "https://dc.lft.to/lastmile_qr_scan"}, "name": "53f678877a8475f058e604c27f7eb05e", "type": "electric_scooter"}, {"fusion_lat": 0.0, "bike_id": "93efc2d38255170282792f49b5c219fd", "fusion_lon": 0.0, "lon": -77.02320733333333, "lat": 38.9278405, "is_reserved": 0, "is_disabled": 0, "rental_uris": {"android": "https://dc.lft.to/lastmile_qr_scan", "ios": "https://dc.lft.to/lastmile_qr_scan"}, "name": "93efc2d38255170282792f49b5c219fd", "type": "electric_scooter"}, {"fusion_lat": 0.0, "bike_id": "40dbc02d344432daeeb2f8f8ebce9b99", "fusion_lon": 0.0, "lon": -77.04163033333333, "lat": 38.90559433333333, "is_reserved": 0, "is_disabled": 0, "rental_uris": {"android": "https://dc.lft.to/lastmile_qr_scan", "ios": "https://dc.lft.to/lastmile_qr_scan"}, "name": "40dbc02d344432daeeb2f8f8ebce9b99", "type": "electric_scooter"}, {"fusion_lat": 0.0, "bike_id": "84159aaaa23e3f94365eac735735b12e", "fusion_lon": 0.0, "lon": -77.01787333333333, "lat": 38.88411933333333, "is_reserved": 0, "is_disabled": 0, "rental_uris": {"android": "https://dc.lft.to/lastmile_qr_scan", "ios": "https://dc.lft.to/lastmile_qr_scan"}, "name": "84159aaaa23e3f94365eac735735b12e", "type": "electric_scooter"}, {"fusion_lat": 0.0, "bike_id": "3d6dfe6406877e3bf117648757ed0776", "fusion_lon": 0.0, "lon": -77.03181916666666, "lat": 38.8922595, "is_reserved": 0, "is_disabled": 0, "rental_uris": {"android": "https://dc.lft.to/lastmile_qr_scan", "ios": "https://dc.lft.to/lastmile_qr_scan"}, "name": "3d6dfe6406877e3bf117648757ed0776", "type": "electric_scooter"}, {"fusion_lat": 0.0, "bike_id": "2f547f9190656a90f73d53ecb097221b", "fusion_lon": 0.0, "lon": -76.933772, "lat": 38.91030583333333, "is_reserved": 0, "is_disabled": 0, "rental_uris": {"android": "https://dc.lft.to/lastmile_qr_scan", "ios": "https://dc.lft.to/lastmile_qr_scan"}, "name": "2f547f9190656a90f73d53ecb097221b", "type": "electric_scooter"}, {"fusion_lat": 0.0, "bike_id": "a61db7d1cbcc5c81b9f64e7f25e0629e", "fusion_lon": 0.0, "lon": -77.0268265, "lat": 38.943271333333335, "is_reserved": 0, "is_disabled": 0, "rental_uris": {"android": "https://dc.lft.to/lastmile_qr_scan", "ios": "https://dc.lft.to/lastmile_qr_scan"}, "name": "a61db7d1cbcc5c81b9f64e7f25e0629e", "type": "electric_scooter"}, {"fusion_lat": 0.0, "bike_id": "ea385d61b9ae5950f9f8a4bb1b35864e", "fusion_lon": 0.0, "lon": -76.985009, "lat": 38.866697, "is_reserved": 0, "is_disabled": 0, "rental_uris": {"android": "https://dc.lft.to/lastmile_qr_scan", "ios": "https://dc.lft.to/lastmile_qr_scan"}, "name": "ea385d61b9ae5950f9f8a4bb1b35864e", "type": "electric_scooter"}, {"fusion_lat": 0.0, "bike_id": "bf17d2e7afb8a798549d028ecd279f2e", "fusion_lon": 0.0, "lon": -76.98947333333334, "lat": 38.90391566666667, "is_reserved": 0, "is_disabled": 0, "rental_uris": {"android": "https://dc.lft.to/lastmile_qr_scan", "ios": "https://dc.lft.to/lastmile_qr_scan"}, "name": "bf17d2e7afb8a798549d028ecd279f2e", "type": "electric_scooter"}, {"fusion_lat": 0.0, "bike_id": "95549c46a3823e237b38d9d8b29974d6", "fusion_lon": 0.0, "lon": -77.05808066666667, "lat": 38.8239205, "is_reserved": 0, "is_disabled": 0, "rental_uris": {"android": "https://dc.lft.to/lastmile_qr_scan", "ios": "https://dc.lft.to/lastmile_qr_scan"}, "name": "95549c46a3823e237b38d9d8b29974d6", "type": "electric_bike"}, {"fusion_lat": 0.0, "bike_id": "658cc9375bb40ad457a7ca1d7fd92c38", "fusion_lon": 0.0, "lon": -77.04485583333333, "lat": 38.907924666666666, "is_reserved": 0, "is_disabled": 0, "rental_uris": {"android": "https://dc.lft.to/lastmile_qr_scan", "ios": "https://dc.lft.to/lastmile_qr_scan"}, "name": "658cc9375bb40ad457a7ca1d7fd92c38", "type": "electric_scooter"}, {"fusion_lat": 0.0, "bike_id": "ad8e5cb00675511960292af98f3c531a", "fusion_lon": 0.0, "lon": -77.05473283333333, "lat": 38.92921483333333, "is_reserved": 0, "is_disabled": 0, "rental_uris": {"android": "https://dc.lft.to/lastmile_qr_scan", "ios": "https://dc.lft.to/lastmile_qr_scan"}, "name": "ad8e5cb00675511960292af98f3c531a", "type": "electric_scooter"}, {"fusion_lat": 0.0, "bike_id": "ba44220f4466abed38eca7462c93af26", "fusion_lon": 0.0, "lon": -76.94925983333333, "lat": 38.893505833333336, "is_reserved": 0, "is_disabled": 0, "rental_uris": {"android": "https://dc.lft.to/lastmile_qr_scan", "ios": "https://dc.lft.to/lastmile_qr_scan"}, "name": "ba44220f4466abed38eca7462c93af26", "type": "electric_scooter"}, {"fusion_lat": 0.0, "bike_id": "14ae5b2b69ebe815a4b33031d9095a8b", "fusion_lon": 0.0, "lon": -77.02600283333334, "lat": 38.892620666666666, "is_reserved": 0, "is_disabled": 0, "rental_uris": {"android": "https://dc.lft.to/lastmile_qr_scan", "ios": "https://dc.lft.to/lastmile_qr_scan"}, "name": "14ae5b2b69ebe815a4b33031d9095a8b", "type": "electric_scooter"}, {"fusion_lat": 0.0, "bike_id": "b84f36b226e1ccaa995a5be21d065d91", "fusion_lon": 0.0, "lon": -77.07432366666667, "lat": 38.999426166666666, "is_reserved": 0, "is_disabled": 0, "rental_uris": {"android": "https://dc.lft.to/lastmile_qr_scan", "ios": "https://dc.lft.to/lastmile_qr_scan"}, "name": "b84f36b226e1ccaa995a5be21d065d91", "type": "electric_bike"}, {"fusion_lat": 0.0, "bike_id": "7bdec51d8f47be96c668b01475f8ccef", "fusion_lon": 0.0, "lon": -76.98719683333333, "lat": 38.86622783333333, "is_reserved": 0, "is_disabled": 0, "rental_uris": {"android": "https://dc.lft.to/lastmile_qr_scan", "ios": "https://dc.lft.to/lastmile_qr_scan"}, "name": "7bdec51d8f47be96c668b01475f8ccef", "type": "electric_scooter"}, {"fusion_lat": 0.0, "bike_id": "9a8b024f0cad9a29208b2e9f4665239d", "fusion_lon": 0.0, "lon": -77.0365945, "lat": 38.923411333333334, "is_reserved": 0, "is_disabled": 0, "rental_uris": {"android": "https://dc.lft.to/lastmile_qr_scan", "ios": "https://dc.lft.to/lastmile_qr_scan"}, "name": "9a8b024f0cad9a29208b2e9f4665239d", "type": "electric_scooter"}, {"fusion_lat": 0.0, "bike_id": "1ed3c0611af5fb321a640d949f9dec71", "fusion_lon": 0.0, "lon": -77.05995733333333, "lat": 38.9051355, "is_reserved": 0, "is_disabled": 0, "rental_uris": {"android": "https://dc.lft.to/lastmile_qr_scan", "ios": "https://dc.lft.to/lastmile_qr_scan"}, "name": "1ed3c0611af5fb321a640d949f9dec71", "type": "electric_scooter"}, {"fusion_lat": 0.0, "bike_id": "8696542411a407d20da86d0b1e95d169", "fusion_lon": 0.0, "lon": -76.9849245, "lat": 38.878292, "is_reserved": 0, "is_disabled": 0, "rental_uris": {"android": "https://dc.lft.to/lastmile_qr_scan", "ios": "https://dc.lft.to/lastmile_qr_scan"}, "name": "8696542411a407d20da86d0b1e95d169", "type": "electric_scooter"}, {"fusion_lat": 0.0, "bike_id": "08160b4b3704ec3765459357016b21c9", "fusion_lon": 0.0, "lon": -76.985302, "lat": 38.866807, "is_reserved": 0, "is_disabled": 0, "rental_uris": {"android": "https://dc.lft.to/lastmile_qr_scan", "ios": "https://dc.lft.to/lastmile_qr_scan"}, "name": "08160b4b3704ec3765459357016b21c9", "type": "electric_scooter"}, {"fusion_lat": 0.0, "bike_id": "8e6181c937988f8dd8e5748683ff6167", "fusion_lon": 0.0, "lon": -77.0392375, "lat": 38.9183815, "is_reserved": 0, "is_disabled": 0, "rental_uris": {"android": "https://dc.lft.to/lastmile_qr_scan", "ios": "https://dc.lft.to/lastmile_qr_scan"}, "name": "8e6181c937988f8dd8e5748683ff6167", "type": "electric_scooter"}, {"fusion_lat": 0.0, "bike_id": "bb4f41ea50e450dca37d1c9f076df295", "fusion_lon": 0.0, "lon": -77.0225765, "lat": 38.92467166666667, "is_reserved": 0, "is_disabled": 0, "rental_uris": {"android": "https://dc.lft.to/lastmile_qr_scan", "ios": "https://dc.lft.to/lastmile_qr_scan"}, "name": "bb4f41ea50e450dca37d1c9f076df295", "type": "electric_scooter"}, {"fusion_lat": 0.0, "bike_id": "4703976d74e3ceb49d04e5c0f7d5c7fd", "fusion_lon": 0.0, "lon": -77.0450885, "lat": 38.89226766666667, "is_reserved": 0, "is_disabled": 0, "rental_uris": {"android": "https://dc.lft.to/lastmile_qr_scan", "ios": "https://dc.lft.to/lastmile_qr_scan"}, "name": "4703976d74e3ceb49d04e5c0f7d5c7fd", "type": "electric_scooter"}, {"fusion_lat": 0.0, "bike_id": "771a58fb3e93ce3efb2ecfef15a246fe", "fusion_lon": 0.0, "lon": -77.00597083333334, "lat": 38.871838833333335, "is_reserved": 0, "is_disabled": 0, "rental_uris": {"android": "https://dc.lft.to/lastmile_qr_scan", "ios": "https://dc.lft.to/lastmile_qr_scan"}, "name": "771a58fb3e93ce3efb2ecfef15a246fe", "type": "electric_scooter"}, {"fusion_lat": 0.0, "bike_id": "a2877c6ce35d29db56d19181fdbabd3b", "fusion_lon": 0.0, "lon": -77.0236015, "lat": 38.89218616666667, "is_reserved": 0, "is_disabled": 0, "rental_uris": {"android": "https://dc.lft.to/lastmile_qr_scan", "ios": "https://dc.lft.to/lastmile_qr_scan"}, "name": "a2877c6ce35d29db56d19181fdbabd3b", "type": "electric_scooter"}, {"fusion_lat": 0.0, "bike_id": "48a96a1d0e5d2e99271e2ff0f76abb52", "fusion_lon": 0.0, "lon": -76.9906015, "lat": 38.863722, "is_reserved": 0, "is_disabled": 0, "rental_uris": {"android": "https://dc.lft.to/lastmile_qr_scan", "ios": "https://dc.lft.to/lastmile_qr_scan"}, "name": "48a96a1d0e5d2e99271e2ff0f76abb52", "type": "electric_scooter"}, {"fusion_lat": 0.0, "bike_id": "8aa8e29adc20629c96e726bcf63e966a", "fusion_lon": 0.0, "lon": -77.0448915, "lat": 38.913568166666664, "is_reserved": 0, "is_disabled": 0, "rental_uris": {"android": "https://dc.lft.to/lastmile_qr_scan", "ios": "https://dc.lft.to/lastmile_qr_scan"}, "name": "8aa8e29adc20629c96e726bcf63e966a", "type": "electric_scooter"}, {"fusion_lat": 0.0, "bike_id": "a2d1bb8c16b550b37b3025d88193ef80", "fusion_lon": 0.0, "lon": -77.0217885, "lat": 38.887221833333335, "is_reserved": 0, "is_disabled": 0, "rental_uris": {"android": "https://dc.lft.to/lastmile_qr_scan", "ios": "https://dc.lft.to/lastmile_qr_scan"}, "name": "a2d1bb8c16b550b37b3025d88193ef80", "type": "electric_scooter"}, {"fusion_lat": 0.0, "bike_id": "e88d8cf96cf932e80dffb6df5beb69e1", "fusion_lon": 0.0, "lon": -77.03509966666667, "lat": 38.903600833333336, "is_reserved": 0, "is_disabled": 0, "rental_uris": {"android": "https://dc.lft.to/lastmile_qr_scan", "ios": "https://dc.lft.to/lastmile_qr_scan"}, "name": "e88d8cf96cf932e80dffb6df5beb69e1", "type": "electric_scooter"}, {"fusion_lat": 0.0, "bike_id": "c30e1b6206efca9ab18c59e2363a753d", "fusion_lon": 0.0, "lon": -77.017858, "lat": 38.9037295, "is_reserved": 0, "is_disabled": 0, "rental_uris": {"android": "https://dc.lft.to/lastmile_qr_scan", "ios": "https://dc.lft.to/lastmile_qr_scan"}, "name": "c30e1b6206efca9ab18c59e2363a753d", "type": "electric_scooter"}, {"fusion_lat": 0.0, "bike_id": "2a203c516c09d73b210b6fb1a22f458b", "fusion_lon": 0.0, "lon": -76.989821, "lat": 38.85915833333333, "is_reserved": 0, "is_disabled": 0, "rental_uris": {"android": "https://dc.lft.to/lastmile_qr_scan", "ios": "https://dc.lft.to/lastmile_qr_scan"}, "name": "2a203c516c09d73b210b6fb1a22f458b", "type": "electric_scooter"}, {"fusion_lat": 0.0, "bike_id": "45100776ff89f4d0a0d88c8536ac4e74", "fusion_lon": 0.0, "lon": -77.00364633333334, "lat": 38.90736866666667, "is_reserved": 0, "is_disabled": 0, "rental_uris": {"android": "https://dc.lft.to/lastmile_qr_scan", "ios": "https://dc.lft.to/lastmile_qr_scan"}, "name": "45100776ff89f4d0a0d88c8536ac4e74", "type": "electric_scooter"}, {"fusion_lat": 0.0, "bike_id": "cac70a69fbc1b4d90959050b5a16a583", "fusion_lon": 0.0, "lon": -77.03656616666666, "lat": 38.9313225, "is_reserved": 0, "is_disabled": 0, "rental_uris": {"android": "https://dc.lft.to/lastmile_qr_scan", "ios": "https://dc.lft.to/lastmile_qr_scan"}, "name": "cac70a69fbc1b4d90959050b5a16a583", "type": "electric_scooter"}, {"fusion_lat": 0.0, "bike_id": "47e320eb12a0d07e695f608bd9be367e", "fusion_lon": 0.0, "lon": -77.01738166666667, "lat": 38.8874435, "is_reserved": 0, "is_disabled": 0, "rental_uris": {"android": "https://dc.lft.to/lastmile_qr_scan", "ios": "https://dc.lft.to/lastmile_qr_scan"}, "name": "47e320eb12a0d07e695f608bd9be367e", "type": "electric_scooter"}, {"fusion_lat": 0.0, "bike_id": "819d3659a6ab258b223a68cfaccb974a", "fusion_lon": 0.0, "lon": -77.01499033333333, "lat": 38.926709833333334, "is_reserved": 0, "is_disabled": 0, "rental_uris": {"android": "https://dc.lft.to/lastmile_qr_scan", "ios": "https://dc.lft.to/lastmile_qr_scan"}, "name": "819d3659a6ab258b223a68cfaccb974a", "type": "electric_scooter"}, {"fusion_lat": 0.0, "bike_id": "d0f61d8e69208406ac76e5030f67f587", "fusion_lon": 0.0, "lon": -76.907443, "lat": 38.896118666666666, "is_reserved": 0, "is_disabled": 0, "rental_uris": {"android": "https://dc.lft.to/lastmile_qr_scan", "ios": "https://dc.lft.to/lastmile_qr_scan"}, "name": "d0f61d8e69208406ac76e5030f67f587", "type": "electric_bike"}, {"fusion_lat": 0.0, "bike_id": "e98fb873a2c38afd64a9d3d13381d5e2", "fusion_lon": 0.0, "lon": -76.994816, "lat": 38.886108166666666, "is_reserved": 0, "is_disabled": 0, "rental_uris": {"android": "https://dc.lft.to/lastmile_qr_scan", "ios": "https://dc.lft.to/lastmile_qr_scan"}, "name": "e98fb873a2c38afd64a9d3d13381d5e2", "type": "electric_scooter"}, {"fusion_lat": 0.0, "bike_id": "ac1c60e5ef08d20f4d84f02467987575", "fusion_lon": 0.0, "lon": -77.00749433333333, "lat": 38.905416833333334, "is_reserved": 0, "is_disabled": 0, "rental_uris": {"android": "https://dc.lft.to/lastmile_qr_scan", "ios": "https://dc.lft.to/lastmile_qr_scan"}, "name": "ac1c60e5ef08d20f4d84f02467987575", "type": "electric_scooter"}, {"fusion_lat": 0.0, "bike_id": "d86a9e479f92b5f09c41cf8539d860fb", "fusion_lon": 0.0, "lon": -76.98528433333334, "lat": 38.866842, "is_reserved": 0, "is_disabled": 0, "rental_uris": {"android": "https://dc.lft.to/lastmile_qr_scan", "ios": "https://dc.lft.to/lastmile_qr_scan"}, "name": "d86a9e479f92b5f09c41cf8539d860fb", "type": "electric_scooter"}, {"fusion_lat": 0.0, "bike_id": "053a0a2fe2d8e643a0195e5c0f47b686", "fusion_lon": 0.0, "lon": -77.02209383333333, "lat": 38.92473833333333, "is_reserved": 0, "is_disabled": 0, "rental_uris": {"android": "https://dc.lft.to/lastmile_qr_scan", "ios": "https://dc.lft.to/lastmile_qr_scan"}, "name": "053a0a2fe2d8e643a0195e5c0f47b686", "type": "electric_scooter"}, {"fusion_lat": 0.0, "bike_id": "1cc7e08f6039da4ff4fecefdf359d720", "fusion_lon": 0.0, "lon": -77.0599355, "lat": 38.80443783333333, "is_reserved": 0, "is_disabled": 0, "rental_uris": {"android": "https://dc.lft.to/lastmile_qr_scan", "ios": "https://dc.lft.to/lastmile_qr_scan"}, "name": "1cc7e08f6039da4ff4fecefdf359d720", "type": "electric_bike"}, {"fusion_lat": 0.0, "bike_id": "934092577cde095a0a497e7d54848d61", "fusion_lon": 0.0, "lon": -77.0467585, "lat": 38.89557666666666, "is_reserved": 0, "is_disabled": 0, "rental_uris": {"android": "https://dc.lft.to/lastmile_qr_scan", "ios": "https://dc.lft.to/lastmile_qr_scan"}, "name": "934092577cde095a0a497e7d54848d61", "type": "electric_scooter"}, {"fusion_lat": 0.0, "bike_id": "549f596801db95ac5e188f859af96bd9", "fusion_lon": 0.0, "lon": -76.93734283333333, "lat": 38.890155166666666, "is_reserved": 0, "is_disabled": 0, "rental_uris": {"android": "https://dc.lft.to/lastmile_qr_scan", "ios": "https://dc.lft.to/lastmile_qr_scan"}, "name": "549f596801db95ac5e188f859af96bd9", "type": "electric_scooter"}, {"fusion_lat": 0.0, "bike_id": "4406c1be78e5f44dfc0f0469c5d35e42", "fusion_lon": 0.0, "lon": -77.04673116666666, "lat": 38.892307833333334, "is_reserved": 0, "is_disabled": 0, "rental_uris": {"android": "https://dc.lft.to/lastmile_qr_scan", "ios": "https://dc.lft.to/lastmile_qr_scan"}, "name": "4406c1be78e5f44dfc0f0469c5d35e42", "type": "electric_scooter"}, {"fusion_lat": 0.0, "bike_id": "53ff9b957c30b4856a7573b183f240e4", "fusion_lon": 0.0, "lon": -77.1253005, "lat": 39.056329833333336, "is_reserved": 0, "is_disabled": 0, "rental_uris": {"android": "https://dc.lft.to/lastmile_qr_scan", "ios": "https://dc.lft.to/lastmile_qr_scan"}, "name": "53ff9b957c30b4856a7573b183f240e4", "type": "electric_bike"}, {"fusion_lat": 0.0, "bike_id": "d707ce7502509cc2f32cdcf31a63df9f", "fusion_lon": 0.0, "lon": -76.99024533333333, "lat": 38.882653166666664, "is_reserved": 0, "is_disabled": 0, "rental_uris": {"android": "https://dc.lft.to/lastmile_qr_scan", "ios": "https://dc.lft.to/lastmile_qr_scan"}, "name": "d707ce7502509cc2f32cdcf31a63df9f", "type": "electric_scooter"}, {"fusion_lat": 0.0, "bike_id": "2db8de14501d1dc7b127298331a49dc0", "fusion_lon": 0.0, "lon": -77.04380633333334, "lat": 38.8921605, "is_reserved": 0, "is_disabled": 0, "rental_uris": {"android": "https://dc.lft.to/lastmile_qr_scan", "ios": "https://dc.lft.to/lastmile_qr_scan"}, "name": "2db8de14501d1dc7b127298331a49dc0", "type": "electric_scooter"}, {"fusion_lat": 0.0, "bike_id": "2fdc50749bc3b09478347ec320f2570a", "fusion_lon": 0.0, "lon": -77.0248645, "lat": 38.916934499999996, "is_reserved": 0, "is_disabled": 0, "rental_uris": {"android": "https://dc.lft.to/lastmile_qr_scan", "ios": "https://dc.lft.to/lastmile_qr_scan"}, "name": "2fdc50749bc3b09478347ec320f2570a", "type": "electric_scooter"}, {"fusion_lat": 0.0, "bike_id": "a2a0b49640dfcb1efc7c005c4404392b", "fusion_lon": 0.0, "lon": -77.03229, "lat": 38.91404933333333, "is_reserved": 0, "is_disabled": 0, "rental_uris": {"android": "https://dc.lft.to/lastmile_qr_scan", "ios": "https://dc.lft.to/lastmile_qr_scan"}, "name": "a2a0b49640dfcb1efc7c005c4404392b", "type": "electric_scooter"}, {"fusion_lat": 0.0, "bike_id": "d763b5c754c008abefab08169d50e52a", "fusion_lon": 0.0, "lon": -77.0259965, "lat": 38.899152, "is_reserved": 0, "is_disabled": 0, "rental_uris": {"android": "https://dc.lft.to/lastmile_qr_scan", "ios": "https://dc.lft.to/lastmile_qr_scan"}, "name": "d763b5c754c008abefab08169d50e52a", "type": "electric_scooter"}, {"fusion_lat": 0.0, "bike_id": "824878e88b462b0061d19e4c8eb8a503", "fusion_lon": 0.0, "lon": -77.02845516666666, "lat": 38.93417766666666, "is_reserved": 0, "is_disabled": 0, "rental_uris": {"android": "https://dc.lft.to/lastmile_qr_scan", "ios": "https://dc.lft.to/lastmile_qr_scan"}, "name": "824878e88b462b0061d19e4c8eb8a503", "type": "electric_scooter"}, {"fusion_lat": 0.0, "bike_id": "96798e27caa820ed33e4fd070241b900", "fusion_lon": 0.0, "lon": -76.99935533333333, "lat": 38.843134166666665, "is_reserved": 0, "is_disabled": 0, "rental_uris": {"android": "https://dc.lft.to/lastmile_qr_scan", "ios": "https://dc.lft.to/lastmile_qr_scan"}, "name": "96798e27caa820ed33e4fd070241b900", "type": "electric_scooter"}, {"fusion_lat": 0.0, "bike_id": "f5b353d1a657f3ee45facbee2110f27d", "fusion_lon": 0.0, "lon": -77.03317933333334, "lat": 38.903203500000004, "is_reserved": 0, "is_disabled": 0, "rental_uris": {"android": "https://dc.lft.to/lastmile_qr_scan", "ios": "https://dc.lft.to/lastmile_qr_scan"}, "name": "f5b353d1a657f3ee45facbee2110f27d", "type": "electric_scooter"}, {"fusion_lat": 0.0, "bike_id": "ff1d454539a1afd81a73b40916cd5eb6", "fusion_lon": 0.0, "lon": -77.03488633333333, "lat": 38.90285433333333, "is_reserved": 0, "is_disabled": 0, "rental_uris": {"android": "https://dc.lft.to/lastmile_qr_scan", "ios": "https://dc.lft.to/lastmile_qr_scan"}, "name": "ff1d454539a1afd81a73b40916cd5eb6", "type": "electric_scooter"}, {"fusion_lat": 0.0, "bike_id": "1012cb34a081b6f94d947dbb28d46462", "fusion_lon": 0.0, "lon": -77.07454333333334, "lat": 38.945054166666665, "is_reserved": 0, "is_disabled": 0, "rental_uris": {"android": "https://dc.lft.to/lastmile_qr_scan", "ios": "https://dc.lft.to/lastmile_qr_scan"}, "name": "1012cb34a081b6f94d947dbb28d46462", "type": "electric_scooter"}, {"fusion_lat": 0.0, "bike_id": "28a9075936e6ca97543ef5c726257568", "fusion_lon": 0.0, "lon": -77.04337466666667, "lat": 38.89222216666667, "is_reserved": 0, "is_disabled": 0, "rental_uris": {"android": "https://dc.lft.to/lastmile_qr_scan", "ios": "https://dc.lft.to/lastmile_qr_scan"}, "name": "28a9075936e6ca97543ef5c726257568", "type": "electric_scooter"}, {"fusion_lat": 0.0, "bike_id": "8ccc040a5622d5fed6e6353aaac15ecb", "fusion_lon": 0.0, "lon": -77.03192466666667, "lat": 38.90373366666667, "is_reserved": 0, "is_disabled": 0, "rental_uris": {"android": "https://dc.lft.to/lastmile_qr_scan", "ios": "https://dc.lft.to/lastmile_qr_scan"}, "name": "8ccc040a5622d5fed6e6353aaac15ecb", "type": "electric_scooter"}, {"fusion_lat": 0.0, "bike_id": "d05f6d61c8bf4dcd9e4059c9ca967188", "fusion_lon": 0.0, "lon": -77.01880416666667, "lat": 38.937697, "is_reserved": 0, "is_disabled": 0, "rental_uris": {"android": "https://dc.lft.to/lastmile_qr_scan", "ios": "https://dc.lft.to/lastmile_qr_scan"}, "name": "d05f6d61c8bf4dcd9e4059c9ca967188", "type": "electric_bike"}, {"fusion_lat": 0.0, "bike_id": "cfd3dbbe4022e85e2e1a3debb3508b86", "fusion_lon": 0.0, "lon": -76.98524683333333, "lat": 38.86685266666667, "is_reserved": 0, "is_disabled": 0, "rental_uris": {"android": "https://dc.lft.to/lastmile_qr_scan", "ios": "https://dc.lft.to/lastmile_qr_scan"}, "name": "cfd3dbbe4022e85e2e1a3debb3508b86", "type": "electric_scooter"}, {"fusion_lat": 0.0, "bike_id": "55ad5d84b414a90ebdf2bf3437cc5d6a", "fusion_lon": 0.0, "lon": -77.03174783333333, "lat": 38.891975333333335, "is_reserved": 0, "is_disabled": 0, "rental_uris": {"android": "https://dc.lft.to/lastmile_qr_scan", "ios": "https://dc.lft.to/lastmile_qr_scan"}, "name": "55ad5d84b414a90ebdf2bf3437cc5d6a", "type": "electric_scooter"}, {"fusion_lat": 0.0, "bike_id": "cc0adb19cbf9e1bcff3729406917c3a1", "fusion_lon": 0.0, "lon": -77.022682, "lat": 38.93758066666667, "is_reserved": 0, "is_disabled": 0, "rental_uris": {"android": "https://dc.lft.to/lastmile_qr_scan", "ios": "https://dc.lft.to/lastmile_qr_scan"}, "name": "cc0adb19cbf9e1bcff3729406917c3a1", "type": "electric_scooter"}, {"fusion_lat": 0.0, "bike_id": "4347a482efe081346820a45e4d6cdc76", "fusion_lon": 0.0, "lon": -77.04614016666666, "lat": 38.915517666666666, "is_reserved": 0, "is_disabled": 0, "rental_uris": {"android": "https://dc.lft.to/lastmile_qr_scan", "ios": "https://dc.lft.to/lastmile_qr_scan"}, "name": "4347a482efe081346820a45e4d6cdc76", "type": "electric_scooter"}, {"fusion_lat": 0.0, "bike_id": "21b0ac38e24f6c8ba146d48c5d770176", "fusion_lon": 0.0, "lon": -77.0448855, "lat": 38.892262833333334, "is_reserved": 0, "is_disabled": 0, "rental_uris": {"android": "https://dc.lft.to/lastmile_qr_scan", "ios": "https://dc.lft.to/lastmile_qr_scan"}, "name": "21b0ac38e24f6c8ba146d48c5d770176", "type": "electric_scooter"}, {"fusion_lat": 0.0, "bike_id": "b56596dc5b9409a490edb587a70be11f", "fusion_lon": 0.0, "lon": -76.93061016666667, "lat": 38.88385433333333, "is_reserved": 0, "is_disabled": 0, "rental_uris": {"android": "https://dc.lft.to/lastmile_qr_scan", "ios": "https://dc.lft.to/lastmile_qr_scan"}, "name": "b56596dc5b9409a490edb587a70be11f", "type": "electric_scooter"}, {"fusion_lat": 0.0, "bike_id": "7f7347e9ac738df7ab7d62ded0114f64", "fusion_lon": 0.0, "lon": -77.00529816666666, "lat": 38.92976766666666, "is_reserved": 0, "is_disabled": 0, "rental_uris": {"android": "https://dc.lft.to/lastmile_qr_scan", "ios": "https://dc.lft.to/lastmile_qr_scan"}, "name": "7f7347e9ac738df7ab7d62ded0114f64", "type": "electric_scooter"}, {"fusion_lat": 0.0, "bike_id": "7095787b3f0e0dd0ab6b92400302476a", "fusion_lon": 0.0, "lon": -77.0204055, "lat": 38.908676666666665, "is_reserved": 0, "is_disabled": 0, "rental_uris": {"android": "https://dc.lft.to/lastmile_qr_scan", "ios": "https://dc.lft.to/lastmile_qr_scan"}, "name": "7095787b3f0e0dd0ab6b92400302476a", "type": "electric_scooter"}, {"fusion_lat": 0.0, "bike_id": "1d0c40f76ff784a63b6e947d68e673fa", "fusion_lon": 0.0, "lon": -77.05417016666667, "lat": 38.950441833333336, "is_reserved": 0, "is_disabled": 0, "rental_uris": {"android": "https://dc.lft.to/lastmile_qr_scan", "ios": "https://dc.lft.to/lastmile_qr_scan"}, "name": "1d0c40f76ff784a63b6e947d68e673fa", "type": "electric_scooter"}, {"fusion_lat": 0.0, "bike_id": "1f4a825f5e53dc61441ff6e60016010d", "fusion_lon": 0.0, "lon": -77.02659566666667, "lat": 38.91697716666667, "is_reserved": 0, "is_disabled": 0, "rental_uris": {"android": "https://dc.lft.to/lastmile_qr_scan", "ios": "https://dc.lft.to/lastmile_qr_scan"}, "name": "1f4a825f5e53dc61441ff6e60016010d", "type": "electric_scooter"}, {"fusion_lat": 0.0, "bike_id": "96b4836bf5248f8172a7999208ad486e", "fusion_lon": 0.0, "lon": -77.01281583333333, "lat": 38.915623333333336, "is_reserved": 0, "is_disabled": 0, "rental_uris": {"android": "https://dc.lft.to/lastmile_qr_scan", "ios": "https://dc.lft.to/lastmile_qr_scan"}, "name": "96b4836bf5248f8172a7999208ad486e", "type": "electric_scooter"}, {"fusion_lat": 0.0, "bike_id": "68aa9da744c40e3d8b1208a1e561a6c4", "fusion_lon": 0.0, "lon": -77.043462, "lat": 38.92173416666667, "is_reserved": 0, "is_disabled": 0, "rental_uris": {"android": "https://dc.lft.to/lastmile_qr_scan", "ios": "https://dc.lft.to/lastmile_qr_scan"}, "name": "68aa9da744c40e3d8b1208a1e561a6c4", "type": "electric_scooter"}, {"fusion_lat": 0.0, "bike_id": "d691bfcc5dd4abd0b29be231eb4a7e39", "fusion_lon": 0.0, "lon": -77.02663216666667, "lat": 38.921736, "is_reserved": 0, "is_disabled": 0, "rental_uris": {"android": "https://dc.lft.to/lastmile_qr_scan", "ios": "https://dc.lft.to/lastmile_qr_scan"}, "name": "d691bfcc5dd4abd0b29be231eb4a7e39", "type": "electric_scooter"}, {"fusion_lat": 0.0, "bike_id": "0ca652fcde7d02ea0f750f44a94227c9", "fusion_lon": 0.0, "lon": -77.04312566666667, "lat": 38.922196666666665, "is_reserved": 0, "is_disabled": 0, "rental_uris": {"android": "https://dc.lft.to/lastmile_qr_scan", "ios": "https://dc.lft.to/lastmile_qr_scan"}, "name": "0ca652fcde7d02ea0f750f44a94227c9", "type": "electric_scooter"}, {"fusion_lat": 0.0, "bike_id": "f577c7808457e60b0cbf1373d3d03a29", "fusion_lon": 0.0, "lon": -77.02776716666666, "lat": 38.89219083333333, "is_reserved": 0, "is_disabled": 0, "rental_uris": {"android": "https://dc.lft.to/lastmile_qr_scan", "ios": "https://dc.lft.to/lastmile_qr_scan"}, "name": "f577c7808457e60b0cbf1373d3d03a29", "type": "electric_scooter"}, {"fusion_lat": 0.0, "bike_id": "9578d32bcba240f363acd1f30c6996d0", "fusion_lon": 0.0, "lon": -76.9823295, "lat": 38.886420333333334, "is_reserved": 0, "is_disabled": 0, "rental_uris": {"android": "https://dc.lft.to/lastmile_qr_scan", "ios": "https://dc.lft.to/lastmile_qr_scan"}, "name": "9578d32bcba240f363acd1f30c6996d0", "type": "electric_scooter"}, {"fusion_lat": 0.0, "bike_id": "67fbb7f14ac2b4e07ba36daf4f1ea7f7", "fusion_lon": 0.0, "lon": -77.0320795, "lat": 38.91636716666667, "is_reserved": 0, "is_disabled": 0, "rental_uris": {"android": "https://dc.lft.to/lastmile_qr_scan", "ios": "https://dc.lft.to/lastmile_qr_scan"}, "name": "67fbb7f14ac2b4e07ba36daf4f1ea7f7", "type": "electric_scooter"}, {"fusion_lat": 0.0, "bike_id": "de2eba4b0f92cd0bb642f476137534cb", "fusion_lon": 0.0, "lon": -76.98579833333334, "lat": 38.908076, "is_reserved": 0, "is_disabled": 0, "rental_uris": {"android": "https://dc.lft.to/lastmile_qr_scan", "ios": "https://dc.lft.to/lastmile_qr_scan"}, "name": "de2eba4b0f92cd0bb642f476137534cb", "type": "electric_scooter"}, {"fusion_lat": 0.0, "bike_id": "347e87c2c92c081331a725a786700227", "fusion_lon": 0.0, "lon": -77.0240175, "lat": 38.89184983333333, "is_reserved": 0, "is_disabled": 0, "rental_uris": {"android": "https://dc.lft.to/lastmile_qr_scan", "ios": "https://dc.lft.to/lastmile_qr_scan"}, "name": "347e87c2c92c081331a725a786700227", "type": "electric_scooter"}, {"fusion_lat": 0.0, "bike_id": "2fffcdba7c0aa01cbfa2d87bd37d28ea", "fusion_lon": 0.0, "lon": -77.0342145, "lat": 38.919229333333334, "is_reserved": 0, "is_disabled": 0, "rental_uris": {"android": "https://dc.lft.to/lastmile_qr_scan", "ios": "https://dc.lft.to/lastmile_qr_scan"}, "name": "2fffcdba7c0aa01cbfa2d87bd37d28ea", "type": "electric_scooter"}, {"fusion_lat": 0.0, "bike_id": "0cffb9dd0cdd73685a2cbe5397e0ff04", "fusion_lon": 0.0, "lon": -77.0169925, "lat": 38.920542166666664, "is_reserved": 0, "is_disabled": 0, "rental_uris": {"android": "https://dc.lft.to/lastmile_qr_scan", "ios": "https://dc.lft.to/lastmile_qr_scan"}, "name": "0cffb9dd0cdd73685a2cbe5397e0ff04", "type": "electric_scooter"}, {"fusion_lat": 0.0, "bike_id": "520b754a6a36ed9b62b1a589de665fad", "fusion_lon": 0.0, "lon": -77.06378233333334, "lat": 38.90524533333333, "is_reserved": 0, "is_disabled": 0, "rental_uris": {"android": "https://dc.lft.to/lastmile_qr_scan", "ios": "https://dc.lft.to/lastmile_qr_scan"}, "name": "520b754a6a36ed9b62b1a589de665fad", "type": "electric_scooter"}, {"fusion_lat": 0.0, "bike_id": "5c9a5afc509eeb2cefcd1a61e2a3ce0e", "fusion_lon": 0.0, "lon": -76.93302883333334, "lat": 38.89193216666666, "is_reserved": 0, "is_disabled": 0, "rental_uris": {"android": "https://dc.lft.to/lastmile_qr_scan", "ios": "https://dc.lft.to/lastmile_qr_scan"}, "name": "5c9a5afc509eeb2cefcd1a61e2a3ce0e", "type": "electric_scooter"}, {"fusion_lat": 0.0, "bike_id": "083848b61f67a7a6b1c87303988efed7", "fusion_lon": 0.0, "lon": -77.05164166666667, "lat": 39.0430565, "is_reserved": 0, "is_disabled": 0, "rental_uris": {"android": "https://dc.lft.to/lastmile_qr_scan", "ios": "https://dc.lft.to/lastmile_qr_scan"}, "name": "083848b61f67a7a6b1c87303988efed7", "type": "electric_bike"}, {"fusion_lat": 0.0, "bike_id": "10d825bebb687b92fa1d4f6f49478ef6", "fusion_lon": 0.0, "lon": -77.043364, "lat": 38.922196166666666, "is_reserved": 0, "is_disabled": 0, "rental_uris": {"android": "https://dc.lft.to/lastmile_qr_scan", "ios": "https://dc.lft.to/lastmile_qr_scan"}, "name": "10d825bebb687b92fa1d4f6f49478ef6", "type": "electric_scooter"}, {"fusion_lat": 0.0, "bike_id": "8d7ce02327b9992ded0ad8ac3dfbe249", "fusion_lon": 0.0, "lon": -77.00063416666667, "lat": 38.89493983333333, "is_reserved": 0, "is_disabled": 0, "rental_uris": {"android": "https://dc.lft.to/lastmile_qr_scan", "ios": "https://dc.lft.to/lastmile_qr_scan"}, "name": "8d7ce02327b9992ded0ad8ac3dfbe249", "type": "electric_scooter"}, {"fusion_lat": 0.0, "bike_id": "94d5100616e5bbd7070904c9952627cc", "fusion_lon": 0.0, "lon": -77.0149535, "lat": 38.89220433333333, "is_reserved": 0, "is_disabled": 0, "rental_uris": {"android": "https://dc.lft.to/lastmile_qr_scan", "ios": "https://dc.lft.to/lastmile_qr_scan"}, "name": "94d5100616e5bbd7070904c9952627cc", "type": "electric_scooter"}, {"fusion_lat": 0.0, "bike_id": "c0c20ddb74ea9713720b30d3063ca772", "fusion_lon": 0.0, "lon": -77.04534366666667, "lat": 38.89200483333333, "is_reserved": 0, "is_disabled": 0, "rental_uris": {"android": "https://dc.lft.to/lastmile_qr_scan", "ios": "https://dc.lft.to/lastmile_qr_scan"}, "name": "c0c20ddb74ea9713720b30d3063ca772", "type": "electric_scooter"}, {"fusion_lat": 0.0, "bike_id": "bd60f47ccd38c9d7ab065e0c958eb81d", "fusion_lon": 0.0, "lon": -76.93753133333334, "lat": 38.890329333333334, "is_reserved": 0, "is_disabled": 0, "rental_uris": {"android": "https://dc.lft.to/lastmile_qr_scan", "ios": "https://dc.lft.to/lastmile_qr_scan"}, "name": "bd60f47ccd38c9d7ab065e0c958eb81d", "type": "electric_scooter"}, {"fusion_lat": 0.0, "bike_id": "02a3a298f85ad655549f6faac5f4e090", "fusion_lon": 0.0, "lon": -76.982166, "lat": 38.866524166666665, "is_reserved": 0, "is_disabled": 0, "rental_uris": {"android": "https://dc.lft.to/lastmile_qr_scan", "ios": "https://dc.lft.to/lastmile_qr_scan"}, "name": "02a3a298f85ad655549f6faac5f4e090", "type": "electric_scooter"}, {"fusion_lat": 0.0, "bike_id": "5c149ca19442536963fe503f87252e59", "fusion_lon": 0.0, "lon": -77.04037016666666, "lat": 38.918557, "is_reserved": 0, "is_disabled": 0, "rental_uris": {"android": "https://dc.lft.to/lastmile_qr_scan", "ios": "https://dc.lft.to/lastmile_qr_scan"}, "name": "5c149ca19442536963fe503f87252e59", "type": "electric_scooter"}, {"fusion_lat": 0.0, "bike_id": "4ac5d0b7b40ac5254ca9ec6684811e89", "fusion_lon": 0.0, "lon": -77.04357766666666, "lat": 38.901310333333335, "is_reserved": 0, "is_disabled": 0, "rental_uris": {"android": "https://dc.lft.to/lastmile_qr_scan", "ios": "https://dc.lft.to/lastmile_qr_scan"}, "name": "4ac5d0b7b40ac5254ca9ec6684811e89", "type": "electric_scooter"}, {"fusion_lat": 0.0, "bike_id": "d62a177077b839b31ef03b86766ab38d", "fusion_lon": 0.0, "lon": -77.02586216666667, "lat": 38.92031933333333, "is_reserved": 0, "is_disabled": 0, "rental_uris": {"android": "https://dc.lft.to/lastmile_qr_scan", "ios": "https://dc.lft.to/lastmile_qr_scan"}, "name": "d62a177077b839b31ef03b86766ab38d", "type": "electric_scooter"}, {"fusion_lat": 0.0, "bike_id": "5bd04a1c58912a3a87a0231768ac5974", "fusion_lon": 0.0, "lon": -77.104954, "lat": 38.856046166666665, "is_reserved": 0, "is_disabled": 0, "rental_uris": {"android": "https://dc.lft.to/lastmile_qr_scan", "ios": "https://dc.lft.to/lastmile_qr_scan"}, "name": "5bd04a1c58912a3a87a0231768ac5974", "type": "electric_bike"}, {"fusion_lat": 0.0, "bike_id": "f300d301599cd9dc31b9c7fc68c85838", "fusion_lon": 0.0, "lon": -77.05699866666667, "lat": 38.93714266666667, "is_reserved": 0, "is_disabled": 0, "rental_uris": {"android": "https://dc.lft.to/lastmile_qr_scan", "ios": "https://dc.lft.to/lastmile_qr_scan"}, "name": "f300d301599cd9dc31b9c7fc68c85838", "type": "electric_scooter"}, {"fusion_lat": 0.0, "bike_id": "675cdb8aa6e1becd6f624f5ebdb11409", "fusion_lon": 0.0, "lon": -77.04172083333333, "lat": 38.9198805, "is_reserved": 0, "is_disabled": 0, "rental_uris": {"android": "https://dc.lft.to/lastmile_qr_scan", "ios": "https://dc.lft.to/lastmile_qr_scan"}, "name": "675cdb8aa6e1becd6f624f5ebdb11409", "type": "electric_scooter"}, {"fusion_lat": 0.0, "bike_id": "3f229b9d3305fc7894801cf66b4d2ee5", "fusion_lon": 0.0, "lon": -77.04264883333333, "lat": 38.92237633333333, "is_reserved": 0, "is_disabled": 0, "rental_uris": {"android": "https://dc.lft.to/lastmile_qr_scan", "ios": "https://dc.lft.to/lastmile_qr_scan"}, "name": "3f229b9d3305fc7894801cf66b4d2ee5", "type": "electric_scooter"}, {"fusion_lat": 0.0, "bike_id": "97432257f7a30b91e94d8eb7ba632edf", "fusion_lon": 0.0, "lon": -76.9753455, "lat": 38.90326316666667, "is_reserved": 0, "is_disabled": 0, "rental_uris": {"android": "https://dc.lft.to/lastmile_qr_scan", "ios": "https://dc.lft.to/lastmile_qr_scan"}, "name": "97432257f7a30b91e94d8eb7ba632edf", "type": "electric_bike"}, {"fusion_lat": 0.0, "bike_id": "713deff58bbd3b2310a75cd874885cf7", "fusion_lon": 0.0, "lon": -77.11783816666667, "lat": 39.054892, "is_reserved": 0, "is_disabled": 0, "rental_uris": {"android": "https://dc.lft.to/lastmile_qr_scan", "ios": "https://dc.lft.to/lastmile_qr_scan"}, "name": "713deff58bbd3b2310a75cd874885cf7", "type": "electric_bike"}, {"fusion_lat": 0.0, "bike_id": "c8db7cc1147a0e05dac64bb0cfd81355", "fusion_lon": 0.0, "lon": -77.0702765, "lat": 38.91869366666667, "is_reserved": 0, "is_disabled": 0, "rental_uris": {"android": "https://dc.lft.to/lastmile_qr_scan", "ios": "https://dc.lft.to/lastmile_qr_scan"}, "name": "c8db7cc1147a0e05dac64bb0cfd81355", "type": "electric_scooter"}, {"fusion_lat": 0.0, "bike_id": "fb23a3a53f5d1a99777d8d10006f9c77", "fusion_lon": 0.0, "lon": -77.01677616666667, "lat": 38.87716733333333, "is_reserved": 0, "is_disabled": 0, "rental_uris": {"android": "https://dc.lft.to/lastmile_qr_scan", "ios": "https://dc.lft.to/lastmile_qr_scan"}, "name": "fb23a3a53f5d1a99777d8d10006f9c77", "type": "electric_scooter"}, {"fusion_lat": 0.0, "bike_id": "bc878f752e1e446b67163125cd4b14be", "fusion_lon": 0.0, "lon": -77.0183025, "lat": 38.92244383333333, "is_reserved": 0, "is_disabled": 0, "rental_uris": {"android": "https://dc.lft.to/lastmile_qr_scan", "ios": "https://dc.lft.to/lastmile_qr_scan"}, "name": "bc878f752e1e446b67163125cd4b14be", "type": "electric_scooter"}, {"fusion_lat": 0.0, "bike_id": "605456bda490c6b474b3e03092f917db", "fusion_lon": 0.0, "lon": -77.02861666666666, "lat": 38.895468, "is_reserved": 0, "is_disabled": 0, "rental_uris": {"android": "https://dc.lft.to/lastmile_qr_scan", "ios": "https://dc.lft.to/lastmile_qr_scan"}, "name": "605456bda490c6b474b3e03092f917db", "type": "electric_scooter"}, {"fusion_lat": 0.0, "bike_id": "736df983bf650afeafb021db25e7c435", "fusion_lon": 0.0, "lon": -77.03267883333334, "lat": 38.94155966666667, "is_reserved": 0, "is_disabled": 0, "rental_uris": {"android": "https://dc.lft.to/lastmile_qr_scan", "ios": "https://dc.lft.to/lastmile_qr_scan"}, "name": "736df983bf650afeafb021db25e7c435", "type": "electric_scooter"}, {"fusion_lat": 0.0, "bike_id": "3c70ff688a5debdea56697022661970e", "fusion_lon": 0.0, "lon": -77.0248995, "lat": 38.91692583333333, "is_reserved": 0, "is_disabled": 0, "rental_uris": {"android": "https://dc.lft.to/lastmile_qr_scan", "ios": "https://dc.lft.to/lastmile_qr_scan"}, "name": "3c70ff688a5debdea56697022661970e", "type": "electric_scooter"}, {"fusion_lat": 0.0, "bike_id": "9303be44fc72ce0771226f3fed00674d", "fusion_lon": 0.0, "lon": -77.03822583333333, "lat": 38.915585, "is_reserved": 0, "is_disabled": 0, "rental_uris": {"android": "https://dc.lft.to/lastmile_qr_scan", "ios": "https://dc.lft.to/lastmile_qr_scan"}, "name": "9303be44fc72ce0771226f3fed00674d", "type": "electric_bike"}, {"fusion_lat": 0.0, "bike_id": "0227513dbc805c265366ac232297da3e", "fusion_lon": 0.0, "lon": -76.93728, "lat": 38.890177, "is_reserved": 0, "is_disabled": 0, "rental_uris": {"android": "https://dc.lft.to/lastmile_qr_scan", "ios": "https://dc.lft.to/lastmile_qr_scan"}, "name": "0227513dbc805c265366ac232297da3e", "type": "electric_scooter"}, {"fusion_lat": 0.0, "bike_id": "0e804250f3de03487f51f8f23c5b8736", "fusion_lon": 0.0, "lon": -77.00215783333333, "lat": 38.900397166666664, "is_reserved": 0, "is_disabled": 0, "rental_uris": {"android": "https://dc.lft.to/lastmile_qr_scan", "ios": "https://dc.lft.to/lastmile_qr_scan"}, "name": "0e804250f3de03487f51f8f23c5b8736", "type": "electric_scooter"}, {"fusion_lat": 0.0, "bike_id": "612c298b4f8c269ff95e8b432c65d10c", "fusion_lon": 0.0, "lon": -77.04174266666666, "lat": 38.9055245, "is_reserved": 0, "is_disabled": 0, "rental_uris": {"android": "https://dc.lft.to/lastmile_qr_scan", "ios": "https://dc.lft.to/lastmile_qr_scan"}, "name": "612c298b4f8c269ff95e8b432c65d10c", "type": "electric_scooter"}, {"fusion_lat": 0.0, "bike_id": "c7865962a445fe04631150ef08fbee95", "fusion_lon": 0.0, "lon": -76.9871125, "lat": 38.86698116666667, "is_reserved": 0, "is_disabled": 0, "rental_uris": {"android": "https://dc.lft.to/lastmile_qr_scan", "ios": "https://dc.lft.to/lastmile_qr_scan"}, "name": "c7865962a445fe04631150ef08fbee95", "type": "electric_scooter"}, {"fusion_lat": 0.0, "bike_id": "212ad6e0e40a078ed76ff7044c6d9cad", "fusion_lon": 0.0, "lon": -77.02552683333333, "lat": 38.91633483333333, "is_reserved": 0, "is_disabled": 0, "rental_uris": {"android": "https://dc.lft.to/lastmile_qr_scan", "ios": "https://dc.lft.to/lastmile_qr_scan"}, "name": "212ad6e0e40a078ed76ff7044c6d9cad", "type": "electric_scooter"}, {"fusion_lat": 0.0, "bike_id": "677aa8313109a70d4f2596dd8206ceb7", "fusion_lon": 0.0, "lon": -77.0352455, "lat": 38.927289, "is_reserved": 0, "is_disabled": 0, "rental_uris": {"android": "https://dc.lft.to/lastmile_qr_scan", "ios": "https://dc.lft.to/lastmile_qr_scan"}, "name": "677aa8313109a70d4f2596dd8206ceb7", "type": "electric_scooter"}, {"fusion_lat": 0.0, "bike_id": "4676abe888b62b96810f0218d9922c07", "fusion_lon": 0.0, "lon": -77.03052216666667, "lat": 38.88750666666667, "is_reserved": 0, "is_disabled": 0, "rental_uris": {"android": "https://dc.lft.to/lastmile_qr_scan", "ios": "https://dc.lft.to/lastmile_qr_scan"}, "name": "4676abe888b62b96810f0218d9922c07", "type": "electric_scooter"}, {"fusion_lat": 0.0, "bike_id": "6d0c3852c42550b9fdafcf2afca83a48", "fusion_lon": 0.0, "lon": -77.030212, "lat": 38.903870166666664, "is_reserved": 0, "is_disabled": 0, "rental_uris": {"android": "https://dc.lft.to/lastmile_qr_scan", "ios": "https://dc.lft.to/lastmile_qr_scan"}, "name": "6d0c3852c42550b9fdafcf2afca83a48", "type": "electric_scooter"}, {"fusion_lat": 0.0, "bike_id": "722e950606ff211ebf65c24bfab1bac3", "fusion_lon": 0.0, "lon": -76.97916516666666, "lat": 38.863545, "is_reserved": 0, "is_disabled": 0, "rental_uris": {"android": "https://dc.lft.to/lastmile_qr_scan", "ios": "https://dc.lft.to/lastmile_qr_scan"}, "name": "722e950606ff211ebf65c24bfab1bac3", "type": "electric_scooter"}, {"fusion_lat": 0.0, "bike_id": "5a396bbb66418fb7e27fc119a4714dc0", "fusion_lon": 0.0, "lon": -76.98883466666666, "lat": 38.866601333333335, "is_reserved": 0, "is_disabled": 0, "rental_uris": {"android": "https://dc.lft.to/lastmile_qr_scan", "ios": "https://dc.lft.to/lastmile_qr_scan"}, "name": "5a396bbb66418fb7e27fc119a4714dc0", "type": "electric_scooter"}, {"fusion_lat": 0.0, "bike_id": "3ca0c7cd7002f0e5b7f580fdb59fe233", "fusion_lon": 0.0, "lon": -77.04336866666667, "lat": 38.9105275, "is_reserved": 0, "is_disabled": 0, "rental_uris": {"android": "https://dc.lft.to/lastmile_qr_scan", "ios": "https://dc.lft.to/lastmile_qr_scan"}, "name": "3ca0c7cd7002f0e5b7f580fdb59fe233", "type": "electric_scooter"}, {"fusion_lat": 0.0, "bike_id": "bf822fd127041b91359f1ca5bba9c323", "fusion_lon": 0.0, "lon": -77.052179, "lat": 38.9242705, "is_reserved": 0, "is_disabled": 0, "rental_uris": {"android": "https://dc.lft.to/lastmile_qr_scan", "ios": "https://dc.lft.to/lastmile_qr_scan"}, "name": "bf822fd127041b91359f1ca5bba9c323", "type": "electric_scooter"}, {"fusion_lat": 0.0, "bike_id": "9444c2dcf8dc4e79c32d15dd3a79a17c", "fusion_lon": 0.0, "lon": -77.03866666666667, "lat": 38.90278266666667, "is_reserved": 0, "is_disabled": 0, "rental_uris": {"android": "https://dc.lft.to/lastmile_qr_scan", "ios": "https://dc.lft.to/lastmile_qr_scan"}, "name": "9444c2dcf8dc4e79c32d15dd3a79a17c", "type": "electric_scooter"}, {"fusion_lat": 0.0, "bike_id": "a5e01c5bc89d39892b3c214868b568d1", "fusion_lon": 0.0, "lon": -77.02632833333334, "lat": 38.96218433333333, "is_reserved": 0, "is_disabled": 0, "rental_uris": {"android": "https://dc.lft.to/lastmile_qr_scan", "ios": "https://dc.lft.to/lastmile_qr_scan"}, "name": "a5e01c5bc89d39892b3c214868b568d1", "type": "electric_bike"}, {"fusion_lat": 0.0, "bike_id": "42ce9d36417383ad4609612d3e71ff47", "fusion_lon": 0.0, "lon": -77.04404616666666, "lat": 38.90235783333333, "is_reserved": 0, "is_disabled": 0, "rental_uris": {"android": "https://dc.lft.to/lastmile_qr_scan", "ios": "https://dc.lft.to/lastmile_qr_scan"}, "name": "42ce9d36417383ad4609612d3e71ff47", "type": "electric_scooter"}, {"fusion_lat": 0.0, "bike_id": "52633841bf67f20e08b676e69feaae52", "fusion_lon": 0.0, "lon": -76.99483, "lat": 38.88609533333333, "is_reserved": 0, "is_disabled": 0, "rental_uris": {"android": "https://dc.lft.to/lastmile_qr_scan", "ios": "https://dc.lft.to/lastmile_qr_scan"}, "name": "52633841bf67f20e08b676e69feaae52", "type": "electric_scooter"}, {"fusion_lat": 0.0, "bike_id": "196fd3f5292140bc49d076ed021139d9", "fusion_lon": 0.0, "lon": -76.98287666666667, "lat": 38.916366, "is_reserved": 0, "is_disabled": 0, "rental_uris": {"android": "https://dc.lft.to/lastmile_qr_scan", "ios": "https://dc.lft.to/lastmile_qr_scan"}, "name": "196fd3f5292140bc49d076ed021139d9", "type": "electric_scooter"}, {"fusion_lat": 0.0, "bike_id": "ee142a808e8332918eb1c5dac02479e2", "fusion_lon": 0.0, "lon": -77.02534866666667, "lat": 38.927432333333336, "is_reserved": 0, "is_disabled": 0, "rental_uris": {"android": "https://dc.lft.to/lastmile_qr_scan", "ios": "https://dc.lft.to/lastmile_qr_scan"}, "name": "ee142a808e8332918eb1c5dac02479e2", "type": "electric_scooter"}, {"fusion_lat": 0.0, "bike_id": "bc021244cbf8f52904cdf1b79d095730", "fusion_lon": 0.0, "lon": -76.9859675, "lat": 38.866826833333334, "is_reserved": 0, "is_disabled": 0, "rental_uris": {"android": "https://dc.lft.to/lastmile_qr_scan", "ios": "https://dc.lft.to/lastmile_qr_scan"}, "name": "bc021244cbf8f52904cdf1b79d095730", "type": "electric_scooter"}, {"fusion_lat": 0.0, "bike_id": "c195111ea536b1f40eaaec18afd0b939", "fusion_lon": 0.0, "lon": -77.02706316666666, "lat": 38.9278255, "is_reserved": 0, "is_disabled": 0, "rental_uris": {"android": "https://dc.lft.to/lastmile_qr_scan", "ios": "https://dc.lft.to/lastmile_qr_scan"}, "name": "c195111ea536b1f40eaaec18afd0b939", "type": "electric_scooter"}, {"fusion_lat": 0.0, "bike_id": "465855610a9a06250b5c0e9fd1b13184", "fusion_lon": 0.0, "lon": -77.00135433333334, "lat": 38.89470683333333, "is_reserved": 0, "is_disabled": 0, "rental_uris": {"android": "https://dc.lft.to/lastmile_qr_scan", "ios": "https://dc.lft.to/lastmile_qr_scan"}, "name": "465855610a9a06250b5c0e9fd1b13184", "type": "electric_scooter"}, {"fusion_lat": 0.0, "bike_id": "eaa3f2fe3fab7f7c73dab643e9f77216", "fusion_lon": 0.0, "lon": -77.045094, "lat": 38.903733833333334, "is_reserved": 0, "is_disabled": 0, "rental_uris": {"android": "https://dc.lft.to/lastmile_qr_scan", "ios": "https://dc.lft.to/lastmile_qr_scan"}, "name": "eaa3f2fe3fab7f7c73dab643e9f77216", "type": "electric_scooter"}, {"fusion_lat": 0.0, "bike_id": "fdae2e39dbf8f764557cf59a46ac4da0", "fusion_lon": 0.0, "lon": -77.0263675, "lat": 38.88134216666667, "is_reserved": 0, "is_disabled": 0, "rental_uris": {"android": "https://dc.lft.to/lastmile_qr_scan", "ios": "https://dc.lft.to/lastmile_qr_scan"}, "name": "fdae2e39dbf8f764557cf59a46ac4da0", "type": "electric_scooter"}, {"fusion_lat": 0.0, "bike_id": "0d7bc9b886ac8ea5b951cff9a73ca0b8", "fusion_lon": 0.0, "lon": -77.0419595, "lat": 38.9206025, "is_reserved": 0, "is_disabled": 0, "rental_uris": {"android": "https://dc.lft.to/lastmile_qr_scan", "ios": "https://dc.lft.to/lastmile_qr_scan"}, "name": "0d7bc9b886ac8ea5b951cff9a73ca0b8", "type": "electric_scooter"}, {"fusion_lat": 0.0, "bike_id": "d77397022337772f57153322967bf8d6", "fusion_lon": 0.0, "lon": -77.043421, "lat": 38.90882466666667, "is_reserved": 0, "is_disabled": 0, "rental_uris": {"android": "https://dc.lft.to/lastmile_qr_scan", "ios": "https://dc.lft.to/lastmile_qr_scan"}, "name": "d77397022337772f57153322967bf8d6", "type": "electric_scooter"}, {"fusion_lat": 0.0, "bike_id": "a06177656a9e100378e46982f2efd6a0", "fusion_lon": 0.0, "lon": -77.06272733333333, "lat": 38.942929, "is_reserved": 0, "is_disabled": 0, "rental_uris": {"android": "https://dc.lft.to/lastmile_qr_scan", "ios": "https://dc.lft.to/lastmile_qr_scan"}, "name": "a06177656a9e100378e46982f2efd6a0", "type": "electric_scooter"}, {"fusion_lat": 0.0, "bike_id": "294b8bc563091cc02f233d62f1fdcf21", "fusion_lon": 0.0, "lon": -76.93750183333333, "lat": 38.89008416666667, "is_reserved": 0, "is_disabled": 0, "rental_uris": {"android": "https://dc.lft.to/lastmile_qr_scan", "ios": "https://dc.lft.to/lastmile_qr_scan"}, "name": "294b8bc563091cc02f233d62f1fdcf21", "type": "electric_scooter"}, {"fusion_lat": 0.0, "bike_id": "0e1a48958802263343fca60747ba3d3b", "fusion_lon": 0.0, "lon": -77.04535566666667, "lat": 38.90232866666667, "is_reserved": 0, "is_disabled": 0, "rental_uris": {"android": "https://dc.lft.to/lastmile_qr_scan", "ios": "https://dc.lft.to/lastmile_qr_scan"}, "name": "0e1a48958802263343fca60747ba3d3b", "type": "electric_scooter"}, {"fusion_lat": 0.0, "bike_id": "f063dd5093559a8a4a403d6a9d987986", "fusion_lon": 0.0, "lon": -76.92723066666667, "lat": 38.88055716666667, "is_reserved": 0, "is_disabled": 0, "rental_uris": {"android": "https://dc.lft.to/lastmile_qr_scan", "ios": "https://dc.lft.to/lastmile_qr_scan"}, "name": "f063dd5093559a8a4a403d6a9d987986", "type": "electric_scooter"}, {"fusion_lat": 0.0, "bike_id": "7baf64f9cb03bb362cb35972c3a6159f", "fusion_lon": 0.0, "lon": -76.99919266666667, "lat": 38.9076645, "is_reserved": 0, "is_disabled": 0, "rental_uris": {"android": "https://dc.lft.to/lastmile_qr_scan", "ios": "https://dc.lft.to/lastmile_qr_scan"}, "name": "7baf64f9cb03bb362cb35972c3a6159f", "type": "electric_scooter"}, {"fusion_lat": 0.0, "bike_id": "7c4dd00110c88d1afe435d93884b44a7", "fusion_lon": 0.0, "lon": -77.03965783333334, "lat": 38.909639, "is_reserved": 0, "is_disabled": 0, "rental_uris": {"android": "https://dc.lft.to/lastmile_qr_scan", "ios": "https://dc.lft.to/lastmile_qr_scan"}, "name": "7c4dd00110c88d1afe435d93884b44a7", "type": "electric_scooter"}, {"fusion_lat": 0.0, "bike_id": "80246adc04d556ebf04f7239aa219034", "fusion_lon": 0.0, "lon": -77.03517533333333, "lat": 38.92196416666667, "is_reserved": 0, "is_disabled": 0, "rental_uris": {"android": "https://dc.lft.to/lastmile_qr_scan", "ios": "https://dc.lft.to/lastmile_qr_scan"}, "name": "80246adc04d556ebf04f7239aa219034", "type": "electric_scooter"}, {"fusion_lat": 0.0, "bike_id": "2d9ccdc3a45bca48b1b2d3f0ed3b993a", "fusion_lon": 0.0, "lon": -77.03665716666667, "lat": 38.93338833333333, "is_reserved": 0, "is_disabled": 0, "rental_uris": {"android": "https://dc.lft.to/lastmile_qr_scan", "ios": "https://dc.lft.to/lastmile_qr_scan"}, "name": "2d9ccdc3a45bca48b1b2d3f0ed3b993a", "type": "electric_scooter"}, {"fusion_lat": 0.0, "bike_id": "41c94e8a4a3f5c6533642ade00343da8", "fusion_lon": 0.0, "lon": -76.981081, "lat": 38.877289166666664, "is_reserved": 0, "is_disabled": 0, "rental_uris": {"android": "https://dc.lft.to/lastmile_qr_scan", "ios": "https://dc.lft.to/lastmile_qr_scan"}, "name": "41c94e8a4a3f5c6533642ade00343da8", "type": "electric_bike"}, {"fusion_lat": 0.0, "bike_id": "5e08a0dad77335563d69e6815d3c200a", "fusion_lon": 0.0, "lon": -77.02098666666667, "lat": 38.911285, "is_reserved": 0, "is_disabled": 0, "rental_uris": {"android": "https://dc.lft.to/lastmile_qr_scan", "ios": "https://dc.lft.to/lastmile_qr_scan"}, "name": "5e08a0dad77335563d69e6815d3c200a", "type": "electric_scooter"}, {"fusion_lat": 0.0, "bike_id": "812e27ccb12ca02dcf9f7bc614daefd8", "fusion_lon": 0.0, "lon": -77.0312315, "lat": 38.8973335, "is_reserved": 0, "is_disabled": 0, "rental_uris": {"android": "https://dc.lft.to/lastmile_qr_scan", "ios": "https://dc.lft.to/lastmile_qr_scan"}, "name": "812e27ccb12ca02dcf9f7bc614daefd8", "type": "electric_scooter"}, {"fusion_lat": 0.0, "bike_id": "f42dec36b36b97b1facea3a93255023a", "fusion_lon": 0.0, "lon": -76.99926533333333, "lat": 38.889716666666665, "is_reserved": 0, "is_disabled": 0, "rental_uris": {"android": "https://dc.lft.to/lastmile_qr_scan", "ios": "https://dc.lft.to/lastmile_qr_scan"}, "name": "f42dec36b36b97b1facea3a93255023a", "type": "electric_scooter"}, {"fusion_lat": 0.0, "bike_id": "e4d4729f152c02663dfebdeeb1fb1f55", "fusion_lon": 0.0, "lon": -77.02154016666667, "lat": 38.9233675, "is_reserved": 0, "is_disabled": 0, "rental_uris": {"android": "https://dc.lft.to/lastmile_qr_scan", "ios": "https://dc.lft.to/lastmile_qr_scan"}, "name": "e4d4729f152c02663dfebdeeb1fb1f55", "type": "electric_scooter"}, {"fusion_lat": 0.0, "bike_id": "5a9ae28964a34b653510a499b6cb9efe", "fusion_lon": 0.0, "lon": -77.0277505, "lat": 38.891977833333335, "is_reserved": 0, "is_disabled": 0, "rental_uris": {"android": "https://dc.lft.to/lastmile_qr_scan", "ios": "https://dc.lft.to/lastmile_qr_scan"}, "name": "5a9ae28964a34b653510a499b6cb9efe", "type": "electric_scooter"}, {"fusion_lat": 0.0, "bike_id": "7b8bec7eadfef32288b3dbb31f37db70", "fusion_lon": 0.0, "lon": -77.0096135, "lat": 38.92133483333333, "is_reserved": 0, "is_disabled": 0, "rental_uris": {"android": "https://dc.lft.to/lastmile_qr_scan", "ios": "https://dc.lft.to/lastmile_qr_scan"}, "name": "7b8bec7eadfef32288b3dbb31f37db70", "type": "electric_scooter"}, {"fusion_lat": 0.0, "bike_id": "ba1cb9f39c5938435750f1a8b68c1f51", "fusion_lon": 0.0, "lon": -77.04001616666666, "lat": 38.9342235, "is_reserved": 0, "is_disabled": 0, "rental_uris": {"android": "https://dc.lft.to/lastmile_qr_scan", "ios": "https://dc.lft.to/lastmile_qr_scan"}, "name": "ba1cb9f39c5938435750f1a8b68c1f51", "type": "electric_scooter"}, {"fusion_lat": 0.0, "bike_id": "1f899a7b1e4d19dc5cee7cce14d9786a", "fusion_lon": 0.0, "lon": -77.00066866666667, "lat": 38.8867455, "is_reserved": 0, "is_disabled": 0, "rental_uris": {"android": "https://dc.lft.to/lastmile_qr_scan", "ios": "https://dc.lft.to/lastmile_qr_scan"}, "name": "1f899a7b1e4d19dc5cee7cce14d9786a", "type": "electric_scooter"}, {"fusion_lat": 0.0, "bike_id": "1afd542494fd17d28df5b63410d9cc02", "fusion_lon": 0.0, "lon": -77.03212616666667, "lat": 38.89524083333333, "is_reserved": 0, "is_disabled": 0, "rental_uris": {"android": "https://dc.lft.to/lastmile_qr_scan", "ios": "https://dc.lft.to/lastmile_qr_scan"}, "name": "1afd542494fd17d28df5b63410d9cc02", "type": "electric_scooter"}, {"fusion_lat": 0.0, "bike_id": "308dfd8eb640bf7b270a4e4bb7acc257", "fusion_lon": 0.0, "lon": -77.03290233333334, "lat": 38.93415516666666, "is_reserved": 0, "is_disabled": 0, "rental_uris": {"android": "https://dc.lft.to/lastmile_qr_scan", "ios": "https://dc.lft.to/lastmile_qr_scan"}, "name": "308dfd8eb640bf7b270a4e4bb7acc257", "type": "electric_scooter"}, {"fusion_lat": 0.0, "bike_id": "a4b111b1247b262995dfcb24a7661d9b", "fusion_lon": 0.0, "lon": -77.05241916666667, "lat": 38.925476833333335, "is_reserved": 0, "is_disabled": 0, "rental_uris": {"android": "https://dc.lft.to/lastmile_qr_scan", "ios": "https://dc.lft.to/lastmile_qr_scan"}, "name": "a4b111b1247b262995dfcb24a7661d9b", "type": "electric_scooter"}, {"fusion_lat": 0.0, "bike_id": "23a178097a78833dbdc2e278af1e5d53", "fusion_lon": 0.0, "lon": -77.0150615, "lat": 38.905716166666664, "is_reserved": 0, "is_disabled": 0, "rental_uris": {"android": "https://dc.lft.to/lastmile_qr_scan", "ios": "https://dc.lft.to/lastmile_qr_scan"}, "name": "23a178097a78833dbdc2e278af1e5d53", "type": "electric_scooter"}, {"fusion_lat": 0.0, "bike_id": "0672345588456d9d18ab23de196738f8", "fusion_lon": 0.0, "lon": -77.01504766666666, "lat": 38.889295833333335, "is_reserved": 0, "is_disabled": 0, "rental_uris": {"android": "https://dc.lft.to/lastmile_qr_scan", "ios": "https://dc.lft.to/lastmile_qr_scan"}, "name": "0672345588456d9d18ab23de196738f8", "type": "electric_scooter"}, {"fusion_lat": 0.0, "bike_id": "b2bcd3e2bc52e89f3e3264d102035e47", "fusion_lon": 0.0, "lon": -77.0500595, "lat": 38.891935, "is_reserved": 0, "is_disabled": 0, "rental_uris": {"android": "https://dc.lft.to/lastmile_qr_scan", "ios": "https://dc.lft.to/lastmile_qr_scan"}, "name": "b2bcd3e2bc52e89f3e3264d102035e47", "type": "electric_scooter"}, {"fusion_lat": 0.0, "bike_id": "444d9ce4cdac1d3b10fff7cddae38150", "fusion_lon": 0.0, "lon": -77.0037015, "lat": 38.90737516666667, "is_reserved": 0, "is_disabled": 0, "rental_uris": {"android": "https://dc.lft.to/lastmile_qr_scan", "ios": "https://dc.lft.to/lastmile_qr_scan"}, "name": "444d9ce4cdac1d3b10fff7cddae38150", "type": "electric_scooter"}, {"fusion_lat": 0.0, "bike_id": "92329d6956ec29cb562353803b908c29", "fusion_lon": 0.0, "lon": -76.94625083333334, "lat": 38.832295, "is_reserved": 0, "is_disabled": 0, "rental_uris": {"android": "https://dc.lft.to/lastmile_qr_scan", "ios": "https://dc.lft.to/lastmile_qr_scan"}, "name": "92329d6956ec29cb562353803b908c29", "type": "electric_bike"}, {"fusion_lat": 0.0, "bike_id": "c68c1aa2973a760605e52aaddd38a489", "fusion_lon": 0.0, "lon": -77.03546666666666, "lat": 38.90363633333333, "is_reserved": 0, "is_disabled": 0, "rental_uris": {"android": "https://dc.lft.to/lastmile_qr_scan", "ios": "https://dc.lft.to/lastmile_qr_scan"}, "name": "c68c1aa2973a760605e52aaddd38a489", "type": "electric_scooter"}, {"fusion_lat": 0.0, "bike_id": "3061841e29ab2ec816e81392c006a96d", "fusion_lon": 0.0, "lon": -77.02947433333334, "lat": 38.8965545, "is_reserved": 0, "is_disabled": 0, "rental_uris": {"android": "https://dc.lft.to/lastmile_qr_scan", "ios": "https://dc.lft.to/lastmile_qr_scan"}, "name": "3061841e29ab2ec816e81392c006a96d", "type": "electric_scooter"}, {"fusion_lat": 0.0, "bike_id": "968a3f939dce290da23f4a7001451025", "fusion_lon": 0.0, "lon": -77.03449583333334, "lat": 38.907337, "is_reserved": 0, "is_disabled": 0, "rental_uris": {"android": "https://dc.lft.to/lastmile_qr_scan", "ios": "https://dc.lft.to/lastmile_qr_scan"}, "name": "968a3f939dce290da23f4a7001451025", "type": "electric_scooter"}, {"fusion_lat": 0.0, "bike_id": "227747b660cada77d40334a2020a3c08", "fusion_lon": 0.0, "lon": -77.036337, "lat": 38.91553533333333, "is_reserved": 0, "is_disabled": 0, "rental_uris": {"android": "https://dc.lft.to/lastmile_qr_scan", "ios": "https://dc.lft.to/lastmile_qr_scan"}, "name": "227747b660cada77d40334a2020a3c08", "type": "electric_scooter"}, {"fusion_lat": 0.0, "bike_id": "71ad871da9172baf8d5815bdfca8aae2", "fusion_lon": 0.0, "lon": -77.0199915, "lat": 38.911558666666664, "is_reserved": 0, "is_disabled": 0, "rental_uris": {"android": "https://dc.lft.to/lastmile_qr_scan", "ios": "https://dc.lft.to/lastmile_qr_scan"}, "name": "71ad871da9172baf8d5815bdfca8aae2", "type": "electric_scooter"}, {"fusion_lat": 0.0, "bike_id": "e07c3ad220e0c70ba2b9eea84cadc435", "fusion_lon": 0.0, "lon": -77.06103733333333, "lat": 38.9051115, "is_reserved": 0, "is_disabled": 0, "rental_uris": {"android": "https://dc.lft.to/lastmile_qr_scan", "ios": "https://dc.lft.to/lastmile_qr_scan"}, "name": "e07c3ad220e0c70ba2b9eea84cadc435", "type": "electric_scooter"}, {"fusion_lat": 0.0, "bike_id": "f2a00e8199ad52202a740be50d64942b", "fusion_lon": 0.0, "lon": -76.932855, "lat": 38.95423566666667, "is_reserved": 0, "is_disabled": 0, "rental_uris": {"android": "https://dc.lft.to/lastmile_qr_scan", "ios": "https://dc.lft.to/lastmile_qr_scan"}, "name": "f2a00e8199ad52202a740be50d64942b", "type": "electric_bike"}, {"fusion_lat": 0.0, "bike_id": "820f8763396b09b2d66ca247706cd5dc", "fusion_lon": 0.0, "lon": -77.06201466666667, "lat": 38.944445333333334, "is_reserved": 0, "is_disabled": 0, "rental_uris": {"android": "https://dc.lft.to/lastmile_qr_scan", "ios": "https://dc.lft.to/lastmile_qr_scan"}, "name": "820f8763396b09b2d66ca247706cd5dc", "type": "electric_scooter"}, {"fusion_lat": 0.0, "bike_id": "7a1fedcdf33d81c2371f7ad3a0d56862", "fusion_lon": 0.0, "lon": -77.02829783333334, "lat": 38.922331666666665, "is_reserved": 0, "is_disabled": 0, "rental_uris": {"android": "https://dc.lft.to/lastmile_qr_scan", "ios": "https://dc.lft.to/lastmile_qr_scan"}, "name": "7a1fedcdf33d81c2371f7ad3a0d56862", "type": "electric_scooter"}, {"fusion_lat": 0.0, "bike_id": "50475fafd5a4b884620bb76f8e46d2ca", "fusion_lon": 0.0, "lon": -77.03183383333334, "lat": 38.8922775, "is_reserved": 0, "is_disabled": 0, "rental_uris": {"android": "https://dc.lft.to/lastmile_qr_scan", "ios": "https://dc.lft.to/lastmile_qr_scan"}, "name": "50475fafd5a4b884620bb76f8e46d2ca", "type": "electric_scooter"}, {"fusion_lat": 0.0, "bike_id": "67fe35786923c2a465899bfad4620a1e", "fusion_lon": 0.0, "lon": -77.001332, "lat": 38.87815066666667, "is_reserved": 0, "is_disabled": 0, "rental_uris": {"android": "https://dc.lft.to/lastmile_qr_scan", "ios": "https://dc.lft.to/lastmile_qr_scan"}, "name": "67fe35786923c2a465899bfad4620a1e", "type": "electric_scooter"}, {"fusion_lat": 0.0, "bike_id": "652da99b65765ae8d80aeab7faa6862d", "fusion_lon": 0.0, "lon": -77.01679233333333, "lat": 38.877079333333334, "is_reserved": 0, "is_disabled": 0, "rental_uris": {"android": "https://dc.lft.to/lastmile_qr_scan", "ios": "https://dc.lft.to/lastmile_qr_scan"}, "name": "652da99b65765ae8d80aeab7faa6862d", "type": "electric_scooter"}, {"fusion_lat": 0.0, "bike_id": "bb1152b92b6e9bc384186f1d88ad9041", "fusion_lon": 0.0, "lon": -77.18566033333333, "lat": 39.099725666666664, "is_reserved": 0, "is_disabled": 0, "rental_uris": {"android": "https://dc.lft.to/lastmile_qr_scan", "ios": "https://dc.lft.to/lastmile_qr_scan"}, "name": "bb1152b92b6e9bc384186f1d88ad9041", "type": "electric_bike"}, {"fusion_lat": 0.0, "bike_id": "e678bd13d5ae909e5ac106655e1650e0", "fusion_lon": 0.0, "lon": -77.02089016666666, "lat": 38.92157683333333, "is_reserved": 0, "is_disabled": 0, "rental_uris": {"android": "https://dc.lft.to/lastmile_qr_scan", "ios": "https://dc.lft.to/lastmile_qr_scan"}, "name": "e678bd13d5ae909e5ac106655e1650e0", "type": "electric_scooter"}, {"fusion_lat": 0.0, "bike_id": "a0884e34987d33141a08b77bc51fb901", "fusion_lon": 0.0, "lon": -77.04127766666667, "lat": 38.927173333333336, "is_reserved": 0, "is_disabled": 0, "rental_uris": {"android": "https://dc.lft.to/lastmile_qr_scan", "ios": "https://dc.lft.to/lastmile_qr_scan"}, "name": "a0884e34987d33141a08b77bc51fb901", "type": "electric_scooter"}, {"fusion_lat": 0.0, "bike_id": "5a8a8b74f84cdbb3500978b5ca6855d6", "fusion_lon": 0.0, "lon": -77.02203133333333, "lat": 38.911237, "is_reserved": 0, "is_disabled": 0, "rental_uris": {"android": "https://dc.lft.to/lastmile_qr_scan", "ios": "https://dc.lft.to/lastmile_qr_scan"}, "name": "5a8a8b74f84cdbb3500978b5ca6855d6", "type": "electric_scooter"}, {"fusion_lat": 0.0, "bike_id": "145240dde6b3b67b564361e222328246", "fusion_lon": 0.0, "lon": -76.97753966666667, "lat": 38.86484866666667, "is_reserved": 0, "is_disabled": 0, "rental_uris": {"android": "https://dc.lft.to/lastmile_qr_scan", "ios": "https://dc.lft.to/lastmile_qr_scan"}, "name": "145240dde6b3b67b564361e222328246", "type": "electric_bike"}, {"fusion_lat": 0.0, "bike_id": "963a378cc5d8f5e1f667e251d8cc88f2", "fusion_lon": 0.0, "lon": -76.99934666666667, "lat": 38.84310516666667, "is_reserved": 0, "is_disabled": 0, "rental_uris": {"android": "https://dc.lft.to/lastmile_qr_scan", "ios": "https://dc.lft.to/lastmile_qr_scan"}, "name": "963a378cc5d8f5e1f667e251d8cc88f2", "type": "electric_scooter"}, {"fusion_lat": 0.0, "bike_id": "fb1e70725f648c5aaf509dd8822e14df", "fusion_lon": 0.0, "lon": -77.05710183333333, "lat": 38.92604466666667, "is_reserved": 0, "is_disabled": 0, "rental_uris": {"android": "https://dc.lft.to/lastmile_qr_scan", "ios": "https://dc.lft.to/lastmile_qr_scan"}, "name": "fb1e70725f648c5aaf509dd8822e14df", "type": "electric_bike"}, {"fusion_lat": 0.0, "bike_id": "0f860bc736484d29ad4cf265ed080142", "fusion_lon": 0.0, "lon": -77.03543216666667, "lat": 38.92585866666667, "is_reserved": 0, "is_disabled": 0, "rental_uris": {"android": "https://dc.lft.to/lastmile_qr_scan", "ios": "https://dc.lft.to/lastmile_qr_scan"}, "name": "0f860bc736484d29ad4cf265ed080142", "type": "electric_scooter"}, {"fusion_lat": 0.0, "bike_id": "fb7665877d1773460f7ac8199b956710", "fusion_lon": 0.0, "lon": -77.04359233333334, "lat": 39.0153935, "is_reserved": 0, "is_disabled": 0, "rental_uris": {"android": "https://dc.lft.to/lastmile_qr_scan", "ios": "https://dc.lft.to/lastmile_qr_scan"}, "name": "fb7665877d1773460f7ac8199b956710", "type": "electric_bike"}, {"fusion_lat": 0.0, "bike_id": "b3e38a740df3d0e3c6216742dafefc5a", "fusion_lon": 0.0, "lon": -77.038482, "lat": 38.912145333333335, "is_reserved": 0, "is_disabled": 0, "rental_uris": {"android": "https://dc.lft.to/lastmile_qr_scan", "ios": "https://dc.lft.to/lastmile_qr_scan"}, "name": "b3e38a740df3d0e3c6216742dafefc5a", "type": "electric_scooter"}, {"fusion_lat": 0.0, "bike_id": "799de6e8b94fbe6c0b9d70601462a936", "fusion_lon": 0.0, "lon": -77.04873766666667, "lat": 38.892297166666665, "is_reserved": 0, "is_disabled": 0, "rental_uris": {"android": "https://dc.lft.to/lastmile_qr_scan", "ios": "https://dc.lft.to/lastmile_qr_scan"}, "name": "799de6e8b94fbe6c0b9d70601462a936", "type": "electric_scooter"}, {"fusion_lat": 0.0, "bike_id": "ec43c6c3f93dc2bae1836913d9cc3b70", "fusion_lon": 0.0, "lon": -76.94888133333333, "lat": 38.89505966666667, "is_reserved": 0, "is_disabled": 0, "rental_uris": {"android": "https://dc.lft.to/lastmile_qr_scan", "ios": "https://dc.lft.to/lastmile_qr_scan"}, "name": "ec43c6c3f93dc2bae1836913d9cc3b70", "type": "electric_scooter"}, {"fusion_lat": 0.0, "bike_id": "d3ab1a91643d56d1fbc89850e1b54fe2", "fusion_lon": 0.0, "lon": -77.06163566666666, "lat": 38.912985, "is_reserved": 0, "is_disabled": 0, "rental_uris": {"android": "https://dc.lft.to/lastmile_qr_scan", "ios": "https://dc.lft.to/lastmile_qr_scan"}, "name": "d3ab1a91643d56d1fbc89850e1b54fe2", "type": "electric_scooter"}, {"fusion_lat": 0.0, "bike_id": "fd0184cc059a84e872654311e7ca4ad4", "fusion_lon": 0.0, "lon": -77.031329, "lat": 38.91547833333333, "is_reserved": 0, "is_disabled": 0, "rental_uris": {"android": "https://dc.lft.to/lastmile_qr_scan", "ios": "https://dc.lft.to/lastmile_qr_scan"}, "name": "fd0184cc059a84e872654311e7ca4ad4", "type": "electric_scooter"}, {"fusion_lat": 0.0, "bike_id": "6b568a999d3372068ce0d44beeec25f7", "fusion_lon": 0.0, "lon": -77.11156533333333, "lat": 38.855045, "is_reserved": 0, "is_disabled": 0, "rental_uris": {"android": "https://dc.lft.to/lastmile_qr_scan", "ios": "https://dc.lft.to/lastmile_qr_scan"}, "name": "6b568a999d3372068ce0d44beeec25f7", "type": "electric_bike"},